{"last_updated":1745917912,"ttl":60,"version":"2.2","data":{"bikes":[{"bike_id":"9d980762-b384-431d-a51a-062108ce9381","system_id":"levelo_inurba_marseille","lat":43.25922,"lon":5.40897,"is_reserved":false,"is_disabled":false,"rental_uris":{"android":"levelo://app?vid=9d980762-b384-431d-a51a-062108ce9381","ios":"levelo://app?vid=9d980762-b384-431d-a51a-062108ce9381"},"vehicle_type_id":"4","last_reported":1745917912,"current_range_meters":2800,"station_id":"ce4bhm92rcd13ifvqglg","pricing_plan_id":"cebpf4jnsgd1na2vs0mg"},{"bike_id":"61edb407-b342-4ed6-b809-e71f0da2e1f7","system_id":"levelo_inurba_marseille","lat":43.29525,"lon":5.37512,"is_reserved":false,"is_disabled":false,"rental_uris":{"android":"levelo://app?vid=61edb407-b342-4ed6-b809-e71f0da2e1f7","ios":"levelo://app?vid=61edb407-b342-4ed6-b809-e71f0da2e1f7"},"vehicle_type_id":"4","last_reported":1745917912,"current_range_meters":5600,"station_id":"ce4bgkp2rcd13ifvqbmg","pricing_plan_id":"cebpf4jnsgd1na2vs0mg"},{"bike_id":"837d60cf-8c6d-47bf-ab4c-c0b7a31e11c6","system_id":"levelo_inurba_marseille","lat":43.303372,"lon":5.396826,"is_reserved":false,"is_disabled":false,"rental_uris":{"android":"levelo://app?vid=837d60cf-8c6d-47bf-ab4c-c0b7a31e11c6","ios":"levelo://app?vid=837d60cf-8c6d-47bf-ab4c-c0b7a31e11c6"},"vehicle_type_id":"4","last_reported":1745917912,"current_range_meters":4000,"station_id":"","pricing_plan_id":"cebpf4jnsgd1na2vs0mg"},{"bike_id":"7a9bbc58-8ae1-40f8-91b9-e41a349f1ca1","system_id":"levelo_inurba_marseille","lat":43.23075,"lon":5.3549,"is_reserved":false,"is_disabled":false,"rental_uris":{"android":"levelo://app?vid=7a9bbc58-8ae1-40f8-91b9-e41a349f1ca1","ios":"levelo://app?vid=7a9bbc58-8ae1-40f8-91b9-e41a349f1ca1"},"vehicle_type_id":"4","last_reported":1745917912,"current_range_meters":4400,"station_id":"cpo3342slgdg3j2ifvpg","pricing_plan_id":"cebpf4jnsgd1na2vs0mg"},{"bike_id":"9f3727a4-65e1-4500-a436-10e0621cddaf","system_id":"levelo_inurba_marseille","lat":43.28153,"lon":5.42641,"is_reserved":false,"is_disabled":false,"rental_uris":{"android":"levelo://app?vid=9f3727a4-65e1-4500-a436-10e0621cddaf","ios":"levelo://app?vid=9f3727a4-65e1-4500-a436-10e0621cddaf"},"vehicle_type_id":"4","last_reported":1745917912,"current_range_meters":4000,"station_id":"ce4bhnh2rcd13ifvqgug","pricing_plan_id":"cebpf4jnsgd1na2vs0mg"},{"bike_id":"a4c8a335-745b-4d95-97e0-7bac3cb18549","system_id":"levelo_inurba_marseille","lat":43.2813,"lon":5.3984,"is_reserved":false,"is_disabled":false,"rental_uris":{"android":"levelo://app?vid=a4c8a335-745b-4d95-97e0-7bac3cb18549","ios":"levelo://app?vid=a4c8a335-745b-4d95-97e0-7bac3cb18549"},"vehicle_type_id":"4","last_reported":1745917912,"current_range_meters":4400,"station_id":"","pricing_plan_id":"cebpf4jnsgd1na2vs0mg"},{"bike_id":"3525a5f7-8342-49bd-8112-c8631f4c6dc0","system_id":"levelo_inurba_marseille","lat":43.296263,"lon":5.377969,"is_reserved":false,"is_disabled":false,"rental_uris":{"android":"levelo://app?vid=3525a5f7-8342-49bd-8112-c8631f4c6dc0","ios":"levelo://app?vid=3525a5f7-8342-49bd-8112-c8631f4c6dc0"},"vehicle_type_id":"4","last_reported":1745917912,"current_range_meters":4000,"station_id":"ce4bh292rcd13ifvqdg0","pricing_plan_id":"cebpf4jnsgd1na2vs0mg"},{"bike_id":"6ba5f6b0-be13-48ce-9b7b-ab69ca4dda1a","system_id":"levelo_inurba_marseille","lat":43.274911,"lon":5.424529,"is_reserved":false,"is_disabled":false,"rental_uris":{"android":"levelo://app?vid=6ba5f6b0-be13-48ce-9b7b-ab69ca4dda1a","ios":"levelo://app?vid=6ba5f6b0-be13-48ce-9b7b-ab69ca4dda1a"},"vehicle_type_id":"4","last_reported":1745917912,"current_range_meters":4800,"station_id":"ce4bhn92rcd13ifvqgrg","pricing_plan_id":"cebpf4jnsgd1na2vs0mg"},{"bike_id":"d8a9dba7-97ea-4b59-bad8-60c9431e5a87","system_id":"levelo_inurba_marseille","lat":43.30539,"lon":5.38423,"is_reserved":false,"is_disabled":true,"rental_uris":{"android":"levelo://app?vid=d8a9dba7-97ea-4b59-bad8-60c9431e5a87","ios":"levelo://app?vid=d8a9dba7-97ea-4b59-bad8-60c9431e5a87"},"vehicle_type_id":"4","last_reported":1745917912,"current_range_meters":6000,"station_id":"ce4bgg92rcd13ifvqb30","pricing_plan_id":"cebpf4jnsgd1na2vs0mg"},{"bike_id":"e5bf4e6f-64dd-4646-a14f-4df4e150a6e9","system_id":"levelo_inurba_marseille","lat":43.29411,"lon":5.38626,"is_reserved":false,"is_disabled":false,"rental_uris":{"android":"levelo://app?vid=e5bf4e6f-64dd-4646-a14f-4df4e150a6e9","ios":"levelo://app?vid=e5bf4e6f-64dd-4646-a14f-4df4e150a6e9"},"vehicle_type_id":"4","last_reported":1745917912,"current_range_meters":800,"station_id":"ce4bh2h2rcd13ifvqdh0","pricing_plan_id":"cebpf4jnsgd1na2vs0mg"},{"bike_id":"c47eea7c-4eb5-4904-b0e3-3f877bd9bd8a","system_id":"levelo_inurba_marseille","lat":43.29263,"lon":5.37619,"is_reserved":false,"is_disabled":false,"rental_uris":{"android":"levelo://app?vid=c47eea7c-4eb5-4904-b0e3-3f877bd9bd8a","ios":"levelo://app?vid=c47eea7c-4eb5-4904-b0e3-3f877bd9bd8a"},"vehicle_type_id":"4","last_reported":1745917912,"current_range_meters":6000,"station_id":"ce4bgi12rcd13ifvqb80","pricing_plan_id":"cebpf4jnsgd1na2vs0mg"},{"bike_id":"ef56ba6c-fcdb-4aaf-82b0-1a42ab3b838f","system_id":"levelo_inurba_marseille","lat":43.27357,"lon":5.42401,"is_reserved":false,"is_disabled":false,"rental_uris":{"android":"levelo://app?vid=ef56ba6c-fcdb-4aaf-82b0-1a42ab3b838f","ios":"levelo://app?vid=ef56ba6c-fcdb-4aaf-82b0-1a42ab3b838f"},"vehicle_type_id":"4","last_reported":1745917912,"current_range_meters":6400,"station_id":"","pricing_plan_id":"cebpf4jnsgd1na2vs0mg"},{"bike_id":"823a57dd-2179-498d-94b0-85f773446c0a","system_id":"levelo_inurba_marseille","lat":43.33594,"lon":5.41005,"is_reserved":false,"is_disabled":false,"rental_uris":{"android":"levelo://app?vid=823a57dd-2179-498d-94b0-85f773446c0a","ios":"levelo://app?vid=823a57dd-2179-498d-94b0-85f773446c0a"},"vehicle_type_id":"4","last_reported":1745917912,"current_range_meters":6400,"station_id":"ce4bhqh2rcd13ifvqhmg","pricing_plan_id":"cebpf4jnsgd1na2vs0mg"},{"bike_id":"26deac1f-c435-40bc-9469-9ae0b266bb77","system_id":"levelo_inurba_marseille","lat":43.3021,"lon":5.38452,"is_reserved":false,"is_disabled":false,"rental_uris":{"android":"levelo://app?vid=26deac1f-c435-40bc-9469-9ae0b266bb77","ios":"levelo://app?vid=26deac1f-c435-40bc-9469-9ae0b266bb77"},"vehicle_type_id":"4","last_reported":1745917912,"current_range_meters":6400,"station_id":"","pricing_plan_id":"cebpf4jnsgd1na2vs0mg"},{"bike_id":"f4e4ca09-da66-4731-b5db-e368415f9731","system_id":"levelo_inurba_marseille","lat":43.27161,"lon":5.42208,"is_reserved":false,"is_disabled":false,"rental_uris":{"android":"levelo://app?vid=f4e4ca09-da66-4731-b5db-e368415f9731","ios":"levelo://app?vid=f4e4ca09-da66-4731-b5db-e368415f9731"},"vehicle_type_id":"4","last_reported":1745917912,"current_range_meters":6800,"station_id":"","pricing_plan_id":"cebpf4jnsgd1na2vs0mg"},{"bike_id":"390b51d5-608c-461b-a528-3f3442498d7c","system_id":"levelo_inurba_marseille","lat":43.21753,"lon":5.34605,"is_reserved":false,"is_disabled":false,"rental_uris":{"android":"levelo://app?vid=390b51d5-608c-461b-a528-3f3442498d7c","ios":"levelo://app?vid=390b51d5-608c-461b-a528-3f3442498d7c"},"vehicle_type_id":"4","last_reported":1745917912,"current_range_meters":6800,"station_id":"st_cvj6r9ubvosntc0bgbag","pricing_plan_id":"cebpf4jnsgd1na2vs0mg"},{"bike_id":"9a90e093-ee00-45be-9fc3-fb97a7c27b5d","system_id":"levelo_inurba_marseille","lat":43.28952,"lon":5.36392,"is_reserved":false,"is_disabled":true,"rental_uris":{"android":"levelo://app?vid=9a90e093-ee00-45be-9fc3-fb97a7c27b5d","ios":"levelo://app?vid=9a90e093-ee00-45be-9fc3-fb97a7c27b5d"},"vehicle_type_id":"4","last_reported":1745917912,"current_range_meters":6800,"station_id":"ce4bhc92rcd13ifvqetg","pricing_plan_id":"cebpf4jnsgd1na2vs0mg"},{"bike_id":"70f751ea-4f3d-4f66-9157-fe2736e5479a","system_id":"levelo_inurba_marseille","lat":43.23176,"lon":5.3999,"is_reserved":false,"is_disabled":false,"rental_uris":{"android":"levelo://app?vid=70f751ea-4f3d-4f66-9157-fe2736e5479a","ios":"levelo://app?vid=70f751ea-4f3d-4f66-9157-fe2736e5479a"},"vehicle_type_id":"4","last_reported":1745917912,"current_range_meters":6800,"station_id":"ce4bhn12rcd13ifvqgqg","pricing_plan_id":"cebpf4jnsgd1na2vs0mg"},{"bike_id":"a927ad15-b129-4085-9072-8cc54f2c8cf2","system_id":"levelo_inurba_marseille","lat":43.32099,"lon":5.36781,"is_reserved":false,"is_disabled":false,"rental_uris":{"android":"levelo://app?vid=a927ad15-b129-4085-9072-8cc54f2c8cf2","ios":"levelo://app?vid=a927ad15-b129-4085-9072-8cc54f2c8cf2"},"vehicle_type_id":"4","last_reported":1745917912,"current_range_meters":6800,"station_id":"ce4bhrh2rcd13ifvqhug","pricing_plan_id":"cebpf4jnsgd1na2vs0mg"},{"bike_id":"af4f0c69-e62d-4155-b1d1-a67b45271ae1","system_id":"levelo_inurba_marseille","lat":43.24738,"lon":5.41156,"is_reserved":false,"is_disabled":false,"rental_uris":{"android":"levelo://app?vid=af4f0c69-e62d-4155-b1d1-a67b45271ae1","ios":"levelo://app?vid=af4f0c69-e62d-4155-b1d1-a67b45271ae1"},"vehicle_type_id":"4","last_reported":1745917912,"current_range_meters":7200,"station_id":"","pricing_plan_id":"cebpf4jnsgd1na2vs0mg"},{"bike_id":"00fb6bba-e05f-4ca6-8b16-4c9f74ba71f0","system_id":"levelo_inurba_marseille","lat":43.25917,"lon":5.40901,"is_reserved":false,"is_disabled":false,"rental_uris":{"android":"levelo://app?vid=00fb6bba-e05f-4ca6-8b16-4c9f74ba71f0","ios":"levelo://app?vid=00fb6bba-e05f-4ca6-8b16-4c9f74ba71f0"},"vehicle_type_id":"4","last_reported":1745917912,"current_range_meters":7200,"station_id":"ce4bhm92rcd13ifvqglg","pricing_plan_id":"cebpf4jnsgd1na2vs0mg"},{"bike_id":"21cfafc3-2469-4529-8296-2c44314c92c7","system_id":"levelo_inurba_marseille","lat":43.29261,"lon":5.40918,"is_reserved":false,"is_disabled":true,"rental_uris":{"android":"levelo://app?vid=21cfafc3-2469-4529-8296-2c44314c92c7","ios":"levelo://app?vid=21cfafc3-2469-4529-8296-2c44314c92c7"},"vehicle_type_id":"4","last_reported":1745917912,"current_range_meters":8000,"station_id":"ce4bh192rcd13ifvqdc0","pricing_plan_id":"cebpf4jnsgd1na2vs0mg"},{"bike_id":"2cd63f69-39a5-4482-9303-94f55dbb11d6","system_id":"levelo_inurba_marseille","lat":43.27573,"lon":5.3843,"is_reserved":false,"is_disabled":false,"rental_uris":{"android":"levelo://app?vid=2cd63f69-39a5-4482-9303-94f55dbb11d6","ios":"levelo://app?vid=2cd63f69-39a5-4482-9303-94f55dbb11d6"},"vehicle_type_id":"4","last_reported":1745917912,"current_range_meters":8000,"station_id":"ce4bhh92rcd13ifvqfi0","pricing_plan_id":"cebpf4jnsgd1na2vs0mg"},{"bike_id":"545d6e85-7c4e-4a2d-9efc-c526155753e6","system_id":"levelo_inurba_marseille","lat":43.284119,"lon":5.349914,"is_reserved":false,"is_disabled":false,"rental_uris":{"android":"levelo://app?vid=545d6e85-7c4e-4a2d-9efc-c526155753e6","ios":"levelo://app?vid=545d6e85-7c4e-4a2d-9efc-c526155753e6"},"vehicle_type_id":"4","last_reported":1745917912,"current_range_meters":8000,"station_id":"ce4bh092rcd13ifvqd20","pricing_plan_id":"cebpf4jnsgd1na2vs0mg"},{"bike_id":"9dda9fe5-da05-46ee-89e4-e1bad558c9da","system_id":"levelo_inurba_marseille","lat":43.2176,"lon":5.34591,"is_reserved":false,"is_disabled":false,"rental_uris":{"android":"levelo://app?vid=9dda9fe5-da05-46ee-89e4-e1bad558c9da","ios":"levelo://app?vid=9dda9fe5-da05-46ee-89e4-e1bad558c9da"},"vehicle_type_id":"4","last_reported":1745917912,"current_range_meters":7200,"station_id":"st_cvj6r9ubvosntc0bgbag","pricing_plan_id":"cebpf4jnsgd1na2vs0mg"},{"bike_id":"afad027a-ff90-4e62-90de-68ee522f4585","system_id":"levelo_inurba_marseille","lat":43.27562,"lon":5.38428,"is_reserved":false,"is_disabled":false,"rental_uris":{"android":"levelo://app?vid=afad027a-ff90-4e62-90de-68ee522f4585","ios":"levelo://app?vid=afad027a-ff90-4e62-90de-68ee522f4585"},"vehicle_type_id":"4","last_reported":1745917912,"current_range_meters":8000,"station_id":"ce4bhh92rcd13ifvqfi0","pricing_plan_id":"cebpf4jnsgd1na2vs0mg"},{"bike_id":"1e42917d-a35a-4466-81c4-126f2bfce81a","system_id":"levelo_inurba_marseille","lat":43.27061,"lon":5.42281,"is_reserved":false,"is_disabled":false,"rental_uris":{"android":"levelo://app?vid=1e42917d-a35a-4466-81c4-126f2bfce81a","ios":"levelo://app?vid=1e42917d-a35a-4466-81c4-126f2bfce81a"},"vehicle_type_id":"4","last_reported":1745917912,"current_range_meters":8000,"station_id":"ce4bhk92rcd13ifvqgb0","pricing_plan_id":"cebpf4jnsgd1na2vs0mg"},{"bike_id":"11beab31-c7c5-4dd2-a927-f48a7ff7bce4","system_id":"levelo_inurba_marseille","lat":43.324849,"lon":5.365649,"is_reserved":false,"is_disabled":false,"rental_uris":{"android":"levelo://app?vid=11beab31-c7c5-4dd2-a927-f48a7ff7bce4","ios":"levelo://app?vid=11beab31-c7c5-4dd2-a927-f48a7ff7bce4"},"vehicle_type_id":"4","last_reported":1745917912,"current_range_meters":8400,"station_id":"ce4bhs12rcd13ifvqhvg","pricing_plan_id":"cebpf4jnsgd1na2vs0mg"},{"bike_id":"07f74c0d-1949-43c7-8515-ee1d6053d30a","system_id":"levelo_inurba_marseille","lat":43.29362,"lon":5.3784,"is_reserved":false,"is_disabled":false,"rental_uris":{"android":"levelo://app?vid=07f74c0d-1949-43c7-8515-ee1d6053d30a","ios":"levelo://app?vid=07f74c0d-1949-43c7-8515-ee1d6053d30a"},"vehicle_type_id":"4","last_reported":1745917912,"current_range_meters":8400,"station_id":"ce4bgjh2rcd13ifvqbf0","pricing_plan_id":"cebpf4jnsgd1na2vs0mg"},{"bike_id":"5a5ea5d1-31fc-4f78-8673-2aeeb021cac1","system_id":"levelo_inurba_marseille","lat":43.30148,"lon":5.381,"is_reserved":false,"is_disabled":false,"rental_uris":{"android":"levelo://app?vid=5a5ea5d1-31fc-4f78-8673-2aeeb021cac1","ios":"levelo://app?vid=5a5ea5d1-31fc-4f78-8673-2aeeb021cac1"},"vehicle_type_id":"4","last_reported":1745917912,"current_range_meters":8400,"station_id":"ce4bgjp2rcd13ifvqbh0","pricing_plan_id":"cebpf4jnsgd1na2vs0mg"},{"bike_id":"1f19ae80-a633-40e2-944b-c9ca822ccc97","system_id":"levelo_inurba_marseille","lat":43.3311,"lon":5.40743,"is_reserved":false,"is_disabled":false,"rental_uris":{"android":"levelo://app?vid=1f19ae80-a633-40e2-944b-c9ca822ccc97","ios":"levelo://app?vid=1f19ae80-a633-40e2-944b-c9ca822ccc97"},"vehicle_type_id":"4","last_reported":1745917912,"current_range_meters":8400,"station_id":"","pricing_plan_id":"cebpf4jnsgd1na2vs0mg"},{"bike_id":"aabbb3f1-129e-4bcd-b8ac-b9f5fc2d63ff","system_id":"levelo_inurba_marseille","lat":43.29841,"lon":5.3627,"is_reserved":false,"is_disabled":false,"rental_uris":{"android":"levelo://app?vid=aabbb3f1-129e-4bcd-b8ac-b9f5fc2d63ff","ios":"levelo://app?vid=aabbb3f1-129e-4bcd-b8ac-b9f5fc2d63ff"},"vehicle_type_id":"4","last_reported":1745917912,"current_range_meters":8400,"station_id":"ce4bgpp2rcd13ifvqc3g","pricing_plan_id":"cebpf4jnsgd1na2vs0mg"},{"bike_id":"ee6c05e5-1750-4b5f-bf66-0510125a0efc","system_id":"levelo_inurba_marseille","lat":43.286591,"lon":5.386603,"is_reserved":false,"is_disabled":true,"rental_uris":{"android":"levelo://app?vid=ee6c05e5-1750-4b5f-bf66-0510125a0efc","ios":"levelo://app?vid=ee6c05e5-1750-4b5f-bf66-0510125a0efc"},"vehicle_type_id":"4","last_reported":1745917912,"current_range_meters":8400,"station_id":"ce4bh492rcd13ifvqdug","pricing_plan_id":"cebpf4jnsgd1na2vs0mg"},{"bike_id":"f2027a5a-c144-42a5-bb93-1f86fc8e1ab7","system_id":"levelo_inurba_marseille","lat":43.29036,"lon":5.39966,"is_reserved":false,"is_disabled":false,"rental_uris":{"android":"levelo://app?vid=f2027a5a-c144-42a5-bb93-1f86fc8e1ab7","ios":"levelo://app?vid=f2027a5a-c144-42a5-bb93-1f86fc8e1ab7"},"vehicle_type_id":"4","last_reported":1745917912,"current_range_meters":8400,"station_id":"ce4bh392rcd13ifvqdm0","pricing_plan_id":"cebpf4jnsgd1na2vs0mg"},{"bike_id":"e5b4b90d-e268-4de2-98f4-f6d0513f8801","system_id":"levelo_inurba_marseille","lat":43.26547,"lon":5.42202,"is_reserved":false,"is_disabled":false,"rental_uris":{"android":"levelo://app?vid=e5b4b90d-e268-4de2-98f4-f6d0513f8801","ios":"levelo://app?vid=e5b4b90d-e268-4de2-98f4-f6d0513f8801"},"vehicle_type_id":"4","last_reported":1745917912,"current_range_meters":8800,"station_id":"","pricing_plan_id":"cebpf4jnsgd1na2vs0mg"},{"bike_id":"1c818d25-eb8c-4b21-82ea-ff704ef94a17","system_id":"levelo_inurba_marseille","lat":43.32062,"lon":5.41563,"is_reserved":false,"is_disabled":false,"rental_uris":{"android":"levelo://app?vid=1c818d25-eb8c-4b21-82ea-ff704ef94a17","ios":"levelo://app?vid=1c818d25-eb8c-4b21-82ea-ff704ef94a17"},"vehicle_type_id":"4","last_reported":1745917912,"current_range_meters":9200,"station_id":"ce4bhq92rcd13ifvqhkg","pricing_plan_id":"cebpf4jnsgd1na2vs0mg"},{"bike_id":"34e94f7a-6f7a-407f-88cc-2f5925963783","system_id":"levelo_inurba_marseille","lat":43.231523,"lon":5.43705,"is_reserved":false,"is_disabled":false,"rental_uris":{"android":"levelo://app?vid=34e94f7a-6f7a-407f-88cc-2f5925963783","ios":"levelo://app?vid=34e94f7a-6f7a-407f-88cc-2f5925963783"},"vehicle_type_id":"4","last_reported":1745917912,"current_range_meters":9200,"station_id":"ce4bhmp2rcd13ifvqgog","pricing_plan_id":"cebpf4jnsgd1na2vs0mg"},{"bike_id":"f8527f98-9dba-4767-9c49-2ee5632fd2af","system_id":"levelo_inurba_marseille","lat":43.278213,"lon":5.407126,"is_reserved":false,"is_disabled":false,"rental_uris":{"android":"levelo://app?vid=f8527f98-9dba-4767-9c49-2ee5632fd2af","ios":"levelo://app?vid=f8527f98-9dba-4767-9c49-2ee5632fd2af"},"vehicle_type_id":"4","last_reported":1745917912,"current_range_meters":9200,"station_id":"ce4bhnh2rcd13ifvqgtg","pricing_plan_id":"cebpf4jnsgd1na2vs0mg"},{"bike_id":"3566469e-5adf-4ae7-9fad-25ede3e08c1b","system_id":"levelo_inurba_marseille","lat":43.292557,"lon":5.384384,"is_reserved":false,"is_disabled":true,"rental_uris":{"android":"levelo://app?vid=3566469e-5adf-4ae7-9fad-25ede3e08c1b","ios":"levelo://app?vid=3566469e-5adf-4ae7-9fad-25ede3e08c1b"},"vehicle_type_id":"4","last_reported":1745917912,"current_range_meters":9200,"station_id":"ce4bh692rcd13ifvqea0","pricing_plan_id":"cebpf4jnsgd1na2vs0mg"},{"bike_id":"bc418db1-bf51-4970-9e9f-dbcc96075a03","system_id":"levelo_inurba_marseille","lat":43.23146,"lon":5.43713,"is_reserved":false,"is_disabled":false,"rental_uris":{"android":"levelo://app?vid=bc418db1-bf51-4970-9e9f-dbcc96075a03","ios":"levelo://app?vid=bc418db1-bf51-4970-9e9f-dbcc96075a03"},"vehicle_type_id":"4","last_reported":1745917912,"current_range_meters":9600,"station_id":"ce4bhmp2rcd13ifvqgog","pricing_plan_id":"cebpf4jnsgd1na2vs0mg"},{"bike_id":"af8c8c52-bc3a-4742-b1c2-30e550391e79","system_id":"levelo_inurba_marseille","lat":43.30532,"lon":5.36706,"is_reserved":false,"is_disabled":false,"rental_uris":{"android":"levelo://app?vid=af8c8c52-bc3a-4742-b1c2-30e550391e79","ios":"levelo://app?vid=af8c8c52-bc3a-4742-b1c2-30e550391e79"},"vehicle_type_id":"4","last_reported":1745917912,"current_range_meters":9600,"station_id":"ce4bgrp2rcd13ifvqc9g","pricing_plan_id":"cebpf4jnsgd1na2vs0mg"},{"bike_id":"4f33f1fd-20a3-4897-9777-19066388bb99","system_id":"levelo_inurba_marseille","lat":43.29908,"lon":5.38292,"is_reserved":false,"is_disabled":true,"rental_uris":{"android":"levelo://app?vid=4f33f1fd-20a3-4897-9777-19066388bb99","ios":"levelo://app?vid=4f33f1fd-20a3-4897-9777-19066388bb99"},"vehicle_type_id":"4","last_reported":1745917912,"current_range_meters":9600,"station_id":"","pricing_plan_id":"cebpf4jnsgd1na2vs0mg"},{"bike_id":"8e445db9-6941-4e53-8f7b-c4752813ec12","system_id":"levelo_inurba_marseille","lat":43.29616,"lon":5.37728,"is_reserved":false,"is_disabled":false,"rental_uris":{"android":"levelo://app?vid=8e445db9-6941-4e53-8f7b-c4752813ec12","ios":"levelo://app?vid=8e445db9-6941-4e53-8f7b-c4752813ec12"},"vehicle_type_id":"4","last_reported":1745917912,"current_range_meters":10000,"station_id":"ce4bgi92rcd13ifvqb90","pricing_plan_id":"cebpf4jnsgd1na2vs0mg"},{"bike_id":"ab4612c3-85f5-4cb4-9ce2-46373d9c1c69","system_id":"levelo_inurba_marseille","lat":43.25798,"lon":5.38586,"is_reserved":false,"is_disabled":false,"rental_uris":{"android":"levelo://app?vid=ab4612c3-85f5-4cb4-9ce2-46373d9c1c69","ios":"levelo://app?vid=ab4612c3-85f5-4cb4-9ce2-46373d9c1c69"},"vehicle_type_id":"4","last_reported":1745917912,"current_range_meters":10000,"station_id":"","pricing_plan_id":"cebpf4jnsgd1na2vs0mg"},{"bike_id":"96ed545b-c554-4350-a262-b37350517593","system_id":"levelo_inurba_marseille","lat":43.29518,"lon":5.37506,"is_reserved":false,"is_disabled":false,"rental_uris":{"android":"levelo://app?vid=96ed545b-c554-4350-a262-b37350517593","ios":"levelo://app?vid=96ed545b-c554-4350-a262-b37350517593"},"vehicle_type_id":"4","last_reported":1745917912,"current_range_meters":10000,"station_id":"ce4bgkp2rcd13ifvqbmg","pricing_plan_id":"cebpf4jnsgd1na2vs0mg"},{"bike_id":"a273dd95-99e2-4bb8-bee8-19cb9b13f516","system_id":"levelo_inurba_marseille","lat":43.299045,"lon":5.436606,"is_reserved":false,"is_disabled":true,"rental_uris":{"android":"levelo://app?vid=a273dd95-99e2-4bb8-bee8-19cb9b13f516","ios":"levelo://app?vid=a273dd95-99e2-4bb8-bee8-19cb9b13f516"},"vehicle_type_id":"4","last_reported":1745917912,"current_range_meters":10000,"station_id":"ce4bhpp2rcd13ifvqhfg","pricing_plan_id":"cebpf4jnsgd1na2vs0mg"},{"bike_id":"ae67e2cb-f304-477e-8741-14618d02c4d5","system_id":"levelo_inurba_marseille","lat":43.28,"lon":5.40003,"is_reserved":false,"is_disabled":false,"rental_uris":{"android":"levelo://app?vid=ae67e2cb-f304-477e-8741-14618d02c4d5","ios":"levelo://app?vid=ae67e2cb-f304-477e-8741-14618d02c4d5"},"vehicle_type_id":"4","last_reported":1745917912,"current_range_meters":9600,"station_id":"ce4bho92rcd13ifvqh4g","pricing_plan_id":"cebpf4jnsgd1na2vs0mg"},{"bike_id":"f35c7b84-6ac3-4dcc-a0e5-a488e0ec4bd3","system_id":"levelo_inurba_marseille","lat":43.27509,"lon":5.42437,"is_reserved":false,"is_disabled":false,"rental_uris":{"android":"levelo://app?vid=f35c7b84-6ac3-4dcc-a0e5-a488e0ec4bd3","ios":"levelo://app?vid=f35c7b84-6ac3-4dcc-a0e5-a488e0ec4bd3"},"vehicle_type_id":"4","last_reported":1745917912,"current_range_meters":10000,"station_id":"ce4bhn92rcd13ifvqgrg","pricing_plan_id":"cebpf4jnsgd1na2vs0mg"},{"bike_id":"af98af90-ccfc-480d-9a97-9268e23b9d0a","system_id":"levelo_inurba_marseille","lat":43.31392,"lon":5.3671,"is_reserved":false,"is_disabled":false,"rental_uris":{"android":"levelo://app?vid=af98af90-ccfc-480d-9a97-9268e23b9d0a","ios":"levelo://app?vid=af98af90-ccfc-480d-9a97-9268e23b9d0a"},"vehicle_type_id":"4","last_reported":1745917912,"current_range_meters":10800,"station_id":"ce4bgr92rcd13ifvqc6g","pricing_plan_id":"cebpf4jnsgd1na2vs0mg"},{"bike_id":"5773b8c3-4bce-4cd5-ae03-62ab7e7a7a59","system_id":"levelo_inurba_marseille","lat":43.32323,"lon":5.38959,"is_reserved":false,"is_disabled":false,"rental_uris":{"android":"levelo://app?vid=5773b8c3-4bce-4cd5-ae03-62ab7e7a7a59","ios":"levelo://app?vid=5773b8c3-4bce-4cd5-ae03-62ab7e7a7a59"},"vehicle_type_id":"4","last_reported":1745917912,"current_range_meters":10800,"station_id":"","pricing_plan_id":"cebpf4jnsgd1na2vs0mg"},{"bike_id":"28894e81-ede6-4351-84e3-e6b48081a345","system_id":"levelo_inurba_marseille","lat":43.33465,"lon":5.400537,"is_reserved":false,"is_disabled":false,"rental_uris":{"android":"levelo://app?vid=28894e81-ede6-4351-84e3-e6b48081a345","ios":"levelo://app?vid=28894e81-ede6-4351-84e3-e6b48081a345"},"vehicle_type_id":"4","last_reported":1745917912,"current_range_meters":11200,"station_id":"","pricing_plan_id":"cebpf4jnsgd1na2vs0mg"},{"bike_id":"b24d099b-c213-4d0e-8bed-0a6b1553f715","system_id":"levelo_inurba_marseille","lat":43.32479,"lon":5.36556,"is_reserved":false,"is_disabled":false,"rental_uris":{"android":"levelo://app?vid=b24d099b-c213-4d0e-8bed-0a6b1553f715","ios":"levelo://app?vid=b24d099b-c213-4d0e-8bed-0a6b1553f715"},"vehicle_type_id":"4","last_reported":1745917912,"current_range_meters":11600,"station_id":"ce4bhs12rcd13ifvqhvg","pricing_plan_id":"cebpf4jnsgd1na2vs0mg"},{"bike_id":"e0fce97a-38d8-43c7-81c6-a502fabd1d3c","system_id":"levelo_inurba_marseille","lat":43.289266,"lon":5.38404,"is_reserved":false,"is_disabled":true,"rental_uris":{"android":"levelo://app?vid=e0fce97a-38d8-43c7-81c6-a502fabd1d3c","ios":"levelo://app?vid=e0fce97a-38d8-43c7-81c6-a502fabd1d3c"},"vehicle_type_id":"4","last_reported":1745917912,"current_range_meters":11200,"station_id":"ce4bh612rcd13ifvqe6g","pricing_plan_id":"cebpf4jnsgd1na2vs0mg"},{"bike_id":"56d3126a-5caf-4303-83cc-6be1581e9786","system_id":"levelo_inurba_marseille","lat":43.248134,"lon":5.374578,"is_reserved":false,"is_disabled":false,"rental_uris":{"android":"levelo://app?vid=56d3126a-5caf-4303-83cc-6be1581e9786","ios":"levelo://app?vid=56d3126a-5caf-4303-83cc-6be1581e9786"},"vehicle_type_id":"4","last_reported":1745917912,"current_range_meters":11200,"station_id":"ce4bhgh2rcd13ifvqfb0","pricing_plan_id":"cebpf4jnsgd1na2vs0mg"},{"bike_id":"c037164e-6b4a-4516-a04c-fd997fdba2e3","system_id":"levelo_inurba_marseille","lat":43.30314,"lon":5.36897,"is_reserved":false,"is_disabled":false,"rental_uris":{"android":"levelo://app?vid=c037164e-6b4a-4516-a04c-fd997fdba2e3","ios":"levelo://app?vid=c037164e-6b4a-4516-a04c-fd997fdba2e3"},"vehicle_type_id":"4","last_reported":1745917912,"current_range_meters":11200,"station_id":"ce4bgqh2rcd13ifvqc5g","pricing_plan_id":"cebpf4jnsgd1na2vs0mg"},{"bike_id":"a17dfbc6-c24a-4f6f-a28a-8c7675d89f62","system_id":"levelo_inurba_marseille","lat":43.30421,"lon":5.4128,"is_reserved":false,"is_disabled":true,"rental_uris":{"android":"levelo://app?vid=a17dfbc6-c24a-4f6f-a28a-8c7675d89f62","ios":"levelo://app?vid=a17dfbc6-c24a-4f6f-a28a-8c7675d89f62"},"vehicle_type_id":"4","last_reported":1745917912,"current_range_meters":11200,"station_id":"ce4bhop2rcd13ifvqh8g","pricing_plan_id":"cebpf4jnsgd1na2vs0mg"},{"bike_id":"5380ca35-64a4-42ad-ac10-7ede47f819bc","system_id":"levelo_inurba_marseille","lat":43.29035,"lon":5.39963,"is_reserved":false,"is_disabled":false,"rental_uris":{"android":"levelo://app?vid=5380ca35-64a4-42ad-ac10-7ede47f819bc","ios":"levelo://app?vid=5380ca35-64a4-42ad-ac10-7ede47f819bc"},"vehicle_type_id":"4","last_reported":1745917912,"current_range_meters":11600,"station_id":"ce4bh392rcd13ifvqdm0","pricing_plan_id":"cebpf4jnsgd1na2vs0mg"},{"bike_id":"0c912786-339a-4929-9c9e-7b6aec139c45","system_id":"levelo_inurba_marseille","lat":43.29607,"lon":5.37721,"is_reserved":false,"is_disabled":false,"rental_uris":{"android":"levelo://app?vid=0c912786-339a-4929-9c9e-7b6aec139c45","ios":"levelo://app?vid=0c912786-339a-4929-9c9e-7b6aec139c45"},"vehicle_type_id":"4","last_reported":1745917912,"current_range_meters":11600,"station_id":"ce4bgi92rcd13ifvqb90","pricing_plan_id":"cebpf4jnsgd1na2vs0mg"},{"bike_id":"d58e03bb-19b9-469a-bcd7-0c3ce91d40b5","system_id":"levelo_inurba_marseille","lat":43.211939,"lon":5.350823,"is_reserved":false,"is_disabled":false,"rental_uris":{"android":"levelo://app?vid=d58e03bb-19b9-469a-bcd7-0c3ce91d40b5","ios":"levelo://app?vid=d58e03bb-19b9-469a-bcd7-0c3ce91d40b5"},"vehicle_type_id":"4","last_reported":1745917912,"current_range_meters":12000,"station_id":"","pricing_plan_id":"cebpf4jnsgd1na2vs0mg"},{"bike_id":"0c93ecc3-8c1b-4f51-a873-41ef65359f1f","system_id":"levelo_inurba_marseille","lat":43.26227,"lon":5.40449,"is_reserved":false,"is_disabled":false,"rental_uris":{"android":"levelo://app?vid=0c93ecc3-8c1b-4f51-a873-41ef65359f1f","ios":"levelo://app?vid=0c93ecc3-8c1b-4f51-a873-41ef65359f1f"},"vehicle_type_id":"4","last_reported":1745917912,"current_range_meters":12000,"station_id":"ce4bhmh2rcd13ifvqgmg","pricing_plan_id":"cebpf4jnsgd1na2vs0mg"},{"bike_id":"b13f9913-27dd-4197-ba83-0d6b671b36d4","system_id":"levelo_inurba_marseille","lat":43.32492,"lon":5.36589,"is_reserved":false,"is_disabled":false,"rental_uris":{"android":"levelo://app?vid=b13f9913-27dd-4197-ba83-0d6b671b36d4","ios":"levelo://app?vid=b13f9913-27dd-4197-ba83-0d6b671b36d4"},"vehicle_type_id":"4","last_reported":1745917912,"current_range_meters":12000,"station_id":"ce4bhs12rcd13ifvqhvg","pricing_plan_id":"cebpf4jnsgd1na2vs0mg"},{"bike_id":"4b895ffc-93de-4c0a-9a5a-22699c8c0ef4","system_id":"levelo_inurba_marseille","lat":43.30738,"lon":5.42417,"is_reserved":false,"is_disabled":true,"rental_uris":{"android":"levelo://app?vid=4b895ffc-93de-4c0a-9a5a-22699c8c0ef4","ios":"levelo://app?vid=4b895ffc-93de-4c0a-9a5a-22699c8c0ef4"},"vehicle_type_id":"4","last_reported":1745917912,"current_range_meters":12000,"station_id":"st_cvj6ca6bvosntc0bfgr0","pricing_plan_id":"cebpf4jnsgd1na2vs0mg"},{"bike_id":"0e8a6090-e181-4e9c-a1d5-3aa431ba0b38","system_id":"levelo_inurba_marseille","lat":43.29304,"lon":5.37174,"is_reserved":false,"is_disabled":false,"rental_uris":{"android":"levelo://app?vid=0e8a6090-e181-4e9c-a1d5-3aa431ba0b38","ios":"levelo://app?vid=0e8a6090-e181-4e9c-a1d5-3aa431ba0b38"},"vehicle_type_id":"4","last_reported":1745917912,"current_range_meters":12400,"station_id":"ce4bgh92rcd13ifvqb40","pricing_plan_id":"cebpf4jnsgd1na2vs0mg"},{"bike_id":"5d12ee4a-52f1-4f1a-af38-ad7a19a5a489","system_id":"levelo_inurba_marseille","lat":43.30548,"lon":5.36533,"is_reserved":false,"is_disabled":false,"rental_uris":{"android":"levelo://app?vid=5d12ee4a-52f1-4f1a-af38-ad7a19a5a489","ios":"levelo://app?vid=5d12ee4a-52f1-4f1a-af38-ad7a19a5a489"},"vehicle_type_id":"4","last_reported":1745917912,"current_range_meters":12400,"station_id":"ce4bgs12rcd13ifvqcag","pricing_plan_id":"cebpf4jnsgd1na2vs0mg"},{"bike_id":"c561163e-a003-49a9-bf4f-8ad31b0bbaac","system_id":"levelo_inurba_marseille","lat":43.25722,"lon":5.41816,"is_reserved":false,"is_disabled":false,"rental_uris":{"android":"levelo://app?vid=c561163e-a003-49a9-bf4f-8ad31b0bbaac","ios":"levelo://app?vid=c561163e-a003-49a9-bf4f-8ad31b0bbaac"},"vehicle_type_id":"4","last_reported":1745917912,"current_range_meters":12800,"station_id":"","pricing_plan_id":"cebpf4jnsgd1na2vs0mg"},{"bike_id":"9a33a1ec-c46e-4265-ab1b-22b05b04694e","system_id":"levelo_inurba_marseille","lat":43.280113,"lon":5.39997,"is_reserved":false,"is_disabled":false,"rental_uris":{"android":"levelo://app?vid=9a33a1ec-c46e-4265-ab1b-22b05b04694e","ios":"levelo://app?vid=9a33a1ec-c46e-4265-ab1b-22b05b04694e"},"vehicle_type_id":"4","last_reported":1745917912,"current_range_meters":12400,"station_id":"ce4bho92rcd13ifvqh4g","pricing_plan_id":"cebpf4jnsgd1na2vs0mg"},{"bike_id":"bd4dd0d7-46f4-440a-a46e-451b65dfbb5a","system_id":"levelo_inurba_marseille","lat":43.3057,"lon":5.36677,"is_reserved":false,"is_disabled":true,"rental_uris":{"android":"levelo://app?vid=bd4dd0d7-46f4-440a-a46e-451b65dfbb5a","ios":"levelo://app?vid=bd4dd0d7-46f4-440a-a46e-451b65dfbb5a"},"vehicle_type_id":"4","last_reported":1745917912,"current_range_meters":12800,"station_id":"ce4bgrp2rcd13ifvqc9g","pricing_plan_id":"cebpf4jnsgd1na2vs0mg"},{"bike_id":"b7758046-679f-4fcd-8cc4-dedf7c30e404","system_id":"levelo_inurba_marseille","lat":43.27373,"lon":5.36258,"is_reserved":false,"is_disabled":false,"rental_uris":{"android":"levelo://app?vid=b7758046-679f-4fcd-8cc4-dedf7c30e404","ios":"levelo://app?vid=b7758046-679f-4fcd-8cc4-dedf7c30e404"},"vehicle_type_id":"4","last_reported":1745917912,"current_range_meters":12400,"station_id":"ce4bhbh2rcd13ifvqeo0","pricing_plan_id":"cebpf4jnsgd1na2vs0mg"},{"bike_id":"c308d7bb-2389-4de4-a670-796efda6f591","system_id":"levelo_inurba_marseille","lat":43.29002,"lon":5.35608,"is_reserved":false,"is_disabled":false,"rental_uris":{"android":"levelo://app?vid=c308d7bb-2389-4de4-a670-796efda6f591","ios":"levelo://app?vid=c308d7bb-2389-4de4-a670-796efda6f591"},"vehicle_type_id":"4","last_reported":1745917912,"current_range_meters":12800,"station_id":"ce4bhb92rcd13ifvqen0","pricing_plan_id":"cebpf4jnsgd1na2vs0mg"},{"bike_id":"3d337857-4663-489f-893b-41ede5fdb8b8","system_id":"levelo_inurba_marseille","lat":43.33605,"lon":5.40992,"is_reserved":false,"is_disabled":false,"rental_uris":{"android":"levelo://app?vid=3d337857-4663-489f-893b-41ede5fdb8b8","ios":"levelo://app?vid=3d337857-4663-489f-893b-41ede5fdb8b8"},"vehicle_type_id":"4","last_reported":1745917912,"current_range_meters":13600,"station_id":"ce4bhqh2rcd13ifvqhmg","pricing_plan_id":"cebpf4jnsgd1na2vs0mg"},{"bike_id":"0eb3d368-9ac6-43d6-88f4-c6528c324d4a","system_id":"levelo_inurba_marseille","lat":43.30912,"lon":5.36851,"is_reserved":false,"is_disabled":false,"rental_uris":{"android":"levelo://app?vid=0eb3d368-9ac6-43d6-88f4-c6528c324d4a","ios":"levelo://app?vid=0eb3d368-9ac6-43d6-88f4-c6528c324d4a"},"vehicle_type_id":"4","last_reported":1745917912,"current_range_meters":13600,"station_id":"ce4bgn92rcd13ifvqbvg","pricing_plan_id":"cebpf4jnsgd1na2vs0mg"},{"bike_id":"90ec756e-7d75-44ae-9837-bcc6f8c453df","system_id":"levelo_inurba_marseille","lat":43.23192,"lon":5.35556,"is_reserved":false,"is_disabled":false,"rental_uris":{"android":"levelo://app?vid=90ec756e-7d75-44ae-9837-bcc6f8c453df","ios":"levelo://app?vid=90ec756e-7d75-44ae-9837-bcc6f8c453df"},"vehicle_type_id":"4","last_reported":1745917912,"current_range_meters":13600,"station_id":"ce4bhu92rcd13ifvqi70","pricing_plan_id":"cebpf4jnsgd1na2vs0mg"},{"bike_id":"47b5889b-592b-4eaa-97aa-4da02903fa2b","system_id":"levelo_inurba_marseille","lat":43.25001,"lon":5.38919,"is_reserved":false,"is_disabled":false,"rental_uris":{"android":"levelo://app?vid=47b5889b-592b-4eaa-97aa-4da02903fa2b","ios":"levelo://app?vid=47b5889b-592b-4eaa-97aa-4da02903fa2b"},"vehicle_type_id":"4","last_reported":1745917912,"current_range_meters":12800,"station_id":"ce4bhgp2rcd13ifvqfd0","pricing_plan_id":"cebpf4jnsgd1na2vs0mg"},{"bike_id":"489415b8-9254-45c1-b00c-e7554d56755c","system_id":"levelo_inurba_marseille","lat":43.245199,"lon":5.412154,"is_reserved":false,"is_disabled":false,"rental_uris":{"android":"levelo://app?vid=489415b8-9254-45c1-b00c-e7554d56755c","ios":"levelo://app?vid=489415b8-9254-45c1-b00c-e7554d56755c"},"vehicle_type_id":"4","last_reported":1745917912,"current_range_meters":14400,"station_id":"","pricing_plan_id":"cebpf4jnsgd1na2vs0mg"},{"bike_id":"bff5aa81-578f-4f09-a2c8-f9ac0517efa9","system_id":"levelo_inurba_marseille","lat":43.30187,"lon":5.36628,"is_reserved":false,"is_disabled":false,"rental_uris":{"android":"levelo://app?vid=bff5aa81-578f-4f09-a2c8-f9ac0517efa9","ios":"levelo://app?vid=bff5aa81-578f-4f09-a2c8-f9ac0517efa9"},"vehicle_type_id":"4","last_reported":1745917912,"current_range_meters":14400,"station_id":"ce4bgrh2rcd13ifvqc8g","pricing_plan_id":"cebpf4jnsgd1na2vs0mg"},{"bike_id":"8e27dee6-a8a4-43f4-b8a0-56e0ee5184ad","system_id":"levelo_inurba_marseille","lat":43.31488,"lon":5.37296,"is_reserved":false,"is_disabled":false,"rental_uris":{"android":"levelo://app?vid=8e27dee6-a8a4-43f4-b8a0-56e0ee5184ad","ios":"levelo://app?vid=8e27dee6-a8a4-43f4-b8a0-56e0ee5184ad"},"vehicle_type_id":"4","last_reported":1745917912,"current_range_meters":14000,"station_id":"ce4bgt12rcd13ifvqcd0","pricing_plan_id":"cebpf4jnsgd1na2vs0mg"},{"bike_id":"413264ce-5e6a-42a6-8111-b4e2202bdb6f","system_id":"levelo_inurba_marseille","lat":43.31084,"lon":5.42431,"is_reserved":false,"is_disabled":false,"rental_uris":{"android":"levelo://app?vid=413264ce-5e6a-42a6-8111-b4e2202bdb6f","ios":"levelo://app?vid=413264ce-5e6a-42a6-8111-b4e2202bdb6f"},"vehicle_type_id":"4","last_reported":1745917912,"current_range_meters":14400,"station_id":"ce4bhp92rcd13ifvqhag","pricing_plan_id":"cebpf4jnsgd1na2vs0mg"},{"bike_id":"7ea71345-c9d1-43ac-9f04-a9409635938e","system_id":"levelo_inurba_marseille","lat":43.295197,"lon":5.39039,"is_reserved":false,"is_disabled":false,"rental_uris":{"android":"levelo://app?vid=7ea71345-c9d1-43ac-9f04-a9409635938e","ios":"levelo://app?vid=7ea71345-c9d1-43ac-9f04-a9409635938e"},"vehicle_type_id":"4","last_reported":1745917912,"current_range_meters":14000,"station_id":"ce4bh3p2rcd13ifvqdp0","pricing_plan_id":"cebpf4jnsgd1na2vs0mg"},{"bike_id":"a97e75bf-fb8f-406f-9d30-89b042eeeac9","system_id":"levelo_inurba_marseille","lat":43.29066,"lon":5.37163,"is_reserved":false,"is_disabled":false,"rental_uris":{"android":"levelo://app?vid=a97e75bf-fb8f-406f-9d30-89b042eeeac9","ios":"levelo://app?vid=a97e75bf-fb8f-406f-9d30-89b042eeeac9"},"vehicle_type_id":"4","last_reported":1745917912,"current_range_meters":14800,"station_id":"ce4bh5p2rcd13ifvqe4g","pricing_plan_id":"cebpf4jnsgd1na2vs0mg"},{"bike_id":"69e5982b-1cfc-4bf9-a6c1-72ad2f9319a0","system_id":"levelo_inurba_marseille","lat":43.27494,"lon":5.42441,"is_reserved":false,"is_disabled":false,"rental_uris":{"android":"levelo://app?vid=69e5982b-1cfc-4bf9-a6c1-72ad2f9319a0","ios":"levelo://app?vid=69e5982b-1cfc-4bf9-a6c1-72ad2f9319a0"},"vehicle_type_id":"4","last_reported":1745917912,"current_range_meters":14800,"station_id":"ce4bhn92rcd13ifvqgrg","pricing_plan_id":"cebpf4jnsgd1na2vs0mg"},{"bike_id":"2d303286-1748-405f-b5c7-c9d6c2ec111c","system_id":"levelo_inurba_marseille","lat":43.24402,"lon":5.37034,"is_reserved":false,"is_disabled":false,"rental_uris":{"android":"levelo://app?vid=2d303286-1748-405f-b5c7-c9d6c2ec111c","ios":"levelo://app?vid=2d303286-1748-405f-b5c7-c9d6c2ec111c"},"vehicle_type_id":"4","last_reported":1745917912,"current_range_meters":15200,"station_id":"ce4bhhh2rcd13ifvqfk0","pricing_plan_id":"cebpf4jnsgd1na2vs0mg"},{"bike_id":"39f18c8b-df43-4308-a98e-40efc694b971","system_id":"levelo_inurba_marseille","lat":43.24041,"lon":5.3774,"is_reserved":false,"is_disabled":false,"rental_uris":{"android":"levelo://app?vid=39f18c8b-df43-4308-a98e-40efc694b971","ios":"levelo://app?vid=39f18c8b-df43-4308-a98e-40efc694b971"},"vehicle_type_id":"4","last_reported":1745917912,"current_range_meters":14800,"station_id":"ce4bhnp2rcd13ifvqgvg","pricing_plan_id":"cebpf4jnsgd1na2vs0mg"},{"bike_id":"f715f223-534d-4de5-86a8-2be0794b0ae0","system_id":"levelo_inurba_marseille","lat":43.31365,"lon":5.38492,"is_reserved":false,"is_disabled":false,"rental_uris":{"android":"levelo://app?vid=f715f223-534d-4de5-86a8-2be0794b0ae0","ios":"levelo://app?vid=f715f223-534d-4de5-86a8-2be0794b0ae0"},"vehicle_type_id":"4","last_reported":1745917912,"current_range_meters":12000,"station_id":"ce4bgt92rcd13ifvqcf0","pricing_plan_id":"cebpf4jnsgd1na2vs0mg"},{"bike_id":"7684f07b-e7da-48b8-bec7-83e6dbb6c75a","system_id":"levelo_inurba_marseille","lat":43.30458,"lon":5.37913,"is_reserved":false,"is_disabled":false,"rental_uris":{"android":"levelo://app?vid=7684f07b-e7da-48b8-bec7-83e6dbb6c75a","ios":"levelo://app?vid=7684f07b-e7da-48b8-bec7-83e6dbb6c75a"},"vehicle_type_id":"4","last_reported":1745917912,"current_range_meters":15200,"station_id":"ce4bgup2rcd13ifvqcn0","pricing_plan_id":"cebpf4jnsgd1na2vs0mg"},{"bike_id":"ddf42e2f-5ba3-456f-b6b9-71a4fb220f7c","system_id":"levelo_inurba_marseille","lat":43.21752,"lon":5.34602,"is_reserved":false,"is_disabled":false,"rental_uris":{"android":"levelo://app?vid=ddf42e2f-5ba3-456f-b6b9-71a4fb220f7c","ios":"levelo://app?vid=ddf42e2f-5ba3-456f-b6b9-71a4fb220f7c"},"vehicle_type_id":"4","last_reported":1745917912,"current_range_meters":16000,"station_id":"","pricing_plan_id":"cebpf4jnsgd1na2vs0mg"},{"bike_id":"3232556a-950c-44c4-ac0f-4037abc1b33d","system_id":"levelo_inurba_marseille","lat":43.29288,"lon":5.37445,"is_reserved":false,"is_disabled":false,"rental_uris":{"android":"levelo://app?vid=3232556a-950c-44c4-ac0f-4037abc1b33d","ios":"levelo://app?vid=3232556a-950c-44c4-ac0f-4037abc1b33d"},"vehicle_type_id":"4","last_reported":1745917912,"current_range_meters":16000,"station_id":"ce4bgi12rcd13ifvqb70","pricing_plan_id":"cebpf4jnsgd1na2vs0mg"},{"bike_id":"f24b2ab6-8a00-47a7-ad1c-9f7b4ba774c9","system_id":"levelo_inurba_marseille","lat":43.29043,"lon":5.39972,"is_reserved":false,"is_disabled":false,"rental_uris":{"android":"levelo://app?vid=f24b2ab6-8a00-47a7-ad1c-9f7b4ba774c9","ios":"levelo://app?vid=f24b2ab6-8a00-47a7-ad1c-9f7b4ba774c9"},"vehicle_type_id":"4","last_reported":1745917912,"current_range_meters":16000,"station_id":"ce4bh392rcd13ifvqdm0","pricing_plan_id":"cebpf4jnsgd1na2vs0mg"},{"bike_id":"7b092f81-4cab-4312-aabe-e4160e91f931","system_id":"levelo_inurba_marseille","lat":43.30541,"lon":5.3654,"is_reserved":false,"is_disabled":false,"rental_uris":{"android":"levelo://app?vid=7b092f81-4cab-4312-aabe-e4160e91f931","ios":"levelo://app?vid=7b092f81-4cab-4312-aabe-e4160e91f931"},"vehicle_type_id":"4","last_reported":1745917912,"current_range_meters":16400,"station_id":"ce4bgs12rcd13ifvqcag","pricing_plan_id":"cebpf4jnsgd1na2vs0mg"},{"bike_id":"1cb3da76-f497-49e4-a8a6-5a0629444d60","system_id":"levelo_inurba_marseille","lat":43.29937,"lon":5.36693,"is_reserved":false,"is_disabled":false,"rental_uris":{"android":"levelo://app?vid=1cb3da76-f497-49e4-a8a6-5a0629444d60","ios":"levelo://app?vid=1cb3da76-f497-49e4-a8a6-5a0629444d60"},"vehicle_type_id":"4","last_reported":1745917912,"current_range_meters":16400,"station_id":"","pricing_plan_id":"cebpf4jnsgd1na2vs0mg"},{"bike_id":"3116d66b-5e57-4f41-b790-e11ad4af653f","system_id":"levelo_inurba_marseille","lat":43.2795,"lon":5.41641,"is_reserved":false,"is_disabled":false,"rental_uris":{"android":"levelo://app?vid=3116d66b-5e57-4f41-b790-e11ad4af653f","ios":"levelo://app?vid=3116d66b-5e57-4f41-b790-e11ad4af653f"},"vehicle_type_id":"4","last_reported":1745917912,"current_range_meters":16400,"station_id":"","pricing_plan_id":"cebpf4jnsgd1na2vs0mg"},{"bike_id":"53cc5502-e390-489c-9991-8d86e73f1e3e","system_id":"levelo_inurba_marseille","lat":43.290714,"lon":5.371713,"is_reserved":false,"is_disabled":false,"rental_uris":{"android":"levelo://app?vid=53cc5502-e390-489c-9991-8d86e73f1e3e","ios":"levelo://app?vid=53cc5502-e390-489c-9991-8d86e73f1e3e"},"vehicle_type_id":"4","last_reported":1745917912,"current_range_meters":16400,"station_id":"ce4bh5p2rcd13ifvqe4g","pricing_plan_id":"cebpf4jnsgd1na2vs0mg"},{"bike_id":"e2b6cb64-1bd3-410f-85b3-18d8431c5072","system_id":"levelo_inurba_marseille","lat":43.31347,"lon":5.36723,"is_reserved":false,"is_disabled":false,"rental_uris":{"android":"levelo://app?vid=e2b6cb64-1bd3-410f-85b3-18d8431c5072","ios":"levelo://app?vid=e2b6cb64-1bd3-410f-85b3-18d8431c5072"},"vehicle_type_id":"4","last_reported":1745917912,"current_range_meters":16400,"station_id":"ce4bgr92rcd13ifvqc6g","pricing_plan_id":"cebpf4jnsgd1na2vs0mg"},{"bike_id":"01a307e5-6763-4746-b7bb-ec28a34bc502","system_id":"levelo_inurba_marseille","lat":43.25925,"lon":5.40891,"is_reserved":false,"is_disabled":false,"rental_uris":{"android":"levelo://app?vid=01a307e5-6763-4746-b7bb-ec28a34bc502","ios":"levelo://app?vid=01a307e5-6763-4746-b7bb-ec28a34bc502"},"vehicle_type_id":"4","last_reported":1745917912,"current_range_meters":16800,"station_id":"ce4bhm92rcd13ifvqglg","pricing_plan_id":"cebpf4jnsgd1na2vs0mg"},{"bike_id":"fe8960e1-228f-4306-bc25-b57b60a713c0","system_id":"levelo_inurba_marseille","lat":43.217504,"lon":5.345993,"is_reserved":false,"is_disabled":false,"rental_uris":{"android":"levelo://app?vid=fe8960e1-228f-4306-bc25-b57b60a713c0","ios":"levelo://app?vid=fe8960e1-228f-4306-bc25-b57b60a713c0"},"vehicle_type_id":"4","last_reported":1745917912,"current_range_meters":16800,"station_id":"","pricing_plan_id":"cebpf4jnsgd1na2vs0mg"},{"bike_id":"b091a2ed-64a8-4e4d-9f05-2ce11d2c14aa","system_id":"levelo_inurba_marseille","lat":43.24381,"lon":5.37064,"is_reserved":false,"is_disabled":false,"rental_uris":{"android":"levelo://app?vid=b091a2ed-64a8-4e4d-9f05-2ce11d2c14aa","ios":"levelo://app?vid=b091a2ed-64a8-4e4d-9f05-2ce11d2c14aa"},"vehicle_type_id":"4","last_reported":1745917912,"current_range_meters":16800,"station_id":"ce4bhhh2rcd13ifvqfk0","pricing_plan_id":"cebpf4jnsgd1na2vs0mg"},{"bike_id":"17d1d6e3-ed5d-42b4-99ff-221d46d0b1a6","system_id":"levelo_inurba_marseille","lat":43.24076,"lon":5.37749,"is_reserved":false,"is_disabled":false,"rental_uris":{"android":"levelo://app?vid=17d1d6e3-ed5d-42b4-99ff-221d46d0b1a6","ios":"levelo://app?vid=17d1d6e3-ed5d-42b4-99ff-221d46d0b1a6"},"vehicle_type_id":"4","last_reported":1745917912,"current_range_meters":16800,"station_id":"ce4bhnp2rcd13ifvqgvg","pricing_plan_id":"cebpf4jnsgd1na2vs0mg"},{"bike_id":"8d5f80d2-e676-4142-afb5-0e887aaab67b","system_id":"levelo_inurba_marseille","lat":43.28257,"lon":5.35072,"is_reserved":false,"is_disabled":false,"rental_uris":{"android":"levelo://app?vid=8d5f80d2-e676-4142-afb5-0e887aaab67b","ios":"levelo://app?vid=8d5f80d2-e676-4142-afb5-0e887aaab67b"},"vehicle_type_id":"4","last_reported":1745917912,"current_range_meters":15200,"station_id":"ce4bhbp2rcd13ifvqerg","pricing_plan_id":"cebpf4jnsgd1na2vs0mg"},{"bike_id":"fe1df706-3663-4019-9506-471eb284591a","system_id":"levelo_inurba_marseille","lat":43.30903,"lon":5.3685,"is_reserved":false,"is_disabled":false,"rental_uris":{"android":"levelo://app?vid=fe1df706-3663-4019-9506-471eb284591a","ios":"levelo://app?vid=fe1df706-3663-4019-9506-471eb284591a"},"vehicle_type_id":"4","last_reported":1745917912,"current_range_meters":16800,"station_id":"ce4bgn92rcd13ifvqbvg","pricing_plan_id":"cebpf4jnsgd1na2vs0mg"},{"bike_id":"2567dff5-4086-4762-9204-bf87d395fd02","system_id":"levelo_inurba_marseille","lat":43.23181,"lon":5.39985,"is_reserved":false,"is_disabled":false,"rental_uris":{"android":"levelo://app?vid=2567dff5-4086-4762-9204-bf87d395fd02","ios":"levelo://app?vid=2567dff5-4086-4762-9204-bf87d395fd02"},"vehicle_type_id":"4","last_reported":1745917912,"current_range_meters":16800,"station_id":"ce4bhn12rcd13ifvqgqg","pricing_plan_id":"cebpf4jnsgd1na2vs0mg"},{"bike_id":"07693e24-7000-4fd3-8fe1-8644dd3f1e08","system_id":"levelo_inurba_marseille","lat":43.273847,"lon":5.389597,"is_reserved":false,"is_disabled":false,"rental_uris":{"android":"levelo://app?vid=07693e24-7000-4fd3-8fe1-8644dd3f1e08","ios":"levelo://app?vid=07693e24-7000-4fd3-8fe1-8644dd3f1e08"},"vehicle_type_id":"4","last_reported":1745917912,"current_range_meters":16800,"station_id":"","pricing_plan_id":"cebpf4jnsgd1na2vs0mg"},{"bike_id":"c61d834f-ae2a-4d78-8ac2-7ae8a2cb7207","system_id":"levelo_inurba_marseille","lat":43.2721,"lon":5.391857,"is_reserved":false,"is_disabled":false,"rental_uris":{"android":"levelo://app?vid=c61d834f-ae2a-4d78-8ac2-7ae8a2cb7207","ios":"levelo://app?vid=c61d834f-ae2a-4d78-8ac2-7ae8a2cb7207"},"vehicle_type_id":"4","last_reported":1745917912,"current_range_meters":17200,"station_id":"ce4bhhp2rcd13ifvqfm0","pricing_plan_id":"cebpf4jnsgd1na2vs0mg"},{"bike_id":"bfed2da6-0d8b-41a3-9024-fac66defb3de","system_id":"levelo_inurba_marseille","lat":43.30908,"lon":5.36843,"is_reserved":false,"is_disabled":false,"rental_uris":{"android":"levelo://app?vid=bfed2da6-0d8b-41a3-9024-fac66defb3de","ios":"levelo://app?vid=bfed2da6-0d8b-41a3-9024-fac66defb3de"},"vehicle_type_id":"4","last_reported":1745917912,"current_range_meters":17200,"station_id":"ce4bgn92rcd13ifvqbvg","pricing_plan_id":"cebpf4jnsgd1na2vs0mg"},{"bike_id":"503de928-d3fd-40dd-9cc1-75b73b516de0","system_id":"levelo_inurba_marseille","lat":43.31176,"lon":5.38725,"is_reserved":false,"is_disabled":false,"rental_uris":{"android":"levelo://app?vid=503de928-d3fd-40dd-9cc1-75b73b516de0","ios":"levelo://app?vid=503de928-d3fd-40dd-9cc1-75b73b516de0"},"vehicle_type_id":"4","last_reported":1745917912,"current_range_meters":17200,"station_id":"ce4bgv12rcd13ifvqcp0","pricing_plan_id":"cebpf4jnsgd1na2vs0mg"},{"bike_id":"236e2a32-9de7-4540-95e5-10dc36b9908a","system_id":"levelo_inurba_marseille","lat":43.29619,"lon":5.37173,"is_reserved":false,"is_disabled":false,"rental_uris":{"android":"levelo://app?vid=236e2a32-9de7-4540-95e5-10dc36b9908a","ios":"levelo://app?vid=236e2a32-9de7-4540-95e5-10dc36b9908a"},"vehicle_type_id":"4","last_reported":1745917912,"current_range_meters":16800,"station_id":"ce4bgnh2rcd13ifvqc0g","pricing_plan_id":"cebpf4jnsgd1na2vs0mg"},{"bike_id":"972661d0-54db-4797-a425-2fce787f33ea","system_id":"levelo_inurba_marseille","lat":43.32488,"lon":5.36559,"is_reserved":false,"is_disabled":false,"rental_uris":{"android":"levelo://app?vid=972661d0-54db-4797-a425-2fce787f33ea","ios":"levelo://app?vid=972661d0-54db-4797-a425-2fce787f33ea"},"vehicle_type_id":"4","last_reported":1745917912,"current_range_meters":17200,"station_id":"ce4bhs12rcd13ifvqhvg","pricing_plan_id":"cebpf4jnsgd1na2vs0mg"},{"bike_id":"3d81f916-7008-4bf4-8a09-e174ecb81c9f","system_id":"levelo_inurba_marseille","lat":43.28259,"lon":5.35074,"is_reserved":false,"is_disabled":false,"rental_uris":{"android":"levelo://app?vid=3d81f916-7008-4bf4-8a09-e174ecb81c9f","ios":"levelo://app?vid=3d81f916-7008-4bf4-8a09-e174ecb81c9f"},"vehicle_type_id":"4","last_reported":1745917912,"current_range_meters":17200,"station_id":"ce4bhbp2rcd13ifvqerg","pricing_plan_id":"cebpf4jnsgd1na2vs0mg"},{"bike_id":"1b105ecf-d0a3-45d6-994d-6634e10a1750","system_id":"levelo_inurba_marseille","lat":43.28846,"lon":5.35839,"is_reserved":false,"is_disabled":false,"rental_uris":{"android":"levelo://app?vid=1b105ecf-d0a3-45d6-994d-6634e10a1750","ios":"levelo://app?vid=1b105ecf-d0a3-45d6-994d-6634e10a1750"},"vehicle_type_id":"4","last_reported":1745917912,"current_range_meters":17200,"station_id":"ce4bhb12rcd13ifvqem0","pricing_plan_id":"cebpf4jnsgd1na2vs0mg"},{"bike_id":"8f262367-aa5d-46ac-ba7f-89beec94ae54","system_id":"levelo_inurba_marseille","lat":43.31515,"lon":5.37289,"is_reserved":false,"is_disabled":false,"rental_uris":{"android":"levelo://app?vid=8f262367-aa5d-46ac-ba7f-89beec94ae54","ios":"levelo://app?vid=8f262367-aa5d-46ac-ba7f-89beec94ae54"},"vehicle_type_id":"4","last_reported":1745917912,"current_range_meters":17200,"station_id":"ce4bgt12rcd13ifvqcd0","pricing_plan_id":"cebpf4jnsgd1na2vs0mg"},{"bike_id":"57cbef8d-5b12-4536-b214-f085efe948ac","system_id":"levelo_inurba_marseille","lat":43.30142,"lon":5.37425,"is_reserved":false,"is_disabled":false,"rental_uris":{"android":"levelo://app?vid=57cbef8d-5b12-4536-b214-f085efe948ac","ios":"levelo://app?vid=57cbef8d-5b12-4536-b214-f085efe948ac"},"vehicle_type_id":"4","last_reported":1745917912,"current_range_meters":17600,"station_id":"ce4bgs92rcd13ifvqcc0","pricing_plan_id":"cebpf4jnsgd1na2vs0mg"},{"bike_id":"85dada4e-45e6-4f1e-a374-2a8a7e5d610a","system_id":"levelo_inurba_marseille","lat":43.25936,"lon":5.408978,"is_reserved":false,"is_disabled":false,"rental_uris":{"android":"levelo://app?vid=85dada4e-45e6-4f1e-a374-2a8a7e5d610a","ios":"levelo://app?vid=85dada4e-45e6-4f1e-a374-2a8a7e5d610a"},"vehicle_type_id":"4","last_reported":1745917912,"current_range_meters":17600,"station_id":"ce4bhm92rcd13ifvqglg","pricing_plan_id":"cebpf4jnsgd1na2vs0mg"},{"bike_id":"de3b690c-5ca2-4a7f-ba7c-fc443fe75656","system_id":"levelo_inurba_marseille","lat":43.28274,"lon":5.35063,"is_reserved":false,"is_disabled":false,"rental_uris":{"android":"levelo://app?vid=de3b690c-5ca2-4a7f-ba7c-fc443fe75656","ios":"levelo://app?vid=de3b690c-5ca2-4a7f-ba7c-fc443fe75656"},"vehicle_type_id":"4","last_reported":1745917912,"current_range_meters":17600,"station_id":"ce4bhbp2rcd13ifvqerg","pricing_plan_id":"cebpf4jnsgd1na2vs0mg"},{"bike_id":"1ff7221b-8e1e-4dce-9e57-4aed861ca4b9","system_id":"levelo_inurba_marseille","lat":43.3373,"lon":5.39169,"is_reserved":false,"is_disabled":false,"rental_uris":{"android":"levelo://app?vid=1ff7221b-8e1e-4dce-9e57-4aed861ca4b9","ios":"levelo://app?vid=1ff7221b-8e1e-4dce-9e57-4aed861ca4b9"},"vehicle_type_id":"4","last_reported":1745917912,"current_range_meters":17600,"station_id":"ce4bhr92rcd13ifvqhsg","pricing_plan_id":"cebpf4jnsgd1na2vs0mg"},{"bike_id":"d2f13750-e22a-4165-8dd4-3429f9cedb09","system_id":"levelo_inurba_marseille","lat":43.29259,"lon":5.3762,"is_reserved":false,"is_disabled":false,"rental_uris":{"android":"levelo://app?vid=d2f13750-e22a-4165-8dd4-3429f9cedb09","ios":"levelo://app?vid=d2f13750-e22a-4165-8dd4-3429f9cedb09"},"vehicle_type_id":"4","last_reported":1745917912,"current_range_meters":17600,"station_id":"ce4bgi12rcd13ifvqb80","pricing_plan_id":"cebpf4jnsgd1na2vs0mg"},{"bike_id":"88b3937c-f8a8-4011-ab23-559ba3a7a406","system_id":"levelo_inurba_marseille","lat":43.26568,"lon":5.39009,"is_reserved":false,"is_disabled":false,"rental_uris":{"android":"levelo://app?vid=88b3937c-f8a8-4011-ab23-559ba3a7a406","ios":"levelo://app?vid=88b3937c-f8a8-4011-ab23-559ba3a7a406"},"vehicle_type_id":"4","last_reported":1745917912,"current_range_meters":18000,"station_id":"ce4bhe12rcd13ifvqf30","pricing_plan_id":"cebpf4jnsgd1na2vs0mg"},{"bike_id":"73bdaf62-584c-4aef-b388-35b847199721","system_id":"levelo_inurba_marseille","lat":43.28033,"lon":5.36933,"is_reserved":false,"is_disabled":false,"rental_uris":{"android":"levelo://app?vid=73bdaf62-584c-4aef-b388-35b847199721","ios":"levelo://app?vid=73bdaf62-584c-4aef-b388-35b847199721"},"vehicle_type_id":"4","last_reported":1745917912,"current_range_meters":18000,"station_id":"ce4bha12rcd13ifvqef0","pricing_plan_id":"cebpf4jnsgd1na2vs0mg"},{"bike_id":"8cda1de9-fdcf-4668-98b5-74d0e4293e40","system_id":"levelo_inurba_marseille","lat":43.266876,"lon":5.382756,"is_reserved":false,"is_disabled":true,"rental_uris":{"android":"levelo://app?vid=8cda1de9-fdcf-4668-98b5-74d0e4293e40","ios":"levelo://app?vid=8cda1de9-fdcf-4668-98b5-74d0e4293e40"},"vehicle_type_id":"4","last_reported":1745917912,"current_range_meters":18000,"station_id":"ce4bhg92rcd13ifvqf90","pricing_plan_id":"cebpf4jnsgd1na2vs0mg"},{"bike_id":"864ca0b5-eb09-4189-8d39-475ccbc9ce8b","system_id":"levelo_inurba_marseille","lat":43.27373,"lon":5.36256,"is_reserved":false,"is_disabled":false,"rental_uris":{"android":"levelo://app?vid=864ca0b5-eb09-4189-8d39-475ccbc9ce8b","ios":"levelo://app?vid=864ca0b5-eb09-4189-8d39-475ccbc9ce8b"},"vehicle_type_id":"4","last_reported":1745917912,"current_range_meters":18000,"station_id":"ce4bhbh2rcd13ifvqeo0","pricing_plan_id":"cebpf4jnsgd1na2vs0mg"},{"bike_id":"eed46b44-7e49-45f5-aee4-ed929cc59bc1","system_id":"levelo_inurba_marseille","lat":43.28261,"lon":5.35062,"is_reserved":false,"is_disabled":false,"rental_uris":{"android":"levelo://app?vid=eed46b44-7e49-45f5-aee4-ed929cc59bc1","ios":"levelo://app?vid=eed46b44-7e49-45f5-aee4-ed929cc59bc1"},"vehicle_type_id":"4","last_reported":1745917912,"current_range_meters":15200,"station_id":"ce4bhbp2rcd13ifvqerg","pricing_plan_id":"cebpf4jnsgd1na2vs0mg"},{"bike_id":"9d16da21-6a74-4fc8-b8ad-41c41ab84a3b","system_id":"levelo_inurba_marseille","lat":43.305543,"lon":5.365495,"is_reserved":false,"is_disabled":false,"rental_uris":{"android":"levelo://app?vid=9d16da21-6a74-4fc8-b8ad-41c41ab84a3b","ios":"levelo://app?vid=9d16da21-6a74-4fc8-b8ad-41c41ab84a3b"},"vehicle_type_id":"4","last_reported":1745917912,"current_range_meters":18000,"station_id":"ce4bgs12rcd13ifvqcag","pricing_plan_id":"cebpf4jnsgd1na2vs0mg"},{"bike_id":"be1b12af-a1c6-46d4-9b8c-f79c9548a5c0","system_id":"levelo_inurba_marseille","lat":43.32288,"lon":5.38276,"is_reserved":false,"is_disabled":false,"rental_uris":{"android":"levelo://app?vid=be1b12af-a1c6-46d4-9b8c-f79c9548a5c0","ios":"levelo://app?vid=be1b12af-a1c6-46d4-9b8c-f79c9548a5c0"},"vehicle_type_id":"4","last_reported":1745917912,"current_range_meters":18800,"station_id":"ce4bhr12rcd13ifvqhqg","pricing_plan_id":"cebpf4jnsgd1na2vs0mg"},{"bike_id":"4bf39d9a-ee2f-4c67-b8ef-b0a513b36472","system_id":"levelo_inurba_marseille","lat":43.2465,"lon":5.38885,"is_reserved":false,"is_disabled":false,"rental_uris":{"android":"levelo://app?vid=4bf39d9a-ee2f-4c67-b8ef-b0a513b36472","ios":"levelo://app?vid=4bf39d9a-ee2f-4c67-b8ef-b0a513b36472"},"vehicle_type_id":"4","last_reported":1745917912,"current_range_meters":18000,"station_id":"ce4bhg12rcd13ifvqf60","pricing_plan_id":"cebpf4jnsgd1na2vs0mg"},{"bike_id":"32b33499-54fa-4c63-b565-ff6a41c5eea4","system_id":"levelo_inurba_marseille","lat":43.24178,"lon":5.39748,"is_reserved":false,"is_disabled":false,"rental_uris":{"android":"levelo://app?vid=32b33499-54fa-4c63-b565-ff6a41c5eea4","ios":"levelo://app?vid=32b33499-54fa-4c63-b565-ff6a41c5eea4"},"vehicle_type_id":"4","last_reported":1745917912,"current_range_meters":18800,"station_id":"ce4bhn12rcd13ifvqgpg","pricing_plan_id":"cebpf4jnsgd1na2vs0mg"},{"bike_id":"416f56c9-d4a6-4629-a68f-9e2d92705b16","system_id":"levelo_inurba_marseille","lat":43.27493,"lon":5.42474,"is_reserved":false,"is_disabled":false,"rental_uris":{"android":"levelo://app?vid=416f56c9-d4a6-4629-a68f-9e2d92705b16","ios":"levelo://app?vid=416f56c9-d4a6-4629-a68f-9e2d92705b16"},"vehicle_type_id":"4","last_reported":1745917912,"current_range_meters":18800,"station_id":"ce4bhn92rcd13ifvqgrg","pricing_plan_id":"cebpf4jnsgd1na2vs0mg"},{"bike_id":"613dd303-9b9b-490c-8b90-12fd790120cd","system_id":"levelo_inurba_marseille","lat":43.23152,"lon":5.43695,"is_reserved":false,"is_disabled":false,"rental_uris":{"android":"levelo://app?vid=613dd303-9b9b-490c-8b90-12fd790120cd","ios":"levelo://app?vid=613dd303-9b9b-490c-8b90-12fd790120cd"},"vehicle_type_id":"4","last_reported":1745917912,"current_range_meters":18800,"station_id":"ce4bhmp2rcd13ifvqgog","pricing_plan_id":"cebpf4jnsgd1na2vs0mg"},{"bike_id":"33f49823-bd61-40af-bdc8-8f0390f031d7","system_id":"levelo_inurba_marseille","lat":43.27487,"lon":5.42448,"is_reserved":false,"is_disabled":false,"rental_uris":{"android":"levelo://app?vid=33f49823-bd61-40af-bdc8-8f0390f031d7","ios":"levelo://app?vid=33f49823-bd61-40af-bdc8-8f0390f031d7"},"vehicle_type_id":"4","last_reported":1745917912,"current_range_meters":18800,"station_id":"ce4bhn92rcd13ifvqgrg","pricing_plan_id":"cebpf4jnsgd1na2vs0mg"},{"bike_id":"0c46722b-9dcc-4cf2-bae2-44ec0553adae","system_id":"levelo_inurba_marseille","lat":43.30912,"lon":5.36841,"is_reserved":false,"is_disabled":false,"rental_uris":{"android":"levelo://app?vid=0c46722b-9dcc-4cf2-bae2-44ec0553adae","ios":"levelo://app?vid=0c46722b-9dcc-4cf2-bae2-44ec0553adae"},"vehicle_type_id":"4","last_reported":1745917912,"current_range_meters":18800,"station_id":"ce4bgn92rcd13ifvqbvg","pricing_plan_id":"cebpf4jnsgd1na2vs0mg"},{"bike_id":"2d70c0ef-ea5f-4e0b-b8de-0f403d744919","system_id":"levelo_inurba_marseille","lat":43.30541,"lon":5.36702,"is_reserved":false,"is_disabled":false,"rental_uris":{"android":"levelo://app?vid=2d70c0ef-ea5f-4e0b-b8de-0f403d744919","ios":"levelo://app?vid=2d70c0ef-ea5f-4e0b-b8de-0f403d744919"},"vehicle_type_id":"4","last_reported":1745917912,"current_range_meters":18800,"station_id":"ce4bgrp2rcd13ifvqc9g","pricing_plan_id":"cebpf4jnsgd1na2vs0mg"},{"bike_id":"39b2af7f-8f96-4174-bcfb-d63e2e818011","system_id":"levelo_inurba_marseille","lat":43.26944,"lon":5.38645,"is_reserved":false,"is_disabled":false,"rental_uris":{"android":"levelo://app?vid=39b2af7f-8f96-4174-bcfb-d63e2e818011","ios":"levelo://app?vid=39b2af7f-8f96-4174-bcfb-d63e2e818011"},"vehicle_type_id":"4","last_reported":1745917912,"current_range_meters":18800,"station_id":"ce4bhh92rcd13ifvqfh0","pricing_plan_id":"cebpf4jnsgd1na2vs0mg"},{"bike_id":"eb4215f6-ad05-4c4c-b8d0-2c3fbf1e3315","system_id":"levelo_inurba_marseille","lat":43.29708,"lon":5.36609,"is_reserved":false,"is_disabled":false,"rental_uris":{"android":"levelo://app?vid=eb4215f6-ad05-4c4c-b8d0-2c3fbf1e3315","ios":"levelo://app?vid=eb4215f6-ad05-4c4c-b8d0-2c3fbf1e3315"},"vehicle_type_id":"4","last_reported":1745917912,"current_range_meters":19200,"station_id":"ce4bgn12rcd13ifvqbt0","pricing_plan_id":"cebpf4jnsgd1na2vs0mg"},{"bike_id":"9195c75b-fbb7-4a46-b4b5-16dd2350c568","system_id":"levelo_inurba_marseille","lat":43.305317,"lon":5.367115,"is_reserved":false,"is_disabled":false,"rental_uris":{"android":"levelo://app?vid=9195c75b-fbb7-4a46-b4b5-16dd2350c568","ios":"levelo://app?vid=9195c75b-fbb7-4a46-b4b5-16dd2350c568"},"vehicle_type_id":"4","last_reported":1745917912,"current_range_meters":19200,"station_id":"ce4bgrp2rcd13ifvqc9g","pricing_plan_id":"cebpf4jnsgd1na2vs0mg"},{"bike_id":"b26a0b33-650f-4f7b-8536-58a942167ba4","system_id":"levelo_inurba_marseille","lat":43.23194,"lon":5.35557,"is_reserved":false,"is_disabled":false,"rental_uris":{"android":"levelo://app?vid=b26a0b33-650f-4f7b-8536-58a942167ba4","ios":"levelo://app?vid=b26a0b33-650f-4f7b-8536-58a942167ba4"},"vehicle_type_id":"4","last_reported":1745917912,"current_range_meters":19200,"station_id":"ce4bhu92rcd13ifvqi70","pricing_plan_id":"cebpf4jnsgd1na2vs0mg"},{"bike_id":"d9e08f95-179f-4ae0-9bc2-e736de45549e","system_id":"levelo_inurba_marseille","lat":43.23958,"lon":5.36639,"is_reserved":false,"is_disabled":false,"rental_uris":{"android":"levelo://app?vid=d9e08f95-179f-4ae0-9bc2-e736de45549e","ios":"levelo://app?vid=d9e08f95-179f-4ae0-9bc2-e736de45549e"},"vehicle_type_id":"4","last_reported":1745917912,"current_range_meters":19200,"station_id":"ce4bhi12rcd13ifvqfp0","pricing_plan_id":"cebpf4jnsgd1na2vs0mg"},{"bike_id":"510cbe45-f53a-4142-b9df-3fea331086f9","system_id":"levelo_inurba_marseille","lat":43.28845,"lon":5.39301,"is_reserved":false,"is_disabled":false,"rental_uris":{"android":"levelo://app?vid=510cbe45-f53a-4142-b9df-3fea331086f9","ios":"levelo://app?vid=510cbe45-f53a-4142-b9df-3fea331086f9"},"vehicle_type_id":"4","last_reported":1745917912,"current_range_meters":19600,"station_id":"ce4bh2p2rcd13ifvqdi0","pricing_plan_id":"cebpf4jnsgd1na2vs0mg"},{"bike_id":"2767110b-46f6-461f-9053-309ad1bd2e5a","system_id":"levelo_inurba_marseille","lat":43.22925,"lon":5.35376,"is_reserved":false,"is_disabled":false,"rental_uris":{"android":"levelo://app?vid=2767110b-46f6-461f-9053-309ad1bd2e5a","ios":"levelo://app?vid=2767110b-46f6-461f-9053-309ad1bd2e5a"},"vehicle_type_id":"4","last_reported":1745917912,"current_range_meters":19200,"station_id":"cpo3532slgdg3j2ikp40","pricing_plan_id":"cebpf4jnsgd1na2vs0mg"},{"bike_id":"942e1be8-0b4c-4b58-97b4-0482c4bdb7e4","system_id":"levelo_inurba_marseille","lat":43.30902,"lon":5.36852,"is_reserved":false,"is_disabled":false,"rental_uris":{"android":"levelo://app?vid=942e1be8-0b4c-4b58-97b4-0482c4bdb7e4","ios":"levelo://app?vid=942e1be8-0b4c-4b58-97b4-0482c4bdb7e4"},"vehicle_type_id":"4","last_reported":1745917912,"current_range_meters":19200,"station_id":"ce4bgn92rcd13ifvqbvg","pricing_plan_id":"cebpf4jnsgd1na2vs0mg"},{"bike_id":"47a9c5d0-ed84-424b-98b1-5dc8bf5c9b1b","system_id":"levelo_inurba_marseille","lat":43.30911,"lon":5.36863,"is_reserved":false,"is_disabled":false,"rental_uris":{"android":"levelo://app?vid=47a9c5d0-ed84-424b-98b1-5dc8bf5c9b1b","ios":"levelo://app?vid=47a9c5d0-ed84-424b-98b1-5dc8bf5c9b1b"},"vehicle_type_id":"4","last_reported":1745917912,"current_range_meters":19200,"station_id":"ce4bgn92rcd13ifvqbvg","pricing_plan_id":"cebpf4jnsgd1na2vs0mg"},{"bike_id":"e346b20d-25e2-4fb1-a021-d6005b3c41ff","system_id":"levelo_inurba_marseille","lat":43.24069,"lon":5.3777,"is_reserved":false,"is_disabled":false,"rental_uris":{"android":"levelo://app?vid=e346b20d-25e2-4fb1-a021-d6005b3c41ff","ios":"levelo://app?vid=e346b20d-25e2-4fb1-a021-d6005b3c41ff"},"vehicle_type_id":"4","last_reported":1745917912,"current_range_meters":19200,"station_id":"ce4bhnp2rcd13ifvqgvg","pricing_plan_id":"cebpf4jnsgd1na2vs0mg"},{"bike_id":"9fae5440-8a3b-4c60-a8a4-1894baf291cf","system_id":"levelo_inurba_marseille","lat":43.27314,"lon":5.3907,"is_reserved":false,"is_disabled":false,"rental_uris":{"android":"levelo://app?vid=9fae5440-8a3b-4c60-a8a4-1894baf291cf","ios":"levelo://app?vid=9fae5440-8a3b-4c60-a8a4-1894baf291cf"},"vehicle_type_id":"4","last_reported":1745917912,"current_range_meters":19600,"station_id":"ce4bhgp2rcd13ifvqfe0","pricing_plan_id":"cebpf4jnsgd1na2vs0mg"},{"bike_id":"4678f98c-9605-485e-9f52-d38650b7e3f9","system_id":"levelo_inurba_marseille","lat":43.32472,"lon":5.36559,"is_reserved":false,"is_disabled":false,"rental_uris":{"android":"levelo://app?vid=4678f98c-9605-485e-9f52-d38650b7e3f9","ios":"levelo://app?vid=4678f98c-9605-485e-9f52-d38650b7e3f9"},"vehicle_type_id":"4","last_reported":1745917912,"current_range_meters":19200,"station_id":"ce4bhs12rcd13ifvqhvg","pricing_plan_id":"cebpf4jnsgd1na2vs0mg"},{"bike_id":"ce2710b2-8aee-43d8-8ef3-2843f2527c66","system_id":"levelo_inurba_marseille","lat":43.2417,"lon":5.36396,"is_reserved":false,"is_disabled":false,"rental_uris":{"android":"levelo://app?vid=ce2710b2-8aee-43d8-8ef3-2843f2527c66","ios":"levelo://app?vid=ce2710b2-8aee-43d8-8ef3-2843f2527c66"},"vehicle_type_id":"4","last_reported":1745917912,"current_range_meters":19200,"station_id":"cpo36qri1sfpv3e86is0","pricing_plan_id":"cebpf4jnsgd1na2vs0mg"},{"bike_id":"86c2979e-8cf6-48ed-bdb1-835ff11e3adc","system_id":"levelo_inurba_marseille","lat":43.25382,"lon":5.4183,"is_reserved":false,"is_disabled":false,"rental_uris":{"android":"levelo://app?vid=86c2979e-8cf6-48ed-bdb1-835ff11e3adc","ios":"levelo://app?vid=86c2979e-8cf6-48ed-bdb1-835ff11e3adc"},"vehicle_type_id":"4","last_reported":1745917912,"current_range_meters":19600,"station_id":"","pricing_plan_id":"cebpf4jnsgd1na2vs0mg"},{"bike_id":"f19045ae-2cdf-4e8e-aa2b-90eea24fc5e5","system_id":"levelo_inurba_marseille","lat":43.27426,"lon":5.39387,"is_reserved":false,"is_disabled":false,"rental_uris":{"android":"levelo://app?vid=f19045ae-2cdf-4e8e-aa2b-90eea24fc5e5","ios":"levelo://app?vid=f19045ae-2cdf-4e8e-aa2b-90eea24fc5e5"},"vehicle_type_id":"4","last_reported":1745917912,"current_range_meters":19600,"station_id":"ce4bhdp2rcd13ifvqf20","pricing_plan_id":"cebpf4jnsgd1na2vs0mg"},{"bike_id":"fce2c520-92d3-4d18-810b-8d643fc15a1a","system_id":"levelo_inurba_marseille","lat":43.23041,"lon":5.35483,"is_reserved":false,"is_disabled":false,"rental_uris":{"android":"levelo://app?vid=fce2c520-92d3-4d18-810b-8d643fc15a1a","ios":"levelo://app?vid=fce2c520-92d3-4d18-810b-8d643fc15a1a"},"vehicle_type_id":"4","last_reported":1745917912,"current_range_meters":19600,"station_id":"cpo3342slgdg3j2ifvpg","pricing_plan_id":"cebpf4jnsgd1na2vs0mg"},{"bike_id":"e250d817-8954-4a0a-a778-170d65a46f91","system_id":"levelo_inurba_marseille","lat":43.2572,"lon":5.4112,"is_reserved":false,"is_disabled":false,"rental_uris":{"android":"levelo://app?vid=e250d817-8954-4a0a-a778-170d65a46f91","ios":"levelo://app?vid=e250d817-8954-4a0a-a778-170d65a46f91"},"vehicle_type_id":"4","last_reported":1745917912,"current_range_meters":19200,"station_id":"ce4bhkp2rcd13ifvqgd0","pricing_plan_id":"cebpf4jnsgd1na2vs0mg"},{"bike_id":"c80e5624-3397-47e7-9511-d89b2ece6e27","system_id":"levelo_inurba_marseille","lat":43.25579,"lon":5.38235,"is_reserved":false,"is_disabled":false,"rental_uris":{"android":"levelo://app?vid=c80e5624-3397-47e7-9511-d89b2ece6e27","ios":"levelo://app?vid=c80e5624-3397-47e7-9511-d89b2ece6e27"},"vehicle_type_id":"4","last_reported":1745917912,"current_range_meters":19600,"station_id":"ce4bhih2rcd13ifvqfs0","pricing_plan_id":"cebpf4jnsgd1na2vs0mg"},{"bike_id":"f40dcfa5-aac8-4c77-a8ea-6f63ff9f54e7","system_id":"levelo_inurba_marseille","lat":43.29023,"lon":5.38145,"is_reserved":false,"is_disabled":true,"rental_uris":{"android":"levelo://app?vid=f40dcfa5-aac8-4c77-a8ea-6f63ff9f54e7","ios":"levelo://app?vid=f40dcfa5-aac8-4c77-a8ea-6f63ff9f54e7"},"vehicle_type_id":"4","last_reported":1745917912,"current_range_meters":19600,"station_id":"ce4bh4p2rcd13ifvqe1g","pricing_plan_id":"cebpf4jnsgd1na2vs0mg"},{"bike_id":"83e3a211-7a29-4634-8bd4-af4fbec63a8f","system_id":"levelo_inurba_marseille","lat":43.24167,"lon":5.36396,"is_reserved":false,"is_disabled":false,"rental_uris":{"android":"levelo://app?vid=83e3a211-7a29-4634-8bd4-af4fbec63a8f","ios":"levelo://app?vid=83e3a211-7a29-4634-8bd4-af4fbec63a8f"},"vehicle_type_id":"4","last_reported":1745917912,"current_range_meters":19600,"station_id":"cpo36qri1sfpv3e86is0","pricing_plan_id":"cebpf4jnsgd1na2vs0mg"},{"bike_id":"8179376d-d4e0-4616-b23d-8a06eae09f1a","system_id":"levelo_inurba_marseille","lat":43.34157,"lon":5.40896,"is_reserved":false,"is_disabled":false,"rental_uris":{"android":"levelo://app?vid=8179376d-d4e0-4616-b23d-8a06eae09f1a","ios":"levelo://app?vid=8179376d-d4e0-4616-b23d-8a06eae09f1a"},"vehicle_type_id":"4","last_reported":1745917912,"current_range_meters":19600,"station_id":"ce4bhqh2rcd13ifvqhlg","pricing_plan_id":"cebpf4jnsgd1na2vs0mg"},{"bike_id":"c1995f3f-0495-4507-8d09-527e63d69b75","system_id":"levelo_inurba_marseille","lat":43.30658,"lon":5.4006,"is_reserved":false,"is_disabled":true,"rental_uris":{"android":"levelo://app?vid=c1995f3f-0495-4507-8d09-527e63d69b75","ios":"levelo://app?vid=c1995f3f-0495-4507-8d09-527e63d69b75"},"vehicle_type_id":"4","last_reported":1745917912,"current_range_meters":20000,"station_id":"ce4bh112rcd13ifvqda0","pricing_plan_id":"cebpf4jnsgd1na2vs0mg"},{"bike_id":"3f2c8720-4262-4c4b-b203-35899e59c127","system_id":"levelo_inurba_marseille","lat":43.34153,"lon":5.40907,"is_reserved":false,"is_disabled":false,"rental_uris":{"android":"levelo://app?vid=3f2c8720-4262-4c4b-b203-35899e59c127","ios":"levelo://app?vid=3f2c8720-4262-4c4b-b203-35899e59c127"},"vehicle_type_id":"4","last_reported":1745917912,"current_range_meters":20000,"station_id":"ce4bhqh2rcd13ifvqhlg","pricing_plan_id":"cebpf4jnsgd1na2vs0mg"},{"bike_id":"fa4a00dd-50f7-4382-9079-8850e4f21000","system_id":"levelo_inurba_marseille","lat":43.29193,"lon":5.358,"is_reserved":false,"is_disabled":false,"rental_uris":{"android":"levelo://app?vid=fa4a00dd-50f7-4382-9079-8850e4f21000","ios":"levelo://app?vid=fa4a00dd-50f7-4382-9079-8850e4f21000"},"vehicle_type_id":"4","last_reported":1745917912,"current_range_meters":19600,"station_id":"ce4bhb12rcd13ifvqel0","pricing_plan_id":"cebpf4jnsgd1na2vs0mg"},{"bike_id":"acc099c8-ee89-4cb9-850e-d46c2dc64f51","system_id":"levelo_inurba_marseille","lat":43.28698,"lon":5.39989,"is_reserved":false,"is_disabled":false,"rental_uris":{"android":"levelo://app?vid=acc099c8-ee89-4cb9-850e-d46c2dc64f51","ios":"levelo://app?vid=acc099c8-ee89-4cb9-850e-d46c2dc64f51"},"vehicle_type_id":"4","last_reported":1745917912,"current_range_meters":20000,"station_id":"ce4bho92rcd13ifvqh3g","pricing_plan_id":"cebpf4jnsgd1na2vs0mg"},{"bike_id":"f07ad8ca-88d9-4668-b3f7-bae3ee5a2e2e","system_id":"levelo_inurba_marseille","lat":43.29037,"lon":5.39975,"is_reserved":false,"is_disabled":false,"rental_uris":{"android":"levelo://app?vid=f07ad8ca-88d9-4668-b3f7-bae3ee5a2e2e","ios":"levelo://app?vid=f07ad8ca-88d9-4668-b3f7-bae3ee5a2e2e"},"vehicle_type_id":"4","last_reported":1745917912,"current_range_meters":19600,"station_id":"ce4bh392rcd13ifvqdm0","pricing_plan_id":"cebpf4jnsgd1na2vs0mg"},{"bike_id":"086ccab7-09c0-4722-9729-66133e914967","system_id":"levelo_inurba_marseille","lat":43.30912,"lon":5.36845,"is_reserved":false,"is_disabled":false,"rental_uris":{"android":"levelo://app?vid=086ccab7-09c0-4722-9729-66133e914967","ios":"levelo://app?vid=086ccab7-09c0-4722-9729-66133e914967"},"vehicle_type_id":"4","last_reported":1745917912,"current_range_meters":20000,"station_id":"ce4bgn92rcd13ifvqbvg","pricing_plan_id":"cebpf4jnsgd1na2vs0mg"},{"bike_id":"516bcf45-fb34-498c-8400-bae34598544a","system_id":"levelo_inurba_marseille","lat":43.31083,"lon":5.42436,"is_reserved":false,"is_disabled":false,"rental_uris":{"android":"levelo://app?vid=516bcf45-fb34-498c-8400-bae34598544a","ios":"levelo://app?vid=516bcf45-fb34-498c-8400-bae34598544a"},"vehicle_type_id":"4","last_reported":1745917912,"current_range_meters":20000,"station_id":"ce4bhp92rcd13ifvqhag","pricing_plan_id":"cebpf4jnsgd1na2vs0mg"},{"bike_id":"1aa43037-e734-4c2c-97bd-6469b528c017","system_id":"levelo_inurba_marseille","lat":43.30544,"lon":5.36681,"is_reserved":false,"is_disabled":false,"rental_uris":{"android":"levelo://app?vid=1aa43037-e734-4c2c-97bd-6469b528c017","ios":"levelo://app?vid=1aa43037-e734-4c2c-97bd-6469b528c017"},"vehicle_type_id":"4","last_reported":1745917912,"current_range_meters":20000,"station_id":"ce4bgrp2rcd13ifvqc9g","pricing_plan_id":"cebpf4jnsgd1na2vs0mg"},{"bike_id":"946f161a-49e1-4f5b-a2c3-788e3eb20de5","system_id":"levelo_inurba_marseille","lat":43.30539,"lon":5.36686,"is_reserved":false,"is_disabled":false,"rental_uris":{"android":"levelo://app?vid=946f161a-49e1-4f5b-a2c3-788e3eb20de5","ios":"levelo://app?vid=946f161a-49e1-4f5b-a2c3-788e3eb20de5"},"vehicle_type_id":"4","last_reported":1745917912,"current_range_meters":20000,"station_id":"ce4bgrp2rcd13ifvqc9g","pricing_plan_id":"cebpf4jnsgd1na2vs0mg"},{"bike_id":"117d9f86-45e8-4176-a31a-e60357033da4","system_id":"levelo_inurba_marseille","lat":43.2318,"lon":5.39983,"is_reserved":false,"is_disabled":false,"rental_uris":{"android":"levelo://app?vid=117d9f86-45e8-4176-a31a-e60357033da4","ios":"levelo://app?vid=117d9f86-45e8-4176-a31a-e60357033da4"},"vehicle_type_id":"4","last_reported":1745917912,"current_range_meters":20000,"station_id":"ce4bhn12rcd13ifvqgqg","pricing_plan_id":"cebpf4jnsgd1na2vs0mg"},{"bike_id":"637f17b1-a980-4bc5-993d-9a9de04fb5bf","system_id":"levelo_inurba_marseille","lat":43.31472,"lon":5.3688,"is_reserved":false,"is_disabled":false,"rental_uris":{"android":"levelo://app?vid=637f17b1-a980-4bc5-993d-9a9de04fb5bf","ios":"levelo://app?vid=637f17b1-a980-4bc5-993d-9a9de04fb5bf"},"vehicle_type_id":"4","last_reported":1745917912,"current_range_meters":20400,"station_id":"","pricing_plan_id":"cebpf4jnsgd1na2vs0mg"},{"bike_id":"4871808c-d5db-4070-abe0-529b43fce1ac","system_id":"levelo_inurba_marseille","lat":43.276764,"lon":5.388675,"is_reserved":false,"is_disabled":false,"rental_uris":{"android":"levelo://app?vid=4871808c-d5db-4070-abe0-529b43fce1ac","ios":"levelo://app?vid=4871808c-d5db-4070-abe0-529b43fce1ac"},"vehicle_type_id":"4","last_reported":1745917912,"current_range_meters":20400,"station_id":"ce4bhi12rcd13ifvqfo0","pricing_plan_id":"cebpf4jnsgd1na2vs0mg"},{"bike_id":"456540d1-7e4b-4c94-81f7-c6140e987cde","system_id":"levelo_inurba_marseille","lat":43.33018,"lon":5.39055,"is_reserved":false,"is_disabled":false,"rental_uris":{"android":"levelo://app?vid=456540d1-7e4b-4c94-81f7-c6140e987cde","ios":"levelo://app?vid=456540d1-7e4b-4c94-81f7-c6140e987cde"},"vehicle_type_id":"4","last_reported":1745917912,"current_range_meters":20000,"station_id":"ce4bhr92rcd13ifvqhrg","pricing_plan_id":"cebpf4jnsgd1na2vs0mg"},{"bike_id":"bc0cb221-33ad-4d5d-a991-efd0809fe08f","system_id":"levelo_inurba_marseille","lat":43.30411,"lon":5.41287,"is_reserved":false,"is_disabled":false,"rental_uris":{"android":"levelo://app?vid=bc0cb221-33ad-4d5d-a991-efd0809fe08f","ios":"levelo://app?vid=bc0cb221-33ad-4d5d-a991-efd0809fe08f"},"vehicle_type_id":"4","last_reported":1745917912,"current_range_meters":20400,"station_id":"ce4bhop2rcd13ifvqh8g","pricing_plan_id":"cebpf4jnsgd1na2vs0mg"},{"bike_id":"90af2328-c210-4941-aea9-e3c96ebb3fb0","system_id":"levelo_inurba_marseille","lat":43.31361,"lon":5.3849,"is_reserved":false,"is_disabled":false,"rental_uris":{"android":"levelo://app?vid=90af2328-c210-4941-aea9-e3c96ebb3fb0","ios":"levelo://app?vid=90af2328-c210-4941-aea9-e3c96ebb3fb0"},"vehicle_type_id":"4","last_reported":1745917912,"current_range_meters":20400,"station_id":"ce4bgt92rcd13ifvqcf0","pricing_plan_id":"cebpf4jnsgd1na2vs0mg"},{"bike_id":"404f8bb0-e61e-473d-84e3-ad9a44a44b05","system_id":"levelo_inurba_marseille","lat":43.28416,"lon":5.34976,"is_reserved":false,"is_disabled":false,"rental_uris":{"android":"levelo://app?vid=404f8bb0-e61e-473d-84e3-ad9a44a44b05","ios":"levelo://app?vid=404f8bb0-e61e-473d-84e3-ad9a44a44b05"},"vehicle_type_id":"4","last_reported":1745917912,"current_range_meters":20400,"station_id":"ce4bhbh2rcd13ifvqepg","pricing_plan_id":"cebpf4jnsgd1na2vs0mg"},{"bike_id":"a8eb07df-afb3-46ac-b185-95bebe1f42ec","system_id":"levelo_inurba_marseille","lat":43.29034,"lon":5.39966,"is_reserved":false,"is_disabled":false,"rental_uris":{"android":"levelo://app?vid=a8eb07df-afb3-46ac-b185-95bebe1f42ec","ios":"levelo://app?vid=a8eb07df-afb3-46ac-b185-95bebe1f42ec"},"vehicle_type_id":"4","last_reported":1745917912,"current_range_meters":20800,"station_id":"ce4bh392rcd13ifvqdm0","pricing_plan_id":"cebpf4jnsgd1na2vs0mg"},{"bike_id":"78885340-5c39-4d72-8723-43425223cde2","system_id":"levelo_inurba_marseille","lat":43.26062,"lon":5.39401,"is_reserved":false,"is_disabled":false,"rental_uris":{"android":"levelo://app?vid=78885340-5c39-4d72-8723-43425223cde2","ios":"levelo://app?vid=78885340-5c39-4d72-8723-43425223cde2"},"vehicle_type_id":"4","last_reported":1745917912,"current_range_meters":20800,"station_id":"ce4bhh92rcd13ifvqfj0","pricing_plan_id":"cebpf4jnsgd1na2vs0mg"},{"bike_id":"144d802c-25fa-4a95-90de-0205b43426f0","system_id":"levelo_inurba_marseille","lat":43.29606,"lon":5.38104,"is_reserved":false,"is_disabled":false,"rental_uris":{"android":"levelo://app?vid=144d802c-25fa-4a95-90de-0205b43426f0","ios":"levelo://app?vid=144d802c-25fa-4a95-90de-0205b43426f0"},"vehicle_type_id":"4","last_reported":1745917912,"current_range_meters":21600,"station_id":"ce4bgl12rcd13ifvqbo0","pricing_plan_id":"cebpf4jnsgd1na2vs0mg"},{"bike_id":"2125b237-cda7-41d8-ad1c-6d66d79fdf2b","system_id":"levelo_inurba_marseille","lat":43.33611,"lon":5.41002,"is_reserved":false,"is_disabled":false,"rental_uris":{"android":"levelo://app?vid=2125b237-cda7-41d8-ad1c-6d66d79fdf2b","ios":"levelo://app?vid=2125b237-cda7-41d8-ad1c-6d66d79fdf2b"},"vehicle_type_id":"4","last_reported":1745917912,"current_range_meters":21600,"station_id":"ce4bhqh2rcd13ifvqhmg","pricing_plan_id":"cebpf4jnsgd1na2vs0mg"},{"bike_id":"01848dd4-50bd-411c-ad46-63627ba25ec6","system_id":"levelo_inurba_marseille","lat":43.29262,"lon":5.37623,"is_reserved":false,"is_disabled":false,"rental_uris":{"android":"levelo://app?vid=01848dd4-50bd-411c-ad46-63627ba25ec6","ios":"levelo://app?vid=01848dd4-50bd-411c-ad46-63627ba25ec6"},"vehicle_type_id":"4","last_reported":1745917912,"current_range_meters":21600,"station_id":"ce4bgi12rcd13ifvqb80","pricing_plan_id":"cebpf4jnsgd1na2vs0mg"},{"bike_id":"2372f7c6-1089-4c13-bafe-c3d7862aadcc","system_id":"levelo_inurba_marseille","lat":43.31687,"lon":5.43704,"is_reserved":false,"is_disabled":false,"rental_uris":{"android":"levelo://app?vid=2372f7c6-1089-4c13-bafe-c3d7862aadcc","ios":"levelo://app?vid=2372f7c6-1089-4c13-bafe-c3d7862aadcc"},"vehicle_type_id":"4","last_reported":1745917912,"current_range_meters":22000,"station_id":"ce4bhp92rcd13ifvqhcg","pricing_plan_id":"cebpf4jnsgd1na2vs0mg"},{"bike_id":"531cd780-17d7-4f10-a6ca-1b4e170e9517","system_id":"levelo_inurba_marseille","lat":43.29363,"lon":5.37853,"is_reserved":false,"is_disabled":false,"rental_uris":{"android":"levelo://app?vid=531cd780-17d7-4f10-a6ca-1b4e170e9517","ios":"levelo://app?vid=531cd780-17d7-4f10-a6ca-1b4e170e9517"},"vehicle_type_id":"4","last_reported":1745917912,"current_range_meters":22000,"station_id":"ce4bgjh2rcd13ifvqbf0","pricing_plan_id":"cebpf4jnsgd1na2vs0mg"},{"bike_id":"2a4f5dfa-513d-46a0-923b-e5be40c3c2bc","system_id":"levelo_inurba_marseille","lat":43.28441,"lon":5.39171,"is_reserved":false,"is_disabled":true,"rental_uris":{"android":"levelo://app?vid=2a4f5dfa-513d-46a0-923b-e5be40c3c2bc","ios":"levelo://app?vid=2a4f5dfa-513d-46a0-923b-e5be40c3c2bc"},"vehicle_type_id":"4","last_reported":1745917912,"current_range_meters":22000,"station_id":"ce4bhoh2rcd13ifvqh5g","pricing_plan_id":"cebpf4jnsgd1na2vs0mg"},{"bike_id":"754aaf30-d130-45cd-8668-ae35915e3408","system_id":"levelo_inurba_marseille","lat":43.30543,"lon":5.36683,"is_reserved":false,"is_disabled":false,"rental_uris":{"android":"levelo://app?vid=754aaf30-d130-45cd-8668-ae35915e3408","ios":"levelo://app?vid=754aaf30-d130-45cd-8668-ae35915e3408"},"vehicle_type_id":"4","last_reported":1745917912,"current_range_meters":22000,"station_id":"ce4bgrp2rcd13ifvqc9g","pricing_plan_id":"cebpf4jnsgd1na2vs0mg"},{"bike_id":"ff85470a-fac7-4135-a4ff-c0bc0ae5468a","system_id":"levelo_inurba_marseille","lat":43.28484,"lon":5.38547,"is_reserved":false,"is_disabled":false,"rental_uris":{"android":"levelo://app?vid=ff85470a-fac7-4135-a4ff-c0bc0ae5468a","ios":"levelo://app?vid=ff85470a-fac7-4135-a4ff-c0bc0ae5468a"},"vehicle_type_id":"4","last_reported":1745917912,"current_range_meters":21600,"station_id":"ce4bh8p2rcd13ifvqeb0","pricing_plan_id":"cebpf4jnsgd1na2vs0mg"},{"bike_id":"957a3d0d-ba17-460f-b4ec-4c0136a5ba25","system_id":"levelo_inurba_marseille","lat":43.29881,"lon":5.39747,"is_reserved":false,"is_disabled":true,"rental_uris":{"android":"levelo://app?vid=957a3d0d-ba17-460f-b4ec-4c0136a5ba25","ios":"levelo://app?vid=957a3d0d-ba17-460f-b4ec-4c0136a5ba25"},"vehicle_type_id":"4","last_reported":1745917912,"current_range_meters":22000,"station_id":"ce4bh0h2rcd13ifvqd50","pricing_plan_id":"cebpf4jnsgd1na2vs0mg"},{"bike_id":"26518def-20a6-45d3-a6da-3dd32646ed26","system_id":"levelo_inurba_marseille","lat":43.30538,"lon":5.36561,"is_reserved":false,"is_disabled":false,"rental_uris":{"android":"levelo://app?vid=26518def-20a6-45d3-a6da-3dd32646ed26","ios":"levelo://app?vid=26518def-20a6-45d3-a6da-3dd32646ed26"},"vehicle_type_id":"4","last_reported":1745917912,"current_range_meters":22000,"station_id":"ce4bgs12rcd13ifvqcag","pricing_plan_id":"cebpf4jnsgd1na2vs0mg"},{"bike_id":"3cb31b89-e7f9-4ae1-ab70-5aa8b1845a93","system_id":"levelo_inurba_marseille","lat":43.33604,"lon":5.41017,"is_reserved":false,"is_disabled":false,"rental_uris":{"android":"levelo://app?vid=3cb31b89-e7f9-4ae1-ab70-5aa8b1845a93","ios":"levelo://app?vid=3cb31b89-e7f9-4ae1-ab70-5aa8b1845a93"},"vehicle_type_id":"4","last_reported":1745917912,"current_range_meters":22000,"station_id":"ce4bhqh2rcd13ifvqhmg","pricing_plan_id":"cebpf4jnsgd1na2vs0mg"},{"bike_id":"750b37f4-0312-424d-8787-8c7fa359a8d6","system_id":"levelo_inurba_marseille","lat":43.33601,"lon":5.41005,"is_reserved":false,"is_disabled":false,"rental_uris":{"android":"levelo://app?vid=750b37f4-0312-424d-8787-8c7fa359a8d6","ios":"levelo://app?vid=750b37f4-0312-424d-8787-8c7fa359a8d6"},"vehicle_type_id":"4","last_reported":1745917912,"current_range_meters":22000,"station_id":"ce4bhqh2rcd13ifvqhmg","pricing_plan_id":"cebpf4jnsgd1na2vs0mg"},{"bike_id":"39089e5b-adfa-4663-816f-59cf0daa187e","system_id":"levelo_inurba_marseille","lat":43.28274,"lon":5.35081,"is_reserved":false,"is_disabled":false,"rental_uris":{"android":"levelo://app?vid=39089e5b-adfa-4663-816f-59cf0daa187e","ios":"levelo://app?vid=39089e5b-adfa-4663-816f-59cf0daa187e"},"vehicle_type_id":"4","last_reported":1745917912,"current_range_meters":22000,"station_id":"ce4bhbp2rcd13ifvqerg","pricing_plan_id":"cebpf4jnsgd1na2vs0mg"},{"bike_id":"b1e1b2ad-947a-486c-8df7-396b7e0ca333","system_id":"levelo_inurba_marseille","lat":43.28265,"lon":5.35062,"is_reserved":false,"is_disabled":false,"rental_uris":{"android":"levelo://app?vid=b1e1b2ad-947a-486c-8df7-396b7e0ca333","ios":"levelo://app?vid=b1e1b2ad-947a-486c-8df7-396b7e0ca333"},"vehicle_type_id":"4","last_reported":1745917912,"current_range_meters":22400,"station_id":"ce4bhbp2rcd13ifvqerg","pricing_plan_id":"cebpf4jnsgd1na2vs0mg"},{"bike_id":"886d3a42-d2c8-44f8-bac2-14da8dc8fdff","system_id":"levelo_inurba_marseille","lat":43.30916,"lon":5.36851,"is_reserved":false,"is_disabled":false,"rental_uris":{"android":"levelo://app?vid=886d3a42-d2c8-44f8-bac2-14da8dc8fdff","ios":"levelo://app?vid=886d3a42-d2c8-44f8-bac2-14da8dc8fdff"},"vehicle_type_id":"4","last_reported":1745917912,"current_range_meters":22400,"station_id":"ce4bgn92rcd13ifvqbvg","pricing_plan_id":"cebpf4jnsgd1na2vs0mg"},{"bike_id":"b85cc1e6-7897-4589-9ca4-e9f332a1da08","system_id":"levelo_inurba_marseille","lat":43.30205,"lon":5.39476,"is_reserved":false,"is_disabled":false,"rental_uris":{"android":"levelo://app?vid=b85cc1e6-7897-4589-9ca4-e9f332a1da08","ios":"levelo://app?vid=b85cc1e6-7897-4589-9ca4-e9f332a1da08"},"vehicle_type_id":"4","last_reported":1745917912,"current_range_meters":22400,"station_id":"ce4bh0p2rcd13ifvqd70","pricing_plan_id":"cebpf4jnsgd1na2vs0mg"},{"bike_id":"9eac9edc-c3d5-43dc-8ebc-c05868539cb4","system_id":"levelo_inurba_marseille","lat":43.24981,"lon":5.37979,"is_reserved":false,"is_disabled":false,"rental_uris":{"android":"levelo://app?vid=9eac9edc-c3d5-43dc-8ebc-c05868539cb4","ios":"levelo://app?vid=9eac9edc-c3d5-43dc-8ebc-c05868539cb4"},"vehicle_type_id":"4","last_reported":1745917912,"current_range_meters":22400,"station_id":"","pricing_plan_id":"cebpf4jnsgd1na2vs0mg"},{"bike_id":"488616de-f462-46da-bb68-96f3098ecf3f","system_id":"levelo_inurba_marseille","lat":43.25868,"lon":5.3989,"is_reserved":false,"is_disabled":false,"rental_uris":{"android":"levelo://app?vid=488616de-f462-46da-bb68-96f3098ecf3f","ios":"levelo://app?vid=488616de-f462-46da-bb68-96f3098ecf3f"},"vehicle_type_id":"4","last_reported":1745917912,"current_range_meters":22400,"station_id":"ce4bhl92rcd13ifvqghg","pricing_plan_id":"cebpf4jnsgd1na2vs0mg"},{"bike_id":"9bfe6821-b569-461d-b21b-20646d93475e","system_id":"levelo_inurba_marseille","lat":43.3248,"lon":5.36573,"is_reserved":false,"is_disabled":false,"rental_uris":{"android":"levelo://app?vid=9bfe6821-b569-461d-b21b-20646d93475e","ios":"levelo://app?vid=9bfe6821-b569-461d-b21b-20646d93475e"},"vehicle_type_id":"4","last_reported":1745917912,"current_range_meters":22400,"station_id":"ce4bhs12rcd13ifvqhvg","pricing_plan_id":"cebpf4jnsgd1na2vs0mg"},{"bike_id":"60f486a5-04b9-4920-adeb-c41806805c99","system_id":"levelo_inurba_marseille","lat":43.23149,"lon":5.43702,"is_reserved":false,"is_disabled":false,"rental_uris":{"android":"levelo://app?vid=60f486a5-04b9-4920-adeb-c41806805c99","ios":"levelo://app?vid=60f486a5-04b9-4920-adeb-c41806805c99"},"vehicle_type_id":"4","last_reported":1745917912,"current_range_meters":22800,"station_id":"ce4bhmp2rcd13ifvqgog","pricing_plan_id":"cebpf4jnsgd1na2vs0mg"},{"bike_id":"8f79724e-7fe7-40cf-ac00-851e4e536fa8","system_id":"levelo_inurba_marseille","lat":43.28408,"lon":5.37516,"is_reserved":false,"is_disabled":false,"rental_uris":{"android":"levelo://app?vid=8f79724e-7fe7-40cf-ac00-851e4e536fa8","ios":"levelo://app?vid=8f79724e-7fe7-40cf-ac00-851e4e536fa8"},"vehicle_type_id":"4","last_reported":1745917912,"current_range_meters":22400,"station_id":"ce4bh412rcd13ifvqds0","pricing_plan_id":"cebpf4jnsgd1na2vs0mg"},{"bike_id":"c883e350-06bc-4c58-bd24-7d31d4345032","system_id":"levelo_inurba_marseille","lat":43.29273,"lon":5.36849,"is_reserved":false,"is_disabled":false,"rental_uris":{"android":"levelo://app?vid=c883e350-06bc-4c58-bd24-7d31d4345032","ios":"levelo://app?vid=c883e350-06bc-4c58-bd24-7d31d4345032"},"vehicle_type_id":"4","last_reported":1745917912,"current_range_meters":22400,"station_id":"ce4bhbp2rcd13ifvqesg","pricing_plan_id":"cebpf4jnsgd1na2vs0mg"},{"bike_id":"7940bc1b-eaa7-4f49-a435-46dc9391f6a1","system_id":"levelo_inurba_marseille","lat":43.21183,"lon":5.35075,"is_reserved":false,"is_disabled":false,"rental_uris":{"android":"levelo://app?vid=7940bc1b-eaa7-4f49-a435-46dc9391f6a1","ios":"levelo://app?vid=7940bc1b-eaa7-4f49-a435-46dc9391f6a1"},"vehicle_type_id":"4","last_reported":1745917912,"current_range_meters":22400,"station_id":"","pricing_plan_id":"cebpf4jnsgd1na2vs0mg"},{"bike_id":"048067ad-28be-46d7-a2f9-a76ac0a997a3","system_id":"levelo_inurba_marseille","lat":43.28718,"lon":5.37374,"is_reserved":false,"is_disabled":false,"rental_uris":{"android":"levelo://app?vid=048067ad-28be-46d7-a2f9-a76ac0a997a3","ios":"levelo://app?vid=048067ad-28be-46d7-a2f9-a76ac0a997a3"},"vehicle_type_id":"4","last_reported":1745917912,"current_range_meters":22400,"station_id":"ce4bh3p2rcd13ifvqdq0","pricing_plan_id":"cebpf4jnsgd1na2vs0mg"},{"bike_id":"88979066-d548-4d45-8830-2946bc814250","system_id":"levelo_inurba_marseille","lat":43.30543,"lon":5.36523,"is_reserved":false,"is_disabled":false,"rental_uris":{"android":"levelo://app?vid=88979066-d548-4d45-8830-2946bc814250","ios":"levelo://app?vid=88979066-d548-4d45-8830-2946bc814250"},"vehicle_type_id":"4","last_reported":1745917912,"current_range_meters":22400,"station_id":"ce4bgs12rcd13ifvqcag","pricing_plan_id":"cebpf4jnsgd1na2vs0mg"},{"bike_id":"9fa602fb-dc8d-41ab-9838-4d8f007f3296","system_id":"levelo_inurba_marseille","lat":43.30268,"lon":5.37712,"is_reserved":false,"is_disabled":false,"rental_uris":{"android":"levelo://app?vid=9fa602fb-dc8d-41ab-9838-4d8f007f3296","ios":"levelo://app?vid=9fa602fb-dc8d-41ab-9838-4d8f007f3296"},"vehicle_type_id":"4","last_reported":1745917912,"current_range_meters":22000,"station_id":"ce4bguh2rcd13ifvqcj0","pricing_plan_id":"cebpf4jnsgd1na2vs0mg"},{"bike_id":"c7ac3f4d-99da-4672-86a5-a20a296c8918","system_id":"levelo_inurba_marseille","lat":43.24186,"lon":5.39724,"is_reserved":false,"is_disabled":false,"rental_uris":{"android":"levelo://app?vid=c7ac3f4d-99da-4672-86a5-a20a296c8918","ios":"levelo://app?vid=c7ac3f4d-99da-4672-86a5-a20a296c8918"},"vehicle_type_id":"4","last_reported":1745917912,"current_range_meters":22800,"station_id":"ce4bhn12rcd13ifvqgpg","pricing_plan_id":"cebpf4jnsgd1na2vs0mg"},{"bike_id":"9a6d1a0d-0520-4c44-b0a9-74ddbe754418","system_id":"levelo_inurba_marseille","lat":43.2573,"lon":5.41117,"is_reserved":false,"is_disabled":false,"rental_uris":{"android":"levelo://app?vid=9a6d1a0d-0520-4c44-b0a9-74ddbe754418","ios":"levelo://app?vid=9a6d1a0d-0520-4c44-b0a9-74ddbe754418"},"vehicle_type_id":"4","last_reported":1745917912,"current_range_meters":22800,"station_id":"ce4bhkp2rcd13ifvqgd0","pricing_plan_id":"cebpf4jnsgd1na2vs0mg"},{"bike_id":"70d9cbb1-823e-434c-8144-5ca2a89c7451","system_id":"levelo_inurba_marseille","lat":43.28365,"lon":5.38092,"is_reserved":false,"is_disabled":true,"rental_uris":{"android":"levelo://app?vid=70d9cbb1-823e-434c-8144-5ca2a89c7451","ios":"levelo://app?vid=70d9cbb1-823e-434c-8144-5ca2a89c7451"},"vehicle_type_id":"4","last_reported":1745917912,"current_range_meters":22800,"station_id":"ce4bh412rcd13ifvqdr0","pricing_plan_id":"cebpf4jnsgd1na2vs0mg"},{"bike_id":"fecd7ad5-4d9a-471c-b2a2-a4f99bc7001c","system_id":"levelo_inurba_marseille","lat":43.25712,"lon":5.41122,"is_reserved":false,"is_disabled":false,"rental_uris":{"android":"levelo://app?vid=fecd7ad5-4d9a-471c-b2a2-a4f99bc7001c","ios":"levelo://app?vid=fecd7ad5-4d9a-471c-b2a2-a4f99bc7001c"},"vehicle_type_id":"4","last_reported":1745917912,"current_range_meters":22800,"station_id":"ce4bhkp2rcd13ifvqgd0","pricing_plan_id":"cebpf4jnsgd1na2vs0mg"},{"bike_id":"78ef0b43-3b76-4a7a-b3a2-196994b40658","system_id":"levelo_inurba_marseille","lat":43.28918,"lon":5.384,"is_reserved":false,"is_disabled":true,"rental_uris":{"android":"levelo://app?vid=78ef0b43-3b76-4a7a-b3a2-196994b40658","ios":"levelo://app?vid=78ef0b43-3b76-4a7a-b3a2-196994b40658"},"vehicle_type_id":"4","last_reported":1745917912,"current_range_meters":22800,"station_id":"ce4bh612rcd13ifvqe6g","pricing_plan_id":"cebpf4jnsgd1na2vs0mg"},{"bike_id":"33c3b6e0-ec2e-4727-b032-c2bafb717a41","system_id":"levelo_inurba_marseille","lat":43.28265,"lon":5.3506,"is_reserved":false,"is_disabled":false,"rental_uris":{"android":"levelo://app?vid=33c3b6e0-ec2e-4727-b032-c2bafb717a41","ios":"levelo://app?vid=33c3b6e0-ec2e-4727-b032-c2bafb717a41"},"vehicle_type_id":"4","last_reported":1745917912,"current_range_meters":22800,"station_id":"ce4bhbp2rcd13ifvqerg","pricing_plan_id":"cebpf4jnsgd1na2vs0mg"},{"bike_id":"124113c6-126c-4f56-b614-a7deda7ff816","system_id":"levelo_inurba_marseille","lat":43.29035,"lon":5.37571,"is_reserved":false,"is_disabled":false,"rental_uris":{"android":"levelo://app?vid=124113c6-126c-4f56-b614-a7deda7ff816","ios":"levelo://app?vid=124113c6-126c-4f56-b614-a7deda7ff816"},"vehicle_type_id":"4","last_reported":1745917912,"current_range_meters":22400,"station_id":"ce4bh692rcd13ifvqe90","pricing_plan_id":"cebpf4jnsgd1na2vs0mg"},{"bike_id":"b65024f1-321f-4d06-a452-3dc7546cb35f","system_id":"levelo_inurba_marseille","lat":43.32054,"lon":5.415413,"is_reserved":false,"is_disabled":false,"rental_uris":{"android":"levelo://app?vid=b65024f1-321f-4d06-a452-3dc7546cb35f","ios":"levelo://app?vid=b65024f1-321f-4d06-a452-3dc7546cb35f"},"vehicle_type_id":"4","last_reported":1745917912,"current_range_meters":22800,"station_id":"ce4bhq92rcd13ifvqhkg","pricing_plan_id":"cebpf4jnsgd1na2vs0mg"},{"bike_id":"55dbfb08-f027-4634-90d6-2b1246dfdb71","system_id":"levelo_inurba_marseille","lat":43.33601,"lon":5.41032,"is_reserved":false,"is_disabled":false,"rental_uris":{"android":"levelo://app?vid=55dbfb08-f027-4634-90d6-2b1246dfdb71","ios":"levelo://app?vid=55dbfb08-f027-4634-90d6-2b1246dfdb71"},"vehicle_type_id":"4","last_reported":1745917912,"current_range_meters":23200,"station_id":"ce4bhqh2rcd13ifvqhmg","pricing_plan_id":"cebpf4jnsgd1na2vs0mg"},{"bike_id":"958eb749-0688-4143-8e65-14f93b920079","system_id":"levelo_inurba_marseille","lat":43.30477,"lon":5.37884,"is_reserved":false,"is_disabled":false,"rental_uris":{"android":"levelo://app?vid=958eb749-0688-4143-8e65-14f93b920079","ios":"levelo://app?vid=958eb749-0688-4143-8e65-14f93b920079"},"vehicle_type_id":"4","last_reported":1745917912,"current_range_meters":23200,"station_id":"ce4bgup2rcd13ifvqcn0","pricing_plan_id":"cebpf4jnsgd1na2vs0mg"},{"bike_id":"f1dba9be-6e70-4b56-988e-413fd1e3cd62","system_id":"levelo_inurba_marseille","lat":43.30144,"lon":5.37419,"is_reserved":false,"is_disabled":false,"rental_uris":{"android":"levelo://app?vid=f1dba9be-6e70-4b56-988e-413fd1e3cd62","ios":"levelo://app?vid=f1dba9be-6e70-4b56-988e-413fd1e3cd62"},"vehicle_type_id":"4","last_reported":1745917912,"current_range_meters":23200,"station_id":"ce4bgs92rcd13ifvqcc0","pricing_plan_id":"cebpf4jnsgd1na2vs0mg"},{"bike_id":"16096a5e-70ed-4f1f-81de-ca76f59320ee","system_id":"levelo_inurba_marseille","lat":43.25577,"lon":5.38233,"is_reserved":false,"is_disabled":false,"rental_uris":{"android":"levelo://app?vid=16096a5e-70ed-4f1f-81de-ca76f59320ee","ios":"levelo://app?vid=16096a5e-70ed-4f1f-81de-ca76f59320ee"},"vehicle_type_id":"4","last_reported":1745917912,"current_range_meters":23200,"station_id":"ce4bhih2rcd13ifvqfs0","pricing_plan_id":"cebpf4jnsgd1na2vs0mg"},{"bike_id":"e644bd44-c292-4306-8346-c691554a767a","system_id":"levelo_inurba_marseille","lat":43.30619,"lon":5.36636,"is_reserved":false,"is_disabled":false,"rental_uris":{"android":"levelo://app?vid=e644bd44-c292-4306-8346-c691554a767a","ios":"levelo://app?vid=e644bd44-c292-4306-8346-c691554a767a"},"vehicle_type_id":"4","last_reported":1745917912,"current_range_meters":23200,"station_id":"","pricing_plan_id":"cebpf4jnsgd1na2vs0mg"},{"bike_id":"01bbe0b0-0f60-4e3f-92d5-8f4ec380fa57","system_id":"levelo_inurba_marseille","lat":43.30901,"lon":5.36856,"is_reserved":false,"is_disabled":false,"rental_uris":{"android":"levelo://app?vid=01bbe0b0-0f60-4e3f-92d5-8f4ec380fa57","ios":"levelo://app?vid=01bbe0b0-0f60-4e3f-92d5-8f4ec380fa57"},"vehicle_type_id":"4","last_reported":1745917912,"current_range_meters":23200,"station_id":"ce4bgn92rcd13ifvqbvg","pricing_plan_id":"cebpf4jnsgd1na2vs0mg"},{"bike_id":"55d4ceda-716f-4e23-8f65-da1615c4ab7b","system_id":"levelo_inurba_marseille","lat":43.28264,"lon":5.35065,"is_reserved":false,"is_disabled":false,"rental_uris":{"android":"levelo://app?vid=55d4ceda-716f-4e23-8f65-da1615c4ab7b","ios":"levelo://app?vid=55d4ceda-716f-4e23-8f65-da1615c4ab7b"},"vehicle_type_id":"4","last_reported":1745917912,"current_range_meters":23200,"station_id":"ce4bhbp2rcd13ifvqerg","pricing_plan_id":"cebpf4jnsgd1na2vs0mg"},{"bike_id":"f5ee6b5c-07b9-4c0d-b44d-1ece77029f45","system_id":"levelo_inurba_marseille","lat":43.305456,"lon":5.365331,"is_reserved":false,"is_disabled":true,"rental_uris":{"android":"levelo://app?vid=f5ee6b5c-07b9-4c0d-b44d-1ece77029f45","ios":"levelo://app?vid=f5ee6b5c-07b9-4c0d-b44d-1ece77029f45"},"vehicle_type_id":"4","last_reported":1745917912,"current_range_meters":23200,"station_id":"","pricing_plan_id":"cebpf4jnsgd1na2vs0mg"},{"bike_id":"4bf6b69b-e08a-490c-9b07-d13072b37d89","system_id":"levelo_inurba_marseille","lat":43.2416,"lon":5.364103,"is_reserved":false,"is_disabled":false,"rental_uris":{"android":"levelo://app?vid=4bf6b69b-e08a-490c-9b07-d13072b37d89","ios":"levelo://app?vid=4bf6b69b-e08a-490c-9b07-d13072b37d89"},"vehicle_type_id":"4","last_reported":1745917912,"current_range_meters":24000,"station_id":"cpo36qri1sfpv3e86is0","pricing_plan_id":"cebpf4jnsgd1na2vs0mg"},{"bike_id":"01e60f11-94a8-4456-9842-34bf8195985d","system_id":"levelo_inurba_marseille","lat":43.24385,"lon":5.3706,"is_reserved":false,"is_disabled":false,"rental_uris":{"android":"levelo://app?vid=01e60f11-94a8-4456-9842-34bf8195985d","ios":"levelo://app?vid=01e60f11-94a8-4456-9842-34bf8195985d"},"vehicle_type_id":"4","last_reported":1745917912,"current_range_meters":24000,"station_id":"ce4bhhh2rcd13ifvqfk0","pricing_plan_id":"cebpf4jnsgd1na2vs0mg"},{"bike_id":"6a7e4adb-0ab5-4ac5-8096-dfd43705db28","system_id":"levelo_inurba_marseille","lat":43.309076,"lon":5.368487,"is_reserved":false,"is_disabled":false,"rental_uris":{"android":"levelo://app?vid=6a7e4adb-0ab5-4ac5-8096-dfd43705db28","ios":"levelo://app?vid=6a7e4adb-0ab5-4ac5-8096-dfd43705db28"},"vehicle_type_id":"4","last_reported":1745917912,"current_range_meters":24000,"station_id":"ce4bgn92rcd13ifvqbvg","pricing_plan_id":"cebpf4jnsgd1na2vs0mg"},{"bike_id":"a567b7a9-62f3-4b90-9d22-d33cd68674b2","system_id":"levelo_inurba_marseille","lat":43.3024,"lon":5.40058,"is_reserved":false,"is_disabled":false,"rental_uris":{"android":"levelo://app?vid=a567b7a9-62f3-4b90-9d22-d33cd68674b2","ios":"levelo://app?vid=a567b7a9-62f3-4b90-9d22-d33cd68674b2"},"vehicle_type_id":"4","last_reported":1745917912,"current_range_meters":24000,"station_id":"ce4bgvh2rcd13ifvqcs0","pricing_plan_id":"cebpf4jnsgd1na2vs0mg"},{"bike_id":"42baf795-60f8-4982-a3f4-d038d2671870","system_id":"levelo_inurba_marseille","lat":43.28,"lon":5.40009,"is_reserved":false,"is_disabled":false,"rental_uris":{"android":"levelo://app?vid=42baf795-60f8-4982-a3f4-d038d2671870","ios":"levelo://app?vid=42baf795-60f8-4982-a3f4-d038d2671870"},"vehicle_type_id":"4","last_reported":1745917912,"current_range_meters":24000,"station_id":"ce4bho92rcd13ifvqh4g","pricing_plan_id":"cebpf4jnsgd1na2vs0mg"},{"bike_id":"424b8937-f0ed-453f-824c-8f3f6b159665","system_id":"levelo_inurba_marseille","lat":43.24072,"lon":5.3776,"is_reserved":false,"is_disabled":false,"rental_uris":{"android":"levelo://app?vid=424b8937-f0ed-453f-824c-8f3f6b159665","ios":"levelo://app?vid=424b8937-f0ed-453f-824c-8f3f6b159665"},"vehicle_type_id":"4","last_reported":1745917912,"current_range_meters":24000,"station_id":"ce4bhnp2rcd13ifvqgvg","pricing_plan_id":"cebpf4jnsgd1na2vs0mg"},{"bike_id":"cd457208-b108-4b8b-a5a8-73abb415cb7a","system_id":"levelo_inurba_marseille","lat":43.31359,"lon":5.36703,"is_reserved":false,"is_disabled":false,"rental_uris":{"android":"levelo://app?vid=cd457208-b108-4b8b-a5a8-73abb415cb7a","ios":"levelo://app?vid=cd457208-b108-4b8b-a5a8-73abb415cb7a"},"vehicle_type_id":"4","last_reported":1745917912,"current_range_meters":24000,"station_id":"ce4bgr92rcd13ifvqc6g","pricing_plan_id":"cebpf4jnsgd1na2vs0mg"},{"bike_id":"74bf95c0-7a97-49f5-b668-5cac095decdf","system_id":"levelo_inurba_marseille","lat":43.24117,"lon":5.3776,"is_reserved":false,"is_disabled":false,"rental_uris":{"android":"levelo://app?vid=74bf95c0-7a97-49f5-b668-5cac095decdf","ios":"levelo://app?vid=74bf95c0-7a97-49f5-b668-5cac095decdf"},"vehicle_type_id":"4","last_reported":1745917912,"current_range_meters":24000,"station_id":"ce4bhnp2rcd13ifvqgvg","pricing_plan_id":"cebpf4jnsgd1na2vs0mg"},{"bike_id":"aba425a9-bc0e-4992-bab8-21b7d2136130","system_id":"levelo_inurba_marseille","lat":43.309092,"lon":5.368464,"is_reserved":false,"is_disabled":false,"rental_uris":{"android":"levelo://app?vid=aba425a9-bc0e-4992-bab8-21b7d2136130","ios":"levelo://app?vid=aba425a9-bc0e-4992-bab8-21b7d2136130"},"vehicle_type_id":"4","last_reported":1745917912,"current_range_meters":24000,"station_id":"ce4bgn92rcd13ifvqbvg","pricing_plan_id":"cebpf4jnsgd1na2vs0mg"},{"bike_id":"3107d534-5468-4e27-b57d-0f4d4ba27baa","system_id":"levelo_inurba_marseille","lat":43.30154,"lon":5.38097,"is_reserved":false,"is_disabled":false,"rental_uris":{"android":"levelo://app?vid=3107d534-5468-4e27-b57d-0f4d4ba27baa","ios":"levelo://app?vid=3107d534-5468-4e27-b57d-0f4d4ba27baa"},"vehicle_type_id":"4","last_reported":1745917912,"current_range_meters":24000,"station_id":"ce4bgjp2rcd13ifvqbh0","pricing_plan_id":"cebpf4jnsgd1na2vs0mg"},{"bike_id":"da4df158-585e-438b-bf40-db256fba77f7","system_id":"levelo_inurba_marseille","lat":43.24071,"lon":5.37757,"is_reserved":false,"is_disabled":false,"rental_uris":{"android":"levelo://app?vid=da4df158-585e-438b-bf40-db256fba77f7","ios":"levelo://app?vid=da4df158-585e-438b-bf40-db256fba77f7"},"vehicle_type_id":"4","last_reported":1745917912,"current_range_meters":24000,"station_id":"ce4bhnp2rcd13ifvqgvg","pricing_plan_id":"cebpf4jnsgd1na2vs0mg"},{"bike_id":"4569c9b1-a34c-45cf-b7b2-58c23666e49d","system_id":"levelo_inurba_marseille","lat":43.23176,"lon":5.39986,"is_reserved":false,"is_disabled":false,"rental_uris":{"android":"levelo://app?vid=4569c9b1-a34c-45cf-b7b2-58c23666e49d","ios":"levelo://app?vid=4569c9b1-a34c-45cf-b7b2-58c23666e49d"},