{"last_updated":1773146150,"ttl":60,"version":"2.2","data":{"bikes":[{"bike_id":"d836b3f9-d22b-4e36-9788-587fa8497bc6","system_id":"levelo_inurba_marseille","lat":43.24174,"lon":5.36381,"is_reserved":false,"is_disabled":false,"rental_uris":{"android":"levelo://app?vid=d836b3f9-d22b-4e36-9788-587fa8497bc6","ios":"levelo://app?vid=d836b3f9-d22b-4e36-9788-587fa8497bc6"},"vehicle_type_id":"4","last_reported":1773146151,"current_range_meters":10000,"station_id":"cpo36qri1sfpv3e86is0","pricing_plan_id":"cebpf4jnsgd1na2vs0mg"},{"bike_id":"550f0157-9dee-4681-8f50-3896b766742f","system_id":"levelo_inurba_marseille","lat":43.25868,"lon":5.39896,"is_reserved":false,"is_disabled":false,"rental_uris":{"android":"levelo://app?vid=550f0157-9dee-4681-8f50-3896b766742f","ios":"levelo://app?vid=550f0157-9dee-4681-8f50-3896b766742f"},"vehicle_type_id":"4","last_reported":1773146151,"current_range_meters":39200,"station_id":"ce4bhl92rcd13ifvqghg","pricing_plan_id":"cebpf4jnsgd1na2vs0mg"},{"bike_id":"143be102-ab70-450c-87a4-0539a81f8dcc","system_id":"levelo_inurba_marseille","lat":43.31174,"lon":5.38732,"is_reserved":false,"is_disabled":false,"rental_uris":{"android":"levelo://app?vid=143be102-ab70-450c-87a4-0539a81f8dcc","ios":"levelo://app?vid=143be102-ab70-450c-87a4-0539a81f8dcc"},"vehicle_type_id":"4","last_reported":1773146151,"current_range_meters":32800,"station_id":"ce4bgv12rcd13ifvqcp0","pricing_plan_id":"cebpf4jnsgd1na2vs0mg"},{"bike_id":"dcb476bc-523e-425a-9356-29a2d8b88b51","system_id":"levelo_inurba_marseille","lat":43.29027,"lon":5.38641,"is_reserved":false,"is_disabled":false,"rental_uris":{"android":"levelo://app?vid=dcb476bc-523e-425a-9356-29a2d8b88b51","ios":"levelo://app?vid=dcb476bc-523e-425a-9356-29a2d8b88b51"},"vehicle_type_id":"4","last_reported":1773146151,"current_range_meters":20800,"station_id":"ce4bh4p2rcd13ifvqe0g","pricing_plan_id":"cebpf4jnsgd1na2vs0mg"},{"bike_id":"a288b9ab-a9bb-4ef5-b546-668de4d089da","system_id":"levelo_inurba_marseille","lat":43.2954,"lon":5.37486,"is_reserved":false,"is_disabled":false,"rental_uris":{"android":"levelo://app?vid=a288b9ab-a9bb-4ef5-b546-668de4d089da","ios":"levelo://app?vid=a288b9ab-a9bb-4ef5-b546-668de4d089da"},"vehicle_type_id":"4","last_reported":1773146151,"current_range_meters":30000,"station_id":"ce4bgkp2rcd13ifvqbmg","pricing_plan_id":"cebpf4jnsgd1na2vs0mg"},{"bike_id":"aaa57c9c-a5dc-480c-97b9-d3c8d31e41e6","system_id":"levelo_inurba_marseille","lat":43.30548,"lon":5.36557,"is_reserved":false,"is_disabled":false,"rental_uris":{"android":"levelo://app?vid=aaa57c9c-a5dc-480c-97b9-d3c8d31e41e6","ios":"levelo://app?vid=aaa57c9c-a5dc-480c-97b9-d3c8d31e41e6"},"vehicle_type_id":"4","last_reported":1773146151,"current_range_meters":38000,"station_id":"ce4bgs12rcd13ifvqcag","pricing_plan_id":"cebpf4jnsgd1na2vs0mg"},{"bike_id":"ec2fd004-5e6a-4378-b889-ecc25a28039f","system_id":"levelo_inurba_marseille","lat":43.28149,"lon":5.42643,"is_reserved":false,"is_disabled":false,"rental_uris":{"android":"levelo://app?vid=ec2fd004-5e6a-4378-b889-ecc25a28039f","ios":"levelo://app?vid=ec2fd004-5e6a-4378-b889-ecc25a28039f"},"vehicle_type_id":"4","last_reported":1773146151,"current_range_meters":34800,"station_id":"ce4bhnh2rcd13ifvqgug","pricing_plan_id":"cebpf4jnsgd1na2vs0mg"},{"bike_id":"957d5153-e7e5-4874-9557-99dd830de934","system_id":"levelo_inurba_marseille","lat":43.3464,"lon":5.36722,"is_reserved":false,"is_disabled":false,"rental_uris":{"android":"levelo://app?vid=957d5153-e7e5-4874-9557-99dd830de934","ios":"levelo://app?vid=957d5153-e7e5-4874-9557-99dd830de934"},"vehicle_type_id":"4","last_reported":1773146151,"current_range_meters":34000,"station_id":"","pricing_plan_id":"cebpf4jnsgd1na2vs0mg"},{"bike_id":"18f1c463-f6d6-4fd3-b57c-9bff424cb238","system_id":"levelo_inurba_marseille","lat":43.29274,"lon":5.37612,"is_reserved":false,"is_disabled":false,"rental_uris":{"android":"levelo://app?vid=18f1c463-f6d6-4fd3-b57c-9bff424cb238","ios":"levelo://app?vid=18f1c463-f6d6-4fd3-b57c-9bff424cb238"},"vehicle_type_id":"4","last_reported":1773146151,"current_range_meters":38000,"station_id":"ce4bgi12rcd13ifvqb80","pricing_plan_id":"cebpf4jnsgd1na2vs0mg"},{"bike_id":"4b816d63-fc3c-45dd-aea6-96b4203fe4c8","system_id":"levelo_inurba_marseille","lat":43.2848,"lon":5.48394,"is_reserved":false,"is_disabled":false,"rental_uris":{"android":"levelo://app?vid=4b816d63-fc3c-45dd-aea6-96b4203fe4c8","ios":"levelo://app?vid=4b816d63-fc3c-45dd-aea6-96b4203fe4c8"},"vehicle_type_id":"4","last_reported":1773146151,"current_range_meters":38000,"station_id":"st_d3svhcjqgbts73a3dn0g","pricing_plan_id":"cebpf4jnsgd1na2vs0mg"},{"bike_id":"9548c5b7-5eac-46d1-8ff7-8823f888763f","system_id":"levelo_inurba_marseille","lat":43.33149,"lon":5.37687,"is_reserved":false,"is_disabled":false,"rental_uris":{"android":"levelo://app?vid=9548c5b7-5eac-46d1-8ff7-8823f888763f","ios":"levelo://app?vid=9548c5b7-5eac-46d1-8ff7-8823f888763f"},"vehicle_type_id":"4","last_reported":1773146151,"current_range_meters":35200,"station_id":"st_d46cu089ee8s73dldbu0","pricing_plan_id":"cebpf4jnsgd1na2vs0mg"},{"bike_id":"fe3b6ef8-5734-4670-a69c-2a7e6e0e4342","system_id":"levelo_inurba_marseille","lat":43.29639,"lon":5.37161,"is_reserved":false,"is_disabled":false,"rental_uris":{"android":"levelo://app?vid=fe3b6ef8-5734-4670-a69c-2a7e6e0e4342","ios":"levelo://app?vid=fe3b6ef8-5734-4670-a69c-2a7e6e0e4342"},"vehicle_type_id":"4","last_reported":1773146151,"current_range_meters":37600,"station_id":"ce4bgnh2rcd13ifvqc0g","pricing_plan_id":"cebpf4jnsgd1na2vs0mg"},{"bike_id":"1ee08fee-017d-4804-9294-89d045f096b0","system_id":"levelo_inurba_marseille","lat":43.279905,"lon":5.4001,"is_reserved":false,"is_disabled":false,"rental_uris":{"android":"levelo://app?vid=1ee08fee-017d-4804-9294-89d045f096b0","ios":"levelo://app?vid=1ee08fee-017d-4804-9294-89d045f096b0"},"vehicle_type_id":"4","last_reported":1773146151,"current_range_meters":21600,"station_id":"ce4bho92rcd13ifvqh4g","pricing_plan_id":"cebpf4jnsgd1na2vs0mg"},{"bike_id":"24797630-66e6-48ac-9e2f-402e12f91c0a","system_id":"levelo_inurba_marseille","lat":43.28012,"lon":5.41641,"is_reserved":false,"is_disabled":false,"rental_uris":{"android":"levelo://app?vid=24797630-66e6-48ac-9e2f-402e12f91c0a","ios":"levelo://app?vid=24797630-66e6-48ac-9e2f-402e12f91c0a"},"vehicle_type_id":"4","last_reported":1773146151,"current_range_meters":3600,"station_id":"ce4bho12rcd13ifvqh1g","pricing_plan_id":"cebpf4jnsgd1na2vs0mg"},{"bike_id":"c3e5f7db-9aee-4e14-8726-6f1186a37e17","system_id":"levelo_inurba_marseille","lat":43.30176,"lon":5.38089,"is_reserved":false,"is_disabled":false,"rental_uris":{"android":"levelo://app?vid=c3e5f7db-9aee-4e14-8726-6f1186a37e17","ios":"levelo://app?vid=c3e5f7db-9aee-4e14-8726-6f1186a37e17"},"vehicle_type_id":"4","last_reported":1773146151,"current_range_meters":34000,"station_id":"ce4bgjp2rcd13ifvqbh0","pricing_plan_id":"cebpf4jnsgd1na2vs0mg"},{"bike_id":"ec13e8b6-4012-4c4d-9d6e-4e1942d4a326","system_id":"levelo_inurba_marseille","lat":43.29179,"lon":5.3716,"is_reserved":false,"is_disabled":false,"rental_uris":{"android":"levelo://app?vid=ec13e8b6-4012-4c4d-9d6e-4e1942d4a326","ios":"levelo://app?vid=ec13e8b6-4012-4c4d-9d6e-4e1942d4a326"},"vehicle_type_id":"4","last_reported":1773146151,"current_range_meters":23200,"station_id":"ce4bha92rcd13ifvqeh0","pricing_plan_id":"cebpf4jnsgd1na2vs0mg"},{"bike_id":"b32e1fec-13ae-4c1f-b583-73be3e302a01","system_id":"levelo_inurba_marseille","lat":43.2482,"lon":5.37449,"is_reserved":false,"is_disabled":false,"rental_uris":{"android":"levelo://app?vid=b32e1fec-13ae-4c1f-b583-73be3e302a01","ios":"levelo://app?vid=b32e1fec-13ae-4c1f-b583-73be3e302a01"},"vehicle_type_id":"4","last_reported":1773146151,"current_range_meters":36000,"station_id":"ce4bhgh2rcd13ifvqfb0","pricing_plan_id":"cebpf4jnsgd1na2vs0mg"},{"bike_id":"864c6078-41af-4bee-945c-48c82002f112","system_id":"levelo_inurba_marseille","lat":43.32476,"lon":5.3657,"is_reserved":false,"is_disabled":false,"rental_uris":{"android":"levelo://app?vid=864c6078-41af-4bee-945c-48c82002f112","ios":"levelo://app?vid=864c6078-41af-4bee-945c-48c82002f112"},"vehicle_type_id":"4","last_reported":1773146151,"current_range_meters":25200,"station_id":"ce4bhs12rcd13ifvqhvg","pricing_plan_id":"cebpf4jnsgd1na2vs0mg"},{"bike_id":"a60534b3-9ee9-4333-a7c1-1f4c68d62ab0","system_id":"levelo_inurba_marseille","lat":43.25927,"lon":5.40891,"is_reserved":false,"is_disabled":false,"rental_uris":{"android":"levelo://app?vid=a60534b3-9ee9-4333-a7c1-1f4c68d62ab0","ios":"levelo://app?vid=a60534b3-9ee9-4333-a7c1-1f4c68d62ab0"},"vehicle_type_id":"4","last_reported":1773146151,"current_range_meters":30000,"station_id":"ce4bhm92rcd13ifvqglg","pricing_plan_id":"cebpf4jnsgd1na2vs0mg"},{"bike_id":"37f283b3-f4c9-46a8-b061-23abb822cfa9","system_id":"levelo_inurba_marseille","lat":43.30899,"lon":5.3688,"is_reserved":false,"is_disabled":false,"rental_uris":{"android":"levelo://app?vid=37f283b3-f4c9-46a8-b061-23abb822cfa9","ios":"levelo://app?vid=37f283b3-f4c9-46a8-b061-23abb822cfa9"},"vehicle_type_id":"4","last_reported":1773146151,"current_range_meters":24000,"station_id":"ce4bgn92rcd13ifvqbvg","pricing_plan_id":"cebpf4jnsgd1na2vs0mg"},{"bike_id":"abd13d01-d3b3-4b8f-a3f9-05a8c130dea1","system_id":"levelo_inurba_marseille","lat":43.28084,"lon":5.39672,"is_reserved":false,"is_disabled":false,"rental_uris":{"android":"levelo://app?vid=abd13d01-d3b3-4b8f-a3f9-05a8c130dea1","ios":"levelo://app?vid=abd13d01-d3b3-4b8f-a3f9-05a8c130dea1"},"vehicle_type_id":"4","last_reported":1773146151,"current_range_meters":38400,"station_id":"ce4bho12rcd13ifvqh2g","pricing_plan_id":"cebpf4jnsgd1na2vs0mg"},{"bike_id":"adf428bd-16ce-4d6b-94cd-289d20e6adfb","system_id":"levelo_inurba_marseille","lat":43.26938,"lon":5.40259,"is_reserved":false,"is_disabled":false,"rental_uris":{"android":"levelo://app?vid=adf428bd-16ce-4d6b-94cd-289d20e6adfb","ios":"levelo://app?vid=adf428bd-16ce-4d6b-94cd-289d20e6adfb"},"vehicle_type_id":"4","last_reported":1773146151,"current_range_meters":36400,"station_id":"cjm6bp8fraef2m0cb0m0","pricing_plan_id":"cebpf4jnsgd1na2vs0mg"},{"bike_id":"162881de-9391-47a7-82fd-079ccdd8fa97","system_id":"levelo_inurba_marseille","lat":43.286675,"lon":5.386523,"is_reserved":false,"is_disabled":false,"rental_uris":{"android":"levelo://app?vid=162881de-9391-47a7-82fd-079ccdd8fa97","ios":"levelo://app?vid=162881de-9391-47a7-82fd-079ccdd8fa97"},"vehicle_type_id":"4","last_reported":1773146151,"current_range_meters":35600,"station_id":"ce4bh492rcd13ifvqdug","pricing_plan_id":"cebpf4jnsgd1na2vs0mg"},{"bike_id":"9cc09629-76f8-46a4-a76a-172ee2993776","system_id":"levelo_inurba_marseille","lat":43.32112,"lon":5.36763,"is_reserved":false,"is_disabled":false,"rental_uris":{"android":"levelo://app?vid=9cc09629-76f8-46a4-a76a-172ee2993776","ios":"levelo://app?vid=9cc09629-76f8-46a4-a76a-172ee2993776"},"vehicle_type_id":"4","last_reported":1773146151,"current_range_meters":32400,"station_id":"ce4bhrh2rcd13ifvqhug","pricing_plan_id":"cebpf4jnsgd1na2vs0mg"},{"bike_id":"8ae944a9-73e4-40dd-b559-5de5fadd517a","system_id":"levelo_inurba_marseille","lat":43.26248,"lon":5.37413,"is_reserved":false,"is_disabled":false,"rental_uris":{"android":"levelo://app?vid=8ae944a9-73e4-40dd-b559-5de5fadd517a","ios":"levelo://app?vid=8ae944a9-73e4-40dd-b559-5de5fadd517a"},"vehicle_type_id":"4","last_reported":1773146151,"current_range_meters":19600,"station_id":"ce4bhgp2rcd13ifvqfc0","pricing_plan_id":"cebpf4jnsgd1na2vs0mg"},{"bike_id":"07f811ee-e1f0-473e-8e13-4d86b3e69420","system_id":"levelo_inurba_marseille","lat":43.30249,"lon":5.40078,"is_reserved":false,"is_disabled":false,"rental_uris":{"android":"levelo://app?vid=07f811ee-e1f0-473e-8e13-4d86b3e69420","ios":"levelo://app?vid=07f811ee-e1f0-473e-8e13-4d86b3e69420"},"vehicle_type_id":"4","last_reported":1773146151,"current_range_meters":14000,"station_id":"ce4bgvh2rcd13ifvqcs0","pricing_plan_id":"cebpf4jnsgd1na2vs0mg"},{"bike_id":"9ac89a19-e749-498e-b869-7c753ce88359","system_id":"levelo_inurba_marseille","lat":43.30354,"lon":5.41882,"is_reserved":false,"is_disabled":false,"rental_uris":{"android":"levelo://app?vid=9ac89a19-e749-498e-b869-7c753ce88359","ios":"levelo://app?vid=9ac89a19-e749-498e-b869-7c753ce88359"},"vehicle_type_id":"4","last_reported":1773146151,"current_range_meters":24800,"station_id":"ce4bhop2rcd13ifvqh7g","pricing_plan_id":"cebpf4jnsgd1na2vs0mg"},{"bike_id":"b5369474-d595-42d6-ba6e-c39f04602da0","system_id":"levelo_inurba_marseille","lat":43.22566,"lon":5.4163,"is_reserved":false,"is_disabled":false,"rental_uris":{"android":"levelo://app?vid=b5369474-d595-42d6-ba6e-c39f04602da0","ios":"levelo://app?vid=b5369474-d595-42d6-ba6e-c39f04602da0"},"vehicle_type_id":"4","last_reported":1773146151,"current_range_meters":10800,"station_id":"st_d2o4gvlbi1j2169b742g","pricing_plan_id":"cebpf4jnsgd1na2vs0mg"},{"bike_id":"5c75f21b-7e95-43b6-a338-699ae6c6da3a","system_id":"levelo_inurba_marseille","lat":43.25827,"lon":5.39428,"is_reserved":false,"is_disabled":false,"rental_uris":{"android":"levelo://app?vid=5c75f21b-7e95-43b6-a338-699ae6c6da3a","ios":"levelo://app?vid=5c75f21b-7e95-43b6-a338-699ae6c6da3a"},"vehicle_type_id":"4","last_reported":1773146151,"current_range_meters":11600,"station_id":"ce4bhip2rcd13ifvqft0","pricing_plan_id":"cebpf4jnsgd1na2vs0mg"},{"bike_id":"defb3785-ffdb-45c6-b37a-b3aa30aa857c","system_id":"levelo_inurba_marseille","lat":43.24162,"lon":5.39739,"is_reserved":false,"is_disabled":false,"rental_uris":{"android":"levelo://app?vid=defb3785-ffdb-45c6-b37a-b3aa30aa857c","ios":"levelo://app?vid=defb3785-ffdb-45c6-b37a-b3aa30aa857c"},"vehicle_type_id":"4","last_reported":1773146151,"current_range_meters":38400,"station_id":"ce4bhn12rcd13ifvqgpg","pricing_plan_id":"cebpf4jnsgd1na2vs0mg"},{"bike_id":"ffca8b48-6a41-4c14-bbf9-9d4227cddf8b","system_id":"levelo_inurba_marseille","lat":43.31697,"lon":5.40473,"is_reserved":false,"is_disabled":false,"rental_uris":{"android":"levelo://app?vid=ffca8b48-6a41-4c14-bbf9-9d4227cddf8b","ios":"levelo://app?vid=ffca8b48-6a41-4c14-bbf9-9d4227cddf8b"},"vehicle_type_id":"4","last_reported":1773146151,"current_range_meters":36000,"station_id":"ce4bh012rcd13ifvqd00","pricing_plan_id":"cebpf4jnsgd1na2vs0mg"},{"bike_id":"26aa5a84-7c56-4e4b-b67f-4e70084d4713","system_id":"levelo_inurba_marseille","lat":43.29282,"lon":5.36837,"is_reserved":false,"is_disabled":false,"rental_uris":{"android":"levelo://app?vid=26aa5a84-7c56-4e4b-b67f-4e70084d4713","ios":"levelo://app?vid=26aa5a84-7c56-4e4b-b67f-4e70084d4713"},"vehicle_type_id":"4","last_reported":1773146151,"current_range_meters":11200,"station_id":"ce4bhbp2rcd13ifvqesg","pricing_plan_id":"cebpf4jnsgd1na2vs0mg"},{"bike_id":"57be604b-33d9-4634-bc58-ddcff506a976","system_id":"levelo_inurba_marseille","lat":43.24072,"lon":5.37745,"is_reserved":false,"is_disabled":false,"rental_uris":{"android":"levelo://app?vid=57be604b-33d9-4634-bc58-ddcff506a976","ios":"levelo://app?vid=57be604b-33d9-4634-bc58-ddcff506a976"},"vehicle_type_id":"4","last_reported":1773146151,"current_range_meters":40000,"station_id":"ce4bhnp2rcd13ifvqgvg","pricing_plan_id":"cebpf4jnsgd1na2vs0mg"},{"bike_id":"c3a6abe6-c2fe-4a0d-bd39-b1c9edd3f158","system_id":"levelo_inurba_marseille","lat":43.29512,"lon":5.37493,"is_reserved":false,"is_disabled":false,"rental_uris":{"android":"levelo://app?vid=c3a6abe6-c2fe-4a0d-bd39-b1c9edd3f158","ios":"levelo://app?vid=c3a6abe6-c2fe-4a0d-bd39-b1c9edd3f158"},"vehicle_type_id":"4","last_reported":1773146151,"current_range_meters":39200,"station_id":"ce4bgkp2rcd13ifvqbmg","pricing_plan_id":"cebpf4jnsgd1na2vs0mg"},{"bike_id":"4879d3c3-e3b5-42ca-ab65-740f4f2a8681","system_id":"levelo_inurba_marseille","lat":43.24176,"lon":5.36384,"is_reserved":false,"is_disabled":false,"rental_uris":{"android":"levelo://app?vid=4879d3c3-e3b5-42ca-ab65-740f4f2a8681","ios":"levelo://app?vid=4879d3c3-e3b5-42ca-ab65-740f4f2a8681"},"vehicle_type_id":"4","last_reported":1773146151,"current_range_meters":16400,"station_id":"cpo36qri1sfpv3e86is0","pricing_plan_id":"cebpf4jnsgd1na2vs0mg"},{"bike_id":"406dc9a2-14d2-43f3-b09a-1270cddb760c","system_id":"levelo_inurba_marseille","lat":43.29919,"lon":5.37474,"is_reserved":false,"is_disabled":false,"rental_uris":{"android":"levelo://app?vid=406dc9a2-14d2-43f3-b09a-1270cddb760c","ios":"levelo://app?vid=406dc9a2-14d2-43f3-b09a-1270cddb760c"},"vehicle_type_id":"4","last_reported":1773146151,"current_range_meters":39200,"station_id":"ce4bgjh2rcd13ifvqbg0","pricing_plan_id":"cebpf4jnsgd1na2vs0mg"},{"bike_id":"6cfb7bd9-f8d6-449b-b9ee-b500434706d4","system_id":"levelo_inurba_marseille","lat":43.32502,"lon":5.36632,"is_reserved":false,"is_disabled":false,"rental_uris":{"android":"levelo://app?vid=6cfb7bd9-f8d6-449b-b9ee-b500434706d4","ios":"levelo://app?vid=6cfb7bd9-f8d6-449b-b9ee-b500434706d4"},"vehicle_type_id":"4","last_reported":1773146151,"current_range_meters":30000,"station_id":"ce4bhs12rcd13ifvqhvg","pricing_plan_id":"cebpf4jnsgd1na2vs0mg"},{"bike_id":"05681e4e-87b0-4520-8776-5b1952252019","system_id":"levelo_inurba_marseille","lat":43.30302,"lon":5.36891,"is_reserved":false,"is_disabled":false,"rental_uris":{"android":"levelo://app?vid=05681e4e-87b0-4520-8776-5b1952252019","ios":"levelo://app?vid=05681e4e-87b0-4520-8776-5b1952252019"},"vehicle_type_id":"4","last_reported":1773146151,"current_range_meters":32400,"station_id":"ce4bgqh2rcd13ifvqc5g","pricing_plan_id":"cebpf4jnsgd1na2vs0mg"},{"bike_id":"2c836b03-51a7-4097-96f7-8a0f0d0e719d","system_id":"levelo_inurba_marseille","lat":43.24828,"lon":5.37437,"is_reserved":false,"is_disabled":false,"rental_uris":{"android":"levelo://app?vid=2c836b03-51a7-4097-96f7-8a0f0d0e719d","ios":"levelo://app?vid=2c836b03-51a7-4097-96f7-8a0f0d0e719d"},"vehicle_type_id":"4","last_reported":1773146151,"current_range_meters":37600,"station_id":"ce4bhgh2rcd13ifvqfb0","pricing_plan_id":"cebpf4jnsgd1na2vs0mg"},{"bike_id":"5e98cd14-31b8-4319-a3f9-4020968dfdec","system_id":"levelo_inurba_marseille","lat":43.29595,"lon":5.36718,"is_reserved":false,"is_disabled":false,"rental_uris":{"android":"levelo://app?vid=5e98cd14-31b8-4319-a3f9-4020968dfdec","ios":"levelo://app?vid=5e98cd14-31b8-4319-a3f9-4020968dfdec"},"vehicle_type_id":"4","last_reported":1773146151,"current_range_meters":36400,"station_id":"ce4bgph2rcd13ifvqc2g","pricing_plan_id":"cebpf4jnsgd1na2vs0mg"},{"bike_id":"842e27a6-5d76-45f6-9bcb-6e4a753be90c","system_id":"levelo_inurba_marseille","lat":43.29579,"lon":5.37757,"is_reserved":false,"is_disabled":false,"rental_uris":{"android":"levelo://app?vid=842e27a6-5d76-45f6-9bcb-6e4a753be90c","ios":"levelo://app?vid=842e27a6-5d76-45f6-9bcb-6e4a753be90c"},"vehicle_type_id":"4","last_reported":1773146151,"current_range_meters":8400,"station_id":"","pricing_plan_id":"cebpf4jnsgd1na2vs0mg"},{"bike_id":"0042b9c4-6034-4b14-a836-5261c3b74b6f","system_id":"levelo_inurba_marseille","lat":43.2928,"lon":5.37591,"is_reserved":false,"is_disabled":false,"rental_uris":{"android":"levelo://app?vid=0042b9c4-6034-4b14-a836-5261c3b74b6f","ios":"levelo://app?vid=0042b9c4-6034-4b14-a836-5261c3b74b6f"},"vehicle_type_id":"4","last_reported":1773146151,"current_range_meters":39200,"station_id":"ce4bgi12rcd13ifvqb80","pricing_plan_id":"cebpf4jnsgd1na2vs0mg"},{"bike_id":"6073a47f-518c-413d-af8e-2cd2ccfbc29d","system_id":"levelo_inurba_marseille","lat":43.25587,"lon":5.38212,"is_reserved":false,"is_disabled":false,"rental_uris":{"android":"levelo://app?vid=6073a47f-518c-413d-af8e-2cd2ccfbc29d","ios":"levelo://app?vid=6073a47f-518c-413d-af8e-2cd2ccfbc29d"},"vehicle_type_id":"4","last_reported":1773146151,"current_range_meters":38800,"station_id":"ce4bhih2rcd13ifvqfs0","pricing_plan_id":"cebpf4jnsgd1na2vs0mg"},{"bike_id":"05a6aeb6-8ecc-444c-a68d-cdb267f43480","system_id":"levelo_inurba_marseille","lat":43.24667,"lon":5.38879,"is_reserved":false,"is_disabled":false,"rental_uris":{"android":"levelo://app?vid=05a6aeb6-8ecc-444c-a68d-cdb267f43480","ios":"levelo://app?vid=05a6aeb6-8ecc-444c-a68d-cdb267f43480"},"vehicle_type_id":"4","last_reported":1773146151,"current_range_meters":38800,"station_id":"ce4bhg12rcd13ifvqf60","pricing_plan_id":"cebpf4jnsgd1na2vs0mg"},{"bike_id":"4d918a95-6ede-4f0d-8771-87f15900f998","system_id":"levelo_inurba_marseille","lat":43.30337,"lon":5.41918,"is_reserved":false,"is_disabled":true,"rental_uris":{"android":"levelo://app?vid=4d918a95-6ede-4f0d-8771-87f15900f998","ios":"levelo://app?vid=4d918a95-6ede-4f0d-8771-87f15900f998"},"vehicle_type_id":"4","last_reported":1773146151,"current_range_meters":31200,"station_id":"","pricing_plan_id":"cebpf4jnsgd1na2vs0mg"},{"bike_id":"941ec6ae-979a-4205-b2af-d407a3814e27","system_id":"levelo_inurba_marseille","lat":43.29036,"lon":5.37572,"is_reserved":false,"is_disabled":false,"rental_uris":{"android":"levelo://app?vid=941ec6ae-979a-4205-b2af-d407a3814e27","ios":"levelo://app?vid=941ec6ae-979a-4205-b2af-d407a3814e27"},"vehicle_type_id":"4","last_reported":1773146151,"current_range_meters":29600,"station_id":"ce4bh692rcd13ifvqe90","pricing_plan_id":"cebpf4jnsgd1na2vs0mg"},{"bike_id":"a5642da5-590f-492f-89f9-0fbe17148ab4","system_id":"levelo_inurba_marseille","lat":43.23785,"lon":5.36624,"is_reserved":false,"is_disabled":false,"rental_uris":{"android":"levelo://app?vid=a5642da5-590f-492f-89f9-0fbe17148ab4","ios":"levelo://app?vid=a5642da5-590f-492f-89f9-0fbe17148ab4"},"vehicle_type_id":"4","last_reported":1773146151,"current_range_meters":17600,"station_id":"st_d3nk18o9ro0c73en2l3g","pricing_plan_id":"cebpf4jnsgd1na2vs0mg"},{"bike_id":"ed8dec86-aa91-45f9-93c0-8464f27d0f2d","system_id":"levelo_inurba_marseille","lat":43.29534,"lon":5.38536,"is_reserved":false,"is_disabled":false,"rental_uris":{"android":"levelo://app?vid=ed8dec86-aa91-45f9-93c0-8464f27d0f2d","ios":"levelo://app?vid=ed8dec86-aa91-45f9-93c0-8464f27d0f2d"},"vehicle_type_id":"4","last_reported":1773146151,"current_range_meters":25200,"station_id":"ce4bgih2rcd13ifvqba0","pricing_plan_id":"cebpf4jnsgd1na2vs0mg"},{"bike_id":"69f2ffbf-585f-43a8-8001-70d9c4e50d2f","system_id":"levelo_inurba_marseille","lat":43.31359,"lon":5.36705,"is_reserved":false,"is_disabled":false,"rental_uris":{"android":"levelo://app?vid=69f2ffbf-585f-43a8-8001-70d9c4e50d2f","ios":"levelo://app?vid=69f2ffbf-585f-43a8-8001-70d9c4e50d2f"},"vehicle_type_id":"4","last_reported":1773146151,"current_range_meters":22000,"station_id":"ce4bgr92rcd13ifvqc6g","pricing_plan_id":"cebpf4jnsgd1na2vs0mg"},{"bike_id":"31763411-681a-4026-9d24-6667686202f0","system_id":"levelo_inurba_marseille","lat":43.29966,"lon":5.38494,"is_reserved":false,"is_disabled":false,"rental_uris":{"android":"levelo://app?vid=31763411-681a-4026-9d24-6667686202f0","ios":"levelo://app?vid=31763411-681a-4026-9d24-6667686202f0"},"vehicle_type_id":"4","last_reported":1773146151,"current_range_meters":18000,"station_id":"ce4bgj92rcd13ifvqbd0","pricing_plan_id":"cebpf4jnsgd1na2vs0mg"},{"bike_id":"525d593e-e5ab-4f9b-a084-f494d61aa115","system_id":"levelo_inurba_marseille","lat":43.30355,"lon":5.41861,"is_reserved":false,"is_disabled":false,"rental_uris":{"android":"levelo://app?vid=525d593e-e5ab-4f9b-a084-f494d61aa115","ios":"levelo://app?vid=525d593e-e5ab-4f9b-a084-f494d61aa115"},"vehicle_type_id":"4","last_reported":1773146151,"current_range_meters":38400,"station_id":"ce4bhop2rcd13ifvqh7g","pricing_plan_id":"cebpf4jnsgd1na2vs0mg"},{"bike_id":"3748784d-2a78-455d-9bd8-5951e1712052","system_id":"levelo_inurba_marseille","lat":43.29749,"lon":5.37712,"is_reserved":false,"is_disabled":false,"rental_uris":{"android":"levelo://app?vid=3748784d-2a78-455d-9bd8-5951e1712052","ios":"levelo://app?vid=3748784d-2a78-455d-9bd8-5951e1712052"},"vehicle_type_id":"4","last_reported":1773146151,"current_range_meters":16400,"station_id":"","pricing_plan_id":"cebpf4jnsgd1na2vs0mg"},{"bike_id":"7450e62c-bf50-4fbe-b108-15be83443ffd","system_id":"levelo_inurba_marseille","lat":43.32095,"lon":5.3678,"is_reserved":false,"is_disabled":false,"rental_uris":{"android":"levelo://app?vid=7450e62c-bf50-4fbe-b108-15be83443ffd","ios":"levelo://app?vid=7450e62c-bf50-4fbe-b108-15be83443ffd"},"vehicle_type_id":"4","last_reported":1773146151,"current_range_meters":36400,"station_id":"ce4bhrh2rcd13ifvqhug","pricing_plan_id":"cebpf4jnsgd1na2vs0mg"},{"bike_id":"b1c6c7ac-15c1-4242-86da-05e5185f138f","system_id":"levelo_inurba_marseille","lat":43.27214,"lon":5.39166,"is_reserved":false,"is_disabled":false,"rental_uris":{"android":"levelo://app?vid=b1c6c7ac-15c1-4242-86da-05e5185f138f","ios":"levelo://app?vid=b1c6c7ac-15c1-4242-86da-05e5185f138f"},"vehicle_type_id":"4","last_reported":1773146151,"current_range_meters":32000,"station_id":"ce4bhhp2rcd13ifvqfm0","pricing_plan_id":"cebpf4jnsgd1na2vs0mg"},{"bike_id":"19978875-9c6e-45ef-ae36-aa9c375e7262","system_id":"levelo_inurba_marseille","lat":43.26568,"lon":5.37259,"is_reserved":false,"is_disabled":false,"rental_uris":{"android":"levelo://app?vid=19978875-9c6e-45ef-ae36-aa9c375e7262","ios":"levelo://app?vid=19978875-9c6e-45ef-ae36-aa9c375e7262"},"vehicle_type_id":"4","last_reported":1773146151,"current_range_meters":18800,"station_id":"ce4bhg12rcd13ifvqf70","pricing_plan_id":"cebpf4jnsgd1na2vs0mg"},{"bike_id":"584f94a8-9738-4289-81b1-d1bf00e66289","system_id":"levelo_inurba_marseille","lat":43.30391,"lon":5.42318,"is_reserved":false,"is_disabled":false,"rental_uris":{"android":"levelo://app?vid=584f94a8-9738-4289-81b1-d1bf00e66289","ios":"levelo://app?vid=584f94a8-9738-4289-81b1-d1bf00e66289"},"vehicle_type_id":"4","last_reported":1773146151,"current_range_meters":39200,"station_id":"","pricing_plan_id":"cebpf4jnsgd1na2vs0mg"},{"bike_id":"1dddf214-da8a-4b2e-a101-7925bc045082","system_id":"levelo_inurba_marseille","lat":43.27521,"lon":5.41583,"is_reserved":false,"is_disabled":false,"rental_uris":{"android":"levelo://app?vid=1dddf214-da8a-4b2e-a101-7925bc045082","ios":"levelo://app?vid=1dddf214-da8a-4b2e-a101-7925bc045082"},"vehicle_type_id":"4","last_reported":1773146151,"current_range_meters":23200,"station_id":"st_d6im8g6chgec73a5pndg","pricing_plan_id":"cebpf4jnsgd1na2vs0mg"},{"bike_id":"7bc10e00-2af1-4f29-90d3-e0b56585190f","system_id":"levelo_inurba_marseille","lat":43.29622,"lon":5.37169,"is_reserved":false,"is_disabled":false,"rental_uris":{"android":"levelo://app?vid=7bc10e00-2af1-4f29-90d3-e0b56585190f","ios":"levelo://app?vid=7bc10e00-2af1-4f29-90d3-e0b56585190f"},"vehicle_type_id":"4","last_reported":1773146151,"current_range_meters":28800,"station_id":"ce4bgnh2rcd13ifvqc0g","pricing_plan_id":"cebpf4jnsgd1na2vs0mg"},{"bike_id":"f3711349-3e20-461a-bd4e-fc3af2d6debc","system_id":"levelo_inurba_marseille","lat":43.28526,"lon":5.44104,"is_reserved":false,"is_disabled":false,"rental_uris":{"android":"levelo://app?vid=f3711349-3e20-461a-bd4e-fc3af2d6debc","ios":"levelo://app?vid=f3711349-3e20-461a-bd4e-fc3af2d6debc"},"vehicle_type_id":"4","last_reported":1773146151,"current_range_meters":9200,"station_id":"st_d3j3df2ikq2c7380ej80","pricing_plan_id":"cebpf4jnsgd1na2vs0mg"},{"bike_id":"622e5860-5704-4572-9f37-ca7b41d86075","system_id":"levelo_inurba_marseille","lat":43.3211,"lon":5.36771,"is_reserved":false,"is_disabled":false,"rental_uris":{"android":"levelo://app?vid=622e5860-5704-4572-9f37-ca7b41d86075","ios":"levelo://app?vid=622e5860-5704-4572-9f37-ca7b41d86075"},"vehicle_type_id":"4","last_reported":1773146151,"current_range_meters":27200,"station_id":"ce4bhrh2rcd13ifvqhug","pricing_plan_id":"cebpf4jnsgd1na2vs0mg"},{"bike_id":"df54282d-462c-4c9d-8e19-ace663d2371a","system_id":"levelo_inurba_marseille","lat":43.30207,"lon":5.39438,"is_reserved":false,"is_disabled":false,"rental_uris":{"android":"levelo://app?vid=df54282d-462c-4c9d-8e19-ace663d2371a","ios":"levelo://app?vid=df54282d-462c-4c9d-8e19-ace663d2371a"},"vehicle_type_id":"4","last_reported":1773146151,"current_range_meters":28400,"station_id":"ce4bh0p2rcd13ifvqd70","pricing_plan_id":"cebpf4jnsgd1na2vs0mg"},{"bike_id":"935c9a4b-2134-40bb-9292-fa075b6ddc58","system_id":"levelo_inurba_marseille","lat":43.29314,"lon":5.37176,"is_reserved":false,"is_disabled":false,"rental_uris":{"android":"levelo://app?vid=935c9a4b-2134-40bb-9292-fa075b6ddc58","ios":"levelo://app?vid=935c9a4b-2134-40bb-9292-fa075b6ddc58"},"vehicle_type_id":"4","last_reported":1773146151,"current_range_meters":39200,"station_id":"ce4bgh92rcd13ifvqb40","pricing_plan_id":"cebpf4jnsgd1na2vs0mg"},{"bike_id":"48fdecad-937e-4d35-9d6d-13e2ebad536c","system_id":"levelo_inurba_marseille","lat":43.27209,"lon":5.3919,"is_reserved":false,"is_disabled":false,"rental_uris":{"android":"levelo://app?vid=48fdecad-937e-4d35-9d6d-13e2ebad536c","ios":"levelo://app?vid=48fdecad-937e-4d35-9d6d-13e2ebad536c"},"vehicle_type_id":"4","last_reported":1773146151,"current_range_meters":38800,"station_id":"ce4bhhp2rcd13ifvqfm0","pricing_plan_id":"cebpf4jnsgd1na2vs0mg"},{"bike_id":"026b6d39-1708-4c13-bb32-68f3e9bd9d47","system_id":"levelo_inurba_marseille","lat":43.25918,"lon":5.40868,"is_reserved":false,"is_disabled":false,"rental_uris":{"android":"levelo://app?vid=026b6d39-1708-4c13-bb32-68f3e9bd9d47","ios":"levelo://app?vid=026b6d39-1708-4c13-bb32-68f3e9bd9d47"},"vehicle_type_id":"4","last_reported":1773146151,"current_range_meters":19200,"station_id":"ce4bhm92rcd13ifvqglg","pricing_plan_id":"cebpf4jnsgd1na2vs0mg"},{"bike_id":"f42d357d-43c9-4859-93ae-7f9812f807cf","system_id":"levelo_inurba_marseille","lat":43.31715,"lon":5.37731,"is_reserved":false,"is_disabled":false,"rental_uris":{"android":"levelo://app?vid=f42d357d-43c9-4859-93ae-7f9812f807cf","ios":"levelo://app?vid=f42d357d-43c9-4859-93ae-7f9812f807cf"},"vehicle_type_id":"4","last_reported":1773146151,"current_range_meters":38000,"station_id":"ce4bgth2rcd13ifvqch0","pricing_plan_id":"cebpf4jnsgd1na2vs0mg"},{"bike_id":"eee948e3-4c9f-4db5-ac11-b6948fa1e03c","system_id":"levelo_inurba_marseille","lat":43.23188,"lon":5.35549,"is_reserved":false,"is_disabled":false,"rental_uris":{"android":"levelo://app?vid=eee948e3-4c9f-4db5-ac11-b6948fa1e03c","ios":"levelo://app?vid=eee948e3-4c9f-4db5-ac11-b6948fa1e03c"},"vehicle_type_id":"4","last_reported":1773146151,"current_range_meters":38400,"station_id":"ce4bhu92rcd13ifvqi70","pricing_plan_id":"cebpf4jnsgd1na2vs0mg"},{"bike_id":"531e89df-7d89-4282-92a7-19804985cdf6","system_id":"levelo_inurba_marseille","lat":43.2481,"lon":5.37461,"is_reserved":false,"is_disabled":false,"rental_uris":{"android":"levelo://app?vid=531e89df-7d89-4282-92a7-19804985cdf6","ios":"levelo://app?vid=531e89df-7d89-4282-92a7-19804985cdf6"},"vehicle_type_id":"4","last_reported":1773146151,"current_range_meters":38800,"station_id":"ce4bhgh2rcd13ifvqfb0","pricing_plan_id":"cebpf4jnsgd1na2vs0mg"},{"bike_id":"9b48402e-3ef0-4e83-aa48-db41cf0891a9","system_id":"levelo_inurba_marseille","lat":43.27081,"lon":5.38324,"is_reserved":false,"is_disabled":false,"rental_uris":{"android":"levelo://app?vid=9b48402e-3ef0-4e83-aa48-db41cf0891a9","ios":"levelo://app?vid=9b48402e-3ef0-4e83-aa48-db41cf0891a9"},"vehicle_type_id":"4","last_reported":1773146151,"current_range_meters":23200,"station_id":"st_d3n2fo6cfp8s73cte1j0","pricing_plan_id":"cebpf4jnsgd1na2vs0mg"},{"bike_id":"d7daf13e-0d11-4259-adbb-61659f30042b","system_id":"levelo_inurba_marseille","lat":43.29292,"lon":5.36833,"is_reserved":false,"is_disabled":false,"rental_uris":{"android":"levelo://app?vid=d7daf13e-0d11-4259-adbb-61659f30042b","ios":"levelo://app?vid=d7daf13e-0d11-4259-adbb-61659f30042b"},"vehicle_type_id":"4","last_reported":1773146151,"current_range_meters":27600,"station_id":"ce4bhbp2rcd13ifvqesg","pricing_plan_id":"cebpf4jnsgd1na2vs0mg"},{"bike_id":"4b5116e0-5a5c-4dc0-9155-ccbc69c13cef","system_id":"levelo_inurba_marseille","lat":43.27088,"lon":5.42253,"is_reserved":false,"is_disabled":false,"rental_uris":{"android":"levelo://app?vid=4b5116e0-5a5c-4dc0-9155-ccbc69c13cef","ios":"levelo://app?vid=4b5116e0-5a5c-4dc0-9155-ccbc69c13cef"},"vehicle_type_id":"4","last_reported":1773146151,"current_range_meters":32800,"station_id":"ce4bhk92rcd13ifvqgb0","pricing_plan_id":"cebpf4jnsgd1na2vs0mg"},{"bike_id":"6e3c74d1-fd4f-41b5-a40e-9eb79af731a1","system_id":"levelo_inurba_marseille","lat":43.32115,"lon":5.36769,"is_reserved":false,"is_disabled":false,"rental_uris":{"android":"levelo://app?vid=6e3c74d1-fd4f-41b5-a40e-9eb79af731a1","ios":"levelo://app?vid=6e3c74d1-fd4f-41b5-a40e-9eb79af731a1"},"vehicle_type_id":"4","last_reported":1773146151,"current_range_meters":6400,"station_id":"ce4bhrh2rcd13ifvqhug","pricing_plan_id":"cebpf4jnsgd1na2vs0mg"},{"bike_id":"83d7f33c-d1db-4292-9262-93ff1da802eb","system_id":"levelo_inurba_marseille","lat":43.325,"lon":5.41464,"is_reserved":false,"is_disabled":false,"rental_uris":{"android":"levelo://app?vid=83d7f33c-d1db-4292-9262-93ff1da802eb","ios":"levelo://app?vid=83d7f33c-d1db-4292-9262-93ff1da802eb"},"vehicle_type_id":"4","last_reported":1773146151,"current_range_meters":36800,"station_id":"ce4bhq12rcd13ifvqhhg","pricing_plan_id":"cebpf4jnsgd1na2vs0mg"},{"bike_id":"93610280-3e40-40c2-8a0c-0a8ce5075865","system_id":"levelo_inurba_marseille","lat":43.29727,"lon":5.41059,"is_reserved":false,"is_disabled":false,"rental_uris":{"android":"levelo://app?vid=93610280-3e40-40c2-8a0c-0a8ce5075865","ios":"levelo://app?vid=93610280-3e40-40c2-8a0c-0a8ce5075865"},"vehicle_type_id":"4","last_reported":1773146151,"current_range_meters":33600,"station_id":"","pricing_plan_id":"cebpf4jnsgd1na2vs0mg"},{"bike_id":"06edd7c5-c7ad-4e6c-91a3-4778c8412447","system_id":"levelo_inurba_marseille","lat":43.24112,"lon":5.37756,"is_reserved":false,"is_disabled":false,"rental_uris":{"android":"levelo://app?vid=06edd7c5-c7ad-4e6c-91a3-4778c8412447","ios":"levelo://app?vid=06edd7c5-c7ad-4e6c-91a3-4778c8412447"},"vehicle_type_id":"4","last_reported":1773146151,"current_range_meters":36800,"station_id":"ce4bhnp2rcd13ifvqgvg","pricing_plan_id":"cebpf4jnsgd1na2vs0mg"},{"bike_id":"8bc805ca-bcac-46ab-b9b9-1126461e799c","system_id":"levelo_inurba_marseille","lat":43.31086,"lon":5.42432,"is_reserved":false,"is_disabled":false,"rental_uris":{"android":"levelo://app?vid=8bc805ca-bcac-46ab-b9b9-1126461e799c","ios":"levelo://app?vid=8bc805ca-bcac-46ab-b9b9-1126461e799c"},"vehicle_type_id":"4","last_reported":1773146151,"current_range_meters":33600,"station_id":"ce4bhp92rcd13ifvqhag","pricing_plan_id":"cebpf4jnsgd1na2vs0mg"},{"bike_id":"68e26663-7c55-4485-aed0-64a15b161498","system_id":"levelo_inurba_marseille","lat":43.30784,"lon":5.37656,"is_reserved":false,"is_disabled":true,"rental_uris":{"android":"levelo://app?vid=68e26663-7c55-4485-aed0-64a15b161498","ios":"levelo://app?vid=68e26663-7c55-4485-aed0-64a15b161498"},"vehicle_type_id":"4","last_reported":1773146151,"current_range_meters":16400,"station_id":"ce4bgv92rcd13ifvqcq0","pricing_plan_id":"cebpf4jnsgd1na2vs0mg"},{"bike_id":"b5f247d8-3934-4f5f-88d5-1ed966db082c","system_id":"levelo_inurba_marseille","lat":43.30561,"lon":5.3657,"is_reserved":false,"is_disabled":false,"rental_uris":{"android":"levelo://app?vid=b5f247d8-3934-4f5f-88d5-1ed966db082c","ios":"levelo://app?vid=b5f247d8-3934-4f5f-88d5-1ed966db082c"},"vehicle_type_id":"4","last_reported":1773146151,"current_range_meters":35200,"station_id":"ce4bgs12rcd13ifvqcag","pricing_plan_id":"cebpf4jnsgd1na2vs0mg"},{"bike_id":"905cd94e-2347-4c21-891c-949be2f37f85","system_id":"levelo_inurba_marseille","lat":43.29811,"lon":5.4188,"is_reserved":false,"is_disabled":false,"rental_uris":{"android":"levelo://app?vid=905cd94e-2347-4c21-891c-949be2f37f85","ios":"levelo://app?vid=905cd94e-2347-4c21-891c-949be2f37f85"},"vehicle_type_id":"4","last_reported":1773146151,"current_range_meters":33200,"station_id":"","pricing_plan_id":"cebpf4jnsgd1na2vs0mg"},{"bike_id":"f4c2c458-3357-4fa4-993e-2866374e35fc","system_id":"levelo_inurba_marseille","lat":43.29041,"lon":5.37569,"is_reserved":false,"is_disabled":false,"rental_uris":{"android":"levelo://app?vid=f4c2c458-3357-4fa4-993e-2866374e35fc","ios":"levelo://app?vid=f4c2c458-3357-4fa4-993e-2866374e35fc"},"vehicle_type_id":"4","last_reported":1773146151,"current_range_meters":16000,"station_id":"ce4bh692rcd13ifvqe90","pricing_plan_id":"cebpf4jnsgd1na2vs0mg"},{"bike_id":"e0dc69a6-751b-446d-8ea4-e240757d48e0","system_id":"levelo_inurba_marseille","lat":43.29593,"lon":5.37479,"is_reserved":false,"is_disabled":false,"rental_uris":{"android":"levelo://app?vid=e0dc69a6-751b-446d-8ea4-e240757d48e0","ios":"levelo://app?vid=e0dc69a6-751b-446d-8ea4-e240757d48e0"},"vehicle_type_id":"4","last_reported":1773146151,"current_range_meters":11600,"station_id":"ce4bgh92rcd13ifvqb50","pricing_plan_id":"cebpf4jnsgd1na2vs0mg"},{"bike_id":"585f0740-5076-433f-8808-48e24ee517db","system_id":"levelo_inurba_marseille","lat":43.29584,"lon":5.37751,"is_reserved":false,"is_disabled":false,"rental_uris":{"android":"levelo://app?vid=585f0740-5076-433f-8808-48e24ee517db","ios":"levelo://app?vid=585f0740-5076-433f-8808-48e24ee517db"},"vehicle_type_id":"4","last_reported":1773146151,"current_range_meters":30800,"station_id":"","pricing_plan_id":"cebpf4jnsgd1na2vs0mg"},{"bike_id":"51aa0389-9271-4da7-9704-89640747ff74","system_id":"levelo_inurba_marseille","lat":43.28362,"lon":5.38122,"is_reserved":false,"is_disabled":false,"rental_uris":{"android":"levelo://app?vid=51aa0389-9271-4da7-9704-89640747ff74","ios":"levelo://app?vid=51aa0389-9271-4da7-9704-89640747ff74"},"vehicle_type_id":"4","last_reported":1773146151,"current_range_meters":34000,"station_id":"ce4bh412rcd13ifvqdr0","pricing_plan_id":"cebpf4jnsgd1na2vs0mg"},{"bike_id":"94ca7e3b-72f8-4e3c-9410-a4cf84138933","system_id":"levelo_inurba_marseille","lat":43.24648,"lon":5.38872,"is_reserved":false,"is_disabled":false,"rental_uris":{"android":"levelo://app?vid=94ca7e3b-72f8-4e3c-9410-a4cf84138933","ios":"levelo://app?vid=94ca7e3b-72f8-4e3c-9410-a4cf84138933"},"vehicle_type_id":"4","last_reported":1773146151,"current_range_meters":16400,"station_id":"ce4bhg12rcd13ifvqf60","pricing_plan_id":"cebpf4jnsgd1na2vs0mg"},{"bike_id":"9dcd69a8-245d-4121-a0fa-05057d3d8876","system_id":"levelo_inurba_marseille","lat":43.2816,"lon":5.4259,"is_reserved":false,"is_disabled":false,"rental_uris":{"android":"levelo://app?vid=9dcd69a8-245d-4121-a0fa-05057d3d8876","ios":"levelo://app?vid=9dcd69a8-245d-4121-a0fa-05057d3d8876"},"vehicle_type_id":"4","last_reported":1773146151,"current_range_meters":24400,"station_id":"ce4bhnh2rcd13ifvqgug","pricing_plan_id":"cebpf4jnsgd1na2vs0mg"},{"bike_id":"60e5c394-4cfd-4c08-9eb8-91e2aebe0948","system_id":"levelo_inurba_marseille","lat":43.28268,"lon":5.35081,"is_reserved":false,"is_disabled":false,"rental_uris":{"android":"levelo://app?vid=60e5c394-4cfd-4c08-9eb8-91e2aebe0948","ios":"levelo://app?vid=60e5c394-4cfd-4c08-9eb8-91e2aebe0948"},"vehicle_type_id":"4","last_reported":1773146151,"current_range_meters":29600,"station_id":"ce4bhbp2rcd13ifvqerg","pricing_plan_id":"cebpf4jnsgd1na2vs0mg"},{"bike_id":"d6b19d2a-24d9-484c-859c-8ee54e871d0e","system_id":"levelo_inurba_marseille","lat":43.25102,"lon":5.3951,"is_reserved":false,"is_disabled":false,"rental_uris":{"android":"levelo://app?vid=d6b19d2a-24d9-484c-859c-8ee54e871d0e","ios":"levelo://app?vid=d6b19d2a-24d9-484c-859c-8ee54e871d0e"},"vehicle_type_id":"4","last_reported":1773146151,"current_range_meters":8400,"station_id":"ce4bhm12rcd13ifvqgkg","pricing_plan_id":"cebpf4jnsgd1na2vs0mg"},{"bike_id":"ecc1393e-d720-4fc4-ba41-c486d692261d","system_id":"levelo_inurba_marseille","lat":43.29371,"lon":5.37899,"is_reserved":false,"is_disabled":false,"rental_uris":{"android":"levelo://app?vid=ecc1393e-d720-4fc4-ba41-c486d692261d","ios":"levelo://app?vid=ecc1393e-d720-4fc4-ba41-c486d692261d"},"vehicle_type_id":"4","last_reported":1773146151,"current_range_meters":30400,"station_id":"","pricing_plan_id":"cebpf4jnsgd1na2vs0mg"},{"bike_id":"d9084fab-d9aa-4edd-8989-c2edf4959f5d","system_id":"levelo_inurba_marseille","lat":43.26691,"lon":5.38261,"is_reserved":false,"is_disabled":false,"rental_uris":{"android":"levelo://app?vid=d9084fab-d9aa-4edd-8989-c2edf4959f5d","ios":"levelo://app?vid=d9084fab-d9aa-4edd-8989-c2edf4959f5d"},"vehicle_type_id":"4","last_reported":1773146151,"current_range_meters":40000,"station_id":"ce4bhg92rcd13ifvqf90","pricing_plan_id":"cebpf4jnsgd1na2vs0mg"},{"bike_id":"d600fe0a-56d2-4a7b-8c97-cc5010c8cd24","system_id":"levelo_inurba_marseille","lat":43.29286,"lon":5.37611,"is_reserved":false,"is_disabled":true,"rental_uris":{"android":"levelo://app?vid=d600fe0a-56d2-4a7b-8c97-cc5010c8cd24","ios":"levelo://app?vid=d600fe0a-56d2-4a7b-8c97-cc5010c8cd24"},"vehicle_type_id":"4","last_reported":1773146151,"current_range_meters":39200,"station_id":"ce4bgi12rcd13ifvqb80","pricing_plan_id":"cebpf4jnsgd1na2vs0mg"},{"bike_id":"6896d8eb-6c9e-4011-bd7c-c8043863197c","system_id":"levelo_inurba_marseille","lat":43.24853,"lon":5.37434,"is_reserved":false,"is_disabled":false,"rental_uris":{"android":"levelo://app?vid=6896d8eb-6c9e-4011-bd7c-c8043863197c","ios":"levelo://app?vid=6896d8eb-6c9e-4011-bd7c-c8043863197c"},"vehicle_type_id":"4","last_reported":1773146151,"current_range_meters":24400,"station_id":"","pricing_plan_id":"cebpf4jnsgd1na2vs0mg"},{"bike_id":"8e6161ae-e83b-4303-a21e-0b552721fb89","system_id":"levelo_inurba_marseille","lat":43.28962,"lon":5.39605,"is_reserved":false,"is_disabled":false,"rental_uris":{"android":"levelo://app?vid=8e6161ae-e83b-4303-a21e-0b552721fb89","ios":"levelo://app?vid=8e6161ae-e83b-4303-a21e-0b552721fb89"},"vehicle_type_id":"4","last_reported":1773146151,"current_range_meters":38400,"station_id":"ce4bh3h2rcd13ifvqdn0","pricing_plan_id":"cebpf4jnsgd1na2vs0mg"},{"bike_id":"edff2cc4-a071-4a15-bf25-7895bd87b49e","system_id":"levelo_inurba_marseille","lat":43.22567,"lon":5.41625,"is_reserved":false,"is_disabled":false,"rental_uris":{"android":"levelo://app?vid=edff2cc4-a071-4a15-bf25-7895bd87b49e","ios":"levelo://app?vid=edff2cc4-a071-4a15-bf25-7895bd87b49e"},"vehicle_type_id":"4","last_reported":1773146151,"current_range_meters":8800,"station_id":"st_d2o4gvlbi1j2169b742g","pricing_plan_id":"cebpf4jnsgd1na2vs0mg"},{"bike_id":"e4897773-fef9-446d-a205-6ea4308f3d60","system_id":"levelo_inurba_marseille","lat":43.22564,"lon":5.41604,"is_reserved":false,"is_disabled":false,"rental_uris":{"android":"levelo://app?vid=e4897773-fef9-446d-a205-6ea4308f3d60","ios":"levelo://app?vid=e4897773-fef9-446d-a205-6ea4308f3d60"},"vehicle_type_id":"4","last_reported":1773146151,"current_range_meters":6000,"station_id":"st_d2o4gvlbi1j2169b742g","pricing_plan_id":"cebpf4jnsgd1na2vs0mg"},{"bike_id":"33eb8fb3-603e-4c84-a933-cc95f133c3af","system_id":"levelo_inurba_marseille","lat":43.29587,"lon":5.37575,"is_reserved":false,"is_disabled":false,"rental_uris":{"android":"levelo://app?vid=33eb8fb3-603e-4c84-a933-cc95f133c3af","ios":"levelo://app?vid=33eb8fb3-603e-4c84-a933-cc95f133c3af"},"vehicle_type_id":"4","last_reported":1773146151,"current_range_meters":24400,"station_id":"ce4bgh92rcd13ifvqb50","pricing_plan_id":"cebpf4jnsgd1na2vs0mg"},{"bike_id":"c08fec78-7aa5-495e-814f-25b828c89a5c","system_id":"levelo_inurba_marseille","lat":43.24561,"lon":5.39525,"is_reserved":false,"is_disabled":false,"rental_uris":{"android":"levelo://app?vid=c08fec78-7aa5-495e-814f-25b828c89a5c","ios":"levelo://app?vid=c08fec78-7aa5-495e-814f-25b828c89a5c"},"vehicle_type_id":"4","last_reported":1773146151,"current_range_meters":37600,"station_id":"ce4bhlp2rcd13ifvqgjg","pricing_plan_id":"cebpf4jnsgd1na2vs0mg"},{"bike_id":"ef43e318-c00c-44b5-9fb0-7afc200a5f51","system_id":"levelo_inurba_marseille","lat":43.29825,"lon":5.4139,"is_reserved":false,"is_disabled":false,"rental_uris":{"android":"levelo://app?vid=ef43e318-c00c-44b5-9fb0-7afc200a5f51","ios":"levelo://app?vid=ef43e318-c00c-44b5-9fb0-7afc200a5f51"},"vehicle_type_id":"4","last_reported":1773146151,"current_range_meters":39200,"station_id":"","pricing_plan_id":"cebpf4jnsgd1na2vs0mg"},{"bike_id":"616f491c-e223-4356-9301-075ecb9eb28b","system_id":"levelo_inurba_marseille","lat":43.26241,"lon":5.40401,"is_reserved":false,"is_disabled":false,"rental_uris":{"android":"levelo://app?vid=616f491c-e223-4356-9301-075ecb9eb28b","ios":"levelo://app?vid=616f491c-e223-4356-9301-075ecb9eb28b"},"vehicle_type_id":"4","last_reported":1773146151,"current_range_meters":31200,"station_id":"ce4bhmh2rcd13ifvqgmg","pricing_plan_id":"cebpf4jnsgd1na2vs0mg"},{"bike_id":"e594ab4f-99d7-486f-a0b3-3cdbb6a3f196","system_id":"levelo_inurba_marseille","lat":43.28457,"lon":5.4841,"is_reserved":false,"is_disabled":false,"rental_uris":{"android":"levelo://app?vid=e594ab4f-99d7-486f-a0b3-3cdbb6a3f196","ios":"levelo://app?vid=e594ab4f-99d7-486f-a0b3-3cdbb6a3f196"},"vehicle_type_id":"4","last_reported":1773146151,"current_range_meters":33600,"station_id":"","pricing_plan_id":"cebpf4jnsgd1na2vs0mg"},{"bike_id":"cedac31f-b079-4e16-8fab-d7e72b3dd7b5","system_id":"levelo_inurba_marseille","lat":43.23145,"lon":5.4373,"is_reserved":false,"is_disabled":false,"rental_uris":{"android":"levelo://app?vid=cedac31f-b079-4e16-8fab-d7e72b3dd7b5","ios":"levelo://app?vid=cedac31f-b079-4e16-8fab-d7e72b3dd7b5"},"vehicle_type_id":"4","last_reported":1773146151,"current_range_meters":14800,"station_id":"ce4bhmp2rcd13ifvqgog","pricing_plan_id":"cebpf4jnsgd1na2vs0mg"},{"bike_id":"37686e6b-47d7-4425-9d76-29b3793ef589","system_id":"levelo_inurba_marseille","lat":43.31221,"lon":5.36776,"is_reserved":false,"is_disabled":false,"rental_uris":{"android":"levelo://app?vid=37686e6b-47d7-4425-9d76-29b3793ef589","ios":"levelo://app?vid=37686e6b-47d7-4425-9d76-29b3793ef589"},"vehicle_type_id":"4","last_reported":1773146151,"current_range_meters":37600,"station_id":"","pricing_plan_id":"cebpf4jnsgd1na2vs0mg"},{"bike_id":"11f1fdce-9987-446d-9ecb-d09d969f4ba8","system_id":"levelo_inurba_marseille","lat":43.28469,"lon":5.48378,"is_reserved":false,"is_disabled":false,"rental_uris":{"android":"levelo://app?vid=11f1fdce-9987-446d-9ecb-d09d969f4ba8","ios":"levelo://app?vid=11f1fdce-9987-446d-9ecb-d09d969f4ba8"},"vehicle_type_id":"4","last_reported":1773146151,"current_range_meters":36800,"station_id":"","pricing_plan_id":"cebpf4jnsgd1na2vs0mg"},{"bike_id":"08c4662f-b8a6-4676-a2aa-27498ff34122","system_id":"levelo_inurba_marseille","lat":43.32123,"lon":5.36803,"is_reserved":false,"is_disabled":false,"rental_uris":{"android":"levelo://app?vid=08c4662f-b8a6-4676-a2aa-27498ff34122","ios":"levelo://app?vid=08c4662f-b8a6-4676-a2aa-27498ff34122"},"vehicle_type_id":"4","last_reported":1773146151,"current_range_meters":25600,"station_id":"ce4bhrh2rcd13ifvqhug","pricing_plan_id":"cebpf4jnsgd1na2vs0mg"},{"bike_id":"9a0031d7-25bf-4e8c-94ff-4784503d9cac","system_id":"levelo_inurba_marseille","lat":43.24364,"lon":5.44115,"is_reserved":false,"is_disabled":false,"rental_uris":{"android":"levelo://app?vid=9a0031d7-25bf-4e8c-94ff-4784503d9cac","ios":"levelo://app?vid=9a0031d7-25bf-4e8c-94ff-4784503d9cac"},"vehicle_type_id":"4","last_reported":1773146151,"current_range_meters":12400,"station_id":"","pricing_plan_id":"cebpf4jnsgd1na2vs0mg"},{"bike_id":"5e654f36-b9c7-448e-824d-57a1ae3d329d","system_id":"levelo_inurba_marseille","lat":43.27505,"lon":5.42432,"is_reserved":false,"is_disabled":false,"rental_uris":{"android":"levelo://app?vid=5e654f36-b9c7-448e-824d-57a1ae3d329d","ios":"levelo://app?vid=5e654f36-b9c7-448e-824d-57a1ae3d329d"},"vehicle_type_id":"4","last_reported":1773146151,"current_range_meters":25200,"station_id":"ce4bhn92rcd13ifvqgrg","pricing_plan_id":"cebpf4jnsgd1na2vs0mg"},{"bike_id":"71bd1d5d-a7cd-4a5e-9bbe-315af3ec60a8","system_id":"levelo_inurba_marseille","lat":43.28473,"lon":5.38424,"is_reserved":false,"is_disabled":true,"rental_uris":{"android":"levelo://app?vid=71bd1d5d-a7cd-4a5e-9bbe-315af3ec60a8","ios":"levelo://app?vid=71bd1d5d-a7cd-4a5e-9bbe-315af3ec60a8"},"vehicle_type_id":"4","last_reported":1773146151,"current_range_meters":14800,"station_id":"ce4bh512rcd13ifvqe3g","pricing_plan_id":"cebpf4jnsgd1na2vs0mg"},{"bike_id":"a089d132-4ca7-4e22-b487-b543c4acdb4e","system_id":"levelo_inurba_marseille","lat":43.25582,"lon":5.38237,"is_reserved":false,"is_disabled":false,"rental_uris":{"android":"levelo://app?vid=a089d132-4ca7-4e22-b487-b543c4acdb4e","ios":"levelo://app?vid=a089d132-4ca7-4e22-b487-b543c4acdb4e"},"vehicle_type_id":"4","last_reported":1773146151,"current_range_meters":39200,"station_id":"ce4bhih2rcd13ifvqfs0","pricing_plan_id":"cebpf4jnsgd1na2vs0mg"},{"bike_id":"cad85399-ce9b-4502-a9d5-67d50bad52cc","system_id":"levelo_inurba_marseille","lat":43.22936,"lon":5.35365,"is_reserved":false,"is_disabled":false,"rental_uris":{"android":"levelo://app?vid=cad85399-ce9b-4502-a9d5-67d50bad52cc","ios":"levelo://app?vid=cad85399-ce9b-4502-a9d5-67d50bad52cc"},"vehicle_type_id":"4","last_reported":1773146151,"current_range_meters":19600,"station_id":"cpo3532slgdg3j2ikp40","pricing_plan_id":"cebpf4jnsgd1na2vs0mg"},{"bike_id":"35cf46ff-04c3-4683-bd52-8dc0ae622886","system_id":"levelo_inurba_marseille","lat":43.29176,"lon":5.37127,"is_reserved":false,"is_disabled":false,"rental_uris":{"android":"levelo://app?vid=35cf46ff-04c3-4683-bd52-8dc0ae622886","ios":"levelo://app?vid=35cf46ff-04c3-4683-bd52-8dc0ae622886"},"vehicle_type_id":"4","last_reported":1773146151,"current_range_meters":25200,"station_id":"ce4bha92rcd13ifvqeh0","pricing_plan_id":"cebpf4jnsgd1na2vs0mg"},{"bike_id":"aee5635f-19c8-46c3-95d5-b087e8decb9c","system_id":"levelo_inurba_marseille","lat":43.25532,"lon":5.37627,"is_reserved":false,"is_disabled":false,"rental_uris":{"android":"levelo://app?vid=aee5635f-19c8-46c3-95d5-b087e8decb9c","ios":"levelo://app?vid=aee5635f-19c8-46c3-95d5-b087e8decb9c"},"vehicle_type_id":"4","last_reported":1773146151,"current_range_meters":16800,"station_id":"ce4bhh12rcd13ifvqff0","pricing_plan_id":"cebpf4jnsgd1na2vs0mg"},{"bike_id":"ea21537d-918a-492c-a00d-aa6c3e5c9df0","system_id":"levelo_inurba_marseille","lat":43.22588,"lon":5.41615,"is_reserved":false,"is_disabled":false,"rental_uris":{"android":"levelo://app?vid=ea21537d-918a-492c-a00d-aa6c3e5c9df0","ios":"levelo://app?vid=ea21537d-918a-492c-a00d-aa6c3e5c9df0"},"vehicle_type_id":"4","last_reported":1773146151,"current_range_meters":22800,"station_id":"st_d2o4gvlbi1j2169b742g","pricing_plan_id":"cebpf4jnsgd1na2vs0mg"},{"bike_id":"f3db9b7c-2b10-49c3-ba53-fc7aefcbeb46","system_id":"levelo_inurba_marseille","lat":43.27688,"lon":5.38901,"is_reserved":false,"is_disabled":false,"rental_uris":{"android":"levelo://app?vid=f3db9b7c-2b10-49c3-ba53-fc7aefcbeb46","ios":"levelo://app?vid=f3db9b7c-2b10-49c3-ba53-fc7aefcbeb46"},"vehicle_type_id":"4","last_reported":1773146151,"current_range_meters":32800,"station_id":"ce4bhi12rcd13ifvqfo0","pricing_plan_id":"cebpf4jnsgd1na2vs0mg"},{"bike_id":"04d68502-e0df-44ef-98ff-8751e9131415","system_id":"levelo_inurba_marseille","lat":43.24164,"lon":5.36394,"is_reserved":false,"is_disabled":false,"rental_uris":{"android":"levelo://app?vid=04d68502-e0df-44ef-98ff-8751e9131415","ios":"levelo://app?vid=04d68502-e0df-44ef-98ff-8751e9131415"},"vehicle_type_id":"4","last_reported":1773146151,"current_range_meters":20000,"station_id":"cpo36qri1sfpv3e86is0","pricing_plan_id":"cebpf4jnsgd1na2vs0mg"},{"bike_id":"6fe0ccf1-21d9-470c-a12b-f66a53c57754","system_id":"levelo_inurba_marseille","lat":43.30163,"lon":5.38101,"is_reserved":false,"is_disabled":false,"rental_uris":{"android":"levelo://app?vid=6fe0ccf1-21d9-470c-a12b-f66a53c57754","ios":"levelo://app?vid=6fe0ccf1-21d9-470c-a12b-f66a53c57754"},"vehicle_type_id":"4","last_reported":1773146151,"current_range_meters":33600,"station_id":"ce4bgjp2rcd13ifvqbh0","pricing_plan_id":"cebpf4jnsgd1na2vs0mg"},{"bike_id":"4b1b523d-d7f1-44d9-8b89-a48bfed52274","system_id":"levelo_inurba_marseille","lat":43.29622,"lon":5.37146,"is_reserved":false,"is_disabled":false,"rental_uris":{"android":"levelo://app?vid=4b1b523d-d7f1-44d9-8b89-a48bfed52274","ios":"levelo://app?vid=4b1b523d-d7f1-44d9-8b89-a48bfed52274"},"vehicle_type_id":"4","last_reported":1773146151,"current_range_meters":39200,"station_id":"ce4bgnh2rcd13ifvqc0g","pricing_plan_id":"cebpf4jnsgd1na2vs0mg"},{"bike_id":"75fdfb90-ee0d-47d3-af9a-0975dd074a09","system_id":"levelo_inurba_marseille","lat":43.23163,"lon":5.43687,"is_reserved":false,"is_disabled":false,"rental_uris":{"android":"levelo://app?vid=75fdfb90-ee0d-47d3-af9a-0975dd074a09","ios":"levelo://app?vid=75fdfb90-ee0d-47d3-af9a-0975dd074a09"},"vehicle_type_id":"4","last_reported":1773146151,"current_range_meters":26000,"station_id":"ce4bhmp2rcd13ifvqgog","pricing_plan_id":"cebpf4jnsgd1na2vs0mg"},{"bike_id":"a7986b89-cfcc-41ec-8e0e-a75228e40442","system_id":"levelo_inurba_marseille","lat":43.31023,"lon":5.37179,"is_reserved":false,"is_disabled":false,"rental_uris":{"android":"levelo://app?vid=a7986b89-cfcc-41ec-8e0e-a75228e40442","ios":"levelo://app?vid=a7986b89-cfcc-41ec-8e0e-a75228e40442"},"vehicle_type_id":"4","last_reported":1773146151,"current_range_meters":32000,"station_id":"st_d4kl2rp97mjs73e7tdfg","pricing_plan_id":"cebpf4jnsgd1na2vs0mg"},{"bike_id":"072f5be3-e2d3-4243-a280-aa67dfb573ae","system_id":"levelo_inurba_marseille","lat":43.31199,"lon":5.37679,"is_reserved":false,"is_disabled":false,"rental_uris":{"android":"levelo://app?vid=072f5be3-e2d3-4243-a280-aa67dfb573ae","ios":"levelo://app?vid=072f5be3-e2d3-4243-a280-aa67dfb573ae"},"vehicle_type_id":"4","last_reported":1773146151,"current_range_meters":36000,"station_id":"","pricing_plan_id":"cebpf4jnsgd1na2vs0mg"},{"bike_id":"f069985b-4c79-4175-9e28-889f5d37f2db","system_id":"levelo_inurba_marseille","lat":43.26692,"lon":5.38257,"is_reserved":false,"is_disabled":false,"rental_uris":{"android":"levelo://app?vid=f069985b-4c79-4175-9e28-889f5d37f2db","ios":"levelo://app?vid=f069985b-4c79-4175-9e28-889f5d37f2db"},"vehicle_type_id":"4","last_reported":1773146151,"current_range_meters":22400,"station_id":"ce4bhg92rcd13ifvqf90","pricing_plan_id":"cebpf4jnsgd1na2vs0mg"},{"bike_id":"1dbef04d-eee4-4229-adae-d0e5e0acd1ba","system_id":"levelo_inurba_marseille","lat":43.28422,"lon":5.35005,"is_reserved":false,"is_disabled":false,"rental_uris":{"android":"levelo://app?vid=1dbef04d-eee4-4229-adae-d0e5e0acd1ba","ios":"levelo://app?vid=1dbef04d-eee4-4229-adae-d0e5e0acd1ba"},"vehicle_type_id":"4","last_reported":1773146151,"current_range_meters":31200,"station_id":"ce4bhbh2rcd13ifvqepg","pricing_plan_id":"cebpf4jnsgd1na2vs0mg"},{"bike_id":"e9fd6972-e022-4385-80c1-64b318e81f36","system_id":"levelo_inurba_marseille","lat":43.25495,"lon":5.3765,"is_reserved":false,"is_disabled":false,"rental_uris":{"android":"levelo://app?vid=e9fd6972-e022-4385-80c1-64b318e81f36","ios":"levelo://app?vid=e9fd6972-e022-4385-80c1-64b318e81f36"},"vehicle_type_id":"4","last_reported":1773146151,"current_range_meters":20400,"station_id":"ce4bhh12rcd13ifvqff0","pricing_plan_id":"cebpf4jnsgd1na2vs0mg"},{"bike_id":"03deec7a-c34a-434b-8d8d-e19093f76613","system_id":"levelo_inurba_marseille","lat":43.26939,"lon":5.38923,"is_reserved":false,"is_disabled":false,"rental_uris":{"android":"levelo://app?vid=03deec7a-c34a-434b-8d8d-e19093f76613","ios":"levelo://app?vid=03deec7a-c34a-434b-8d8d-e19093f76613"},"vehicle_type_id":"4","last_reported":1773146151,"current_range_meters":35600,"station_id":"ce4bhhh2rcd13ifvqfl0","pricing_plan_id":"cebpf4jnsgd1na2vs0mg"},{"bike_id":"1cefe13d-c309-4dd1-a72f-cfc0e1c24a1b","system_id":"levelo_inurba_marseille","lat":43.28929,"lon":5.38397,"is_reserved":false,"is_disabled":false,"rental_uris":{"android":"levelo://app?vid=1cefe13d-c309-4dd1-a72f-cfc0e1c24a1b","ios":"levelo://app?vid=1cefe13d-c309-4dd1-a72f-cfc0e1c24a1b"},"vehicle_type_id":"4","last_reported":1773146151,"current_range_meters":27200,"station_id":"ce4bh612rcd13ifvqe6g","pricing_plan_id":"cebpf4jnsgd1na2vs0mg"},{"bike_id":"7e3bb1c1-f504-4b29-b169-7e546daec31f","system_id":"levelo_inurba_marseille","lat":43.24818,"lon":5.37454,"is_reserved":false,"is_disabled":false,"rental_uris":{"android":"levelo://app?vid=7e3bb1c1-f504-4b29-b169-7e546daec31f","ios":"levelo://app?vid=7e3bb1c1-f504-4b29-b169-7e546daec31f"},"vehicle_type_id":"4","last_reported":1773146151,"current_range_meters":37600,"station_id":"ce4bhgh2rcd13ifvqfb0","pricing_plan_id":"cebpf4jnsgd1na2vs0mg"},{"bike_id":"93c6d395-5f6c-41bb-b249-900124ecb70c","system_id":"levelo_inurba_marseille","lat":43.3355,"lon":5.37446,"is_reserved":false,"is_disabled":false,"rental_uris":{"android":"levelo://app?vid=93c6d395-5f6c-41bb-b249-900124ecb70c","ios":"levelo://app?vid=93c6d395-5f6c-41bb-b249-900124ecb70c"},"vehicle_type_id":"4","last_reported":1773146151,"current_range_meters":30400,"station_id":"st_d46tts09ee8s73dlu43g","pricing_plan_id":"cebpf4jnsgd1na2vs0mg"},{"bike_id":"79ce6a44-61dd-477c-aa0b-1a849bd10fcb","system_id":"levelo_inurba_marseille","lat":43.28475,"lon":5.48395,"is_reserved":false,"is_disabled":false,"rental_uris":{"android":"levelo://app?vid=79ce6a44-61dd-477c-aa0b-1a849bd10fcb","ios":"levelo://app?vid=79ce6a44-61dd-477c-aa0b-1a849bd10fcb"},"vehicle_type_id":"4","last_reported":1773146151,"current_range_meters":26800,"station_id":"","pricing_plan_id":"cebpf4jnsgd1na2vs0mg"},{"bike_id":"d42cebad-c3aa-4be8-b33f-c44cf02b01f4","system_id":"levelo_inurba_marseille","lat":43.30326,"lon":5.36896,"is_reserved":false,"is_disabled":false,"rental_uris":{"android":"levelo://app?vid=d42cebad-c3aa-4be8-b33f-c44cf02b01f4","ios":"levelo://app?vid=d42cebad-c3aa-4be8-b33f-c44cf02b01f4"},"vehicle_type_id":"4","last_reported":1773146151,"current_range_meters":22400,"station_id":"ce4bgqh2rcd13ifvqc5g","pricing_plan_id":"cebpf4jnsgd1na2vs0mg"},{"bike_id":"ac8308a4-f739-4875-98d8-249fe4c0d891","system_id":"levelo_inurba_marseille","lat":43.32467,"lon":5.36605,"is_reserved":false,"is_disabled":false,"rental_uris":{"android":"levelo://app?vid=ac8308a4-f739-4875-98d8-249fe4c0d891","ios":"levelo://app?vid=ac8308a4-f739-4875-98d8-249fe4c0d891"},"vehicle_type_id":"4","last_reported":1773146151,"current_range_meters":39200,"station_id":"ce4bhs12rcd13ifvqhvg","pricing_plan_id":"cebpf4jnsgd1na2vs0mg"},{"bike_id":"447ba774-735e-4ed5-b8a8-6dc2096bdb69","system_id":"levelo_inurba_marseille","lat":43.31114,"lon":5.37774,"is_reserved":false,"is_disabled":true,"rental_uris":{"android":"levelo://app?vid=447ba774-735e-4ed5-b8a8-6dc2096bdb69","ios":"levelo://app?vid=447ba774-735e-4ed5-b8a8-6dc2096bdb69"},"vehicle_type_id":"4","last_reported":1773146151,"current_range_meters":9600,"station_id":"ce4bgt92rcd13ifvqcg0","pricing_plan_id":"cebpf4jnsgd1na2vs0mg"},{"bike_id":"63839d01-be07-406c-b01e-08930e985ea6","system_id":"levelo_inurba_marseille","lat":43.29044,"lon":5.38136,"is_reserved":false,"is_disabled":false,"rental_uris":{"android":"levelo://app?vid=63839d01-be07-406c-b01e-08930e985ea6","ios":"levelo://app?vid=63839d01-be07-406c-b01e-08930e985ea6"},"vehicle_type_id":"4","last_reported":1773146151,"current_range_meters":27600,"station_id":"ce4bh4p2rcd13ifvqe1g","pricing_plan_id":"cebpf4jnsgd1na2vs0mg"},{"bike_id":"984779bc-62f5-4c55-8c4f-e04417dcfe2f","system_id":"levelo_inurba_marseille","lat":43.26212,"lon":5.40461,"is_reserved":false,"is_disabled":false,"rental_uris":{"android":"levelo://app?vid=984779bc-62f5-4c55-8c4f-e04417dcfe2f","ios":"levelo://app?vid=984779bc-62f5-4c55-8c4f-e04417dcfe2f"},"vehicle_type_id":"4","last_reported":1773146151,"current_range_meters":15200,"station_id":"ce4bhmh2rcd13ifvqgmg","pricing_plan_id":"cebpf4jnsgd1na2vs0mg"},{"bike_id":"dd11b5db-7b35-4df3-8a3a-d7161b3ca943","system_id":"levelo_inurba_marseille","lat":43.30593,"lon":5.3723,"is_reserved":false,"is_disabled":false,"rental_uris":{"android":"levelo://app?vid=dd11b5db-7b35-4df3-8a3a-d7161b3ca943","ios":"levelo://app?vid=dd11b5db-7b35-4df3-8a3a-d7161b3ca943"},"vehicle_type_id":"4","last_reported":1773146151,"current_range_meters":30400,"station_id":"ce4bgqh2rcd13ifvqc4g","pricing_plan_id":"cebpf4jnsgd1na2vs0mg"},{"bike_id":"6966191e-2a59-4d90-83f5-9dbb328087a0","system_id":"levelo_inurba_marseille","lat":43.28507,"lon":5.48365,"is_reserved":false,"is_disabled":false,"rental_uris":{"android":"levelo://app?vid=6966191e-2a59-4d90-83f5-9dbb328087a0","ios":"levelo://app?vid=6966191e-2a59-4d90-83f5-9dbb328087a0"},"vehicle_type_id":"4","last_reported":1773146151,"current_range_meters":5600,"station_id":"","pricing_plan_id":"cebpf4jnsgd1na2vs0mg"},{"bike_id":"664572f5-5ae7-4382-a82f-3d389db05bba","system_id":"levelo_inurba_marseille","lat":43.2867,"lon":5.38656,"is_reserved":false,"is_disabled":true,"rental_uris":{"android":"levelo://app?vid=664572f5-5ae7-4382-a82f-3d389db05bba","ios":"levelo://app?vid=664572f5-5ae7-4382-a82f-3d389db05bba"},"vehicle_type_id":"4","last_reported":1773146151,"current_range_meters":3200,"station_id":"ce4bh492rcd13ifvqdug","pricing_plan_id":"cebpf4jnsgd1na2vs0mg"},{"bike_id":"b5b40d4b-2451-4431-b0d8-6e047e6cb387","system_id":"levelo_inurba_marseille","lat":43.30653,"lon":5.40091,"is_reserved":false,"is_disabled":false,"rental_uris":{"android":"levelo://app?vid=b5b40d4b-2451-4431-b0d8-6e047e6cb387","ios":"levelo://app?vid=b5b40d4b-2451-4431-b0d8-6e047e6cb387"},"vehicle_type_id":"4","last_reported":1773146151,"current_range_meters":38800,"station_id":"ce4bh112rcd13ifvqda0","pricing_plan_id":"cebpf4jnsgd1na2vs0mg"},{"bike_id":"c67245cb-2170-4bce-8da2-b23385e30ee9","system_id":"levelo_inurba_marseille","lat":43.29707,"lon":5.42543,"is_reserved":false,"is_disabled":false,"rental_uris":{"android":"levelo://app?vid=c67245cb-2170-4bce-8da2-b23385e30ee9","ios":"levelo://app?vid=c67245cb-2170-4bce-8da2-b23385e30ee9"},"vehicle_type_id":"4","last_reported":1773146151,"current_range_meters":16400,"station_id":"","pricing_plan_id":"cebpf4jnsgd1na2vs0mg"},{"bike_id":"832b3c0c-ff1e-49c6-9b23-61aa7fa5759f","system_id":"levelo_inurba_marseille","lat":43.29928,"lon":5.3747,"is_reserved":false,"is_disabled":false,"rental_uris":{"android":"levelo://app?vid=832b3c0c-ff1e-49c6-9b23-61aa7fa5759f","ios":"levelo://app?vid=832b3c0c-ff1e-49c6-9b23-61aa7fa5759f"},"vehicle_type_id":"4","last_reported":1773146151,"current_range_meters":19200,"station_id":"ce4bgjh2rcd13ifvqbg0","pricing_plan_id":"cebpf4jnsgd1na2vs0mg"},{"bike_id":"7efcf4c7-49f4-4be3-9e95-91715385053b","system_id":"levelo_inurba_marseille","lat":43.30322,"lon":5.3688,"is_reserved":false,"is_disabled":false,"rental_uris":{"android":"levelo://app?vid=7efcf4c7-49f4-4be3-9e95-91715385053b","ios":"levelo://app?vid=7efcf4c7-49f4-4be3-9e95-91715385053b"},"vehicle_type_id":"4","last_reported":1773146151,"current_range_meters":17600,"station_id":"ce4bgqh2rcd13ifvqc5g","pricing_plan_id":"cebpf4jnsgd1na2vs0mg"},{"bike_id":"b7e35d72-969e-4bf5-a3a7-5c6489e97a1a","system_id":"levelo_inurba_marseille","lat":43.23201,"lon":5.35577,"is_reserved":false,"is_disabled":false,"rental_uris":{"android":"levelo://app?vid=b7e35d72-969e-4bf5-a3a7-5c6489e97a1a","ios":"levelo://app?vid=b7e35d72-969e-4bf5-a3a7-5c6489e97a1a"},"vehicle_type_id":"4","last_reported":1773146151,"current_range_meters":38400,"station_id":"ce4bhu92rcd13ifvqi70","pricing_plan_id":"cebpf4jnsgd1na2vs0mg"},{"bike_id":"481d7f35-e3b3-4df8-80f2-d627e15bc73b","system_id":"levelo_inurba_marseille","lat":43.26205,"lon":5.37442,"is_reserved":false,"is_disabled":false,"rental_uris":{"android":"levelo://app?vid=481d7f35-e3b3-4df8-80f2-d627e15bc73b","ios":"levelo://app?vid=481d7f35-e3b3-4df8-80f2-d627e15bc73b"},"vehicle_type_id":"4","last_reported":1773146151,"current_range_meters":31200,"station_id":"ce4bhgp2rcd13ifvqfc0","pricing_plan_id":"cebpf4jnsgd1na2vs0mg"},{"bike_id":"d216debe-13ad-497c-9809-383a47cc5ef9","system_id":"levelo_inurba_marseille","lat":43.32362,"lon":5.36759,"is_reserved":false,"is_disabled":false,"rental_uris":{"android":"levelo://app?vid=d216debe-13ad-497c-9809-383a47cc5ef9","ios":"levelo://app?vid=d216debe-13ad-497c-9809-383a47cc5ef9"},"vehicle_type_id":"4","last_reported":1773146151,"current_range_meters":37600,"station_id":"ce4bhsh2rcd13ifvqi2g","pricing_plan_id":"cebpf4jnsgd1na2vs0mg"},{"bike_id":"32c4f1f7-17c8-4a03-b0d8-54ddb0b13de5","system_id":"levelo_inurba_marseille","lat":43.33475,"lon":5.37328,"is_reserved":false,"is_disabled":false,"rental_uris":{"android":"levelo://app?vid=32c4f1f7-17c8-4a03-b0d8-54ddb0b13de5","ios":"levelo://app?vid=32c4f1f7-17c8-4a03-b0d8-54ddb0b13de5"},"vehicle_type_id":"4","last_reported":1773146151,"current_range_meters":34000,"station_id":"","pricing_plan_id":"cebpf4jnsgd1na2vs0mg"},{"bike_id":"e93e4b05-492f-4c51-865b-dc3c2bd2e4bd","system_id":"levelo_inurba_marseille","lat":43.25344,"lon":5.42147,"is_reserved":false,"is_disabled":false,"rental_uris":{"android":"levelo://app?vid=e93e4b05-492f-4c51-865b-dc3c2bd2e4bd","ios":"levelo://app?vid=e93e4b05-492f-4c51-865b-dc3c2bd2e4bd"},"vehicle_type_id":"4","last_reported":1773146151,"current_range_meters":32000,"station_id":"st_d2m65c5bi1j21697t3ng","pricing_plan_id":"cebpf4jnsgd1na2vs0mg"},{"bike_id":"77cce443-3f90-4239-836a-70a21471f733","system_id":"levelo_inurba_marseille","lat":43.27079,"lon":5.38298,"is_reserved":false,"is_disabled":false,"rental_uris":{"android":"levelo://app?vid=77cce443-3f90-4239-836a-70a21471f733","ios":"levelo://app?vid=77cce443-3f90-4239-836a-70a21471f733"},"vehicle_type_id":"4","last_reported":1773146151,"current_range_meters":34000,"station_id":"st_d3n2fo6cfp8s73cte1j0","pricing_plan_id":"cebpf4jnsgd1na2vs0mg"},{"bike_id":"b1464651-8557-4b95-b594-9c68463903eb","system_id":"levelo_inurba_marseille","lat":43.27228,"lon":5.39181,"is_reserved":false,"is_disabled":false,"rental_uris":{"android":"levelo://app?vid=b1464651-8557-4b95-b594-9c68463903eb","ios":"levelo://app?vid=b1464651-8557-4b95-b594-9c68463903eb"},"vehicle_type_id":"4","last_reported":1773146151,"current_range_meters":30800,"station_id":"ce4bhhp2rcd13ifvqfm0","pricing_plan_id":"cebpf4jnsgd1na2vs0mg"},{"bike_id":"b1b72e65-4541-4aa5-9464-619c22b58492","system_id":"levelo_inurba_marseille","lat":43.27562,"lon":5.3965,"is_reserved":false,"is_disabled":false,"rental_uris":{"android":"levelo://app?vid=b1b72e65-4541-4aa5-9464-619c22b58492","ios":"levelo://app?vid=b1b72e65-4541-4aa5-9464-619c22b58492"},"vehicle_type_id":"4","last_reported":1773146151,"current_range_meters":27600,"station_id":"","pricing_plan_id":"cebpf4jnsgd1na2vs0mg"},{"bike_id":"49d75153-dd04-46f7-b7f6-e0816712ed92","system_id":"levelo_inurba_marseille","lat":43.32045,"lon":5.41542,"is_reserved":false,"is_disabled":false,"rental_uris":{"android":"levelo://app?vid=49d75153-dd04-46f7-b7f6-e0816712ed92","ios":"levelo://app?vid=49d75153-dd04-46f7-b7f6-e0816712ed92"},"vehicle_type_id":"4","last_reported":1773146151,"current_range_meters":30000,"station_id":"ce4bhq92rcd13ifvqhkg","pricing_plan_id":"cebpf4jnsgd1na2vs0mg"},{"bike_id":"2882ff64-4b69-4646-94c7-860d0be78035","system_id":"levelo_inurba_marseille","lat":43.29288,"lon":5.37427,"is_reserved":false,"is_disabled":false,"rental_uris":{"android":"levelo://app?vid=2882ff64-4b69-4646-94c7-860d0be78035","ios":"levelo://app?vid=2882ff64-4b69-4646-94c7-860d0be78035"},"vehicle_type_id":"4","last_reported":1773146151,"current_range_meters":29600,"station_id":"ce4bgi12rcd13ifvqb70","pricing_plan_id":"cebpf4jnsgd1na2vs0mg"},{"bike_id":"beae6932-1cb2-42f4-a0be-e7fa4a6e5cad","system_id":"levelo_inurba_marseille","lat":43.25013,"lon":5.38926,"is_reserved":false,"is_disabled":false,"rental_uris":{"android":"levelo://app?vid=beae6932-1cb2-42f4-a0be-e7fa4a6e5cad","ios":"levelo://app?vid=beae6932-1cb2-42f4-a0be-e7fa4a6e5cad"},"vehicle_type_id":"4","last_reported":1773146151,"current_range_meters":38000,"station_id":"ce4bhgp2rcd13ifvqfd0","pricing_plan_id":"cebpf4jnsgd1na2vs0mg"},{"bike_id":"cbef5c0b-d109-4c17-ab0b-db0d45f1dcb1","system_id":"levelo_inurba_marseille","lat":43.30614,"lon":5.36668,"is_reserved":false,"is_disabled":false,"rental_uris":{"android":"levelo://app?vid=cbef5c0b-d109-4c17-ab0b-db0d45f1dcb1","ios":"levelo://app?vid=cbef5c0b-d109-4c17-ab0b-db0d45f1dcb1"},"vehicle_type_id":"4","last_reported":1773146151,"current_range_meters":12800,"station_id":"","pricing_plan_id":"cebpf4jnsgd1na2vs0mg"},{"bike_id":"0976d995-0bd5-4a37-a12f-7573097cdbbf","system_id":"levelo_inurba_marseille","lat":43.24407,"lon":5.37062,"is_reserved":false,"is_disabled":false,"rental_uris":{"android":"levelo://app?vid=0976d995-0bd5-4a37-a12f-7573097cdbbf","ios":"levelo://app?vid=0976d995-0bd5-4a37-a12f-7573097cdbbf"},"vehicle_type_id":"4","last_reported":1773146151,"current_range_meters":37600,"station_id":"ce4bhhh2rcd13ifvqfk0","pricing_plan_id":"cebpf4jnsgd1na2vs0mg"},{"bike_id":"d3b471e2-eaea-40d6-b207-95b0d07845f0","system_id":"levelo_inurba_marseille","lat":43.27975,"lon":5.41012,"is_reserved":false,"is_disabled":false,"rental_uris":{"android":"levelo://app?vid=d3b471e2-eaea-40d6-b207-95b0d07845f0","ios":"levelo://app?vid=d3b471e2-eaea-40d6-b207-95b0d07845f0"},"vehicle_type_id":"4","last_reported":1773146151,"current_range_meters":6400,"station_id":"ce4bhnp2rcd13ifvqh0g","pricing_plan_id":"cebpf4jnsgd1na2vs0mg"},{"bike_id":"6adc31c4-5cfa-4d5b-a4ca-9f1f649c5b2c","system_id":"levelo_inurba_marseille","lat":43.29783,"lon":5.42679,"is_reserved":false,"is_disabled":false,"rental_uris":{"android":"levelo://app?vid=6adc31c4-5cfa-4d5b-a4ca-9f1f649c5b2c","ios":"levelo://app?vid=6adc31c4-5cfa-4d5b-a4ca-9f1f649c5b2c"},"vehicle_type_id":"4","last_reported":1773146151,"current_range_meters":4400,"station_id":"","pricing_plan_id":"cebpf4jnsgd1na2vs0mg"},{"bike_id":"569bdbe6-135f-4da0-b981-6b14834da657","system_id":"levelo_inurba_marseille","lat":43.29273,"lon":5.36851,"is_reserved":false,"is_disabled":false,"rental_uris":{"android":"levelo://app?vid=569bdbe6-135f-4da0-b981-6b14834da657","ios":"levelo://app?vid=569bdbe6-135f-4da0-b981-6b14834da657"},"vehicle_type_id":"4","last_reported":1773146151,"current_range_meters":9600,"station_id":"ce4bhbp2rcd13ifvqesg","pricing_plan_id":"cebpf4jnsgd1na2vs0mg"},{"bike_id":"f6bf9564-52b6-4a7a-a275-e35fdff422de","system_id":"levelo_inurba_marseille","lat":43.32365,"lon":5.3676,"is_reserved":false,"is_disabled":false,"rental_uris":{"android":"levelo://app?vid=f6bf9564-52b6-4a7a-a275-e35fdff422de","ios":"levelo://app?vid=f6bf9564-52b6-4a7a-a275-e35fdff422de"},"vehicle_type_id":"4","last_reported":1773146151,"current_range_meters":4800,"station_id":"ce4bhsh2rcd13ifvqi2g","pricing_plan_id":"cebpf4jnsgd1na2vs0mg"},{"bike_id":"2564c1c9-01d0-4cc8-af33-cb04d53dfb74","system_id":"levelo_inurba_marseille","lat":43.27063,"lon":5.42277,"is_reserved":false,"is_disabled":false,"rental_uris":{"android":"levelo://app?vid=2564c1c9-01d0-4cc8-af33-cb04d53dfb74","ios":"levelo://app?vid=2564c1c9-01d0-4cc8-af33-cb04d53dfb74"},"vehicle_type_id":"4","last_reported":1773146151,"current_range_meters":11600,"station_id":"ce4bhk92rcd13ifvqgb0","pricing_plan_id":"cebpf4jnsgd1na2vs0mg"},{"bike_id":"b01155c1-88cd-4969-b796-c2a58f7ad4e9","system_id":"levelo_inurba_marseille","lat":43.27371,"lon":5.36274,"is_reserved":false,"is_disabled":false,"rental_uris":{"android":"levelo://app?vid=b01155c1-88cd-4969-b796-c2a58f7ad4e9","ios":"levelo://app?vid=b01155c1-88cd-4969-b796-c2a58f7ad4e9"},"vehicle_type_id":"4","last_reported":1773146151,"current_range_meters":8000,"station_id":"ce4bhbh2rcd13ifvqeo0","pricing_plan_id":"cebpf4jnsgd1na2vs0mg"},{"bike_id":"70eb5991-e6a2-48a6-9096-34883bd6e6d6","system_id":"levelo_inurba_marseille","lat":43.30134,"lon":5.37414,"is_reserved":false,"is_disabled":false,"rental_uris":{"android":"levelo://app?vid=70eb5991-e6a2-48a6-9096-34883bd6e6d6","ios":"levelo://app?vid=70eb5991-e6a2-48a6-9096-34883bd6e6d6"},"vehicle_type_id":"4","last_reported":1773146151,"current_range_meters":12000,"station_id":"ce4bgs92rcd13ifvqcc0","pricing_plan_id":"cebpf4jnsgd1na2vs0mg"},{"bike_id":"1ed78316-1378-4cf1-89dc-82486992174d","system_id":"levelo_inurba_marseille","lat":43.279694,"lon":5.387333,"is_reserved":false,"is_disabled":false,"rental_uris":{"android":"levelo://app?vid=1ed78316-1378-4cf1-89dc-82486992174d","ios":"levelo://app?vid=1ed78316-1378-4cf1-89dc-82486992174d"},"vehicle_type_id":"4","last_reported":1773146151,"current_range_meters":18800,"station_id":"ce4bhg12rcd13ifvqf80","pricing_plan_id":"cebpf4jnsgd1na2vs0mg"},{"bike_id":"5a2fd38a-b182-4fcf-a492-429a7fb7996c","system_id":"levelo_inurba_marseille","lat":43.25504,"lon":5.37657,"is_reserved":false,"is_disabled":false,"rental_uris":{"android":"levelo://app?vid=5a2fd38a-b182-4fcf-a492-429a7fb7996c","ios":"levelo://app?vid=5a2fd38a-b182-4fcf-a492-429a7fb7996c"},"vehicle_type_id":"4","last_reported":1773146151,"current_range_meters":39200,"station_id":"ce4bhh12rcd13ifvqff0","pricing_plan_id":"cebpf4jnsgd1na2vs0mg"},{"bike_id":"912ce17c-b4c4-4b99-99a4-45f37b188ea7","system_id":"levelo_inurba_marseille","lat":43.25928,"lon":5.40873,"is_reserved":false,"is_disabled":false,"rental_uris":{"android":"levelo://app?vid=912ce17c-b4c4-4b99-99a4-45f37b188ea7","ios":"levelo://app?vid=912ce17c-b4c4-4b99-99a4-45f37b188ea7"},"vehicle_type_id":"4","last_reported":1773146151,"current_range_meters":22400,"station_id":"ce4bhm92rcd13ifvqglg","pricing_plan_id":"cebpf4jnsgd1na2vs0mg"},{"bike_id":"7492f64a-feec-4475-a8ac-d4bd70e8ae1e","system_id":"levelo_inurba_marseille","lat":43.23143,"lon":5.43733,"is_reserved":false,"is_disabled":false,"rental_uris":{"android":"levelo://app?vid=7492f64a-feec-4475-a8ac-d4bd70e8ae1e","ios":"levelo://app?vid=7492f64a-feec-4475-a8ac-d4bd70e8ae1e"},"vehicle_type_id":"4","last_reported":1773146151,"current_range_meters":21600,"station_id":"ce4bhmp2rcd13ifvqgog","pricing_plan_id":"cebpf4jnsgd1na2vs0mg"},{"bike_id":"7097e5f0-1617-4563-a11d-e981377cafbc","system_id":"levelo_inurba_marseille","lat":43.31369,"lon":5.36736,"is_reserved":false,"is_disabled":false,"rental_uris":{"android":"levelo://app?vid=7097e5f0-1617-4563-a11d-e981377cafbc","ios":"levelo://app?vid=7097e5f0-1617-4563-a11d-e981377cafbc"},"vehicle_type_id":"4","last_reported":1773146151,"current_range_meters":28400,"station_id":"ce4bgr92rcd13ifvqc6g","pricing_plan_id":"cebpf4jnsgd1na2vs0mg"},{"bike_id":"afa20618-0d5e-4dda-934c-d6c0b2a9d26b","system_id":"levelo_inurba_marseille","lat":43.30474,"lon":5.37862,"is_reserved":false,"is_disabled":false,"rental_uris":{"android":"levelo://app?vid=afa20618-0d5e-4dda-934c-d6c0b2a9d26b","ios":"levelo://app?vid=afa20618-0d5e-4dda-934c-d6c0b2a9d26b"},"vehicle_type_id":"4","last_reported":1773146151,"current_range_meters":30000,"station_id":"ce4bgup2rcd13ifvqcn0","pricing_plan_id":"cebpf4jnsgd1na2vs0mg"},{"bike_id":"e4fd2a6d-545b-4e3b-a5e6-fae5cf5ddd74","system_id":"levelo_inurba_marseille","lat":43.27696,"lon":5.38926,"is_reserved":false,"is_disabled":false,"rental_uris":{"android":"levelo://app?vid=e4fd2a6d-545b-4e3b-a5e6-fae5cf5ddd74","ios":"levelo://app?vid=e4fd2a6d-545b-4e3b-a5e6-fae5cf5ddd74"},"vehicle_type_id":"4","last_reported":1773146151,"current_range_meters":35200,"station_id":"ce4bhi12rcd13ifvqfo0","pricing_plan_id":"cebpf4jnsgd1na2vs0mg"},{"bike_id":"7739e670-6ad1-4986-90c8-e0074ab83683","system_id":"levelo_inurba_marseille","lat":43.26546,"lon":5.37312,"is_reserved":false,"is_disabled":false,"rental_uris":{"android":"levelo://app?vid=7739e670-6ad1-4986-90c8-e0074ab83683","ios":"levelo://app?vid=7739e670-6ad1-4986-90c8-e0074ab83683"},"vehicle_type_id":"4","last_reported":1773146151,"current_range_meters":28000,"station_id":"ce4bhg12rcd13ifvqf70","pricing_plan_id":"cebpf4jnsgd1na2vs0mg"},{"bike_id":"6292764a-36d3-4177-868b-8d28df16d07a","system_id":"levelo_inurba_marseille","lat":43.2508,"lon":5.395,"is_reserved":false,"is_disabled":false,"rental_uris":{"android":"levelo://app?vid=6292764a-36d3-4177-868b-8d28df16d07a","ios":"levelo://app?vid=6292764a-36d3-4177-868b-8d28df16d07a"},"vehicle_type_id":"4","last_reported":1773146151,"current_range_meters":39200,"station_id":"ce4bhm12rcd13ifvqgkg","pricing_plan_id":"cebpf4jnsgd1na2vs0mg"},{"bike_id":"a6152a37-0e0f-4342-85ea-20dd708f93ee","system_id":"levelo_inurba_marseille","lat":43.23164,"lon":5.43683,"is_reserved":false,"is_disabled":false,"rental_uris":{"android":"levelo://app?vid=a6152a37-0e0f-4342-85ea-20dd708f93ee","ios":"levelo://app?vid=a6152a37-0e0f-4342-85ea-20dd708f93ee"},"vehicle_type_id":"4","last_reported":1773146151,"current_range_meters":36800,"station_id":"ce4bhmp2rcd13ifvqgog","pricing_plan_id":"cebpf4jnsgd1na2vs0mg"},{"bike_id":"fd7a85fe-04b7-4fdc-aa9d-9f4f30848aea","system_id":"levelo_inurba_marseille","lat":43.24035,"lon":5.3777,"is_reserved":false,"is_disabled":false,"rental_uris":{"android":"levelo://app?vid=fd7a85fe-04b7-4fdc-aa9d-9f4f30848aea","ios":"levelo://app?vid=fd7a85fe-04b7-4fdc-aa9d-9f4f30848aea"},"vehicle_type_id":"4","last_reported":1773146151,"current_range_meters":23200,"station_id":"ce4bhnp2rcd13ifvqgvg","pricing_plan_id":"cebpf4jnsgd1na2vs0mg"},{"bike_id":"9d5dab95-42e0-47db-91db-ee2c6c1256b0","system_id":"levelo_inurba_marseille","lat":43.25509,"lon":5.37631,"is_reserved":false,"is_disabled":false,"rental_uris":{"android":"levelo://app?vid=9d5dab95-42e0-47db-91db-ee2c6c1256b0","ios":"levelo://app?vid=9d5dab95-42e0-47db-91db-ee2c6c1256b0"},"vehicle_type_id":"4","last_reported":1773146151,"current_range_meters":37600,"station_id":"ce4bhh12rcd13ifvqff0","pricing_plan_id":"cebpf4jnsgd1na2vs0mg"},{"bike_id":"3ed9dacd-47d5-473e-a4ab-a372d8e4176a","system_id":"levelo_inurba_marseille","lat":43.3014,"lon":5.3986,"is_reserved":false,"is_disabled":true,"rental_uris":{"android":"levelo://app?vid=3ed9dacd-47d5-473e-a4ab-a372d8e4176a","ios":"levelo://app?vid=3ed9dacd-47d5-473e-a4ab-a372d8e4176a"},"vehicle_type_id":"4","last_reported":1773146151,"current_range_meters":25600,"station_id":"ce4bh0h2rcd13ifvqd40","pricing_plan_id":"cebpf4jnsgd1na2vs0mg"},{"bike_id":"12918691-325e-4f3e-a48e-2ad73c5d4fa0","system_id":"levelo_inurba_marseille","lat":43.26562,"lon":5.39012,"is_reserved":false,"is_disabled":false,"rental_uris":{"android":"levelo://app?vid=12918691-325e-4f3e-a48e-2ad73c5d4fa0","ios":"levelo://app?vid=12918691-325e-4f3e-a48e-2ad73c5d4fa0"},"vehicle_type_id":"4","last_reported":1773146151,"current_range_meters":36400,"station_id":"ce4bhe12rcd13ifvqf30","pricing_plan_id":"cebpf4jnsgd1na2vs0mg"},{"bike_id":"aa69a35b-1f9c-4e40-9b72-5cbf6dcd27c1","system_id":"levelo_inurba_marseille","lat":43.30927,"lon":5.4015,"is_reserved":false,"is_disabled":false,"rental_uris":{"android":"levelo://app?vid=aa69a35b-1f9c-4e40-9b72-5cbf6dcd27c1","ios":"levelo://app?vid=aa69a35b-1f9c-4e40-9b72-5cbf6dcd27c1"},"vehicle_type_id":"4","last_reported":1773146151,"current_range_meters":36800,"station_id":"ce4bgvp2rcd13ifvqct0","pricing_plan_id":"cebpf4jnsgd1na2vs0mg"},{"bike_id":"2cf935ec-ca4b-4656-92d0-9b07b39371f0","system_id":"levelo_inurba_marseille","lat":43.30427,"lon":5.39744,"is_reserved":false,"is_disabled":false,"rental_uris":{"android":"levelo://app?vid=2cf935ec-ca4b-4656-92d0-9b07b39371f0","ios":"levelo://app?vid=2cf935ec-ca4b-4656-92d0-9b07b39371f0"},"vehicle_type_id":"4","last_reported":1773146151,"current_range_meters":36000,"station_id":"ce4bh092rcd13ifvqd20","pricing_plan_id":"cebpf4jnsgd1na2vs0mg"},{"bike_id":"f8a768ca-33c2-489a-a2aa-0bb3b185d010","system_id":"levelo_inurba_marseille","lat":43.28482,"lon":5.3857,"is_reserved":false,"is_disabled":true,"rental_uris":{"android":"levelo://app?vid=f8a768ca-33c2-489a-a2aa-0bb3b185d010","ios":"levelo://app?vid=f8a768ca-33c2-489a-a2aa-0bb3b185d010"},"vehicle_type_id":"4","last_reported":1773146151,"current_range_meters":2000,"station_id":"ce4bh8p2rcd13ifvqeb0","pricing_plan_id":"cebpf4jnsgd1na2vs0mg"},{"bike_id":"d44d6705-8b07-4c99-8be2-a9a0fdc34e2f","system_id":"levelo_inurba_marseille","lat":43.32118,"lon":5.36772,"is_reserved":false,"is_disabled":false,"rental_uris":{"android":"levelo://app?vid=d44d6705-8b07-4c99-8be2-a9a0fdc34e2f","ios":"levelo://app?vid=d44d6705-8b07-4c99-8be2-a9a0fdc34e2f"},"vehicle_type_id":"4","last_reported":1773146151,"current_range_meters":6400,"station_id":"ce4bhrh2rcd13ifvqhug","pricing_plan_id":"cebpf4jnsgd1na2vs0mg"},{"bike_id":"4e13cebf-e3bd-4977-8d80-663fe93eec9a","system_id":"levelo_inurba_marseille","lat":43.31367,"lon":5.36698,"is_reserved":false,"is_disabled":false,"rental_uris":{"android":"levelo://app?vid=4e13cebf-e3bd-4977-8d80-663fe93eec9a","ios":"levelo://app?vid=4e13cebf-e3bd-4977-8d80-663fe93eec9a"},"vehicle_type_id":"4","last_reported":1773146151,"current_range_meters":6000,"station_id":"ce4bgr92rcd13ifvqc6g","pricing_plan_id":"cebpf4jnsgd1na2vs0mg"},{"bike_id":"28e65bbe-3424-401b-a04b-0a4c3f7dbfbd","system_id":"levelo_inurba_marseille","lat":43.26075,"lon":5.39374,"is_reserved":false,"is_disabled":false,"rental_uris":{"android":"levelo://app?vid=28e65bbe-3424-401b-a04b-0a4c3f7dbfbd","ios":"levelo://app?vid=28e65bbe-3424-401b-a04b-0a4c3f7dbfbd"},"vehicle_type_id":"4","last_reported":1773146151,"current_range_meters":39200,"station_id":"ce4bhh92rcd13ifvqfj0","pricing_plan_id":"cebpf4jnsgd1na2vs0mg"},{"bike_id":"18344d13-5ad9-4a90-bbbb-38ed6af181bc","system_id":"levelo_inurba_marseille","lat":43.25937,"lon":5.40882,"is_reserved":false,"is_disabled":false,"rental_uris":{"android":"levelo://app?vid=18344d13-5ad9-4a90-bbbb-38ed6af181bc","ios":"levelo://app?vid=18344d13-5ad9-4a90-bbbb-38ed6af181bc"},"vehicle_type_id":"4","last_reported":1773146151,"current_range_meters":28000,"station_id":"ce4bhm92rcd13ifvqglg","pricing_plan_id":"cebpf4jnsgd1na2vs0mg"},{"bike_id":"65414b38-e8cf-4c47-8e79-58251d63b7cd","system_id":"levelo_inurba_marseille","lat":43.29115,"lon":5.38107,"is_reserved":false,"is_disabled":false,"rental_uris":{"android":"levelo://app?vid=65414b38-e8cf-4c47-8e79-58251d63b7cd","ios":"levelo://app?vid=65414b38-e8cf-4c47-8e79-58251d63b7cd"},"vehicle_type_id":"4","last_reported":1773146151,"current_range_meters":35600,"station_id":"ce4bh512rcd13ifvqe2g","pricing_plan_id":"cebpf4jnsgd1na2vs0mg"},{"bike_id":"204d42a9-563d-4c76-915f-f87f91c21570","system_id":"levelo_inurba_marseille","lat":43.31522,"lon":5.3732,"is_reserved":false,"is_disabled":false,"rental_uris":{"android":"levelo://app?vid=204d42a9-563d-4c76-915f-f87f91c21570","ios":"levelo://app?vid=204d42a9-563d-4c76-915f-f87f91c21570"},"vehicle_type_id":"4","last_reported":1773146151,"current_range_meters":32000,"station_id":"ce4bgt12rcd13ifvqcd0","pricing_plan_id":"cebpf4jnsgd1na2vs0mg"},{"bike_id":"b708976c-2a36-497f-8637-f1523d59ea21","system_id":"levelo_inurba_marseille","lat":43.26691,"lon":5.38247,"is_reserved":false,"is_disabled":false,"rental_uris":{"android":"levelo://app?vid=b708976c-2a36-497f-8637-f1523d59ea21","ios":"levelo://app?vid=b708976c-2a36-497f-8637-f1523d59ea21"},"vehicle_type_id":"4","last_reported":1773146151,"current_range_meters":22000,"station_id":"ce4bhg92rcd13ifvqf90","pricing_plan_id":"cebpf4jnsgd1na2vs0mg"},{"bike_id":"2d495d8c-c08d-42e8-bf6b-955575ef4eb6","system_id":"levelo_inurba_marseille","lat":43.29793,"lon":5.39332,"is_reserved":false,"is_disabled":false,"rental_uris":{"android":"levelo://app?vid=2d495d8c-c08d-42e8-bf6b-955575ef4eb6","ios":"levelo://app?vid=2d495d8c-c08d-42e8-bf6b-955575ef4eb6"},"vehicle_type_id":"4","last_reported":1773146151,"current_range_meters":19600,"station_id":"chh1huq6cuj3fo74tm60","pricing_plan_id":"cebpf4jnsgd1na2vs0mg"},{"bike_id":"2c36a755-7ac4-41d6-a7fb-6475d599ecef","system_id":"levelo_inurba_marseille","lat":43.29591,"lon":5.38091,"is_reserved":false,"is_disabled":false,"rental_uris":{"android":"levelo://app?vid=2c36a755-7ac4-41d6-a7fb-6475d599ecef","ios":"levelo://app?vid=2c36a755-7ac4-41d6-a7fb-6475d599ecef"},"vehicle_type_id":"4","last_reported":1773146151,"current_range_meters":39200,"station_id":"ce4bgl12rcd13ifvqbo0","pricing_plan_id":"cebpf4jnsgd1na2vs0mg"},{"bike_id":"23fc598d-f808-4287-a2fb-dcbe6bd11524","system_id":"levelo_inurba_marseille","lat":43.2848,"lon":5.48396,"is_reserved":false,"is_disabled":false,"rental_uris":{"android":"levelo://app?vid=23fc598d-f808-4287-a2fb-dcbe6bd11524","ios":"levelo://app?vid=23fc598d-f808-4287-a2fb-dcbe6bd11524"},"vehicle_type_id":"4","last_reported":1773146151,"current_range_meters":38800,"station_id":"","pricing_plan_id":"cebpf4jnsgd1na2vs0mg"},{"bike_id":"f0d85e77-c78a-4899-b931-126b1bdccc38","system_id":"levelo_inurba_marseille","lat":43.22562,"lon":5.41634,"is_reserved":false,"is_disabled":false,"rental_uris":{"android":"levelo://app?vid=f0d85e77-c78a-4899-b931-126b1bdccc38","ios":"levelo://app?vid=f0d85e77-c78a-4899-b931-126b1bdccc38"},"vehicle_type_id":"4","last_reported":1773146151,"current_range_meters":10800,"station_id":"st_d2o4gvlbi1j2169b742g","pricing_plan_id":"cebpf4jnsgd1na2vs0mg"},{"bike_id":"b9b5b81b-273e-4a85-bb64-fc370b3f68b9","system_id":"levelo_inurba_marseille","lat":43.28479,"lon":5.38417,"is_reserved":false,"is_disabled":false,"rental_uris":{"android":"levelo://app?vid=b9b5b81b-273e-4a85-bb64-fc370b3f68b9","ios":"levelo://app?vid=b9b5b81b-273e-4a85-bb64-fc370b3f68b9"},"vehicle_type_id":"4","last_reported":1773146151,"current_range_meters":17600,"station_id":"ce4bh512rcd13ifvqe3g","pricing_plan_id":"cebpf4jnsgd1na2vs0mg"},{"bike_id":"3afa846a-3499-402e-8576-cc13bd78fadf","system_id":"levelo_inurba_marseille","lat":43.296,"lon":5.38095,"is_reserved":false,"is_disabled":true,"rental_uris":{"android":"levelo://app?vid=3afa846a-3499-402e-8576-cc13bd78fadf","ios":"levelo://app?vid=3afa846a-3499-402e-8576-cc13bd78fadf"},"vehicle_type_id":"4","last_reported":1773146151,"current_range_meters":9200,"station_id":"ce4bgl12rcd13ifvqbo0","pricing_plan_id":"cebpf4jnsgd1na2vs0mg"},{"bike_id":"7ac1d431-face-4848-a4f8-4967cb1c7734","system_id":"levelo_inurba_marseille","lat":43.30762,"lon":5.37666,"is_reserved":false,"is_disabled":false,"rental_uris":{"android":"levelo://app?vid=7ac1d431-face-4848-a4f8-4967cb1c7734","ios":"levelo://app?vid=7ac1d431-face-4848-a4f8-4967cb1c7734"},"vehicle_type_id":"4","last_reported":1773146151,"current_range_meters":35600,"station_id":"ce4bgv92rcd13ifvqcq0","pricing_plan_id":"cebpf4jnsgd1na2vs0mg"},{"bike_id":"40e0d2e9-37fe-4a04-bb36-4e76f8c7199c","system_id":"levelo_inurba_marseille","lat":43.32105,"lon":5.36768,"is_reserved":false,"is_disabled":false,"rental_uris":{"android":"levelo://app?vid=40e0d2e9-37fe-4a04-bb36-4e76f8c7199c","ios":"levelo://app?vid=40e0d2e9-37fe-4a04-bb36-4e76f8c7199c"},"vehicle_type_id":"4","last_reported":1773146151,"current_range_meters":28800,"station_id":"ce4bhrh2rcd13ifvqhug","pricing_plan_id":"cebpf4jnsgd1na2vs0mg"},{"bike_id":"59470353-21cc-4ee3-bb14-f84f44da398c","system_id":"levelo_inurba_marseille","lat":43.25934,"lon":5.40912,"is_reserved":false,"is_disabled":false,"rental_uris":{"android":"levelo://app?vid=59470353-21cc-4ee3-bb14-f84f44da398c","ios":"levelo://app?vid=59470353-21cc-4ee3-bb14-f84f44da398c"},"vehicle_type_id":"4","last_reported":1773146151,"current_range_meters":32400,"station_id":"ce4bhm92rcd13ifvqglg","pricing_plan_id":"cebpf4jnsgd1na2vs0mg"},{"bike_id":"5d71f78f-b103-4ed8-bff3-5f5ae9cbdf3b","system_id":"levelo_inurba_marseille","lat":43.29274,"lon":5.36838,"is_reserved":false,"is_disabled":false,"rental_uris":{"android":"levelo://app?vid=5d71f78f-b103-4ed8-bff3-5f5ae9cbdf3b","ios":"levelo://app?vid=5d71f78f-b103-4ed8-bff3-5f5ae9cbdf3b"},"vehicle_type_id":"4","last_reported":1773146151,"current_range_meters":22800,"station_id":"ce4bhbp2rcd13ifvqesg","pricing_plan_id":"cebpf4jnsgd1na2vs0mg"},{"bike_id":"101e1011-f9be-4f7f-88da-2f84b7374cb1","system_id":"levelo_inurba_marseille","lat":43.30897,"lon":5.37176,"is_reserved":false,"is_disabled":false,"rental_uris":{"android":"levelo://app?vid=101e1011-f9be-4f7f-88da-2f84b7374cb1","ios":"levelo://app?vid=101e1011-f9be-4f7f-88da-2f84b7374cb1"},"vehicle_type_id":"4","last_reported":1773146151,"current_range_meters":40000,"station_id":"ce4bguh2rcd13ifvqckg","pricing_plan_id":"cebpf4jnsgd1na2vs0mg"},{"bike_id":"d59f6bda-e40b-42f3-90c3-d9ad1181f0c5","system_id":"levelo_inurba_marseille","lat":43.24646,"lon":5.38899,"is_reserved":false,"is_disabled":false,"rental_uris":{"android":"levelo://app?vid=d59f6bda-e40b-42f3-90c3-d9ad1181f0c5","ios":"levelo://app?vid=d59f6bda-e40b-42f3-90c3-d9ad1181f0c5"},"vehicle_type_id":"4","last_reported":1773146151,"current_range_meters":18000,"station_id":"ce4bhg12rcd13ifvqf60","pricing_plan_id":"cebpf4jnsgd1na2vs0mg"},{"bike_id":"5bab29ae-c4bc-4a09-9205-2680625e98ce","system_id":"levelo_inurba_marseille","lat":43.31471,"lon":5.37241,"is_reserved":false,"is_disabled":false,"rental_uris":{"android":"levelo://app?vid=5bab29ae-c4bc-4a09-9205-2680625e98ce","ios":"levelo://app?vid=5bab29ae-c4bc-4a09-9205-2680625e98ce"},"vehicle_type_id":"4","last_reported":1773146151,"current_range_meters":16400,"station_id":"","pricing_plan_id":"cebpf4jnsgd1na2vs0mg"},{"bike_id":"f9e9b065-2bea-4b87-a17e-af8e646f9e7a","system_id":"levelo_inurba_marseille","lat":43.2679,"lon":5.39438,"is_reserved":false,"is_disabled":false,"rental_uris":{"android":"levelo://app?vid=f9e9b065-2bea-4b87-a17e-af8e646f9e7a","ios":"levelo://app?vid=f9e9b065-2bea-4b87-a17e-af8e646f9e7a"},"vehicle_type_id":"4","last_reported":1773146151,"current_range_meters":40000,"station_id":"ce4bhh12rcd13ifvqfg0","pricing_plan_id":"cebpf4jnsgd1na2vs0mg"},{"bike_id":"9a4c9fe6-93e6-431c-8db6-1a67b0134b2c","system_id":"levelo_inurba_marseille","lat":43.26546,"lon":5.37287,"is_reserved":false,"is_disabled":false,"rental_uris":{"android":"levelo://app?vid=9a4c9fe6-93e6-431c-8db6-1a67b0134b2c","ios":"levelo://app?vid=9a4c9fe6-93e6-431c-8db6-1a67b0134b2c"},"vehicle_type_id":"4","last_reported":1773146151,"current_range_meters":38400,"station_id":"ce4bhg12rcd13ifvqf70","pricing_plan_id":"cebpf4jnsgd1na2vs0mg"},{"bike_id":"54aa5aea-6018-471a-96e1-3c75b95f3618","system_id":"levelo_inurba_marseille","lat":43.29909,"lon":5.38612,"is_reserved":false,"is_disabled":false,"rental_uris":{"android":"levelo://app?vid=54aa5aea-6018-471a-96e1-3c75b95f3618","ios":"levelo://app?vid=54aa5aea-6018-471a-96e1-3c75b95f3618"},"vehicle_type_id":"4","last_reported":1773146151,"current_range_meters":30800,"station_id":"","pricing_plan_id":"cebpf4jnsgd1na2vs0mg"},{"bike_id":"430bf5ef-6abd-44cf-b122-4a0344adc911","system_id":"levelo_inurba_marseille","lat":43.30447,"lon":5.3888,"is_reserved":false,"is_disabled":false,"rental_uris":{"android":"levelo://app?vid=430bf5ef-6abd-44cf-b122-4a0344adc911","ios":"levelo://app?vid=430bf5ef-6abd-44cf-b122-4a0344adc911"},"vehicle_type_id":"4","last_reported":1773146151,"current_range_meters":40000,"station_id":"ce4bgk12rcd13ifvqbi0","pricing_plan_id":"cebpf4jnsgd1na2vs0mg"},{"bike_id":"4d650b84-4c87-42d2-8dd7-e4c822bb0148","system_id":"levelo_inurba_marseille","lat":43.29558,"lon":5.37505,"is_reserved":false,"is_disabled":false,"rental_uris":{"android":"levelo://app?vid=4d650b84-4c87-42d2-8dd7-e4c822bb0148","ios":"levelo://app?vid=4d650b84-4c87-42d2-8dd7-e4c822bb0148"},"vehicle_type_id":"4","last_reported":1773146151,"current_range_meters":28400,"station_id":"ce4bgh92rcd13ifvqb50","pricing_plan_id":"cebpf4jnsgd1na2vs0mg"},{"bike_id":"477b9980-2920-43dd-98ab-3feb7a99ec00","system_id":"levelo_inurba_marseille","lat":43.30152,"lon":5.38099,"is_reserved":false,"is_disabled":true,"rental_uris":{"android":"levelo://app?vid=477b9980-2920-43dd-98ab-3feb7a99ec00","ios":"levelo://app?vid=477b9980-2920-43dd-98ab-3feb7a99ec00"},"vehicle_type_id":"4","last_reported":1773146151,"current_range_meters":38400,"station_id":"ce4bgjp2rcd13ifvqbh0","pricing_plan_id":"cebpf4jnsgd1na2vs0mg"},{"bike_id":"f49f061e-ee09-4960-891e-9b1876fa3e7f","system_id":"levelo_inurba_marseille","lat":43.30955,"lon":5.39101,"is_reserved":false,"is_disabled":false,"rental_uris":{"android":"levelo://app?vid=f49f061e-ee09-4960-891e-9b1876fa3e7f","ios":"levelo://app?vid=f49f061e-ee09-4960-891e-9b1876fa3e7f"},"vehicle_type_id":"4","last_reported":1773146151,"current_range_meters":15200,"station_id":"ce4bgup2rcd13ifvqco0","pricing_plan_id":"cebpf4jnsgd1na2vs0mg"},{"bike_id":"66790f60-4a5b-4cdd-bd20-de5eb425fc85","system_id":"levelo_inurba_marseille","lat":43.32047,"lon":5.41551,"is_reserved":false,"is_disabled":false,"rental_uris":{"android":"levelo://app?vid=66790f60-4a5b-4cdd-bd20-de5eb425fc85","ios":"levelo://app?vid=66790f60-4a5b-4cdd-bd20-de5eb425fc85"},"vehicle_type_id":"4","last_reported":1773146151,"current_range_meters":20400,"station_id":"ce4bhq92rcd13ifvqhkg","pricing_plan_id":"cebpf4jnsgd1na2vs0mg"},{"bike_id":"bc1dac9a-1be4-4cc2-a3b8-abe8b16b9f30","system_id":"levelo_inurba_marseille","lat":43.29288,"lon":5.36828,"is_reserved":false,"is_disabled":false,"rental_uris":{"android":"levelo://app?vid=bc1dac9a-1be4-4cc2-a3b8-abe8b16b9f30","ios":"levelo://app?vid=bc1dac9a-1be4-4cc2-a3b8-abe8b16b9f30"},"vehicle_type_id":"4","last_reported":1773146151,"current_range_meters":39200,"station_id":"ce4bhbp2rcd13ifvqesg","pricing_plan_id":"cebpf4jnsgd1na2vs0mg"},{"bike_id":"86a27d56-a425-48ed-be8d-deb254057217","system_id":"levelo_inurba_marseille","lat":43.29318,"lon":5.3744,"is_reserved":false,"is_disabled":false,"rental_uris":{"android":"levelo://app?vid=86a27d56-a425-48ed-be8d-deb254057217","ios":"levelo://app?vid=86a27d56-a425-48ed-be8d-deb254057217"},"vehicle_type_id":"4","last_reported":1773146151,"current_range_meters":12400,"station_id":"ce4bgi12rcd13ifvqb70","pricing_plan_id":"cebpf4jnsgd1na2vs0mg"},{"bike_id":"7a3b5875-f1e8-4acd-acbf-c2a29528e4b7","system_id":"levelo_inurba_marseille","lat":43.28458,"lon":5.48435,"is_reserved":false,"is_disabled":false,"rental_uris":{"android":"levelo://app?vid=7a3b5875-f1e8-4acd-acbf-c2a29528e4b7","ios":"levelo://app?vid=7a3b5875-f1e8-4acd-acbf-c2a29528e4b7"},"vehicle_type_id":"4","last_reported":1773146151,"current_range_meters":11200,"station_id":"st_d3svhcjqgbts73a3dn0g","pricing_plan_id":"cebpf4jnsgd1na2vs0mg"},{"bike_id":"9cd21b4f-5b91-47c4-9f59-c7c5557c0e8a","system_id":"levelo_inurba_marseille","lat":43.31223,"lon":5.36833,"is_reserved":false,"is_disabled":false,"rental_uris":{"android":"levelo://app?vid=9cd21b4f-5b91-47c4-9f59-c7c5557c0e8a","ios":"levelo://app?vid=9cd21b4f-5b91-47c4-9f59-c7c5557c0e8a"},"vehicle_type_id":"4","last_reported":1773146151,"current_range_meters":40000,"station_id":"ce4bgl92rcd13ifvqbq0","pricing_plan_id":"cebpf4jnsgd1na2vs0mg"},{"bike_id":"ae4181aa-8dc8-4249-8735-32d22936bfd0","system_id":"levelo_inurba_marseille","lat":43.23192,"lon":5.35553,"is_reserved":false,"is_disabled":false,"rental_uris":{"android":"levelo://app?vid=ae4181aa-8dc8-4249-8735-32d22936bfd0","ios":"levelo://app?vid=ae4181aa-8dc8-4249-8735-32d22936bfd0"},"vehicle_type_id":"4","last_reported":1773146151,"current_range_meters":28400,"station_id":"ce4bhu92rcd13ifvqi70","pricing_plan_id":"cebpf4jnsgd1na2vs0mg"},{"bike_id":"e7b6972b-117e-47e0-9f41-cbcc9b6a3781","system_id":"levelo_inurba_marseille","lat":43.32108,"lon":5.36766,"is_reserved":false,"is_disabled":false,"rental_uris":{"android":"levelo://app?vid=e7b6972b-117e-47e0-9f41-cbcc9b6a3781","ios":"levelo://app?vid=e7b6972b-117e-47e0-9f41-cbcc9b6a3781"},"vehicle_type_id":"4","last_reported":1773146151,"current_range_meters":6400,"station_id":"ce4bhrh2rcd13ifvqhug","pricing_plan_id":"cebpf4jnsgd1na2vs0mg"},{"bike_id":"2ac8c83d-8e9d-468b-8fe3-cd4ce35925b7","system_id":"levelo_inurba_marseille","lat":43.27427,"lon":5.39403,"is_reserved":false,"is_disabled":false,"rental_uris":{"android":"levelo://app?vid=2ac8c83d-8e9d-468b-8fe3-cd4ce35925b7","ios":"levelo://app?vid=2ac8c83d-8e9d-468b-8fe3-cd4ce35925b7"},"vehicle_type_id":"4","last_reported":1773146151,"current_range_meters":33200,"station_id":"ce4bhdp2rcd13ifvqf20","pricing_plan_id":"cebpf4jnsgd1na2vs0mg"},{"bike_id":"48000cab-41de-4600-a63e-0b6cccd6d62b","system_id":"levelo_inurba_marseille","lat":43.28159,"lon":5.42619,"is_reserved":false,"is_disabled":false,"rental_uris":{"android":"levelo://app?vid=48000cab-41de-4600-a63e-0b6cccd6d62b","ios":"levelo://app?vid=48000cab-41de-4600-a63e-0b6cccd6d62b"},"vehicle_type_id":"4","last_reported":1773146151,"current_range_meters":39200,"station_id":"ce4bhnh2rcd13ifvqgug","pricing_plan_id":"cebpf4jnsgd1na2vs0mg"},{"bike_id":"4b5b71ea-e60c-42f9-bfb2-792d940d3176","system_id":"levelo_inurba_marseille","lat":43.23071,"lon":5.35474,"is_reserved":false,"is_disabled":false,"rental_uris":{"android":"levelo://app?vid=4b5b71ea-e60c-42f9-bfb2-792d940d3176","ios":"levelo://app?vid=4b5b71ea-e60c-42f9-bfb2-792d940d3176"},"vehicle_type_id":"4","last_reported":1773146151,"current_range_meters":39200,"station_id":"cpo3342slgdg3j2ifvpg","pricing_plan_id":"cebpf4jnsgd1na2vs0mg"},{"bike_id":"d3611ff2-55b3-42cc-9920-0abd14ff4bd3","system_id":"levelo_inurba_marseille","lat":43.31229,"lon":5.3685,"is_reserved":false,"is_disabled":false,"rental_uris":{"android":"levelo://app?vid=d3611ff2-55b3-42cc-9920-0abd14ff4bd3","ios":"levelo://app?vid=d3611ff2-55b3-42cc-9920-0abd14ff4bd3"},"vehicle_type_id":"4","last_reported":1773146151,"current_range_meters":40000,"station_id":"ce4bgl92rcd13ifvqbq0","pricing_plan_id":"cebpf4jnsgd1na2vs0mg"},{"bike_id":"169d6968-b5c0-4a65-84a7-660d5c5a7612","system_id":"levelo_inurba_marseille","lat":43.2409,"lon":5.37744,"is_reserved":false,"is_disabled":false,"rental_uris":{"android":"levelo://app?vid=169d6968-b5c0-4a65-84a7-660d5c5a7612","ios":"levelo://app?vid=169d6968-b5c0-4a65-84a7-660d5c5a7612"},"vehicle_type_id":"4","last_reported":1773146151,"current_range_meters":27600,"station_id":"ce4bhnp2rcd13ifvqgvg","pricing_plan_id":"cebpf4jnsgd1na2vs0mg"},{"bike_id":"dff627b8-e846-4bdc-9ada-a335ec273009","system_id":"levelo_inurba_marseille","lat":43.30541,"lon":5.36693,"is_reserved":false,"is_disabled":false,"rental_uris":{"android":"levelo://app?vid=dff627b8-e846-4bdc-9ada-a335ec273009","ios":"levelo://app?vid=dff627b8-e846-4bdc-9ada-a335ec273009"},"vehicle_type_id":"4","last_reported":1773146151,"current_range_meters":27600,"station_id":"ce4bgrp2rcd13ifvqc9g","pricing_plan_id":"cebpf4jnsgd1na2vs0mg"},{"bike_id":"95c838b6-559a-4f36-bfca-f3c07c27cd05","system_id":"levelo_inurba_marseille","lat":43.31202,"lon":5.36815,"is_reserved":false,"is_disabled":false,"rental_uris":{"android":"levelo://app?vid=95c838b6-559a-4f36-bfca-f3c07c27cd05","ios":"levelo://app?vid=95c838b6-559a-4f36-bfca-f3c07c27cd05"},"vehicle_type_id":"4","last_reported":1773146151,"current_range_meters":38000,"station_id":"ce4bgl92rcd13ifvqbq0","pricing_plan_id":"cebpf4jnsgd1na2vs0mg"},{"bike_id":"6ed774aa-58ca-468f-a182-875ede51e8eb","system_id":"levelo_inurba_marseille","lat":43.23794,"lon":5.36634,"is_reserved":false,"is_disabled":false,"rental_uris":{"android":"levelo://app?vid=6ed774aa-58ca-468f-a182-875ede51e8eb","ios":"levelo://app?vid=6ed774aa-58ca-468f-a182-875ede51e8eb"},"vehicle_type_id":"4","last_reported":1773146151,"current_range_meters":27600,"station_id":"st_d3nk18o9ro0c73en2l3g","pricing_plan_id":"cebpf4jnsgd1na2vs0mg"},{"bike_id":"9d35e768-173e-4f08-9c10-937cc61fdb33","system_id":"levelo_inurba_marseille","lat":43.26807,"lon":5.39406,"is_reserved":false,"is_disabled":false,"rental_uris":{"android":"levelo://app?vid=9d35e768-173e-4f08-9c10-937cc61fdb33","ios":"levelo://app?vid=9d35e768-173e-4f08-9c10-937cc61fdb33"},"vehicle_type_id":"4","last_reported":1773146151,"current_range_meters":39200,"station_id":"ce4bhh12rcd13ifvqfg0","pricing_plan_id":"cebpf4jnsgd1na2vs0mg"},{"bike_id":"ca5ec5a0-afef-4cf5-af3f-37cc7af0adb0","system_id":"levelo_inurba_marseille","lat":43.29706,"lon":5.44208,"is_reserved":false,"is_disabled":false,"rental_uris":{"android":"levelo://app?vid=ca5ec5a0-afef-4cf5-af3f-37cc7af0adb0","ios":"levelo://app?vid=ca5ec5a0-afef-4cf5-af3f-37cc7af0adb0"},"vehicle_type_id":"4","last_reported":1773146151,"current_range_meters":9600,"station_id":"","pricing_plan_id":"cebpf4jnsgd1na2vs0mg"},{"bike_id":"40e45e40-13a7-4e3a-a541-2583f1f6f514","system_id":"levelo_inurba_marseille","lat":43.29291,"lon":5.3683,"is_reserved":false,"is_disabled":false,"rental_uris":{"android":"levelo://app?vid=40e45e40-13a7-4e3a-a541-2583f1f6f514","ios":"levelo://app?vid=40e45e40-13a7-4e3a-a541-2583f1f6f514"},"vehicle_type_id":"4","last_reported":1773146151,"current_range_meters":31200,"station_id":"ce4bhbp2rcd13ifvqesg","pricing_plan_id":"cebpf4jnsgd1na2vs0mg"},{"bike_id":"3a04d893-202c-411f-93af-57e08017a7df","system_id":"levelo_inurba_marseille","lat":43.24815,"lon":5.37456,"is_reserved":false,"is_disabled":false,"rental_uris":{"android":"levelo://app?vid=3a04d893-202c-411f-93af-57e08017a7df","ios":"levelo://app?vid=3a04d893-202c-411f-93af-57e08017a7df"},