{"last_updated":1750410681,"ttl":60,"version":"2.2","data":{"bikes":[{"bike_id":"3da29fb8-fc97-44c6-b9ac-31dd456b2fd4","system_id":"levelo_inurba_marseille","lat":43.33771,"lon":5.37424,"is_reserved":false,"is_disabled":true,"rental_uris":{"android":"levelo://app?vid=3da29fb8-fc97-44c6-b9ac-31dd456b2fd4","ios":"levelo://app?vid=3da29fb8-fc97-44c6-b9ac-31dd456b2fd4"},"vehicle_type_id":"4","last_reported":1750410681,"current_range_meters":0,"station_id":"","pricing_plan_id":"cebpf4jnsgd1na2vs0mg"},{"bike_id":"01861ad8-a8d7-4be6-816e-651927c87584","system_id":"levelo_inurba_marseille","lat":43.33751,"lon":5.37456,"is_reserved":false,"is_disabled":true,"rental_uris":{"android":"levelo://app?vid=01861ad8-a8d7-4be6-816e-651927c87584","ios":"levelo://app?vid=01861ad8-a8d7-4be6-816e-651927c87584"},"vehicle_type_id":"4","last_reported":1750410681,"current_range_meters":0,"station_id":"","pricing_plan_id":"cebpf4jnsgd1na2vs0mg"},{"bike_id":"4f79ed18-3754-4594-beef-87f7c093389b","system_id":"levelo_inurba_marseille","lat":43.34211,"lon":5.40355,"is_reserved":false,"is_disabled":true,"rental_uris":{"android":"levelo://app?vid=4f79ed18-3754-4594-beef-87f7c093389b","ios":"levelo://app?vid=4f79ed18-3754-4594-beef-87f7c093389b"},"vehicle_type_id":"4","last_reported":1750410681,"current_range_meters":0,"station_id":"","pricing_plan_id":"cebpf4jnsgd1na2vs0mg"},{"bike_id":"d4b2375e-15c2-4b2f-a628-6d423b46231b","system_id":"levelo_inurba_marseille","lat":43.24253,"lon":5.41199,"is_reserved":false,"is_disabled":true,"rental_uris":{"android":"levelo://app?vid=d4b2375e-15c2-4b2f-a628-6d423b46231b","ios":"levelo://app?vid=d4b2375e-15c2-4b2f-a628-6d423b46231b"},"vehicle_type_id":"4","last_reported":1750410681,"current_range_meters":0,"station_id":"","pricing_plan_id":"cebpf4jnsgd1na2vs0mg"},{"bike_id":"d2bd57c8-6b64-48db-ad24-5398eb3fd9d6","system_id":"levelo_inurba_marseille","lat":43.337444,"lon":5.374475,"is_reserved":false,"is_disabled":true,"rental_uris":{"android":"levelo://app?vid=d2bd57c8-6b64-48db-ad24-5398eb3fd9d6","ios":"levelo://app?vid=d2bd57c8-6b64-48db-ad24-5398eb3fd9d6"},"vehicle_type_id":"4","last_reported":1750410681,"current_range_meters":0,"station_id":"","pricing_plan_id":"cebpf4jnsgd1na2vs0mg"},{"bike_id":"62a493c7-4534-4419-ad43-0582de34a72a","system_id":"levelo_inurba_marseille","lat":43.21366,"lon":5.355183,"is_reserved":false,"is_disabled":true,"rental_uris":{"android":"levelo://app?vid=62a493c7-4534-4419-ad43-0582de34a72a","ios":"levelo://app?vid=62a493c7-4534-4419-ad43-0582de34a72a"},"vehicle_type_id":"4","last_reported":1750410681,"current_range_meters":0,"station_id":"","pricing_plan_id":"cebpf4jnsgd1na2vs0mg"},{"bike_id":"a50a6588-33f7-480b-86db-f01191577927","system_id":"levelo_inurba_marseille","lat":43.27852,"lon":5.42811,"is_reserved":false,"is_disabled":true,"rental_uris":{"android":"levelo://app?vid=a50a6588-33f7-480b-86db-f01191577927","ios":"levelo://app?vid=a50a6588-33f7-480b-86db-f01191577927"},"vehicle_type_id":"4","last_reported":1750410681,"current_range_meters":0,"station_id":"","pricing_plan_id":"cebpf4jnsgd1na2vs0mg"},{"bike_id":"47196f00-388f-4b3b-a4de-3dba126cd107","system_id":"levelo_inurba_marseille","lat":43.24381,"lon":5.41165,"is_reserved":false,"is_disabled":true,"rental_uris":{"android":"levelo://app?vid=47196f00-388f-4b3b-a4de-3dba126cd107","ios":"levelo://app?vid=47196f00-388f-4b3b-a4de-3dba126cd107"},"vehicle_type_id":"4","last_reported":1750410681,"current_range_meters":0,"station_id":"","pricing_plan_id":"cebpf4jnsgd1na2vs0mg"},{"bike_id":"d6609b4f-333b-43c1-9ebe-8726f5e76e88","system_id":"levelo_inurba_marseille","lat":43.337444,"lon":5.374475,"is_reserved":false,"is_disabled":true,"rental_uris":{"android":"levelo://app?vid=d6609b4f-333b-43c1-9ebe-8726f5e76e88","ios":"levelo://app?vid=d6609b4f-333b-43c1-9ebe-8726f5e76e88"},"vehicle_type_id":"4","last_reported":1750410681,"current_range_meters":0,"station_id":"","pricing_plan_id":"cebpf4jnsgd1na2vs0mg"},{"bike_id":"2ecc346e-c46a-4d54-a61d-3d9044281ff4","system_id":"levelo_inurba_marseille","lat":43.28617,"lon":5.35096,"is_reserved":false,"is_disabled":true,"rental_uris":{"android":"levelo://app?vid=2ecc346e-c46a-4d54-a61d-3d9044281ff4","ios":"levelo://app?vid=2ecc346e-c46a-4d54-a61d-3d9044281ff4"},"vehicle_type_id":"4","last_reported":1750410681,"current_range_meters":0,"station_id":"ce4bhch2rcd13ifvqeug","pricing_plan_id":"cebpf4jnsgd1na2vs0mg"},{"bike_id":"78f4248f-042d-4f57-9809-541e5589a2cb","system_id":"levelo_inurba_marseille","lat":43.25856,"lon":5.39899,"is_reserved":false,"is_disabled":true,"rental_uris":{"android":"levelo://app?vid=78f4248f-042d-4f57-9809-541e5589a2cb","ios":"levelo://app?vid=78f4248f-042d-4f57-9809-541e5589a2cb"},"vehicle_type_id":"4","last_reported":1750410681,"current_range_meters":0,"station_id":"ce4bhl92rcd13ifvqghg","pricing_plan_id":"cebpf4jnsgd1na2vs0mg"},{"bike_id":"406d40ad-57e0-424d-8def-235370c6b7e8","system_id":"levelo_inurba_marseille","lat":43.28695,"lon":5.39981,"is_reserved":false,"is_disabled":true,"rental_uris":{"android":"levelo://app?vid=406d40ad-57e0-424d-8def-235370c6b7e8","ios":"levelo://app?vid=406d40ad-57e0-424d-8def-235370c6b7e8"},"vehicle_type_id":"4","last_reported":1750410681,"current_range_meters":0,"station_id":"ce4bho92rcd13ifvqh3g","pricing_plan_id":"cebpf4jnsgd1na2vs0mg"},{"bike_id":"9491b791-a5aa-472a-b475-a8adbacb70fe","system_id":"levelo_inurba_marseille","lat":43.341437,"lon":5.40903,"is_reserved":false,"is_disabled":true,"rental_uris":{"android":"levelo://app?vid=9491b791-a5aa-472a-b475-a8adbacb70fe","ios":"levelo://app?vid=9491b791-a5aa-472a-b475-a8adbacb70fe"},"vehicle_type_id":"4","last_reported":1750410681,"current_range_meters":0,"station_id":"ce4bhqh2rcd13ifvqhlg","pricing_plan_id":"cebpf4jnsgd1na2vs0mg"},{"bike_id":"8f49a748-5547-4851-a01f-ec21c1b4690e","system_id":"levelo_inurba_marseille","lat":43.32485,"lon":5.36558,"is_reserved":false,"is_disabled":true,"rental_uris":{"android":"levelo://app?vid=8f49a748-5547-4851-a01f-ec21c1b4690e","ios":"levelo://app?vid=8f49a748-5547-4851-a01f-ec21c1b4690e"},"vehicle_type_id":"4","last_reported":1750410681,"current_range_meters":0,"station_id":"ce4bhs12rcd13ifvqhvg","pricing_plan_id":"cebpf4jnsgd1na2vs0mg"},{"bike_id":"05172c24-6dde-4907-8af6-01d0e481b4de","system_id":"levelo_inurba_marseille","lat":43.22502,"lon":5.34777,"is_reserved":false,"is_disabled":true,"rental_uris":{"android":"levelo://app?vid=05172c24-6dde-4907-8af6-01d0e481b4de","ios":"levelo://app?vid=05172c24-6dde-4907-8af6-01d0e481b4de"},"vehicle_type_id":"4","last_reported":1750410681,"current_range_meters":0,"station_id":"st_cvj5dfep6f1abm77gieg","pricing_plan_id":"cebpf4jnsgd1na2vs0mg"},{"bike_id":"780983d0-98cd-48cd-b864-ef9a767ea130","system_id":"levelo_inurba_marseille","lat":43.21192,"lon":5.35071,"is_reserved":false,"is_disabled":true,"rental_uris":{"android":"levelo://app?vid=780983d0-98cd-48cd-b864-ef9a767ea130","ios":"levelo://app?vid=780983d0-98cd-48cd-b864-ef9a767ea130"},"vehicle_type_id":"4","last_reported":1750410681,"current_range_meters":0,"station_id":"st_cvj6sg6p6f1abm77japg","pricing_plan_id":"cebpf4jnsgd1na2vs0mg"},{"bike_id":"cdfe7948-a710-4ab8-a2f8-9e1f8a38b925","system_id":"levelo_inurba_marseille","lat":43.23151,"lon":5.43707,"is_reserved":false,"is_disabled":true,"rental_uris":{"android":"levelo://app?vid=cdfe7948-a710-4ab8-a2f8-9e1f8a38b925","ios":"levelo://app?vid=cdfe7948-a710-4ab8-a2f8-9e1f8a38b925"},"vehicle_type_id":"4","last_reported":1750410681,"current_range_meters":400,"station_id":"ce4bhmp2rcd13ifvqgog","pricing_plan_id":"cebpf4jnsgd1na2vs0mg"},{"bike_id":"7e4cc317-8059-4814-af2b-9fb892145660","system_id":"levelo_inurba_marseille","lat":43.28403,"lon":5.34978,"is_reserved":false,"is_disabled":true,"rental_uris":{"android":"levelo://app?vid=7e4cc317-8059-4814-af2b-9fb892145660","ios":"levelo://app?vid=7e4cc317-8059-4814-af2b-9fb892145660"},"vehicle_type_id":"4","last_reported":1750410681,"current_range_meters":800,"station_id":"ce4bhbh2rcd13ifvqepg","pricing_plan_id":"cebpf4jnsgd1na2vs0mg"},{"bike_id":"eb182add-faa0-48f1-96f0-75a6e7039674","system_id":"levelo_inurba_marseille","lat":43.29278,"lon":5.40114,"is_reserved":false,"is_disabled":true,"rental_uris":{"android":"levelo://app?vid=eb182add-faa0-48f1-96f0-75a6e7039674","ios":"levelo://app?vid=eb182add-faa0-48f1-96f0-75a6e7039674"},"vehicle_type_id":"4","last_reported":1750410681,"current_range_meters":1200,"station_id":"ce4bh312rcd13ifvqdk0","pricing_plan_id":"cebpf4jnsgd1na2vs0mg"},{"bike_id":"cb0ccc48-dd9b-4146-8113-9e490df683e7","system_id":"levelo_inurba_marseille","lat":43.30232,"lon":5.40056,"is_reserved":false,"is_disabled":true,"rental_uris":{"android":"levelo://app?vid=cb0ccc48-dd9b-4146-8113-9e490df683e7","ios":"levelo://app?vid=cb0ccc48-dd9b-4146-8113-9e490df683e7"},"vehicle_type_id":"4","last_reported":1750410681,"current_range_meters":1600,"station_id":"ce4bgvh2rcd13ifvqcs0","pricing_plan_id":"cebpf4jnsgd1na2vs0mg"},{"bike_id":"7260db69-23b9-430a-be00-0525e5183062","system_id":"levelo_inurba_marseille","lat":43.29,"lon":5.35608,"is_reserved":false,"is_disabled":true,"rental_uris":{"android":"levelo://app?vid=7260db69-23b9-430a-be00-0525e5183062","ios":"levelo://app?vid=7260db69-23b9-430a-be00-0525e5183062"},"vehicle_type_id":"4","last_reported":1750410681,"current_range_meters":1600,"station_id":"ce4bhb92rcd13ifvqen0","pricing_plan_id":"cebpf4jnsgd1na2vs0mg"},{"bike_id":"868f2fd3-7bf6-40f7-bd9e-471185ebdd79","system_id":"levelo_inurba_marseille","lat":43.30944,"lon":5.39029,"is_reserved":false,"is_disabled":true,"rental_uris":{"android":"levelo://app?vid=868f2fd3-7bf6-40f7-bd9e-471185ebdd79","ios":"levelo://app?vid=868f2fd3-7bf6-40f7-bd9e-471185ebdd79"},"vehicle_type_id":"4","last_reported":1750410681,"current_range_meters":2000,"station_id":"ce4bgup2rcd13ifvqco0","pricing_plan_id":"cebpf4jnsgd1na2vs0mg"},{"bike_id":"d0f08da2-d3c3-4db9-af0a-9c59a1d84c7c","system_id":"levelo_inurba_marseille","lat":43.29325,"lon":5.37409,"is_reserved":false,"is_disabled":false,"rental_uris":{"android":"levelo://app?vid=d0f08da2-d3c3-4db9-af0a-9c59a1d84c7c","ios":"levelo://app?vid=d0f08da2-d3c3-4db9-af0a-9c59a1d84c7c"},"vehicle_type_id":"4","last_reported":1750410681,"current_range_meters":2800,"station_id":"ce4bgi12rcd13ifvqb70","pricing_plan_id":"cebpf4jnsgd1na2vs0mg"},{"bike_id":"5575a251-df18-44af-b4cc-c7aa1f56ea82","system_id":"levelo_inurba_marseille","lat":43.27668,"lon":5.38882,"is_reserved":false,"is_disabled":false,"rental_uris":{"android":"levelo://app?vid=5575a251-df18-44af-b4cc-c7aa1f56ea82","ios":"levelo://app?vid=5575a251-df18-44af-b4cc-c7aa1f56ea82"},"vehicle_type_id":"4","last_reported":1750410681,"current_range_meters":2800,"station_id":"ce4bhi12rcd13ifvqfo0","pricing_plan_id":"cebpf4jnsgd1na2vs0mg"},{"bike_id":"ed49d3f0-138d-417a-b7cd-5bed6dcd167b","system_id":"levelo_inurba_marseille","lat":43.30953,"lon":5.3903,"is_reserved":false,"is_disabled":false,"rental_uris":{"android":"levelo://app?vid=ed49d3f0-138d-417a-b7cd-5bed6dcd167b","ios":"levelo://app?vid=ed49d3f0-138d-417a-b7cd-5bed6dcd167b"},"vehicle_type_id":"4","last_reported":1750410681,"current_range_meters":3200,"station_id":"ce4bgup2rcd13ifvqco0","pricing_plan_id":"cebpf4jnsgd1na2vs0mg"},{"bike_id":"a70d4be3-d49c-4db2-bb1e-bdbb5d0bfec6","system_id":"levelo_inurba_marseille","lat":43.23911,"lon":5.4367,"is_reserved":false,"is_disabled":false,"rental_uris":{"android":"levelo://app?vid=a70d4be3-d49c-4db2-bb1e-bdbb5d0bfec6","ios":"levelo://app?vid=a70d4be3-d49c-4db2-bb1e-bdbb5d0bfec6"},"vehicle_type_id":"4","last_reported":1750410681,"current_range_meters":3200,"station_id":"ce4bhmp2rcd13ifvqgog","pricing_plan_id":"cebpf4jnsgd1na2vs0mg"},{"bike_id":"6a5bd514-1c2e-40c5-be28-798cd414a42d","system_id":"levelo_inurba_marseille","lat":43.30252,"lon":5.40078,"is_reserved":false,"is_disabled":false,"rental_uris":{"android":"levelo://app?vid=6a5bd514-1c2e-40c5-be28-798cd414a42d","ios":"levelo://app?vid=6a5bd514-1c2e-40c5-be28-798cd414a42d"},"vehicle_type_id":"4","last_reported":1750410681,"current_range_meters":3600,"station_id":"ce4bgvh2rcd13ifvqcs0","pricing_plan_id":"cebpf4jnsgd1na2vs0mg"},{"bike_id":"3c6a14d3-2ce7-46e3-a2e4-215d36294a2e","system_id":"levelo_inurba_marseille","lat":43.28154,"lon":5.42635,"is_reserved":false,"is_disabled":false,"rental_uris":{"android":"levelo://app?vid=3c6a14d3-2ce7-46e3-a2e4-215d36294a2e","ios":"levelo://app?vid=3c6a14d3-2ce7-46e3-a2e4-215d36294a2e"},"vehicle_type_id":"4","last_reported":1750410681,"current_range_meters":3600,"station_id":"ce4bhnh2rcd13ifvqgug","pricing_plan_id":"cebpf4jnsgd1na2vs0mg"},{"bike_id":"ac0ce348-7e23-495c-844b-f21d8527a660","system_id":"levelo_inurba_marseille","lat":43.28347,"lon":5.43239,"is_reserved":false,"is_disabled":false,"rental_uris":{"android":"levelo://app?vid=ac0ce348-7e23-495c-844b-f21d8527a660","ios":"levelo://app?vid=ac0ce348-7e23-495c-844b-f21d8527a660"},"vehicle_type_id":"4","last_reported":1750410681,"current_range_meters":4000,"station_id":"","pricing_plan_id":"cebpf4jnsgd1na2vs0mg"},{"bike_id":"2bf60e18-862e-4b6a-9537-98a3e96a5a62","system_id":"levelo_inurba_marseille","lat":43.29372,"lon":5.37839,"is_reserved":false,"is_disabled":false,"rental_uris":{"android":"levelo://app?vid=2bf60e18-862e-4b6a-9537-98a3e96a5a62","ios":"levelo://app?vid=2bf60e18-862e-4b6a-9537-98a3e96a5a62"},"vehicle_type_id":"4","last_reported":1750410681,"current_range_meters":4400,"station_id":"ce4bgjh2rcd13ifvqbf0","pricing_plan_id":"cebpf4jnsgd1na2vs0mg"},{"bike_id":"cb1e5ce0-b879-4678-999a-624f045890b9","system_id":"levelo_inurba_marseille","lat":43.31364,"lon":5.36693,"is_reserved":false,"is_disabled":false,"rental_uris":{"android":"levelo://app?vid=cb1e5ce0-b879-4678-999a-624f045890b9","ios":"levelo://app?vid=cb1e5ce0-b879-4678-999a-624f045890b9"},"vehicle_type_id":"4","last_reported":1750410681,"current_range_meters":4400,"station_id":"ce4bgr92rcd13ifvqc6g","pricing_plan_id":"cebpf4jnsgd1na2vs0mg"},{"bike_id":"2b9c5437-2d58-4f2f-9c09-9d46c2657069","system_id":"levelo_inurba_marseille","lat":43.2738,"lon":5.36239,"is_reserved":false,"is_disabled":false,"rental_uris":{"android":"levelo://app?vid=2b9c5437-2d58-4f2f-9c09-9d46c2657069","ios":"levelo://app?vid=2b9c5437-2d58-4f2f-9c09-9d46c2657069"},"vehicle_type_id":"4","last_reported":1750410681,"current_range_meters":4400,"station_id":"ce4bhbh2rcd13ifvqeo0","pricing_plan_id":"cebpf4jnsgd1na2vs0mg"},{"bike_id":"e7ea39a0-08e1-4f09-8f3f-e30c119e669a","system_id":"levelo_inurba_marseille","lat":43.30812,"lon":5.43666,"is_reserved":false,"is_disabled":false,"rental_uris":{"android":"levelo://app?vid=e7ea39a0-08e1-4f09-8f3f-e30c119e669a","ios":"levelo://app?vid=e7ea39a0-08e1-4f09-8f3f-e30c119e669a"},"vehicle_type_id":"4","last_reported":1750410681,"current_range_meters":5600,"station_id":"","pricing_plan_id":"cebpf4jnsgd1na2vs0mg"},{"bike_id":"90a25513-6996-43bf-ae26-d822b1c2888c","system_id":"levelo_inurba_marseille","lat":43.29569,"lon":5.37514,"is_reserved":false,"is_disabled":false,"rental_uris":{"android":"levelo://app?vid=90a25513-6996-43bf-ae26-d822b1c2888c","ios":"levelo://app?vid=90a25513-6996-43bf-ae26-d822b1c2888c"},"vehicle_type_id":"4","last_reported":1750410681,"current_range_meters":5600,"station_id":"ce4bgh92rcd13ifvqb50","pricing_plan_id":"cebpf4jnsgd1na2vs0mg"},{"bike_id":"5380556e-a818-4739-85f7-49fd45b4e705","system_id":"levelo_inurba_marseille","lat":43.27311,"lon":5.3908,"is_reserved":false,"is_disabled":false,"rental_uris":{"android":"levelo://app?vid=5380556e-a818-4739-85f7-49fd45b4e705","ios":"levelo://app?vid=5380556e-a818-4739-85f7-49fd45b4e705"},"vehicle_type_id":"4","last_reported":1750410681,"current_range_meters":6000,"station_id":"ce4bhgp2rcd13ifvqfe0","pricing_plan_id":"cebpf4jnsgd1na2vs0mg"},{"bike_id":"224d3c73-1539-4b28-b87a-87a6178ae0ad","system_id":"levelo_inurba_marseille","lat":43.2679,"lon":5.39404,"is_reserved":false,"is_disabled":false,"rental_uris":{"android":"levelo://app?vid=224d3c73-1539-4b28-b87a-87a6178ae0ad","ios":"levelo://app?vid=224d3c73-1539-4b28-b87a-87a6178ae0ad"},"vehicle_type_id":"4","last_reported":1750410681,"current_range_meters":6400,"station_id":"ce4bhh12rcd13ifvqfg0","pricing_plan_id":"cebpf4jnsgd1na2vs0mg"},{"bike_id":"2ccf13bc-8b26-4b82-8802-8c6ab6961b05","system_id":"levelo_inurba_marseille","lat":43.23147,"lon":5.43717,"is_reserved":false,"is_disabled":false,"rental_uris":{"android":"levelo://app?vid=2ccf13bc-8b26-4b82-8802-8c6ab6961b05","ios":"levelo://app?vid=2ccf13bc-8b26-4b82-8802-8c6ab6961b05"},"vehicle_type_id":"4","last_reported":1750410681,"current_range_meters":6400,"station_id":"ce4bhmp2rcd13ifvqgog","pricing_plan_id":"cebpf4jnsgd1na2vs0mg"},{"bike_id":"268aafb4-1331-426c-97bc-a7d6564caeb6","system_id":"levelo_inurba_marseille","lat":43.32933,"lon":5.37919,"is_reserved":false,"is_disabled":false,"rental_uris":{"android":"levelo://app?vid=268aafb4-1331-426c-97bc-a7d6564caeb6","ios":"levelo://app?vid=268aafb4-1331-426c-97bc-a7d6564caeb6"},"vehicle_type_id":"4","last_reported":1750410681,"current_range_meters":6800,"station_id":"","pricing_plan_id":"cebpf4jnsgd1na2vs0mg"},{"bike_id":"0dedb6f6-6801-483b-bfb8-9cd4533d158f","system_id":"levelo_inurba_marseille","lat":43.31134,"lon":5.38101,"is_reserved":false,"is_disabled":false,"rental_uris":{"android":"levelo://app?vid=0dedb6f6-6801-483b-bfb8-9cd4533d158f","ios":"levelo://app?vid=0dedb6f6-6801-483b-bfb8-9cd4533d158f"},"vehicle_type_id":"4","last_reported":1750410681,"current_range_meters":6800,"station_id":"","pricing_plan_id":"cebpf4jnsgd1na2vs0mg"},{"bike_id":"4d604d88-4144-4f30-84ea-f37783541e31","system_id":"levelo_inurba_marseille","lat":43.29782,"lon":5.37092,"is_reserved":false,"is_disabled":false,"rental_uris":{"android":"levelo://app?vid=4d604d88-4144-4f30-84ea-f37783541e31","ios":"levelo://app?vid=4d604d88-4144-4f30-84ea-f37783541e31"},"vehicle_type_id":"4","last_reported":1750410681,"current_range_meters":6800,"station_id":"ce4bgop2rcd13ifvqc1g","pricing_plan_id":"cebpf4jnsgd1na2vs0mg"},{"bike_id":"0b1e53b6-bc72-4bff-b2c0-17099e7d43a1","system_id":"levelo_inurba_marseille","lat":43.31497,"lon":5.373,"is_reserved":false,"is_disabled":false,"rental_uris":{"android":"levelo://app?vid=0b1e53b6-bc72-4bff-b2c0-17099e7d43a1","ios":"levelo://app?vid=0b1e53b6-bc72-4bff-b2c0-17099e7d43a1"},"vehicle_type_id":"4","last_reported":1750410681,"current_range_meters":6800,"station_id":"ce4bgt12rcd13ifvqcd0","pricing_plan_id":"cebpf4jnsgd1na2vs0mg"},{"bike_id":"d6fa3ebf-fd7b-4c28-bbea-6c880ea90fa7","system_id":"levelo_inurba_marseille","lat":43.28466,"lon":5.35891,"is_reserved":false,"is_disabled":false,"rental_uris":{"android":"levelo://app?vid=d6fa3ebf-fd7b-4c28-bbea-6c880ea90fa7","ios":"levelo://app?vid=d6fa3ebf-fd7b-4c28-bbea-6c880ea90fa7"},"vehicle_type_id":"4","last_reported":1750410681,"current_range_meters":6800,"station_id":"ce4bhah2rcd13ifvqei0","pricing_plan_id":"cebpf4jnsgd1na2vs0mg"},{"bike_id":"ecc09bb2-30a3-49e6-864f-1a0b69b24fec","system_id":"levelo_inurba_marseille","lat":43.28419,"lon":5.34995,"is_reserved":false,"is_disabled":false,"rental_uris":{"android":"levelo://app?vid=ecc09bb2-30a3-49e6-864f-1a0b69b24fec","ios":"levelo://app?vid=ecc09bb2-30a3-49e6-864f-1a0b69b24fec"},"vehicle_type_id":"4","last_reported":1750410681,"current_range_meters":7200,"station_id":"ce4bhbh2rcd13ifvqepg","pricing_plan_id":"cebpf4jnsgd1na2vs0mg"},{"bike_id":"02e9dba4-50d2-43a3-8a04-7184eab5caa9","system_id":"levelo_inurba_marseille","lat":43.28959,"lon":5.36411,"is_reserved":false,"is_disabled":false,"rental_uris":{"android":"levelo://app?vid=02e9dba4-50d2-43a3-8a04-7184eab5caa9","ios":"levelo://app?vid=02e9dba4-50d2-43a3-8a04-7184eab5caa9"},"vehicle_type_id":"4","last_reported":1750410681,"current_range_meters":7200,"station_id":"ce4bhc92rcd13ifvqetg","pricing_plan_id":"cebpf4jnsgd1na2vs0mg"},{"bike_id":"50505cc3-16b2-4f40-9540-9691b76c2e43","system_id":"levelo_inurba_marseille","lat":43.29294,"lon":5.37179,"is_reserved":false,"is_disabled":false,"rental_uris":{"android":"levelo://app?vid=50505cc3-16b2-4f40-9540-9691b76c2e43","ios":"levelo://app?vid=50505cc3-16b2-4f40-9540-9691b76c2e43"},"vehicle_type_id":"4","last_reported":1750410681,"current_range_meters":8000,"station_id":"ce4bgh92rcd13ifvqb40","pricing_plan_id":"cebpf4jnsgd1na2vs0mg"},{"bike_id":"05d60f80-1512-4db9-8228-ad1b7ad83414","system_id":"levelo_inurba_marseille","lat":43.30795,"lon":5.38146,"is_reserved":false,"is_disabled":false,"rental_uris":{"android":"levelo://app?vid=05d60f80-1512-4db9-8228-ad1b7ad83414","ios":"levelo://app?vid=05d60f80-1512-4db9-8228-ad1b7ad83414"},"vehicle_type_id":"4","last_reported":1750410681,"current_range_meters":8000,"station_id":"ce4bgt12rcd13ifvqce0","pricing_plan_id":"cebpf4jnsgd1na2vs0mg"},{"bike_id":"56fdfc4e-979c-4ed5-9885-57018d76de79","system_id":"levelo_inurba_marseille","lat":43.29352,"lon":5.42831,"is_reserved":false,"is_disabled":false,"rental_uris":{"android":"levelo://app?vid=56fdfc4e-979c-4ed5-9885-57018d76de79","ios":"levelo://app?vid=56fdfc4e-979c-4ed5-9885-57018d76de79"},"vehicle_type_id":"4","last_reported":1750410681,"current_range_meters":8400,"station_id":"","pricing_plan_id":"cebpf4jnsgd1na2vs0mg"},{"bike_id":"0f547758-37b1-46b3-88cb-b2a979d3eaa9","system_id":"levelo_inurba_marseille","lat":43.29786,"lon":5.38091,"is_reserved":false,"is_disabled":false,"rental_uris":{"android":"levelo://app?vid=0f547758-37b1-46b3-88cb-b2a979d3eaa9","ios":"levelo://app?vid=0f547758-37b1-46b3-88cb-b2a979d3eaa9"},"vehicle_type_id":"4","last_reported":1750410681,"current_range_meters":8400,"station_id":"ce4bgip2rcd13ifvqbb0","pricing_plan_id":"cebpf4jnsgd1na2vs0mg"},{"bike_id":"d3b619b5-6893-4c34-b0ca-e41e96f461c9","system_id":"levelo_inurba_marseille","lat":43.289502,"lon":5.364182,"is_reserved":false,"is_disabled":false,"rental_uris":{"android":"levelo://app?vid=d3b619b5-6893-4c34-b0ca-e41e96f461c9","ios":"levelo://app?vid=d3b619b5-6893-4c34-b0ca-e41e96f461c9"},"vehicle_type_id":"4","last_reported":1750410681,"current_range_meters":8400,"station_id":"ce4bh512rcd13ifvqe2g","pricing_plan_id":"cebpf4jnsgd1na2vs0mg"},{"bike_id":"791230d7-d8e7-4dee-8e0d-b4dcc6f926c1","system_id":"levelo_inurba_marseille","lat":43.23144,"lon":5.43726,"is_reserved":false,"is_disabled":false,"rental_uris":{"android":"levelo://app?vid=791230d7-d8e7-4dee-8e0d-b4dcc6f926c1","ios":"levelo://app?vid=791230d7-d8e7-4dee-8e0d-b4dcc6f926c1"},"vehicle_type_id":"4","last_reported":1750410681,"current_range_meters":8400,"station_id":"ce4bhmp2rcd13ifvqgog","pricing_plan_id":"cebpf4jnsgd1na2vs0mg"},{"bike_id":"f025e0b0-8595-426c-b214-cb9b74c5fcfd","system_id":"levelo_inurba_marseille","lat":43.32201,"lon":5.40581,"is_reserved":false,"is_disabled":false,"rental_uris":{"android":"levelo://app?vid=f025e0b0-8595-426c-b214-cb9b74c5fcfd","ios":"levelo://app?vid=f025e0b0-8595-426c-b214-cb9b74c5fcfd"},"vehicle_type_id":"4","last_reported":1750410681,"current_range_meters":8800,"station_id":"","pricing_plan_id":"cebpf4jnsgd1na2vs0mg"},{"bike_id":"07ce0677-e4a3-426a-a60d-61e83ba96c43","system_id":"levelo_inurba_marseille","lat":43.347,"lon":5.37895,"is_reserved":false,"is_disabled":false,"rental_uris":{"android":"levelo://app?vid=07ce0677-e4a3-426a-a60d-61e83ba96c43","ios":"levelo://app?vid=07ce0677-e4a3-426a-a60d-61e83ba96c43"},"vehicle_type_id":"4","last_reported":1750410681,"current_range_meters":8800,"station_id":"","pricing_plan_id":"cebpf4jnsgd1na2vs0mg"},{"bike_id":"85b80f01-cfc6-4eb3-99ab-8a36ca8518f3","system_id":"levelo_inurba_marseille","lat":43.23152,"lon":5.43705,"is_reserved":false,"is_disabled":false,"rental_uris":{"android":"levelo://app?vid=85b80f01-cfc6-4eb3-99ab-8a36ca8518f3","ios":"levelo://app?vid=85b80f01-cfc6-4eb3-99ab-8a36ca8518f3"},"vehicle_type_id":"4","last_reported":1750410681,"current_range_meters":8800,"station_id":"ce4bhmp2rcd13ifvqgog","pricing_plan_id":"cebpf4jnsgd1na2vs0mg"},{"bike_id":"f1f01a3a-c9f6-43ba-bbe9-cc72da8a3c27","system_id":"levelo_inurba_marseille","lat":43.30891,"lon":5.37196,"is_reserved":false,"is_disabled":false,"rental_uris":{"android":"levelo://app?vid=f1f01a3a-c9f6-43ba-bbe9-cc72da8a3c27","ios":"levelo://app?vid=f1f01a3a-c9f6-43ba-bbe9-cc72da8a3c27"},"vehicle_type_id":"4","last_reported":1750410681,"current_range_meters":9200,"station_id":"ce4bguh2rcd13ifvqckg","pricing_plan_id":"cebpf4jnsgd1na2vs0mg"},{"bike_id":"6800f1dd-b869-4528-8afd-df43d71fa94c","system_id":"levelo_inurba_marseille","lat":43.27056,"lon":5.40258,"is_reserved":false,"is_disabled":false,"rental_uris":{"android":"levelo://app?vid=6800f1dd-b869-4528-8afd-df43d71fa94c","ios":"levelo://app?vid=6800f1dd-b869-4528-8afd-df43d71fa94c"},"vehicle_type_id":"4","last_reported":1750410681,"current_range_meters":9200,"station_id":"ce4bhk92rcd13ifvqgc0","pricing_plan_id":"cebpf4jnsgd1na2vs0mg"},{"bike_id":"e332a9af-36fa-4af6-ae77-e281279f675b","system_id":"levelo_inurba_marseille","lat":43.2594,"lon":5.40913,"is_reserved":false,"is_disabled":false,"rental_uris":{"android":"levelo://app?vid=e332a9af-36fa-4af6-ae77-e281279f675b","ios":"levelo://app?vid=e332a9af-36fa-4af6-ae77-e281279f675b"},"vehicle_type_id":"4","last_reported":1750410681,"current_range_meters":9200,"station_id":"ce4bhm92rcd13ifvqglg","pricing_plan_id":"cebpf4jnsgd1na2vs0mg"},{"bike_id":"c23d8ecb-92fa-4bc5-b496-c92409604518","system_id":"levelo_inurba_marseille","lat":43.27492,"lon":5.42453,"is_reserved":false,"is_disabled":false,"rental_uris":{"android":"levelo://app?vid=c23d8ecb-92fa-4bc5-b496-c92409604518","ios":"levelo://app?vid=c23d8ecb-92fa-4bc5-b496-c92409604518"},"vehicle_type_id":"4","last_reported":1750410681,"current_range_meters":9200,"station_id":"ce4bhn92rcd13ifvqgrg","pricing_plan_id":"cebpf4jnsgd1na2vs0mg"},{"bike_id":"93db2979-07b4-40fc-ac04-31624e351e32","system_id":"levelo_inurba_marseille","lat":43.303054,"lon":5.368979,"is_reserved":false,"is_disabled":false,"rental_uris":{"android":"levelo://app?vid=93db2979-07b4-40fc-ac04-31624e351e32","ios":"levelo://app?vid=93db2979-07b4-40fc-ac04-31624e351e32"},"vehicle_type_id":"4","last_reported":1750410681,"current_range_meters":9600,"station_id":"","pricing_plan_id":"cebpf4jnsgd1na2vs0mg"},{"bike_id":"df735c88-ae0a-4f8e-9723-d29eb27d80b9","system_id":"levelo_inurba_marseille","lat":43.29907,"lon":5.37627,"is_reserved":false,"is_disabled":false,"rental_uris":{"android":"levelo://app?vid=df735c88-ae0a-4f8e-9723-d29eb27d80b9","ios":"levelo://app?vid=df735c88-ae0a-4f8e-9723-d29eb27d80b9"},"vehicle_type_id":"4","last_reported":1750410681,"current_range_meters":9600,"station_id":"","pricing_plan_id":"cebpf4jnsgd1na2vs0mg"},{"bike_id":"26526384-ecc3-4abf-bfd1-3850891ffb9b","system_id":"levelo_inurba_marseille","lat":43.28034,"lon":5.3694,"is_reserved":false,"is_disabled":false,"rental_uris":{"android":"levelo://app?vid=26526384-ecc3-4abf-bfd1-3850891ffb9b","ios":"levelo://app?vid=26526384-ecc3-4abf-bfd1-3850891ffb9b"},"vehicle_type_id":"4","last_reported":1750410681,"current_range_meters":9600,"station_id":"ce4bha12rcd13ifvqef0","pricing_plan_id":"cebpf4jnsgd1na2vs0mg"},{"bike_id":"7c99ad24-f54b-47fb-8498-08842985fbfe","system_id":"levelo_inurba_marseille","lat":43.27493,"lon":5.42453,"is_reserved":false,"is_disabled":false,"rental_uris":{"android":"levelo://app?vid=7c99ad24-f54b-47fb-8498-08842985fbfe","ios":"levelo://app?vid=7c99ad24-f54b-47fb-8498-08842985fbfe"},"vehicle_type_id":"4","last_reported":1750410681,"current_range_meters":9600,"station_id":"ce4bhn92rcd13ifvqgrg","pricing_plan_id":"cebpf4jnsgd1na2vs0mg"},{"bike_id":"6db32011-5704-4d91-8ff9-b104420a51d2","system_id":"levelo_inurba_marseille","lat":43.33716,"lon":5.39173,"is_reserved":false,"is_disabled":false,"rental_uris":{"android":"levelo://app?vid=6db32011-5704-4d91-8ff9-b104420a51d2","ios":"levelo://app?vid=6db32011-5704-4d91-8ff9-b104420a51d2"},"vehicle_type_id":"4","last_reported":1750410681,"current_range_meters":9600,"station_id":"ce4bhr92rcd13ifvqhsg","pricing_plan_id":"cebpf4jnsgd1na2vs0mg"},{"bike_id":"43215828-0578-4306-b40f-2ab64696ea2f","system_id":"levelo_inurba_marseille","lat":43.29922,"lon":5.37472,"is_reserved":false,"is_disabled":false,"rental_uris":{"android":"levelo://app?vid=43215828-0578-4306-b40f-2ab64696ea2f","ios":"levelo://app?vid=43215828-0578-4306-b40f-2ab64696ea2f"},"vehicle_type_id":"4","last_reported":1750410681,"current_range_meters":10000,"station_id":"ce4bgjh2rcd13ifvqbg0","pricing_plan_id":"cebpf4jnsgd1na2vs0mg"},{"bike_id":"02928d2b-63b8-4344-ac78-f1340d99f3a0","system_id":"levelo_inurba_marseille","lat":43.2827,"lon":5.35054,"is_reserved":false,"is_disabled":false,"rental_uris":{"android":"levelo://app?vid=02928d2b-63b8-4344-ac78-f1340d99f3a0","ios":"levelo://app?vid=02928d2b-63b8-4344-ac78-f1340d99f3a0"},"vehicle_type_id":"4","last_reported":1750410681,"current_range_meters":10000,"station_id":"ce4bhbp2rcd13ifvqerg","pricing_plan_id":"cebpf4jnsgd1na2vs0mg"},{"bike_id":"fc9c54e8-b6e1-462b-b393-a453863683f0","system_id":"levelo_inurba_marseille","lat":43.23189,"lon":5.39965,"is_reserved":false,"is_disabled":false,"rental_uris":{"android":"levelo://app?vid=fc9c54e8-b6e1-462b-b393-a453863683f0","ios":"levelo://app?vid=fc9c54e8-b6e1-462b-b393-a453863683f0"},"vehicle_type_id":"4","last_reported":1750410681,"current_range_meters":10000,"station_id":"ce4bhn12rcd13ifvqgqg","pricing_plan_id":"cebpf4jnsgd1na2vs0mg"},{"bike_id":"5b43db9d-b35a-477e-af1d-a0f3964d74db","system_id":"levelo_inurba_marseille","lat":43.33024,"lon":5.39037,"is_reserved":false,"is_disabled":false,"rental_uris":{"android":"levelo://app?vid=5b43db9d-b35a-477e-af1d-a0f3964d74db","ios":"levelo://app?vid=5b43db9d-b35a-477e-af1d-a0f3964d74db"},"vehicle_type_id":"4","last_reported":1750410681,"current_range_meters":10000,"station_id":"ce4bhr92rcd13ifvqhrg","pricing_plan_id":"cebpf4jnsgd1na2vs0mg"},{"bike_id":"d9b2950a-cd4b-488f-8f1a-b2421b953666","system_id":"levelo_inurba_marseille","lat":43.31484,"lon":5.39236,"is_reserved":false,"is_disabled":false,"rental_uris":{"android":"levelo://app?vid=d9b2950a-cd4b-488f-8f1a-b2421b953666","ios":"levelo://app?vid=d9b2950a-cd4b-488f-8f1a-b2421b953666"},"vehicle_type_id":"4","last_reported":1750410681,"current_range_meters":10800,"station_id":"","pricing_plan_id":"cebpf4jnsgd1na2vs0mg"},{"bike_id":"f97e8a5a-a455-4cfe-992b-65845c83e180","system_id":"levelo_inurba_marseille","lat":43.29577,"lon":5.37494,"is_reserved":false,"is_disabled":false,"rental_uris":{"android":"levelo://app?vid=f97e8a5a-a455-4cfe-992b-65845c83e180","ios":"levelo://app?vid=f97e8a5a-a455-4cfe-992b-65845c83e180"},"vehicle_type_id":"4","last_reported":1750410681,"current_range_meters":10800,"station_id":"ce4bgh92rcd13ifvqb50","pricing_plan_id":"cebpf4jnsgd1na2vs0mg"},{"bike_id":"5476da19-90b6-4e12-b1b9-f007098b119f","system_id":"levelo_inurba_marseille","lat":43.297,"lon":5.36609,"is_reserved":false,"is_disabled":false,"rental_uris":{"android":"levelo://app?vid=5476da19-90b6-4e12-b1b9-f007098b119f","ios":"levelo://app?vid=5476da19-90b6-4e12-b1b9-f007098b119f"},"vehicle_type_id":"4","last_reported":1750410681,"current_range_meters":10800,"station_id":"ce4bgn12rcd13ifvqbt0","pricing_plan_id":"cebpf4jnsgd1na2vs0mg"},{"bike_id":"dde1d243-dec6-4c04-a9d8-3ade0f7f9735","system_id":"levelo_inurba_marseille","lat":43.292036,"lon":5.358196,"is_reserved":false,"is_disabled":false,"rental_uris":{"android":"levelo://app?vid=dde1d243-dec6-4c04-a9d8-3ade0f7f9735","ios":"levelo://app?vid=dde1d243-dec6-4c04-a9d8-3ade0f7f9735"},"vehicle_type_id":"4","last_reported":1750410681,"current_range_meters":10800,"station_id":"ce4bhb12rcd13ifvqel0","pricing_plan_id":"cebpf4jnsgd1na2vs0mg"},{"bike_id":"dcc307dd-8767-4cda-a087-6644af657b12","system_id":"levelo_inurba_marseille","lat":43.28275,"lon":5.35064,"is_reserved":false,"is_disabled":false,"rental_uris":{"android":"levelo://app?vid=dcc307dd-8767-4cda-a087-6644af657b12","ios":"levelo://app?vid=dcc307dd-8767-4cda-a087-6644af657b12"},"vehicle_type_id":"4","last_reported":1750410681,"current_range_meters":10800,"station_id":"ce4bhbp2rcd13ifvqerg","pricing_plan_id":"cebpf4jnsgd1na2vs0mg"},{"bike_id":"23164ea7-f10f-412e-a0de-db806c5e2185","system_id":"levelo_inurba_marseille","lat":43.31678,"lon":5.43683,"is_reserved":false,"is_disabled":false,"rental_uris":{"android":"levelo://app?vid=23164ea7-f10f-412e-a0de-db806c5e2185","ios":"levelo://app?vid=23164ea7-f10f-412e-a0de-db806c5e2185"},"vehicle_type_id":"4","last_reported":1750410681,"current_range_meters":10800,"station_id":"ce4bhp92rcd13ifvqhcg","pricing_plan_id":"cebpf4jnsgd1na2vs0mg"},{"bike_id":"3faf2329-83a2-494e-b098-e7888ccf5fcb","system_id":"levelo_inurba_marseille","lat":43.28713,"lon":5.38309,"is_reserved":false,"is_disabled":false,"rental_uris":{"android":"levelo://app?vid=3faf2329-83a2-494e-b098-e7888ccf5fcb","ios":"levelo://app?vid=3faf2329-83a2-494e-b098-e7888ccf5fcb"},"vehicle_type_id":"4","last_reported":1750410681,"current_range_meters":11200,"station_id":"","pricing_plan_id":"cebpf4jnsgd1na2vs0mg"},{"bike_id":"de4c879d-0d10-4bdc-88f4-91bfc9bc673c","system_id":"levelo_inurba_marseille","lat":43.29613,"lon":5.37725,"is_reserved":false,"is_disabled":false,"rental_uris":{"android":"levelo://app?vid=de4c879d-0d10-4bdc-88f4-91bfc9bc673c","ios":"levelo://app?vid=de4c879d-0d10-4bdc-88f4-91bfc9bc673c"},"vehicle_type_id":"4","last_reported":1750410681,"current_range_meters":11200,"station_id":"ce4bgi92rcd13ifvqb90","pricing_plan_id":"cebpf4jnsgd1na2vs0mg"},{"bike_id":"ad6a4f1c-aeb7-4c6c-bcb2-1c647b6d275d","system_id":"levelo_inurba_marseille","lat":43.31353,"lon":5.36711,"is_reserved":false,"is_disabled":false,"rental_uris":{"android":"levelo://app?vid=ad6a4f1c-aeb7-4c6c-bcb2-1c647b6d275d","ios":"levelo://app?vid=ad6a4f1c-aeb7-4c6c-bcb2-1c647b6d275d"},"vehicle_type_id":"4","last_reported":1750410681,"current_range_meters":11200,"station_id":"ce4bgr92rcd13ifvqc6g","pricing_plan_id":"cebpf4jnsgd1na2vs0mg"},{"bike_id":"d976c5ad-5171-47e3-9a04-4cedcf058ed1","system_id":"levelo_inurba_marseille","lat":43.30892,"lon":5.3718,"is_reserved":false,"is_disabled":false,"rental_uris":{"android":"levelo://app?vid=d976c5ad-5171-47e3-9a04-4cedcf058ed1","ios":"levelo://app?vid=d976c5ad-5171-47e3-9a04-4cedcf058ed1"},"vehicle_type_id":"4","last_reported":1750410681,"current_range_meters":11200,"station_id":"ce4bguh2rcd13ifvqckg","pricing_plan_id":"cebpf4jnsgd1na2vs0mg"},{"bike_id":"42dbc29b-3ad5-49a2-8335-5e31c8d1c49f","system_id":"levelo_inurba_marseille","lat":43.25496,"lon":5.37637,"is_reserved":false,"is_disabled":false,"rental_uris":{"android":"levelo://app?vid=42dbc29b-3ad5-49a2-8335-5e31c8d1c49f","ios":"levelo://app?vid=42dbc29b-3ad5-49a2-8335-5e31c8d1c49f"},"vehicle_type_id":"4","last_reported":1750410681,"current_range_meters":11200,"station_id":"ce4bhh12rcd13ifvqff0","pricing_plan_id":"cebpf4jnsgd1na2vs0mg"},{"bike_id":"cb13bbed-5ec3-4e9d-9c1a-3273662ee291","system_id":"levelo_inurba_marseille","lat":43.25495,"lon":5.37647,"is_reserved":false,"is_disabled":false,"rental_uris":{"android":"levelo://app?vid=cb13bbed-5ec3-4e9d-9c1a-3273662ee291","ios":"levelo://app?vid=cb13bbed-5ec3-4e9d-9c1a-3273662ee291"},"vehicle_type_id":"4","last_reported":1750410681,"current_range_meters":11200,"station_id":"ce4bhh12rcd13ifvqff0","pricing_plan_id":"cebpf4jnsgd1na2vs0mg"},{"bike_id":"350369db-be74-425e-b5a7-4e415c2a2ef3","system_id":"levelo_inurba_marseille","lat":43.28069,"lon":5.39631,"is_reserved":false,"is_disabled":false,"rental_uris":{"android":"levelo://app?vid=350369db-be74-425e-b5a7-4e415c2a2ef3","ios":"levelo://app?vid=350369db-be74-425e-b5a7-4e415c2a2ef3"},"vehicle_type_id":"4","last_reported":1750410681,"current_range_meters":11200,"station_id":"ce4bho12rcd13ifvqh2g","pricing_plan_id":"cebpf4jnsgd1na2vs0mg"},{"bike_id":"60563cbb-9061-4006-8e41-2def95d43c6c","system_id":"levelo_inurba_marseille","lat":43.31366,"lon":5.38643,"is_reserved":false,"is_disabled":false,"rental_uris":{"android":"levelo://app?vid=60563cbb-9061-4006-8e41-2def95d43c6c","ios":"levelo://app?vid=60563cbb-9061-4006-8e41-2def95d43c6c"},"vehicle_type_id":"4","last_reported":1750410681,"current_range_meters":11600,"station_id":"","pricing_plan_id":"cebpf4jnsgd1na2vs0mg"},{"bike_id":"e27573fd-8b8d-4e34-a09d-9cb09aa5fa49","system_id":"levelo_inurba_marseille","lat":43.29204,"lon":5.39993,"is_reserved":false,"is_disabled":false,"rental_uris":{"android":"levelo://app?vid=e27573fd-8b8d-4e34-a09d-9cb09aa5fa49","ios":"levelo://app?vid=e27573fd-8b8d-4e34-a09d-9cb09aa5fa49"},"vehicle_type_id":"4","last_reported":1750410681,"current_range_meters":11600,"station_id":"","pricing_plan_id":"cebpf4jnsgd1na2vs0mg"},{"bike_id":"8db33428-50ba-416d-8531-6c14fc6bbbbd","system_id":"levelo_inurba_marseille","lat":43.29567,"lon":5.37491,"is_reserved":false,"is_disabled":false,"rental_uris":{"android":"levelo://app?vid=8db33428-50ba-416d-8531-6c14fc6bbbbd","ios":"levelo://app?vid=8db33428-50ba-416d-8531-6c14fc6bbbbd"},"vehicle_type_id":"4","last_reported":1750410681,"current_range_meters":11600,"station_id":"ce4bgh92rcd13ifvqb50","pricing_plan_id":"cebpf4jnsgd1na2vs0mg"},{"bike_id":"1ad5ee07-bed1-4c32-a79a-020c989e944a","system_id":"levelo_inurba_marseille","lat":43.28931,"lon":5.36395,"is_reserved":false,"is_disabled":false,"rental_uris":{"android":"levelo://app?vid=1ad5ee07-bed1-4c32-a79a-020c989e944a","ios":"levelo://app?vid=1ad5ee07-bed1-4c32-a79a-020c989e944a"},"vehicle_type_id":"4","last_reported":1750410681,"current_range_meters":11600,"station_id":"ce4bhc92rcd13ifvqetg","pricing_plan_id":"cebpf4jnsgd1na2vs0mg"},{"bike_id":"ee9e43c0-6612-42d2-8e5d-ee22cfd8ab29","system_id":"levelo_inurba_marseille","lat":43.246398,"lon":5.384395,"is_reserved":false,"is_disabled":false,"rental_uris":{"android":"levelo://app?vid=ee9e43c0-6612-42d2-8e5d-ee22cfd8ab29","ios":"levelo://app?vid=ee9e43c0-6612-42d2-8e5d-ee22cfd8ab29"},"vehicle_type_id":"4","last_reported":1750410681,"current_range_meters":11600,"station_id":"ce4bhhh2rcd13ifvqfk0","pricing_plan_id":"cebpf4jnsgd1na2vs0mg"},{"bike_id":"57452e76-494f-4de7-8664-8d06979c1b6f","system_id":"levelo_inurba_marseille","lat":43.29086,"lon":5.42828,"is_reserved":false,"is_disabled":false,"rental_uris":{"android":"levelo://app?vid=57452e76-494f-4de7-8664-8d06979c1b6f","ios":"levelo://app?vid=57452e76-494f-4de7-8664-8d06979c1b6f"},"vehicle_type_id":"4","last_reported":1750410681,"current_range_meters":12000,"station_id":"","pricing_plan_id":"cebpf4jnsgd1na2vs0mg"},{"bike_id":"f7574965-0667-4f3b-90e2-276750d028f1","system_id":"levelo_inurba_marseille","lat":43.33098,"lon":5.3824,"is_reserved":false,"is_disabled":false,"rental_uris":{"android":"levelo://app?vid=f7574965-0667-4f3b-90e2-276750d028f1","ios":"levelo://app?vid=f7574965-0667-4f3b-90e2-276750d028f1"},"vehicle_type_id":"4","last_reported":1750410681,"current_range_meters":12000,"station_id":"","pricing_plan_id":"cebpf4jnsgd1na2vs0mg"},{"bike_id":"bd446f73-5786-4727-9d1e-4e409c57bec0","system_id":"levelo_inurba_marseille","lat":43.3053,"lon":5.36708,"is_reserved":false,"is_disabled":false,"rental_uris":{"android":"levelo://app?vid=bd446f73-5786-4727-9d1e-4e409c57bec0","ios":"levelo://app?vid=bd446f73-5786-4727-9d1e-4e409c57bec0"},"vehicle_type_id":"4","last_reported":1750410681,"current_range_meters":12000,"station_id":"ce4bgrp2rcd13ifvqc9g","pricing_plan_id":"cebpf4jnsgd1na2vs0mg"},{"bike_id":"795166e6-a95b-4c8d-a470-abf7605307f5","system_id":"levelo_inurba_marseille","lat":43.30529,"lon":5.36709,"is_reserved":false,"is_disabled":false,"rental_uris":{"android":"levelo://app?vid=795166e6-a95b-4c8d-a470-abf7605307f5","ios":"levelo://app?vid=795166e6-a95b-4c8d-a470-abf7605307f5"},"vehicle_type_id":"4","last_reported":1750410681,"current_range_meters":12000,"station_id":"ce4bgrp2rcd13ifvqc9g","pricing_plan_id":"cebpf4jnsgd1na2vs0mg"},{"bike_id":"0bf896f6-fc0c-4490-8536-3ef4e0c5228f","system_id":"levelo_inurba_marseille","lat":43.2917,"lon":5.37147,"is_reserved":false,"is_disabled":false,"rental_uris":{"android":"levelo://app?vid=0bf896f6-fc0c-4490-8536-3ef4e0c5228f","ios":"levelo://app?vid=0bf896f6-fc0c-4490-8536-3ef4e0c5228f"},"vehicle_type_id":"4","last_reported":1750410681,"current_range_meters":12000,"station_id":"ce4bha92rcd13ifvqeh0","pricing_plan_id":"cebpf4jnsgd1na2vs0mg"},{"bike_id":"027be5fe-3a9d-4b7e-bb1a-fd375866ff6b","system_id":"levelo_inurba_marseille","lat":43.26568,"lon":5.390113,"is_reserved":false,"is_disabled":false,"rental_uris":{"android":"levelo://app?vid=027be5fe-3a9d-4b7e-bb1a-fd375866ff6b","ios":"levelo://app?vid=027be5fe-3a9d-4b7e-bb1a-fd375866ff6b"},"vehicle_type_id":"4","last_reported":1750410681,"current_range_meters":12000,"station_id":"ce4bhe12rcd13ifvqf30","pricing_plan_id":"cebpf4jnsgd1na2vs0mg"},{"bike_id":"1e466cd0-4ebd-40dc-a9d0-f5b0d3d7d813","system_id":"levelo_inurba_marseille","lat":43.30536,"lon":5.366934,"is_reserved":false,"is_disabled":false,"rental_uris":{"android":"levelo://app?vid=1e466cd0-4ebd-40dc-a9d0-f5b0d3d7d813","ios":"levelo://app?vid=1e466cd0-4ebd-40dc-a9d0-f5b0d3d7d813"},"vehicle_type_id":"4","last_reported":1750410681,"current_range_meters":12400,"station_id":"ce4bgrp2rcd13ifvqc9g","pricing_plan_id":"cebpf4jnsgd1na2vs0mg"},{"bike_id":"3bca82f0-0323-4f0c-a457-3644ba8dc4c5","system_id":"levelo_inurba_marseille","lat":43.29199,"lon":5.3581,"is_reserved":false,"is_disabled":false,"rental_uris":{"android":"levelo://app?vid=3bca82f0-0323-4f0c-a457-3644ba8dc4c5","ios":"levelo://app?vid=3bca82f0-0323-4f0c-a457-3644ba8dc4c5"},"vehicle_type_id":"4","last_reported":1750410681,"current_range_meters":12400,"station_id":"ce4bhb12rcd13ifvqel0","pricing_plan_id":"cebpf4jnsgd1na2vs0mg"},{"bike_id":"a1db6138-2c06-4a10-86f9-71b5be7e3b11","system_id":"levelo_inurba_marseille","lat":43.27082,"lon":5.40231,"is_reserved":false,"is_disabled":false,"rental_uris":{"android":"levelo://app?vid=a1db6138-2c06-4a10-86f9-71b5be7e3b11","ios":"levelo://app?vid=a1db6138-2c06-4a10-86f9-71b5be7e3b11"},"vehicle_type_id":"4","last_reported":1750410681,"current_range_meters":12400,"station_id":"ce4bhk92rcd13ifvqgc0","pricing_plan_id":"cebpf4jnsgd1na2vs0mg"},{"bike_id":"74e58c3c-6de6-4ddc-8072-08325a79deec","system_id":"levelo_inurba_marseille","lat":43.23147,"lon":5.43725,"is_reserved":false,"is_disabled":false,"rental_uris":{"android":"levelo://app?vid=74e58c3c-6de6-4ddc-8072-08325a79deec","ios":"levelo://app?vid=74e58c3c-6de6-4ddc-8072-08325a79deec"},"vehicle_type_id":"4","last_reported":1750410681,"current_range_meters":12800,"station_id":"ce4bhmp2rcd13ifvqgog","pricing_plan_id":"cebpf4jnsgd1na2vs0mg"},{"bike_id":"cfcc63e5-33ec-4229-a7bf-4d1c7311a7b9","system_id":"levelo_inurba_marseille","lat":43.29886,"lon":5.43633,"is_reserved":false,"is_disabled":false,"rental_uris":{"android":"levelo://app?vid=cfcc63e5-33ec-4229-a7bf-4d1c7311a7b9","ios":"levelo://app?vid=cfcc63e5-33ec-4229-a7bf-4d1c7311a7b9"},"vehicle_type_id":"4","last_reported":1750410681,"current_range_meters":12800,"station_id":"ce4bhpp2rcd13ifvqhfg","pricing_plan_id":"cebpf4jnsgd1na2vs0mg"},{"bike_id":"09b7a7f2-bc01-4388-8834-54888797b44c","system_id":"levelo_inurba_marseille","lat":43.30136,"lon":5.3742,"is_reserved":false,"is_disabled":false,"rental_uris":{"android":"levelo://app?vid=09b7a7f2-bc01-4388-8834-54888797b44c","ios":"levelo://app?vid=09b7a7f2-bc01-4388-8834-54888797b44c"},"vehicle_type_id":"4","last_reported":1750410681,"current_range_meters":13600,"station_id":"ce4bgs92rcd13ifvqcc0","pricing_plan_id":"cebpf4jnsgd1na2vs0mg"},{"bike_id":"a9ecbcf2-f885-44ca-8329-a931e3ae95c3","system_id":"levelo_inurba_marseille","lat":43.31491,"lon":5.37312,"is_reserved":false,"is_disabled":false,"rental_uris":{"android":"levelo://app?vid=a9ecbcf2-f885-44ca-8329-a931e3ae95c3","ios":"levelo://app?vid=a9ecbcf2-f885-44ca-8329-a931e3ae95c3"},"vehicle_type_id":"4","last_reported":1750410681,"current_range_meters":13600,"station_id":"ce4bgt12rcd13ifvqcd0","pricing_plan_id":"cebpf4jnsgd1na2vs0mg"},{"bike_id":"80802d61-ff24-46af-8779-6d7c3aee42a1","system_id":"levelo_inurba_marseille","lat":43.28271,"lon":5.35066,"is_reserved":false,"is_disabled":false,"rental_uris":{"android":"levelo://app?vid=80802d61-ff24-46af-8779-6d7c3aee42a1","ios":"levelo://app?vid=80802d61-ff24-46af-8779-6d7c3aee42a1"},"vehicle_type_id":"4","last_reported":1750410681,"current_range_meters":13600,"station_id":"ce4bhbp2rcd13ifvqerg","pricing_plan_id":"cebpf4jnsgd1na2vs0mg"},{"bike_id":"3ff2b083-ec74-4501-adaa-4fb2a3a83911","system_id":"levelo_inurba_marseille","lat":43.28698,"lon":5.39983,"is_reserved":false,"is_disabled":false,"rental_uris":{"android":"levelo://app?vid=3ff2b083-ec74-4501-adaa-4fb2a3a83911","ios":"levelo://app?vid=3ff2b083-ec74-4501-adaa-4fb2a3a83911"},"vehicle_type_id":"4","last_reported":1750410681,"current_range_meters":13600,"station_id":"ce4bho92rcd13ifvqh3g","pricing_plan_id":"cebpf4jnsgd1na2vs0mg"},{"bike_id":"3fd858b2-825f-4f7a-b0cf-08057dd2e0ef","system_id":"levelo_inurba_marseille","lat":43.33588,"lon":5.40976,"is_reserved":false,"is_disabled":false,"rental_uris":{"android":"levelo://app?vid=3fd858b2-825f-4f7a-b0cf-08057dd2e0ef","ios":"levelo://app?vid=3fd858b2-825f-4f7a-b0cf-08057dd2e0ef"},"vehicle_type_id":"4","last_reported":1750410681,"current_range_meters":13600,"station_id":"ce4bhqh2rcd13ifvqhmg","pricing_plan_id":"cebpf4jnsgd1na2vs0mg"},{"bike_id":"199c2831-e081-4bc0-9b94-19503817091d","system_id":"levelo_inurba_marseille","lat":43.24899,"lon":5.40664,"is_reserved":false,"is_disabled":false,"rental_uris":{"android":"levelo://app?vid=199c2831-e081-4bc0-9b94-19503817091d","ios":"levelo://app?vid=199c2831-e081-4bc0-9b94-19503817091d"},"vehicle_type_id":"4","last_reported":1750410681,"current_range_meters":14000,"station_id":"","pricing_plan_id":"cebpf4jnsgd1na2vs0mg"},{"bike_id":"ea833185-b2be-41ee-b611-cb1f55e0b1b4","system_id":"levelo_inurba_marseille","lat":43.3047,"lon":5.37912,"is_reserved":false,"is_disabled":false,"rental_uris":{"android":"levelo://app?vid=ea833185-b2be-41ee-b611-cb1f55e0b1b4","ios":"levelo://app?vid=ea833185-b2be-41ee-b611-cb1f55e0b1b4"},"vehicle_type_id":"4","last_reported":1750410681,"current_range_meters":14000,"station_id":"ce4bgup2rcd13ifvqcn0","pricing_plan_id":"cebpf4jnsgd1na2vs0mg"},{"bike_id":"1ae06edd-4ca0-4aa7-9192-f592bd921d72","system_id":"levelo_inurba_marseille","lat":43.2847,"lon":5.35885,"is_reserved":false,"is_disabled":false,"rental_uris":{"android":"levelo://app?vid=1ae06edd-4ca0-4aa7-9192-f592bd921d72","ios":"levelo://app?vid=1ae06edd-4ca0-4aa7-9192-f592bd921d72"},"vehicle_type_id":"4","last_reported":1750410681,"current_range_meters":14000,"station_id":"ce4bhah2rcd13ifvqei0","pricing_plan_id":"cebpf4jnsgd1na2vs0mg"},{"bike_id":"c9ac7932-e077-4ef7-84f3-bd5eebcd21fb","system_id":"levelo_inurba_marseille","lat":43.26555,"lon":5.37284,"is_reserved":false,"is_disabled":false,"rental_uris":{"android":"levelo://app?vid=c9ac7932-e077-4ef7-84f3-bd5eebcd21fb","ios":"levelo://app?vid=c9ac7932-e077-4ef7-84f3-bd5eebcd21fb"},"vehicle_type_id":"4","last_reported":1750410681,"current_range_meters":14000,"station_id":"ce4bhg12rcd13ifvqf70","pricing_plan_id":"cebpf4jnsgd1na2vs0mg"},{"bike_id":"8042f5c3-c51a-4eb4-8292-9b3afb0af7a5","system_id":"levelo_inurba_marseille","lat":43.27308,"lon":5.39079,"is_reserved":false,"is_disabled":false,"rental_uris":{"android":"levelo://app?vid=8042f5c3-c51a-4eb4-8292-9b3afb0af7a5","ios":"levelo://app?vid=8042f5c3-c51a-4eb4-8292-9b3afb0af7a5"},"vehicle_type_id":"4","last_reported":1750410681,"current_range_meters":14000,"station_id":"ce4bhgp2rcd13ifvqfe0","pricing_plan_id":"cebpf4jnsgd1na2vs0mg"},{"bike_id":"0708cf38-7a7f-4f4d-a4c6-7778c58c5a3c","system_id":"levelo_inurba_marseille","lat":43.283233,"lon":5.410994,"is_reserved":false,"is_disabled":false,"rental_uris":{"android":"levelo://app?vid=0708cf38-7a7f-4f4d-a4c6-7778c58c5a3c","ios":"levelo://app?vid=0708cf38-7a7f-4f4d-a4c6-7778c58c5a3c"},"vehicle_type_id":"4","last_reported":1750410681,"current_range_meters":14400,"station_id":"","pricing_plan_id":"cebpf4jnsgd1na2vs0mg"},{"bike_id":"f30123e7-96d3-442d-9d01-6c98dc61e7c8","system_id":"levelo_inurba_marseille","lat":43.29807,"lon":5.36837,"is_reserved":false,"is_disabled":false,"rental_uris":{"android":"levelo://app?vid=f30123e7-96d3-442d-9d01-6c98dc61e7c8","ios":"levelo://app?vid=f30123e7-96d3-442d-9d01-6c98dc61e7c8"},"vehicle_type_id":"4","last_reported":1750410681,"current_range_meters":14800,"station_id":"","pricing_plan_id":"cebpf4jnsgd1na2vs0mg"},{"bike_id":"d958a725-3458-4a0f-ac85-b9d0e5d52bb4","system_id":"levelo_inurba_marseille","lat":43.24083,"lon":5.37731,"is_reserved":false,"is_disabled":false,"rental_uris":{"android":"levelo://app?vid=d958a725-3458-4a0f-ac85-b9d0e5d52bb4","ios":"levelo://app?vid=d958a725-3458-4a0f-ac85-b9d0e5d52bb4"},"vehicle_type_id":"4","last_reported":1750410681,"current_range_meters":14800,"station_id":"ce4bhnp2rcd13ifvqgvg","pricing_plan_id":"cebpf4jnsgd1na2vs0mg"},{"bike_id":"5979cd54-1f39-402d-8869-0560bb0aca6b","system_id":"levelo_inurba_marseille","lat":43.33028,"lon":5.39048,"is_reserved":false,"is_disabled":false,"rental_uris":{"android":"levelo://app?vid=5979cd54-1f39-402d-8869-0560bb0aca6b","ios":"levelo://app?vid=5979cd54-1f39-402d-8869-0560bb0aca6b"},"vehicle_type_id":"4","last_reported":1750410681,"current_range_meters":15200,"station_id":"ce4bhr92rcd13ifvqhrg","pricing_plan_id":"cebpf4jnsgd1na2vs0mg"},{"bike_id":"04d972d4-625c-41a2-93b6-5337e9ca8ff0","system_id":"levelo_inurba_marseille","lat":43.32103,"lon":5.36785,"is_reserved":false,"is_disabled":false,"rental_uris":{"android":"levelo://app?vid=04d972d4-625c-41a2-93b6-5337e9ca8ff0","ios":"levelo://app?vid=04d972d4-625c-41a2-93b6-5337e9ca8ff0"},"vehicle_type_id":"4","last_reported":1750410681,"current_range_meters":15200,"station_id":"ce4bhrh2rcd13ifvqhug","pricing_plan_id":"cebpf4jnsgd1na2vs0mg"},{"bike_id":"7fb8f777-502e-4027-8e9f-d463bb7373be","system_id":"levelo_inurba_marseille","lat":43.29634,"lon":5.38003,"is_reserved":false,"is_disabled":false,"rental_uris":{"android":"levelo://app?vid=7fb8f777-502e-4027-8e9f-d463bb7373be","ios":"levelo://app?vid=7fb8f777-502e-4027-8e9f-d463bb7373be"},"vehicle_type_id":"4","last_reported":1750410681,"current_range_meters":16000,"station_id":"","pricing_plan_id":"cebpf4jnsgd1na2vs0mg"},{"bike_id":"ca6842d6-6a08-4dae-b545-a4aefc25764b","system_id":"levelo_inurba_marseille","lat":43.303077,"lon":5.389191,"is_reserved":false,"is_disabled":false,"rental_uris":{"android":"levelo://app?vid=ca6842d6-6a08-4dae-b545-a4aefc25764b","ios":"levelo://app?vid=ca6842d6-6a08-4dae-b545-a4aefc25764b"},"vehicle_type_id":"4","last_reported":1750410681,"current_range_meters":16000,"station_id":"","pricing_plan_id":"cebpf4jnsgd1na2vs0mg"},{"bike_id":"1be30b12-21f8-4884-ae8c-72cb826d7c10","system_id":"levelo_inurba_marseille","lat":43.29524,"lon":5.37505,"is_reserved":false,"is_disabled":false,"rental_uris":{"android":"levelo://app?vid=1be30b12-21f8-4884-ae8c-72cb826d7c10","ios":"levelo://app?vid=1be30b12-21f8-4884-ae8c-72cb826d7c10"},"vehicle_type_id":"4","last_reported":1750410681,"current_range_meters":16000,"station_id":"ce4bgkp2rcd13ifvqbmg","pricing_plan_id":"cebpf4jnsgd1na2vs0mg"},{"bike_id":"9765131a-3ace-43fa-bca8-8a29ccceccbb","system_id":"levelo_inurba_marseille","lat":43.28422,"lon":5.34985,"is_reserved":false,"is_disabled":false,"rental_uris":{"android":"levelo://app?vid=9765131a-3ace-43fa-bca8-8a29ccceccbb","ios":"levelo://app?vid=9765131a-3ace-43fa-bca8-8a29ccceccbb"},"vehicle_type_id":"4","last_reported":1750410681,"current_range_meters":16000,"station_id":"ce4bhbh2rcd13ifvqepg","pricing_plan_id":"cebpf4jnsgd1na2vs0mg"},{"bike_id":"0a7da1b8-94e3-4321-a925-c5e5aa8062a1","system_id":"levelo_inurba_marseille","lat":43.2927,"lon":5.3684,"is_reserved":false,"is_disabled":false,"rental_uris":{"android":"levelo://app?vid=0a7da1b8-94e3-4321-a925-c5e5aa8062a1","ios":"levelo://app?vid=0a7da1b8-94e3-4321-a925-c5e5aa8062a1"},"vehicle_type_id":"4","last_reported":1750410681,"current_range_meters":16000,"station_id":"ce4bhbp2rcd13ifvqesg","pricing_plan_id":"cebpf4jnsgd1na2vs0mg"},{"bike_id":"508b6d48-a5c0-4899-ac1c-6b571eb8f4a0","system_id":"levelo_inurba_marseille","lat":43.32481,"lon":5.36548,"is_reserved":false,"is_disabled":false,"rental_uris":{"android":"levelo://app?vid=508b6d48-a5c0-4899-ac1c-6b571eb8f4a0","ios":"levelo://app?vid=508b6d48-a5c0-4899-ac1c-6b571eb8f4a0"},"vehicle_type_id":"4","last_reported":1750410681,"current_range_meters":16000,"station_id":"ce4bhs12rcd13ifvqhvg","pricing_plan_id":"cebpf4jnsgd1na2vs0mg"},{"bike_id":"e0fef64f-0009-4ccd-be40-789a4df52003","system_id":"levelo_inurba_marseille","lat":43.29913,"lon":5.37474,"is_reserved":false,"is_disabled":false,"rental_uris":{"android":"levelo://app?vid=e0fef64f-0009-4ccd-be40-789a4df52003","ios":"levelo://app?vid=e0fef64f-0009-4ccd-be40-789a4df52003"},"vehicle_type_id":"4","last_reported":1750410681,"current_range_meters":16400,"station_id":"ce4bgjh2rcd13ifvqbg0","pricing_plan_id":"cebpf4jnsgd1na2vs0mg"},{"bike_id":"29321ce9-5870-42e1-b20d-b3aa3525e1e6","system_id":"levelo_inurba_marseille","lat":43.29704,"lon":5.37701,"is_reserved":false,"is_disabled":false,"rental_uris":{"android":"levelo://app?vid=29321ce9-5870-42e1-b20d-b3aa3525e1e6","ios":"levelo://app?vid=29321ce9-5870-42e1-b20d-b3aa3525e1e6"},"vehicle_type_id":"4","last_reported":1750410681,"current_range_meters":16400,"station_id":"ce4bgkh2rcd13ifvqbl0","pricing_plan_id":"cebpf4jnsgd1na2vs0mg"},{"bike_id":"6ed81a33-09ad-42be-9924-aaecd89e05b7","system_id":"levelo_inurba_marseille","lat":43.30276,"lon":5.37704,"is_reserved":false,"is_disabled":false,"rental_uris":{"android":"levelo://app?vid=6ed81a33-09ad-42be-9924-aaecd89e05b7","ios":"levelo://app?vid=6ed81a33-09ad-42be-9924-aaecd89e05b7"},"vehicle_type_id":"4","last_reported":1750410681,"current_range_meters":16400,"station_id":"ce4bguh2rcd13ifvqcj0","pricing_plan_id":"cebpf4jnsgd1na2vs0mg"},{"bike_id":"dc540ba2-fb63-45eb-b83a-1826fb3d30b7","system_id":"levelo_inurba_marseille","lat":43.24607,"lon":5.39265,"is_reserved":false,"is_disabled":false,"rental_uris":{"android":"levelo://app?vid=dc540ba2-fb63-45eb-b83a-1826fb3d30b7","ios":"levelo://app?vid=dc540ba2-fb63-45eb-b83a-1826fb3d30b7"},"vehicle_type_id":"4","last_reported":1750410681,"current_range_meters":16800,"station_id":"","pricing_plan_id":"cebpf4jnsgd1na2vs0mg"},{"bike_id":"b999c313-d6eb-46a2-b611-aedbb042c63f","system_id":"levelo_inurba_marseille","lat":43.28118,"lon":5.44063,"is_reserved":false,"is_disabled":false,"rental_uris":{"android":"levelo://app?vid=b999c313-d6eb-46a2-b611-aedbb042c63f","ios":"levelo://app?vid=b999c313-d6eb-46a2-b611-aedbb042c63f"},"vehicle_type_id":"4","last_reported":1750410681,"current_range_meters":16800,"station_id":"","pricing_plan_id":"cebpf4jnsgd1na2vs0mg"},{"bike_id":"8ef11a45-504d-45b0-a2b5-97fef9594218","system_id":"levelo_inurba_marseille","lat":43.29563,"lon":5.38145,"is_reserved":false,"is_disabled":false,"rental_uris":{"android":"levelo://app?vid=8ef11a45-504d-45b0-a2b5-97fef9594218","ios":"levelo://app?vid=8ef11a45-504d-45b0-a2b5-97fef9594218"},"vehicle_type_id":"4","last_reported":1750410681,"current_range_meters":16800,"station_id":"","pricing_plan_id":"cebpf4jnsgd1na2vs0mg"},{"bike_id":"fdaaa105-0af6-4556-80fc-c0b4bdc822fc","system_id":"levelo_inurba_marseille","lat":43.31209,"lon":5.36851,"is_reserved":false,"is_disabled":false,"rental_uris":{"android":"levelo://app?vid=fdaaa105-0af6-4556-80fc-c0b4bdc822fc","ios":"levelo://app?vid=fdaaa105-0af6-4556-80fc-c0b4bdc822fc"},"vehicle_type_id":"4","last_reported":1750410681,"current_range_meters":16800,"station_id":"ce4bgl92rcd13ifvqbq0","pricing_plan_id":"cebpf4jnsgd1na2vs0mg"},{"bike_id":"adf54c59-35f8-4bb6-aeda-e7ecc3aef930","system_id":"levelo_inurba_marseille","lat":43.28257,"lon":5.35069,"is_reserved":false,"is_disabled":false,"rental_uris":{"android":"levelo://app?vid=adf54c59-35f8-4bb6-aeda-e7ecc3aef930","ios":"levelo://app?vid=adf54c59-35f8-4bb6-aeda-e7ecc3aef930"},"vehicle_type_id":"4","last_reported":1750410681,"current_range_meters":16800,"station_id":"ce4bhbp2rcd13ifvqerg","pricing_plan_id":"cebpf4jnsgd1na2vs0mg"},{"bike_id":"c3507ecf-350a-4f40-a3ec-c054291d999e","system_id":"levelo_inurba_marseille","lat":43.28259,"lon":5.35069,"is_reserved":false,"is_disabled":false,"rental_uris":{"android":"levelo://app?vid=c3507ecf-350a-4f40-a3ec-c054291d999e","ios":"levelo://app?vid=c3507ecf-350a-4f40-a3ec-c054291d999e"},"vehicle_type_id":"4","last_reported":1750410681,"current_range_meters":16800,"station_id":"ce4bhbp2rcd13ifvqerg","pricing_plan_id":"cebpf4jnsgd1na2vs0mg"},{"bike_id":"9c9432f2-200a-4685-a0d1-4fe23879268a","system_id":"levelo_inurba_marseille","lat":43.24066,"lon":5.37757,"is_reserved":false,"is_disabled":false,"rental_uris":{"android":"levelo://app?vid=9c9432f2-200a-4685-a0d1-4fe23879268a","ios":"levelo://app?vid=9c9432f2-200a-4685-a0d1-4fe23879268a"},"vehicle_type_id":"4","last_reported":1750410681,"current_range_meters":16800,"station_id":"ce4bhnp2rcd13ifvqgvg","pricing_plan_id":"cebpf4jnsgd1na2vs0mg"},{"bike_id":"69c8406c-2bb5-4a16-90c2-ca57ba903ca2","system_id":"levelo_inurba_marseille","lat":43.27995,"lon":5.40018,"is_reserved":false,"is_disabled":false,"rental_uris":{"android":"levelo://app?vid=69c8406c-2bb5-4a16-90c2-ca57ba903ca2","ios":"levelo://app?vid=69c8406c-2bb5-4a16-90c2-ca57ba903ca2"},"vehicle_type_id":"4","last_reported":1750410681,"current_range_meters":16800,"station_id":"ce4bho92rcd13ifvqh4g","pricing_plan_id":"cebpf4jnsgd1na2vs0mg"},{"bike_id":"ddefd7fd-3400-4337-8338-4067185a8cdb","system_id":"levelo_inurba_marseille","lat":43.32108,"lon":5.36763,"is_reserved":false,"is_disabled":false,"rental_uris":{"android":"levelo://app?vid=ddefd7fd-3400-4337-8338-4067185a8cdb","ios":"levelo://app?vid=ddefd7fd-3400-4337-8338-4067185a8cdb"},"vehicle_type_id":"4","last_reported":1750410681,"current_range_meters":16800,"station_id":"ce4bhrh2rcd13ifvqhug","pricing_plan_id":"cebpf4jnsgd1na2vs0mg"},{"bike_id":"8e92feac-7d18-4ddd-8b47-3e77cf9b9c34","system_id":"levelo_inurba_marseille","lat":43.23191,"lon":5.35549,"is_reserved":false,"is_disabled":false,"rental_uris":{"android":"levelo://app?vid=8e92feac-7d18-4ddd-8b47-3e77cf9b9c34","ios":"levelo://app?vid=8e92feac-7d18-4ddd-8b47-3e77cf9b9c34"},"vehicle_type_id":"4","last_reported":1750410681,"current_range_meters":16800,"station_id":"ce4bhu92rcd13ifvqi70","pricing_plan_id":"cebpf4jnsgd1na2vs0mg"},{"bike_id":"4294f40c-b719-497c-8296-c9a2a1dd66a1","system_id":"levelo_inurba_marseille","lat":43.21752,"lon":5.34603,"is_reserved":false,"is_disabled":false,"rental_uris":{"android":"levelo://app?vid=4294f40c-b719-497c-8296-c9a2a1dd66a1","ios":"levelo://app?vid=4294f40c-b719-497c-8296-c9a2a1dd66a1"},"vehicle_type_id":"4","last_reported":1750410681,"current_range_meters":16800,"station_id":"st_cvj6r9ubvosntc0bgbag","pricing_plan_id":"cebpf4jnsgd1na2vs0mg"},{"bike_id":"d40af265-11b5-43a6-9bb6-f910f57901ba","system_id":"levelo_inurba_marseille","lat":43.32925,"lon":5.38011,"is_reserved":false,"is_disabled":false,"rental_uris":{"android":"levelo://app?vid=d40af265-11b5-43a6-9bb6-f910f57901ba","ios":"levelo://app?vid=d40af265-11b5-43a6-9bb6-f910f57901ba"},"vehicle_type_id":"4","last_reported":1750410681,"current_range_meters":17200,"station_id":"","pricing_plan_id":"cebpf4jnsgd1na2vs0mg"},{"bike_id":"bd27fe72-6fbc-453f-8b77-bee10ab3b13c","system_id":"levelo_inurba_marseille","lat":43.29547,"lon":5.42374,"is_reserved":false,"is_disabled":false,"rental_uris":{"android":"levelo://app?vid=bd27fe72-6fbc-453f-8b77-bee10ab3b13c","ios":"levelo://app?vid=bd27fe72-6fbc-453f-8b77-bee10ab3b13c"},"vehicle_type_id":"4","last_reported":1750410681,"current_range_meters":17200,"station_id":"","pricing_plan_id":"cebpf4jnsgd1na2vs0mg"},{"bike_id":"67267b1c-18de-490a-91b6-ad6f5fc29cf5","system_id":"levelo_inurba_marseille","lat":43.28665,"lon":5.36356,"is_reserved":false,"is_disabled":false,"rental_uris":{"android":"levelo://app?vid=67267b1c-18de-490a-91b6-ad6f5fc29cf5","ios":"levelo://app?vid=67267b1c-18de-490a-91b6-ad6f5fc29cf5"},"vehicle_type_id":"4","last_reported":1750410681,"current_range_meters":17200,"station_id":"ce4bhah2rcd13ifvqej0","pricing_plan_id":"cebpf4jnsgd1na2vs0mg"},{"bike_id":"01f82335-1be4-49f0-bb9c-76bf3d817d2f","system_id":"levelo_inurba_marseille","lat":43.28412,"lon":5.34993,"is_reserved":false,"is_disabled":false,"rental_uris":{"android":"levelo://app?vid=01f82335-1be4-49f0-bb9c-76bf3d817d2f","ios":"levelo://app?vid=01f82335-1be4-49f0-bb9c-76bf3d817d2f"},"vehicle_type_id":"4","last_reported":1750410681,"current_range_meters":17200,"station_id":"ce4bhbh2rcd13ifvqepg","pricing_plan_id":"cebpf4jnsgd1na2vs0mg"},{"bike_id":"6fbb6f59-3f2e-431c-9beb-13cc45f9dff3","system_id":"levelo_inurba_marseille","lat":43.23192,"lon":5.35556,"is_reserved":false,"is_disabled":false,"rental_uris":{"android":"levelo://app?vid=6fbb6f59-3f2e-431c-9beb-13cc45f9dff3","ios":"levelo://app?vid=6fbb6f59-3f2e-431c-9beb-13cc45f9dff3"},"vehicle_type_id":"4","last_reported":1750410681,"current_range_meters":17200,"station_id":"ce4bhu92rcd13ifvqi70","pricing_plan_id":"cebpf4jnsgd1na2vs0mg"},{"bike_id":"e904481c-c075-4235-ab4b-c7d3ddbe3194","system_id":"levelo_inurba_marseille","lat":43.293304,"lon":5.370808,"is_reserved":false,"is_disabled":false,"rental_uris":{"android":"levelo://app?vid=e904481c-c075-4235-ab4b-c7d3ddbe3194","ios":"levelo://app?vid=e904481c-c075-4235-ab4b-c7d3ddbe3194"},"vehicle_type_id":"4","last_reported":1750410681,"current_range_meters":17600,"station_id":"","pricing_plan_id":"cebpf4jnsgd1na2vs0mg"},{"bike_id":"a22aa312-0025-4f42-88e2-b1e95e79340f","system_id":"levelo_inurba_marseille","lat":43.31694,"lon":5.38401,"is_reserved":false,"is_disabled":false,"rental_uris":{"android":"levelo://app?vid=a22aa312-0025-4f42-88e2-b1e95e79340f","ios":"levelo://app?vid=a22aa312-0025-4f42-88e2-b1e95e79340f"},"vehicle_type_id":"4","last_reported":1750410681,"current_range_meters":17600,"station_id":"","pricing_plan_id":"cebpf4jnsgd1na2vs0mg"},{"bike_id":"a355deee-f604-4bbe-bc6d-9b0b2f98b683","system_id":"levelo_inurba_marseille","lat":43.314815,"lon":5.372977,"is_reserved":false,"is_disabled":false,"rental_uris":{"android":"levelo://app?vid=a355deee-f604-4bbe-bc6d-9b0b2f98b683","ios":"levelo://app?vid=a355deee-f604-4bbe-bc6d-9b0b2f98b683"},"vehicle_type_id":"4","last_reported":1750410681,"current_range_meters":17600,"station_id":"ce4bgt12rcd13ifvqcd0","pricing_plan_id":"cebpf4jnsgd1na2vs0mg"},{"bike_id":"0a5d4882-9b9b-42db-8d06-b76982439669","system_id":"levelo_inurba_marseille","lat":43.31359,"lon":5.38492,"is_reserved":false,"is_disabled":false,"rental_uris":{"android":"levelo://app?vid=0a5d4882-9b9b-42db-8d06-b76982439669","ios":"levelo://app?vid=0a5d4882-9b9b-42db-8d06-b76982439669"},"vehicle_type_id":"4","last_reported":1750410681,"current_range_meters":17600,"station_id":"ce4bgt92rcd13ifvqcf0","pricing_plan_id":"cebpf4jnsgd1na2vs0mg"},{"bike_id":"449645e7-e802-4e23-a313-948022857a45","system_id":"levelo_inurba_marseille","lat":43.2927,"lon":5.36842,"is_reserved":false,"is_disabled":false,"rental_uris":{"android":"levelo://app?vid=449645e7-e802-4e23-a313-948022857a45","ios":"levelo://app?vid=449645e7-e802-4e23-a313-948022857a45"},"vehicle_type_id":"4","last_reported":1750410681,"current_range_meters":17600,"station_id":"ce4bhbp2rcd13ifvqesg","pricing_plan_id":"cebpf4jnsgd1na2vs0mg"},{"bike_id":"e1d815f9-c5bb-438c-ba4b-3cc89f182ad5","system_id":"levelo_inurba_marseille","lat":43.31407,"lon":5.36674,"is_reserved":false,"is_disabled":false,"rental_uris":{"android":"levelo://app?vid=e1d815f9-c5bb-438c-ba4b-3cc89f182ad5","ios":"levelo://app?vid=e1d815f9-c5bb-438c-ba4b-3cc89f182ad5"},"vehicle_type_id":"4","last_reported":1750410681,"current_range_meters":18000,"station_id":"","pricing_plan_id":"cebpf4jnsgd1na2vs0mg"},{"bike_id":"4643bc90-1bac-4c4b-98b1-e2d500830573","system_id":"levelo_inurba_marseille","lat":43.31371,"lon":5.37704,"is_reserved":false,"is_disabled":false,"rental_uris":{"android":"levelo://app?vid=4643bc90-1bac-4c4b-98b1-e2d500830573","ios":"levelo://app?vid=4643bc90-1bac-4c4b-98b1-e2d500830573"},"vehicle_type_id":"4","last_reported":1750410681,"current_range_meters":18000,"station_id":"","pricing_plan_id":"cebpf4jnsgd1na2vs0mg"},{"bike_id":"ffbb0c22-3f4e-4cdb-a0e5-79e3b9f3e1a2","system_id":"levelo_inurba_marseille","lat":43.33765,"lon":5.37432,"is_reserved":false,"is_disabled":false,"rental_uris":{"android":"levelo://app?vid=ffbb0c22-3f4e-4cdb-a0e5-79e3b9f3e1a2","ios":"levelo://app?vid=ffbb0c22-3f4e-4cdb-a0e5-79e3b9f3e1a2"},"vehicle_type_id":"4","last_reported":1750410681,"current_range_meters":18000,"station_id":"","pricing_plan_id":"cebpf4jnsgd1na2vs0mg"},{"bike_id":"a7316e64-8fad-44fa-a5fd-4bad8bc6b8ec","system_id":"levelo_inurba_marseille","lat":43.29847,"lon":5.36269,"is_reserved":false,"is_disabled":false,"rental_uris":{"android":"levelo://app?vid=a7316e64-8fad-44fa-a5fd-4bad8bc6b8ec","ios":"levelo://app?vid=a7316e64-8fad-44fa-a5fd-4bad8bc6b8ec"},"vehicle_type_id":"4","last_reported":1750410681,"current_range_meters":18000,"station_id":"ce4bgpp2rcd13ifvqc3g","pricing_plan_id":"cebpf4jnsgd1na2vs0mg"},{"bike_id":"9341c0d1-9c0f-4ecc-b4f3-60d7483c0653","system_id":"levelo_inurba_marseille","lat":43.30132,"lon":5.37406,"is_reserved":false,"is_disabled":false,"rental_uris":{"android":"levelo://app?vid=9341c0d1-9c0f-4ecc-b4f3-60d7483c0653","ios":"levelo://app?vid=9341c0d1-9c0f-4ecc-b4f3-60d7483c0653"},"vehicle_type_id":"4","last_reported":1750410681,"current_range_meters":18000,"station_id":"ce4bgs92rcd13ifvqcc0","pricing_plan_id":"cebpf4jnsgd1na2vs0mg"},{"bike_id":"ba4ff421-8588-4661-837a-33ee99867f82","system_id":"levelo_inurba_marseille","lat":43.28464,"lon":5.38436,"is_reserved":false,"is_disabled":false,"rental_uris":{"android":"levelo://app?vid=ba4ff421-8588-4661-837a-33ee99867f82","ios":"levelo://app?vid=ba4ff421-8588-4661-837a-33ee99867f82"},"vehicle_type_id":"4","last_reported":1750410681,"current_range_meters":18000,"station_id":"ce4bh512rcd13ifvqe3g","pricing_plan_id":"cebpf4jnsgd1na2vs0mg"},{"bike_id":"ae515955-b75b-4710-a6b3-42ad3d854722","system_id":"levelo_inurba_marseille","lat":43.28266,"lon":5.3507,"is_reserved":false,"is_disabled":false,"rental_uris":{"android":"levelo://app?vid=ae515955-b75b-4710-a6b3-42ad3d854722","ios":"levelo://app?vid=ae515955-b75b-4710-a6b3-42ad3d854722"},"vehicle_type_id":"4","last_reported":1750410681,"current_range_meters":18000,"station_id":"ce4bhbp2rcd13ifvqerg","pricing_plan_id":"cebpf4jnsgd1na2vs0mg"},{"bike_id":"989d3eb7-25c7-49c7-b6f8-ed4bc3e9ba46","system_id":"levelo_inurba_marseille","lat":43.279794,"lon":5.387529,"is_reserved":false,"is_disabled":false,"rental_uris":{"android":"levelo://app?vid=989d3eb7-25c7-49c7-b6f8-ed4bc3e9ba46","ios":"levelo://app?vid=989d3eb7-25c7-49c7-b6f8-ed4bc3e9ba46"},"vehicle_type_id":"4","last_reported":1750410681,"current_range_meters":18000,"station_id":"ce4bhg12rcd13ifvqf80","pricing_plan_id":"cebpf4jnsgd1na2vs0mg"},{"bike_id":"82b46f4a-45a2-4bf8-8545-92a56f2376c5","system_id":"levelo_inurba_marseille","lat":43.25706,"lon":5.41067,"is_reserved":false,"is_disabled":false,"rental_uris":{"android":"levelo://app?vid=82b46f4a-45a2-4bf8-8545-92a56f2376c5","ios":"levelo://app?vid=82b46f4a-45a2-4bf8-8545-92a56f2376c5"},"vehicle_type_id":"4","last_reported":1750410681,"current_range_meters":18000,"station_id":"ce4bhkp2rcd13ifvqgd0","pricing_plan_id":"cebpf4jnsgd1na2vs0mg"},{"bike_id":"a9f7e5b6-c3b9-477a-9dd1-4ff223f734c0","system_id":"levelo_inurba_marseille","lat":43.29897,"lon":5.43671,"is_reserved":false,"is_disabled":false,"rental_uris":{"android":"levelo://app?vid=a9f7e5b6-c3b9-477a-9dd1-4ff223f734c0","ios":"levelo://app?vid=a9f7e5b6-c3b9-477a-9dd1-4ff223f734c0"},"vehicle_type_id":"4","last_reported":1750410681,"current_range_meters":18000,"station_id":"ce4bhpp2rcd13ifvqhfg","pricing_plan_id":"cebpf4jnsgd1na2vs0mg"},{"bike_id":"2dc37154-7eb8-4251-aa63-dde65a5c123c","system_id":"levelo_inurba_marseille","lat":43.292545,"lon":5.37616,"is_reserved":false,"is_disabled":false,"rental_uris":{"android":"levelo://app?vid=2dc37154-7eb8-4251-aa63-dde65a5c123c","ios":"levelo://app?vid=2dc37154-7eb8-4251-aa63-dde65a5c123c"},"vehicle_type_id":"4","last_reported":1750410681,"current_range_meters":18800,"station_id":"","pricing_plan_id":"cebpf4jnsgd1na2vs0mg"},{"bike_id":"867da92f-b769-4dc3-8a63-1f7da19b70ba","system_id":"levelo_inurba_marseille","lat":43.29572,"lon":5.3751,"is_reserved":false,"is_disabled":false,"rental_uris":{"android":"levelo://app?vid=867da92f-b769-4dc3-8a63-1f7da19b70ba","ios":"levelo://app?vid=867da92f-b769-4dc3-8a63-1f7da19b70ba"},"vehicle_type_id":"4","last_reported":1750410681,"current_range_meters":18800,"station_id":"ce4bgh92rcd13ifvqb50","pricing_plan_id":"cebpf4jnsgd1na2vs0mg"},{"bike_id":"691d6591-6445-422c-b500-254274730f13","system_id":"levelo_inurba_marseille","lat":43.3079,"lon":5.38158,"is_reserved":false,"is_disabled":false,"rental_uris":{"android":"levelo://app?vid=691d6591-6445-422c-b500-254274730f13","ios":"levelo://app?vid=691d6591-6445-422c-b500-254274730f13"},"vehicle_type_id":"4","last_reported":1750410681,"current_range_meters":18800,"station_id":"ce4bgt12rcd13ifvqce0","pricing_plan_id":"cebpf4jnsgd1na2vs0mg"},{"bike_id":"0a11771e-cc24-4d24-baf4-0abfe3e65cfe","system_id":"levelo_inurba_marseille","lat":43.28621,"lon":5.35101,"is_reserved":false,"is_disabled":false,"rental_uris":{"android":"levelo://app?vid=0a11771e-cc24-4d24-baf4-0abfe3e65cfe","ios":"levelo://app?vid=0a11771e-cc24-4d24-baf4-0abfe3e65cfe"},"vehicle_type_id":"4","last_reported":1750410681,"current_range_meters":18800,"station_id":"ce4bhch2rcd13ifvqeug","pricing_plan_id":"cebpf4jnsgd1na2vs0mg"},{"bike_id":"204afd8f-d13a-468d-a59c-e2db9671fff1","system_id":"levelo_inurba_marseille","lat":43.24416,"lon":5.3711,"is_reserved":false,"is_disabled":false,"rental_uris":{"android":"levelo://app?vid=204afd8f-d13a-468d-a59c-e2db9671fff1","ios":"levelo://app?vid=204afd8f-d13a-468d-a59c-e2db9671fff1"},"vehicle_type_id":"4","last_reported":1750410681,"current_range_meters":18800,"station_id":"ce4bhhh2rcd13ifvqfk0","pricing_plan_id":"cebpf4jnsgd1na2vs0mg"},{"bike_id":"5e7da986-7735-4448-97e0-f0b386395a7b","system_id":"levelo_inurba_marseille","lat":43.27204,"lon":5.39178,"is_reserved":false,"is_disabled":false,"rental_uris":{"android":"levelo://app?vid=5e7da986-7735-4448-97e0-f0b386395a7b","ios":"levelo://app?vid=5e7da986-7735-4448-97e0-f0b386395a7b"},"vehicle_type_id":"4","last_reported":1750410681,"current_range_meters":18800,"station_id":"ce4bhhp2rcd13ifvqfm0","pricing_plan_id":"cebpf4jnsgd1na2vs0mg"},{"bike_id":"a4ff1886-948f-489c-b8f8-527cff5591b8","system_id":"levelo_inurba_marseille","lat":43.29599,"lon":5.381,"is_reserved":false,"is_disabled":false,"rental_uris":{"android":"levelo://app?vid=a4ff1886-948f-489c-b8f8-527cff5591b8","ios":"levelo://app?vid=a4ff1886-948f-489c-b8f8-527cff5591b8"},"vehicle_type_id":"4","last_reported":1750410681,"current_range_meters":19200,"station_id":"","pricing_plan_id":"cebpf4jnsgd1na2vs0mg"},{"bike_id":"90c109b5-5cee-495e-8f11-f318c0f086b6","system_id":"levelo_inurba_marseille","lat":43.32478,"lon":5.43503,"is_reserved":false,"is_disabled":false,"rental_uris":{"android":"levelo://app?vid=90c109b5-5cee-495e-8f11-f318c0f086b6","ios":"levelo://app?vid=90c109b5-5cee-495e-8f11-f318c0f086b6"},"vehicle_type_id":"4","last_reported":1750410681,"current_range_meters":19200,"station_id":"","pricing_plan_id":"cebpf4jnsgd1na2vs0mg"},{"bike_id":"a9cca4e7-c0c5-4e7e-bd71-3d26daad6e18","system_id":"levelo_inurba_marseille","lat":43.3014,"lon":5.37426,"is_reserved":false,"is_disabled":false,"rental_uris":{"android":"levelo://app?vid=a9cca4e7-c0c5-4e7e-bd71-3d26daad6e18","ios":"levelo://app?vid=a9cca4e7-c0c5-4e7e-bd71-3d26daad6e18"},"vehicle_type_id":"4","last_reported":1750410681,"current_range_meters":19200,"station_id":"ce4bgs92rcd13ifvqcc0","pricing_plan_id":"cebpf4jnsgd1na2vs0mg"},{"bike_id":"df45026e-fb92-4939-a854-6b04a769a040","system_id":"levelo_inurba_marseille","lat":43.31484,"lon":5.37305,"is_reserved":false,"is_disabled":false,"rental_uris":{"android":"levelo://app?vid=df45026e-fb92-4939-a854-6b04a769a040","ios":"levelo://app?vid=df45026e-fb92-4939-a854-6b04a769a040"},"vehicle_type_id":"4","last_reported":1750410681,"current_range_meters":19200,"station_id":"ce4bgt12rcd13ifvqcd0","pricing_plan_id":"cebpf4jnsgd1na2vs0mg"},{"bike_id":"86dd210b-2c3e-4b31-9e7c-c59a7fefee38","system_id":"levelo_inurba_marseille","lat":43.28263,"lon":5.35063,"is_reserved":false,"is_disabled":false,"rental_uris":{"android":"levelo://app?vid=86dd210b-2c3e-4b31-9e7c-c59a7fefee38","ios":"levelo://app?vid=86dd210b-2c3e-4b31-9e7c-c59a7fefee38"},"vehicle_type_id":"4","last_reported":1750410681,"current_range_meters":19200,"station_id":"ce4bhbp2rcd13ifvqerg","pricing_plan_id":"cebpf4jnsgd1na2vs0mg"},{"bike_id":"21e8a1fe-5d14-4d1c-9afb-9cdfcbeb0d92","system_id":"levelo_inurba_marseille","lat":43.25927,"lon":5.40914,"is_reserved":false,"is_disabled":false,"rental_uris":{"android":"levelo://app?vid=21e8a1fe-5d14-4d1c-9afb-9cdfcbeb0d92","ios":"levelo://app?vid=21e8a1fe-5d14-4d1c-9afb-9cdfcbeb0d92"},"vehicle_type_id":"4","last_reported":1750410681,"current_range_meters":19200,"station_id":"ce4bhm92rcd13ifvqglg","pricing_plan_id":"cebpf4jnsgd1na2vs0mg"},{"bike_id":"73a224ff-f6a3-4c18-9279-d392a3f86d72","system_id":"levelo_inurba_marseille","lat":43.21749,"lon":5.34596,"is_reserved":false,"is_disabled":false,"rental_uris":{"android":"levelo://app?vid=73a224ff-f6a3-4c18-9279-d392a3f86d72","ios":"levelo://app?vid=73a224ff-f6a3-4c18-9279-d392a3f86d72"},"vehicle_type_id":"4","last_reported":1750410681,"current_range_meters":19600,"station_id":"","pricing_plan_id":"cebpf4jnsgd1na2vs0mg"},{"bike_id":"f92f6716-e6ed-4728-96df-9008d37cf0c0","system_id":"levelo_inurba_marseille","lat":43.30956,"lon":5.39035,"is_reserved":false,"is_disabled":false,"rental_uris":{"android":"levelo://app?vid=f92f6716-e6ed-4728-96df-9008d37cf0c0","ios":"levelo://app?vid=f92f6716-e6ed-4728-96df-9008d37cf0c0"},"vehicle_type_id":"4","last_reported":1750410681,"current_range_meters":19600,"station_id":"ce4bgup2rcd13ifvqco0","pricing_plan_id":"cebpf4jnsgd1na2vs0mg"},{"bike_id":"0f952286-0113-4562-bc72-d44c8952b1fc","system_id":"levelo_inurba_marseille","lat":43.29227,"lon":5.36067,"is_reserved":false,"is_disabled":false,"rental_uris":{"android":"levelo://app?vid=0f952286-0113-4562-bc72-d44c8952b1fc","ios":"levelo://app?vid=0f952286-0113-4562-bc72-d44c8952b1fc"},"vehicle_type_id":"4","last_reported":1750410681,"current_range_meters":19600,"station_id":"ce4bhbh2rcd13ifvqeqg","pricing_plan_id":"cebpf4jnsgd1na2vs0mg"},{"bike_id":"99246a1d-60c0-4938-af7e-1dafc1fac8d8","system_id":"levelo_inurba_marseille","lat":43.28443,"lon":5.39206,"is_reserved":false,"is_disabled":false,"rental_uris":{"android":"levelo://app?vid=99246a1d-60c0-4938-af7e-1dafc1fac8d8","ios":"levelo://app?vid=99246a1d-60c0-4938-af7e-1dafc1fac8d8"},"vehicle_type_id":"4","last_reported":1750410681,"current_range_meters":19600,"station_id":"ce4bhoh2rcd13ifvqh5g","pricing_plan_id":"cebpf4jnsgd1na2vs0mg"},{"bike_id":"f40b14e2-3a68-45fd-9433-444c784b4081","system_id":"levelo_inurba_marseille","lat":43.22193,"lon":5.34551,"is_reserved":false,"is_disabled":false,"rental_uris":{"android":"levelo://app?vid=f40b14e2-3a68-45fd-9433-444c784b4081","ios":"levelo://app?vid=f40b14e2-3a68-45fd-9433-444c784b4081"},"vehicle_type_id":"4","last_reported":1750410681,"current_range_meters":20000,"station_id":"","pricing_plan_id":"cebpf4jnsgd1na2vs0mg"},{"bike_id":"063e9941-d5f6-480d-a2cf-92698b2a4bd1","system_id":"levelo_inurba_marseille","lat":43.314849,"lon":5.372904,"is_reserved":false,"is_disabled":false,"rental_uris":{"android":"levelo://app?vid=063e9941-d5f6-480d-a2cf-92698b2a4bd1","ios":"levelo://app?vid=063e9941-d5f6-480d-a2cf-92698b2a4bd1"},"vehicle_type_id":"4","last_reported":1750410681,"current_range_meters":20000,"station_id":"ce4bgt12rcd13ifvqcd0","pricing_plan_id":"cebpf4jnsgd1na2vs0mg"},{"bike_id":"c073cb9e-d6a4-4278-a40e-1d7841b21132","system_id":"levelo_inurba_marseille","lat":43.30957,"lon":5.39029,"is_reserved":false,"is_disabled":false,"rental_uris":{"android":"levelo://app?vid=c073cb9e-d6a4-4278-a40e-1d7841b21132","ios":"levelo://app?vid=c073cb9e-d6a4-4278-a40e-1d7841b21132"},"vehicle_type_id":"4","last_reported":1750410681,"current_range_meters":20000,"station_id":"ce4bgup2rcd13ifvqco0","pricing_plan_id":"cebpf4jnsgd1na2vs0mg"},{"bike_id":"f335c78a-cfbc-41bd-8383-e799e017ec1e","system_id":"levelo_inurba_marseille","lat":43.28252,"lon":5.35054,"is_reserved":false,"is_disabled":false,"rental_uris":{"android":"levelo://app?vid=f335c78a-cfbc-41bd-8383-e799e017ec1e","ios":"levelo://app?vid=f335c78a-cfbc-41bd-8383-e799e017ec1e"},"vehicle_type_id":"4","last_reported":1750410681,"current_range_meters":20000,"station_id":"ce4bhbp2rcd13ifvqerg","pricing_plan_id":"cebpf4jnsgd1na2vs0mg"},{"bike_id":"9bf1fc7e-3121-48cb-a745-c0206fdc1504","system_id":"levelo_inurba_marseille","lat":43.28718,"lon":5.36086,"is_reserved":false,"is_disabled":false,"rental_uris":{"android":"levelo://app?vid=9bf1fc7e-3121-48cb-a745-c0206fdc1504","ios":"levelo://app?vid=9bf1fc7e-3121-48cb-a745-c0206fdc1504"},"vehicle_type_id":"4","last_reported":1750410681,"current_range_meters":20000,"station_id":"cki0cbj6b192h4jlfktg","pricing_plan_id":"cebpf4jnsgd1na2vs0mg"},{"bike_id":"5187990f-0e38-4183-960c-3c6c679fb2e8","system_id":"levelo_inurba_marseille","lat":43.21181,"lon":5.35067,"is_reserved":false,"is_disabled":false,"rental_uris":{"android":"levelo://app?vid=5187990f-0e38-4183-960c-3c6c679fb2e8","ios":"levelo://app?vid=5187990f-0e38-4183-960c-3c6c679fb2e8"},"vehicle_type_id":"4","last_reported":1750410681,"current_range_meters":20000,"station_id":"st_cvj6sg6p6f1abm77japg","pricing_plan_id":"cebpf4jnsgd1na2vs0mg"},{"bike_id":"f42f225d-24b0-428e-a436-77340c7dfcec","system_id":"levelo_inurba_marseille","lat":43.28445,"lon":5.34968,"is_reserved":false,"is_disabled":false,"rental_uris":{"android":"levelo://app?vid=f42f225d-24b0-428e-a436-77340c7dfcec","ios":"levelo://app?vid=f42f225d-24b0-428e-a436-77340c7dfcec"},"vehicle_type_id":"4","last_reported":1750410681,"current_range_meters":20400,"station_id":"","pricing_plan_id":"cebpf4jnsgd1na2vs0mg"},{"bike_id":"2d50ff45-3046-40df-b784-ee274c648ea0","system_id":"levelo_inurba_marseille","lat":43.3203,"lon":5.40817,"is_reserved":false,"is_disabled":false,"rental_uris":{"android":"levelo://app?vid=2d50ff45-3046-40df-b784-ee274c648ea0","ios":"levelo://app?vid=2d50ff45-3046-40df-b784-ee274c648ea0"},"vehicle_type_id":"4","last_reported":1750410681,"current_range_meters":20400,"station_id":"","pricing_plan_id":"cebpf4jnsgd1na2vs0mg"},{"bike_id":"d4e60d77-1789-4b0f-8390-c7802b53f5a9","system_id":"levelo_inurba_marseille","lat":43.2908,"lon":5.3817,"is_reserved":false,"is_disabled":false,"rental_uris":{"android":"levelo://app?vid=d4e60d77-1789-4b0f-8390-c7802b53f5a9","ios":"levelo://app?vid=d4e60d77-1789-4b0f-8390-c7802b53f5a9"},"vehicle_type_id":"4","last_reported":1750410681,"current_range_meters":20400,"station_id":"ce4bh512rcd13ifvqe2g","pricing_plan_id":"cebpf4jnsgd1na2vs0mg"},{"bike_id":"7058fd45-6691-4321-818f-f715215a5862","system_id":"levelo_inurba_marseille","lat":43.291695,"lon":5.382671,"is_reserved":false,"is_disabled":false,"rental_uris":{"android":"levelo://app?vid=7058fd45-6691-4321-818f-f715215a5862","ios":"levelo://app?vid=7058fd45-6691-4321-818f-f715215a5862"},"vehicle_type_id":"4","last_reported":1750410681,"current_range_meters":20400,"station_id":"ce4bh512rcd13ifvqe2g","pricing_plan_id":"cebpf4jnsgd1na2vs0mg"},{"bike_id":"870c0e41-4f8f-4255-8033-a12fb7a131b1","system_id":"levelo_inurba_marseille","lat":43.289316,"lon":5.366398,"is_reserved":false,"is_disabled":false,"rental_uris":{"android":"levelo://app?vid=870c0e41-4f8f-4255-8033-a12fb7a131b1","ios":"levelo://app?vid=870c0e41-4f8f-4255-8033-a12fb7a131b1"},"vehicle_type_id":"4","last_reported":1750410681,"current_range_meters":20400,"station_id":"ce4bhap2rcd13ifvqek0","pricing_plan_id":"cebpf4jnsgd1na2vs0mg"},{"bike_id":"365cd56e-612f-4c3b-9ece-dc1f686412a7","system_id":"levelo_inurba_marseille","lat":43.28614,"lon":5.35108,"is_reserved":false,"is_disabled":false,"rental_uris":{"android":"levelo://app?vid=365cd56e-612f-4c3b-9ece-dc1f686412a7","ios":"levelo://app?vid=365cd56e-612f-4c3b-9ece-dc1f686412a7"},"vehicle_type_id":"4","last_reported":1750410681,"current_range_meters":20400,"station_id":"ce4bhch2rcd13ifvqeug","pricing_plan_id":"cebpf4jnsgd1na2vs0mg"},{"bike_id":"b49615b9-6f5d-44aa-8e55-5151c47496e6","system_id":"levelo_inurba_marseille","lat":43.25717,"lon":5.41116,"is_reserved":false,"is_disabled":false,"rental_uris":{"android":"levelo://app?vid=b49615b9-6f5d-44aa-8e55-5151c47496e6","ios":"levelo://app?vid=b49615b9-6f5d-44aa-8e55-5151c47496e6"},"vehicle_type_id":"4","last_reported":1750410681,"current_range_meters":20400,"station_id":"ce4bhkp2rcd13ifvqgd0","pricing_plan_id":"cebpf4jnsgd1na2vs0mg"},{"bike_id":"973db25f-144a-495b-98c4-15b4ae2dacd8","system_id":"levelo_inurba_marseille","lat":43.31328,"lon":5.37512,"is_reserved":false,"is_disabled":false,"rental_uris":{"android":"levelo://app?vid=973db25f-144a-495b-98c4-15b4ae2dacd8","ios":"levelo://app?vid=973db25f-144a-495b-98c4-15b4ae2dacd8"},"vehicle_type_id":"4","last_reported":1750410681,"current_range_meters":20800,"station_id":"","pricing_plan_id":"cebpf4jnsgd1na2vs0mg"},{"bike_id":"f31d2cbd-7c3a-4291-bade-fdc51ee42d70","system_id":"levelo_inurba_marseille","lat":43.31222,"lon":5.36861,"is_reserved":false,"is_disabled":false,"rental_uris":{"android":"levelo://app?vid=f31d2cbd-7c3a-4291-bade-fdc51ee42d70","ios":"levelo://app?vid=f31d2cbd-7c3a-4291-bade-fdc51ee42d70"},"vehicle_type_id":"4","last_reported":1750410681,"current_range_meters":20800,"station_id":"ce4bgl92rcd13ifvqbq0","pricing_plan_id":"cebpf4jnsgd1na2vs0mg"},{"bike_id":"f3a5f9ad-bbe7-4c73-94e1-fa2eaf681962","system_id":"levelo_inurba_marseille","lat":43.28408,"lon":5.34981,"is_reserved":false,"is_disabled":false,"rental_uris":{"android":"levelo://app?vid=f3a5f9ad-bbe7-4c73-94e1-fa2eaf681962","ios":"levelo://app?vid=f3a5f9ad-bbe7-4c73-94e1-fa2eaf681962"},"vehicle_type_id":"4","last_reported":1750410681,"current_range_meters":20800,"station_id":"ce4bhbh2rcd13ifvqepg","pricing_plan_id":"cebpf4jnsgd1na2vs0mg"},{"bike_id":"a9262345-195f-48e6-98ef-2cfccbcf3aaf","system_id":"levelo_inurba_marseille","lat":43.21756,"lon":5.34598,"is_reserved":false,"is_disabled":false,"rental_uris":{"android":"levelo://app?vid=a9262345-195f-48e6-98ef-2cfccbcf3aaf","ios":"levelo://app?vid=a9262345-195f-48e6-98ef-2cfccbcf3aaf"},"vehicle_type_id":"4","last_reported":1750410681,"current_range_meters":21600,"station_id":"","pricing_plan_id":"cebpf4jnsgd1na2vs0mg"},{"bike_id":"f20d9be8-f65a-4615-a334-097d875818ce","system_id":"levelo_inurba_marseille","lat":43.28901,"lon":5.37285,"is_reserved":false,"is_disabled":false,"rental_uris":{"android":"levelo://app?vid=f20d9be8-f65a-4615-a334-097d875818ce","ios":"levelo://app?vid=f20d9be8-f65a-4615-a334-097d875818ce"},"vehicle_type_id":"4","last_reported":1750410681,"current_range_meters":21600,"station_id":"","pricing_plan_id":"cebpf4jnsgd1na2vs0mg"},{"bike_id":"d2f583e3-59e3-4b1f-8efa-4c8323e4f32e","system_id":"levelo_inurba_marseille","lat":43.26504,"lon":5.36873,"is_reserved":false,"is_disabled":false,"rental_uris":{"android":"levelo://app?vid=d2f583e3-59e3-4b1f-8efa-4c8323e4f32e","ios":"levelo://app?vid=d2f583e3-59e3-4b1f-8efa-4c8323e4f32e"},"vehicle_type_id":"4","last_reported":1750410681,"current_range_meters":21600,"station_id":"ce4bhbp2rcd13ifvqerg","pricing_plan_id":"cebpf4jnsgd1na2vs0mg"},{"bike_id":"f89a8388-90d8-45c4-be44-5946034e1413","system_id":"levelo_inurba_marseille","lat":43.28274,"lon":5.35056,"is_reserved":false,"is_disabled":false,"rental_uris":{"android":"levelo://app?vid=f89a8388-90d8-45c4-be44-5946034e1413","ios":"levelo://app?vid=f89a8388-90d8-45c4-be44-5946034e1413"},"vehicle_type_id":"4","last_reported":1750410681,"current_range_meters":21600,"station_id":"ce4bhbp2rcd13ifvqerg","pricing_plan_id":"cebpf4jnsgd1na2vs0mg"},{"bike_id":"793c1267-5eb9-4121-b105-06af63580dee","system_id":"levelo_inurba_marseille","lat":43.25105,"lon":5.40319,"is_reserved":false,"is_disabled":false,"rental_uris":{"android":"levelo://app?vid=793c1267-5eb9-4121-b105-06af63580dee","ios":"levelo://app?vid=793c1267-5eb9-4121-b105-06af63580dee"},"vehicle_type_id":"4","last_reported":1750410681,"current_range_meters":21600,"station_id":"ce4bhlh2rcd13ifvqgig","pricing_plan_id":"cebpf4jnsgd1na2vs0mg"},{"bike_id":"2ebb486d-da0f-4ded-9558-964d959bffed","system_id":"levelo_inurba_marseille","lat":43.31709,"lon":5.43704,"is_reserved":false,"is_disabled":false,"rental_uris":{"android":"levelo://app?vid=2ebb486d-da0f-4ded-9558-964d959bffed","ios":"levelo://app?vid=2ebb486d-da0f-4ded-9558-964d959bffed"},"vehicle_type_id":"4","last_reported":1750410681,"current_range_meters":21600,"station_id":"ce4bhp92rcd13ifvqhcg","pricing_plan_id":"cebpf4jnsgd1na2vs0mg"},{"bike_id":"1c4a3c9d-5ced-4357-a51d-2da84d1dad25","system_id":"levelo_inurba_marseille","lat":43.337444,"lon":5.374475,"is_reserved":false,"is_disabled":false,"rental_uris":{"android":"levelo://app?vid=1c4a3c9d-5ced-4357-a51d-2da84d1dad25","ios":"levelo://app?vid=1c4a3c9d-5ced-4357-a51d-2da84d1dad25"},"vehicle_type_id":"4","last_reported":1750410681,"current_range_meters":22000,"station_id":"","pricing_plan_id":"cebpf4jnsgd1na2vs0mg"},{"bike_id":"413d7471-c69c-4e23-b9e0-7dd10f962fe4","system_id":"levelo_inurba_marseille","lat":43.296877,"lon":5.377017,"is_reserved":false,"is_disabled":false,"rental_uris":{"android":"levelo://app?vid=413d7471-c69c-4e23-b9e0-7dd10f962fe4","ios":"levelo://app?vid=413d7471-c69c-4e23-b9e0-7dd10f962fe4"},"vehicle_type_id":"4","last_reported":1750410681,"current_range_meters":22000,"station_id":"ce4bgkh2rcd13ifvqbl0","pricing_plan_id":"cebpf4jnsgd1na2vs0mg"},{"bike_id":"0d4caf9d-5c97-4d0d-8d85-1425bf3ca0d5","system_id":"levelo_inurba_marseille","lat":43.29715,"lon":5.36596,"is_reserved":false,"is_disabled":false,"rental_uris":{"android":"levelo://app?vid=0d4caf9d-5c97-4d0d-8d85-1425bf3ca0d5","ios":"levelo://app?vid=0d4caf9d-5c97-4d0d-8d85-1425bf3ca0d5"},"vehicle_type_id":"4","last_reported":1750410681,"current_range_meters":22000,"station_id":"ce4bgn12rcd13ifvqbt0","pricing_plan_id":"cebpf4jnsgd1na2vs0mg"},{"bike_id":"eb9dee83-90a6-464d-8f01-714dcddc281d","system_id":"levelo_inurba_marseille","lat":43.3061,"lon":5.37219,"is_reserved":false,"is_disabled":false,"rental_uris":{"android":"levelo://app?vid=eb9dee83-90a6-464d-8f01-714dcddc281d","ios":"levelo://app?vid=eb9dee83-90a6-464d-8f01-714dcddc281d"},"vehicle_type_id":"4","last_reported":1750410681,"current_range_meters":22000,"station_id":"ce4bgqh2rcd13ifvqc4g","pricing_plan_id":"cebpf4jnsgd1na2vs0mg"},{"bike_id":"b86a6df0-bb1c-4660-afde-61ebfc19ccd8","system_id":"levelo_inurba_marseille","lat":43.30925,"lon":5.40143,"is_reserved":false,"is_disabled":false,"rental_uris":{"android":"levelo://app?vid=b86a6df0-bb1c-4660-afde-61ebfc19ccd8","ios":"levelo://app?vid=b86a6df0-bb1c-4660-afde-61ebfc19ccd8"},"vehicle_type_id":"4","last_reported":1750410681,"current_range_meters":22000,"station_id":"ce4bgvp2rcd13ifvqct0","pricing_plan_id":"cebpf4jnsgd1na2vs0mg"},{"bike_id":"73afa621-e2a5-44d6-a78f-f470499fc2e7","system_id":"levelo_inurba_marseille","lat":43.28272,"lon":5.35064,"is_reserved":false,"is_disabled":false,"rental_uris":{"android":"levelo://app?vid=73afa621-e2a5-44d6-a78f-f470499fc2e7","ios":"levelo://app?vid=73afa621-e2a5-44d6-a78f-f470499fc2e7"},"vehicle_type_id":"4","last_reported":1750410681,"current_range_meters":22000,"station_id":"ce4bhbp2rcd13ifvqerg","pricing_plan_id":"cebpf4jnsgd1na2vs0mg"},{"bike_id":"14b2da61-f679-436a-b02d-a23016e953c4","system_id":"levelo_inurba_marseille","lat":43.266728,"lon":5.395152,"is_reserved":false,"is_disabled":false,"rental_uris":{"android":"levelo://app?vid=14b2da61-f679-436a-b02d-a23016e953c4","ios":"levelo://app?vid=14b2da61-f679-436a-b02d-a23016e953c4"},"vehicle_type_id":"4","last_reported":1750410681,"current_range_meters":22000,"station_id":"ce4bhh12rcd13ifvqfg0","pricing_plan_id":"cebpf4jnsgd1na2vs0mg"},{"bike_id":"29e0513e-ded7-461a-93c0-868b5da9f810","system_id":"levelo_inurba_marseille","lat":43.27204,"lon":5.39183,"is_reserved":false,"is_disabled":false,"rental_uris":{"android":"levelo://app?vid=29e0513e-ded7-461a-93c0-868b5da9f810","ios":"levelo://app?vid=29e0513e-ded7-461a-93c0-868b5da9f810"},"vehicle_type_id":"4","last_reported":1750410681,"current_range_meters":22000,"station_id":"ce4bhhp2rcd13ifvqfm0","pricing_plan_id":"cebpf4jnsgd1na2vs0mg"},{"bike_id":"c4248fcf-96bf-401e-9f97-134ffd486ffb","system_id":"levelo_inurba_marseille","lat":43.23956,"lon":5.3664,"is_reserved":false,"is_disabled":false,"rental_uris":{"android":"levelo://app?vid=c4248fcf-96bf-401e-9f97-134ffd486ffb","ios":"levelo://app?vid=c4248fcf-96bf-401e-9f97-134ffd486ffb"},"vehicle_type_id":"4","last_reported":1750410681,"current_range_meters":22000,"station_id":"ce4bhi12rcd13ifvqfp0","pricing_plan_id":"cebpf4jnsgd1na2vs0mg"},{"bike_id":"ac98ec2e-97ea-4101-8957-eabd7cfa3abc","system_id":"levelo_inurba_marseille","lat":43.24181,"lon":5.39722,"is_reserved":false,"is_disabled":false,"rental_uris":{"android":"levelo://app?vid=ac98ec2e-97ea-4101-8957-eabd7cfa3abc","ios":"levelo://app?vid=ac98ec2e-97ea-4101-8957-eabd7cfa3abc"},"vehicle_type_id":"4","last_reported":1750410681,"current_range_meters":22000,"station_id":"ce4bhn12rcd13ifvqgpg","pricing_plan_id":"cebpf4jnsgd1na2vs0mg"},{"bike_id":"7859db16-e7a7-41fa-82dc-5dd81d12afd0","system_id":"levelo_inurba_marseille","lat":43.33595,"lon":5.40973,"is_reserved":false,"is_disabled":false,"rental_uris":{"android":"levelo://app?vid=7859db16-e7a7-41fa-82dc-5dd81d12afd0","ios":"levelo://app?vid=7859db16-e7a7-41fa-82dc-5dd81d12afd0"},"vehicle_type_id":"4","last_reported":1750410681,"current_range_meters":22000,"station_id":"ce4bhqh2rcd13ifvqhmg","pricing_plan_id":"cebpf4jnsgd1na2vs0mg"},{"bike_id":"9f330ac5-5f1d-46ed-a6b0-51cde3054b1a","system_id":"levelo_inurba_marseille","lat":43.21184,"lon":5.35067,"is_reserved":false,"is_disabled":false,"rental_uris":{"android":"levelo://app?vid=9f330ac5-5f1d-46ed-a6b0-51cde3054b1a","ios":"levelo://app?vid=9f330ac5-5f1d-46ed-a6b0-51cde3054b1a"},"vehicle_type_id":"4","last_reported":1750410681,"current_range_meters":22000,"station_id":"st_cvj6sg6p6f1abm77japg","pricing_plan_id":"cebpf4jnsgd1na2vs0mg"},{"bike_id":"cf71ae0c-42bb-4f87-ad13-e68dfbf12c1a","system_id":"levelo_inurba_marseille","lat":43.28775,"lon":5.37818,"is_reserved":false,"is_disabled":false,"rental_uris":{"android":"levelo://app?vid=cf71ae0c-42bb-4f87-ad13-e68dfbf12c1a","ios":"levelo://app?vid=cf71ae0c-42bb-4f87-ad13-e68dfbf12c1a"},"vehicle_type_id":"4","last_reported":1750410681,"current_range_meters":22400,"station_id":"","pricing_plan_id":"cebpf4jnsgd1na2vs0mg"},{"bike_id":"bcfd2f42-7435-487e-9833-3418faffdd26","system_id":"levelo_inurba_marseille","lat":43.32046,"lon":5.4146,"is_reserved":false,"is_disabled":false,"rental_uris":{"android":"levelo://app?vid=bcfd2f42-7435-487e-9833-3418faffdd26","ios":"levelo://app?vid=bcfd2f42-7435-487e-9833-3418faffdd26"},"vehicle_type_id":"4","last_reported":1750410681,"current_range_meters":22400,"station_id":"","pricing_plan_id":"cebpf4jnsgd1na2vs0mg"},{"bike_id":"1a116009-03a4-4548-bc25-02c8ab6e38f2","system_id":"levelo_inurba_marseille","lat":43.305316,"lon":5.366974,"is_reserved":false,"is_disabled":false,"rental_uris":{"android":"levelo://app?vid=1a116009-03a4-4548-bc25-02c8ab6e38f2","ios":"levelo://app?vid=1a116009-03a4-4548-bc25-02c8ab6e38f2"},"vehicle_type_id":"4","last_reported":1750410681,"current_range_meters":22400,"station_id":"ce4bgrp2rcd13ifvqc9g","pricing_plan_id":"cebpf4jnsgd1na2vs0mg"},{"bike_id":"a6b0b430-0398-474d-a5dc-a7d5e967381b","system_id":"levelo_inurba_marseille","lat":43.31491,"lon":5.37297,"is_reserved":false,"is_disabled":false,"rental_uris":{"android":"levelo://app?vid=a6b0b430-0398-474d-a5dc-a7d5e967381b","ios":"levelo://app?vid=a6b0b430-0398-474d-a5dc-a7d5e967381b"},"vehicle_type_id":"4","last_reported":1750410681,"current_range_meters":22400,"station_id":"ce4bgt12rcd13ifvqcd0","pricing_plan_id":"cebpf4jnsgd1na2vs0mg"},{"bike_id":"ae3a3eae-01b8-498e-8f44-e9aedfc933a2","system_id":"levelo_inurba_marseille","lat":43.29001,"lon":5.35608,"is_reserved":false,"is_disabled":false,"rental_uris":{"android":"levelo://app?vid=ae3a3eae-01b8-498e-8f44-e9aedfc933a2","ios":"levelo://app?vid=ae3a3eae-01b8-498e-8f44-e9aedfc933a2"},"vehicle_type_id":"4","last_reported":1750410681,"current_range_meters":22400,"station_id":"ce4bhb92rcd13ifvqen0","pricing_plan_id":"cebpf4jnsgd1na2vs0mg"},{"bike_id":"b3cf25be-d11e-4d96-b9d7-01ff7a6f34d5","system_id":"levelo_inurba_marseille","lat":43.26797,"lon":5.40262,"is_reserved":false,"is_disabled":false,"rental_uris":{"android":"levelo://app?vid=b3cf25be-d11e-4d96-b9d7-01ff7a6f34d5","ios":"levelo://app?vid=b3cf25be-d11e-4d96-b9d7-01ff7a6f34d5"},"vehicle_type_id":"4","last_reported":1750410681,"current_range_meters":22400,"station_id":"ce501612rcd8frsf0b60","pricing_plan_id":"cebpf4jnsgd1na2vs0mg"},{"bike_id":"97b9fc6d-1f41-4128-8553-e5ce26e05d42","system_id":"levelo_inurba_marseille","lat":43.31424,"lon":5.373293,"is_reserved":false,"is_disabled":false,"rental_uris":{"android":"levelo://app?vid=97b9fc6d-1f41-4128-8553-e5ce26e05d42","ios":"levelo://app?vid=97b9fc6d-1f41-4128-8553-e5ce26e05d42"},"vehicle_type_id":"4","last_reported":1750410681,"current_range_meters":22800,"station_id":"","pricing_plan_id":"cebpf4jnsgd1na2vs0mg"},{"bike_id":"85c4b35a-5487-4018-b418-40941cfe14cf","system_id":"levelo_inurba_marseille","lat":43.29924,"lon":5.36543,"is_reserved":false,"is_disabled":false,"rental_uris":{"android":"levelo://app?vid=85c4b35a-5487-4018-b418-40941cfe14cf","ios":"levelo://app?vid=85c4b35a-5487-4018-b418-40941cfe14cf"},"vehicle_type_id":"4","last_reported":1750410681,"current_range_meters":22800,"station_id":"ce4bgm92rcd13ifvqbr0","pricing_plan_id":"cebpf4jnsgd1na2vs0mg"},{"bike_id":"d5f8dec4-8010-45e0-ba9f-ba80bf89c565","system_id":"levelo_inurba_marseille","lat":43.30528,"lon":5.36707,"is_reserved":false,"is_disabled":false,"rental_uris":{"android":"levelo://app?vid=d5f8dec4-8010-45e0-ba9f-ba80bf89c565","ios":"levelo://app?vid=d5f8dec4-8010-45e0-ba9f-ba80bf89c565"},"vehicle_type_id":"4","last_reported":1750410681,"current_range_meters":22800,"station_id":"ce4bgrp2rcd13ifvqc9g","pricing_plan_id":"cebpf4jnsgd1na2vs0mg"},{"bike_id":"65473825-b93a-4f93-a10e-e4e3898392d0","system_id":"levelo_inurba_marseille","lat":43.272,"lon":5.39183,"is_reserved":false,"is_disabled":false,"rental_uris":{"android":"levelo://app?vid=65473825-b93a-4f93-a10e-e4e3898392d0","ios":"levelo://app?vid=65473825-b93a-4f93-a10e-e4e3898392d0"},"vehicle_type_id":"4","last_reported":1750410681,"current_range_meters":22800,"station_id":"ce4bhhp2rcd13ifvqfm0","pricing_plan_id":"cebpf4jnsgd1na2vs0mg"},{"bike_id":"435a42d4-a0f5-445e-bb82-8751bda5fab6","system_id":"levelo_inurba_marseille","lat":43.231453,"lon":5.437207,"is_reserved":false,"is_disabled":false,"rental_uris":{"android":"levelo://app?vid=435a42d4-a0f5-445e-bb82-8751bda5fab6","ios":"levelo://app?vid=435a42d4-a0f5-445e-bb82-8751bda5fab6"},"vehicle_type_id":"4","last_reported":1750410681,"current_range_meters":22800,"station_id":"ce4bhmp2rcd13ifvqgog","pricing_plan_id":"cebpf4jnsgd1na2vs0mg"},{"bike_id":"eac72efe-e43e-41ba-90f9-759fa014f7c5","system_id":"levelo_inurba_marseille","lat":43.29891,"lon":5.43652,"is_reserved":false,"is_disabled":false,"rental_uris":{"android":"levelo://app?vid=eac72efe-e43e-41ba-90f9-759fa014f7c5","ios":"levelo://app?vid=eac72efe-e43e-41ba-90f9-759fa014f7c5"},"vehicle_type_id":"4","last_reported":1750410681,"current_range_meters":22800,"station_id":"ce4bhpp2rcd13ifvqhfg","pricing_plan_id":"cebpf4jnsgd1na2vs0mg"},{"bike_id":"5372f3b6-6ea3-4de9-8ebf-676c62eef8e2","system_id":"levelo_inurba_marseille","lat":43.21181,"lon":5.35065,"is_reserved":false,"is_disabled":false,"rental_uris":{"android":"levelo://app?vid=5372f3b6-6ea3-4de9-8ebf-676c62eef8e2","ios":"levelo://app?vid=5372f3b6-6ea3-4de9-8ebf-676c62eef8e2"},"vehicle_type_id":"4","last_reported":1750410681,"current_range_meters":22800,"station_id":"st_cvj6sg6p6f1abm77japg","pricing_plan_id":"cebpf4jnsgd1na2vs0mg"},{"bike_id":"293d8174-2296-4d5e-9c88-74298dc1592b","system_id":"levelo_inurba_marseille","lat":43.32933,"lon":5.40973,"is_reserved":false,"is_disabled":false,"rental_uris":{"android":"levelo://app?vid=293d8174-2296-4d5e-9c88-74298dc1592b","ios":"levelo://app?vid=293d8174-2296-4d5e-9c88-74298dc1592b"},"vehicle_type_id":"4","last_reported":1750410681,"current_range_meters":23200,"station_id":"","pricing_plan_id":"cebpf4jnsgd1na2vs0mg"},{"bike_id":"06465a48-f1b0-4327-8746-0f31e20d2a1f","system_id":"levelo_inurba_marseille","lat":43.31479,"lon":5.37273,"is_reserved":false,"is_disabled":false,"rental_uris":{"android":"levelo://app?vid=06465a48-f1b0-4327-8746-0f31e20d2a1f","ios":"levelo://app?vid=06465a48-f1b0-4327-8746-0f31e20d2a1f"},"vehicle_type_id":"4","last_reported":1750410681,"current_range_meters":23200,"station_id":"ce4bgt12rcd13ifvqcd0","pricing_plan_id":"cebpf4jnsgd1na2vs0mg"},{"bike_id":"9f83bdd0-e6f1-4822-b643-b3e3f2c75ee0","system_id":"levelo_inurba_marseille","lat":43.304695,"lon":5.379017,"is_reserved":false,"is_disabled":false,"rental_uris":{"android":"levelo://app?vid=9f83bdd0-e6f1-4822-b643-b3e3f2c75ee0","ios":"levelo://app?vid=9f83bdd0-e6f1-4822-b643-b3e3f2c75ee0"},"vehicle_type_id":"4","last_reported":1750410681,"current_range_meters":23200,"station_id":"ce4bgup2rcd13ifvqcn0","pricing_plan_id":"cebpf4jnsgd1na2vs0mg"},{"bike_id":"7e47d578-981b-48ba-92bc-954827e0e516","system_id":"levelo_inurba_marseille","lat":43.28108,"lon":5.37859,"is_reserved":false,"is_disabled":false,"rental_uris":{"android":"levelo://app?vid=7e47d578-981b-48ba-92bc-954827e0e516","ios":"levelo://app?vid=7e47d578-981b-48ba-92bc-954827e0e516"},"vehicle_type_id":"4","last_reported":1750410681,"current_range_meters":23200,"station_id":"ce4bha12rcd13ifvqee0","pricing_plan_id":"cebpf4jnsgd1na2vs0mg"},{"bike_id":"459ca98a-9b17-4bfd-b651-76466b0e7ac6","system_id":"levelo_inurba_marseille","lat":43.28275,"lon":5.35071,"is_reserved":false,"is_disabled":false,"rental_uris":{"android":"levelo://app?vid=459ca98a-9b17-4bfd-b651-76466b0e7ac6","ios":"levelo://app?vid=459ca98a-9b17-4bfd-b651-76466b0e7ac6"},"vehicle_type_id":"4","last_reported":1750410681,"current_range_meters":23200,"station_id":"ce4bhbp2rcd13ifvqerg","pricing_plan_id":"cebpf4jnsgd1na2vs0mg"},{"bike_id":"22fa53d0-b010-446b-82ee-464a521c69fd","system_id":"levelo_inurba_marseille","lat":43.29269,"lon":5.36838,"is_reserved":false,"is_disabled":false,"rental_uris":{"android":"levelo://app?vid=22fa53d0-b010-446b-82ee-464a521c69fd","ios":"levelo://app?vid=22fa53d0-b010-446b-82ee-464a521c69fd"},"vehicle_type_id":"4","last_reported":1750410681,"current_range_meters":23200,"station_id":"ce4bhbp2rcd13ifvqesg","pricing_plan_id":"cebpf4jnsgd1na2vs0mg"},{"bike_id":"94c66fa6-98e7-4f2f-a427-2612b0f0d80c","system_id":"levelo_inurba_marseille","lat":43.26929,"lon":5.38925,"is_reserved":false,"is_disabled":false,"rental_uris":{"android":"levelo://app?vid=94c66fa6-98e7-4f2f-a427-2612b0f0d80c","ios":"levelo://app?vid=94c66fa6-98e7-4f2f-a427-2612b0f0d80c"},"vehicle_type_id":"4","last_reported":1750410681,"current_range_meters":23200,"station_id":"ce4bhhh2rcd13ifvqfl0","pricing_plan_id":"cebpf4jnsgd1na2vs0mg"},{"bike_id":"39d5141f-481e-46f4-8d85-d2e173d9178f","system_id":"levelo_inurba_marseille","lat":43.27206,"lon":5.39192,"is_reserved":false,"is_disabled":false,"rental_uris":{"android":"levelo://app?vid=39d5141f-481e-46f4-8d85-d2e173d9178f","ios":"levelo://app?vid=39d5141f-481e-46f4-8d85-d2e173d9178f"},"vehicle_type_id":"4","last_reported":1750410681,"current_range_meters":23200,"station_id":"ce4bhhp2rcd13ifvqfm0","pricing_plan_id":"cebpf4jnsgd1na2vs0mg"},