{"last_updated":1727500091,"ttl":60,"version":"2.2","data":{"bikes":[{"bike_id":"88e686c5-18bf-4f6f-a54b-f6a6f7b7270a","system_id":"levelo_inurba_marseille","lat":43.29985,"lon":5.38259,"is_reserved":false,"is_disabled":false,"rental_uris":{"android":"levelo://app?vid=88e686c5-18bf-4f6f-a54b-f6a6f7b7270a","ios":"levelo://app?vid=88e686c5-18bf-4f6f-a54b-f6a6f7b7270a"},"vehicle_type_id":"4","last_reported":1727500091,"current_range_meters":17200,"station_id":"","pricing_plan_id":"cebpf4jnsgd1na2vs0mg"},{"bike_id":"f2602725-d633-43ab-bd38-fb1227eda7aa","system_id":"levelo_inurba_marseille","lat":43.29837,"lon":5.3626,"is_reserved":false,"is_disabled":false,"rental_uris":{"android":"levelo://app?vid=f2602725-d633-43ab-bd38-fb1227eda7aa","ios":"levelo://app?vid=f2602725-d633-43ab-bd38-fb1227eda7aa"},"vehicle_type_id":"4","last_reported":1727500091,"current_range_meters":38400,"station_id":"ce4bgpp2rcd13ifvqc3g","pricing_plan_id":"cebpf4jnsgd1na2vs0mg"},{"bike_id":"6dd65401-3259-455b-9d6d-245adfe3f67a","system_id":"levelo_inurba_marseille","lat":43.27915,"lon":5.39583,"is_reserved":false,"is_disabled":false,"rental_uris":{"android":"levelo://app?vid=6dd65401-3259-455b-9d6d-245adfe3f67a","ios":"levelo://app?vid=6dd65401-3259-455b-9d6d-245adfe3f67a"},"vehicle_type_id":"4","last_reported":1727500091,"current_range_meters":24400,"station_id":"ce4bhf92rcd13ifvqf40","pricing_plan_id":"cebpf4jnsgd1na2vs0mg"},{"bike_id":"e7081ef8-8a32-46a8-a293-c48ce527862e","system_id":"levelo_inurba_marseille","lat":43.34493,"lon":5.41626,"is_reserved":false,"is_disabled":false,"rental_uris":{"android":"levelo://app?vid=e7081ef8-8a32-46a8-a293-c48ce527862e","ios":"levelo://app?vid=e7081ef8-8a32-46a8-a293-c48ce527862e"},"vehicle_type_id":"4","last_reported":1727500091,"current_range_meters":6800,"station_id":"","pricing_plan_id":"cebpf4jnsgd1na2vs0mg"},{"bike_id":"fb5c5b18-3490-474b-9366-26167243c812","system_id":"levelo_inurba_marseille","lat":43.24672,"lon":5.38157,"is_reserved":false,"is_disabled":false,"rental_uris":{"android":"levelo://app?vid=fb5c5b18-3490-474b-9366-26167243c812","ios":"levelo://app?vid=fb5c5b18-3490-474b-9366-26167243c812"},"vehicle_type_id":"4","last_reported":1727500091,"current_range_meters":31200,"station_id":"ce4bhih2rcd13ifvqfr0","pricing_plan_id":"cebpf4jnsgd1na2vs0mg"},{"bike_id":"20d3e793-05ed-4bd0-979b-f6b46cc4aba9","system_id":"levelo_inurba_marseille","lat":43.28929,"lon":5.36381,"is_reserved":false,"is_disabled":false,"rental_uris":{"android":"levelo://app?vid=20d3e793-05ed-4bd0-979b-f6b46cc4aba9","ios":"levelo://app?vid=20d3e793-05ed-4bd0-979b-f6b46cc4aba9"},"vehicle_type_id":"4","last_reported":1727500091,"current_range_meters":38800,"station_id":"ce4bhc92rcd13ifvqetg","pricing_plan_id":"cebpf4jnsgd1na2vs0mg"},{"bike_id":"b1f53d51-c02e-4e0d-8ef1-020912a11ef3","system_id":"levelo_inurba_marseille","lat":43.30883,"lon":5.37163,"is_reserved":false,"is_disabled":false,"rental_uris":{"android":"levelo://app?vid=b1f53d51-c02e-4e0d-8ef1-020912a11ef3","ios":"levelo://app?vid=b1f53d51-c02e-4e0d-8ef1-020912a11ef3"},"vehicle_type_id":"4","last_reported":1727500091,"current_range_meters":14800,"station_id":"ce4bguh2rcd13ifvqckg","pricing_plan_id":"cebpf4jnsgd1na2vs0mg"},{"bike_id":"4468d68d-7566-40ca-a1a2-fcbd8ad88b26","system_id":"levelo_inurba_marseille","lat":43.2952,"lon":5.37505,"is_reserved":false,"is_disabled":false,"rental_uris":{"android":"levelo://app?vid=4468d68d-7566-40ca-a1a2-fcbd8ad88b26","ios":"levelo://app?vid=4468d68d-7566-40ca-a1a2-fcbd8ad88b26"},"vehicle_type_id":"4","last_reported":1727500091,"current_range_meters":6000,"station_id":"ce4bgkp2rcd13ifvqbmg","pricing_plan_id":"cebpf4jnsgd1na2vs0mg"},{"bike_id":"065bacd5-9929-4380-91c4-587ad3f90b3f","system_id":"levelo_inurba_marseille","lat":43.31275,"lon":5.40164,"is_reserved":false,"is_disabled":false,"rental_uris":{"android":"levelo://app?vid=065bacd5-9929-4380-91c4-587ad3f90b3f","ios":"levelo://app?vid=065bacd5-9929-4380-91c4-587ad3f90b3f"},"vehicle_type_id":"4","last_reported":1727500091,"current_range_meters":39200,"station_id":"ce4bh092rcd13ifvqd30","pricing_plan_id":"cebpf4jnsgd1na2vs0mg"},{"bike_id":"6642d7d8-2484-4537-aa6a-5def2bf5f855","system_id":"levelo_inurba_marseille","lat":43.29758,"lon":5.38086,"is_reserved":false,"is_disabled":false,"rental_uris":{"android":"levelo://app?vid=6642d7d8-2484-4537-aa6a-5def2bf5f855","ios":"levelo://app?vid=6642d7d8-2484-4537-aa6a-5def2bf5f855"},"vehicle_type_id":"4","last_reported":1727500091,"current_range_meters":36800,"station_id":"","pricing_plan_id":"cebpf4jnsgd1na2vs0mg"},{"bike_id":"c42bda2a-576f-4405-9ceb-4d1e065cf644","system_id":"levelo_inurba_marseille","lat":43.27951,"lon":5.41038,"is_reserved":false,"is_disabled":false,"rental_uris":{"android":"levelo://app?vid=c42bda2a-576f-4405-9ceb-4d1e065cf644","ios":"levelo://app?vid=c42bda2a-576f-4405-9ceb-4d1e065cf644"},"vehicle_type_id":"4","last_reported":1727500091,"current_range_meters":38400,"station_id":"ce4bhnp2rcd13ifvqh0g","pricing_plan_id":"cebpf4jnsgd1na2vs0mg"},{"bike_id":"b31d2a6f-f5b3-427c-91ed-ee55eb9ea647","system_id":"levelo_inurba_marseille","lat":43.28411,"lon":5.37526,"is_reserved":false,"is_disabled":false,"rental_uris":{"android":"levelo://app?vid=b31d2a6f-f5b3-427c-91ed-ee55eb9ea647","ios":"levelo://app?vid=b31d2a6f-f5b3-427c-91ed-ee55eb9ea647"},"vehicle_type_id":"4","last_reported":1727500091,"current_range_meters":34800,"station_id":"ce4bh412rcd13ifvqds0","pricing_plan_id":"cebpf4jnsgd1na2vs0mg"},{"bike_id":"f6f8cda9-f51d-4be8-a2ad-8943d0d2dc46","system_id":"levelo_inurba_marseille","lat":43.323649,"lon":5.388813,"is_reserved":false,"is_disabled":false,"rental_uris":{"android":"levelo://app?vid=f6f8cda9-f51d-4be8-a2ad-8943d0d2dc46","ios":"levelo://app?vid=f6f8cda9-f51d-4be8-a2ad-8943d0d2dc46"},"vehicle_type_id":"4","last_reported":1727500091,"current_range_meters":24000,"station_id":"ce4bhqp2rcd13ifvqhog","pricing_plan_id":"cebpf4jnsgd1na2vs0mg"},{"bike_id":"02c6d3d8-077a-4c1a-ae87-92ce1ff0942b","system_id":"levelo_inurba_marseille","lat":43.231887,"lon":5.399941,"is_reserved":false,"is_disabled":false,"rental_uris":{"android":"levelo://app?vid=02c6d3d8-077a-4c1a-ae87-92ce1ff0942b","ios":"levelo://app?vid=02c6d3d8-077a-4c1a-ae87-92ce1ff0942b"},"vehicle_type_id":"4","last_reported":1727500091,"current_range_meters":24400,"station_id":"ce4bhn12rcd13ifvqgqg","pricing_plan_id":"cebpf4jnsgd1na2vs0mg"},{"bike_id":"86ab9e15-2330-4229-871b-cd4aa2f273d2","system_id":"levelo_inurba_marseille","lat":43.32824,"lon":5.40495,"is_reserved":false,"is_disabled":false,"rental_uris":{"android":"levelo://app?vid=86ab9e15-2330-4229-871b-cd4aa2f273d2","ios":"levelo://app?vid=86ab9e15-2330-4229-871b-cd4aa2f273d2"},"vehicle_type_id":"4","last_reported":1727500091,"current_range_meters":4400,"station_id":"","pricing_plan_id":"cebpf4jnsgd1na2vs0mg"},{"bike_id":"f14f03c4-f321-4cbd-8e8c-4c264ee7b7bb","system_id":"levelo_inurba_marseille","lat":43.278998,"lon":5.38001,"is_reserved":false,"is_disabled":false,"rental_uris":{"android":"levelo://app?vid=f14f03c4-f321-4cbd-8e8c-4c264ee7b7bb","ios":"levelo://app?vid=f14f03c4-f321-4cbd-8e8c-4c264ee7b7bb"},"vehicle_type_id":"4","last_reported":1727500091,"current_range_meters":4800,"station_id":"ce4bhf92rcd13ifvqf50","pricing_plan_id":"cebpf4jnsgd1na2vs0mg"},{"bike_id":"45de4d0e-6260-457a-8c5b-8736e995e5cd","system_id":"levelo_inurba_marseille","lat":43.26028,"lon":5.37543,"is_reserved":false,"is_disabled":false,"rental_uris":{"android":"levelo://app?vid=45de4d0e-6260-457a-8c5b-8736e995e5cd","ios":"levelo://app?vid=45de4d0e-6260-457a-8c5b-8736e995e5cd"},"vehicle_type_id":"4","last_reported":1727500091,"current_range_meters":10800,"station_id":"ce4bhgh2rcd13ifvqfa0","pricing_plan_id":"cebpf4jnsgd1na2vs0mg"},{"bike_id":"b55a834f-087f-49c9-af64-f2342896c7a2","system_id":"levelo_inurba_marseille","lat":43.29277,"lon":5.3684,"is_reserved":false,"is_disabled":false,"rental_uris":{"android":"levelo://app?vid=b55a834f-087f-49c9-af64-f2342896c7a2","ios":"levelo://app?vid=b55a834f-087f-49c9-af64-f2342896c7a2"},"vehicle_type_id":"4","last_reported":1727500091,"current_range_meters":16000,"station_id":"ce4bhbp2rcd13ifvqesg","pricing_plan_id":"cebpf4jnsgd1na2vs0mg"},{"bike_id":"fd95b7d0-9465-4ced-a887-157866b5f796","system_id":"levelo_inurba_marseille","lat":43.280738,"lon":5.396533,"is_reserved":false,"is_disabled":false,"rental_uris":{"android":"levelo://app?vid=fd95b7d0-9465-4ced-a887-157866b5f796","ios":"levelo://app?vid=fd95b7d0-9465-4ced-a887-157866b5f796"},"vehicle_type_id":"4","last_reported":1727500091,"current_range_meters":39200,"station_id":"ce4bho12rcd13ifvqh2g","pricing_plan_id":"cebpf4jnsgd1na2vs0mg"},{"bike_id":"9b75a29d-f1a9-4fde-909a-755a96ab8371","system_id":"levelo_inurba_marseille","lat":43.28267,"lon":5.35074,"is_reserved":false,"is_disabled":false,"rental_uris":{"android":"levelo://app?vid=9b75a29d-f1a9-4fde-909a-755a96ab8371","ios":"levelo://app?vid=9b75a29d-f1a9-4fde-909a-755a96ab8371"},"vehicle_type_id":"4","last_reported":1727500091,"current_range_meters":38800,"station_id":"ce4bhbp2rcd13ifvqerg","pricing_plan_id":"cebpf4jnsgd1na2vs0mg"},{"bike_id":"a2b4b0ab-e9f6-447d-9d29-5bfbabc5e1d4","system_id":"levelo_inurba_marseille","lat":43.28363,"lon":5.38628,"is_reserved":false,"is_disabled":false,"rental_uris":{"android":"levelo://app?vid=a2b4b0ab-e9f6-447d-9d29-5bfbabc5e1d4","ios":"levelo://app?vid=a2b4b0ab-e9f6-447d-9d29-5bfbabc5e1d4"},"vehicle_type_id":"4","last_reported":1727500091,"current_range_meters":17200,"station_id":"ce4bh492rcd13ifvqdvg","pricing_plan_id":"cebpf4jnsgd1na2vs0mg"},{"bike_id":"8eab5d72-03b4-4fbc-854e-997a0926de18","system_id":"levelo_inurba_marseille","lat":43.32362,"lon":5.38881,"is_reserved":false,"is_disabled":false,"rental_uris":{"android":"levelo://app?vid=8eab5d72-03b4-4fbc-854e-997a0926de18","ios":"levelo://app?vid=8eab5d72-03b4-4fbc-854e-997a0926de18"},"vehicle_type_id":"4","last_reported":1727500091,"current_range_meters":6000,"station_id":"ce4bhqp2rcd13ifvqhog","pricing_plan_id":"cebpf4jnsgd1na2vs0mg"},{"bike_id":"83ab67e9-9683-40ac-9b80-c07390469159","system_id":"levelo_inurba_marseille","lat":43.22922,"lon":5.35374,"is_reserved":false,"is_disabled":false,"rental_uris":{"android":"levelo://app?vid=83ab67e9-9683-40ac-9b80-c07390469159","ios":"levelo://app?vid=83ab67e9-9683-40ac-9b80-c07390469159"},"vehicle_type_id":"4","last_reported":1727500091,"current_range_meters":38400,"station_id":"cpo3532slgdg3j2ikp40","pricing_plan_id":"cebpf4jnsgd1na2vs0mg"},{"bike_id":"d5102023-2177-42c2-ad10-f0c853c8591c","system_id":"levelo_inurba_marseille","lat":43.29632,"lon":5.40604,"is_reserved":false,"is_disabled":false,"rental_uris":{"android":"levelo://app?vid=d5102023-2177-42c2-ad10-f0c853c8591c","ios":"levelo://app?vid=d5102023-2177-42c2-ad10-f0c853c8591c"},"vehicle_type_id":"4","last_reported":1727500091,"current_range_meters":38000,"station_id":"ce4bh0h2rcd13ifvqd60","pricing_plan_id":"cebpf4jnsgd1na2vs0mg"},{"bike_id":"24775ec0-044b-4ab8-9152-3ed3d56d92c3","system_id":"levelo_inurba_marseille","lat":43.30442,"lon":5.38886,"is_reserved":false,"is_disabled":false,"rental_uris":{"android":"levelo://app?vid=24775ec0-044b-4ab8-9152-3ed3d56d92c3","ios":"levelo://app?vid=24775ec0-044b-4ab8-9152-3ed3d56d92c3"},"vehicle_type_id":"4","last_reported":1727500091,"current_range_meters":16400,"station_id":"ce4bgk12rcd13ifvqbi0","pricing_plan_id":"cebpf4jnsgd1na2vs0mg"},{"bike_id":"73d4b1b9-8fa7-45c3-b819-17c2aa182b44","system_id":"levelo_inurba_marseille","lat":43.29551,"lon":5.42287,"is_reserved":false,"is_disabled":false,"rental_uris":{"android":"levelo://app?vid=73d4b1b9-8fa7-45c3-b819-17c2aa182b44","ios":"levelo://app?vid=73d4b1b9-8fa7-45c3-b819-17c2aa182b44"},"vehicle_type_id":"4","last_reported":1727500091,"current_range_meters":11600,"station_id":"ce4bhph2rcd13ifvqhdg","pricing_plan_id":"cebpf4jnsgd1na2vs0mg"},{"bike_id":"368dccfc-648d-4295-a7ec-e830fb9cf69e","system_id":"levelo_inurba_marseille","lat":43.33021,"lon":5.39037,"is_reserved":false,"is_disabled":false,"rental_uris":{"android":"levelo://app?vid=368dccfc-648d-4295-a7ec-e830fb9cf69e","ios":"levelo://app?vid=368dccfc-648d-4295-a7ec-e830fb9cf69e"},"vehicle_type_id":"4","last_reported":1727500091,"current_range_meters":11600,"station_id":"ce4bhr92rcd13ifvqhrg","pricing_plan_id":"cebpf4jnsgd1na2vs0mg"},{"bike_id":"0fe6f31f-9666-463a-a971-e1087efa1620","system_id":"levelo_inurba_marseille","lat":43.308812,"lon":5.396356,"is_reserved":false,"is_disabled":false,"rental_uris":{"android":"levelo://app?vid=0fe6f31f-9666-463a-a971-e1087efa1620","ios":"levelo://app?vid=0fe6f31f-9666-463a-a971-e1087efa1620"},"vehicle_type_id":"4","last_reported":1727500091,"current_range_meters":20400,"station_id":"ce4bh012rcd13ifvqcv0","pricing_plan_id":"cebpf4jnsgd1na2vs0mg"},{"bike_id":"9f6b5ef6-02f7-4c16-9005-0978229a95e0","system_id":"levelo_inurba_marseille","lat":43.28458,"lon":5.35889,"is_reserved":false,"is_disabled":false,"rental_uris":{"android":"levelo://app?vid=9f6b5ef6-02f7-4c16-9005-0978229a95e0","ios":"levelo://app?vid=9f6b5ef6-02f7-4c16-9005-0978229a95e0"},"vehicle_type_id":"4","last_reported":1727500091,"current_range_meters":38400,"station_id":"ce4bhah2rcd13ifvqei0","pricing_plan_id":"cebpf4jnsgd1na2vs0mg"},{"bike_id":"d395f723-67ab-463d-b33d-2dfc8dc773fb","system_id":"levelo_inurba_marseille","lat":43.25826,"lon":5.39431,"is_reserved":false,"is_disabled":false,"rental_uris":{"android":"levelo://app?vid=d395f723-67ab-463d-b33d-2dfc8dc773fb","ios":"levelo://app?vid=d395f723-67ab-463d-b33d-2dfc8dc773fb"},"vehicle_type_id":"4","last_reported":1727500091,"current_range_meters":38800,"station_id":"ce4bhip2rcd13ifvqft0","pricing_plan_id":"cebpf4jnsgd1na2vs0mg"},{"bike_id":"77ee478a-9d82-4e98-9643-7d65893ba98e","system_id":"levelo_inurba_marseille","lat":43.29036,"lon":5.39953,"is_reserved":false,"is_disabled":false,"rental_uris":{"android":"levelo://app?vid=77ee478a-9d82-4e98-9643-7d65893ba98e","ios":"levelo://app?vid=77ee478a-9d82-4e98-9643-7d65893ba98e"},"vehicle_type_id":"4","last_reported":1727500091,"current_range_meters":33600,"station_id":"ce4bh392rcd13ifvqdm0","pricing_plan_id":"cebpf4jnsgd1na2vs0mg"},{"bike_id":"6fb54eef-1b79-4c8c-956c-b78c5752a631","system_id":"levelo_inurba_marseille","lat":43.25826,"lon":5.39441,"is_reserved":false,"is_disabled":false,"rental_uris":{"android":"levelo://app?vid=6fb54eef-1b79-4c8c-956c-b78c5752a631","ios":"levelo://app?vid=6fb54eef-1b79-4c8c-956c-b78c5752a631"},"vehicle_type_id":"4","last_reported":1727500091,"current_range_meters":8000,"station_id":"ce4bhip2rcd13ifvqft0","pricing_plan_id":"cebpf4jnsgd1na2vs0mg"},{"bike_id":"0abfa85f-e51b-42a4-82e2-778eb183e74e","system_id":"levelo_inurba_marseille","lat":43.31535,"lon":5.38029,"is_reserved":false,"is_disabled":false,"rental_uris":{"android":"levelo://app?vid=0abfa85f-e51b-42a4-82e2-778eb183e74e","ios":"levelo://app?vid=0abfa85f-e51b-42a4-82e2-778eb183e74e"},"vehicle_type_id":"4","last_reported":1727500091,"current_range_meters":38000,"station_id":"ce4bhsp2rcd13ifvqi50","pricing_plan_id":"cebpf4jnsgd1na2vs0mg"},{"bike_id":"b7abccf7-039d-47c7-b3a6-a5c7ad9bfa95","system_id":"levelo_inurba_marseille","lat":43.3112,"lon":5.37765,"is_reserved":false,"is_disabled":false,"rental_uris":{"android":"levelo://app?vid=b7abccf7-039d-47c7-b3a6-a5c7ad9bfa95","ios":"levelo://app?vid=b7abccf7-039d-47c7-b3a6-a5c7ad9bfa95"},"vehicle_type_id":"4","last_reported":1727500091,"current_range_meters":39200,"station_id":"ce4bgt92rcd13ifvqcg0","pricing_plan_id":"cebpf4jnsgd1na2vs0mg"},{"bike_id":"ef385aff-3079-48ef-a8fb-3479a7428776","system_id":"levelo_inurba_marseille","lat":43.27938,"lon":5.41047,"is_reserved":false,"is_disabled":false,"rental_uris":{"android":"levelo://app?vid=ef385aff-3079-48ef-a8fb-3479a7428776","ios":"levelo://app?vid=ef385aff-3079-48ef-a8fb-3479a7428776"},"vehicle_type_id":"4","last_reported":1727500091,"current_range_meters":4000,"station_id":"ce4bhnp2rcd13ifvqh0g","pricing_plan_id":"cebpf4jnsgd1na2vs0mg"},{"bike_id":"7fab7451-a6e0-472b-81ac-3e5565e130d8","system_id":"levelo_inurba_marseille","lat":43.33752,"lon":5.37361,"is_reserved":false,"is_disabled":false,"rental_uris":{"android":"levelo://app?vid=7fab7451-a6e0-472b-81ac-3e5565e130d8","ios":"levelo://app?vid=7fab7451-a6e0-472b-81ac-3e5565e130d8"},"vehicle_type_id":"4","last_reported":1727500091,"current_range_meters":24000,"station_id":"","pricing_plan_id":"cebpf4jnsgd1na2vs0mg"},{"bike_id":"c1f1be46-6a39-467c-91cf-9cc8be642387","system_id":"levelo_inurba_marseille","lat":43.31706,"lon":5.4371,"is_reserved":false,"is_disabled":false,"rental_uris":{"android":"levelo://app?vid=c1f1be46-6a39-467c-91cf-9cc8be642387","ios":"levelo://app?vid=c1f1be46-6a39-467c-91cf-9cc8be642387"},"vehicle_type_id":"4","last_reported":1727500091,"current_range_meters":23200,"station_id":"ce4bhp92rcd13ifvqhcg","pricing_plan_id":"cebpf4jnsgd1na2vs0mg"},{"bike_id":"06e383df-1197-449f-9df1-e723e6e5b745","system_id":"levelo_inurba_marseille","lat":43.23932,"lon":5.38276,"is_reserved":false,"is_disabled":false,"rental_uris":{"android":"levelo://app?vid=06e383df-1197-449f-9df1-e723e6e5b745","ios":"levelo://app?vid=06e383df-1197-449f-9df1-e723e6e5b745"},"vehicle_type_id":"4","last_reported":1727500091,"current_range_meters":9200,"station_id":"","pricing_plan_id":"cebpf4jnsgd1na2vs0mg"},{"bike_id":"e19c2211-331c-42ae-b78a-4ecc2a7133fe","system_id":"levelo_inurba_marseille","lat":43.2466,"lon":5.38163,"is_reserved":false,"is_disabled":false,"rental_uris":{"android":"levelo://app?vid=e19c2211-331c-42ae-b78a-4ecc2a7133fe","ios":"levelo://app?vid=e19c2211-331c-42ae-b78a-4ecc2a7133fe"},"vehicle_type_id":"4","last_reported":1727500091,"current_range_meters":39200,"station_id":"ce4bhih2rcd13ifvqfr0","pricing_plan_id":"cebpf4jnsgd1na2vs0mg"},{"bike_id":"51eaecec-0080-4902-9db8-230fe75a0ab2","system_id":"levelo_inurba_marseille","lat":43.29628,"lon":5.40589,"is_reserved":false,"is_disabled":false,"rental_uris":{"android":"levelo://app?vid=51eaecec-0080-4902-9db8-230fe75a0ab2","ios":"levelo://app?vid=51eaecec-0080-4902-9db8-230fe75a0ab2"},"vehicle_type_id":"4","last_reported":1727500091,"current_range_meters":18800,"station_id":"ce4bh0h2rcd13ifvqd60","pricing_plan_id":"cebpf4jnsgd1na2vs0mg"},{"bike_id":"0cbebd0e-94a5-44bc-8a7d-0df814244ea0","system_id":"levelo_inurba_marseille","lat":43.28347,"lon":5.38095,"is_reserved":false,"is_disabled":false,"rental_uris":{"android":"levelo://app?vid=0cbebd0e-94a5-44bc-8a7d-0df814244ea0","ios":"levelo://app?vid=0cbebd0e-94a5-44bc-8a7d-0df814244ea0"},"vehicle_type_id":"4","last_reported":1727500091,"current_range_meters":2000,"station_id":"ce4bh412rcd13ifvqdr0","pricing_plan_id":"cebpf4jnsgd1na2vs0mg"},{"bike_id":"53d3d543-4809-4f9c-a6c1-ced8bbb46e3b","system_id":"levelo_inurba_marseille","lat":43.24386,"lon":5.3705,"is_reserved":false,"is_disabled":false,"rental_uris":{"android":"levelo://app?vid=53d3d543-4809-4f9c-a6c1-ced8bbb46e3b","ios":"levelo://app?vid=53d3d543-4809-4f9c-a6c1-ced8bbb46e3b"},"vehicle_type_id":"4","last_reported":1727500091,"current_range_meters":38800,"station_id":"ce4bhhh2rcd13ifvqfk0","pricing_plan_id":"cebpf4jnsgd1na2vs0mg"},{"bike_id":"a00340c3-2a87-4b48-a268-ec041e1a44ab","system_id":"levelo_inurba_marseille","lat":43.337444,"lon":5.374475,"is_reserved":false,"is_disabled":false,"rental_uris":{"android":"levelo://app?vid=a00340c3-2a87-4b48-a268-ec041e1a44ab","ios":"levelo://app?vid=a00340c3-2a87-4b48-a268-ec041e1a44ab"},"vehicle_type_id":"4","last_reported":1727500091,"current_range_meters":13600,"station_id":"","pricing_plan_id":"cebpf4jnsgd1na2vs0mg"},{"bike_id":"7e49c4ed-4741-42f9-95cb-a6517d0ebd70","system_id":"levelo_inurba_marseille","lat":43.28703,"lon":5.3998,"is_reserved":false,"is_disabled":false,"rental_uris":{"android":"levelo://app?vid=7e49c4ed-4741-42f9-95cb-a6517d0ebd70","ios":"levelo://app?vid=7e49c4ed-4741-42f9-95cb-a6517d0ebd70"},"vehicle_type_id":"4","last_reported":1727500091,"current_range_meters":28400,"station_id":"ce4bho92rcd13ifvqh3g","pricing_plan_id":"cebpf4jnsgd1na2vs0mg"},{"bike_id":"d068d157-381d-413c-84d5-85045142d6df","system_id":"levelo_inurba_marseille","lat":43.243854,"lon":5.370531,"is_reserved":false,"is_disabled":false,"rental_uris":{"android":"levelo://app?vid=d068d157-381d-413c-84d5-85045142d6df","ios":"levelo://app?vid=d068d157-381d-413c-84d5-85045142d6df"},"vehicle_type_id":"4","last_reported":1727500091,"current_range_meters":35600,"station_id":"ce4bhhh2rcd13ifvqfk0","pricing_plan_id":"cebpf4jnsgd1na2vs0mg"},{"bike_id":"88c252b6-34e7-4889-9529-1e33eadcc1d0","system_id":"levelo_inurba_marseille","lat":43.27207,"lon":5.39178,"is_reserved":false,"is_disabled":false,"rental_uris":{"android":"levelo://app?vid=88c252b6-34e7-4889-9529-1e33eadcc1d0","ios":"levelo://app?vid=88c252b6-34e7-4889-9529-1e33eadcc1d0"},"vehicle_type_id":"4","last_reported":1727500091,"current_range_meters":36800,"station_id":"ce4bhhp2rcd13ifvqfm0","pricing_plan_id":"cebpf4jnsgd1na2vs0mg"},{"bike_id":"3eef014d-d776-49be-8484-ae177328603a","system_id":"levelo_inurba_marseille","lat":43.31118,"lon":5.37762,"is_reserved":false,"is_disabled":false,"rental_uris":{"android":"levelo://app?vid=3eef014d-d776-49be-8484-ae177328603a","ios":"levelo://app?vid=3eef014d-d776-49be-8484-ae177328603a"},"vehicle_type_id":"4","last_reported":1727500091,"current_range_meters":22800,"station_id":"ce4bgt92rcd13ifvqcg0","pricing_plan_id":"cebpf4jnsgd1na2vs0mg"},{"bike_id":"8fe46ecc-1e67-4f19-8b8d-10a6acd8bd0b","system_id":"levelo_inurba_marseille","lat":43.26007,"lon":5.38675,"is_reserved":false,"is_disabled":false,"rental_uris":{"android":"levelo://app?vid=8fe46ecc-1e67-4f19-8b8d-10a6acd8bd0b","ios":"levelo://app?vid=8fe46ecc-1e67-4f19-8b8d-10a6acd8bd0b"},"vehicle_type_id":"4","last_reported":1727500091,"current_range_meters":9600,"station_id":"","pricing_plan_id":"cebpf4jnsgd1na2vs0mg"},{"bike_id":"69c822e0-82f3-4471-92b1-a17043de052d","system_id":"levelo_inurba_marseille","lat":43.287253,"lon":5.360776,"is_reserved":false,"is_disabled":false,"rental_uris":{"android":"levelo://app?vid=69c822e0-82f3-4471-92b1-a17043de052d","ios":"levelo://app?vid=69c822e0-82f3-4471-92b1-a17043de052d"},"vehicle_type_id":"4","last_reported":1727500091,"current_range_meters":9600,"station_id":"cki0cbj6b192h4jlfktg","pricing_plan_id":"cebpf4jnsgd1na2vs0mg"},{"bike_id":"bde544f5-3fb0-427a-a293-eae8b2ab9ecd","system_id":"levelo_inurba_marseille","lat":43.31995,"lon":5.38159,"is_reserved":false,"is_disabled":false,"rental_uris":{"android":"levelo://app?vid=bde544f5-3fb0-427a-a293-eae8b2ab9ecd","ios":"levelo://app?vid=bde544f5-3fb0-427a-a293-eae8b2ab9ecd"},"vehicle_type_id":"4","last_reported":1727500091,"current_range_meters":38800,"station_id":"ce4bhr12rcd13ifvqhpg","pricing_plan_id":"cebpf4jnsgd1na2vs0mg"},{"bike_id":"12031465-b2df-4b7c-a241-e57882873194","system_id":"levelo_inurba_marseille","lat":43.28462,"lon":5.38409,"is_reserved":false,"is_disabled":false,"rental_uris":{"android":"levelo://app?vid=12031465-b2df-4b7c-a241-e57882873194","ios":"levelo://app?vid=12031465-b2df-4b7c-a241-e57882873194"},"vehicle_type_id":"4","last_reported":1727500091,"current_range_meters":39200,"station_id":"ce4bh512rcd13ifvqe3g","pricing_plan_id":"cebpf4jnsgd1na2vs0mg"},{"bike_id":"b6f3e3a5-463f-4e04-84ad-db38dc53ca10","system_id":"levelo_inurba_marseille","lat":43.26681,"lon":5.38279,"is_reserved":false,"is_disabled":false,"rental_uris":{"android":"levelo://app?vid=b6f3e3a5-463f-4e04-84ad-db38dc53ca10","ios":"levelo://app?vid=b6f3e3a5-463f-4e04-84ad-db38dc53ca10"},"vehicle_type_id":"4","last_reported":1727500091,"current_range_meters":38800,"station_id":"ce4bhg92rcd13ifvqf90","pricing_plan_id":"cebpf4jnsgd1na2vs0mg"},{"bike_id":"4e7af17f-7bae-4a01-b602-6545b1a25484","system_id":"levelo_inurba_marseille","lat":43.30277,"lon":5.37711,"is_reserved":false,"is_disabled":false,"rental_uris":{"android":"levelo://app?vid=4e7af17f-7bae-4a01-b602-6545b1a25484","ios":"levelo://app?vid=4e7af17f-7bae-4a01-b602-6545b1a25484"},"vehicle_type_id":"4","last_reported":1727500091,"current_range_meters":28400,"station_id":"ce4bguh2rcd13ifvqcj0","pricing_plan_id":"cebpf4jnsgd1na2vs0mg"},{"bike_id":"afe5fcf5-fe1a-4d30-bfcd-4452c0d39cee","system_id":"levelo_inurba_marseille","lat":43.3014,"lon":5.38084,"is_reserved":false,"is_disabled":false,"rental_uris":{"android":"levelo://app?vid=afe5fcf5-fe1a-4d30-bfcd-4452c0d39cee","ios":"levelo://app?vid=afe5fcf5-fe1a-4d30-bfcd-4452c0d39cee"},"vehicle_type_id":"4","last_reported":1727500091,"current_range_meters":35600,"station_id":"ce4bgjp2rcd13ifvqbh0","pricing_plan_id":"cebpf4jnsgd1na2vs0mg"},{"bike_id":"5caa90d1-87c5-4d70-b73c-17289643c374","system_id":"levelo_inurba_marseille","lat":43.2979,"lon":5.40409,"is_reserved":false,"is_disabled":false,"rental_uris":{"android":"levelo://app?vid=5caa90d1-87c5-4d70-b73c-17289643c374","ios":"levelo://app?vid=5caa90d1-87c5-4d70-b73c-17289643c374"},"vehicle_type_id":"4","last_reported":1727500091,"current_range_meters":39200,"station_id":"ce4bh112rcd13ifvqd90","pricing_plan_id":"cebpf4jnsgd1na2vs0mg"},{"bike_id":"f9ab0879-2cf8-4c97-8605-cb331337de4a","system_id":"levelo_inurba_marseille","lat":43.297132,"lon":5.366091,"is_reserved":false,"is_disabled":false,"rental_uris":{"android":"levelo://app?vid=f9ab0879-2cf8-4c97-8605-cb331337de4a","ios":"levelo://app?vid=f9ab0879-2cf8-4c97-8605-cb331337de4a"},"vehicle_type_id":"4","last_reported":1727500091,"current_range_meters":38800,"station_id":"ce4bgn12rcd13ifvqbt0","pricing_plan_id":"cebpf4jnsgd1na2vs0mg"},{"bike_id":"89b50add-d4e6-4db5-8339-58993fb9ae60","system_id":"levelo_inurba_marseille","lat":43.30797,"lon":5.38152,"is_reserved":false,"is_disabled":false,"rental_uris":{"android":"levelo://app?vid=89b50add-d4e6-4db5-8339-58993fb9ae60","ios":"levelo://app?vid=89b50add-d4e6-4db5-8339-58993fb9ae60"},"vehicle_type_id":"4","last_reported":1727500091,"current_range_meters":38800,"station_id":"ce4bgt12rcd13ifvqce0","pricing_plan_id":"cebpf4jnsgd1na2vs0mg"},{"bike_id":"190b0699-b930-42f7-b3b0-6b2ee1a3350d","system_id":"levelo_inurba_marseille","lat":43.29896,"lon":5.38146,"is_reserved":false,"is_disabled":false,"rental_uris":{"android":"levelo://app?vid=190b0699-b930-42f7-b3b0-6b2ee1a3350d","ios":"levelo://app?vid=190b0699-b930-42f7-b3b0-6b2ee1a3350d"},"vehicle_type_id":"4","last_reported":1727500091,"current_range_meters":30400,"station_id":"ce4bgj12rcd13ifvqbc0","pricing_plan_id":"cebpf4jnsgd1na2vs0mg"},{"bike_id":"93b592c1-3637-4418-88f1-149375efabc7","system_id":"levelo_inurba_marseille","lat":43.307897,"lon":5.376495,"is_reserved":false,"is_disabled":false,"rental_uris":{"android":"levelo://app?vid=93b592c1-3637-4418-88f1-149375efabc7","ios":"levelo://app?vid=93b592c1-3637-4418-88f1-149375efabc7"},"vehicle_type_id":"4","last_reported":1727500091,"current_range_meters":35200,"station_id":"ce4bgv92rcd13ifvqcq0","pricing_plan_id":"cebpf4jnsgd1na2vs0mg"},{"bike_id":"6d2e0c7d-9a37-4e2b-8600-8680c8c9fb26","system_id":"levelo_inurba_marseille","lat":43.323364,"lon":5.406224,"is_reserved":false,"is_disabled":false,"rental_uris":{"android":"levelo://app?vid=6d2e0c7d-9a37-4e2b-8600-8680c8c9fb26","ios":"levelo://app?vid=6d2e0c7d-9a37-4e2b-8600-8680c8c9fb26"},"vehicle_type_id":"4","last_reported":1727500091,"current_range_meters":36800,"station_id":"ce4bhq92rcd13ifvqhjg","pricing_plan_id":"cebpf4jnsgd1na2vs0mg"},{"bike_id":"34210d1e-5120-452f-8bf4-0caac563929f","system_id":"levelo_inurba_marseille","lat":43.23194,"lon":5.39991,"is_reserved":false,"is_disabled":false,"rental_uris":{"android":"levelo://app?vid=34210d1e-5120-452f-8bf4-0caac563929f","ios":"levelo://app?vid=34210d1e-5120-452f-8bf4-0caac563929f"},"vehicle_type_id":"4","last_reported":1727500091,"current_range_meters":22800,"station_id":"ce4bhn12rcd13ifvqgqg","pricing_plan_id":"cebpf4jnsgd1na2vs0mg"},{"bike_id":"afd22b8f-da9e-49bd-b9c5-edbc00a92e9f","system_id":"levelo_inurba_marseille","lat":43.32659,"lon":5.40991,"is_reserved":false,"is_disabled":false,"rental_uris":{"android":"levelo://app?vid=afd22b8f-da9e-49bd-b9c5-edbc00a92e9f","ios":"levelo://app?vid=afd22b8f-da9e-49bd-b9c5-edbc00a92e9f"},"vehicle_type_id":"4","last_reported":1727500091,"current_range_meters":37600,"station_id":"ce4bhpp2rcd13ifvqhgg","pricing_plan_id":"cebpf4jnsgd1na2vs0mg"},{"bike_id":"a659f282-0e80-4a7a-809c-a549579dfaeb","system_id":"levelo_inurba_marseille","lat":43.31896,"lon":5.40731,"is_reserved":false,"is_disabled":false,"rental_uris":{"android":"levelo://app?vid=a659f282-0e80-4a7a-809c-a549579dfaeb","ios":"levelo://app?vid=a659f282-0e80-4a7a-809c-a549579dfaeb"},"vehicle_type_id":"4","last_reported":1727500091,"current_range_meters":37600,"station_id":"ce4bhq12rcd13ifvqhig","pricing_plan_id":"cebpf4jnsgd1na2vs0mg"},{"bike_id":"c7662f29-d977-460a-81ef-ae899ee53108","system_id":"levelo_inurba_marseille","lat":43.24549,"lon":5.395303,"is_reserved":false,"is_disabled":false,"rental_uris":{"android":"levelo://app?vid=c7662f29-d977-460a-81ef-ae899ee53108","ios":"levelo://app?vid=c7662f29-d977-460a-81ef-ae899ee53108"},"vehicle_type_id":"4","last_reported":1727500091,"current_range_meters":16000,"station_id":"ce4bhlp2rcd13ifvqgjg","pricing_plan_id":"cebpf4jnsgd1na2vs0mg"},{"bike_id":"47fa717d-e8de-45a4-8ddd-b14906f6f690","system_id":"levelo_inurba_marseille","lat":43.28434,"lon":5.39184,"is_reserved":false,"is_disabled":false,"rental_uris":{"android":"levelo://app?vid=47fa717d-e8de-45a4-8ddd-b14906f6f690","ios":"levelo://app?vid=47fa717d-e8de-45a4-8ddd-b14906f6f690"},"vehicle_type_id":"4","last_reported":1727500091,"current_range_meters":33200,"station_id":"ce4bhoh2rcd13ifvqh5g","pricing_plan_id":"cebpf4jnsgd1na2vs0mg"},{"bike_id":"38acefea-bc18-4b5e-b328-29a172e6d017","system_id":"levelo_inurba_marseille","lat":43.28358,"lon":5.38622,"is_reserved":false,"is_disabled":false,"rental_uris":{"android":"levelo://app?vid=38acefea-bc18-4b5e-b328-29a172e6d017","ios":"levelo://app?vid=38acefea-bc18-4b5e-b328-29a172e6d017"},"vehicle_type_id":"4","last_reported":1727500091,"current_range_meters":24800,"station_id":"ce4bh492rcd13ifvqdvg","pricing_plan_id":"cebpf4jnsgd1na2vs0mg"},{"bike_id":"69ff64b2-90b6-40c6-96cc-57e6441f6bb9","system_id":"levelo_inurba_marseille","lat":43.29035,"lon":5.39945,"is_reserved":false,"is_disabled":false,"rental_uris":{"android":"levelo://app?vid=69ff64b2-90b6-40c6-96cc-57e6441f6bb9","ios":"levelo://app?vid=69ff64b2-90b6-40c6-96cc-57e6441f6bb9"},"vehicle_type_id":"4","last_reported":1727500091,"current_range_meters":39200,"station_id":"ce4bh392rcd13ifvqdm0","pricing_plan_id":"cebpf4jnsgd1na2vs0mg"},{"bike_id":"d3b3b8dd-1d5e-43bc-9580-cdcb04f0bb7b","system_id":"levelo_inurba_marseille","lat":43.25117,"lon":5.40313,"is_reserved":false,"is_disabled":false,"rental_uris":{"android":"levelo://app?vid=d3b3b8dd-1d5e-43bc-9580-cdcb04f0bb7b","ios":"levelo://app?vid=d3b3b8dd-1d5e-43bc-9580-cdcb04f0bb7b"},"vehicle_type_id":"4","last_reported":1727500091,"current_range_meters":10000,"station_id":"ce4bhlh2rcd13ifvqgig","pricing_plan_id":"cebpf4jnsgd1na2vs0mg"},{"bike_id":"29fffc0f-5ee1-49fd-b093-b8286cc6dbdb","system_id":"levelo_inurba_marseille","lat":43.27806,"lon":5.4072,"is_reserved":false,"is_disabled":false,"rental_uris":{"android":"levelo://app?vid=29fffc0f-5ee1-49fd-b093-b8286cc6dbdb","ios":"levelo://app?vid=29fffc0f-5ee1-49fd-b093-b8286cc6dbdb"},"vehicle_type_id":"4","last_reported":1727500091,"current_range_meters":16800,"station_id":"ce4bhnh2rcd13ifvqgtg","pricing_plan_id":"cebpf4jnsgd1na2vs0mg"},{"bike_id":"cf2a99f0-171d-46e2-b5f9-b8e518581e33","system_id":"levelo_inurba_marseille","lat":43.2396,"lon":5.36621,"is_reserved":false,"is_disabled":false,"rental_uris":{"android":"levelo://app?vid=cf2a99f0-171d-46e2-b5f9-b8e518581e33","ios":"levelo://app?vid=cf2a99f0-171d-46e2-b5f9-b8e518581e33"},"vehicle_type_id":"4","last_reported":1727500091,"current_range_meters":38400,"station_id":"ce4bhi12rcd13ifvqfp0","pricing_plan_id":"cebpf4jnsgd1na2vs0mg"},{"bike_id":"ac083c15-4845-4ecc-b9d7-02c9b795b928","system_id":"levelo_inurba_marseille","lat":43.2466,"lon":5.38164,"is_reserved":false,"is_disabled":false,"rental_uris":{"android":"levelo://app?vid=ac083c15-4845-4ecc-b9d7-02c9b795b928","ios":"levelo://app?vid=ac083c15-4845-4ecc-b9d7-02c9b795b928"},"vehicle_type_id":"4","last_reported":1727500091,"current_range_meters":32400,"station_id":"ce4bhih2rcd13ifvqfr0","pricing_plan_id":"cebpf4jnsgd1na2vs0mg"},{"bike_id":"9a8bf102-6369-4057-8aba-c0dcb1663b2c","system_id":"levelo_inurba_marseille","lat":43.28151,"lon":5.42644,"is_reserved":false,"is_disabled":false,"rental_uris":{"android":"levelo://app?vid=9a8bf102-6369-4057-8aba-c0dcb1663b2c","ios":"levelo://app?vid=9a8bf102-6369-4057-8aba-c0dcb1663b2c"},"vehicle_type_id":"4","last_reported":1727500091,"current_range_meters":35600,"station_id":"ce4bhnh2rcd13ifvqgug","pricing_plan_id":"cebpf4jnsgd1na2vs0mg"},{"bike_id":"3e6bf87a-1253-4307-932e-19de6e54ae5f","system_id":"levelo_inurba_marseille","lat":43.27967,"lon":5.38749,"is_reserved":false,"is_disabled":false,"rental_uris":{"android":"levelo://app?vid=3e6bf87a-1253-4307-932e-19de6e54ae5f","ios":"levelo://app?vid=3e6bf87a-1253-4307-932e-19de6e54ae5f"},"vehicle_type_id":"4","last_reported":1727500091,"current_range_meters":38000,"station_id":"ce4bhg12rcd13ifvqf80","pricing_plan_id":"cebpf4jnsgd1na2vs0mg"},{"bike_id":"05a65473-4528-4866-bef5-6a81102143b3","system_id":"levelo_inurba_marseille","lat":43.27916,"lon":5.39581,"is_reserved":false,"is_disabled":false,"rental_uris":{"android":"levelo://app?vid=05a65473-4528-4866-bef5-6a81102143b3","ios":"levelo://app?vid=05a65473-4528-4866-bef5-6a81102143b3"},"vehicle_type_id":"4","last_reported":1727500091,"current_range_meters":38000,"station_id":"ce4bhf92rcd13ifvqf40","pricing_plan_id":"cebpf4jnsgd1na2vs0mg"},{"bike_id":"e463aded-df49-4837-9f12-b437c03b7974","system_id":"levelo_inurba_marseille","lat":43.30546,"lon":5.36692,"is_reserved":false,"is_disabled":false,"rental_uris":{"android":"levelo://app?vid=e463aded-df49-4837-9f12-b437c03b7974","ios":"levelo://app?vid=e463aded-df49-4837-9f12-b437c03b7974"},"vehicle_type_id":"4","last_reported":1727500091,"current_range_meters":38800,"station_id":"ce4bgrp2rcd13ifvqc9g","pricing_plan_id":"cebpf4jnsgd1na2vs0mg"},{"bike_id":"e173e9bf-3b91-451c-8346-16cb54836af9","system_id":"levelo_inurba_marseille","lat":43.24389,"lon":5.37055,"is_reserved":false,"is_disabled":false,"rental_uris":{"android":"levelo://app?vid=e173e9bf-3b91-451c-8346-16cb54836af9","ios":"levelo://app?vid=e173e9bf-3b91-451c-8346-16cb54836af9"},"vehicle_type_id":"4","last_reported":1727500091,"current_range_meters":38800,"station_id":"ce4bhhh2rcd13ifvqfk0","pricing_plan_id":"cebpf4jnsgd1na2vs0mg"},{"bike_id":"dda89764-0963-4e09-8301-c00fde9f03e3","system_id":"levelo_inurba_marseille","lat":43.28153,"lon":5.42646,"is_reserved":false,"is_disabled":false,"rental_uris":{"android":"levelo://app?vid=dda89764-0963-4e09-8301-c00fde9f03e3","ios":"levelo://app?vid=dda89764-0963-4e09-8301-c00fde9f03e3"},"vehicle_type_id":"4","last_reported":1727500091,"current_range_meters":38000,"station_id":"ce4bhnh2rcd13ifvqgug","pricing_plan_id":"cebpf4jnsgd1na2vs0mg"},{"bike_id":"a9f786e9-6e53-4f49-b890-a3c979c46e37","system_id":"levelo_inurba_marseille","lat":43.258203,"lon":5.39432,"is_reserved":false,"is_disabled":false,"rental_uris":{"android":"levelo://app?vid=a9f786e9-6e53-4f49-b890-a3c979c46e37","ios":"levelo://app?vid=a9f786e9-6e53-4f49-b890-a3c979c46e37"},"vehicle_type_id":"4","last_reported":1727500091,"current_range_meters":36400,"station_id":"ce4bhip2rcd13ifvqft0","pricing_plan_id":"cebpf4jnsgd1na2vs0mg"},{"bike_id":"16818402-9738-4636-80ee-9f0ebeeb2c18","system_id":"levelo_inurba_marseille","lat":43.255806,"lon":5.382405,"is_reserved":false,"is_disabled":false,"rental_uris":{"android":"levelo://app?vid=16818402-9738-4636-80ee-9f0ebeeb2c18","ios":"levelo://app?vid=16818402-9738-4636-80ee-9f0ebeeb2c18"},"vehicle_type_id":"4","last_reported":1727500091,"current_range_meters":12800,"station_id":"ce4bhih2rcd13ifvqfs0","pricing_plan_id":"cebpf4jnsgd1na2vs0mg"},{"bike_id":"0b55a54a-cb93-429c-895c-43a1c40cd808","system_id":"levelo_inurba_marseille","lat":43.29268,"lon":5.36835,"is_reserved":false,"is_disabled":false,"rental_uris":{"android":"levelo://app?vid=0b55a54a-cb93-429c-895c-43a1c40cd808","ios":"levelo://app?vid=0b55a54a-cb93-429c-895c-43a1c40cd808"},"vehicle_type_id":"4","last_reported":1727500091,"current_range_meters":38800,"station_id":"ce4bhbp2rcd13ifvqesg","pricing_plan_id":"cebpf4jnsgd1na2vs0mg"},{"bike_id":"525a2431-150e-4587-95d6-e6539f12bec3","system_id":"levelo_inurba_marseille","lat":43.24668,"lon":5.38166,"is_reserved":false,"is_disabled":false,"rental_uris":{"android":"levelo://app?vid=525a2431-150e-4587-95d6-e6539f12bec3","ios":"levelo://app?vid=525a2431-150e-4587-95d6-e6539f12bec3"},"vehicle_type_id":"4","last_reported":1727500091,"current_range_meters":20000,"station_id":"ce4bhih2rcd13ifvqfr0","pricing_plan_id":"cebpf4jnsgd1na2vs0mg"},{"bike_id":"79de36c3-12d2-494a-8694-9013beb8b3e5","system_id":"levelo_inurba_marseille","lat":43.23188,"lon":5.3998,"is_reserved":false,"is_disabled":false,"rental_uris":{"android":"levelo://app?vid=79de36c3-12d2-494a-8694-9013beb8b3e5","ios":"levelo://app?vid=79de36c3-12d2-494a-8694-9013beb8b3e5"},"vehicle_type_id":"4","last_reported":1727500091,"current_range_meters":18000,"station_id":"ce4bhn12rcd13ifvqgqg","pricing_plan_id":"cebpf4jnsgd1na2vs0mg"},{"bike_id":"b31076bf-865d-43b2-8cbd-1aba32e55de4","system_id":"levelo_inurba_marseille","lat":43.29257,"lon":5.40914,"is_reserved":false,"is_disabled":false,"rental_uris":{"android":"levelo://app?vid=b31076bf-865d-43b2-8cbd-1aba32e55de4","ios":"levelo://app?vid=b31076bf-865d-43b2-8cbd-1aba32e55de4"},"vehicle_type_id":"4","last_reported":1727500091,"current_range_meters":30000,"station_id":"ce4bh192rcd13ifvqdc0","pricing_plan_id":"cebpf4jnsgd1na2vs0mg"},{"bike_id":"5f7c65f4-e71e-4e15-b205-025c2e0a2968","system_id":"levelo_inurba_marseille","lat":43.23182,"lon":5.3998,"is_reserved":false,"is_disabled":false,"rental_uris":{"android":"levelo://app?vid=5f7c65f4-e71e-4e15-b205-025c2e0a2968","ios":"levelo://app?vid=5f7c65f4-e71e-4e15-b205-025c2e0a2968"},"vehicle_type_id":"4","last_reported":1727500091,"current_range_meters":36800,"station_id":"ce4bhn12rcd13ifvqgqg","pricing_plan_id":"cebpf4jnsgd1na2vs0mg"},{"bike_id":"f39498a8-f029-4bf5-9eac-689a552be6d3","system_id":"levelo_inurba_marseille","lat":43.29253,"lon":5.40906,"is_reserved":false,"is_disabled":false,"rental_uris":{"android":"levelo://app?vid=f39498a8-f029-4bf5-9eac-689a552be6d3","ios":"levelo://app?vid=f39498a8-f029-4bf5-9eac-689a552be6d3"},"vehicle_type_id":"4","last_reported":1727500091,"current_range_meters":4000,"station_id":"ce4bh192rcd13ifvqdc0","pricing_plan_id":"cebpf4jnsgd1na2vs0mg"},{"bike_id":"dd18c2c1-3bf5-4353-80df-19596d21afdb","system_id":"levelo_inurba_marseille","lat":43.30144,"lon":5.38067,"is_reserved":false,"is_disabled":false,"rental_uris":{"android":"levelo://app?vid=dd18c2c1-3bf5-4353-80df-19596d21afdb","ios":"levelo://app?vid=dd18c2c1-3bf5-4353-80df-19596d21afdb"},"vehicle_type_id":"4","last_reported":1727500091,"current_range_meters":4400,"station_id":"ce4bgjp2rcd13ifvqbh0","pricing_plan_id":"cebpf4jnsgd1na2vs0mg"},{"bike_id":"8bc1b2ce-b165-4303-9eb0-e69f9390e1fc","system_id":"levelo_inurba_marseille","lat":43.28655,"lon":5.36353,"is_reserved":false,"is_disabled":false,"rental_uris":{"android":"levelo://app?vid=8bc1b2ce-b165-4303-9eb0-e69f9390e1fc","ios":"levelo://app?vid=8bc1b2ce-b165-4303-9eb0-e69f9390e1fc"},"vehicle_type_id":"4","last_reported":1727500091,"current_range_meters":38800,"station_id":"ce4bhah2rcd13ifvqej0","pricing_plan_id":"cebpf4jnsgd1na2vs0mg"},{"bike_id":"50dd8fcc-fb71-4cd7-a81d-40d7e39ee5e4","system_id":"levelo_inurba_marseille","lat":43.31122,"lon":5.37756,"is_reserved":false,"is_disabled":false,"rental_uris":{"android":"levelo://app?vid=50dd8fcc-fb71-4cd7-a81d-40d7e39ee5e4","ios":"levelo://app?vid=50dd8fcc-fb71-4cd7-a81d-40d7e39ee5e4"},"vehicle_type_id":"4","last_reported":1727500091,"current_range_meters":4800,"station_id":"ce4bgt92rcd13ifvqcg0","pricing_plan_id":"cebpf4jnsgd1na2vs0mg"},{"bike_id":"a3f3ebfb-7f39-4bf5-bc37-ae98029516d0","system_id":"levelo_inurba_marseille","lat":43.30308,"lon":5.36897,"is_reserved":false,"is_disabled":false,"rental_uris":{"android":"levelo://app?vid=a3f3ebfb-7f39-4bf5-bc37-ae98029516d0","ios":"levelo://app?vid=a3f3ebfb-7f39-4bf5-bc37-ae98029516d0"},"vehicle_type_id":"4","last_reported":1727500091,"current_range_meters":28800,"station_id":"ce4bgqh2rcd13ifvqc5g","pricing_plan_id":"cebpf4jnsgd1na2vs0mg"},{"bike_id":"160aa09d-622e-4263-882b-c6c85682d7e4","system_id":"levelo_inurba_marseille","lat":43.31684,"lon":5.40476,"is_reserved":false,"is_disabled":false,"rental_uris":{"android":"levelo://app?vid=160aa09d-622e-4263-882b-c6c85682d7e4","ios":"levelo://app?vid=160aa09d-622e-4263-882b-c6c85682d7e4"},"vehicle_type_id":"4","last_reported":1727500091,"current_range_meters":36400,"station_id":"ce4bh012rcd13ifvqd00","pricing_plan_id":"cebpf4jnsgd1na2vs0mg"},{"bike_id":"027ec904-758b-4151-8256-dde109f50a82","system_id":"levelo_inurba_marseille","lat":43.31764,"lon":5.39009,"is_reserved":false,"is_disabled":false,"rental_uris":{"android":"levelo://app?vid=027ec904-758b-4151-8256-dde109f50a82","ios":"levelo://app?vid=027ec904-758b-4151-8256-dde109f50a82"},"vehicle_type_id":"4","last_reported":1727500091,"current_range_meters":38800,"station_id":"ce4bhqp2rcd13ifvqhng","pricing_plan_id":"cebpf4jnsgd1na2vs0mg"},{"bike_id":"86ae252b-457d-4654-9ff9-6d3bbe768a1d","system_id":"levelo_inurba_marseille","lat":43.30312,"lon":5.36896,"is_reserved":false,"is_disabled":false,"rental_uris":{"android":"levelo://app?vid=86ae252b-457d-4654-9ff9-6d3bbe768a1d","ios":"levelo://app?vid=86ae252b-457d-4654-9ff9-6d3bbe768a1d"},"vehicle_type_id":"4","last_reported":1727500091,"current_range_meters":28400,"station_id":"ce4bgqh2rcd13ifvqc5g","pricing_plan_id":"cebpf4jnsgd1na2vs0mg"},{"bike_id":"03373044-cab4-4cec-84ce-7d2eca2df3c1","system_id":"levelo_inurba_marseille","lat":43.31537,"lon":5.38023,"is_reserved":false,"is_disabled":false,"rental_uris":{"android":"levelo://app?vid=03373044-cab4-4cec-84ce-7d2eca2df3c1","ios":"levelo://app?vid=03373044-cab4-4cec-84ce-7d2eca2df3c1"},"vehicle_type_id":"4","last_reported":1727500091,"current_range_meters":20400,"station_id":"ce4bhsp2rcd13ifvqi50","pricing_plan_id":"cebpf4jnsgd1na2vs0mg"},{"bike_id":"8ec97aa3-bdd9-4cb3-a387-2a6b2a7cb9f6","system_id":"levelo_inurba_marseille","lat":43.33603,"lon":5.4103,"is_reserved":false,"is_disabled":false,"rental_uris":{"android":"levelo://app?vid=8ec97aa3-bdd9-4cb3-a387-2a6b2a7cb9f6","ios":"levelo://app?vid=8ec97aa3-bdd9-4cb3-a387-2a6b2a7cb9f6"},"vehicle_type_id":"4","last_reported":1727500091,"current_range_meters":7200,"station_id":"ce4bhqh2rcd13ifvqhmg","pricing_plan_id":"cebpf4jnsgd1na2vs0mg"},{"bike_id":"c5a68d29-96f8-4337-a3d0-2314ea0b9657","system_id":"levelo_inurba_marseille","lat":43.27944,"lon":5.41037,"is_reserved":false,"is_disabled":false,"rental_uris":{"android":"levelo://app?vid=c5a68d29-96f8-4337-a3d0-2314ea0b9657","ios":"levelo://app?vid=c5a68d29-96f8-4337-a3d0-2314ea0b9657"},"vehicle_type_id":"4","last_reported":1727500091,"current_range_meters":28400,"station_id":"ce4bhnp2rcd13ifvqh0g","pricing_plan_id":"cebpf4jnsgd1na2vs0mg"},{"bike_id":"ae69293c-2e11-4e8e-877d-d38d7d427da8","system_id":"levelo_inurba_marseille","lat":43.29227,"lon":5.36071,"is_reserved":false,"is_disabled":false,"rental_uris":{"android":"levelo://app?vid=ae69293c-2e11-4e8e-877d-d38d7d427da8","ios":"levelo://app?vid=ae69293c-2e11-4e8e-877d-d38d7d427da8"},"vehicle_type_id":"4","last_reported":1727500091,"current_range_meters":38800,"station_id":"ce4bhbh2rcd13ifvqeqg","pricing_plan_id":"cebpf4jnsgd1na2vs0mg"},{"bike_id":"ad4f7fec-0588-4f59-aaa1-8b40958c6419","system_id":"levelo_inurba_marseille","lat":43.31327,"lon":5.39691,"is_reserved":false,"is_disabled":false,"rental_uris":{"android":"levelo://app?vid=ad4f7fec-0588-4f59-aaa1-8b40958c6419","ios":"levelo://app?vid=ad4f7fec-0588-4f59-aaa1-8b40958c6419"},"vehicle_type_id":"4","last_reported":1727500091,"current_range_meters":39200,"station_id":"ce4bgvp2rcd13ifvqcu0","pricing_plan_id":"cebpf4jnsgd1na2vs0mg"},{"bike_id":"37d5989b-133b-4e3c-bb14-c73f87e6c08e","system_id":"levelo_inurba_marseille","lat":43.28352,"lon":5.38098,"is_reserved":false,"is_disabled":false,"rental_uris":{"android":"levelo://app?vid=37d5989b-133b-4e3c-bb14-c73f87e6c08e","ios":"levelo://app?vid=37d5989b-133b-4e3c-bb14-c73f87e6c08e"},"vehicle_type_id":"4","last_reported":1727500091,"current_range_meters":29600,"station_id":"ce4bh412rcd13ifvqdr0","pricing_plan_id":"cebpf4jnsgd1na2vs0mg"},{"bike_id":"873fef8a-49ec-43d0-be40-619331a2171c","system_id":"levelo_inurba_marseille","lat":43.28697,"lon":5.39982,"is_reserved":false,"is_disabled":false,"rental_uris":{"android":"levelo://app?vid=873fef8a-49ec-43d0-be40-619331a2171c","ios":"levelo://app?vid=873fef8a-49ec-43d0-be40-619331a2171c"},"vehicle_type_id":"4","last_reported":1727500091,"current_range_meters":16000,"station_id":"ce4bho92rcd13ifvqh3g","pricing_plan_id":"cebpf4jnsgd1na2vs0mg"},{"bike_id":"ac3e43fd-0964-484c-b9c9-c9a69d1b0e59","system_id":"levelo_inurba_marseille","lat":43.32663,"lon":5.40996,"is_reserved":false,"is_disabled":false,"rental_uris":{"android":"levelo://app?vid=ac3e43fd-0964-484c-b9c9-c9a69d1b0e59","ios":"levelo://app?vid=ac3e43fd-0964-484c-b9c9-c9a69d1b0e59"},"vehicle_type_id":"4","last_reported":1727500091,"current_range_meters":11200,"station_id":"ce4bhpp2rcd13ifvqhgg","pricing_plan_id":"cebpf4jnsgd1na2vs0mg"},{"bike_id":"82e2ec12-1902-4b42-9153-310d3c32c635","system_id":"levelo_inurba_marseille","lat":43.30649,"lon":5.40077,"is_reserved":false,"is_disabled":false,"rental_uris":{"android":"levelo://app?vid=82e2ec12-1902-4b42-9153-310d3c32c635","ios":"levelo://app?vid=82e2ec12-1902-4b42-9153-310d3c32c635"},"vehicle_type_id":"4","last_reported":1727500091,"current_range_meters":26800,"station_id":"ce4bh112rcd13ifvqda0","pricing_plan_id":"cebpf4jnsgd1na2vs0mg"},{"bike_id":"bdc5b691-ffc7-4073-a2da-fd841a386d5b","system_id":"levelo_inurba_marseille","lat":43.2927,"lon":5.36848,"is_reserved":false,"is_disabled":false,"rental_uris":{"android":"levelo://app?vid=bdc5b691-ffc7-4073-a2da-fd841a386d5b","ios":"levelo://app?vid=bdc5b691-ffc7-4073-a2da-fd841a386d5b"},"vehicle_type_id":"4","last_reported":1727500091,"current_range_meters":38800,"station_id":"ce4bhbp2rcd13ifvqesg","pricing_plan_id":"cebpf4jnsgd1na2vs0mg"},{"bike_id":"bf15cf37-3a4c-4635-b28c-358f55c15bae","system_id":"levelo_inurba_marseille","lat":43.33739,"lon":5.37468,"is_reserved":false,"is_disabled":false,"rental_uris":{"android":"levelo://app?vid=bf15cf37-3a4c-4635-b28c-358f55c15bae","ios":"levelo://app?vid=bf15cf37-3a4c-4635-b28c-358f55c15bae"},"vehicle_type_id":"4","last_reported":1727500091,"current_range_meters":26000,"station_id":"","pricing_plan_id":"cebpf4jnsgd1na2vs0mg"},{"bike_id":"d0897913-6bfb-43b3-b949-5f85b9db041b","system_id":"levelo_inurba_marseille","lat":43.28715,"lon":5.37946,"is_reserved":false,"is_disabled":false,"rental_uris":{"android":"levelo://app?vid=d0897913-6bfb-43b3-b949-5f85b9db041b","ios":"levelo://app?vid=d0897913-6bfb-43b3-b949-5f85b9db041b"},"vehicle_type_id":"4","last_reported":1727500091,"current_range_meters":38800,"station_id":"ce4bh9p2rcd13ifvqec0","pricing_plan_id":"cebpf4jnsgd1na2vs0mg"},{"bike_id":"20202039-bf6e-49f7-abf4-48e3a3787af5","system_id":"levelo_inurba_marseille","lat":43.27951,"lon":5.4104,"is_reserved":false,"is_disabled":false,"rental_uris":{"android":"levelo://app?vid=20202039-bf6e-49f7-abf4-48e3a3787af5","ios":"levelo://app?vid=20202039-bf6e-49f7-abf4-48e3a3787af5"},"vehicle_type_id":"4","last_reported":1727500091,"current_range_meters":37600,"station_id":"ce4bhnp2rcd13ifvqh0g","pricing_plan_id":"cebpf4jnsgd1na2vs0mg"},{"bike_id":"f91dba31-e0dc-48fc-88a0-916ba5302cd3","system_id":"levelo_inurba_marseille","lat":43.30972,"lon":5.37937,"is_reserved":false,"is_disabled":false,"rental_uris":{"android":"levelo://app?vid=f91dba31-e0dc-48fc-88a0-916ba5302cd3","ios":"levelo://app?vid=f91dba31-e0dc-48fc-88a0-916ba5302cd3"},"vehicle_type_id":"4","last_reported":1727500091,"current_range_meters":26800,"station_id":"","pricing_plan_id":"cebpf4jnsgd1na2vs0mg"},{"bike_id":"cd2327c7-af60-4af9-9eff-465722c02c8b","system_id":"levelo_inurba_marseille","lat":43.33612,"lon":5.41021,"is_reserved":false,"is_disabled":false,"rental_uris":{"android":"levelo://app?vid=cd2327c7-af60-4af9-9eff-465722c02c8b","ios":"levelo://app?vid=cd2327c7-af60-4af9-9eff-465722c02c8b"},"vehicle_type_id":"4","last_reported":1727500091,"current_range_meters":10000,"station_id":"ce4bhqh2rcd13ifvqhmg","pricing_plan_id":"cebpf4jnsgd1na2vs0mg"},{"bike_id":"b1009be1-d273-465d-83a6-4142c34b3f2d","system_id":"levelo_inurba_marseille","lat":43.30465,"lon":5.37906,"is_reserved":false,"is_disabled":false,"rental_uris":{"android":"levelo://app?vid=b1009be1-d273-465d-83a6-4142c34b3f2d","ios":"levelo://app?vid=b1009be1-d273-465d-83a6-4142c34b3f2d"},"vehicle_type_id":"4","last_reported":1727500091,"current_range_meters":36400,"station_id":"ce4bgup2rcd13ifvqcn0","pricing_plan_id":"cebpf4jnsgd1na2vs0mg"},{"bike_id":"034f92fd-a5ad-4d50-b61a-6a629859d7e6","system_id":"levelo_inurba_marseille","lat":43.2587,"lon":5.39895,"is_reserved":false,"is_disabled":false,"rental_uris":{"android":"levelo://app?vid=034f92fd-a5ad-4d50-b61a-6a629859d7e6","ios":"levelo://app?vid=034f92fd-a5ad-4d50-b61a-6a629859d7e6"},"vehicle_type_id":"4","last_reported":1727500091,"current_range_meters":39200,"station_id":"ce4bhl92rcd13ifvqghg","pricing_plan_id":"cebpf4jnsgd1na2vs0mg"},{"bike_id":"51870931-c5a1-4480-846a-13af532df7a7","system_id":"levelo_inurba_marseille","lat":43.31756,"lon":5.39016,"is_reserved":false,"is_disabled":false,"rental_uris":{"android":"levelo://app?vid=51870931-c5a1-4480-846a-13af532df7a7","ios":"levelo://app?vid=51870931-c5a1-4480-846a-13af532df7a7"},"vehicle_type_id":"4","last_reported":1727500091,"current_range_meters":30400,"station_id":"ce4bhqp2rcd13ifvqhng","pricing_plan_id":"cebpf4jnsgd1na2vs0mg"},{"bike_id":"a63d4449-4f5a-4f1c-9a3c-27c8d74bd2a3","system_id":"levelo_inurba_marseille","lat":43.2439,"lon":5.37066,"is_reserved":false,"is_disabled":false,"rental_uris":{"android":"levelo://app?vid=a63d4449-4f5a-4f1c-9a3c-27c8d74bd2a3","ios":"levelo://app?vid=a63d4449-4f5a-4f1c-9a3c-27c8d74bd2a3"},"vehicle_type_id":"4","last_reported":1727500091,"current_range_meters":17600,"station_id":"ce4bhhh2rcd13ifvqfk0","pricing_plan_id":"cebpf4jnsgd1na2vs0mg"},{"bike_id":"a3f593b3-14e5-49b3-9b42-a342a00f135f","system_id":"levelo_inurba_marseille","lat":43.28942,"lon":5.3962,"is_reserved":false,"is_disabled":false,"rental_uris":{"android":"levelo://app?vid=a3f593b3-14e5-49b3-9b42-a342a00f135f","ios":"levelo://app?vid=a3f593b3-14e5-49b3-9b42-a342a00f135f"},"vehicle_type_id":"4","last_reported":1727500091,"current_range_meters":16000,"station_id":"ce4bh3h2rcd13ifvqdn0","pricing_plan_id":"cebpf4jnsgd1na2vs0mg"},{"bike_id":"342bef7e-8023-4492-872b-5c47ca5d8a8f","system_id":"levelo_inurba_marseille","lat":43.24645,"lon":5.38897,"is_reserved":false,"is_disabled":false,"rental_uris":{"android":"levelo://app?vid=342bef7e-8023-4492-872b-5c47ca5d8a8f","ios":"levelo://app?vid=342bef7e-8023-4492-872b-5c47ca5d8a8f"},"vehicle_type_id":"4","last_reported":1727500091,"current_range_meters":28400,"station_id":"ce4bhg12rcd13ifvqf60","pricing_plan_id":"cebpf4jnsgd1na2vs0mg"},{"bike_id":"809245d8-c125-4e34-bd4d-23eefcbba16e","system_id":"levelo_inurba_marseille","lat":43.30885,"lon":5.39635,"is_reserved":false,"is_disabled":false,"rental_uris":{"android":"levelo://app?vid=809245d8-c125-4e34-bd4d-23eefcbba16e","ios":"levelo://app?vid=809245d8-c125-4e34-bd4d-23eefcbba16e"},"vehicle_type_id":"4","last_reported":1727500091,"current_range_meters":36800,"station_id":"ce4bh012rcd13ifvqcv0","pricing_plan_id":"cebpf4jnsgd1na2vs0mg"},{"bike_id":"cb2cf2de-26fa-4449-ada0-056eedbe3b11","system_id":"levelo_inurba_marseille","lat":43.290395,"lon":5.399611,"is_reserved":false,"is_disabled":false,"rental_uris":{"android":"levelo://app?vid=cb2cf2de-26fa-4449-ada0-056eedbe3b11","ios":"levelo://app?vid=cb2cf2de-26fa-4449-ada0-056eedbe3b11"},"vehicle_type_id":"4","last_reported":1727500091,"current_range_meters":28400,"station_id":"ce4bh392rcd13ifvqdm0","pricing_plan_id":"cebpf4jnsgd1na2vs0mg"},{"bike_id":"e8881021-06cd-42da-8a98-2ef3e9aefc43","system_id":"levelo_inurba_marseille","lat":43.27491,"lon":5.42447,"is_reserved":false,"is_disabled":false,"rental_uris":{"android":"levelo://app?vid=e8881021-06cd-42da-8a98-2ef3e9aefc43","ios":"levelo://app?vid=e8881021-06cd-42da-8a98-2ef3e9aefc43"},"vehicle_type_id":"4","last_reported":1727500091,"current_range_meters":30400,"station_id":"ce4bhn92rcd13ifvqgrg","pricing_plan_id":"cebpf4jnsgd1na2vs0mg"},{"bike_id":"ce9a5419-e4a6-43f3-a4fb-e7f88ddf3982","system_id":"levelo_inurba_marseille","lat":43.23189,"lon":5.39983,"is_reserved":false,"is_disabled":false,"rental_uris":{"android":"levelo://app?vid=ce9a5419-e4a6-43f3-a4fb-e7f88ddf3982","ios":"levelo://app?vid=ce9a5419-e4a6-43f3-a4fb-e7f88ddf3982"},"vehicle_type_id":"4","last_reported":1727500091,"current_range_meters":38800,"station_id":"ce4bhn12rcd13ifvqgqg","pricing_plan_id":"cebpf4jnsgd1na2vs0mg"},{"bike_id":"a2c0c9ab-8513-4875-be3a-691d26c4b0e9","system_id":"levelo_inurba_marseille","lat":43.25823,"lon":5.39427,"is_reserved":false,"is_disabled":false,"rental_uris":{"android":"levelo://app?vid=a2c0c9ab-8513-4875-be3a-691d26c4b0e9","ios":"levelo://app?vid=a2c0c9ab-8513-4875-be3a-691d26c4b0e9"},"vehicle_type_id":"4","last_reported":1727500091,"current_range_meters":38800,"station_id":"ce4bhip2rcd13ifvqft0","pricing_plan_id":"cebpf4jnsgd1na2vs0mg"},{"bike_id":"b420a558-0442-4340-a39c-af9bdd3ffb2a","system_id":"levelo_inurba_marseille","lat":43.30152,"lon":5.38075,"is_reserved":false,"is_disabled":false,"rental_uris":{"android":"levelo://app?vid=b420a558-0442-4340-a39c-af9bdd3ffb2a","ios":"levelo://app?vid=b420a558-0442-4340-a39c-af9bdd3ffb2a"},"vehicle_type_id":"4","last_reported":1727500091,"current_range_meters":27600,"station_id":"ce4bgjp2rcd13ifvqbh0","pricing_plan_id":"cebpf4jnsgd1na2vs0mg"},{"bike_id":"0cf7f5eb-9236-4027-b5fa-a06bfba275e2","system_id":"levelo_inurba_marseille","lat":43.29198,"lon":5.35794,"is_reserved":false,"is_disabled":false,"rental_uris":{"android":"levelo://app?vid=0cf7f5eb-9236-4027-b5fa-a06bfba275e2","ios":"levelo://app?vid=0cf7f5eb-9236-4027-b5fa-a06bfba275e2"},"vehicle_type_id":"4","last_reported":1727500091,"current_range_meters":38800,"station_id":"ce4bhb12rcd13ifvqel0","pricing_plan_id":"cebpf4jnsgd1na2vs0mg"},{"bike_id":"677c653e-87a0-47a5-9b05-44cc6e138cca","system_id":"levelo_inurba_marseille","lat":43.28072,"lon":5.39649,"is_reserved":false,"is_disabled":false,"rental_uris":{"android":"levelo://app?vid=677c653e-87a0-47a5-9b05-44cc6e138cca","ios":"levelo://app?vid=677c653e-87a0-47a5-9b05-44cc6e138cca"},"vehicle_type_id":"4","last_reported":1727500091,"current_range_meters":28400,"station_id":"ce4bho12rcd13ifvqh2g","pricing_plan_id":"cebpf4jnsgd1na2vs0mg"},{"bike_id":"7cbf7219-2253-4bfe-beba-aa1b6b410536","system_id":"levelo_inurba_marseille","lat":43.28703,"lon":5.39976,"is_reserved":false,"is_disabled":false,"rental_uris":{"android":"levelo://app?vid=7cbf7219-2253-4bfe-beba-aa1b6b410536","ios":"levelo://app?vid=7cbf7219-2253-4bfe-beba-aa1b6b410536"},"vehicle_type_id":"4","last_reported":1727500091,"current_range_meters":36400,"station_id":"ce4bho92rcd13ifvqh3g","pricing_plan_id":"cebpf4jnsgd1na2vs0mg"},{"bike_id":"85d11a33-4d75-46a5-a658-6fec53db4dcf","system_id":"levelo_inurba_marseille","lat":43.29785,"lon":5.37099,"is_reserved":false,"is_disabled":false,"rental_uris":{"android":"levelo://app?vid=85d11a33-4d75-46a5-a658-6fec53db4dcf","ios":"levelo://app?vid=85d11a33-4d75-46a5-a658-6fec53db4dcf"},"vehicle_type_id":"4","last_reported":1727500091,"current_range_meters":22800,"station_id":"ce4bgop2rcd13ifvqc1g","pricing_plan_id":"cebpf4jnsgd1na2vs0mg"},{"bike_id":"e9461f55-7e42-465e-ba90-31c941943249","system_id":"levelo_inurba_marseille","lat":43.30785,"lon":5.37643,"is_reserved":false,"is_disabled":false,"rental_uris":{"android":"levelo://app?vid=e9461f55-7e42-465e-ba90-31c941943249","ios":"levelo://app?vid=e9461f55-7e42-465e-ba90-31c941943249"},"vehicle_type_id":"4","last_reported":1727500091,"current_range_meters":38800,"station_id":"ce4bgv92rcd13ifvqcq0","pricing_plan_id":"cebpf4jnsgd1na2vs0mg"},{"bike_id":"4bec3a7d-69b5-4087-96f4-4e0bbed86a87","system_id":"levelo_inurba_marseille","lat":43.31283,"lon":5.40169,"is_reserved":false,"is_disabled":false,"rental_uris":{"android":"levelo://app?vid=4bec3a7d-69b5-4087-96f4-4e0bbed86a87","ios":"levelo://app?vid=4bec3a7d-69b5-4087-96f4-4e0bbed86a87"},"vehicle_type_id":"4","last_reported":1727500091,"current_range_meters":26000,"station_id":"ce4bh092rcd13ifvqd30","pricing_plan_id":"cebpf4jnsgd1na2vs0mg"},{"bike_id":"7dfa04bd-8cf2-4294-8fa1-67612650cf63","system_id":"levelo_inurba_marseille","lat":43.27967,"lon":5.38739,"is_reserved":false,"is_disabled":false,"rental_uris":{"android":"levelo://app?vid=7dfa04bd-8cf2-4294-8fa1-67612650cf63","ios":"levelo://app?vid=7dfa04bd-8cf2-4294-8fa1-67612650cf63"},"vehicle_type_id":"4","last_reported":1727500091,"current_range_meters":30400,"station_id":"ce4bhg12rcd13ifvqf80","pricing_plan_id":"cebpf4jnsgd1na2vs0mg"},{"bike_id":"7ed6f110-8042-4b99-8d26-80b0b283f72c","system_id":"levelo_inurba_marseille","lat":43.24068,"lon":5.37755,"is_reserved":false,"is_disabled":false,"rental_uris":{"android":"levelo://app?vid=7ed6f110-8042-4b99-8d26-80b0b283f72c","ios":"levelo://app?vid=7ed6f110-8042-4b99-8d26-80b0b283f72c"},"vehicle_type_id":"4","last_reported":1727500091,"current_range_meters":8400,"station_id":"ce4bhnp2rcd13ifvqgvg","pricing_plan_id":"cebpf4jnsgd1na2vs0mg"},{"bike_id":"3b170ecf-4bbb-421f-886d-94818fba1de8","system_id":"levelo_inurba_marseille","lat":43.28891,"lon":5.39512,"is_reserved":false,"is_disabled":false,"rental_uris":{"android":"levelo://app?vid=3b170ecf-4bbb-421f-886d-94818fba1de8","ios":"levelo://app?vid=3b170ecf-4bbb-421f-886d-94818fba1de8"},"vehicle_type_id":"4","last_reported":1727500091,"current_range_meters":36800,"station_id":"ce4bh2h2rcd13ifvqdh0","pricing_plan_id":"cebpf4jnsgd1na2vs0mg"},{"bike_id":"da2fa278-1352-4cfa-b382-4097daee9562","system_id":"levelo_inurba_marseille","lat":43.28673,"lon":5.38659,"is_reserved":false,"is_disabled":false,"rental_uris":{"android":"levelo://app?vid=da2fa278-1352-4cfa-b382-4097daee9562","ios":"levelo://app?vid=da2fa278-1352-4cfa-b382-4097daee9562"},"vehicle_type_id":"4","last_reported":1727500091,"current_range_meters":38000,"station_id":"ce4bh492rcd13ifvqdug","pricing_plan_id":"cebpf4jnsgd1na2vs0mg"},{"bike_id":"4855ba2e-9cc8-4446-8a8a-44925bf58a0e","system_id":"levelo_inurba_marseille","lat":43.28003,"lon":5.40011,"is_reserved":false,"is_disabled":false,"rental_uris":{"android":"levelo://app?vid=4855ba2e-9cc8-4446-8a8a-44925bf58a0e","ios":"levelo://app?vid=4855ba2e-9cc8-4446-8a8a-44925bf58a0e"},"vehicle_type_id":"4","last_reported":1727500091,"current_range_meters":38000,"station_id":"ce4bho92rcd13ifvqh4g","pricing_plan_id":"cebpf4jnsgd1na2vs0mg"},{"bike_id":"529ea383-82fc-4561-8ae7-923f65e01e61","system_id":"levelo_inurba_marseille","lat":43.34145,"lon":5.40899,"is_reserved":false,"is_disabled":false,"rental_uris":{"android":"levelo://app?vid=529ea383-82fc-4561-8ae7-923f65e01e61","ios":"levelo://app?vid=529ea383-82fc-4561-8ae7-923f65e01e61"},"vehicle_type_id":"4","last_reported":1727500091,"current_range_meters":24400,"station_id":"ce4bhqh2rcd13ifvqhlg","pricing_plan_id":"cebpf4jnsgd1na2vs0mg"},{"bike_id":"8e4e52c3-9e79-40e1-a672-4e60a9550071","system_id":"levelo_inurba_marseille","lat":43.25871,"lon":5.39892,"is_reserved":false,"is_disabled":false,"rental_uris":{"android":"levelo://app?vid=8e4e52c3-9e79-40e1-a672-4e60a9550071","ios":"levelo://app?vid=8e4e52c3-9e79-40e1-a672-4e60a9550071"},"vehicle_type_id":"4","last_reported":1727500091,"current_range_meters":39200,"station_id":"ce4bhl92rcd13ifvqghg","pricing_plan_id":"cebpf4jnsgd1na2vs0mg"},{"bike_id":"d923db62-1c24-463c-80b0-c324bd56b0fd","system_id":"levelo_inurba_marseille","lat":43.28434,"lon":5.39182,"is_reserved":false,"is_disabled":false,"rental_uris":{"android":"levelo://app?vid=d923db62-1c24-463c-80b0-c324bd56b0fd","ios":"levelo://app?vid=d923db62-1c24-463c-80b0-c324bd56b0fd"},"vehicle_type_id":"4","last_reported":1727500091,"current_range_meters":38800,"station_id":"ce4bhoh2rcd13ifvqh5g","pricing_plan_id":"cebpf4jnsgd1na2vs0mg"},{"bike_id":"0233e76c-9a4b-4972-880a-18372680d64a","system_id":"levelo_inurba_marseille","lat":43.31994,"lon":5.38154,"is_reserved":false,"is_disabled":false,"rental_uris":{"android":"levelo://app?vid=0233e76c-9a4b-4972-880a-18372680d64a","ios":"levelo://app?vid=0233e76c-9a4b-4972-880a-18372680d64a"},"vehicle_type_id":"4","last_reported":1727500091,"current_range_meters":37600,"station_id":"ce4bhr12rcd13ifvqhpg","pricing_plan_id":"cebpf4jnsgd1na2vs0mg"},{"bike_id":"2318dbf6-1e81-4e76-b575-2d29baf093e7","system_id":"levelo_inurba_marseille","lat":43.33605,"lon":5.41035,"is_reserved":false,"is_disabled":false,"rental_uris":{"android":"levelo://app?vid=2318dbf6-1e81-4e76-b575-2d29baf093e7","ios":"levelo://app?vid=2318dbf6-1e81-4e76-b575-2d29baf093e7"},"vehicle_type_id":"4","last_reported":1727500091,"current_range_meters":28000,"station_id":"ce4bhqh2rcd13ifvqhmg","pricing_plan_id":"cebpf4jnsgd1na2vs0mg"},{"bike_id":"d39210b3-a40b-4413-9d2a-e861998a3aad","system_id":"levelo_inurba_marseille","lat":43.25813,"lon":5.39428,"is_reserved":false,"is_disabled":false,"rental_uris":{"android":"levelo://app?vid=d39210b3-a40b-4413-9d2a-e861998a3aad","ios":"levelo://app?vid=d39210b3-a40b-4413-9d2a-e861998a3aad"},"vehicle_type_id":"4","last_reported":1727500091,"current_range_meters":38400,"station_id":"ce4bhip2rcd13ifvqft0","pricing_plan_id":"cebpf4jnsgd1na2vs0mg"},{"bike_id":"4915f018-35a4-41ab-8f17-b1de5745ad2a","system_id":"levelo_inurba_marseille","lat":43.31889,"lon":5.40733,"is_reserved":false,"is_disabled":false,"rental_uris":{"android":"levelo://app?vid=4915f018-35a4-41ab-8f17-b1de5745ad2a","ios":"levelo://app?vid=4915f018-35a4-41ab-8f17-b1de5745ad2a"},"vehicle_type_id":"4","last_reported":1727500091,"current_range_meters":16400,"station_id":"ce4bhq12rcd13ifvqhig","pricing_plan_id":"cebpf4jnsgd1na2vs0mg"},{"bike_id":"e96310ed-8a97-43c0-add1-7b89101ee991","system_id":"levelo_inurba_marseille","lat":43.2872,"lon":5.37952,"is_reserved":false,"is_disabled":false,"rental_uris":{"android":"levelo://app?vid=e96310ed-8a97-43c0-add1-7b89101ee991","ios":"levelo://app?vid=e96310ed-8a97-43c0-add1-7b89101ee991"},"vehicle_type_id":"4","last_reported":1727500091,"current_range_meters":37600,"station_id":"ce4bh9p2rcd13ifvqec0","pricing_plan_id":"cebpf4jnsgd1na2vs0mg"},{"bike_id":"924463fc-8743-4b95-9e8a-7c2f6da67450","system_id":"levelo_inurba_marseille","lat":43.317,"lon":5.37752,"is_reserved":false,"is_disabled":false,"rental_uris":{"android":"levelo://app?vid=924463fc-8743-4b95-9e8a-7c2f6da67450","ios":"levelo://app?vid=924463fc-8743-4b95-9e8a-7c2f6da67450"},"vehicle_type_id":"4","last_reported":1727500091,"current_range_meters":37600,"station_id":"ce4bgth2rcd13ifvqch0","pricing_plan_id":"cebpf4jnsgd1na2vs0mg"},{"bike_id":"28fd6afa-8ab7-494a-b25a-1a23b319519f","system_id":"levelo_inurba_marseille","lat":43.3171,"lon":5.43708,"is_reserved":false,"is_disabled":false,"rental_uris":{"android":"levelo://app?vid=28fd6afa-8ab7-494a-b25a-1a23b319519f","ios":"levelo://app?vid=28fd6afa-8ab7-494a-b25a-1a23b319519f"},"vehicle_type_id":"4","last_reported":1727500091,"current_range_meters":38400,"station_id":"ce4bhp92rcd13ifvqhcg","pricing_plan_id":"cebpf4jnsgd1na2vs0mg"},{"bike_id":"e12c252c-730c-4d14-9b13-19ad95bdbb50","system_id":"levelo_inurba_marseille","lat":43.23183,"lon":5.39983,"is_reserved":false,"is_disabled":false,"rental_uris":{"android":"levelo://app?vid=e12c252c-730c-4d14-9b13-19ad95bdbb50","ios":"levelo://app?vid=e12c252c-730c-4d14-9b13-19ad95bdbb50"},"vehicle_type_id":"4","last_reported":1727500091,"current_range_meters":36800,"station_id":"ce4bhn12rcd13ifvqgqg","pricing_plan_id":"cebpf4jnsgd1na2vs0mg"},{"bike_id":"00f70b26-33ce-4d56-aa58-17dc092ae0eb","system_id":"levelo_inurba_marseille","lat":43.27325,"lon":5.39089,"is_reserved":false,"is_disabled":false,"rental_uris":{"android":"levelo://app?vid=00f70b26-33ce-4d56-aa58-17dc092ae0eb","ios":"levelo://app?vid=00f70b26-33ce-4d56-aa58-17dc092ae0eb"},"vehicle_type_id":"4","last_reported":1727500091,"current_range_meters":4800,"station_id":"ce4bhgp2rcd13ifvqfe0","pricing_plan_id":"cebpf4jnsgd1na2vs0mg"},{"bike_id":"55366a73-f3b5-4caf-b577-ff1e1bf8244c","system_id":"levelo_inurba_marseille","lat":43.30883,"lon":5.39626,"is_reserved":false,"is_disabled":false,"rental_uris":{"android":"levelo://app?vid=55366a73-f3b5-4caf-b577-ff1e1bf8244c","ios":"levelo://app?vid=55366a73-f3b5-4caf-b577-ff1e1bf8244c"},"vehicle_type_id":"4","last_reported":1727500091,"current_range_meters":11600,"station_id":"ce4bh012rcd13ifvqcv0","pricing_plan_id":"cebpf4jnsgd1na2vs0mg"},{"bike_id":"7dbdf5ef-a632-4fcd-9c22-b7b45693e373","system_id":"levelo_inurba_marseille","lat":43.30806,"lon":5.3815,"is_reserved":false,"is_disabled":false,"rental_uris":{"android":"levelo://app?vid=7dbdf5ef-a632-4fcd-9c22-b7b45693e373","ios":"levelo://app?vid=7dbdf5ef-a632-4fcd-9c22-b7b45693e373"},"vehicle_type_id":"4","last_reported":1727500091,"current_range_meters":40000,"station_id":"ce4bgt12rcd13ifvqce0","pricing_plan_id":"cebpf4jnsgd1na2vs0mg"},{"bike_id":"03e8b385-e3e3-4831-b70e-8615ef15136c","system_id":"levelo_inurba_marseille","lat":43.32335,"lon":5.40621,"is_reserved":false,"is_disabled":false,"rental_uris":{"android":"levelo://app?vid=03e8b385-e3e3-4831-b70e-8615ef15136c","ios":"levelo://app?vid=03e8b385-e3e3-4831-b70e-8615ef15136c"},"vehicle_type_id":"4","last_reported":1727500091,"current_range_meters":20400,"station_id":"ce4bhq92rcd13ifvqhjg","pricing_plan_id":"cebpf4jnsgd1na2vs0mg"},{"bike_id":"31d9581d-789e-483b-ab43-a3d81f0839cd","system_id":"levelo_inurba_marseille","lat":43.23153,"lon":5.43697,"is_reserved":false,"is_disabled":false,"rental_uris":{"android":"levelo://app?vid=31d9581d-789e-483b-ab43-a3d81f0839cd","ios":"levelo://app?vid=31d9581d-789e-483b-ab43-a3d81f0839cd"},"vehicle_type_id":"4","last_reported":1727500091,"current_range_meters":17200,"station_id":"ce4bhmp2rcd13ifvqgog","pricing_plan_id":"cebpf4jnsgd1na2vs0mg"},{"bike_id":"9dee7346-672f-4cd1-a9bf-a8d391d2396f","system_id":"levelo_inurba_marseille","lat":43.29044,"lon":5.39964,"is_reserved":false,"is_disabled":false,"rental_uris":{"android":"levelo://app?vid=9dee7346-672f-4cd1-a9bf-a8d391d2396f","ios":"levelo://app?vid=9dee7346-672f-4cd1-a9bf-a8d391d2396f"},"vehicle_type_id":"4","last_reported":1727500091,"current_range_meters":30800,"station_id":"ce4bh392rcd13ifvqdm0","pricing_plan_id":"cebpf4jnsgd1na2vs0mg"},{"bike_id":"0625c2b6-ab06-4cfa-b4ae-45bbdeb320db","system_id":"levelo_inurba_marseille","lat":43.25505,"lon":5.37652,"is_reserved":false,"is_disabled":false,"rental_uris":{"android":"levelo://app?vid=0625c2b6-ab06-4cfa-b4ae-45bbdeb320db","ios":"levelo://app?vid=0625c2b6-ab06-4cfa-b4ae-45bbdeb320db"},"vehicle_type_id":"4","last_reported":1727500091,"current_range_meters":38800,"station_id":"ce4bhh12rcd13ifvqff0","pricing_plan_id":"cebpf4jnsgd1na2vs0mg"},{"bike_id":"84a5db13-483a-4bd1-be71-8719b9977afe","system_id":"levelo_inurba_marseille","lat":43.287308,"lon":5.360765,"is_reserved":false,"is_disabled":false,"rental_uris":{"android":"levelo://app?vid=84a5db13-483a-4bd1-be71-8719b9977afe","ios":"levelo://app?vid=84a5db13-483a-4bd1-be71-8719b9977afe"},"vehicle_type_id":"4","last_reported":1727500091,"current_range_meters":33600,"station_id":"cki0cbj6b192h4jlfktg","pricing_plan_id":"cebpf4jnsgd1na2vs0mg"},{"bike_id":"11738bfd-608f-40fc-82d1-7fd832783990","system_id":"levelo_inurba_marseille","lat":43.29793,"lon":5.40403,"is_reserved":false,"is_disabled":false,"rental_uris":{"android":"levelo://app?vid=11738bfd-608f-40fc-82d1-7fd832783990","ios":"levelo://app?vid=11738bfd-608f-40fc-82d1-7fd832783990"},"vehicle_type_id":"4","last_reported":1727500091,"current_range_meters":39200,"station_id":"ce4bh112rcd13ifvqd90","pricing_plan_id":"cebpf4jnsgd1na2vs0mg"},{"bike_id":"235f8823-b50d-492d-a832-69fe30775e84","system_id":"levelo_inurba_marseille","lat":43.294461,"lon":5.397504,"is_reserved":false,"is_disabled":false,"rental_uris":{"android":"levelo://app?vid=235f8823-b50d-492d-a832-69fe30775e84","ios":"levelo://app?vid=235f8823-b50d-492d-a832-69fe30775e84"},"vehicle_type_id":"4","last_reported":1727500091,"current_range_meters":39200,"station_id":"ce4bh3h2rcd13ifvqdo0","pricing_plan_id":"cebpf4jnsgd1na2vs0mg"},{"bike_id":"8aafcc38-52e6-4c9b-b7e2-481c9db22dac","system_id":"levelo_inurba_marseille","lat":43.26198,"lon":5.3793,"is_reserved":false,"is_disabled":false,"rental_uris":{"android":"levelo://app?vid=8aafcc38-52e6-4c9b-b7e2-481c9db22dac","ios":"levelo://app?vid=8aafcc38-52e6-4c9b-b7e2-481c9db22dac"},"vehicle_type_id":"4","last_reported":1727500091,"current_range_meters":38800,"station_id":"ce4bhjp2rcd13ifvqg90","pricing_plan_id":"cebpf4jnsgd1na2vs0mg"},{"bike_id":"ceda1303-8e1d-4d6f-8792-80ce6a3025d5","system_id":"levelo_inurba_marseille","lat":43.31708,"lon":5.437,"is_reserved":false,"is_disabled":false,"rental_uris":{"android":"levelo://app?vid=ceda1303-8e1d-4d6f-8792-80ce6a3025d5","ios":"levelo://app?vid=ceda1303-8e1d-4d6f-8792-80ce6a3025d5"},"vehicle_type_id":"4","last_reported":1727500091,"current_range_meters":8000,"station_id":"ce4bhp92rcd13ifvqhcg","pricing_plan_id":"cebpf4jnsgd1na2vs0mg"},{"bike_id":"c0b39f4c-0a5a-4514-b5f0-de9aa3033218","system_id":"levelo_inurba_marseille","lat":43.30308,"lon":5.36907,"is_reserved":false,"is_disabled":false,"rental_uris":{"android":"levelo://app?vid=c0b39f4c-0a5a-4514-b5f0-de9aa3033218","ios":"levelo://app?vid=c0b39f4c-0a5a-4514-b5f0-de9aa3033218"},"vehicle_type_id":"4","last_reported":1727500091,"current_range_meters":36800,"station_id":"ce4bgqh2rcd13ifvqc5g","pricing_plan_id":"cebpf4jnsgd1na2vs0mg"},{"bike_id":"2b508682-3923-4368-8915-5f54e7aa5db9","system_id":"levelo_inurba_marseille","lat":43.25499,"lon":5.37648,"is_reserved":false,"is_disabled":false,"rental_uris":{"android":"levelo://app?vid=2b508682-3923-4368-8915-5f54e7aa5db9","ios":"levelo://app?vid=2b508682-3923-4368-8915-5f54e7aa5db9"},"vehicle_type_id":"4","last_reported":1727500091,"current_range_meters":18000,"station_id":"ce4bhh12rcd13ifvqff0","pricing_plan_id":"cebpf4jnsgd1na2vs0mg"},{"bike_id":"0dddcdf0-1cf3-4d0e-bd13-6fe10fb05dbb","system_id":"levelo_inurba_marseille","lat":43.29221,"lon":5.36077,"is_reserved":false,"is_disabled":false,"rental_uris":{"android":"levelo://app?vid=0dddcdf0-1cf3-4d0e-bd13-6fe10fb05dbb","ios":"levelo://app?vid=0dddcdf0-1cf3-4d0e-bd13-6fe10fb05dbb"},"vehicle_type_id":"4","last_reported":1727500091,"current_range_meters":36000,"station_id":"ce4bhbh2rcd13ifvqeqg","pricing_plan_id":"cebpf4jnsgd1na2vs0mg"},{"bike_id":"c049a602-ba08-44c1-a4f9-1cbd185f086f","system_id":"levelo_inurba_marseille","lat":43.22928,"lon":5.3538,"is_reserved":false,"is_disabled":false,"rental_uris":{"android":"levelo://app?vid=c049a602-ba08-44c1-a4f9-1cbd185f086f","ios":"levelo://app?vid=c049a602-ba08-44c1-a4f9-1cbd185f086f"},"vehicle_type_id":"4","last_reported":1727500091,"current_range_meters":7200,"station_id":"cpo3532slgdg3j2ikp40","pricing_plan_id":"cebpf4jnsgd1na2vs0mg"},{"bike_id":"528091cb-cb75-4939-b1ac-1b00b7ffc91f","system_id":"levelo_inurba_marseille","lat":43.30932,"lon":5.40143,"is_reserved":false,"is_disabled":false,"rental_uris":{"android":"levelo://app?vid=528091cb-cb75-4939-b1ac-1b00b7ffc91f","ios":"levelo://app?vid=528091cb-cb75-4939-b1ac-1b00b7ffc91f"},"vehicle_type_id":"4","last_reported":1727500091,"current_range_meters":16800,"station_id":"ce4bgvp2rcd13ifvqct0","pricing_plan_id":"cebpf4jnsgd1na2vs0mg"},{"bike_id":"501139bd-0b6b-40af-9494-7e812e7b3314","system_id":"levelo_inurba_marseille","lat":43.30931,"lon":5.40138,"is_reserved":false,"is_disabled":false,"rental_uris":{"android":"levelo://app?vid=501139bd-0b6b-40af-9494-7e812e7b3314","ios":"levelo://app?vid=501139bd-0b6b-40af-9494-7e812e7b3314"},"vehicle_type_id":"4","last_reported":1727500091,"current_range_meters":4000,"station_id":"ce4bgvp2rcd13ifvqct0","pricing_plan_id":"cebpf4jnsgd1na2vs0mg"},{"bike_id":"55f29fbc-4112-4272-b91e-1942ae505eab","system_id":"levelo_inurba_marseille","lat":43.2848,"lon":5.38559,"is_reserved":false,"is_disabled":false,"rental_uris":{"android":"levelo://app?vid=55f29fbc-4112-4272-b91e-1942ae505eab","ios":"levelo://app?vid=55f29fbc-4112-4272-b91e-1942ae505eab"},"vehicle_type_id":"4","last_reported":1727500091,"current_range_meters":32000,"station_id":"ce4bh8p2rcd13ifvqeb0","pricing_plan_id":"cebpf4jnsgd1na2vs0mg"},{"bike_id":"f6968e19-257d-4711-96c9-3a74c25aaf24","system_id":"levelo_inurba_marseille","lat":43.27839,"lon":5.39213,"is_reserved":false,"is_disabled":false,"rental_uris":{"android":"levelo://app?vid=f6968e19-257d-4711-96c9-3a74c25aaf24","ios":"levelo://app?vid=f6968e19-257d-4711-96c9-3a74c25aaf24"},"vehicle_type_id":"4","last_reported":1727500091,"current_range_meters":38800,"station_id":"ce4bhjp2rcd13ifvqga0","pricing_plan_id":"cebpf4jnsgd1na2vs0mg"},{"bike_id":"aad61f20-8d42-4563-8131-d1f1c33dc077","system_id":"levelo_inurba_marseille","lat":43.30928,"lon":5.4014,"is_reserved":false,"is_disabled":false,"rental_uris":{"android":"levelo://app?vid=aad61f20-8d42-4563-8131-d1f1c33dc077","ios":"levelo://app?vid=aad61f20-8d42-4563-8131-d1f1c33dc077"},"vehicle_type_id":"4","last_reported":1727500091,"current_range_meters":29600,"station_id":"ce4bgvp2rcd13ifvqct0","pricing_plan_id":"cebpf4jnsgd1na2vs0mg"},{"bike_id":"eab435e6-b89d-4cdf-aa0e-050a5dab33ea","system_id":"levelo_inurba_marseille","lat":43.27951,"lon":5.4104,"is_reserved":false,"is_disabled":false,"rental_uris":{"android":"levelo://app?vid=eab435e6-b89d-4cdf-aa0e-050a5dab33ea","ios":"levelo://app?vid=eab435e6-b89d-4cdf-aa0e-050a5dab33ea"},"vehicle_type_id":"4","last_reported":1727500091,"current_range_meters":38000,"station_id":"ce4bhnp2rcd13ifvqh0g","pricing_plan_id":"cebpf4jnsgd1na2vs0mg"},{"bike_id":"652c3354-7fab-47d5-9b50-2d7a4e96974b","system_id":"levelo_inurba_marseille","lat":43.27495,"lon":5.42448,"is_reserved":false,"is_disabled":false,"rental_uris":{"android":"levelo://app?vid=652c3354-7fab-47d5-9b50-2d7a4e96974b","ios":"levelo://app?vid=652c3354-7fab-47d5-9b50-2d7a4e96974b"},"vehicle_type_id":"4","last_reported":1727500091,"current_range_meters":32800,"station_id":"ce4bhn92rcd13ifvqgrg","pricing_plan_id":"cebpf4jnsgd1na2vs0mg"},{"bike_id":"1c82b9c1-e09f-43c3-8166-9c82b0f4dcef","system_id":"levelo_inurba_marseille","lat":43.29631,"lon":5.40597,"is_reserved":false,"is_disabled":false,"rental_uris":{"android":"levelo://app?vid=1c82b9c1-e09f-43c3-8166-9c82b0f4dcef","ios":"levelo://app?vid=1c82b9c1-e09f-43c3-8166-9c82b0f4dcef"},"vehicle_type_id":"4","last_reported":1727500091,"current_range_meters":37600,"station_id":"ce4bh0h2rcd13ifvqd60","pricing_plan_id":"cebpf4jnsgd1na2vs0mg"},{"bike_id":"b13ca00a-e6ef-493d-9ec2-5f3979e8f17d","system_id":"levelo_inurba_marseille","lat":43.31124,"lon":5.37765,"is_reserved":false,"is_disabled":false,"rental_uris":{"android":"levelo://app?vid=b13ca00a-e6ef-493d-9ec2-5f3979e8f17d","ios":"levelo://app?vid=b13ca00a-e6ef-493d-9ec2-5f3979e8f17d"},"vehicle_type_id":"4","last_reported":1727500091,"current_range_meters":39200,"station_id":"ce4bgt92rcd13ifvqcg0","pricing_plan_id":"cebpf4jnsgd1na2vs0mg"},{"bike_id":"8ce4806c-bb9d-4fca-8f7a-c7ad41f52108","system_id":"levelo_inurba_marseille","lat":43.30146,"lon":5.38078,"is_reserved":false,"is_disabled":false,"rental_uris":{"android":"levelo://app?vid=8ce4806c-bb9d-4fca-8f7a-c7ad41f52108","ios":"levelo://app?vid=8ce4806c-bb9d-4fca-8f7a-c7ad41f52108"},"vehicle_type_id":"4","last_reported":1727500091,"current_range_meters":20400,"station_id":"ce4bgjp2rcd13ifvqbh0","pricing_plan_id":"cebpf4jnsgd1na2vs0mg"},{"bike_id":"cf9c2d0f-e7e3-445b-b0d9-997688481a89","system_id":"levelo_inurba_marseille","lat":43.28107,"lon":5.3784,"is_reserved":false,"is_disabled":false,"rental_uris":{"android":"levelo://app?vid=cf9c2d0f-e7e3-445b-b0d9-997688481a89","ios":"levelo://app?vid=cf9c2d0f-e7e3-445b-b0d9-997688481a89"},"vehicle_type_id":"4","last_reported":1727500091,"current_range_meters":20000,"station_id":"ce4bha12rcd13ifvqee0","pricing_plan_id":"cebpf4jnsgd1na2vs0mg"},{"bike_id":"8601292a-7b4c-4e94-8c9e-c1c4b87d9e02","system_id":"levelo_inurba_marseille","lat":43.24996,"lon":5.38935,"is_reserved":false,"is_disabled":false,"rental_uris":{"android":"levelo://app?vid=8601292a-7b4c-4e94-8c9e-c1c4b87d9e02","ios":"levelo://app?vid=8601292a-7b4c-4e94-8c9e-c1c4b87d9e02"},"vehicle_type_id":"4","last_reported":1727500091,"current_range_meters":22400,"station_id":"ce4bhgp2rcd13ifvqfd0","pricing_plan_id":"cebpf4jnsgd1na2vs0mg"},{"bike_id":"bfd55688-20c9-4730-b520-b99f0ebc45af","system_id":"levelo_inurba_marseille","lat":43.28351,"lon":5.38624,"is_reserved":false,"is_disabled":false,"rental_uris":{"android":"levelo://app?vid=bfd55688-20c9-4730-b520-b99f0ebc45af","ios":"levelo://app?vid=bfd55688-20c9-4730-b520-b99f0ebc45af"},"vehicle_type_id":"4","last_reported":1727500091,"current_range_meters":28400,"station_id":"ce4bh492rcd13ifvqdvg","pricing_plan_id":"cebpf4jnsgd1na2vs0mg"},{"bike_id":"e9776310-b20e-4114-a6b6-30f9f0cfe653","system_id":"levelo_inurba_marseille","lat":43.26024,"lon":5.3755,"is_reserved":false,"is_disabled":false,"rental_uris":{"android":"levelo://app?vid=e9776310-b20e-4114-a6b6-30f9f0cfe653","ios":"levelo://app?vid=e9776310-b20e-4114-a6b6-30f9f0cfe653"},"vehicle_type_id":"4","last_reported":1727500091,"current_range_meters":38800,"station_id":"ce4bhgh2rcd13ifvqfa0","pricing_plan_id":"cebpf4jnsgd1na2vs0mg"},{"bike_id":"d9b76706-e826-4a7c-aebc-5d53252d4306","system_id":"levelo_inurba_marseille","lat":43.24076,"lon":5.37744,"is_reserved":false,"is_disabled":false,"rental_uris":{"android":"levelo://app?vid=d9b76706-e826-4a7c-aebc-5d53252d4306","ios":"levelo://app?vid=d9b76706-e826-4a7c-aebc-5d53252d4306"},"vehicle_type_id":"4","last_reported":1727500091,"current_range_meters":16000,"station_id":"ce4bhnp2rcd13ifvqgvg","pricing_plan_id":"cebpf4jnsgd1na2vs0mg"},{"bike_id":"a322cdaa-fd0f-42de-8778-05415af2c882","system_id":"levelo_inurba_marseille","lat":43.28934,"lon":5.36395,"is_reserved":false,"is_disabled":false,"rental_uris":{"android":"levelo://app?vid=a322cdaa-fd0f-42de-8778-05415af2c882","ios":"levelo://app?vid=a322cdaa-fd0f-42de-8778-05415af2c882"},"vehicle_type_id":"4","last_reported":1727500091,"current_range_meters":38000,"station_id":"ce4bhc92rcd13ifvqetg","pricing_plan_id":"cebpf4jnsgd1na2vs0mg"},{"bike_id":"9e376e4e-65aa-4662-9b69-3208173b899e","system_id":"levelo_inurba_marseille","lat":43.31083,"lon":5.42427,"is_reserved":false,"is_disabled":false,"rental_uris":{"android":"levelo://app?vid=9e376e4e-65aa-4662-9b69-3208173b899e","ios":"levelo://app?vid=9e376e4e-65aa-4662-9b69-3208173b899e"},"vehicle_type_id":"4","last_reported":1727500091,"current_range_meters":32000,"station_id":"ce4bhp92rcd13ifvqhag","pricing_plan_id":"cebpf4jnsgd1na2vs0mg"},{"bike_id":"0701cf2a-674c-4c9d-af1e-6650acbaaf74","system_id":"levelo_inurba_marseille","lat":43.28381,"lon":5.3729,"is_reserved":false,"is_disabled":false,"rental_uris":{"android":"levelo://app?vid=0701cf2a-674c-4c9d-af1e-6650acbaaf74","ios":"levelo://app?vid=0701cf2a-674c-4c9d-af1e-6650acbaaf74"},"vehicle_type_id":"4","last_reported":1727500091,"current_range_meters":17600,"station_id":"","pricing_plan_id":"cebpf4jnsgd1na2vs0mg"},{"bike_id":"80159180-ec73-41b2-958f-918df6404d23","system_id":"levelo_inurba_marseille","lat":43.287297,"lon":5.360821,"is_reserved":false,"is_disabled":false,"rental_uris":{"android":"levelo://app?vid=80159180-ec73-41b2-958f-918df6404d23","ios":"levelo://app?vid=80159180-ec73-41b2-958f-918df6404d23"},"vehicle_type_id":"4","last_reported":1727500091,"current_range_meters":38800,"station_id":"cki0cbj6b192h4jlfktg","pricing_plan_id":"cebpf4jnsgd1na2vs0mg"},{"bike_id":"fe3b9572-5252-4889-b7d9-9488e5125850","system_id":"levelo_inurba_marseille","lat":43.30535,"lon":5.36546,"is_reserved":false,"is_disabled":false,"rental_uris":{"android":"levelo://app?vid=fe3b9572-5252-4889-b7d9-9488e5125850","ios":"levelo://app?vid=fe3b9572-5252-4889-b7d9-9488e5125850"},"vehicle_type_id":"4","last_reported":1727500091,"current_range_meters":38000,"station_id":"ce4bgs12rcd13ifvqcag","pricing_plan_id":"cebpf4jnsgd1na2vs0mg"},{"bike_id":"7b405162-9316-4dd7-991b-5827915938c6","system_id":"levelo_inurba_marseille","lat":43.30933,"lon":5.40135,"is_reserved":false,"is_disabled":false,"rental_uris":{"android":"levelo://app?vid=7b405162-9316-4dd7-991b-5827915938c6","ios":"levelo://app?vid=7b405162-9316-4dd7-991b-5827915938c6"},"vehicle_type_id":"4","last_reported":1727500091,"current_range_meters":31200,"station_id":"ce4bgvp2rcd13ifvqct0","pricing_plan_id":"cebpf4jnsgd1na2vs0mg"},{"bike_id":"0400e28f-c23a-4608-a90c-dbabc8a0dd7d","system_id":"levelo_inurba_marseille","lat":43.29553,"lon":5.42282,"is_reserved":false,"is_disabled":false,"rental_uris":{"android":"levelo://app?vid=0400e28f-c23a-4608-a90c-dbabc8a0dd7d","ios":"levelo://app?vid=0400e28f-c23a-4608-a90c-dbabc8a0dd7d"},"vehicle_type_id":"4","last_reported":1727500091,"current_range_meters":39200,"station_id":"ce4bhph2rcd13ifvqhdg","pricing_plan_id":"cebpf4jnsgd1na2vs0mg"},{"bike_id":"0d513e50-99a8-4625-821f-c7eea0169f9f","system_id":"levelo_inurba_marseille","lat":43.27946,"lon":5.41042,"is_reserved":false,"is_disabled":false,"rental_uris":{"android":"levelo://app?vid=0d513e50-99a8-4625-821f-c7eea0169f9f","ios":"levelo://app?vid=0d513e50-99a8-4625-821f-c7eea0169f9f"},"vehicle_type_id":"4","last_reported":1727500091,"current_range_meters":19200,"station_id":"ce4bhnp2rcd13ifvqh0g","pricing_plan_id":"cebpf4jnsgd1na2vs0mg"},{"bike_id":"a7e33bd6-652e-49a0-9b18-002bb9ccb3c8","system_id":"levelo_inurba_marseille","lat":43.28104,"lon":5.3785,"is_reserved":false,"is_disabled":false,"rental_uris":{"android":"levelo://app?vid=a7e33bd6-652e-49a0-9b18-002bb9ccb3c8","ios":"levelo://app?vid=a7e33bd6-652e-49a0-9b18-002bb9ccb3c8"},"vehicle_type_id":"4","last_reported":1727500091,"current_range_meters":36400,"station_id":"ce4bha12rcd13ifvqee0","pricing_plan_id":"cebpf4jnsgd1na2vs0mg"},{"bike_id":"6cdca13d-24d1-4302-912a-54d18c748242","system_id":"levelo_inurba_marseille","lat":43.31083,"lon":5.40132,"is_reserved":false,"is_disabled":false,"rental_uris":{"android":"levelo://app?vid=6cdca13d-24d1-4302-912a-54d18c748242","ios":"levelo://app?vid=6cdca13d-24d1-4302-912a-54d18c748242"},"vehicle_type_id":"4","last_reported":1727500091,"current_range_meters":10800,"station_id":"","pricing_plan_id":"cebpf4jnsgd1na2vs0mg"},{"bike_id":"5be5c2cd-3f9f-486f-a58b-98a7040b04e7","system_id":"levelo_inurba_marseille","lat":43.28841,"lon":5.35853,"is_reserved":false,"is_disabled":false,"rental_uris":{"android":"levelo://app?vid=5be5c2cd-3f9f-486f-a58b-98a7040b04e7","ios":"levelo://app?vid=5be5c2cd-3f9f-486f-a58b-98a7040b04e7"},"vehicle_type_id":"4","last_reported":1727500091,"current_range_meters":28000,"station_id":"ce4bhb12rcd13ifvqem0","pricing_plan_id":"cebpf4jnsgd1na2vs0mg"},{"bike_id":"093c990c-4ffd-449c-ac18-aeecffb3b446","system_id":"levelo_inurba_marseille","lat":43.30935,"lon":5.40149,"is_reserved":false,"is_disabled":false,"rental_uris":{"android":"levelo://app?vid=093c990c-4ffd-449c-ac18-aeecffb3b446","ios":"levelo://app?vid=093c990c-4ffd-449c-ac18-aeecffb3b446"},"vehicle_type_id":"4","last_reported":1727500091,"current_range_meters":34800,"station_id":"ce4bgvp2rcd13ifvqct0","pricing_plan_id":"cebpf4jnsgd1na2vs0mg"},{"bike_id":"586c7af6-59a2-4ea8-a333-1bbdfa664b6f","system_id":"levelo_inurba_marseille","lat":43.28707,"lon":5.37388,"is_reserved":false,"is_disabled":false,"rental_uris":{"android":"levelo://app?vid=586c7af6-59a2-4ea8-a333-1bbdfa664b6f","ios":"levelo://app?vid=586c7af6-59a2-4ea8-a333-1bbdfa664b6f"},"vehicle_type_id":"4","last_reported":1727500091,"current_range_meters":38400,"station_id":"ce4bh3p2rcd13ifvqdq0","pricing_plan_id":"cebpf4jnsgd1na2vs0mg"},{"bike_id":"14d59267-90f3-4be2-b29f-da7643f74e94","system_id":"levelo_inurba_marseille","lat":43.2848,"lon":5.38562,"is_reserved":false,"is_disabled":false,"rental_uris":{"android":"levelo://app?vid=14d59267-90f3-4be2-b29f-da7643f74e94","ios":"levelo://app?vid=14d59267-90f3-4be2-b29f-da7643f74e94"},"vehicle_type_id":"4","last_reported":1727500091,"current_range_meters":10800,"station_id":"ce4bh8p2rcd13ifvqeb0","pricing_plan_id":"cebpf4jnsgd1na2vs0mg"},{"bike_id":"7f31b7c3-4a3b-43de-afc0-d4cf26796b63","system_id":"levelo_inurba_marseille","lat":43.27947,"lon":5.41046,"is_reserved":false,"is_disabled":false,"rental_uris":{"android":"levelo://app?vid=7f31b7c3-4a3b-43de-afc0-d4cf26796b63","ios":"levelo://app?vid=7f31b7c3-4a3b-43de-afc0-d4cf26796b63"},"vehicle_type_id":"4","last_reported":1727500091,"current_range_meters":34800,"station_id":"ce4bhnp2rcd13ifvqh0g","pricing_plan_id":"cebpf4jnsgd1na2vs0mg"},{"bike_id":"da2e7afb-45a7-4193-9960-716c0aa1657b","system_id":"levelo_inurba_marseille","lat":43.322861,"lon":5.382701,"is_reserved":false,"is_disabled":false,"rental_uris":{"android":"levelo://app?vid=da2e7afb-45a7-4193-9960-716c0aa1657b","ios":"levelo://app?vid=da2e7afb-45a7-4193-9960-716c0aa1657b"},"vehicle_type_id":"4","last_reported":1727500091,"current_range_meters":38000,"station_id":"ce4bhr12rcd13ifvqhqg","pricing_plan_id":"cebpf4jnsgd1na2vs0mg"},{"bike_id":"4a6f2003-a1b5-448e-b421-a64ab7e273f7","system_id":"levelo_inurba_marseille","lat":43.29719,"lon":5.37685,"is_reserved":false,"is_disabled":false,"rental_uris":{"android":"levelo://app?vid=4a6f2003-a1b5-448e-b421-a64ab7e273f7","ios":"levelo://app?vid=4a6f2003-a1b5-448e-b421-a64ab7e273f7"},"vehicle_type_id":"4","last_reported":1727500091,"current_range_meters":38000,"station_id":"ce4bgkh2rcd13ifvqbl0","pricing_plan_id":"cebpf4jnsgd1na2vs0mg"},{"bike_id":"fb1212c8-2f28-4a72-9053-120fa00a7e48","system_id":"levelo_inurba_marseille","lat":43.24072,"lon":5.377548,"is_reserved":false,"is_disabled":false,"rental_uris":{"android":"levelo://app?vid=fb1212c8-2f28-4a72-9053-120fa00a7e48","ios":"levelo://app?vid=fb1212c8-2f28-4a72-9053-120fa00a7e48"},"vehicle_type_id":"4","last_reported":1727500091,"current_range_meters":27200,"station_id":"ce4bhnp2rcd13ifvqgvg","pricing_plan_id":"cebpf4jnsgd1na2vs0mg"},{"bike_id":"dbab5e16-0de9-4389-932d-06a62d667144","system_id":"levelo_inurba_marseille","lat":43.25829,"lon":5.39424,"is_reserved":false,"is_disabled":false,"rental_uris":{"android":"levelo://app?vid=dbab5e16-0de9-4389-932d-06a62d667144","ios":"levelo://app?vid=dbab5e16-0de9-4389-932d-06a62d667144"},"vehicle_type_id":"4","last_reported":1727500091,"current_range_meters":38000,"station_id":"ce4bhip2rcd13ifvqft0","pricing_plan_id":"cebpf4jnsgd1na2vs0mg"},{"bike_id":"808e2a76-3583-4020-998e-63ef8bb4f2f9","system_id":"levelo_inurba_marseille","lat":43.31995,"lon":5.38152,"is_reserved":false,"is_disabled":false,"rental_uris":{"android":"levelo://app?vid=808e2a76-3583-4020-998e-63ef8bb4f2f9","ios":"levelo://app?vid=808e2a76-3583-4020-998e-63ef8bb4f2f9"},"vehicle_type_id":"4","last_reported":1727500091,"current_range_meters":24400,"station_id":"ce4bhr12rcd13ifvqhpg","pricing_plan_id":"cebpf4jnsgd1na2vs0mg"},{"bike_id":"b9cd4885-6618-49ae-b6e3-10480ada383c","system_id":"levelo_inurba_marseille","lat":43.28278,"lon":5.35066,"is_reserved":false,"is_disabled":false,"rental_uris":{"android":"levelo://app?vid=b9cd4885-6618-49ae-b6e3-10480ada383c","ios":"levelo://app?vid=b9cd4885-6618-49ae-b6e3-10480ada383c"},"vehicle_type_id":"4","last_reported":1727500091,"current_range_meters":39200,"station_id":"ce4bhbp2rcd13ifvqerg","pricing_plan_id":"cebpf4jnsgd1na2vs0mg"},{"bike_id":"6a2f08cc-9150-438d-81da-fa7401719320","system_id":"levelo_inurba_marseille","lat":43.28412,"lon":5.37515,"is_reserved":false,"is_disabled":false,"rental_uris":{"android":"levelo://app?vid=6a2f08cc-9150-438d-81da-fa7401719320","ios":"levelo://app?vid=6a2f08cc-9150-438d-81da-fa7401719320"},"vehicle_type_id":"4","last_reported":1727500091,"current_range_meters":16000,"station_id":"ce4bh412rcd13ifvqds0","pricing_plan_id":"cebpf4jnsgd1na2vs0mg"},{"bike_id":"3407da71-e9f5-4375-9956-506983640a2f","system_id":"levelo_inurba_marseille","lat":43.28997,"lon":5.37583,"is_reserved":false,"is_disabled":false,"rental_uris":{"android":"levelo://app?vid=3407da71-e9f5-4375-9956-506983640a2f","ios":"levelo://app?vid=3407da71-e9f5-4375-9956-506983640a2f"},"vehicle_type_id":"4","last_reported":1727500091,"current_range_meters":30000,"station_id":"ce4bh692rcd13ifvqe90","pricing_plan_id":"cebpf4jnsgd1na2vs0mg"},{"bike_id":"3ce8f235-35b7-48c7-bb63-72b7c7f282ea","system_id":"levelo_inurba_marseille","lat":43.30935,"lon":5.40144,"is_reserved":false,"is_disabled":false,"rental_uris":{"android":"levelo://app?vid=3ce8f235-35b7-48c7-bb63-72b7c7f282ea","ios":"levelo://app?vid=3ce8f235-35b7-48c7-bb63-72b7c7f282ea"},"vehicle_type_id":"4","last_reported":1727500091,"current_range_meters":36800,"station_id":"ce4bgvp2rcd13ifvqct0","pricing_plan_id":"cebpf4jnsgd1na2vs0mg"},{"bike_id":"d1816f99-4ea4-47ef-9f69-3283c0e15ea7","system_id":"levelo_inurba_marseille","lat":43.25813,"lon":5.39432,"is_reserved":false,"is_disabled":false,"rental_uris":{"android":"levelo://app?vid=d1816f99-4ea4-47ef-9f69-3283c0e15ea7","ios":"levelo://app?vid=d1816f99-4ea4-47ef-9f69-3283c0e15ea7"},"vehicle_type_id":"4","last_reported":1727500091,"current_range_meters":32000,"station_id":"ce4bhip2rcd13ifvqft0","pricing_plan_id":"cebpf4jnsgd1na2vs0mg"},{"bike_id":"b6fdf2ed-623a-49a6-9825-a142aed5f8b8","system_id":"levelo_inurba_marseille","lat":43.30883,"lon":5.39634,"is_reserved":false,"is_disabled":false,"rental_uris":{"android":"levelo://app?vid=b6fdf2ed-623a-49a6-9825-a142aed5f8b8","ios":"levelo://app?vid=b6fdf2ed-623a-49a6-9825-a142aed5f8b8"},"vehicle_type_id":"4","last_reported":1727500091,"current_range_meters":36400,"station_id":"ce4bh012rcd13ifvqcv0","pricing_plan_id":"cebpf4jnsgd1na2vs0mg"},{"bike_id":"e3ee7d5b-bd0b-4d4d-a3e6-11e8cd23caf2","system_id":"levelo_inurba_marseille","lat":43.281522,"lon":5.426283,"is_reserved":false,"is_disabled":false,"rental_uris":{"android":"levelo://app?vid=e3ee7d5b-bd0b-4d4d-a3e6-11e8cd23caf2","ios":"levelo://app?vid=e3ee7d5b-bd0b-4d4d-a3e6-11e8cd23caf2"},"vehicle_type_id":"4","last_reported":1727500091,"current_range_meters":35200,"station_id":"ce4bhnh2rcd13ifvqgug","pricing_plan_id":"cebpf4jnsgd1na2vs0mg"},{"bike_id":"6aef5a81-a5ad-4f4d-985f-48222fd2a7f9","system_id":"levelo_inurba_marseille","lat":43.28932,"lon":5.36632,"is_reserved":false,"is_disabled":false,"rental_uris":{"android":"levelo://app?vid=6aef5a81-a5ad-4f4d-985f-48222fd2a7f9","ios":"levelo://app?vid=6aef5a81-a5ad-4f4d-985f-48222fd2a7f9"},"vehicle_type_id":"4","last_reported":1727500091,"current_range_meters":38800,"station_id":"ce4bhap2rcd13ifvqek0","pricing_plan_id":"cebpf4jnsgd1na2vs0mg"},{"bike_id":"ddd3400b-618a-48cf-a3f2-c37dd01ba9b9","system_id":"levelo_inurba_marseille","lat":43.3093,"lon":5.40139,"is_reserved":false,"is_disabled":false,"rental_uris":{"android":"levelo://app?vid=ddd3400b-618a-48cf-a3f2-c37dd01ba9b9","ios":"levelo://app?vid=ddd3400b-618a-48cf-a3f2-c37dd01ba9b9"},"vehicle_type_id":"4","last_reported":1727500091,"current_range_meters":16800,"station_id":"ce4bgvp2rcd13ifvqct0","pricing_plan_id":"cebpf4jnsgd1na2vs0mg"},{"bike_id":"d5adb0e7-a184-462e-8337-990c66f58ad7","system_id":"levelo_inurba_marseille","lat":43.33025,"lon":5.39043,"is_reserved":false,"is_disabled":false,"rental_uris":{"android":"levelo://app?vid=d5adb0e7-a184-462e-8337-990c66f58ad7","ios":"levelo://app?vid=d5adb0e7-a184-462e-8337-990c66f58ad7"},"vehicle_type_id":"4","last_reported":1727500091,"current_range_meters":34000,"station_id":"ce4bhr92rcd13ifvqhrg","pricing_plan_id":"cebpf4jnsgd1na2vs0mg"},{"bike_id":"a708805a-bfe0-439e-945e-3d1829abae2f","system_id":"levelo_inurba_marseille","lat":43.2586,"lon":5.39901,"is_reserved":false,"is_disabled":false,"rental_uris":{"android":"levelo://app?vid=a708805a-bfe0-439e-945e-3d1829abae2f","ios":"levelo://app?vid=a708805a-bfe0-439e-945e-3d1829abae2f"},"vehicle_type_id":"4","last_reported":1727500091,"current_range_meters":6400,"station_id":"ce4bhl92rcd13ifvqghg","pricing_plan_id":"cebpf4jnsgd1na2vs0mg"},{"bike_id":"e1251b7b-4d94-42e6-9b33-ad1d5aa3da3e","system_id":"levelo_inurba_marseille","lat":43.280814,"lon":5.396618,"is_reserved":false,"is_disabled":false,"rental_uris":{"android":"levelo://app?vid=e1251b7b-4d94-42e6-9b33-ad1d5aa3da3e","ios":"levelo://app?vid=e1251b7b-4d94-42e6-9b33-ad1d5aa3da3e"},"vehicle_type_id":"4","last_reported":1727500091,"current_range_meters":36000,"station_id":"ce4bho12rcd13ifvqh2g","pricing_plan_id":"cebpf4jnsgd1na2vs0mg"},{"bike_id":"b4601108-7fce-4d0d-a512-a9020302390e","system_id":"levelo_inurba_marseille","lat":43.30436,"lon":5.3888,"is_reserved":false,"is_disabled":false,"rental_uris":{"android":"levelo://app?vid=b4601108-7fce-4d0d-a512-a9020302390e","ios":"levelo://app?vid=b4601108-7fce-4d0d-a512-a9020302390e"},"vehicle_type_id":"4","last_reported":1727500091,"current_range_meters":30400,"station_id":"ce4bgk12rcd13ifvqbi0","pricing_plan_id":"cebpf4jnsgd1na2vs0mg"},{"bike_id":"e91ba66d-f732-4e7e-ace3-faaa088642a7","system_id":"levelo_inurba_marseille","lat":43.2963,"lon":5.40599,"is_reserved":false,"is_disabled":false,"rental_uris":{"android":"levelo://app?vid=e91ba66d-f732-4e7e-ace3-faaa088642a7","ios":"levelo://app?vid=e91ba66d-f732-4e7e-ace3-faaa088642a7"},"vehicle_type_id":"4","last_reported":1727500091,"current_range_meters":38000,"station_id":"ce4bh0h2rcd13ifvqd60","pricing_plan_id":"cebpf4jnsgd1na2vs0mg"},{"bike_id":"2385a768-acc4-4bca-b380-589c0719e15d","system_id":"levelo_inurba_marseille","lat":43.28463,"lon":5.35887,"is_reserved":false,"is_disabled":false,"rental_uris":{"android":"levelo://app?vid=2385a768-acc4-4bca-b380-589c0719e15d","ios":"levelo://app?vid=2385a768-acc4-4bca-b380-589c0719e15d"},"vehicle_type_id":"4","last_reported":1727500091,"current_range_meters":38800,"station_id":"ce4bhah2rcd13ifvqei0","pricing_plan_id":"cebpf4jnsgd1na2vs0mg"},{"bike_id":"e70e8252-4776-489c-b71e-9dfda14555b2","system_id":"levelo_inurba_marseille","lat":43.28107,"lon":5.37833,"is_reserved":false,"is_disabled":false,"rental_uris":{"android":"levelo://app?vid=e70e8252-4776-489c-b71e-9dfda14555b2","ios":"levelo://app?vid=e70e8252-4776-489c-b71e-9dfda14555b2"},"vehicle_type_id":"4","last_reported":1727500091,"current_range_meters":8000,"station_id":"ce4bha12rcd13ifvqee0","pricing_plan_id":"cebpf4jnsgd1na2vs0mg"},{"bike_id":"2d79c7e6-a03e-45fe-b335-3078291f8f45","system_id":"levelo_inurba_marseille","lat":43.29309,"lon":5.37464,"is_reserved":false,"is_disabled":false,"rental_uris":{"android":"levelo://app?vid=2d79c7e6-a03e-45fe-b335-3078291f8f45","ios":"levelo://app?vid=2d79c7e6-a03e-45fe-b335-3078291f8f45"},"vehicle_type_id":"4","last_reported":1727500091,"current_range_meters":38800,"station_id":"ce4bgi12rcd13ifvqb70","pricing_plan_id":"cebpf4jnsgd1na2vs0mg"},{"bike_id":"0c3f0369-7cdf-4cba-a0db-09435ab8c8da","system_id":"levelo_inurba_marseille","lat":43.23189,"lon":5.39986,"is_reserved":false,"is_disabled":false,"rental_uris":{"android":"levelo://app?vid=0c3f0369-7cdf-4cba-a0db-09435ab8c8da","ios":"levelo://app?vid=0c3f0369-7cdf-4cba-a0db-09435ab8c8da"},"vehicle_type_id":"4","last_reported":1727500091,"current_range_meters":32800,"station_id":"ce4bhn12rcd13ifvqgqg","pricing_plan_id":"cebpf4jnsgd1na2vs0mg"},{"bike_id":"27fb3ff7-6c22-4845-a062-d71b8d0c8e22","system_id":"levelo_inurba_marseille","lat":43.33602,"lon":5.41031,"is_reserved":false,"is_disabled":false,"rental_uris":{"android":"levelo://app?vid=27fb3ff7-6c22-4845-a062-d71b8d0c8e22","ios":"levelo://app?vid=27fb3ff7-6c22-4845-a062-d71b8d0c8e22"},"vehicle_type_id":"4","last_reported":1727500091,"current_range_meters":30000,"station_id":"ce4bhqh2rcd13ifvqhmg","pricing_plan_id":"cebpf4jnsgd1na2vs0mg"},{"bike_id":"5bbd2505-51dc-451e-8388-5c62e078114a","system_id":"levelo_inurba_marseille","lat":43.24182,"lon":5.39737,"is_reserved":false,"is_disabled":false,"rental_uris":{"android":"levelo://app?vid=5bbd2505-51dc-451e-8388-5c62e078114a","ios":"levelo://app?vid=5bbd2505-51dc-451e-8388-5c62e078114a"},"vehicle_type_id":"4","last_reported":1727500091,"current_range_meters":40000,"station_id":"ce4bhn12rcd13ifvqgpg","pricing_plan_id":"cebpf4jnsgd1na2vs0mg"},{"bike_id":"8cc6420e-9ed0-4fab-ae82-860344d30ea8","system_id":"levelo_inurba_marseille","lat":43.317547,"lon":5.390219,"is_reserved":false,"is_disabled":false,"rental_uris":{"android":"levelo://app?vid=8cc6420e-9ed0-4fab-ae82-860344d30ea8","ios":"levelo://app?vid=8cc6420e-9ed0-4fab-ae82-860344d30ea8"},"vehicle_type_id":"4","last_reported":1727500091,"current_range_meters":38400,"station_id":"ce4bhqp2rcd13ifvqhng","pricing_plan_id":"cebpf4jnsgd1na2vs0mg"},{"bike_id":"bc20af5c-be7b-4c51-b09b-2e170ca1b5b9","system_id":"levelo_inurba_marseille","lat":43.25487,"lon":5.37647,"is_reserved":false,"is_disabled":false,"rental_uris":{"android":"levelo://app?vid=bc20af5c-be7b-4c51-b09b-2e170ca1b5b9","ios":"levelo://app?vid=bc20af5c-be7b-4c51-b09b-2e170ca1b5b9"},"vehicle_type_id":"4","last_reported":1727500091,"current_range_meters":38400,"station_id":"ce4bhh12rcd13ifvqff0","pricing_plan_id":"cebpf4jnsgd1na2vs0mg"},{"bike_id":"03af8350-a5f2-42f1-9a40-a313e4daf477","system_id":"levelo_inurba_marseille","lat":43.23189,"lon":5.39986,"is_reserved":false,"is_disabled":false,"rental_uris":{"android":"levelo://app?vid=03af8350-a5f2-42f1-9a40-a313e4daf477","ios":"levelo://app?vid=03af8350-a5f2-42f1-9a40-a313e4daf477"},"vehicle_type_id":"4","last_reported":1727500091,"current_range_meters":10000,"station_id":"ce4bhn12rcd13ifvqgqg","pricing_plan_id":"cebpf4jnsgd1na2vs0mg"},{"bike_id":"1fcb118d-7d26-44f0-85eb-4de17245c9eb","system_id":"levelo_inurba_marseille","lat":43.29263,"lon":5.3844,"is_reserved":false,"is_disabled":false,"rental_uris":{"android":"levelo://app?vid=1fcb118d-7d26-44f0-85eb-4de17245c9eb","ios":"levelo://app?vid=1fcb118d-7d26-44f0-85eb-4de17245c9eb"},"vehicle_type_id":"4","last_reported":1727500091,"current_range_meters":38400,"station_id":"ce4bh692rcd13ifvqea0","pricing_plan_id":"cebpf4jnsgd1na2vs0mg"},{"bike_id":"d8e32f1c-4c32-4777-922d-4d90b15b71c7","system_id":"levelo_inurba_marseille","lat":43.30863,"lon":5.3685,"is_reserved":false,"is_disabled":false,"rental_uris":{"android":"levelo://app?vid=d8e32f1c-4c32-4777-922d-4d90b15b71c7","ios":"levelo://app?vid=d8e32f1c-4c32-4777-922d-4d90b15b71c7"},"vehicle_type_id":"4","last_reported":1727500091,"current_range_meters":11600,"station_id":"ce4bgn92rcd13ifvqbvg","pricing_plan_id":"cebpf4jnsgd1na2vs0mg"},{"bike_id":"06f62eff-144c-42e8-9cda-03a811e02320","system_id":"levelo_inurba_marseille","lat":43.27488,"lon":5.42457,"is_reserved":false,"is_disabled":false,"rental_uris":{"android":"levelo://app?vid=06f62eff-144c-42e8-9cda-03a811e02320","ios":"levelo://app?vid=06f62eff-144c-42e8-9cda-03a811e02320"},"vehicle_type_id":"4","last_reported":1727500091,"current_range_meters":36400,"station_id":"ce4bhn92rcd13ifvqgrg","pricing_plan_id":"cebpf4jnsgd1na2vs0mg"},{"bike_id":"b470945e-f45c-4291-ac95-d7061c9aab44","system_id":"levelo_inurba_marseille","lat":43.27357,"lon":5.41221,"is_reserved":false,"is_disabled":false,"rental_uris":{"android":"levelo://app?vid=b470945e-f45c-4291-ac95-d7061c9aab44","ios":"levelo://app?vid=b470945e-f45c-4291-ac95-d7061c9aab44"},"vehicle_type_id":"4","last_reported":1727500091,"current_range_meters":29600,"station_id":"","pricing_plan_id":"cebpf4jnsgd1na2vs0mg"},