{"last_updated":1701896808,"ttl":30,"version":"2.2","data":{"bikes":[{"bike_id":"dbccd2c8-4719-48fd-977b-0da9e0a42a5f","system_id":"levelo_inurba_marseille","lat":43.309076,"lon":5.368465,"is_reserved":false,"is_disabled":false,"rental_uris":{"android":"levelo://app?vid=dbccd2c8-4719-48fd-977b-0da9e0a42a5f","ios":"levelo://app?vid=dbccd2c8-4719-48fd-977b-0da9e0a42a5f"},"vehicle_type_id":"4","last_reported":1701896809,"current_range_meters":19600,"station_id":"ce4bgn92rcd13ifvqbvg","pricing_plan_id":"free"},{"bike_id":"b9e4ed01-0dbb-47ca-9f39-08ddd24f6b11","system_id":"levelo_inurba_marseille","lat":43.31371,"lon":5.37618,"is_reserved":false,"is_disabled":false,"rental_uris":{"android":"levelo://app?vid=b9e4ed01-0dbb-47ca-9f39-08ddd24f6b11","ios":"levelo://app?vid=b9e4ed01-0dbb-47ca-9f39-08ddd24f6b11"},"vehicle_type_id":"4","last_reported":1701896809,"current_range_meters":26400,"station_id":"","pricing_plan_id":"free"},{"bike_id":"442744e5-6e05-4a3a-8100-e5706c1241d3","system_id":"levelo_inurba_marseille","lat":43.30545,"lon":5.36552,"is_reserved":false,"is_disabled":false,"rental_uris":{"android":"levelo://app?vid=442744e5-6e05-4a3a-8100-e5706c1241d3","ios":"levelo://app?vid=442744e5-6e05-4a3a-8100-e5706c1241d3"},"vehicle_type_id":"4","last_reported":1701896809,"current_range_meters":21600,"station_id":"ce4bgs12rcd13ifvqcag","pricing_plan_id":"free"},{"bike_id":"5db0459c-216c-4f4f-9ed7-d9055cc88165","system_id":"levelo_inurba_marseille","lat":43.305368,"lon":5.367343,"is_reserved":false,"is_disabled":false,"rental_uris":{"android":"levelo://app?vid=5db0459c-216c-4f4f-9ed7-d9055cc88165","ios":"levelo://app?vid=5db0459c-216c-4f4f-9ed7-d9055cc88165"},"vehicle_type_id":"4","last_reported":1701896809,"current_range_meters":800,"station_id":"ce4bgrp2rcd13ifvqc9g","pricing_plan_id":"free"},{"bike_id":"00fd0414-f335-4b45-86db-e3ab2591728b","system_id":"levelo_inurba_marseille","lat":43.305706,"lon":5.365654,"is_reserved":false,"is_disabled":false,"rental_uris":{"android":"levelo://app?vid=00fd0414-f335-4b45-86db-e3ab2591728b","ios":"levelo://app?vid=00fd0414-f335-4b45-86db-e3ab2591728b"},"vehicle_type_id":"4","last_reported":1701896809,"current_range_meters":22400,"station_id":"ce4bgs12rcd13ifvqcag","pricing_plan_id":"free"},{"bike_id":"8fdd5e03-fdd3-41b1-86aa-d0ac72c6013f","system_id":"levelo_inurba_marseille","lat":43.305989,"lon":5.37225,"is_reserved":false,"is_disabled":false,"rental_uris":{"android":"levelo://app?vid=8fdd5e03-fdd3-41b1-86aa-d0ac72c6013f","ios":"levelo://app?vid=8fdd5e03-fdd3-41b1-86aa-d0ac72c6013f"},"vehicle_type_id":"4","last_reported":1701896809,"current_range_meters":11200,"station_id":"ce4bgqh2rcd13ifvqc4g","pricing_plan_id":"free"},{"bike_id":"435c747c-b8f5-4b28-8412-38c0907521ec","system_id":"levelo_inurba_marseille","lat":43.305989,"lon":5.37225,"is_reserved":false,"is_disabled":false,"rental_uris":{"android":"levelo://app?vid=435c747c-b8f5-4b28-8412-38c0907521ec","ios":"levelo://app?vid=435c747c-b8f5-4b28-8412-38c0907521ec"},"vehicle_type_id":"4","last_reported":1701896809,"current_range_meters":15200,"station_id":"ce4bgqh2rcd13ifvqc4g","pricing_plan_id":"free"},{"bike_id":"1f38c06b-6876-42ca-9eca-98783f232dee","system_id":"levelo_inurba_marseille","lat":43.305989,"lon":5.37225,"is_reserved":false,"is_disabled":false,"rental_uris":{"android":"levelo://app?vid=1f38c06b-6876-42ca-9eca-98783f232dee","ios":"levelo://app?vid=1f38c06b-6876-42ca-9eca-98783f232dee"},"vehicle_type_id":"4","last_reported":1701896809,"current_range_meters":800,"station_id":"ce4bgqh2rcd13ifvqc4g","pricing_plan_id":"free"},{"bike_id":"7f8455e3-bd83-41cb-a0a8-a11dbf6970cd","system_id":"levelo_inurba_marseille","lat":43.305989,"lon":5.37225,"is_reserved":false,"is_disabled":false,"rental_uris":{"android":"levelo://app?vid=7f8455e3-bd83-41cb-a0a8-a11dbf6970cd","ios":"levelo://app?vid=7f8455e3-bd83-41cb-a0a8-a11dbf6970cd"},"vehicle_type_id":"4","last_reported":1701896809,"current_range_meters":16400,"station_id":"ce4bgqh2rcd13ifvqc4g","pricing_plan_id":"free"},{"bike_id":"3a578191-6f1e-4a3d-9c82-2683572bb26d","system_id":"levelo_inurba_marseille","lat":43.319237,"lon":5.37299,"is_reserved":false,"is_disabled":false,"rental_uris":{"android":"levelo://app?vid=3a578191-6f1e-4a3d-9c82-2683572bb26d","ios":"levelo://app?vid=3a578191-6f1e-4a3d-9c82-2683572bb26d"},"vehicle_type_id":"4","last_reported":1701896809,"current_range_meters":0,"station_id":"","pricing_plan_id":"free"},{"bike_id":"4acc24d5-4cd8-4014-b332-c13fda0162ea","system_id":"levelo_inurba_marseille","lat":43.307945,"lon":5.376487,"is_reserved":false,"is_disabled":false,"rental_uris":{"android":"levelo://app?vid=4acc24d5-4cd8-4014-b332-c13fda0162ea","ios":"levelo://app?vid=4acc24d5-4cd8-4014-b332-c13fda0162ea"},"vehicle_type_id":"4","last_reported":1701896809,"current_range_meters":17200,"station_id":"ce4bgv92rcd13ifvqcq0","pricing_plan_id":"free"},{"bike_id":"39df4156-c382-4e30-a3ba-0ff98a2ca94c","system_id":"levelo_inurba_marseille","lat":43.307945,"lon":5.376487,"is_reserved":false,"is_disabled":false,"rental_uris":{"android":"levelo://app?vid=39df4156-c382-4e30-a3ba-0ff98a2ca94c","ios":"levelo://app?vid=39df4156-c382-4e30-a3ba-0ff98a2ca94c"},"vehicle_type_id":"4","last_reported":1701896809,"current_range_meters":3200,"station_id":"ce4bgv92rcd13ifvqcq0","pricing_plan_id":"free"},{"bike_id":"adf146c5-e4e1-4668-9a33-042940925130","system_id":"levelo_inurba_marseille","lat":43.31351,"lon":5.37909,"is_reserved":false,"is_disabled":false,"rental_uris":{"android":"levelo://app?vid=adf146c5-e4e1-4668-9a33-042940925130","ios":"levelo://app?vid=adf146c5-e4e1-4668-9a33-042940925130"},"vehicle_type_id":"4","last_reported":1701896809,"current_range_meters":5200,"station_id":"","pricing_plan_id":"free"},{"bike_id":"c58a2089-b67f-42c5-ac7a-21fc01aff172","system_id":"levelo_inurba_marseille","lat":43.32227,"lon":5.36855,"is_reserved":false,"is_disabled":false,"rental_uris":{"android":"levelo://app?vid=c58a2089-b67f-42c5-ac7a-21fc01aff172","ios":"levelo://app?vid=c58a2089-b67f-42c5-ac7a-21fc01aff172"},"vehicle_type_id":"4","last_reported":1701896809,"current_range_meters":4000,"station_id":"","pricing_plan_id":"free"},{"bike_id":"d8f45822-ab5b-4053-912b-2aafe2c16b08","system_id":"levelo_inurba_marseille","lat":43.301939,"lon":5.366286,"is_reserved":false,"is_disabled":false,"rental_uris":{"android":"levelo://app?vid=d8f45822-ab5b-4053-912b-2aafe2c16b08","ios":"levelo://app?vid=d8f45822-ab5b-4053-912b-2aafe2c16b08"},"vehicle_type_id":"4","last_reported":1701896809,"current_range_meters":15600,"station_id":"ce4bgrh2rcd13ifvqc8g","pricing_plan_id":"free"},{"bike_id":"1ea60f58-75f7-4484-b705-1156df4b02ad","system_id":"levelo_inurba_marseille","lat":43.302833,"lon":5.373373,"is_reserved":false,"is_disabled":false,"rental_uris":{"android":"levelo://app?vid=1ea60f58-75f7-4484-b705-1156df4b02ad","ios":"levelo://app?vid=1ea60f58-75f7-4484-b705-1156df4b02ad"},"vehicle_type_id":"4","last_reported":1701896809,"current_range_meters":7600,"station_id":"","pricing_plan_id":"free"},{"bike_id":"869cc380-7af1-4035-869d-ad2afc9490bb","system_id":"levelo_inurba_marseille","lat":43.304539,"lon":5.379082,"is_reserved":false,"is_disabled":false,"rental_uris":{"android":"levelo://app?vid=869cc380-7af1-4035-869d-ad2afc9490bb","ios":"levelo://app?vid=869cc380-7af1-4035-869d-ad2afc9490bb"},"vehicle_type_id":"4","last_reported":1701896809,"current_range_meters":10000,"station_id":"ce4bgup2rcd13ifvqcn0","pricing_plan_id":"free"},{"bike_id":"e6a7946c-a7d5-4369-b254-577b631c8d1a","system_id":"levelo_inurba_marseille","lat":43.31719,"lon":5.38246,"is_reserved":false,"is_disabled":false,"rental_uris":{"android":"levelo://app?vid=e6a7946c-a7d5-4369-b254-577b631c8d1a","ios":"levelo://app?vid=e6a7946c-a7d5-4369-b254-577b631c8d1a"},"vehicle_type_id":"4","last_reported":1701896809,"current_range_meters":26000,"station_id":"","pricing_plan_id":"free"},{"bike_id":"44b639d4-c394-49b2-9e18-6098ae373bd6","system_id":"levelo_inurba_marseille","lat":43.31919,"lon":5.38121,"is_reserved":false,"is_disabled":false,"rental_uris":{"android":"levelo://app?vid=44b639d4-c394-49b2-9e18-6098ae373bd6","ios":"levelo://app?vid=44b639d4-c394-49b2-9e18-6098ae373bd6"},"vehicle_type_id":"4","last_reported":1701896809,"current_range_meters":30000,"station_id":"","pricing_plan_id":"free"},{"bike_id":"997be212-dffb-4096-89c5-eb989d979e9e","system_id":"levelo_inurba_marseille","lat":43.30143,"lon":5.37413,"is_reserved":false,"is_disabled":false,"rental_uris":{"android":"levelo://app?vid=997be212-dffb-4096-89c5-eb989d979e9e","ios":"levelo://app?vid=997be212-dffb-4096-89c5-eb989d979e9e"},"vehicle_type_id":"4","last_reported":1701896809,"current_range_meters":30000,"station_id":"ce4bgs92rcd13ifvqcc0","pricing_plan_id":"free"},{"bike_id":"72714644-a730-462a-b220-6837667c5de6","system_id":"levelo_inurba_marseille","lat":43.32524,"lon":5.36853,"is_reserved":false,"is_disabled":false,"rental_uris":{"android":"levelo://app?vid=72714644-a730-462a-b220-6837667c5de6","ios":"levelo://app?vid=72714644-a730-462a-b220-6837667c5de6"},"vehicle_type_id":"4","last_reported":1701896809,"current_range_meters":27600,"station_id":"","pricing_plan_id":"free"},{"bike_id":"4ef92b0c-7bc0-4274-9e89-465dd9c41028","system_id":"levelo_inurba_marseille","lat":43.301429,"lon":5.37413,"is_reserved":false,"is_disabled":false,"rental_uris":{"android":"levelo://app?vid=4ef92b0c-7bc0-4274-9e89-465dd9c41028","ios":"levelo://app?vid=4ef92b0c-7bc0-4274-9e89-465dd9c41028"},"vehicle_type_id":"4","last_reported":1701896809,"current_range_meters":20400,"station_id":"ce4bgs92rcd13ifvqcc0","pricing_plan_id":"free"},{"bike_id":"6f1a7f4d-a1d9-47fc-8be2-19cb7f99daaf","system_id":"levelo_inurba_marseille","lat":43.31996,"lon":5.38153,"is_reserved":false,"is_disabled":false,"rental_uris":{"android":"levelo://app?vid=6f1a7f4d-a1d9-47fc-8be2-19cb7f99daaf","ios":"levelo://app?vid=6f1a7f4d-a1d9-47fc-8be2-19cb7f99daaf"},"vehicle_type_id":"4","last_reported":1701896809,"current_range_meters":25200,"station_id":"ce4bhr12rcd13ifvqhpg","pricing_plan_id":"free"},{"bike_id":"9ee0ef7a-8d9c-4d78-8ae5-64e12b708d26","system_id":"levelo_inurba_marseille","lat":43.319997,"lon":5.381594,"is_reserved":false,"is_disabled":false,"rental_uris":{"android":"levelo://app?vid=9ee0ef7a-8d9c-4d78-8ae5-64e12b708d26","ios":"levelo://app?vid=9ee0ef7a-8d9c-4d78-8ae5-64e12b708d26"},"vehicle_type_id":"4","last_reported":1701896809,"current_range_meters":0,"station_id":"ce4bhr12rcd13ifvqhpg","pricing_plan_id":"free"},{"bike_id":"6bbc4704-bdb7-485a-b657-3e670f011673","system_id":"levelo_inurba_marseille","lat":43.30574,"lon":5.38394,"is_reserved":false,"is_disabled":false,"rental_uris":{"android":"levelo://app?vid=6bbc4704-bdb7-485a-b657-3e670f011673","ios":"levelo://app?vid=6bbc4704-bdb7-485a-b657-3e670f011673"},"vehicle_type_id":"4","last_reported":1701896809,"current_range_meters":0,"station_id":"ce4bgg92rcd13ifvqb30","pricing_plan_id":"free"},{"bike_id":"dcfcce41-8840-4a9c-b046-ec8f2f9d33dc","system_id":"levelo_inurba_marseille","lat":43.311722,"lon":5.387247,"is_reserved":false,"is_disabled":false,"rental_uris":{"android":"levelo://app?vid=dcfcce41-8840-4a9c-b046-ec8f2f9d33dc","ios":"levelo://app?vid=dcfcce41-8840-4a9c-b046-ec8f2f9d33dc"},"vehicle_type_id":"4","last_reported":1701896809,"current_range_meters":18800,"station_id":"ce4bgv12rcd13ifvqcp0","pricing_plan_id":"free"},{"bike_id":"37d198fe-a0c5-49c0-abff-5edaa5409675","system_id":"levelo_inurba_marseille","lat":43.299243,"lon":5.37481,"is_reserved":false,"is_disabled":false,"rental_uris":{"android":"levelo://app?vid=37d198fe-a0c5-49c0-abff-5edaa5409675","ios":"levelo://app?vid=37d198fe-a0c5-49c0-abff-5edaa5409675"},"vehicle_type_id":"4","last_reported":1701896809,"current_range_meters":25200,"station_id":"ce4bgjh2rcd13ifvqbg0","pricing_plan_id":"free"},{"bike_id":"ba91e27a-a02e-445d-9df7-fb8e0cc45030","system_id":"levelo_inurba_marseille","lat":43.299243,"lon":5.37481,"is_reserved":false,"is_disabled":false,"rental_uris":{"android":"levelo://app?vid=ba91e27a-a02e-445d-9df7-fb8e0cc45030","ios":"levelo://app?vid=ba91e27a-a02e-445d-9df7-fb8e0cc45030"},"vehicle_type_id":"4","last_reported":1701896809,"current_range_meters":7200,"station_id":"ce4bgjh2rcd13ifvqbg0","pricing_plan_id":"free"},{"bike_id":"cf9cac76-eb44-4109-ae11-c2c37f059853","system_id":"levelo_inurba_marseille","lat":43.311722,"lon":5.387247,"is_reserved":false,"is_disabled":false,"rental_uris":{"android":"levelo://app?vid=cf9cac76-eb44-4109-ae11-c2c37f059853","ios":"levelo://app?vid=cf9cac76-eb44-4109-ae11-c2c37f059853"},"vehicle_type_id":"4","last_reported":1701896809,"current_range_meters":6000,"station_id":"ce4bgv12rcd13ifvqcp0","pricing_plan_id":"free"},{"bike_id":"01a5f12b-ea60-4b50-b51b-7141b2ef8953","system_id":"levelo_inurba_marseille","lat":43.311722,"lon":5.387247,"is_reserved":false,"is_disabled":false,"rental_uris":{"android":"levelo://app?vid=01a5f12b-ea60-4b50-b51b-7141b2ef8953","ios":"levelo://app?vid=01a5f12b-ea60-4b50-b51b-7141b2ef8953"},"vehicle_type_id":"4","last_reported":1701896809,"current_range_meters":30000,"station_id":"ce4bgv12rcd13ifvqcp0","pricing_plan_id":"free"},{"bike_id":"15821f2b-2f2f-4c35-ab85-c0e3c84aca59","system_id":"levelo_inurba_marseille","lat":43.297794,"lon":5.370888,"is_reserved":false,"is_disabled":false,"rental_uris":{"android":"levelo://app?vid=15821f2b-2f2f-4c35-ab85-c0e3c84aca59","ios":"levelo://app?vid=15821f2b-2f2f-4c35-ab85-c0e3c84aca59"},"vehicle_type_id":"4","last_reported":1701896809,"current_range_meters":30000,"station_id":"ce4bgop2rcd13ifvqc1g","pricing_plan_id":"free"},{"bike_id":"ccd2930a-694b-4f68-b635-18c1f22abb51","system_id":"levelo_inurba_marseille","lat":43.322872,"lon":5.382756,"is_reserved":false,"is_disabled":false,"rental_uris":{"android":"levelo://app?vid=ccd2930a-694b-4f68-b635-18c1f22abb51","ios":"levelo://app?vid=ccd2930a-694b-4f68-b635-18c1f22abb51"},"vehicle_type_id":"4","last_reported":1701896809,"current_range_meters":31200,"station_id":"ce4bhr12rcd13ifvqhqg","pricing_plan_id":"free"},{"bike_id":"e162cb92-ec88-4378-922d-c24222956199","system_id":"levelo_inurba_marseille","lat":43.322872,"lon":5.382756,"is_reserved":false,"is_disabled":false,"rental_uris":{"android":"levelo://app?vid=e162cb92-ec88-4378-922d-c24222956199","ios":"levelo://app?vid=e162cb92-ec88-4378-922d-c24222956199"},"vehicle_type_id":"4","last_reported":1701896809,"current_range_meters":24400,"station_id":"ce4bhr12rcd13ifvqhqg","pricing_plan_id":"free"},{"bike_id":"55ccc96c-fa12-43da-ace3-cf5d15fb5429","system_id":"levelo_inurba_marseille","lat":43.298218,"lon":5.374416,"is_reserved":false,"is_disabled":false,"rental_uris":{"android":"levelo://app?vid=55ccc96c-fa12-43da-ace3-cf5d15fb5429","ios":"levelo://app?vid=55ccc96c-fa12-43da-ace3-cf5d15fb5429"},"vehicle_type_id":"4","last_reported":1701896809,"current_range_meters":12400,"station_id":"","pricing_plan_id":"free"},{"bike_id":"cce15627-0bb6-4c03-b21c-33120a200a2a","system_id":"levelo_inurba_marseille","lat":43.297163,"lon":5.365866,"is_reserved":false,"is_disabled":false,"rental_uris":{"android":"levelo://app?vid=cce15627-0bb6-4c03-b21c-33120a200a2a","ios":"levelo://app?vid=cce15627-0bb6-4c03-b21c-33120a200a2a"},"vehicle_type_id":"4","last_reported":1701896809,"current_range_meters":24400,"station_id":"ce4bgn12rcd13ifvqbt0","pricing_plan_id":"free"},{"bike_id":"2424b203-2bfa-46d0-8b7b-b616d11edac6","system_id":"levelo_inurba_marseille","lat":43.328408,"lon":5.362365,"is_reserved":false,"is_disabled":false,"rental_uris":{"android":"levelo://app?vid=2424b203-2bfa-46d0-8b7b-b616d11edac6","ios":"levelo://app?vid=2424b203-2bfa-46d0-8b7b-b616d11edac6"},"vehicle_type_id":"4","last_reported":1701896809,"current_range_meters":7600,"station_id":"","pricing_plan_id":"free"},{"bike_id":"94007754-7055-4e9f-884b-a69ad1a23f33","system_id":"levelo_inurba_marseille","lat":43.298936,"lon":5.378254,"is_reserved":false,"is_disabled":false,"rental_uris":{"android":"levelo://app?vid=94007754-7055-4e9f-884b-a69ad1a23f33","ios":"levelo://app?vid=94007754-7055-4e9f-884b-a69ad1a23f33"},"vehicle_type_id":"4","last_reported":1701896809,"current_range_meters":22000,"station_id":"","pricing_plan_id":"free"},{"bike_id":"92dc65d6-6823-4de3-93d4-056f738f090c","system_id":"levelo_inurba_marseille","lat":43.316538,"lon":5.38954,"is_reserved":false,"is_disabled":false,"rental_uris":{"android":"levelo://app?vid=92dc65d6-6823-4de3-93d4-056f738f090c","ios":"levelo://app?vid=92dc65d6-6823-4de3-93d4-056f738f090c"},"vehicle_type_id":"4","last_reported":1701896809,"current_range_meters":8000,"station_id":"","pricing_plan_id":"free"},{"bike_id":"d79dc411-c12e-477e-b399-2166fe047bf2","system_id":"levelo_inurba_marseille","lat":43.299028,"lon":5.381509,"is_reserved":false,"is_disabled":false,"rental_uris":{"android":"levelo://app?vid=d79dc411-c12e-477e-b399-2166fe047bf2","ios":"levelo://app?vid=d79dc411-c12e-477e-b399-2166fe047bf2"},"vehicle_type_id":"4","last_reported":1701896809,"current_range_meters":1600,"station_id":"ce4bgj12rcd13ifvqbc0","pricing_plan_id":"free"},{"bike_id":"2c1986b2-b7c2-4af7-b67a-7bd61b44dc85","system_id":"levelo_inurba_marseille","lat":43.29735,"lon":5.3785,"is_reserved":false,"is_disabled":false,"rental_uris":{"android":"levelo://app?vid=2c1986b2-b7c2-4af7-b67a-7bd61b44dc85","ios":"levelo://app?vid=2c1986b2-b7c2-4af7-b67a-7bd61b44dc85"},"vehicle_type_id":"4","last_reported":1701896809,"current_range_meters":0,"station_id":"","pricing_plan_id":"free"},{"bike_id":"12daa09a-f553-48e2-8ccb-f63937d96b85","system_id":"levelo_inurba_marseille","lat":43.317557,"lon":5.390173,"is_reserved":false,"is_disabled":false,"rental_uris":{"android":"levelo://app?vid=12daa09a-f553-48e2-8ccb-f63937d96b85","ios":"levelo://app?vid=12daa09a-f553-48e2-8ccb-f63937d96b85"},"vehicle_type_id":"4","last_reported":1701896809,"current_range_meters":25600,"station_id":"ce4bhqp2rcd13ifvqhng","pricing_plan_id":"free"},{"bike_id":"0b4be79c-26a4-49d5-8df4-33bdf529db75","system_id":"levelo_inurba_marseille","lat":43.29601,"lon":5.381084,"is_reserved":false,"is_disabled":false,"rental_uris":{"android":"levelo://app?vid=0b4be79c-26a4-49d5-8df4-33bdf529db75","ios":"levelo://app?vid=0b4be79c-26a4-49d5-8df4-33bdf529db75"},"vehicle_type_id":"4","last_reported":1701896809,"current_range_meters":28800,"station_id":"ce4bgl12rcd13ifvqbo0","pricing_plan_id":"free"},{"bike_id":"72ea6385-fc9d-4606-ac6e-fc5d186f7d6d","system_id":"levelo_inurba_marseille","lat":43.30594,"lon":5.39353,"is_reserved":false,"is_disabled":false,"rental_uris":{"android":"levelo://app?vid=72ea6385-fc9d-4606-ac6e-fc5d186f7d6d","ios":"levelo://app?vid=72ea6385-fc9d-4606-ac6e-fc5d186f7d6d"},"vehicle_type_id":"4","last_reported":1701896809,"current_range_meters":9600,"station_id":"ce4bh0p2rcd13ifvqd80","pricing_plan_id":"free"},{"bike_id":"b945721d-6fcc-4f9a-a530-cb3d1d3c1efe","system_id":"levelo_inurba_marseille","lat":43.305994,"lon":5.393687,"is_reserved":false,"is_disabled":false,"rental_uris":{"android":"levelo://app?vid=b945721d-6fcc-4f9a-a530-cb3d1d3c1efe","ios":"levelo://app?vid=b945721d-6fcc-4f9a-a530-cb3d1d3c1efe"},"vehicle_type_id":"4","last_reported":1701896809,"current_range_meters":9600,"station_id":"ce4bh0p2rcd13ifvqd80","pricing_plan_id":"free"},{"bike_id":"3e2d8ae4-7747-48cc-a77d-c92db6e0b71a","system_id":"levelo_inurba_marseille","lat":43.313291,"lon":5.396838,"is_reserved":false,"is_disabled":false,"rental_uris":{"android":"levelo://app?vid=3e2d8ae4-7747-48cc-a77d-c92db6e0b71a","ios":"levelo://app?vid=3e2d8ae4-7747-48cc-a77d-c92db6e0b71a"},"vehicle_type_id":"4","last_reported":1701896809,"current_range_meters":1200,"station_id":"ce4bgvp2rcd13ifvqcu0","pricing_plan_id":"free"},{"bike_id":"f933def7-c07d-45b0-8542-d8994d9378d8","system_id":"levelo_inurba_marseille","lat":43.31324,"lon":5.39694,"is_reserved":false,"is_disabled":false,"rental_uris":{"android":"levelo://app?vid=f933def7-c07d-45b0-8542-d8994d9378d8","ios":"levelo://app?vid=f933def7-c07d-45b0-8542-d8994d9378d8"},"vehicle_type_id":"4","last_reported":1701896809,"current_range_meters":800,"station_id":"ce4bgvp2rcd13ifvqcu0","pricing_plan_id":"free"},{"bike_id":"31bfb267-e273-46b3-b757-8342584a9719","system_id":"levelo_inurba_marseille","lat":43.309038,"lon":5.396546,"is_reserved":false,"is_disabled":false,"rental_uris":{"android":"levelo://app?vid=31bfb267-e273-46b3-b757-8342584a9719","ios":"levelo://app?vid=31bfb267-e273-46b3-b757-8342584a9719"},"vehicle_type_id":"4","last_reported":1701896809,"current_range_meters":14400,"station_id":"ce4bh012rcd13ifvqcv0","pricing_plan_id":"free"},{"bike_id":"c3214d1c-1f46-40ef-bf0c-14c9b2e13438","system_id":"levelo_inurba_marseille","lat":43.290624,"lon":5.359245,"is_reserved":false,"is_disabled":false,"rental_uris":{"android":"levelo://app?vid=c3214d1c-1f46-40ef-bf0c-14c9b2e13438","ios":"levelo://app?vid=c3214d1c-1f46-40ef-bf0c-14c9b2e13438"},"vehicle_type_id":"4","last_reported":1701896809,"current_range_meters":0,"station_id":"ce4bha92rcd13ifvqeg0","pricing_plan_id":"free"},{"bike_id":"01bd8474-381a-4efd-a326-b246b5f06534","system_id":"levelo_inurba_marseille","lat":43.290631,"lon":5.359244,"is_reserved":false,"is_disabled":false,"rental_uris":{"android":"levelo://app?vid=01bd8474-381a-4efd-a326-b246b5f06534","ios":"levelo://app?vid=01bd8474-381a-4efd-a326-b246b5f06534"},"vehicle_type_id":"4","last_reported":1701896809,"current_range_meters":20000,"station_id":"ce4bha92rcd13ifvqeg0","pricing_plan_id":"free"},{"bike_id":"3064e109-eb3d-4a09-8719-c2aff4a3b2d3","system_id":"levelo_inurba_marseille","lat":43.294153,"lon":5.386305,"is_reserved":false,"is_disabled":false,"rental_uris":{"android":"levelo://app?vid=3064e109-eb3d-4a09-8719-c2aff4a3b2d3","ios":"levelo://app?vid=3064e109-eb3d-4a09-8719-c2aff4a3b2d3"},"vehicle_type_id":"4","last_reported":1701896809,"current_range_meters":2800,"station_id":"ce4bh2h2rcd13ifvqdh0","pricing_plan_id":"free"},{"bike_id":"a243c6e5-b807-48fb-bcfb-795556e4042e","system_id":"levelo_inurba_marseille","lat":43.294162,"lon":5.386292,"is_reserved":false,"is_disabled":false,"rental_uris":{"android":"levelo://app?vid=a243c6e5-b807-48fb-bcfb-795556e4042e","ios":"levelo://app?vid=a243c6e5-b807-48fb-bcfb-795556e4042e"},"vehicle_type_id":"4","last_reported":1701896809,"current_range_meters":400,"station_id":"ce4bh2h2rcd13ifvqdh0","pricing_plan_id":"free"},{"bike_id":"bc4886f2-f704-4400-b8c6-b6b91e448ad8","system_id":"levelo_inurba_marseille","lat":43.289184,"lon":5.366408,"is_reserved":false,"is_disabled":false,"rental_uris":{"android":"levelo://app?vid=bc4886f2-f704-4400-b8c6-b6b91e448ad8","ios":"levelo://app?vid=bc4886f2-f704-4400-b8c6-b6b91e448ad8"},"vehicle_type_id":"4","last_reported":1701896809,"current_range_meters":0,"station_id":"ce4bhap2rcd13ifvqek0","pricing_plan_id":"free"},{"bike_id":"b1d3bd38-a58e-4fa1-8a74-565d884c5ea3","system_id":"levelo_inurba_marseille","lat":43.289184,"lon":5.366408,"is_reserved":false,"is_disabled":false,"rental_uris":{"android":"levelo://app?vid=b1d3bd38-a58e-4fa1-8a74-565d884c5ea3","ios":"levelo://app?vid=b1d3bd38-a58e-4fa1-8a74-565d884c5ea3"},"vehicle_type_id":"4","last_reported":1701896809,"current_range_meters":30800,"station_id":"ce4bhap2rcd13ifvqek0","pricing_plan_id":"free"},{"bike_id":"4c9cfb53-e8ab-474b-b66d-6ab6a8b9a939","system_id":"levelo_inurba_marseille","lat":43.289184,"lon":5.366408,"is_reserved":false,"is_disabled":false,"rental_uris":{"android":"levelo://app?vid=4c9cfb53-e8ab-474b-b66d-6ab6a8b9a939","ios":"levelo://app?vid=4c9cfb53-e8ab-474b-b66d-6ab6a8b9a939"},"vehicle_type_id":"4","last_reported":1701896809,"current_range_meters":19200,"station_id":"ce4bhap2rcd13ifvqek0","pricing_plan_id":"free"},{"bike_id":"ad9a28b4-f454-492e-8dc9-bab39e422c8e","system_id":"levelo_inurba_marseille","lat":43.289184,"lon":5.366408,"is_reserved":false,"is_disabled":false,"rental_uris":{"android":"levelo://app?vid=ad9a28b4-f454-492e-8dc9-bab39e422c8e","ios":"levelo://app?vid=ad9a28b4-f454-492e-8dc9-bab39e422c8e"},"vehicle_type_id":"4","last_reported":1701896809,"current_range_meters":31600,"station_id":"ce4bhap2rcd13ifvqek0","pricing_plan_id":"free"},{"bike_id":"a02a1b20-1fb1-4951-988a-77389649024d","system_id":"levelo_inurba_marseille","lat":43.289259,"lon":5.366364,"is_reserved":false,"is_disabled":false,"rental_uris":{"android":"levelo://app?vid=a02a1b20-1fb1-4951-988a-77389649024d","ios":"levelo://app?vid=a02a1b20-1fb1-4951-988a-77389649024d"},"vehicle_type_id":"4","last_reported":1701896809,"current_range_meters":22400,"station_id":"","pricing_plan_id":"free"},{"bike_id":"74e8b9ae-3a7e-4511-8ed8-c0c1501e15d7","system_id":"levelo_inurba_marseille","lat":43.29778,"lon":5.39335,"is_reserved":false,"is_disabled":false,"rental_uris":{"android":"levelo://app?vid=74e8b9ae-3a7e-4511-8ed8-c0c1501e15d7","ios":"levelo://app?vid=74e8b9ae-3a7e-4511-8ed8-c0c1501e15d7"},"vehicle_type_id":"4","last_reported":1701896809,"current_range_meters":11200,"station_id":"chh1huq6cuj3fo74tm60","pricing_plan_id":"free"},{"bike_id":"b7b382cc-3e3d-4a00-a10d-5bea686d1958","system_id":"levelo_inurba_marseille","lat":43.29781,"lon":5.39339,"is_reserved":false,"is_disabled":false,"rental_uris":{"android":"levelo://app?vid=b7b382cc-3e3d-4a00-a10d-5bea686d1958","ios":"levelo://app?vid=b7b382cc-3e3d-4a00-a10d-5bea686d1958"},"vehicle_type_id":"4","last_reported":1701896809,"current_range_meters":5600,"station_id":"chh1huq6cuj3fo74tm60","pricing_plan_id":"free"},{"bike_id":"120471e9-e35a-47de-846a-877fe673d625","system_id":"levelo_inurba_marseille","lat":43.295169,"lon":5.390426,"is_reserved":false,"is_disabled":false,"rental_uris":{"android":"levelo://app?vid=120471e9-e35a-47de-846a-877fe673d625","ios":"levelo://app?vid=120471e9-e35a-47de-846a-877fe673d625"},"vehicle_type_id":"4","last_reported":1701896809,"current_range_meters":14000,"station_id":"ce4bh3p2rcd13ifvqdp0","pricing_plan_id":"free"},{"bike_id":"b197cbe7-a489-43b4-926b-b2f71fd3eb65","system_id":"levelo_inurba_marseille","lat":43.297815,"lon":5.393548,"is_reserved":false,"is_disabled":false,"rental_uris":{"android":"levelo://app?vid=b197cbe7-a489-43b4-926b-b2f71fd3eb65","ios":"levelo://app?vid=b197cbe7-a489-43b4-926b-b2f71fd3eb65"},"vehicle_type_id":"4","last_reported":1701896809,"current_range_meters":11600,"station_id":"chh1huq6cuj3fo74tm60","pricing_plan_id":"free"},{"bike_id":"ca437ccf-dbf4-4ef3-9703-f8b319707eaa","system_id":"levelo_inurba_marseille","lat":43.297815,"lon":5.393548,"is_reserved":false,"is_disabled":false,"rental_uris":{"android":"levelo://app?vid=ca437ccf-dbf4-4ef3-9703-f8b319707eaa","ios":"levelo://app?vid=ca437ccf-dbf4-4ef3-9703-f8b319707eaa"},"vehicle_type_id":"4","last_reported":1701896809,"current_range_meters":26800,"station_id":"chh1huq6cuj3fo74tm60","pricing_plan_id":"free"},{"bike_id":"214a1680-e88b-485a-b8f9-4aa616edc2ed","system_id":"levelo_inurba_marseille","lat":43.28856,"lon":5.358371,"is_reserved":false,"is_disabled":false,"rental_uris":{"android":"levelo://app?vid=214a1680-e88b-485a-b8f9-4aa616edc2ed","ios":"levelo://app?vid=214a1680-e88b-485a-b8f9-4aa616edc2ed"},"vehicle_type_id":"4","last_reported":1701896809,"current_range_meters":0,"station_id":"ce4bhb12rcd13ifvqem0","pricing_plan_id":"free"},{"bike_id":"806b8ce0-a64a-435f-9e88-3c6928c838ce","system_id":"levelo_inurba_marseille","lat":43.309371,"lon":5.401449,"is_reserved":false,"is_disabled":false,"rental_uris":{"android":"levelo://app?vid=806b8ce0-a64a-435f-9e88-3c6928c838ce","ios":"levelo://app?vid=806b8ce0-a64a-435f-9e88-3c6928c838ce"},"vehicle_type_id":"4","last_reported":1701896809,"current_range_meters":1600,"station_id":"ce4bgvp2rcd13ifvqct0","pricing_plan_id":"free"},{"bike_id":"4034bbc8-0c62-4b6c-84b3-217f09603cda","system_id":"levelo_inurba_marseille","lat":43.3092,"lon":5.40141,"is_reserved":false,"is_disabled":false,"rental_uris":{"android":"levelo://app?vid=4034bbc8-0c62-4b6c-84b3-217f09603cda","ios":"levelo://app?vid=4034bbc8-0c62-4b6c-84b3-217f09603cda"},"vehicle_type_id":"4","last_reported":1701896809,"current_range_meters":20800,"station_id":"ce4bgvp2rcd13ifvqct0","pricing_plan_id":"free"},{"bike_id":"aeece79b-f2b4-4904-a42f-f20e8d30b241","system_id":"levelo_inurba_marseille","lat":43.30928,"lon":5.40143,"is_reserved":false,"is_disabled":false,"rental_uris":{"android":"levelo://app?vid=aeece79b-f2b4-4904-a42f-f20e8d30b241","ios":"levelo://app?vid=aeece79b-f2b4-4904-a42f-f20e8d30b241"},"vehicle_type_id":"4","last_reported":1701896809,"current_range_meters":22000,"station_id":"ce4bgvp2rcd13ifvqct0","pricing_plan_id":"free"},{"bike_id":"3dcc588a-3007-4d42-8cd2-6bb0abb7cb8c","system_id":"levelo_inurba_marseille","lat":43.309371,"lon":5.401449,"is_reserved":false,"is_disabled":false,"rental_uris":{"android":"levelo://app?vid=3dcc588a-3007-4d42-8cd2-6bb0abb7cb8c","ios":"levelo://app?vid=3dcc588a-3007-4d42-8cd2-6bb0abb7cb8c"},"vehicle_type_id":"4","last_reported":1701896809,"current_range_meters":0,"station_id":"ce4bgvp2rcd13ifvqct0","pricing_plan_id":"free"},{"bike_id":"44c1b1b2-0973-4870-b46d-f2780c9c18c7","system_id":"levelo_inurba_marseille","lat":43.33749,"lon":5.37463,"is_reserved":false,"is_disabled":false,"rental_uris":{"android":"levelo://app?vid=44c1b1b2-0973-4870-b46d-f2780c9c18c7","ios":"levelo://app?vid=44c1b1b2-0973-4870-b46d-f2780c9c18c7"},"vehicle_type_id":"4","last_reported":1701896809,"current_range_meters":20800,"station_id":"","pricing_plan_id":"free"},{"bike_id":"e3ac798c-6343-43ea-9327-13ff9d258c8c","system_id":"levelo_inurba_marseille","lat":43.337463,"lon":5.374796,"is_reserved":false,"is_disabled":false,"rental_uris":{"android":"levelo://app?vid=e3ac798c-6343-43ea-9327-13ff9d258c8c","ios":"levelo://app?vid=e3ac798c-6343-43ea-9327-13ff9d258c8c"},"vehicle_type_id":"4","last_reported":1701896809,"current_range_meters":30400,"station_id":"","pricing_plan_id":"free"},{"bike_id":"c1dbbc09-0034-45ec-8bd0-52d9f84cbcd2","system_id":"levelo_inurba_marseille","lat":43.337515,"lon":5.374499,"is_reserved":false,"is_disabled":false,"rental_uris":{"android":"levelo://app?vid=c1dbbc09-0034-45ec-8bd0-52d9f84cbcd2","ios":"levelo://app?vid=c1dbbc09-0034-45ec-8bd0-52d9f84cbcd2"},"vehicle_type_id":"4","last_reported":1701896809,"current_range_meters":30800,"station_id":"","pricing_plan_id":"free"},{"bike_id":"822605d2-7494-4f1f-8e85-7b21a1e83420","system_id":"levelo_inurba_marseille","lat":43.337509,"lon":5.37473,"is_reserved":false,"is_disabled":false,"rental_uris":{"android":"levelo://app?vid=822605d2-7494-4f1f-8e85-7b21a1e83420","ios":"levelo://app?vid=822605d2-7494-4f1f-8e85-7b21a1e83420"},"vehicle_type_id":"4","last_reported":1701896809,"current_range_meters":22800,"station_id":"","pricing_plan_id":"free"},{"bike_id":"736de286-1827-490e-9b81-8542a82e14a5","system_id":"levelo_inurba_marseille","lat":43.33749,"lon":5.37492,"is_reserved":false,"is_disabled":false,"rental_uris":{"android":"levelo://app?vid=736de286-1827-490e-9b81-8542a82e14a5","ios":"levelo://app?vid=736de286-1827-490e-9b81-8542a82e14a5"},"vehicle_type_id":"4","last_reported":1701896809,"current_range_meters":24400,"station_id":"","pricing_plan_id":"free"},{"bike_id":"c414c01b-a2f8-498a-b878-2b9e16cb8f02","system_id":"levelo_inurba_marseille","lat":43.3376,"lon":5.37439,"is_reserved":false,"is_disabled":false,"rental_uris":{"android":"levelo://app?vid=c414c01b-a2f8-498a-b878-2b9e16cb8f02","ios":"levelo://app?vid=c414c01b-a2f8-498a-b878-2b9e16cb8f02"},"vehicle_type_id":"4","last_reported":1701896809,"current_range_meters":28000,"station_id":"","pricing_plan_id":"free"},{"bike_id":"c7696395-4b6d-47c6-ba5e-ed97d58bdf6e","system_id":"levelo_inurba_marseille","lat":43.337579,"lon":5.374603,"is_reserved":false,"is_disabled":false,"rental_uris":{"android":"levelo://app?vid=c7696395-4b6d-47c6-ba5e-ed97d58bdf6e","ios":"levelo://app?vid=c7696395-4b6d-47c6-ba5e-ed97d58bdf6e"},"vehicle_type_id":"4","last_reported":1701896809,"current_range_meters":27200,"station_id":"","pricing_plan_id":"free"},{"bike_id":"8a54f192-34c1-4b84-b2dd-9be8f8e35ad9","system_id":"levelo_inurba_marseille","lat":43.337677,"lon":5.374835,"is_reserved":false,"is_disabled":false,"rental_uris":{"android":"levelo://app?vid=8a54f192-34c1-4b84-b2dd-9be8f8e35ad9","ios":"levelo://app?vid=8a54f192-34c1-4b84-b2dd-9be8f8e35ad9"},"vehicle_type_id":"4","last_reported":1701896809,"current_range_meters":29200,"station_id":"","pricing_plan_id":"free"},{"bike_id":"204a9fbb-891c-4391-a8fc-33da3f6cf344","system_id":"levelo_inurba_marseille","lat":43.337776,"lon":5.374406,"is_reserved":false,"is_disabled":false,"rental_uris":{"android":"levelo://app?vid=204a9fbb-891c-4391-a8fc-33da3f6cf344","ios":"levelo://app?vid=204a9fbb-891c-4391-a8fc-33da3f6cf344"},"vehicle_type_id":"4","last_reported":1701896809,"current_range_meters":21200,"station_id":"","pricing_plan_id":"free"},{"bike_id":"77baf9e4-e62f-4fcd-a545-b2783ff91d42","system_id":"levelo_inurba_marseille","lat":43.29041,"lon":5.399634,"is_reserved":false,"is_disabled":false,"rental_uris":{"android":"levelo://app?vid=77baf9e4-e62f-4fcd-a545-b2783ff91d42","ios":"levelo://app?vid=77baf9e4-e62f-4fcd-a545-b2783ff91d42"},"vehicle_type_id":"4","last_reported":1701896809,"current_range_meters":23200,"station_id":"ce4bh392rcd13ifvqdm0","pricing_plan_id":"free"},{"bike_id":"38a24fda-26d3-4707-98ec-5c9de2c5b50f","system_id":"levelo_inurba_marseille","lat":43.301117,"lon":5.398795,"is_reserved":false,"is_disabled":false,"rental_uris":{"android":"levelo://app?vid=38a24fda-26d3-4707-98ec-5c9de2c5b50f","ios":"levelo://app?vid=38a24fda-26d3-4707-98ec-5c9de2c5b50f"},"vehicle_type_id":"4","last_reported":1701896809,"current_range_meters":6000,"station_id":"ce4bh0h2rcd13ifvqd40","pricing_plan_id":"free"},{"bike_id":"9ad1b85b-8021-4766-ba02-49178e086ddc","system_id":"levelo_inurba_marseille","lat":43.28727,"lon":5.36078,"is_reserved":false,"is_disabled":false,"rental_uris":{"android":"levelo://app?vid=9ad1b85b-8021-4766-ba02-49178e086ddc","ios":"levelo://app?vid=9ad1b85b-8021-4766-ba02-49178e086ddc"},"vehicle_type_id":"4","last_reported":1701896809,"current_range_meters":24800,"station_id":"cki0cbj6b192h4jlfktg","pricing_plan_id":"free"},{"bike_id":"1ab10416-68e5-4c23-9fdb-54ab6c528f9b","system_id":"levelo_inurba_marseille","lat":43.286961,"lon":5.373785,"is_reserved":false,"is_disabled":false,"rental_uris":{"android":"levelo://app?vid=1ab10416-68e5-4c23-9fdb-54ab6c528f9b","ios":"levelo://app?vid=1ab10416-68e5-4c23-9fdb-54ab6c528f9b"},"vehicle_type_id":"4","last_reported":1701896809,"current_range_meters":25600,"station_id":"ce4bh3p2rcd13ifvqdq0","pricing_plan_id":"free"},{"bike_id":"920a6c24-9740-46b4-8d5c-2b4cc6d81fe6","system_id":"levelo_inurba_marseille","lat":43.286978,"lon":5.373756,"is_reserved":false,"is_disabled":false,"rental_uris":{"android":"levelo://app?vid=920a6c24-9740-46b4-8d5c-2b4cc6d81fe6","ios":"levelo://app?vid=920a6c24-9740-46b4-8d5c-2b4cc6d81fe6"},"vehicle_type_id":"4","last_reported":1701896809,"current_range_meters":1200,"station_id":"ce4bhap2rcd13ifvqek0","pricing_plan_id":"free"},{"bike_id":"2b4ec5e6-c166-461a-a704-7a041c20cec5","system_id":"levelo_inurba_marseille","lat":43.286591,"lon":5.363346,"is_reserved":false,"is_disabled":false,"rental_uris":{"android":"levelo://app?vid=2b4ec5e6-c166-461a-a704-7a041c20cec5","ios":"levelo://app?vid=2b4ec5e6-c166-461a-a704-7a041c20cec5"},"vehicle_type_id":"4","last_reported":1701896809,"current_range_meters":26400,"station_id":"ce4bhah2rcd13ifvqej0","pricing_plan_id":"free"},{"bike_id":"c2e65f08-5996-446d-85b3-3f29e84300af","system_id":"levelo_inurba_marseille","lat":43.286961,"lon":5.373785,"is_reserved":false,"is_disabled":false,"rental_uris":{"android":"levelo://app?vid=c2e65f08-5996-446d-85b3-3f29e84300af","ios":"levelo://app?vid=c2e65f08-5996-446d-85b3-3f29e84300af"},"vehicle_type_id":"4","last_reported":1701896809,"current_range_meters":28400,"station_id":"ce4bh3p2rcd13ifvqdq0","pricing_plan_id":"free"},{"bike_id":"f64b745e-188b-4266-abdf-0b1745b340c0","system_id":"levelo_inurba_marseille","lat":43.286591,"lon":5.363346,"is_reserved":false,"is_disabled":false,"rental_uris":{"android":"levelo://app?vid=f64b745e-188b-4266-abdf-0b1745b340c0","ios":"levelo://app?vid=f64b745e-188b-4266-abdf-0b1745b340c0"},"vehicle_type_id":"4","last_reported":1701896809,"current_range_meters":30800,"station_id":"ce4bhah2rcd13ifvqej0","pricing_plan_id":"free"},{"bike_id":"a6eac9af-9742-40a9-9b41-ebb204662b27","system_id":"levelo_inurba_marseille","lat":43.290345,"lon":5.38646,"is_reserved":false,"is_disabled":false,"rental_uris":{"android":"levelo://app?vid=a6eac9af-9742-40a9-9b41-ebb204662b27","ios":"levelo://app?vid=a6eac9af-9742-40a9-9b41-ebb204662b27"},"vehicle_type_id":"4","last_reported":1701896809,"current_range_meters":0,"station_id":"ce4bh4p2rcd13ifvqe0g","pricing_plan_id":"free"},{"bike_id":"08e7f685-a433-4f9c-8168-9caeda4b98af","system_id":"levelo_inurba_marseille","lat":43.289307,"lon":5.38406,"is_reserved":false,"is_disabled":false,"rental_uris":{"android":"levelo://app?vid=08e7f685-a433-4f9c-8168-9caeda4b98af","ios":"levelo://app?vid=08e7f685-a433-4f9c-8168-9caeda4b98af"},"vehicle_type_id":"4","last_reported":1701896809,"current_range_meters":10800,"station_id":"ce4bh612rcd13ifvqe6g","pricing_plan_id":"free"},{"bike_id":"444f597b-4b94-49d6-90a1-5eae9d75a96d","system_id":"levelo_inurba_marseille","lat":43.289307,"lon":5.38406,"is_reserved":false,"is_disabled":false,"rental_uris":{"android":"levelo://app?vid=444f597b-4b94-49d6-90a1-5eae9d75a96d","ios":"levelo://app?vid=444f597b-4b94-49d6-90a1-5eae9d75a96d"},"vehicle_type_id":"4","last_reported":1701896809,"current_range_meters":8800,"station_id":"ce4bh612rcd13ifvqe6g","pricing_plan_id":"free"},{"bike_id":"b017e319-7245-4c62-977d-8fe2a7b07fb7","system_id":"levelo_inurba_marseille","lat":43.302759,"lon":5.400793,"is_reserved":false,"is_disabled":false,"rental_uris":{"android":"levelo://app?vid=b017e319-7245-4c62-977d-8fe2a7b07fb7","ios":"levelo://app?vid=b017e319-7245-4c62-977d-8fe2a7b07fb7"},"vehicle_type_id":"4","last_reported":1701896809,"current_range_meters":6400,"station_id":"ce4bgvh2rcd13ifvqcs0","pricing_plan_id":"free"},{"bike_id":"92a24054-0a7c-4baa-91b4-d16d24e86aee","system_id":"levelo_inurba_marseille","lat":43.286039,"lon":5.370679,"is_reserved":false,"is_disabled":false,"rental_uris":{"android":"levelo://app?vid=92a24054-0a7c-4baa-91b4-d16d24e86aee","ios":"levelo://app?vid=92a24054-0a7c-4baa-91b4-d16d24e86aee"},"vehicle_type_id":"4","last_reported":1701896809,"current_range_meters":26400,"station_id":"ce4bht12rcd13ifvqi60","pricing_plan_id":"free"},{"bike_id":"66b1a3de-80f6-4076-bf4b-48ac0240c26d","system_id":"levelo_inurba_marseille","lat":43.29195,"lon":5.39412,"is_reserved":false,"is_disabled":false,"rental_uris":{"android":"levelo://app?vid=66b1a3de-80f6-4076-bf4b-48ac0240c26d","ios":"levelo://app?vid=66b1a3de-80f6-4076-bf4b-48ac0240c26d"},"vehicle_type_id":"4","last_reported":1701896809,"current_range_meters":20000,"station_id":"","pricing_plan_id":"free"},{"bike_id":"ccdae9c5-5c0f-4676-8a88-1e9bbdd060f3","system_id":"levelo_inurba_marseille","lat":43.28461,"lon":5.35892,"is_reserved":false,"is_disabled":false,"rental_uris":{"android":"levelo://app?vid=ccdae9c5-5c0f-4676-8a88-1e9bbdd060f3","ios":"levelo://app?vid=ccdae9c5-5c0f-4676-8a88-1e9bbdd060f3"},"vehicle_type_id":"4","last_reported":1701896809,"current_range_meters":5600,"station_id":"ce4bhah2rcd13ifvqei0","pricing_plan_id":"free"},{"bike_id":"6beba19d-cb34-4268-af60-841e4c9c684e","system_id":"levelo_inurba_marseille","lat":43.28461,"lon":5.35888,"is_reserved":false,"is_disabled":false,"rental_uris":{"android":"levelo://app?vid=6beba19d-cb34-4268-af60-841e4c9c684e","ios":"levelo://app?vid=6beba19d-cb34-4268-af60-841e4c9c684e"},"vehicle_type_id":"4","last_reported":1701896809,"current_range_meters":1200,"station_id":"ce4bhah2rcd13ifvqei0","pricing_plan_id":"free"},{"bike_id":"d7916f79-aa61-4cd5-9e24-834c5f8e301f","system_id":"levelo_inurba_marseille","lat":43.28461,"lon":5.35886,"is_reserved":false,"is_disabled":false,"rental_uris":{"android":"levelo://app?vid=d7916f79-aa61-4cd5-9e24-834c5f8e301f","ios":"levelo://app?vid=d7916f79-aa61-4cd5-9e24-834c5f8e301f"},"vehicle_type_id":"4","last_reported":1701896809,"current_range_meters":9200,"station_id":"ce4bhah2rcd13ifvqei0","pricing_plan_id":"free"},{"bike_id":"64ea78ca-c5d0-44e6-b617-62a12ffd7dc5","system_id":"levelo_inurba_marseille","lat":43.284534,"lon":5.358662,"is_reserved":false,"is_disabled":false,"rental_uris":{"android":"levelo://app?vid=64ea78ca-c5d0-44e6-b617-62a12ffd7dc5","ios":"levelo://app?vid=64ea78ca-c5d0-44e6-b617-62a12ffd7dc5"},"vehicle_type_id":"4","last_reported":1701896809,"current_range_meters":26800,"station_id":"ce4bhah2rcd13ifvqei0","pricing_plan_id":"free"},{"bike_id":"46e40643-a63e-4be4-96f6-90e92af93835","system_id":"levelo_inurba_marseille","lat":43.28455,"lon":5.35897,"is_reserved":false,"is_disabled":false,"rental_uris":{"android":"levelo://app?vid=46e40643-a63e-4be4-96f6-90e92af93835","ios":"levelo://app?vid=46e40643-a63e-4be4-96f6-90e92af93835"},"vehicle_type_id":"4","last_reported":1701896809,"current_range_meters":31200,"station_id":"ce4bhah2rcd13ifvqei0","pricing_plan_id":"free"},{"bike_id":"63564bde-f1be-46e5-9a84-eff96f42c945","system_id":"levelo_inurba_marseille","lat":43.294314,"lon":5.397498,"is_reserved":false,"is_disabled":false,"rental_uris":{"android":"levelo://app?vid=63564bde-f1be-46e5-9a84-eff96f42c945","ios":"levelo://app?vid=63564bde-f1be-46e5-9a84-eff96f42c945"},"vehicle_type_id":"4","last_reported":1701896809,"current_range_meters":24400,"station_id":"ce4bh3h2rcd13ifvqdo0","pricing_plan_id":"free"},{"bike_id":"9de1a80e-a5a6-4b70-9a80-3d9a37cc8846","system_id":"levelo_inurba_marseille","lat":43.34134,"lon":5.36091,"is_reserved":false,"is_disabled":false,"rental_uris":{"android":"levelo://app?vid=9de1a80e-a5a6-4b70-9a80-3d9a37cc8846","ios":"levelo://app?vid=9de1a80e-a5a6-4b70-9a80-3d9a37cc8846"},"vehicle_type_id":"4","last_reported":1701896809,"current_range_meters":29200,"station_id":"","pricing_plan_id":"free"},{"bike_id":"44abf257-c116-4cc8-b342-3e7eb23898c4","system_id":"levelo_inurba_marseille","lat":43.283998,"lon":5.375062,"is_reserved":false,"is_disabled":false,"rental_uris":{"android":"levelo://app?vid=44abf257-c116-4cc8-b342-3e7eb23898c4","ios":"levelo://app?vid=44abf257-c116-4cc8-b342-3e7eb23898c4"},"vehicle_type_id":"4","last_reported":1701896809,"current_range_meters":0,"station_id":"ce4bh412rcd13ifvqds0","pricing_plan_id":"free"},{"bike_id":"4311528c-7769-4357-8844-c503e5954a0d","system_id":"levelo_inurba_marseille","lat":43.283998,"lon":5.375062,"is_reserved":false,"is_disabled":false,"rental_uris":{"android":"levelo://app?vid=4311528c-7769-4357-8844-c503e5954a0d","ios":"levelo://app?vid=4311528c-7769-4357-8844-c503e5954a0d"},"vehicle_type_id":"4","last_reported":1701896809,"current_range_meters":17600,"station_id":"ce4bh412rcd13ifvqds0","pricing_plan_id":"free"},{"bike_id":"2576c6ce-ebab-4f9b-8b0e-6e02832ea67b","system_id":"levelo_inurba_marseille","lat":43.283998,"lon":5.375062,"is_reserved":false,"is_disabled":false,"rental_uris":{"android":"levelo://app?vid=2576c6ce-ebab-4f9b-8b0e-6e02832ea67b","ios":"levelo://app?vid=2576c6ce-ebab-4f9b-8b0e-6e02832ea67b"},"vehicle_type_id":"4","last_reported":1701896809,"current_range_meters":25200,"station_id":"ce4bh412rcd13ifvqds0","pricing_plan_id":"free"},{"bike_id":"67959877-7b15-41ed-b607-de4341899673","system_id":"levelo_inurba_marseille","lat":43.295713,"lon":5.399639,"is_reserved":false,"is_disabled":false,"rental_uris":{"android":"levelo://app?vid=67959877-7b15-41ed-b607-de4341899673","ios":"levelo://app?vid=67959877-7b15-41ed-b607-de4341899673"},"vehicle_type_id":"4","last_reported":1701896809,"current_range_meters":1600,"station_id":"ce4bh312rcd13ifvqdj0","pricing_plan_id":"free"},{"bike_id":"194ccba8-6981-42fa-9157-ce7e9783a3a8","system_id":"levelo_inurba_marseille","lat":43.288501,"lon":5.393087,"is_reserved":false,"is_disabled":false,"rental_uris":{"android":"levelo://app?vid=194ccba8-6981-42fa-9157-ce7e9783a3a8","ios":"levelo://app?vid=194ccba8-6981-42fa-9157-ce7e9783a3a8"},"vehicle_type_id":"4","last_reported":1701896809,"current_range_meters":16800,"station_id":"ce4bh2p2rcd13ifvqdi0","pricing_plan_id":"free"},{"bike_id":"48a7a38e-919a-4c09-bd83-1d19d707cbfb","system_id":"levelo_inurba_marseille","lat":43.288501,"lon":5.393087,"is_reserved":false,"is_disabled":false,"rental_uris":{"android":"levelo://app?vid=48a7a38e-919a-4c09-bd83-1d19d707cbfb","ios":"levelo://app?vid=48a7a38e-919a-4c09-bd83-1d19d707cbfb"},"vehicle_type_id":"4","last_reported":1701896809,"current_range_meters":9200,"station_id":"ce4bh2p2rcd13ifvqdi0","pricing_plan_id":"free"},{"bike_id":"c188fc9f-89dd-4df8-b4f1-66a409c8967b","system_id":"levelo_inurba_marseille","lat":43.289363,"lon":5.396322,"is_reserved":false,"is_disabled":false,"rental_uris":{"android":"levelo://app?vid=c188fc9f-89dd-4df8-b4f1-66a409c8967b","ios":"levelo://app?vid=c188fc9f-89dd-4df8-b4f1-66a409c8967b"},"vehicle_type_id":"4","last_reported":1701896809,"current_range_meters":26800,"station_id":"ce4bh3h2rcd13ifvqdn0","pricing_plan_id":"free"},{"bike_id":"296a93b5-9e1a-45b0-88de-028a74d45c52","system_id":"levelo_inurba_marseille","lat":43.292724,"lon":5.401131,"is_reserved":false,"is_disabled":false,"rental_uris":{"android":"levelo://app?vid=296a93b5-9e1a-45b0-88de-028a74d45c52","ios":"levelo://app?vid=296a93b5-9e1a-45b0-88de-028a74d45c52"},"vehicle_type_id":"4","last_reported":1701896809,"current_range_meters":16400,"station_id":"ce4bh312rcd13ifvqdk0","pricing_plan_id":"free"},{"bike_id":"8cdbe8ea-ebd4-486b-b3c3-ac3f1db2c4d6","system_id":"levelo_inurba_marseille","lat":43.292724,"lon":5.401131,"is_reserved":false,"is_disabled":false,"rental_uris":{"android":"levelo://app?vid=8cdbe8ea-ebd4-486b-b3c3-ac3f1db2c4d6","ios":"levelo://app?vid=8cdbe8ea-ebd4-486b-b3c3-ac3f1db2c4d6"},"vehicle_type_id":"4","last_reported":1701896809,"current_range_meters":2000,"station_id":"ce4bh312rcd13ifvqdk0","pricing_plan_id":"free"},{"bike_id":"9da1462c-15dc-44ce-9a56-181ed17061e1","system_id":"levelo_inurba_marseille","lat":43.291277,"lon":5.399883,"is_reserved":false,"is_disabled":false,"rental_uris":{"android":"levelo://app?vid=9da1462c-15dc-44ce-9a56-181ed17061e1","ios":"levelo://app?vid=9da1462c-15dc-44ce-9a56-181ed17061e1"},"vehicle_type_id":"4","last_reported":1701896809,"current_range_meters":0,"station_id":"","pricing_plan_id":"free"},{"bike_id":"46f39f7b-a5ed-4696-90a3-dcfd96b0fcb0","system_id":"levelo_inurba_marseille","lat":43.283502,"lon":5.386471,"is_reserved":false,"is_disabled":false,"rental_uris":{"android":"levelo://app?vid=46f39f7b-a5ed-4696-90a3-dcfd96b0fcb0","ios":"levelo://app?vid=46f39f7b-a5ed-4696-90a3-dcfd96b0fcb0"},"vehicle_type_id":"4","last_reported":1701896809,"current_range_meters":18800,"station_id":"ce4bh492rcd13ifvqdvg","pricing_plan_id":"free"},{"bike_id":"d86c8ff8-78bb-43b0-82a3-1c6b2f886023","system_id":"levelo_inurba_marseille","lat":43.282754,"lon":5.350519,"is_reserved":false,"is_disabled":false,"rental_uris":{"android":"levelo://app?vid=d86c8ff8-78bb-43b0-82a3-1c6b2f886023","ios":"levelo://app?vid=d86c8ff8-78bb-43b0-82a3-1c6b2f886023"},"vehicle_type_id":"4","last_reported":1701896809,"current_range_meters":11200,"station_id":"ce4bhbp2rcd13ifvqerg","pricing_plan_id":"free"},{"bike_id":"62fd1763-2eb4-46c1-a4f4-c979520883eb","system_id":"levelo_inurba_marseille","lat":43.282754,"lon":5.350519,"is_reserved":false,"is_disabled":false,"rental_uris":{"android":"levelo://app?vid=62fd1763-2eb4-46c1-a4f4-c979520883eb","ios":"levelo://app?vid=62fd1763-2eb4-46c1-a4f4-c979520883eb"},"vehicle_type_id":"4","last_reported":1701896809,"current_range_meters":14400,"station_id":"ce4bhbp2rcd13ifvqerg","pricing_plan_id":"free"},{"bike_id":"3b8fdf05-cac5-462e-a665-2d95a48d200c","system_id":"levelo_inurba_marseille","lat":43.282744,"lon":5.350533,"is_reserved":false,"is_disabled":false,"rental_uris":{"android":"levelo://app?vid=3b8fdf05-cac5-462e-a665-2d95a48d200c","ios":"levelo://app?vid=3b8fdf05-cac5-462e-a665-2d95a48d200c"},"vehicle_type_id":"4","last_reported":1701896809,"current_range_meters":0,"station_id":"ce4bhbp2rcd13ifvqerg","pricing_plan_id":"free"},{"bike_id":"af181c1b-7a34-490c-92e0-3f5beaab2a27","system_id":"levelo_inurba_marseille","lat":43.283502,"lon":5.386471,"is_reserved":false,"is_disabled":false,"rental_uris":{"android":"levelo://app?vid=af181c1b-7a34-490c-92e0-3f5beaab2a27","ios":"levelo://app?vid=af181c1b-7a34-490c-92e0-3f5beaab2a27"},"vehicle_type_id":"4","last_reported":1701896809,"current_range_meters":14800,"station_id":"ce4bh492rcd13ifvqdvg","pricing_plan_id":"free"},{"bike_id":"4f7d340a-e50e-4cd7-bd77-b81973c3683c","system_id":"levelo_inurba_marseille","lat":43.280382,"lon":5.369291,"is_reserved":false,"is_disabled":false,"rental_uris":{"android":"levelo://app?vid=4f7d340a-e50e-4cd7-bd77-b81973c3683c","ios":"levelo://app?vid=4f7d340a-e50e-4cd7-bd77-b81973c3683c"},"vehicle_type_id":"4","last_reported":1701896809,"current_range_meters":24000,"station_id":"ce4bha12rcd13ifvqef0","pricing_plan_id":"free"},{"bike_id":"6bdf36a9-2c89-482d-9e1a-ddfa23dcf49d","system_id":"levelo_inurba_marseille","lat":43.281044,"lon":5.378308,"is_reserved":false,"is_disabled":false,"rental_uris":{"android":"levelo://app?vid=6bdf36a9-2c89-482d-9e1a-ddfa23dcf49d","ios":"levelo://app?vid=6bdf36a9-2c89-482d-9e1a-ddfa23dcf49d"},"vehicle_type_id":"4","last_reported":1701896809,"current_range_meters":6400,"station_id":"ce4bha12rcd13ifvqee0","pricing_plan_id":"free"},{"bike_id":"4de26ca4-741c-4d61-85d8-6299b222a311","system_id":"levelo_inurba_marseille","lat":43.284462,"lon":5.392121,"is_reserved":false,"is_disabled":false,"rental_uris":{"android":"levelo://app?vid=4de26ca4-741c-4d61-85d8-6299b222a311","ios":"levelo://app?vid=4de26ca4-741c-4d61-85d8-6299b222a311"},"vehicle_type_id":"4","last_reported":1701896809,"current_range_meters":18400,"station_id":"ce4bhoh2rcd13ifvqh5g","pricing_plan_id":"free"},{"bike_id":"27c6c473-ba45-43ce-9603-f1ba3a030f6a","system_id":"levelo_inurba_marseille","lat":43.287154,"lon":5.399979,"is_reserved":false,"is_disabled":false,"rental_uris":{"android":"levelo://app?vid=27c6c473-ba45-43ce-9603-f1ba3a030f6a","ios":"levelo://app?vid=27c6c473-ba45-43ce-9603-f1ba3a030f6a"},"vehicle_type_id":"4","last_reported":1701896809,"current_range_meters":30400,"station_id":"ce4bho92rcd13ifvqh3g","pricing_plan_id":"free"},{"bike_id":"caaaf642-632e-48ac-98a4-6055dadc2ea1","system_id":"levelo_inurba_marseille","lat":43.279087,"lon":5.380114,"is_reserved":false,"is_disabled":false,"rental_uris":{"android":"levelo://app?vid=caaaf642-632e-48ac-98a4-6055dadc2ea1","ios":"levelo://app?vid=caaaf642-632e-48ac-98a4-6055dadc2ea1"},"vehicle_type_id":"4","last_reported":1701896809,"current_range_meters":16400,"station_id":"ce4bhf92rcd13ifvqf50","pricing_plan_id":"free"},{"bike_id":"29f4b1a2-5614-46b7-bb52-865c5a289751","system_id":"levelo_inurba_marseille","lat":43.292569,"lon":5.409107,"is_reserved":false,"is_disabled":false,"rental_uris":{"android":"levelo://app?vid=29f4b1a2-5614-46b7-bb52-865c5a289751","ios":"levelo://app?vid=29f4b1a2-5614-46b7-bb52-865c5a289751"},"vehicle_type_id":"4","last_reported":1701896809,"current_range_meters":5600,"station_id":"ce4bh192rcd13ifvqdc0","pricing_plan_id":"free"},{"bike_id":"9627cd81-489b-45b1-8f06-cdad1494f1e2","system_id":"levelo_inurba_marseille","lat":43.28169,"lon":5.39613,"is_reserved":false,"is_disabled":false,"rental_uris":{"android":"levelo://app?vid=9627cd81-489b-45b1-8f06-cdad1494f1e2","ios":"levelo://app?vid=9627cd81-489b-45b1-8f06-cdad1494f1e2"},"vehicle_type_id":"4","last_reported":1701896809,"current_range_meters":5200,"station_id":"","pricing_plan_id":"free"},{"bike_id":"293d069b-5156-4efb-8473-dd0ae12fdf19","system_id":"levelo_inurba_marseille","lat":43.303837,"lon":5.418724,"is_reserved":false,"is_disabled":false,"rental_uris":{"android":"levelo://app?vid=293d069b-5156-4efb-8473-dd0ae12fdf19","ios":"levelo://app?vid=293d069b-5156-4efb-8473-dd0ae12fdf19"},"vehicle_type_id":"4","last_reported":1701896809,"current_range_meters":27600,"station_id":"ce4bhop2rcd13ifvqh7g","pricing_plan_id":"free"},{"bike_id":"92320086-c9b7-4918-8149-0bb9e9d8e904","system_id":"levelo_inurba_marseille","lat":43.278401,"lon":5.392152,"is_reserved":false,"is_disabled":false,"rental_uris":{"android":"levelo://app?vid=92320086-c9b7-4918-8149-0bb9e9d8e904","ios":"levelo://app?vid=92320086-c9b7-4918-8149-0bb9e9d8e904"},"vehicle_type_id":"4","last_reported":1701896809,"current_range_meters":11200,"station_id":"ce4bhjp2rcd13ifvqga0","pricing_plan_id":"free"},{"bike_id":"bf4b62e2-8feb-41d2-bf26-cc6c3cdc453e","system_id":"levelo_inurba_marseille","lat":43.275625,"lon":5.384392,"is_reserved":false,"is_disabled":false,"rental_uris":{"android":"levelo://app?vid=bf4b62e2-8feb-41d2-bf26-cc6c3cdc453e","ios":"levelo://app?vid=bf4b62e2-8feb-41d2-bf26-cc6c3cdc453e"},"vehicle_type_id":"4","last_reported":1701896809,"current_range_meters":28000,"station_id":"ce4bhh92rcd13ifvqfi0","pricing_plan_id":"free"},{"bike_id":"5e801468-5412-4bca-a271-fb5358ebcf80","system_id":"levelo_inurba_marseille","lat":43.278703,"lon":5.394914,"is_reserved":false,"is_disabled":false,"rental_uris":{"android":"levelo://app?vid=5e801468-5412-4bca-a271-fb5358ebcf80","ios":"levelo://app?vid=5e801468-5412-4bca-a271-fb5358ebcf80"},"vehicle_type_id":"4","last_reported":1701896809,"current_range_meters":16000,"station_id":"","pricing_plan_id":"free"},{"bike_id":"11766578-84ad-4bf2-bc0b-c635373c5eff","system_id":"levelo_inurba_marseille","lat":43.279975,"lon":5.40009,"is_reserved":false,"is_disabled":false,"rental_uris":{"android":"levelo://app?vid=11766578-84ad-4bf2-bc0b-c635373c5eff","ios":"levelo://app?vid=11766578-84ad-4bf2-bc0b-c635373c5eff"},"vehicle_type_id":"4","last_reported":1701896809,"current_range_meters":7200,"station_id":"ce4bho92rcd13ifvqh4g","pricing_plan_id":"free"},{"bike_id":"54cfb1a8-64c1-447c-9e01-bbd150faca7c","system_id":"levelo_inurba_marseille","lat":43.279952,"lon":5.400085,"is_reserved":false,"is_disabled":false,"rental_uris":{"android":"levelo://app?vid=54cfb1a8-64c1-447c-9e01-bbd150faca7c","ios":"levelo://app?vid=54cfb1a8-64c1-447c-9e01-bbd150faca7c"},"vehicle_type_id":"4","last_reported":1701896809,"current_range_meters":6800,"station_id":"ce4bho92rcd13ifvqh4g","pricing_plan_id":"free"},{"bike_id":"283b1518-47c4-4c7a-aece-e76435d9d17e","system_id":"levelo_inurba_marseille","lat":43.27622,"lon":5.39483,"is_reserved":false,"is_disabled":false,"rental_uris":{"android":"levelo://app?vid=283b1518-47c4-4c7a-aece-e76435d9d17e","ios":"levelo://app?vid=283b1518-47c4-4c7a-aece-e76435d9d17e"},"vehicle_type_id":"4","last_reported":1701896809,"current_range_meters":7600,"station_id":"","pricing_plan_id":"free"},{"bike_id":"e2c3dce3-5fd2-4ab6-adf0-904651572c76","system_id":"levelo_inurba_marseille","lat":43.274103,"lon":5.394016,"is_reserved":false,"is_disabled":false,"rental_uris":{"android":"levelo://app?vid=e2c3dce3-5fd2-4ab6-adf0-904651572c76","ios":"levelo://app?vid=e2c3dce3-5fd2-4ab6-adf0-904651572c76"},"vehicle_type_id":"4","last_reported":1701896809,"current_range_meters":13600,"station_id":"ce4bhdp2rcd13ifvqf20","pricing_plan_id":"free"},{"bike_id":"da9ac649-901c-4fba-a804-7b491267a069","system_id":"levelo_inurba_marseille","lat":43.27201,"lon":5.39186,"is_reserved":false,"is_disabled":false,"rental_uris":{"android":"levelo://app?vid=da9ac649-901c-4fba-a804-7b491267a069","ios":"levelo://app?vid=da9ac649-901c-4fba-a804-7b491267a069"},"vehicle_type_id":"4","last_reported":1701896809,"current_range_meters":0,"station_id":"ce4bhhp2rcd13ifvqfm0","pricing_plan_id":"free"},{"bike_id":"77e2df1b-d75a-48fe-a6ad-744dfbe91f1d","system_id":"levelo_inurba_marseille","lat":43.27214,"lon":5.3925,"is_reserved":false,"is_disabled":false,"rental_uris":{"android":"levelo://app?vid=77e2df1b-d75a-48fe-a6ad-744dfbe91f1d","ios":"levelo://app?vid=77e2df1b-d75a-48fe-a6ad-744dfbe91f1d"},"vehicle_type_id":"4","last_reported":1701896809,"current_range_meters":12000,"station_id":"","pricing_plan_id":"free"},{"bike_id":"256cc113-cdaa-4a56-9959-8ccdb9f14a83","system_id":"levelo_inurba_marseille","lat":43.278128,"lon":5.407195,"is_reserved":false,"is_disabled":false,"rental_uris":{"android":"levelo://app?vid=256cc113-cdaa-4a56-9959-8ccdb9f14a83","ios":"levelo://app?vid=256cc113-cdaa-4a56-9959-8ccdb9f14a83"},"vehicle_type_id":"4","last_reported":1701896809,"current_range_meters":24400,"station_id":"ce4bhnh2rcd13ifvqgtg","pricing_plan_id":"free"},{"bike_id":"3b81c4b6-c08e-4ead-95a0-ce66e9cbde45","system_id":"levelo_inurba_marseille","lat":43.278128,"lon":5.407195,"is_reserved":false,"is_disabled":false,"rental_uris":{"android":"levelo://app?vid=3b81c4b6-c08e-4ead-95a0-ce66e9cbde45","ios":"levelo://app?vid=3b81c4b6-c08e-4ead-95a0-ce66e9cbde45"},"vehicle_type_id":"4","last_reported":1701896809,"current_range_meters":4800,"station_id":"ce4bhnh2rcd13ifvqgtg","pricing_plan_id":"free"},{"bike_id":"9e459c17-9a30-4cd3-85ea-e27b31c4bc4f","system_id":"levelo_inurba_marseille","lat":43.26681,"lon":5.382694,"is_reserved":false,"is_disabled":false,"rental_uris":{"android":"levelo://app?vid=9e459c17-9a30-4cd3-85ea-e27b31c4bc4f","ios":"levelo://app?vid=9e459c17-9a30-4cd3-85ea-e27b31c4bc4f"},"vehicle_type_id":"4","last_reported":1701896809,"current_range_meters":20000,"station_id":"ce4bhg92rcd13ifvqf90","pricing_plan_id":"free"},{"bike_id":"f4ca9bad-97af-42f9-9861-96437cb5aa0f","system_id":"levelo_inurba_marseille","lat":43.265714,"lon":5.372891,"is_reserved":false,"is_disabled":false,"rental_uris":{"android":"levelo://app?vid=f4ca9bad-97af-42f9-9861-96437cb5aa0f","ios":"levelo://app?vid=f4ca9bad-97af-42f9-9861-96437cb5aa0f"},"vehicle_type_id":"4","last_reported":1701896809,"current_range_meters":11600,"station_id":"ce4bhg12rcd13ifvqf70","pricing_plan_id":"free"},{"bike_id":"5c62f0fe-2a68-4f0e-8c5e-1c3be35b64ff","system_id":"levelo_inurba_marseille","lat":43.292738,"lon":5.428378,"is_reserved":false,"is_disabled":false,"rental_uris":{"android":"levelo://app?vid=5c62f0fe-2a68-4f0e-8c5e-1c3be35b64ff","ios":"levelo://app?vid=5c62f0fe-2a68-4f0e-8c5e-1c3be35b64ff"},"vehicle_type_id":"4","last_reported":1701896809,"current_range_meters":18800,"station_id":"","pricing_plan_id":"free"},{"bike_id":"fc223efa-7821-4a6b-9977-53c7160e9340","system_id":"levelo_inurba_marseille","lat":43.265663,"lon":5.390008,"is_reserved":false,"is_disabled":false,"rental_uris":{"android":"levelo://app?vid=fc223efa-7821-4a6b-9977-53c7160e9340","ios":"levelo://app?vid=fc223efa-7821-4a6b-9977-53c7160e9340"},"vehicle_type_id":"4","last_reported":1701896809,"current_range_meters":0,"station_id":"","pricing_plan_id":"free"},{"bike_id":"7f82b34e-74cc-4090-bf83-24ab1e5f05c7","system_id":"levelo_inurba_marseille","lat":43.26947,"lon":5.40246,"is_reserved":false,"is_disabled":false,"rental_uris":{"android":"levelo://app?vid=7f82b34e-74cc-4090-bf83-24ab1e5f05c7","ios":"levelo://app?vid=7f82b34e-74cc-4090-bf83-24ab1e5f05c7"},"vehicle_type_id":"4","last_reported":1701896809,"current_range_meters":27600,"station_id":"cjm6bp8fraef2m0cb0m0","pricing_plan_id":"free"},{"bike_id":"e584986a-09c7-4808-95f7-49ef46dcfea3","system_id":"levelo_inurba_marseille","lat":43.26949,"lon":5.40262,"is_reserved":false,"is_disabled":false,"rental_uris":{"android":"levelo://app?vid=e584986a-09c7-4808-95f7-49ef46dcfea3","ios":"levelo://app?vid=e584986a-09c7-4808-95f7-49ef46dcfea3"},"vehicle_type_id":"4","last_reported":1701896809,"current_range_meters":23200,"station_id":"cjm6bp8fraef2m0cb0m0","pricing_plan_id":"free"},{"bike_id":"98545b70-9dcf-416c-ad8d-27c399537706","system_id":"levelo_inurba_marseille","lat":43.26942,"lon":5.40245,"is_reserved":false,"is_disabled":false,"rental_uris":{"android":"levelo://app?vid=98545b70-9dcf-416c-ad8d-27c399537706","ios":"levelo://app?vid=98545b70-9dcf-416c-ad8d-27c399537706"},"vehicle_type_id":"4","last_reported":1701896809,"current_range_meters":10400,"station_id":"cjm6bp8fraef2m0cb0m0","pricing_plan_id":"free"},{"bike_id":"c8c04924-7d04-4cc5-ab2d-cc6abc6c8a84","system_id":"levelo_inurba_marseille","lat":43.26945,"lon":5.40257,"is_reserved":false,"is_disabled":false,"rental_uris":{"android":"levelo://app?vid=c8c04924-7d04-4cc5-ab2d-cc6abc6c8a84","ios":"levelo://app?vid=c8c04924-7d04-4cc5-ab2d-cc6abc6c8a84"},"vehicle_type_id":"4","last_reported":1701896809,"current_range_meters":0,"station_id":"cjm6bp8fraef2m0cb0m0","pricing_plan_id":"free"},{"bike_id":"43f7d13d-9b8b-45de-bb96-08dc7d998e38","system_id":"levelo_inurba_marseille","lat":43.2694,"lon":5.40253,"is_reserved":false,"is_disabled":false,"rental_uris":{"android":"levelo://app?vid=43f7d13d-9b8b-45de-bb96-08dc7d998e38","ios":"levelo://app?vid=43f7d13d-9b8b-45de-bb96-08dc7d998e38"},"vehicle_type_id":"4","last_reported":1701896809,"current_range_meters":12000,"station_id":"cjm6bp8fraef2m0cb0m0","pricing_plan_id":"free"},{"bike_id":"effef46c-4e40-4598-bcc3-9b381cd91539","system_id":"levelo_inurba_marseille","lat":43.26938,"lon":5.40249,"is_reserved":false,"is_disabled":false,"rental_uris":{"android":"levelo://app?vid=effef46c-4e40-4598-bcc3-9b381cd91539","ios":"levelo://app?vid=effef46c-4e40-4598-bcc3-9b381cd91539"},"vehicle_type_id":"4","last_reported":1701896809,"current_range_meters":11200,"station_id":"cjm6bp8fraef2m0cb0m0","pricing_plan_id":"free"},{"bike_id":"ddf4d84d-3026-4182-a846-8b2ea751c9b7","system_id":"levelo_inurba_marseille","lat":43.26949,"lon":5.40262,"is_reserved":false,"is_disabled":false,"rental_uris":{"android":"levelo://app?vid=ddf4d84d-3026-4182-a846-8b2ea751c9b7","ios":"levelo://app?vid=ddf4d84d-3026-4182-a846-8b2ea751c9b7"},"vehicle_type_id":"4","last_reported":1701896809,"current_range_meters":16800,"station_id":"cjm6bp8fraef2m0cb0m0","pricing_plan_id":"free"},{"bike_id":"50c2e1ff-a4de-491f-9bde-9bd5b8802b47","system_id":"levelo_inurba_marseille","lat":43.26939,"lon":5.40253,"is_reserved":false,"is_disabled":false,"rental_uris":{"android":"levelo://app?vid=50c2e1ff-a4de-491f-9bde-9bd5b8802b47","ios":"levelo://app?vid=50c2e1ff-a4de-491f-9bde-9bd5b8802b47"},"vehicle_type_id":"4","last_reported":1701896809,"current_range_meters":8400,"station_id":"cjm6bp8fraef2m0cb0m0","pricing_plan_id":"free"},{"bike_id":"ea508a52-a6f3-4742-aec1-84f2602a7dcd","system_id":"levelo_inurba_marseille","lat":43.269367,"lon":5.402557,"is_reserved":false,"is_disabled":false,"rental_uris":{"android":"levelo://app?vid=ea508a52-a6f3-4742-aec1-84f2602a7dcd","ios":"levelo://app?vid=ea508a52-a6f3-4742-aec1-84f2602a7dcd"},"vehicle_type_id":"4","last_reported":1701896809,"current_range_meters":2400,"station_id":"cjm6bp8fraef2m0cb0m0","pricing_plan_id":"free"},{"bike_id":"44d8c043-ce7f-45eb-9268-5e1c33b78569","system_id":"levelo_inurba_marseille","lat":43.26949,"lon":5.40262,"is_reserved":false,"is_disabled":false,"rental_uris":{"android":"levelo://app?vid=44d8c043-ce7f-45eb-9268-5e1c33b78569","ios":"levelo://app?vid=44d8c043-ce7f-45eb-9268-5e1c33b78569"},"vehicle_type_id":"4","last_reported":1701896809,"current_range_meters":0,"station_id":"cjm6bp8fraef2m0cb0m0","pricing_plan_id":"free"},{"bike_id":"48f81e3e-a7dd-4877-817e-7111f073daf1","system_id":"levelo_inurba_marseille","lat":43.317104,"lon":5.436818,"is_reserved":false,"is_disabled":false,"rental_uris":{"android":"levelo://app?vid=48f81e3e-a7dd-4877-817e-7111f073daf1","ios":"levelo://app?vid=48f81e3e-a7dd-4877-817e-7111f073daf1"},"vehicle_type_id":"4","last_reported":1701896809,"current_range_meters":4000,"station_id":"ce4bhp92rcd13ifvqhcg","pricing_plan_id":"free"},{"bike_id":"bf58fee8-dca1-4d87-bbbb-9a3f7035f1b0","system_id":"levelo_inurba_marseille","lat":43.317104,"lon":5.436818,"is_reserved":false,"is_disabled":false,"rental_uris":{"android":"levelo://app?vid=bf58fee8-dca1-4d87-bbbb-9a3f7035f1b0","ios":"levelo://app?vid=bf58fee8-dca1-4d87-bbbb-9a3f7035f1b0"},"vehicle_type_id":"4","last_reported":1701896809,"current_range_meters":31200,"station_id":"ce4bhp92rcd13ifvqhcg","pricing_plan_id":"free"},{"bike_id":"6fdf9bc6-0abc-4e03-bd67-4978093fb4f7","system_id":"levelo_inurba_marseille","lat":43.26202,"lon":5.379299,"is_reserved":false,"is_disabled":false,"rental_uris":{"android":"levelo://app?vid=6fdf9bc6-0abc-4e03-bd67-4978093fb4f7","ios":"levelo://app?vid=6fdf9bc6-0abc-4e03-bd67-4978093fb4f7"},"vehicle_type_id":"4","last_reported":1701896809,"current_range_meters":25200,"station_id":"ce4bhjp2rcd13ifvqg90","pricing_plan_id":"free"},{"bike_id":"46cba32d-5d40-4e2a-b183-6fda3ffc72c3","system_id":"levelo_inurba_marseille","lat":43.26809,"lon":5.40258,"is_reserved":false,"is_disabled":false,"rental_uris":{"android":"levelo://app?vid=46cba32d-5d40-4e2a-b183-6fda3ffc72c3","ios":"levelo://app?vid=46cba32d-5d40-4e2a-b183-6fda3ffc72c3"},"vehicle_type_id":"4","last_reported":1701896809,"current_range_meters":400,"station_id":"ce501612rcd8frsf0b60","pricing_plan_id":"free"},{"bike_id":"dc0e9be2-f92e-4a39-b01e-e787ec0cf754","system_id":"levelo_inurba_marseille","lat":43.26806,"lon":5.40259,"is_reserved":false,"is_disabled":false,"rental_uris":{"android":"levelo://app?vid=dc0e9be2-f92e-4a39-b01e-e787ec0cf754","ios":"levelo://app?vid=dc0e9be2-f92e-4a39-b01e-e787ec0cf754"},"vehicle_type_id":"4","last_reported":1701896809,"current_range_meters":13600,"station_id":"ce501612rcd8frsf0b60","pricing_plan_id":"free"},{"bike_id":"53c84d6e-7859-436e-804b-28036747b15f","system_id":"levelo_inurba_marseille","lat":43.26804,"lon":5.40256,"is_reserved":false,"is_disabled":false,"rental_uris":{"android":"levelo://app?vid=53c84d6e-7859-436e-804b-28036747b15f","ios":"levelo://app?vid=53c84d6e-7859-436e-804b-28036747b15f"},"vehicle_type_id":"4","last_reported":1701896809,"current_range_meters":22800,"station_id":"ce501612rcd8frsf0b60","pricing_plan_id":"free"},{"bike_id":"d6af9c01-da10-44da-ac0b-63536753b737","system_id":"levelo_inurba_marseille","lat":43.268009,"lon":5.402526,"is_reserved":false,"is_disabled":false,"rental_uris":{"android":"levelo://app?vid=d6af9c01-da10-44da-ac0b-63536753b737","ios":"levelo://app?vid=d6af9c01-da10-44da-ac0b-63536753b737"},"vehicle_type_id":"4","last_reported":1701896809,"current_range_meters":3600,"station_id":"ce501612rcd8frsf0b60","pricing_plan_id":"free"},{"bike_id":"f5680d4a-642d-4311-a0c0-695f83410cda","system_id":"levelo_inurba_marseille","lat":43.26801,"lon":5.40255,"is_reserved":false,"is_disabled":false,"rental_uris":{"android":"levelo://app?vid=f5680d4a-642d-4311-a0c0-695f83410cda","ios":"levelo://app?vid=f5680d4a-642d-4311-a0c0-695f83410cda"},"vehicle_type_id":"4","last_reported":1701896809,"current_range_meters":13600,"station_id":"ce501612rcd8frsf0b60","pricing_plan_id":"free"},{"bike_id":"9b6122c5-213d-434f-ae2a-0e2e5becdac0","system_id":"levelo_inurba_marseille","lat":43.268,"lon":5.40259,"is_reserved":false,"is_disabled":false,"rental_uris":{"android":"levelo://app?vid=9b6122c5-213d-434f-ae2a-0e2e5becdac0","ios":"levelo://app?vid=9b6122c5-213d-434f-ae2a-0e2e5becdac0"},"vehicle_type_id":"4","last_reported":1701896809,"current_range_meters":15200,"station_id":"ce501612rcd8frsf0b60","pricing_plan_id":"free"},{"bike_id":"f1325ba5-dc73-4ec8-885e-e7ffa8b59a96","system_id":"levelo_inurba_marseille","lat":43.26804,"lon":5.4027,"is_reserved":false,"is_disabled":false,"rental_uris":{"android":"levelo://app?vid=f1325ba5-dc73-4ec8-885e-e7ffa8b59a96","ios":"levelo://app?vid=f1325ba5-dc73-4ec8-885e-e7ffa8b59a96"},"vehicle_type_id":"4","last_reported":1701896809,"current_range_meters":10000,"station_id":"ce501612rcd8frsf0b60","pricing_plan_id":"free"},{"bike_id":"8c066ef0-8e33-4692-81e9-53a96288cf19","system_id":"levelo_inurba_marseille","lat":43.298768,"lon":5.43643,"is_reserved":false,"is_disabled":false,"rental_uris":{"android":"levelo://app?vid=8c066ef0-8e33-4692-81e9-53a96288cf19","ios":"levelo://app?vid=8c066ef0-8e33-4692-81e9-53a96288cf19"},"vehicle_type_id":"4","last_reported":1701896809,"current_range_meters":30400,"station_id":"ce4bhpp2rcd13ifvqhfg","pricing_plan_id":"free"},{"bike_id":"4f68f183-a711-4386-a731-e8ea8e2f115e","system_id":"levelo_inurba_marseille","lat":43.298768,"lon":5.43643,"is_reserved":false,"is_disabled":false,"rental_uris":{"android":"levelo://app?vid=4f68f183-a711-4386-a731-e8ea8e2f115e","ios":"levelo://app?vid=4f68f183-a711-4386-a731-e8ea8e2f115e"},"vehicle_type_id":"4","last_reported":1701896809,"current_range_meters":26000,"station_id":"ce4bhpp2rcd13ifvqhfg","pricing_plan_id":"free"},{"bike_id":"fa5cd83b-c3b8-4406-a42d-5e8acfa3cc8b","system_id":"levelo_inurba_marseille","lat":43.281548,"lon":5.42643,"is_reserved":false,"is_disabled":false,"rental_uris":{"android":"levelo://app?vid=fa5cd83b-c3b8-4406-a42d-5e8acfa3cc8b","ios":"levelo://app?vid=fa5cd83b-c3b8-4406-a42d-5e8acfa3cc8b"},"vehicle_type_id":"4","last_reported":1701896809,"current_range_meters":29200,"station_id":"ce4bhnh2rcd13ifvqgug","pricing_plan_id":"free"},{"bike_id":"c5b130b6-e387-4d1f-9edc-1fc25dae90ef","system_id":"levelo_inurba_marseille","lat":43.281548,"lon":5.42643,"is_reserved":false,"is_disabled":false,"rental_uris":{"android":"levelo://app?vid=c5b130b6-e387-4d1f-9edc-1fc25dae90ef","ios":"levelo://app?vid=c5b130b6-e387-4d1f-9edc-1fc25dae90ef"},"vehicle_type_id":"4","last_reported":1701896809,"current_range_meters":20400,"station_id":"ce4bhnh2rcd13ifvqgug","pricing_plan_id":"free"},{"bike_id":"d56d3917-457b-48f5-a8e5-88ba6c73cc8e","system_id":"levelo_inurba_marseille","lat":43.281548,"lon":5.42643,"is_reserved":false,"is_disabled":false,"rental_uris":{"android":"levelo://app?vid=d56d3917-457b-48f5-a8e5-88ba6c73cc8e","ios":"levelo://app?vid=d56d3917-457b-48f5-a8e5-88ba6c73cc8e"},"vehicle_type_id":"4","last_reported":1701896809,"current_range_meters":17600,"station_id":"ce4bhnh2rcd13ifvqgug","pricing_plan_id":"free"},{"bike_id":"7d408c69-a540-4b7c-a116-219934f5d728","system_id":"levelo_inurba_marseille","lat":43.2607,"lon":5.393983,"is_reserved":false,"is_disabled":false,"rental_uris":{"android":"levelo://app?vid=7d408c69-a540-4b7c-a116-219934f5d728","ios":"levelo://app?vid=7d408c69-a540-4b7c-a116-219934f5d728"},"vehicle_type_id":"4","last_reported":1701896809,"current_range_meters":10800,"station_id":"ce4bhh92rcd13ifvqfj0","pricing_plan_id":"free"},{"bike_id":"b4b7be89-ccbd-44ed-bc96-438fe4c9f46a","system_id":"levelo_inurba_marseille","lat":43.25829,"lon":5.39435,"is_reserved":false,"is_disabled":false,"rental_uris":{"android":"levelo://app?vid=b4b7be89-ccbd-44ed-bc96-438fe4c9f46a","ios":"levelo://app?vid=b4b7be89-ccbd-44ed-bc96-438fe4c9f46a"},"vehicle_type_id":"4","last_reported":1701896809,"current_range_meters":3200,"station_id":"ce4bhip2rcd13ifvqft0","pricing_plan_id":"free"},{"bike_id":"44ef2fe9-8da5-4814-bc28-744b4683f2b4","system_id":"levelo_inurba_marseille","lat":43.25578,"lon":5.38235,"is_reserved":false,"is_disabled":false,"rental_uris":{"android":"levelo://app?vid=44ef2fe9-8da5-4814-bc28-744b4683f2b4","ios":"levelo://app?vid=44ef2fe9-8da5-4814-bc28-744b4683f2b4"},"vehicle_type_id":"4","last_reported":1701896809,"current_range_meters":3200,"station_id":"ce4bhih2rcd13ifvqfs0","pricing_plan_id":"free"},{"bike_id":"2928ee9a-8561-4c4b-8ea4-dbd8c15aacab","system_id":"levelo_inurba_marseille","lat":43.25576,"lon":5.38228,"is_reserved":false,"is_disabled":false,"rental_uris":{"android":"levelo://app?vid=2928ee9a-8561-4c4b-8ea4-dbd8c15aacab","ios":"levelo://app?vid=2928ee9a-8561-4c4b-8ea4-dbd8c15aacab"},"vehicle_type_id":"4","last_reported":1701896809,"current_range_meters":0,"station_id":"ce4bhih2rcd13ifvqfs0","pricing_plan_id":"free"},{"bike_id":"92351523-5da1-44da-b46c-ccdfa2958641","system_id":"levelo_inurba_marseille","lat":43.254933,"lon":5.376464,"is_reserved":false,"is_disabled":false,"rental_uris":{"android":"levelo://app?vid=92351523-5da1-44da-b46c-ccdfa2958641","ios":"levelo://app?vid=92351523-5da1-44da-b46c-ccdfa2958641"},"vehicle_type_id":"4","last_reported":1701896809,"current_range_meters":29600,"station_id":"ce4bhh12rcd13ifvqff0","pricing_plan_id":"free"},{"bike_id":"4b2e0382-e1f9-400c-8f21-cae436913d9a","system_id":"levelo_inurba_marseille","lat":43.254947,"lon":5.376454,"is_reserved":false,"is_disabled":false,"rental_uris":{"android":"levelo://app?vid=4b2e0382-e1f9-400c-8f21-cae436913d9a","ios":"levelo://app?vid=4b2e0382-e1f9-400c-8f21-cae436913d9a"},"vehicle_type_id":"4","last_reported":1701896809,"current_range_meters":18400,"station_id":"ce4bhh12rcd13ifvqff0","pricing_plan_id":"free"},{"bike_id":"fa8265ba-5872-4836-af87-e9931b2903ad","system_id":"levelo_inurba_marseille","lat":43.254947,"lon":5.376454,"is_reserved":false,"is_disabled":false,"rental_uris":{"android":"levelo://app?vid=fa8265ba-5872-4836-af87-e9931b2903ad","ios":"levelo://app?vid=fa8265ba-5872-4836-af87-e9931b2903ad"},"vehicle_type_id":"4","last_reported":1701896809,"current_range_meters":2800,"station_id":"ce4bhh12rcd13ifvqff0","pricing_plan_id":"free"},{"bike_id":"df19f8ce-a63c-44d7-949a-ae58af8f4993","system_id":"levelo_inurba_marseille","lat":43.270721,"lon":5.422764,"is_reserved":false,"is_disabled":false,"rental_uris":{"android":"levelo://app?vid=df19f8ce-a63c-44d7-949a-ae58af8f4993","ios":"levelo://app?vid=df19f8ce-a63c-44d7-949a-ae58af8f4993"},"vehicle_type_id":"4","last_reported":1701896809,"current_range_meters":26000,"station_id":"ce4bhk92rcd13ifvqgb0","pricing_plan_id":"free"},{"bike_id":"00f46b74-f70a-4815-b152-6bf5cc0ef103","system_id":"levelo_inurba_marseille","lat":43.270721,"lon":5.422764,"is_reserved":false,"is_disabled":false,"rental_uris":{"android":"levelo://app?vid=00f46b74-f70a-4815-b152-6bf5cc0ef103","ios":"levelo://app?vid=00f46b74-f70a-4815-b152-6bf5cc0ef103"},"vehicle_type_id":"4","last_reported":1701896809,"current_range_meters":26800,"station_id":"ce4bhk92rcd13ifvqgb0","pricing_plan_id":"free"},{"bike_id":"e6b338fc-0654-4eb1-9eb4-c94072dd874c","system_id":"levelo_inurba_marseille","lat":43.25933,"lon":5.4091,"is_reserved":false,"is_disabled":false,"rental_uris":{"android":"levelo://app?vid=e6b338fc-0654-4eb1-9eb4-c94072dd874c","ios":"levelo://app?vid=e6b338fc-0654-4eb1-9eb4-c94072dd874c"},"vehicle_type_id":"4","last_reported":1701896809,"current_range_meters":19200,"station_id":"ce4bhm92rcd13ifvqglg","pricing_plan_id":"free"},{"bike_id":"a74a30c0-3c62-4d5c-bd50-80c35ef7eb2f","system_id":"levelo_inurba_marseille","lat":43.257079,"lon":5.411051,"is_reserved":false,"is_disabled":false,"rental_uris":{"android":"levelo://app?vid=a74a30c0-3c62-4d5c-bd50-80c35ef7eb2f","ios":"levelo://app?vid=a74a30c0-3c62-4d5c-bd50-80c35ef7eb2f"},"vehicle_type_id":"4","last_reported":1701896809,"current_range_meters":21600,"station_id":"ce4bhkp2rcd13ifvqgd0","pricing_plan_id":"free"},{"bike_id":"beadb13e-80b5-46d8-b310-e6facf21a411","system_id":"levelo_inurba_marseille","lat":43.257079,"lon":5.411051,"is_reserved":false,"is_disabled":false,"rental_uris":{"android":"levelo://app?vid=beadb13e-80b5-46d8-b310-e6facf21a411","ios":"levelo://app?vid=beadb13e-80b5-46d8-b310-e6facf21a411"},"vehicle_type_id":"4","last_reported":1701896809,"current_range_meters":4400,"station_id":"ce4bhkp2rcd13ifvqgd0","pricing_plan_id":"free"},{"bike_id":"e1602fb7-dbb0-489c-961b-9627ea130fc4","system_id":"levelo_inurba_marseille","lat":43.257079,"lon":5.411051,"is_reserved":false,"is_disabled":false,"rental_uris":{"android":"levelo://app?vid=e1602fb7-dbb0-489c-961b-9627ea130fc4","ios":"levelo://app?vid=e1602fb7-dbb0-489c-961b-9627ea130fc4"},"vehicle_type_id":"4","last_reported":1701896809,"current_range_meters":4400,"station_id":"ce4bhkp2rcd13ifvqgd0","pricing_plan_id":"free"},{"bike_id":"46c122df-37ab-4053-ad9f-fdecd031d3be","system_id":"levelo_inurba_marseille","lat":43.250009,"lon":5.389195,"is_reserved":false,"is_disabled":false,"rental_uris":{"android":"levelo://app?vid=46c122df-37ab-4053-ad9f-fdecd031d3be","ios":"levelo://app?vid=46c122df-37ab-4053-ad9f-fdecd031d3be"},"vehicle_type_id":"4","last_reported":1701896809,"current_range_meters":26400,"station_id":"ce4bhgp2rcd13ifvqfd0","pricing_plan_id":"free"},{"bike_id":"db11096c-b1d2-4210-baf2-f4812df6a1c7","system_id":"levelo_inurba_marseille","lat":43.250966,"lon":5.395186,"is_reserved":false,"is_disabled":false,"rental_uris":{"android":"levelo://app?vid=db11096c-b1d2-4210-baf2-f4812df6a1c7","ios":"levelo://app?vid=db11096c-b1d2-4210-baf2-f4812df6a1c7"},"vehicle_type_id":"4","last_reported":1701896809,"current_range_meters":25600,"station_id":"ce4bhm12rcd13ifvqgkg","pricing_plan_id":"free"},{"bike_id":"ad60c98b-1966-4e4d-a4f8-6b3eb9eb0eec","system_id":"levelo_inurba_marseille","lat":43.24693,"lon":5.382096,"is_reserved":false,"is_disabled":false,"rental_uris":{"android":"levelo://app?vid=ad60c98b-1966-4e4d-a4f8-6b3eb9eb0eec","ios":"levelo://app?vid=ad60c98b-1966-4e4d-a4f8-6b3eb9eb0eec"},"vehicle_type_id":"4","last_reported":1701896809,"current_range_meters":18400,"station_id":"ce4bhih2rcd13ifvqfr0","pricing_plan_id":"free"},{"bike_id":"a315f003-d862-47d5-859b-4260e5b1ec9c","system_id":"levelo_inurba_marseille","lat":43.24693,"lon":5.382096,"is_reserved":false,"is_disabled":false,"rental_uris":{"android":"levelo://app?vid=a315f003-d862-47d5-859b-4260e5b1ec9c","ios":"levelo://app?vid=a315f003-d862-47d5-859b-4260e5b1ec9c"},"vehicle_type_id":"4","last_reported":1701896809,"current_range_meters":16000,"station_id":"ce4bhih2rcd13ifvqfr0","pricing_plan_id":"free"},{"bike_id":"10e777b0-f261-4e7d-9915-12318d0b9125","system_id":"levelo_inurba_marseille","lat":43.25111,"lon":5.40311,"is_reserved":false,"is_disabled":false,"rental_uris":{"android":"levelo://app?vid=10e777b0-f261-4e7d-9915-12318d0b9125","ios":"levelo://app?vid=10e777b0-f261-4e7d-9915-12318d0b9125"},"vehicle_type_id":"4","last_reported":1701896809,"current_range_meters":6000,"station_id":"ce4bhlh2rcd13ifvqgig","pricing_plan_id":"free"},{"bike_id":"8dbd72b1-00b6-48ce-8048-535bbb38f720","system_id":"levelo_inurba_marseille","lat":43.24657,"lon":5.38159,"is_reserved":false,"is_disabled":false,"rental_uris":{"android":"levelo://app?vid=8dbd72b1-00b6-48ce-8048-535bbb38f720","ios":"levelo://app?vid=8dbd72b1-00b6-48ce-8048-535bbb38f720"},"vehicle_type_id":"4","last_reported":1701896809,"current_range_meters":3600,"station_id":"ce4bhih2rcd13ifvqfr0","pricing_plan_id":"free"},{"bike_id":"9e9dc76d-1ab8-4c44-8855-9e4371b4eb10","system_id":"levelo_inurba_marseille","lat":43.25112,"lon":5.4032,"is_reserved":false,"is_disabled":false,"rental_uris":{"android":"levelo://app?vid=9e9dc76d-1ab8-4c44-8855-9e4371b4eb10","ios":"levelo://app?vid=9e9dc76d-1ab8-4c44-8855-9e4371b4eb10"},"vehicle_type_id":"4","last_reported":1701896809,"current_range_meters":23600,"station_id":"ce4bhlh2rcd13ifvqgig","pricing_plan_id":"free"},{"bike_id":"7cc8fff6-c544-48e7-af6b-2c0b360f8163","system_id":"levelo_inurba_marseille","lat":43.246461,"lon":5.389014,"is_reserved":false,"is_disabled":false,"rental_uris":{"android":"levelo://app?vid=7cc8fff6-c544-48e7-af6b-2c0b360f8163","ios":"levelo://app?vid=7cc8fff6-c544-48e7-af6b-2c0b360f8163"},"vehicle_type_id":"4","last_reported":1701896809,"current_range_meters":22000,"station_id":"ce4bhg12rcd13ifvqf60","pricing_plan_id":"free"},{"bike_id":"57e11f93-757d-4afe-8ec8-7ec2944178b2","system_id":"levelo_inurba_marseille","lat":43.243884,"lon":5.370737,"is_reserved":false,"is_disabled":false,"rental_uris":{"android":"levelo://app?vid=57e11f93-757d-4afe-8ec8-7ec2944178b2","ios":"levelo://app?vid=57e11f93-757d-4afe-8ec8-7ec2944178b2"},"vehicle_type_id":"4","last_reported":1701896809,"current_range_meters":28400,"station_id":"ce4bhhh2rcd13ifvqfk0","pricing_plan_id":"free"},{"bike_id":"cc9a7c1b-5b42-4665-b29b-4c33fa547673","system_id":"levelo_inurba_marseille","lat":43.24547,"lon":5.39521,"is_reserved":false,"is_disabled":false,"rental_uris":{"android":"levelo://app?vid=cc9a7c1b-5b42-4665-b29b-4c33fa547673","ios":"levelo://app?vid=cc9a7c1b-5b42-4665-b29b-4c33fa547673"},"vehicle_type_id":"4","last_reported":1701896809,"current_range_meters":2800,"station_id":"ce4bhlp2rcd13ifvqgjg","pricing_plan_id":"free"},{"bike_id":"d64a5e6a-b681-46c3-9bbb-6b0d932cfcd2","system_id":"levelo_inurba_marseille","lat":43.245581,"lon":5.395069,"is_reserved":false,"is_disabled":false,"rental_uris":{"android":"levelo://app?vid=d64a5e6a-b681-46c3-9bbb-6b0d932cfcd2","ios":"levelo://app?vid=d64a5e6a-b681-46c3-9bbb-6b0d932cfcd2"},"vehicle_type_id":"4","last_reported":1701896809,"current_range_meters":20000,"station_id":"ce4bhlp2rcd13ifvqgjg","pricing_plan_id":"free"},{"bike_id":"5697a5f4-97e0-441f-8313-e9484ec89946","system_id":"levelo_inurba_marseille","lat":43.240623,"lon":5.377642,"is_reserved":false,"is_disabled":false,"rental_uris":{"android":"levelo://app?vid=5697a5f4-97e0-441f-8313-e9484ec89946","ios":"levelo://app?vid=5697a5f4-97e0-441f-8313-e9484ec89946"},"vehicle_type_id":"4","last_reported":1701896809,"current_range_meters":27200,"station_id":"ce4bhnp2rcd13ifvqgvg","pricing_plan_id":"free"},{"bike_id":"356b32b3-0b93-4f2f-b6f8-7a0dfba25754","system_id":"levelo_inurba_marseille","lat":43.240623,"lon":5.377642,"is_reserved":false,"is_disabled":false,"rental_uris":{"android":"levelo://app?vid=356b32b3-0b93-4f2f-b6f8-7a0dfba25754","ios":"levelo://app?vid=356b32b3-0b93-4f2f-b6f8-7a0dfba25754"},"vehicle_type_id":"4","last_reported":1701896809,"current_range_meters":22000,"station_id":"ce4bhnp2rcd13ifvqgvg","pricing_plan_id":"free"},{"bike_id":"eaa278ad-09c3-4f75-9832-35635dbae429","system_id":"levelo_inurba_marseille","lat":43.240623,"lon":5.377642,"is_reserved":false,"is_disabled":false,"rental_uris":{"android":"levelo://app?vid=eaa278ad-09c3-4f75-9832-35635dbae429","ios":"levelo://app?vid=eaa278ad-09c3-4f75-9832-35635dbae429"},"vehicle_type_id":"4","last_reported":1701896809,"current_range_meters":11200,"station_id":"ce4bhnp2rcd13ifvqgvg","pricing_plan_id":"free"},{"bike_id":"56feb6c9-b775-4a96-84cb-01e20c4e7de6","system_id":"levelo_inurba_marseille","lat":43.239588,"lon":5.366238,"is_reserved":false,"is_disabled":false,"rental_uris":{"android":"levelo://app?vid=56feb6c9-b775-4a96-84cb-01e20c4e7de6","ios":"levelo://app?vid=56feb6c9-b775-4a96-84cb-01e20c4e7de6"},"vehicle_type_id":"4","last_reported":1701896809,"current_range_meters":14000,"station_id":"ce4bhi12rcd13ifvqfp0","pricing_plan_id":"free"},{"bike_id":"cb96efd0-e7c3-401d-b6c3-706d1d2ec2bc","system_id":"levelo_inurba_marseille","lat":43.23966,"lon":5.36631,"is_reserved":false,"is_disabled":false,"rental_uris":{"android":"levelo://app?vid=cb96efd0-e7c3-401d-b6c3-706d1d2ec2bc","ios":"levelo://app?vid=cb96efd0-e7c3-401d-b6c3-706d1d2ec2bc"},"vehicle_type_id":"4","last_reported":1701896809,"current_range_meters":800,"station_id":"ce4bhi12rcd13ifvqfp0","pricing_plan_id":"free"},{"bike_id":"6ac1da78-89aa-4704-b08e-9d705cba966c","system_id":"levelo_inurba_marseille","lat":43.239588,"lon":5.366238,"is_reserved":false,"is_disabled":false,"rental_uris":{"android":"levelo://app?vid=6ac1da78-89aa-4704-b08e-9d705cba966c","ios":"levelo://app?vid=6ac1da78-89aa-4704-b08e-9d705cba966c"},"vehicle_type_id":"4","last_reported":1701896809,"current_range_meters":0,"station_id":"ce4bhi12rcd13ifvqfp0","pricing_plan_id":"free"},{"bike_id":"22c65d28-a5e7-495a-992a-fa559900f49b","system_id":"levelo_inurba_marseille","lat":43.241782,"lon":5.397261,"is_reserved":false,"is_disabled":false,"rental_uris":{"android":"levelo://app?vid=22c65d28-a5e7-495a-992a-fa559900f49b","ios":"levelo://app?vid=22c65d28-a5e7-495a-992a-fa559900f49b"},"vehicle_type_id":"4","last_reported":1701896809,"current_range_meters":12400,"station_id":"ce4bhn12rcd13ifvqgpg","pricing_plan_id":"free"},{"bike_id":"7bdcb459-e307-4c9a-a048-89c84ffd93f4","system_id":"levelo_inurba_marseille","lat":43.241687,"lon":5.397385,"is_reserved":false,"is_disabled":false,"rental_uris":{"android":"levelo://app?vid=7bdcb459-e307-4c9a-a048-89c84ffd93f4","ios":"levelo://app?vid=7bdcb459-e307-4c9a-a048-89c84ffd93f4"},"vehicle_type_id":"4","last_reported":1701896809,"current_range_meters":0,"station_id":"ce4bhn12rcd13ifvqgpg","pricing_plan_id":"free"},{"bike_id":"b95bd059-db79-4290-bca3-5a38eb6a8b00","system_id":"levelo_inurba_marseille","lat":43.23187,"lon":5.39975,"is_reserved":false,"is_disabled":false,"rental_uris":{"android":"levelo://app?vid=b95bd059-db79-4290-bca3-5a38eb6a8b00","ios":"levelo://app?vid=b95bd059-db79-4290-bca3-5a38eb6a8b00"},"vehicle_type_id":"4","last_reported":1701896809,"current_range_meters":15600,"station_id":"ce4bhn12rcd13ifvqgqg","pricing_plan_id":"free"},{"bike_id":"2a73e8fa-c92c-487d-afb8-ed18138423a5","system_id":"levelo_inurba_marseille","lat":43.231794,"lon":5.400052,"is_reserved":false,"is_disabled":false,"rental_uris":{"android":"levelo://app?vid=2a73e8fa-c92c-487d-afb8-ed18138423a5","ios":"levelo://app?vid=2a73e8fa-c92c-487d-afb8-ed18138423a5"},"vehicle_type_id":"4","last_reported":1701896809,"current_range_meters":30400,"station_id":"ce4bhn12rcd13ifvqgqg","pricing_plan_id":"free"},{"bike_id":"bf500768-3452-4ed8-986e-9bf0ce06cb33","system_id":"levelo_inurba_marseille","lat":43.23181,"lon":5.399822,"is_reserved":false,"is_disabled":false,"rental_uris":{"android":"levelo://app?vid=bf500768-3452-4ed8-986e-9bf0ce06cb33","ios":"levelo://app?vid=bf500768-3452-4ed8-986e-9bf0ce06cb33"},"vehicle_type_id":"4","last_reported":1701896809,"current_range_meters":9600,"station_id":"ce4bhn12rcd13ifvqgqg","pricing_plan_id":"free"},{"bike_id":"32b30606-14b9-41e6-a49f-da3543c8206c","system_id":"levelo_inurba_marseille","lat":43.231562,"lon":5.436933,"is_reserved":false,"is_disabled":false,"rental_uris":{"android":"levelo://app?vid=32b30606-14b9-41e6-a49f-da3543c8206c","ios":"levelo://app?vid=32b30606-14b9-41e6-a49f-da3543c8206c"},"vehicle_type_id":"4","last_reported":1701896809,"current_range_meters":21600,"station_id":"ce4bhmp2rcd13ifvqgog","pricing_plan_id":"free"},{"bike_id":"58123e06-d55b-449c-a2fc-e1b20834e853","system_id":"levelo_inurba_marseille","lat":43.23154,"lon":5.43711,"is_reserved":false,"is_disabled":false,"rental_uris":{"android":"levelo://app?vid=58123e06-d55b-449c-a2fc-e1b20834e853","ios":"levelo://app?vid=58123e06-d55b-449c-a2fc-e1b20834e853"},"vehicle_type_id":"4","last_reported":1701896809,"current_range_meters":3600,"station_id":"ce4bhmp2rcd13ifvqgog","pricing_plan_id":"free"},{"bike_id":"dafb76d3-48a3-4e10-8abe-6207ac6827bf","system_id":"levelo_inurba_marseille","lat":43.231562,"lon":5.436933,"is_reserved":false,"is_disabled":false,"rental_uris":{"android":"levelo://app?vid=dafb76d3-48a3-4e10-8abe-6207ac6827bf","ios":"levelo://app?vid=dafb76d3-48a3-4e10-8abe-6207ac6827bf"},"vehicle_type_id":"4","last_reported":1701896809,"current_range_meters":16000,"station_id":"ce4bhmp2rcd13ifvqgog","pricing_plan_id":"free"}]}}