{"last_updated":1705970230,"ttl":30,"version":"2.2","data":{"bikes":[{"bike_id":"0115d27a-7335-4647-9214-38a7c5015372","system_id":"levelo_inurba_marseille","lat":43.314811,"lon":5.373103,"is_reserved":false,"is_disabled":false,"rental_uris":{"android":"levelo://app?vid=0115d27a-7335-4647-9214-38a7c5015372","ios":"levelo://app?vid=0115d27a-7335-4647-9214-38a7c5015372"},"vehicle_type_id":"4","last_reported":1705970230,"current_range_meters":28000,"station_id":"ce4bgt12rcd13ifvqcd0","pricing_plan_id":"free"},{"bike_id":"405c96bd-5dcc-4f54-978f-65ffc0ec9bb6","system_id":"levelo_inurba_marseille","lat":43.314811,"lon":5.373103,"is_reserved":false,"is_disabled":false,"rental_uris":{"android":"levelo://app?vid=405c96bd-5dcc-4f54-978f-65ffc0ec9bb6","ios":"levelo://app?vid=405c96bd-5dcc-4f54-978f-65ffc0ec9bb6"},"vehicle_type_id":"4","last_reported":1705970230,"current_range_meters":5600,"station_id":"ce4bgt12rcd13ifvqcd0","pricing_plan_id":"free"},{"bike_id":"98147bdd-4e31-467d-82b3-399ac3146a2e","system_id":"levelo_inurba_marseille","lat":43.314811,"lon":5.373103,"is_reserved":false,"is_disabled":false,"rental_uris":{"android":"levelo://app?vid=98147bdd-4e31-467d-82b3-399ac3146a2e","ios":"levelo://app?vid=98147bdd-4e31-467d-82b3-399ac3146a2e"},"vehicle_type_id":"4","last_reported":1705970230,"current_range_meters":22000,"station_id":"ce4bgt12rcd13ifvqcd0","pricing_plan_id":"free"},{"bike_id":"c7c47c5c-5cf5-41b8-8f78-87208015b124","system_id":"levelo_inurba_marseille","lat":43.314811,"lon":5.373104,"is_reserved":false,"is_disabled":false,"rental_uris":{"android":"levelo://app?vid=c7c47c5c-5cf5-41b8-8f78-87208015b124","ios":"levelo://app?vid=c7c47c5c-5cf5-41b8-8f78-87208015b124"},"vehicle_type_id":"4","last_reported":1705970230,"current_range_meters":27200,"station_id":"ce4bgt12rcd13ifvqcd0","pricing_plan_id":"free"},{"bike_id":"ced3915a-91fa-4f2b-b397-2df2629cb840","system_id":"levelo_inurba_marseille","lat":43.309039,"lon":5.371797,"is_reserved":false,"is_disabled":false,"rental_uris":{"android":"levelo://app?vid=ced3915a-91fa-4f2b-b397-2df2629cb840","ios":"levelo://app?vid=ced3915a-91fa-4f2b-b397-2df2629cb840"},"vehicle_type_id":"4","last_reported":1705970230,"current_range_meters":7600,"station_id":"ce4bguh2rcd13ifvqckg","pricing_plan_id":"free"},{"bike_id":"8d453ee7-0dd8-4f80-bb0e-dca2ae4a82ee","system_id":"levelo_inurba_marseille","lat":43.309039,"lon":5.371797,"is_reserved":false,"is_disabled":false,"rental_uris":{"android":"levelo://app?vid=8d453ee7-0dd8-4f80-bb0e-dca2ae4a82ee","ios":"levelo://app?vid=8d453ee7-0dd8-4f80-bb0e-dca2ae4a82ee"},"vehicle_type_id":"4","last_reported":1705970230,"current_range_meters":30400,"station_id":"ce4bguh2rcd13ifvqckg","pricing_plan_id":"free"},{"bike_id":"75dc3f8f-7d9b-4411-913a-c405e7fee07c","system_id":"levelo_inurba_marseille","lat":43.309039,"lon":5.371797,"is_reserved":false,"is_disabled":false,"rental_uris":{"android":"levelo://app?vid=75dc3f8f-7d9b-4411-913a-c405e7fee07c","ios":"levelo://app?vid=75dc3f8f-7d9b-4411-913a-c405e7fee07c"},"vehicle_type_id":"4","last_reported":1705970230,"current_range_meters":0,"station_id":"ce4bguh2rcd13ifvqckg","pricing_plan_id":"free"},{"bike_id":"c7e337d6-6ef2-430a-a562-03135eda89d7","system_id":"levelo_inurba_marseille","lat":43.305989,"lon":5.37225,"is_reserved":false,"is_disabled":false,"rental_uris":{"android":"levelo://app?vid=c7e337d6-6ef2-430a-a562-03135eda89d7","ios":"levelo://app?vid=c7e337d6-6ef2-430a-a562-03135eda89d7"},"vehicle_type_id":"4","last_reported":1705970230,"current_range_meters":6000,"station_id":"ce4bgqh2rcd13ifvqc4g","pricing_plan_id":"free"},{"bike_id":"186118e3-0cbc-493a-9795-c02b72708984","system_id":"levelo_inurba_marseille","lat":43.305989,"lon":5.37225,"is_reserved":false,"is_disabled":false,"rental_uris":{"android":"levelo://app?vid=186118e3-0cbc-493a-9795-c02b72708984","ios":"levelo://app?vid=186118e3-0cbc-493a-9795-c02b72708984"},"vehicle_type_id":"4","last_reported":1705970230,"current_range_meters":28000,"station_id":"ce4bgqh2rcd13ifvqc4g","pricing_plan_id":"free"},{"bike_id":"686f60c3-0aa1-4f7f-9d26-bf9d46e78eb6","system_id":"levelo_inurba_marseille","lat":43.311131,"lon":5.377651,"is_reserved":false,"is_disabled":false,"rental_uris":{"android":"levelo://app?vid=686f60c3-0aa1-4f7f-9d26-bf9d46e78eb6","ios":"levelo://app?vid=686f60c3-0aa1-4f7f-9d26-bf9d46e78eb6"},"vehicle_type_id":"4","last_reported":1705970230,"current_range_meters":17200,"station_id":"ce4bgt92rcd13ifvqcg0","pricing_plan_id":"free"},{"bike_id":"84f3ad9c-1aa2-469a-a47c-72bee066b7e0","system_id":"levelo_inurba_marseille","lat":43.311131,"lon":5.377651,"is_reserved":false,"is_disabled":false,"rental_uris":{"android":"levelo://app?vid=84f3ad9c-1aa2-469a-a47c-72bee066b7e0","ios":"levelo://app?vid=84f3ad9c-1aa2-469a-a47c-72bee066b7e0"},"vehicle_type_id":"4","last_reported":1705970230,"current_range_meters":0,"station_id":"ce4bgt92rcd13ifvqcg0","pricing_plan_id":"free"},{"bike_id":"5ff8f691-1aa3-4c02-932d-ec8c5d570399","system_id":"levelo_inurba_marseille","lat":43.311131,"lon":5.377651,"is_reserved":false,"is_disabled":false,"rental_uris":{"android":"levelo://app?vid=5ff8f691-1aa3-4c02-932d-ec8c5d570399","ios":"levelo://app?vid=5ff8f691-1aa3-4c02-932d-ec8c5d570399"},"vehicle_type_id":"4","last_reported":1705970230,"current_range_meters":16400,"station_id":"ce4bgt92rcd13ifvqcg0","pricing_plan_id":"free"},{"bike_id":"1f4cc8a1-61a5-4902-b684-71376067c557","system_id":"levelo_inurba_marseille","lat":43.311131,"lon":5.377651,"is_reserved":false,"is_disabled":false,"rental_uris":{"android":"levelo://app?vid=1f4cc8a1-61a5-4902-b684-71376067c557","ios":"levelo://app?vid=1f4cc8a1-61a5-4902-b684-71376067c557"},"vehicle_type_id":"4","last_reported":1705970230,"current_range_meters":6800,"station_id":"ce4bgt92rcd13ifvqcg0","pricing_plan_id":"free"},{"bike_id":"65ab9c17-cc69-4bd7-bd19-a5fd2e769315","system_id":"levelo_inurba_marseille","lat":43.311131,"lon":5.377651,"is_reserved":false,"is_disabled":false,"rental_uris":{"android":"levelo://app?vid=65ab9c17-cc69-4bd7-bd19-a5fd2e769315","ios":"levelo://app?vid=65ab9c17-cc69-4bd7-bd19-a5fd2e769315"},"vehicle_type_id":"4","last_reported":1705970230,"current_range_meters":10800,"station_id":"ce4bgt92rcd13ifvqcg0","pricing_plan_id":"free"},{"bike_id":"8dacbb65-5f4f-4dfa-885a-b0b450fa2cf5","system_id":"levelo_inurba_marseille","lat":43.311125,"lon":5.377624,"is_reserved":false,"is_disabled":false,"rental_uris":{"android":"levelo://app?vid=8dacbb65-5f4f-4dfa-885a-b0b450fa2cf5","ios":"levelo://app?vid=8dacbb65-5f4f-4dfa-885a-b0b450fa2cf5"},"vehicle_type_id":"4","last_reported":1705970230,"current_range_meters":27600,"station_id":"ce4bgt92rcd13ifvqcg0","pricing_plan_id":"free"},{"bike_id":"4088c6f3-d158-450d-a5d1-5141bf2507bb","system_id":"levelo_inurba_marseille","lat":43.307945,"lon":5.376487,"is_reserved":false,"is_disabled":false,"rental_uris":{"android":"levelo://app?vid=4088c6f3-d158-450d-a5d1-5141bf2507bb","ios":"levelo://app?vid=4088c6f3-d158-450d-a5d1-5141bf2507bb"},"vehicle_type_id":"4","last_reported":1705970230,"current_range_meters":0,"station_id":"ce4bgv92rcd13ifvqcq0","pricing_plan_id":"free"},{"bike_id":"7766a29e-b792-45e6-828e-b1550934ef04","system_id":"levelo_inurba_marseille","lat":43.307945,"lon":5.376487,"is_reserved":false,"is_disabled":false,"rental_uris":{"android":"levelo://app?vid=7766a29e-b792-45e6-828e-b1550934ef04","ios":"levelo://app?vid=7766a29e-b792-45e6-828e-b1550934ef04"},"vehicle_type_id":"4","last_reported":1705970230,"current_range_meters":29200,"station_id":"ce4bgv92rcd13ifvqcq0","pricing_plan_id":"free"},{"bike_id":"d7854f2c-e25b-4567-9ca1-100b79dde627","system_id":"levelo_inurba_marseille","lat":43.31711,"lon":5.37686,"is_reserved":false,"is_disabled":false,"rental_uris":{"android":"levelo://app?vid=d7854f2c-e25b-4567-9ca1-100b79dde627","ios":"levelo://app?vid=d7854f2c-e25b-4567-9ca1-100b79dde627"},"vehicle_type_id":"4","last_reported":1705970230,"current_range_meters":16800,"station_id":"ce4bgth2rcd13ifvqch0","pricing_plan_id":"free"},{"bike_id":"bb076879-2da2-4ee0-8f02-f90c12e9d30a","system_id":"levelo_inurba_marseille","lat":43.307945,"lon":5.376487,"is_reserved":false,"is_disabled":false,"rental_uris":{"android":"levelo://app?vid=bb076879-2da2-4ee0-8f02-f90c12e9d30a","ios":"levelo://app?vid=bb076879-2da2-4ee0-8f02-f90c12e9d30a"},"vehicle_type_id":"4","last_reported":1705970230,"current_range_meters":9600,"station_id":"ce4bgv92rcd13ifvqcq0","pricing_plan_id":"free"},{"bike_id":"5f955857-1cfe-43b3-b4eb-cf45edda73ce","system_id":"levelo_inurba_marseille","lat":43.307945,"lon":5.376487,"is_reserved":false,"is_disabled":false,"rental_uris":{"android":"levelo://app?vid=5f955857-1cfe-43b3-b4eb-cf45edda73ce","ios":"levelo://app?vid=5f955857-1cfe-43b3-b4eb-cf45edda73ce"},"vehicle_type_id":"4","last_reported":1705970230,"current_range_meters":28000,"station_id":"ce4bgv92rcd13ifvqcq0","pricing_plan_id":"free"},{"bike_id":"3e56dc5f-4ea7-40c4-9c6a-5f07c8416939","system_id":"levelo_inurba_marseille","lat":43.317075,"lon":5.377367,"is_reserved":false,"is_disabled":false,"rental_uris":{"android":"levelo://app?vid=3e56dc5f-4ea7-40c4-9c6a-5f07c8416939","ios":"levelo://app?vid=3e56dc5f-4ea7-40c4-9c6a-5f07c8416939"},"vehicle_type_id":"4","last_reported":1705970230,"current_range_meters":800,"station_id":"ce4bgth2rcd13ifvqch0","pricing_plan_id":"free"},{"bike_id":"e1b4ba37-08ab-48cb-ae70-f2d4047c4238","system_id":"levelo_inurba_marseille","lat":43.317075,"lon":5.377367,"is_reserved":false,"is_disabled":false,"rental_uris":{"android":"levelo://app?vid=e1b4ba37-08ab-48cb-ae70-f2d4047c4238","ios":"levelo://app?vid=e1b4ba37-08ab-48cb-ae70-f2d4047c4238"},"vehicle_type_id":"4","last_reported":1705970230,"current_range_meters":18800,"station_id":"ce4bgth2rcd13ifvqch0","pricing_plan_id":"free"},{"bike_id":"1b902033-e249-4853-afc6-d16dea6b540f","system_id":"levelo_inurba_marseille","lat":43.30933,"lon":5.3787,"is_reserved":false,"is_disabled":false,"rental_uris":{"android":"levelo://app?vid=1b902033-e249-4853-afc6-d16dea6b540f","ios":"levelo://app?vid=1b902033-e249-4853-afc6-d16dea6b540f"},"vehicle_type_id":"4","last_reported":1705970230,"current_range_meters":20000,"station_id":"","pricing_plan_id":"free"},{"bike_id":"07595579-ec4b-4e42-8902-a7bf4c0540be","system_id":"levelo_inurba_marseille","lat":43.30304,"lon":5.368987,"is_reserved":false,"is_disabled":false,"rental_uris":{"android":"levelo://app?vid=07595579-ec4b-4e42-8902-a7bf4c0540be","ios":"levelo://app?vid=07595579-ec4b-4e42-8902-a7bf4c0540be"},"vehicle_type_id":"4","last_reported":1705970230,"current_range_meters":30400,"station_id":"ce4bgqh2rcd13ifvqc5g","pricing_plan_id":"free"},{"bike_id":"84341a88-fcb5-43ec-838b-3b236d43415a","system_id":"levelo_inurba_marseille","lat":43.315293,"lon":5.380349,"is_reserved":false,"is_disabled":false,"rental_uris":{"android":"levelo://app?vid=84341a88-fcb5-43ec-838b-3b236d43415a","ios":"levelo://app?vid=84341a88-fcb5-43ec-838b-3b236d43415a"},"vehicle_type_id":"4","last_reported":1705970230,"current_range_meters":13200,"station_id":"ce4bhsp2rcd13ifvqi50","pricing_plan_id":"free"},{"bike_id":"ab36abfb-5fa9-418f-b6d5-87258ee5ded9","system_id":"levelo_inurba_marseille","lat":43.315295,"lon":5.38035,"is_reserved":false,"is_disabled":false,"rental_uris":{"android":"levelo://app?vid=ab36abfb-5fa9-418f-b6d5-87258ee5ded9","ios":"levelo://app?vid=ab36abfb-5fa9-418f-b6d5-87258ee5ded9"},"vehicle_type_id":"4","last_reported":1705970230,"current_range_meters":8000,"station_id":"ce4bhsp2rcd13ifvqi50","pricing_plan_id":"free"},{"bike_id":"aa211785-43fa-4455-8275-762aeb5fac6e","system_id":"levelo_inurba_marseille","lat":43.301939,"lon":5.366286,"is_reserved":false,"is_disabled":false,"rental_uris":{"android":"levelo://app?vid=aa211785-43fa-4455-8275-762aeb5fac6e","ios":"levelo://app?vid=aa211785-43fa-4455-8275-762aeb5fac6e"},"vehicle_type_id":"4","last_reported":1705970230,"current_range_meters":25600,"station_id":"ce4bgrh2rcd13ifvqc8g","pricing_plan_id":"free"},{"bike_id":"2d8a77ca-906f-4c67-92dc-25200a97f624","system_id":"levelo_inurba_marseille","lat":43.308012,"lon":5.381511,"is_reserved":false,"is_disabled":false,"rental_uris":{"android":"levelo://app?vid=2d8a77ca-906f-4c67-92dc-25200a97f624","ios":"levelo://app?vid=2d8a77ca-906f-4c67-92dc-25200a97f624"},"vehicle_type_id":"4","last_reported":1705970230,"current_range_meters":24400,"station_id":"ce4bgt12rcd13ifvqce0","pricing_plan_id":"free"},{"bike_id":"a09406a2-2af3-4bd8-8e70-f13ade10a8ff","system_id":"levelo_inurba_marseille","lat":43.308012,"lon":5.381511,"is_reserved":false,"is_disabled":false,"rental_uris":{"android":"levelo://app?vid=a09406a2-2af3-4bd8-8e70-f13ade10a8ff","ios":"levelo://app?vid=a09406a2-2af3-4bd8-8e70-f13ade10a8ff"},"vehicle_type_id":"4","last_reported":1705970230,"current_range_meters":2800,"station_id":"ce4bgt12rcd13ifvqce0","pricing_plan_id":"free"},{"bike_id":"9df424e3-f7e8-4bf2-ba3a-9f9e045f053d","system_id":"levelo_inurba_marseille","lat":43.308012,"lon":5.381511,"is_reserved":false,"is_disabled":false,"rental_uris":{"android":"levelo://app?vid=9df424e3-f7e8-4bf2-ba3a-9f9e045f053d","ios":"levelo://app?vid=9df424e3-f7e8-4bf2-ba3a-9f9e045f053d"},"vehicle_type_id":"4","last_reported":1705970230,"current_range_meters":12400,"station_id":"ce4bgt12rcd13ifvqce0","pricing_plan_id":"free"},{"bike_id":"295d3811-aef1-40e5-9b6f-ce0decd7771e","system_id":"levelo_inurba_marseille","lat":43.308012,"lon":5.381511,"is_reserved":false,"is_disabled":false,"rental_uris":{"android":"levelo://app?vid=295d3811-aef1-40e5-9b6f-ce0decd7771e","ios":"levelo://app?vid=295d3811-aef1-40e5-9b6f-ce0decd7771e"},"vehicle_type_id":"4","last_reported":1705970230,"current_range_meters":16400,"station_id":"ce4bgt12rcd13ifvqce0","pricing_plan_id":"free"},{"bike_id":"f93cc772-b58e-4458-8619-0473e98f7662","system_id":"levelo_inurba_marseille","lat":43.297946,"lon":5.404063,"is_reserved":false,"is_disabled":false,"rental_uris":{"android":"levelo://app?vid=f93cc772-b58e-4458-8619-0473e98f7662","ios":"levelo://app?vid=f93cc772-b58e-4458-8619-0473e98f7662"},"vehicle_type_id":"4","last_reported":1705970230,"current_range_meters":22800,"station_id":"ce4bh112rcd13ifvqd90","pricing_plan_id":"free"},{"bike_id":"87478fc2-fbc3-47c1-90ff-1d4ec9f4f718","system_id":"levelo_inurba_marseille","lat":43.324771,"lon":5.36557,"is_reserved":false,"is_disabled":false,"rental_uris":{"android":"levelo://app?vid=87478fc2-fbc3-47c1-90ff-1d4ec9f4f718","ios":"levelo://app?vid=87478fc2-fbc3-47c1-90ff-1d4ec9f4f718"},"vehicle_type_id":"4","last_reported":1705970230,"current_range_meters":2400,"station_id":"ce4bhs12rcd13ifvqhvg","pricing_plan_id":"free"},{"bike_id":"603f1217-9350-4f39-b257-bdc4d9f38a2b","system_id":"levelo_inurba_marseille","lat":43.324771,"lon":5.36557,"is_reserved":false,"is_disabled":false,"rental_uris":{"android":"levelo://app?vid=603f1217-9350-4f39-b257-bdc4d9f38a2b","ios":"levelo://app?vid=603f1217-9350-4f39-b257-bdc4d9f38a2b"},"vehicle_type_id":"4","last_reported":1705970230,"current_range_meters":22000,"station_id":"ce4bhs12rcd13ifvqhvg","pricing_plan_id":"free"},{"bike_id":"04340357-b7de-47d9-9c21-c05f5064ddef","system_id":"levelo_inurba_marseille","lat":43.324771,"lon":5.36557,"is_reserved":false,"is_disabled":false,"rental_uris":{"android":"levelo://app?vid=04340357-b7de-47d9-9c21-c05f5064ddef","ios":"levelo://app?vid=04340357-b7de-47d9-9c21-c05f5064ddef"},"vehicle_type_id":"4","last_reported":1705970230,"current_range_meters":4800,"station_id":"ce4bhs12rcd13ifvqhvg","pricing_plan_id":"free"},{"bike_id":"58675aee-02e4-4a50-a48f-3fc4c3327eb8","system_id":"levelo_inurba_marseille","lat":43.302903,"lon":5.376933,"is_reserved":false,"is_disabled":false,"rental_uris":{"android":"levelo://app?vid=58675aee-02e4-4a50-a48f-3fc4c3327eb8","ios":"levelo://app?vid=58675aee-02e4-4a50-a48f-3fc4c3327eb8"},"vehicle_type_id":"4","last_reported":1705970230,"current_range_meters":1600,"station_id":"ce4bguh2rcd13ifvqcj0","pricing_plan_id":"free"},{"bike_id":"2c7327fb-2c07-4a7c-bc89-dd7f6ead3891","system_id":"levelo_inurba_marseille","lat":43.302784,"lon":5.377158,"is_reserved":false,"is_disabled":false,"rental_uris":{"android":"levelo://app?vid=2c7327fb-2c07-4a7c-bc89-dd7f6ead3891","ios":"levelo://app?vid=2c7327fb-2c07-4a7c-bc89-dd7f6ead3891"},"vehicle_type_id":"4","last_reported":1705970230,"current_range_meters":16800,"station_id":"ce4bguh2rcd13ifvqcj0","pricing_plan_id":"free"},{"bike_id":"17cc0502-c457-497c-934c-0fc18c7a92a4","system_id":"levelo_inurba_marseille","lat":43.302784,"lon":5.377158,"is_reserved":false,"is_disabled":false,"rental_uris":{"android":"levelo://app?vid=17cc0502-c457-497c-934c-0fc18c7a92a4","ios":"levelo://app?vid=17cc0502-c457-497c-934c-0fc18c7a92a4"},"vehicle_type_id":"4","last_reported":1705970230,"current_range_meters":14000,"station_id":"ce4bguh2rcd13ifvqcj0","pricing_plan_id":"free"},{"bike_id":"4138e17a-2b06-4fa0-b6c2-16ccdadf1dee","system_id":"levelo_inurba_marseille","lat":43.301429,"lon":5.37413,"is_reserved":false,"is_disabled":false,"rental_uris":{"android":"levelo://app?vid=4138e17a-2b06-4fa0-b6c2-16ccdadf1dee","ios":"levelo://app?vid=4138e17a-2b06-4fa0-b6c2-16ccdadf1dee"},"vehicle_type_id":"4","last_reported":1705970230,"current_range_meters":6400,"station_id":"ce4bgs92rcd13ifvqcc0","pricing_plan_id":"free"},{"bike_id":"41a3b242-96f8-40a9-baa0-95ffc3efa267","system_id":"levelo_inurba_marseille","lat":43.30143,"lon":5.37413,"is_reserved":false,"is_disabled":false,"rental_uris":{"android":"levelo://app?vid=41a3b242-96f8-40a9-baa0-95ffc3efa267","ios":"levelo://app?vid=41a3b242-96f8-40a9-baa0-95ffc3efa267"},"vehicle_type_id":"4","last_reported":1705970230,"current_range_meters":26000,"station_id":"ce4bgs92rcd13ifvqcc0","pricing_plan_id":"free"},{"bike_id":"fd388e30-6c90-4fbf-abdf-dd15ef425659","system_id":"levelo_inurba_marseille","lat":43.31996,"lon":5.38147,"is_reserved":false,"is_disabled":false,"rental_uris":{"android":"levelo://app?vid=fd388e30-6c90-4fbf-abdf-dd15ef425659","ios":"levelo://app?vid=fd388e30-6c90-4fbf-abdf-dd15ef425659"},"vehicle_type_id":"4","last_reported":1705970230,"current_range_meters":24000,"station_id":"ce4bhr12rcd13ifvqhpg","pricing_plan_id":"free"},{"bike_id":"89784ae0-3df5-4c6d-8bcd-f93d30003d3c","system_id":"levelo_inurba_marseille","lat":43.319935,"lon":5.381699,"is_reserved":false,"is_disabled":false,"rental_uris":{"android":"levelo://app?vid=89784ae0-3df5-4c6d-8bcd-f93d30003d3c","ios":"levelo://app?vid=89784ae0-3df5-4c6d-8bcd-f93d30003d3c"},"vehicle_type_id":"4","last_reported":1705970230,"current_range_meters":10000,"station_id":"ce4bhr12rcd13ifvqhpg","pricing_plan_id":"free"},{"bike_id":"5dea0a61-e9d0-47a8-943b-2d1f36a0d2ed","system_id":"levelo_inurba_marseille","lat":43.319935,"lon":5.381699,"is_reserved":false,"is_disabled":false,"rental_uris":{"android":"levelo://app?vid=5dea0a61-e9d0-47a8-943b-2d1f36a0d2ed","ios":"levelo://app?vid=5dea0a61-e9d0-47a8-943b-2d1f36a0d2ed"},"vehicle_type_id":"4","last_reported":1705970230,"current_range_meters":18800,"station_id":"ce4bhr12rcd13ifvqhpg","pricing_plan_id":"free"},{"bike_id":"6b1614fb-3b40-4aa7-aa72-1564ab2cd937","system_id":"levelo_inurba_marseille","lat":43.319935,"lon":5.381699,"is_reserved":false,"is_disabled":false,"rental_uris":{"android":"levelo://app?vid=6b1614fb-3b40-4aa7-aa72-1564ab2cd937","ios":"levelo://app?vid=6b1614fb-3b40-4aa7-aa72-1564ab2cd937"},"vehicle_type_id":"4","last_reported":1705970230,"current_range_meters":0,"station_id":"ce4bhr12rcd13ifvqhpg","pricing_plan_id":"free"},{"bike_id":"80151102-94f6-4718-b770-9c657f000af1","system_id":"levelo_inurba_marseille","lat":43.319935,"lon":5.381699,"is_reserved":false,"is_disabled":false,"rental_uris":{"android":"levelo://app?vid=80151102-94f6-4718-b770-9c657f000af1","ios":"levelo://app?vid=80151102-94f6-4718-b770-9c657f000af1"},"vehicle_type_id":"4","last_reported":1705970230,"current_range_meters":23200,"station_id":"ce4bhr12rcd13ifvqhpg","pricing_plan_id":"free"},{"bike_id":"06c6a0e8-9fc9-4cd4-a1d9-3a103d1e1fe1","system_id":"levelo_inurba_marseille","lat":43.319935,"lon":5.381699,"is_reserved":false,"is_disabled":false,"rental_uris":{"android":"levelo://app?vid=06c6a0e8-9fc9-4cd4-a1d9-3a103d1e1fe1","ios":"levelo://app?vid=06c6a0e8-9fc9-4cd4-a1d9-3a103d1e1fe1"},"vehicle_type_id":"4","last_reported":1705970230,"current_range_meters":13600,"station_id":"ce4bhr12rcd13ifvqhpg","pricing_plan_id":"free"},{"bike_id":"45f16985-5dbf-4c42-8a7b-c2a98cbaf9c6","system_id":"levelo_inurba_marseille","lat":43.319935,"lon":5.381699,"is_reserved":false,"is_disabled":false,"rental_uris":{"android":"levelo://app?vid=45f16985-5dbf-4c42-8a7b-c2a98cbaf9c6","ios":"levelo://app?vid=45f16985-5dbf-4c42-8a7b-c2a98cbaf9c6"},"vehicle_type_id":"4","last_reported":1705970230,"current_range_meters":7200,"station_id":"ce4bhr12rcd13ifvqhpg","pricing_plan_id":"free"},{"bike_id":"e113d1c9-da08-4be0-8879-80169af1faf2","system_id":"levelo_inurba_marseille","lat":43.320029,"lon":5.381539,"is_reserved":false,"is_disabled":false,"rental_uris":{"android":"levelo://app?vid=e113d1c9-da08-4be0-8879-80169af1faf2","ios":"levelo://app?vid=e113d1c9-da08-4be0-8879-80169af1faf2"},"vehicle_type_id":"4","last_reported":1705970230,"current_range_meters":20000,"station_id":"ce4bhr12rcd13ifvqhpg","pricing_plan_id":"free"},{"bike_id":"3fb42323-42ae-4e8f-9257-228ce5e54392","system_id":"levelo_inurba_marseille","lat":43.319935,"lon":5.381699,"is_reserved":false,"is_disabled":false,"rental_uris":{"android":"levelo://app?vid=3fb42323-42ae-4e8f-9257-228ce5e54392","ios":"levelo://app?vid=3fb42323-42ae-4e8f-9257-228ce5e54392"},"vehicle_type_id":"4","last_reported":1705970230,"current_range_meters":10800,"station_id":"ce4bhr12rcd13ifvqhpg","pricing_plan_id":"free"},{"bike_id":"5089c761-c622-44d7-ba8f-cc79de596156","system_id":"levelo_inurba_marseille","lat":43.319935,"lon":5.381699,"is_reserved":false,"is_disabled":false,"rental_uris":{"android":"levelo://app?vid=5089c761-c622-44d7-ba8f-cc79de596156","ios":"levelo://app?vid=5089c761-c622-44d7-ba8f-cc79de596156"},"vehicle_type_id":"4","last_reported":1705970230,"current_range_meters":20400,"station_id":"ce4bhr12rcd13ifvqhpg","pricing_plan_id":"free"},{"bike_id":"e6e221d3-abf9-45ff-81cf-60fdfe5384a7","system_id":"levelo_inurba_marseille","lat":43.31363,"lon":5.38489,"is_reserved":false,"is_disabled":false,"rental_uris":{"android":"levelo://app?vid=e6e221d3-abf9-45ff-81cf-60fdfe5384a7","ios":"levelo://app?vid=e6e221d3-abf9-45ff-81cf-60fdfe5384a7"},"vehicle_type_id":"4","last_reported":1705970230,"current_range_meters":1600,"station_id":"ce4bgt92rcd13ifvqcf0","pricing_plan_id":"free"},{"bike_id":"24c5e7af-c20b-4b72-a167-28ab45b95e7c","system_id":"levelo_inurba_marseille","lat":43.313691,"lon":5.384937,"is_reserved":false,"is_disabled":false,"rental_uris":{"android":"levelo://app?vid=24c5e7af-c20b-4b72-a167-28ab45b95e7c","ios":"levelo://app?vid=24c5e7af-c20b-4b72-a167-28ab45b95e7c"},"vehicle_type_id":"4","last_reported":1705970230,"current_range_meters":3600,"station_id":"ce4bgt92rcd13ifvqcf0","pricing_plan_id":"free"},{"bike_id":"7a0751fd-2caf-4753-b767-9e1c9645824a","system_id":"levelo_inurba_marseille","lat":43.313737,"lon":5.384963,"is_reserved":false,"is_disabled":false,"rental_uris":{"android":"levelo://app?vid=7a0751fd-2caf-4753-b767-9e1c9645824a","ios":"levelo://app?vid=7a0751fd-2caf-4753-b767-9e1c9645824a"},"vehicle_type_id":"4","last_reported":1705970230,"current_range_meters":26400,"station_id":"ce4bgt92rcd13ifvqcf0","pricing_plan_id":"free"},{"bike_id":"5da48d6c-0992-49f9-9c74-ea1e1595d117","system_id":"levelo_inurba_marseille","lat":43.3136,"lon":5.38501,"is_reserved":false,"is_disabled":false,"rental_uris":{"android":"levelo://app?vid=5da48d6c-0992-49f9-9c74-ea1e1595d117","ios":"levelo://app?vid=5da48d6c-0992-49f9-9c74-ea1e1595d117"},"vehicle_type_id":"4","last_reported":1705970230,"current_range_meters":22000,"station_id":"ce4bgt92rcd13ifvqcf0","pricing_plan_id":"free"},{"bike_id":"e284a0c3-a59b-457c-ac8e-8817790a1e19","system_id":"levelo_inurba_marseille","lat":43.31354,"lon":5.38502,"is_reserved":false,"is_disabled":false,"rental_uris":{"android":"levelo://app?vid=e284a0c3-a59b-457c-ac8e-8817790a1e19","ios":"levelo://app?vid=e284a0c3-a59b-457c-ac8e-8817790a1e19"},"vehicle_type_id":"4","last_reported":1705970230,"current_range_meters":10800,"station_id":"ce4bgt92rcd13ifvqcf0","pricing_plan_id":"free"},{"bike_id":"33ed264c-8c02-4dba-87ef-0cd23c87e63c","system_id":"levelo_inurba_marseille","lat":43.313571,"lon":5.384829,"is_reserved":false,"is_disabled":false,"rental_uris":{"android":"levelo://app?vid=33ed264c-8c02-4dba-87ef-0cd23c87e63c","ios":"levelo://app?vid=33ed264c-8c02-4dba-87ef-0cd23c87e63c"},"vehicle_type_id":"4","last_reported":1705970230,"current_range_meters":12400,"station_id":"ce4bgt92rcd13ifvqcf0","pricing_plan_id":"free"},{"bike_id":"65b9e506-d217-45e9-a58a-c07512719a34","system_id":"levelo_inurba_marseille","lat":43.299724,"lon":5.371829,"is_reserved":false,"is_disabled":false,"rental_uris":{"android":"levelo://app?vid=65b9e506-d217-45e9-a58a-c07512719a34","ios":"levelo://app?vid=65b9e506-d217-45e9-a58a-c07512719a34"},"vehicle_type_id":"4","last_reported":1705970230,"current_range_meters":13600,"station_id":"ce4bgr92rcd13ifvqc7g","pricing_plan_id":"free"},{"bike_id":"79d2d98a-29f2-4ffd-ae01-bfd8a1fa05d5","system_id":"levelo_inurba_marseille","lat":43.328371,"lon":5.366912,"is_reserved":false,"is_disabled":false,"rental_uris":{"android":"levelo://app?vid=79d2d98a-29f2-4ffd-ae01-bfd8a1fa05d5","ios":"levelo://app?vid=79d2d98a-29f2-4ffd-ae01-bfd8a1fa05d5"},"vehicle_type_id":"4","last_reported":1705970230,"current_range_meters":22000,"station_id":"ce4bhs92rcd13ifvqi0g","pricing_plan_id":"free"},{"bike_id":"52774181-19c3-4858-a16a-2f41bf9955a8","system_id":"levelo_inurba_marseille","lat":43.311722,"lon":5.387247,"is_reserved":false,"is_disabled":false,"rental_uris":{"android":"levelo://app?vid=52774181-19c3-4858-a16a-2f41bf9955a8","ios":"levelo://app?vid=52774181-19c3-4858-a16a-2f41bf9955a8"},"vehicle_type_id":"4","last_reported":1705970230,"current_range_meters":22400,"station_id":"ce4bgv12rcd13ifvqcp0","pricing_plan_id":"free"},{"bike_id":"70792a1d-c0e3-4359-96bd-482c0f0ea0ef","system_id":"levelo_inurba_marseille","lat":43.311841,"lon":5.3871,"is_reserved":false,"is_disabled":false,"rental_uris":{"android":"levelo://app?vid=70792a1d-c0e3-4359-96bd-482c0f0ea0ef","ios":"levelo://app?vid=70792a1d-c0e3-4359-96bd-482c0f0ea0ef"},"vehicle_type_id":"4","last_reported":1705970230,"current_range_meters":20400,"station_id":"ce4bgv12rcd13ifvqcp0","pricing_plan_id":"free"},{"bike_id":"1b0fa554-ab5c-4006-ac69-441ed8943a11","system_id":"levelo_inurba_marseille","lat":43.311722,"lon":5.387247,"is_reserved":false,"is_disabled":false,"rental_uris":{"android":"levelo://app?vid=1b0fa554-ab5c-4006-ac69-441ed8943a11","ios":"levelo://app?vid=1b0fa554-ab5c-4006-ac69-441ed8943a11"},"vehicle_type_id":"4","last_reported":1705970230,"current_range_meters":21200,"station_id":"ce4bgv12rcd13ifvqcp0","pricing_plan_id":"free"},{"bike_id":"21c212ba-81ae-4db9-9e3e-0045dd97a1b1","system_id":"levelo_inurba_marseille","lat":43.311722,"lon":5.387247,"is_reserved":false,"is_disabled":false,"rental_uris":{"android":"levelo://app?vid=21c212ba-81ae-4db9-9e3e-0045dd97a1b1","ios":"levelo://app?vid=21c212ba-81ae-4db9-9e3e-0045dd97a1b1"},"vehicle_type_id":"4","last_reported":1705970230,"current_range_meters":19200,"station_id":"ce4bgv12rcd13ifvqcp0","pricing_plan_id":"free"},{"bike_id":"84b64d9c-9c1c-41c1-bcec-1ec9166cf97a","system_id":"levelo_inurba_marseille","lat":43.311722,"lon":5.387247,"is_reserved":false,"is_disabled":false,"rental_uris":{"android":"levelo://app?vid=84b64d9c-9c1c-41c1-bcec-1ec9166cf97a","ios":"levelo://app?vid=84b64d9c-9c1c-41c1-bcec-1ec9166cf97a"},"vehicle_type_id":"4","last_reported":1705970230,"current_range_meters":32000,"station_id":"ce4bgv12rcd13ifvqcp0","pricing_plan_id":"free"},{"bike_id":"56e4a17e-76f3-4c5d-ac01-bb34923a1cbd","system_id":"levelo_inurba_marseille","lat":43.311722,"lon":5.387247,"is_reserved":false,"is_disabled":false,"rental_uris":{"android":"levelo://app?vid=56e4a17e-76f3-4c5d-ac01-bb34923a1cbd","ios":"levelo://app?vid=56e4a17e-76f3-4c5d-ac01-bb34923a1cbd"},"vehicle_type_id":"4","last_reported":1705970230,"current_range_meters":25200,"station_id":"ce4bgv12rcd13ifvqcp0","pricing_plan_id":"free"},{"bike_id":"5c32db99-eae0-434b-b173-92acb2ae6beb","system_id":"levelo_inurba_marseille","lat":43.311722,"lon":5.387247,"is_reserved":false,"is_disabled":false,"rental_uris":{"android":"levelo://app?vid=5c32db99-eae0-434b-b173-92acb2ae6beb","ios":"levelo://app?vid=5c32db99-eae0-434b-b173-92acb2ae6beb"},"vehicle_type_id":"4","last_reported":1705970230,"current_range_meters":23200,"station_id":"ce4bgv12rcd13ifvqcp0","pricing_plan_id":"free"},{"bike_id":"4063599e-7136-4157-90f5-ef8c0a11ca10","system_id":"levelo_inurba_marseille","lat":43.299243,"lon":5.37481,"is_reserved":false,"is_disabled":false,"rental_uris":{"android":"levelo://app?vid=4063599e-7136-4157-90f5-ef8c0a11ca10","ios":"levelo://app?vid=4063599e-7136-4157-90f5-ef8c0a11ca10"},"vehicle_type_id":"4","last_reported":1705970230,"current_range_meters":21600,"station_id":"ce4bgjh2rcd13ifvqbg0","pricing_plan_id":"free"},{"bike_id":"f99877a8-0a34-4778-a1bc-c3af444678b0","system_id":"levelo_inurba_marseille","lat":43.322872,"lon":5.382756,"is_reserved":false,"is_disabled":false,"rental_uris":{"android":"levelo://app?vid=f99877a8-0a34-4778-a1bc-c3af444678b0","ios":"levelo://app?vid=f99877a8-0a34-4778-a1bc-c3af444678b0"},"vehicle_type_id":"4","last_reported":1705970230,"current_range_meters":5200,"station_id":"ce4bhr12rcd13ifvqhqg","pricing_plan_id":"free"},{"bike_id":"ce7380a6-9e0a-44a5-99cf-b6d0d9568202","system_id":"levelo_inurba_marseille","lat":43.322872,"lon":5.382756,"is_reserved":false,"is_disabled":false,"rental_uris":{"android":"levelo://app?vid=ce7380a6-9e0a-44a5-99cf-b6d0d9568202","ios":"levelo://app?vid=ce7380a6-9e0a-44a5-99cf-b6d0d9568202"},"vehicle_type_id":"4","last_reported":1705970230,"current_range_meters":32000,"station_id":"ce4bhr12rcd13ifvqhqg","pricing_plan_id":"free"},{"bike_id":"6da9db5a-42ba-4fa8-afc9-4fdbb45498c1","system_id":"levelo_inurba_marseille","lat":43.32823,"lon":5.36684,"is_reserved":false,"is_disabled":false,"rental_uris":{"android":"levelo://app?vid=6da9db5a-42ba-4fa8-afc9-4fdbb45498c1","ios":"levelo://app?vid=6da9db5a-42ba-4fa8-afc9-4fdbb45498c1"},"vehicle_type_id":"4","last_reported":1705970230,"current_range_meters":22000,"station_id":"ce4bhs92rcd13ifvqi0g","pricing_plan_id":"free"},{"bike_id":"b982bee1-d32f-45f2-a873-826a3328017e","system_id":"levelo_inurba_marseille","lat":43.32824,"lon":5.36677,"is_reserved":false,"is_disabled":false,"rental_uris":{"android":"levelo://app?vid=b982bee1-d32f-45f2-a873-826a3328017e","ios":"levelo://app?vid=b982bee1-d32f-45f2-a873-826a3328017e"},"vehicle_type_id":"4","last_reported":1705970230,"current_range_meters":21200,"station_id":"ce4bhs92rcd13ifvqi0g","pricing_plan_id":"free"},{"bike_id":"447532c0-56ca-46ac-9000-fea47d81b433","system_id":"levelo_inurba_marseille","lat":43.328248,"lon":5.366803,"is_reserved":false,"is_disabled":false,"rental_uris":{"android":"levelo://app?vid=447532c0-56ca-46ac-9000-fea47d81b433","ios":"levelo://app?vid=447532c0-56ca-46ac-9000-fea47d81b433"},"vehicle_type_id":"4","last_reported":1705970230,"current_range_meters":29600,"station_id":"ce4bhs92rcd13ifvqi0g","pricing_plan_id":"free"},{"bike_id":"85cedcff-9e9a-415d-8415-195178ea3cb7","system_id":"levelo_inurba_marseille","lat":43.32825,"lon":5.366778,"is_reserved":false,"is_disabled":false,"rental_uris":{"android":"levelo://app?vid=85cedcff-9e9a-415d-8415-195178ea3cb7","ios":"levelo://app?vid=85cedcff-9e9a-415d-8415-195178ea3cb7"},"vehicle_type_id":"4","last_reported":1705970230,"current_range_meters":15200,"station_id":"ce4bhs92rcd13ifvqi0g","pricing_plan_id":"free"},{"bike_id":"572c30ca-2698-4ebb-9720-28d9ee8291d9","system_id":"levelo_inurba_marseille","lat":43.328261,"lon":5.366748,"is_reserved":false,"is_disabled":false,"rental_uris":{"android":"levelo://app?vid=572c30ca-2698-4ebb-9720-28d9ee8291d9","ios":"levelo://app?vid=572c30ca-2698-4ebb-9720-28d9ee8291d9"},"vehicle_type_id":"4","last_reported":1705970230,"current_range_meters":20800,"station_id":"ce4bhs92rcd13ifvqi0g","pricing_plan_id":"free"},{"bike_id":"ea0178f3-2c6b-4af6-b062-91b0b8dde1df","system_id":"levelo_inurba_marseille","lat":43.328278,"lon":5.366876,"is_reserved":false,"is_disabled":false,"rental_uris":{"android":"levelo://app?vid=ea0178f3-2c6b-4af6-b062-91b0b8dde1df","ios":"levelo://app?vid=ea0178f3-2c6b-4af6-b062-91b0b8dde1df"},"vehicle_type_id":"4","last_reported":1705970230,"current_range_meters":13200,"station_id":"ce4bhs92rcd13ifvqi0g","pricing_plan_id":"free"},{"bike_id":"73755ba0-1381-4d5d-8750-d3a07d3f4c75","system_id":"levelo_inurba_marseille","lat":43.32828,"lon":5.3668,"is_reserved":false,"is_disabled":false,"rental_uris":{"android":"levelo://app?vid=73755ba0-1381-4d5d-8750-d3a07d3f4c75","ios":"levelo://app?vid=73755ba0-1381-4d5d-8750-d3a07d3f4c75"},"vehicle_type_id":"4","last_reported":1705970230,"current_range_meters":13200,"station_id":"ce4bhs92rcd13ifvqi0g","pricing_plan_id":"free"},{"bike_id":"38d4b3c6-c1c4-4ada-b0ed-8e6826ac2770","system_id":"levelo_inurba_marseille","lat":43.328371,"lon":5.366909,"is_reserved":false,"is_disabled":false,"rental_uris":{"android":"levelo://app?vid=38d4b3c6-c1c4-4ada-b0ed-8e6826ac2770","ios":"levelo://app?vid=38d4b3c6-c1c4-4ada-b0ed-8e6826ac2770"},"vehicle_type_id":"4","last_reported":1705970230,"current_range_meters":20400,"station_id":"ce4bhs92rcd13ifvqi0g","pricing_plan_id":"free"},{"bike_id":"8e2e258c-9f25-408c-8291-bf6e5ba33180","system_id":"levelo_inurba_marseille","lat":43.328371,"lon":5.366909,"is_reserved":false,"is_disabled":false,"rental_uris":{"android":"levelo://app?vid=8e2e258c-9f25-408c-8291-bf6e5ba33180","ios":"levelo://app?vid=8e2e258c-9f25-408c-8291-bf6e5ba33180"},"vehicle_type_id":"4","last_reported":1705970230,"current_range_meters":30400,"station_id":"ce4bhs92rcd13ifvqi0g","pricing_plan_id":"free"},{"bike_id":"d8b5260c-205c-4300-9784-22ead2fde86f","system_id":"levelo_inurba_marseille","lat":43.328371,"lon":5.366909,"is_reserved":false,"is_disabled":false,"rental_uris":{"android":"levelo://app?vid=d8b5260c-205c-4300-9784-22ead2fde86f","ios":"levelo://app?vid=d8b5260c-205c-4300-9784-22ead2fde86f"},"vehicle_type_id":"4","last_reported":1705970230,"current_range_meters":21600,"station_id":"ce4bhs92rcd13ifvqi0g","pricing_plan_id":"free"},{"bike_id":"1eb8e364-083e-4730-9593-9edf03b61104","system_id":"levelo_inurba_marseille","lat":43.32831,"lon":5.36671,"is_reserved":false,"is_disabled":false,"rental_uris":{"android":"levelo://app?vid=1eb8e364-083e-4730-9593-9edf03b61104","ios":"levelo://app?vid=1eb8e364-083e-4730-9593-9edf03b61104"},"vehicle_type_id":"4","last_reported":1705970230,"current_range_meters":20800,"station_id":"ce4bhs92rcd13ifvqi0g","pricing_plan_id":"free"},{"bike_id":"e92d083a-dfb9-464f-a2d7-ffc480709cb3","system_id":"levelo_inurba_marseille","lat":43.328371,"lon":5.366912,"is_reserved":false,"is_disabled":false,"rental_uris":{"android":"levelo://app?vid=e92d083a-dfb9-464f-a2d7-ffc480709cb3","ios":"levelo://app?vid=e92d083a-dfb9-464f-a2d7-ffc480709cb3"},"vehicle_type_id":"4","last_reported":1705970230,"current_range_meters":16400,"station_id":"ce4bhs92rcd13ifvqi0g","pricing_plan_id":"free"},{"bike_id":"d971af84-f55e-4f02-aa54-b2ecac82a0f2","system_id":"levelo_inurba_marseille","lat":43.328371,"lon":5.366909,"is_reserved":false,"is_disabled":false,"rental_uris":{"android":"levelo://app?vid=d971af84-f55e-4f02-aa54-b2ecac82a0f2","ios":"levelo://app?vid=d971af84-f55e-4f02-aa54-b2ecac82a0f2"},"vehicle_type_id":"4","last_reported":1705970230,"current_range_meters":9200,"station_id":"ce4bhs92rcd13ifvqi0g","pricing_plan_id":"free"},{"bike_id":"5b7aaccd-f0dd-4bc4-a5b7-1581df3aca1d","system_id":"levelo_inurba_marseille","lat":43.328371,"lon":5.366909,"is_reserved":false,"is_disabled":false,"rental_uris":{"android":"levelo://app?vid=5b7aaccd-f0dd-4bc4-a5b7-1581df3aca1d","ios":"levelo://app?vid=5b7aaccd-f0dd-4bc4-a5b7-1581df3aca1d"},"vehicle_type_id":"4","last_reported":1705970230,"current_range_meters":18000,"station_id":"ce4bhs92rcd13ifvqi0g","pricing_plan_id":"free"},{"bike_id":"204738f6-469d-4db3-bd14-c2b38ef5e726","system_id":"levelo_inurba_marseille","lat":43.328371,"lon":5.366912,"is_reserved":false,"is_disabled":false,"rental_uris":{"android":"levelo://app?vid=204738f6-469d-4db3-bd14-c2b38ef5e726","ios":"levelo://app?vid=204738f6-469d-4db3-bd14-c2b38ef5e726"},"vehicle_type_id":"4","last_reported":1705970230,"current_range_meters":27200,"station_id":"ce4bhs92rcd13ifvqi0g","pricing_plan_id":"free"},{"bike_id":"fe5bdb62-b17a-4ac4-b3ab-1ad394d072cf","system_id":"levelo_inurba_marseille","lat":43.328371,"lon":5.366909,"is_reserved":false,"is_disabled":false,"rental_uris":{"android":"levelo://app?vid=fe5bdb62-b17a-4ac4-b3ab-1ad394d072cf","ios":"levelo://app?vid=fe5bdb62-b17a-4ac4-b3ab-1ad394d072cf"},"vehicle_type_id":"4","last_reported":1705970230,"current_range_meters":9600,"station_id":"ce4bhs92rcd13ifvqi0g","pricing_plan_id":"free"},{"bike_id":"ce25d3b4-a15b-4708-aaa0-fbf5f986437b","system_id":"levelo_inurba_marseille","lat":43.328371,"lon":5.366909,"is_reserved":false,"is_disabled":false,"rental_uris":{"android":"levelo://app?vid=ce25d3b4-a15b-4708-aaa0-fbf5f986437b","ios":"levelo://app?vid=ce25d3b4-a15b-4708-aaa0-fbf5f986437b"},"vehicle_type_id":"4","last_reported":1705970230,"current_range_meters":0,"station_id":"ce4bhs92rcd13ifvqi0g","pricing_plan_id":"free"},{"bike_id":"38082c03-fac1-44d3-a79f-5142b4a113a9","system_id":"levelo_inurba_marseille","lat":43.328373,"lon":5.366902,"is_reserved":false,"is_disabled":false,"rental_uris":{"android":"levelo://app?vid=38082c03-fac1-44d3-a79f-5142b4a113a9","ios":"levelo://app?vid=38082c03-fac1-44d3-a79f-5142b4a113a9"},"vehicle_type_id":"4","last_reported":1705970230,"current_range_meters":16400,"station_id":"ce4bhs92rcd13ifvqi0g","pricing_plan_id":"free"},{"bike_id":"c2f8d07a-6e69-4af2-9e7a-94531e33b994","system_id":"levelo_inurba_marseille","lat":43.297163,"lon":5.365866,"is_reserved":false,"is_disabled":false,"rental_uris":{"android":"levelo://app?vid=c2f8d07a-6e69-4af2-9e7a-94531e33b994","ios":"levelo://app?vid=c2f8d07a-6e69-4af2-9e7a-94531e33b994"},"vehicle_type_id":"4","last_reported":1705970230,"current_range_meters":27200,"station_id":"ce4bgn12rcd13ifvqbt0","pricing_plan_id":"free"},{"bike_id":"f529af8b-6eb5-4dad-b929-2be8fdbdd47b","system_id":"levelo_inurba_marseille","lat":43.328371,"lon":5.366909,"is_reserved":false,"is_disabled":false,"rental_uris":{"android":"levelo://app?vid=f529af8b-6eb5-4dad-b929-2be8fdbdd47b","ios":"levelo://app?vid=f529af8b-6eb5-4dad-b929-2be8fdbdd47b"},"vehicle_type_id":"4","last_reported":1705970230,"current_range_meters":10800,"station_id":"ce4bhs92rcd13ifvqi0g","pricing_plan_id":"free"},{"bike_id":"77790d15-2740-41c3-af21-79e35827e3f0","system_id":"levelo_inurba_marseille","lat":43.299028,"lon":5.381509,"is_reserved":false,"is_disabled":false,"rental_uris":{"android":"levelo://app?vid=77790d15-2740-41c3-af21-79e35827e3f0","ios":"levelo://app?vid=77790d15-2740-41c3-af21-79e35827e3f0"},"vehicle_type_id":"4","last_reported":1705970230,"current_range_meters":26000,"station_id":"ce4bgj12rcd13ifvqbc0","pricing_plan_id":"free"},{"bike_id":"205e53d9-a870-4fd0-9529-5b15eb242dea","system_id":"levelo_inurba_marseille","lat":43.317557,"lon":5.390173,"is_reserved":false,"is_disabled":false,"rental_uris":{"android":"levelo://app?vid=205e53d9-a870-4fd0-9529-5b15eb242dea","ios":"levelo://app?vid=205e53d9-a870-4fd0-9529-5b15eb242dea"},"vehicle_type_id":"4","last_reported":1705970230,"current_range_meters":3600,"station_id":"ce4bhqp2rcd13ifvqhng","pricing_plan_id":"free"},{"bike_id":"e67feb8c-37c8-4273-b68c-76a37047730c","system_id":"levelo_inurba_marseille","lat":43.317557,"lon":5.390173,"is_reserved":false,"is_disabled":false,"rental_uris":{"android":"levelo://app?vid=e67feb8c-37c8-4273-b68c-76a37047730c","ios":"levelo://app?vid=e67feb8c-37c8-4273-b68c-76a37047730c"},"vehicle_type_id":"4","last_reported":1705970230,"current_range_meters":32000,"station_id":"ce4bhqp2rcd13ifvqhng","pricing_plan_id":"free"},{"bike_id":"60f8e810-5a47-4358-afa3-8a87516f0d00","system_id":"levelo_inurba_marseille","lat":43.317557,"lon":5.390173,"is_reserved":false,"is_disabled":false,"rental_uris":{"android":"levelo://app?vid=60f8e810-5a47-4358-afa3-8a87516f0d00","ios":"levelo://app?vid=60f8e810-5a47-4358-afa3-8a87516f0d00"},"vehicle_type_id":"4","last_reported":1705970230,"current_range_meters":32000,"station_id":"ce4bhqp2rcd13ifvqhng","pricing_plan_id":"free"},{"bike_id":"f3c8de66-7ad2-4aea-acd7-5cc0c0f4675c","system_id":"levelo_inurba_marseille","lat":43.317557,"lon":5.390173,"is_reserved":false,"is_disabled":false,"rental_uris":{"android":"levelo://app?vid=f3c8de66-7ad2-4aea-acd7-5cc0c0f4675c","ios":"levelo://app?vid=f3c8de66-7ad2-4aea-acd7-5cc0c0f4675c"},"vehicle_type_id":"4","last_reported":1705970230,"current_range_meters":29600,"station_id":"ce4bhqp2rcd13ifvqhng","pricing_plan_id":"free"},{"bike_id":"2b5da60d-3f1d-4c41-9c8a-584482c25210","system_id":"levelo_inurba_marseille","lat":43.317557,"lon":5.390173,"is_reserved":false,"is_disabled":false,"rental_uris":{"android":"levelo://app?vid=2b5da60d-3f1d-4c41-9c8a-584482c25210","ios":"levelo://app?vid=2b5da60d-3f1d-4c41-9c8a-584482c25210"},"vehicle_type_id":"4","last_reported":1705970230,"current_range_meters":30400,"station_id":"ce4bhqp2rcd13ifvqhng","pricing_plan_id":"free"},{"bike_id":"a085d349-cf18-4840-aa99-ed078a249e01","system_id":"levelo_inurba_marseille","lat":43.304278,"lon":5.388868,"is_reserved":false,"is_disabled":false,"rental_uris":{"android":"levelo://app?vid=a085d349-cf18-4840-aa99-ed078a249e01","ios":"levelo://app?vid=a085d349-cf18-4840-aa99-ed078a249e01"},"vehicle_type_id":"4","last_reported":1705970230,"current_range_meters":24400,"station_id":"ce4bgk12rcd13ifvqbi0","pricing_plan_id":"free"},{"bike_id":"ad3da9aa-e664-4308-a4c4-6341a0f86dc2","system_id":"levelo_inurba_marseille","lat":43.304278,"lon":5.388868,"is_reserved":false,"is_disabled":false,"rental_uris":{"android":"levelo://app?vid=ad3da9aa-e664-4308-a4c4-6341a0f86dc2","ios":"levelo://app?vid=ad3da9aa-e664-4308-a4c4-6341a0f86dc2"},"vehicle_type_id":"4","last_reported":1705970230,"current_range_meters":28400,"station_id":"ce4bgk12rcd13ifvqbi0","pricing_plan_id":"free"},{"bike_id":"4bbc6229-4fa3-4833-8c5d-7d12ef180b95","system_id":"levelo_inurba_marseille","lat":43.295748,"lon":5.37522,"is_reserved":false,"is_disabled":false,"rental_uris":{"android":"levelo://app?vid=4bbc6229-4fa3-4833-8c5d-7d12ef180b95","ios":"levelo://app?vid=4bbc6229-4fa3-4833-8c5d-7d12ef180b95"},"vehicle_type_id":"4","last_reported":1705970230,"current_range_meters":22800,"station_id":"ce4bgh92rcd13ifvqb50","pricing_plan_id":"free"},{"bike_id":"c4d3efee-0a4c-4ecd-b04b-e370b07581d6","system_id":"levelo_inurba_marseille","lat":43.299707,"lon":5.384859,"is_reserved":false,"is_disabled":false,"rental_uris":{"android":"levelo://app?vid=c4d3efee-0a4c-4ecd-b04b-e370b07581d6","ios":"levelo://app?vid=c4d3efee-0a4c-4ecd-b04b-e370b07581d6"},"vehicle_type_id":"4","last_reported":1705970230,"current_range_meters":21200,"station_id":"ce4bgj92rcd13ifvqbd0","pricing_plan_id":"free"},{"bike_id":"4a4d2dfc-55bc-4e74-ab1b-c83ba9a79873","system_id":"levelo_inurba_marseille","lat":43.32221,"lon":5.38958,"is_reserved":false,"is_disabled":false,"rental_uris":{"android":"levelo://app?vid=4a4d2dfc-55bc-4e74-ab1b-c83ba9a79873","ios":"levelo://app?vid=4a4d2dfc-55bc-4e74-ab1b-c83ba9a79873"},"vehicle_type_id":"4","last_reported":1705970230,"current_range_meters":29200,"station_id":"","pricing_plan_id":"free"},{"bike_id":"b6c693cf-ef92-4666-978b-a38885e3ad4a","system_id":"levelo_inurba_marseille","lat":43.32367,"lon":5.388836,"is_reserved":false,"is_disabled":false,"rental_uris":{"android":"levelo://app?vid=b6c693cf-ef92-4666-978b-a38885e3ad4a","ios":"levelo://app?vid=b6c693cf-ef92-4666-978b-a38885e3ad4a"},"vehicle_type_id":"4","last_reported":1705970230,"current_range_meters":21600,"station_id":"ce4bhqp2rcd13ifvqhog","pricing_plan_id":"free"},{"bike_id":"8b06e5de-ee40-4d78-b58d-3db2b3b2ee13","system_id":"levelo_inurba_marseille","lat":43.32366,"lon":5.3888,"is_reserved":false,"is_disabled":false,"rental_uris":{"android":"levelo://app?vid=8b06e5de-ee40-4d78-b58d-3db2b3b2ee13","ios":"levelo://app?vid=8b06e5de-ee40-4d78-b58d-3db2b3b2ee13"},"vehicle_type_id":"4","last_reported":1705970230,"current_range_meters":3200,"station_id":"ce4bhqp2rcd13ifvqhog","pricing_plan_id":"free"},{"bike_id":"5a94c056-ab27-40da-81c8-6a87a7dbd5b2","system_id":"levelo_inurba_marseille","lat":43.32367,"lon":5.388836,"is_reserved":false,"is_disabled":false,"rental_uris":{"android":"levelo://app?vid=5a94c056-ab27-40da-81c8-6a87a7dbd5b2","ios":"levelo://app?vid=5a94c056-ab27-40da-81c8-6a87a7dbd5b2"},"vehicle_type_id":"4","last_reported":1705970230,"current_range_meters":24000,"station_id":"ce4bhqp2rcd13ifvqhog","pricing_plan_id":"free"},{"bike_id":"d165c593-dd6a-45ed-8729-4b2e2207b0bf","system_id":"levelo_inurba_marseille","lat":43.32367,"lon":5.388836,"is_reserved":false,"is_disabled":false,"rental_uris":{"android":"levelo://app?vid=d165c593-dd6a-45ed-8729-4b2e2207b0bf","ios":"levelo://app?vid=d165c593-dd6a-45ed-8729-4b2e2207b0bf"},"vehicle_type_id":"4","last_reported":1705970230,"current_range_meters":21600,"station_id":"ce4bhqp2rcd13ifvqhog","pricing_plan_id":"free"},{"bike_id":"c7253817-d8ac-4c88-a4fb-3885b520e4cf","system_id":"levelo_inurba_marseille","lat":43.3237,"lon":5.38879,"is_reserved":false,"is_disabled":false,"rental_uris":{"android":"levelo://app?vid=c7253817-d8ac-4c88-a4fb-3885b520e4cf","ios":"levelo://app?vid=c7253817-d8ac-4c88-a4fb-3885b520e4cf"},"vehicle_type_id":"4","last_reported":1705970230,"current_range_meters":19200,"station_id":"ce4bhqp2rcd13ifvqhog","pricing_plan_id":"free"},{"bike_id":"02a1f268-92dc-41b2-b036-305e4dd3e4f4","system_id":"levelo_inurba_marseille","lat":43.32367,"lon":5.388836,"is_reserved":false,"is_disabled":false,"rental_uris":{"android":"levelo://app?vid=02a1f268-92dc-41b2-b036-305e4dd3e4f4","ios":"levelo://app?vid=02a1f268-92dc-41b2-b036-305e4dd3e4f4"},"vehicle_type_id":"4","last_reported":1705970230,"current_range_meters":0,"station_id":"ce4bhqp2rcd13ifvqhog","pricing_plan_id":"free"},{"bike_id":"6d5ea52f-2d63-414f-b948-62b84897cbe7","system_id":"levelo_inurba_marseille","lat":43.3237,"lon":5.38883,"is_reserved":false,"is_disabled":false,"rental_uris":{"android":"levelo://app?vid=6d5ea52f-2d63-414f-b948-62b84897cbe7","ios":"levelo://app?vid=6d5ea52f-2d63-414f-b948-62b84897cbe7"},"vehicle_type_id":"4","last_reported":1705970230,"current_range_meters":7600,"station_id":"ce4bhqp2rcd13ifvqhog","pricing_plan_id":"free"},{"bike_id":"48b61ba6-1be8-4f51-a657-38965ca79743","system_id":"levelo_inurba_marseille","lat":43.32367,"lon":5.388836,"is_reserved":false,"is_disabled":false,"rental_uris":{"android":"levelo://app?vid=48b61ba6-1be8-4f51-a657-38965ca79743","ios":"levelo://app?vid=48b61ba6-1be8-4f51-a657-38965ca79743"},"vehicle_type_id":"4","last_reported":1705970230,"current_range_meters":12000,"station_id":"ce4bhqp2rcd13ifvqhog","pricing_plan_id":"free"},{"bike_id":"a7d583b1-b6b7-4d30-8eb9-1f308e7b4037","system_id":"levelo_inurba_marseille","lat":43.313291,"lon":5.396838,"is_reserved":false,"is_disabled":false,"rental_uris":{"android":"levelo://app?vid=a7d583b1-b6b7-4d30-8eb9-1f308e7b4037","ios":"levelo://app?vid=a7d583b1-b6b7-4d30-8eb9-1f308e7b4037"},"vehicle_type_id":"4","last_reported":1705970230,"current_range_meters":22000,"station_id":"ce4bgvp2rcd13ifvqcu0","pricing_plan_id":"free"},{"bike_id":"2bd6757d-5328-405c-9d40-23a942df7466","system_id":"levelo_inurba_marseille","lat":43.30298,"lon":5.39204,"is_reserved":false,"is_disabled":false,"rental_uris":{"android":"levelo://app?vid=2bd6757d-5328-405c-9d40-23a942df7466","ios":"levelo://app?vid=2bd6757d-5328-405c-9d40-23a942df7466"},"vehicle_type_id":"4","last_reported":1705970230,"current_range_meters":18800,"station_id":"ce4bgkh2rcd13ifvqbk0","pricing_plan_id":"free"},{"bike_id":"6cf4d737-3b52-4be6-85ab-287dddf9231d","system_id":"levelo_inurba_marseille","lat":43.29174,"lon":5.36642,"is_reserved":false,"is_disabled":false,"rental_uris":{"android":"levelo://app?vid=6cf4d737-3b52-4be6-85ab-287dddf9231d","ios":"levelo://app?vid=6cf4d737-3b52-4be6-85ab-287dddf9231d"},"vehicle_type_id":"4","last_reported":1705970230,"current_range_meters":400,"station_id":"","pricing_plan_id":"free"},{"bike_id":"8dfa69dd-99dc-4e78-8127-44a82fd319e7","system_id":"levelo_inurba_marseille","lat":43.298764,"lon":5.388973,"is_reserved":false,"is_disabled":false,"rental_uris":{"android":"levelo://app?vid=8dfa69dd-99dc-4e78-8127-44a82fd319e7","ios":"levelo://app?vid=8dfa69dd-99dc-4e78-8127-44a82fd319e7"},"vehicle_type_id":"4","last_reported":1705970230,"current_range_meters":15600,"station_id":"ce4bh392rcd13ifvqdl0","pricing_plan_id":"free"},{"bike_id":"fba4b678-110e-45f9-8ec6-5fd832db13c2","system_id":"levelo_inurba_marseille","lat":43.298764,"lon":5.388973,"is_reserved":false,"is_disabled":false,"rental_uris":{"android":"levelo://app?vid=fba4b678-110e-45f9-8ec6-5fd832db13c2","ios":"levelo://app?vid=fba4b678-110e-45f9-8ec6-5fd832db13c2"},"vehicle_type_id":"4","last_reported":1705970230,"current_range_meters":18800,"station_id":"ce4bh392rcd13ifvqdl0","pricing_plan_id":"free"},{"bike_id":"7ac4d39b-6bd2-464b-8608-b13a62a2dc7e","system_id":"levelo_inurba_marseille","lat":43.309047,"lon":5.396551,"is_reserved":false,"is_disabled":false,"rental_uris":{"android":"levelo://app?vid=7ac4d39b-6bd2-464b-8608-b13a62a2dc7e","ios":"levelo://app?vid=7ac4d39b-6bd2-464b-8608-b13a62a2dc7e"},"vehicle_type_id":"4","last_reported":1705970230,"current_range_meters":5600,"station_id":"ce4bh012rcd13ifvqcv0","pricing_plan_id":"free"},{"bike_id":"eb1f63d9-4c4a-43d2-93b6-ba7b36ba1da4","system_id":"levelo_inurba_marseille","lat":43.291994,"lon":5.357886,"is_reserved":false,"is_disabled":false,"rental_uris":{"android":"levelo://app?vid=eb1f63d9-4c4a-43d2-93b6-ba7b36ba1da4","ios":"levelo://app?vid=eb1f63d9-4c4a-43d2-93b6-ba7b36ba1da4"},"vehicle_type_id":"4","last_reported":1705970230,"current_range_meters":30400,"station_id":"ce4bhb12rcd13ifvqel0","pricing_plan_id":"free"},{"bike_id":"0841cde0-b0f0-41af-ba6d-81d72623c02d","system_id":"levelo_inurba_marseille","lat":43.309038,"lon":5.396546,"is_reserved":false,"is_disabled":false,"rental_uris":{"android":"levelo://app?vid=0841cde0-b0f0-41af-ba6d-81d72623c02d","ios":"levelo://app?vid=0841cde0-b0f0-41af-ba6d-81d72623c02d"},"vehicle_type_id":"4","last_reported":1705970230,"current_range_meters":11200,"station_id":"ce4bh012rcd13ifvqcv0","pricing_plan_id":"free"},{"bike_id":"2ee55f86-4240-4874-9251-7c8b674b24b2","system_id":"levelo_inurba_marseille","lat":43.309047,"lon":5.396551,"is_reserved":false,"is_disabled":false,"rental_uris":{"android":"levelo://app?vid=2ee55f86-4240-4874-9251-7c8b674b24b2","ios":"levelo://app?vid=2ee55f86-4240-4874-9251-7c8b674b24b2"},"vehicle_type_id":"4","last_reported":1705970230,"current_range_meters":8400,"station_id":"ce4bh012rcd13ifvqcv0","pricing_plan_id":"free"},{"bike_id":"e10775dc-9140-4cf4-aafe-7180523a334a","system_id":"levelo_inurba_marseille","lat":43.312917,"lon":5.396788,"is_reserved":false,"is_disabled":false,"rental_uris":{"android":"levelo://app?vid=e10775dc-9140-4cf4-aafe-7180523a334a","ios":"levelo://app?vid=e10775dc-9140-4cf4-aafe-7180523a334a"},"vehicle_type_id":"4","last_reported":1705970230,"current_range_meters":22400,"station_id":"","pricing_plan_id":"free"},{"bike_id":"7d2a302a-8902-4474-8a16-e8f7827e3044","system_id":"levelo_inurba_marseille","lat":43.313291,"lon":5.396838,"is_reserved":false,"is_disabled":false,"rental_uris":{"android":"levelo://app?vid=7d2a302a-8902-4474-8a16-e8f7827e3044","ios":"levelo://app?vid=7d2a302a-8902-4474-8a16-e8f7827e3044"},"vehicle_type_id":"4","last_reported":1705970230,"current_range_meters":2800,"station_id":"ce4bgvp2rcd13ifvqcu0","pricing_plan_id":"free"},{"bike_id":"e0d3c518-3eae-44e8-972f-606bd74965c7","system_id":"levelo_inurba_marseille","lat":43.31328,"lon":5.39685,"is_reserved":false,"is_disabled":false,"rental_uris":{"android":"levelo://app?vid=e0d3c518-3eae-44e8-972f-606bd74965c7","ios":"levelo://app?vid=e0d3c518-3eae-44e8-972f-606bd74965c7"},"vehicle_type_id":"4","last_reported":1705970230,"current_range_meters":0,"station_id":"ce4bgvp2rcd13ifvqcu0","pricing_plan_id":"free"},{"bike_id":"69896822-a2d5-4a05-820d-4fd2fb75de32","system_id":"levelo_inurba_marseille","lat":43.291994,"lon":5.357886,"is_reserved":false,"is_disabled":false,"rental_uris":{"android":"levelo://app?vid=69896822-a2d5-4a05-820d-4fd2fb75de32","ios":"levelo://app?vid=69896822-a2d5-4a05-820d-4fd2fb75de32"},"vehicle_type_id":"4","last_reported":1705970230,"current_range_meters":24000,"station_id":"ce4bhb12rcd13ifvqel0","pricing_plan_id":"free"},{"bike_id":"1a9b07e9-1bc5-42be-9168-2d3224b2250d","system_id":"levelo_inurba_marseille","lat":43.308817,"lon":5.396405,"is_reserved":false,"is_disabled":false,"rental_uris":{"android":"levelo://app?vid=1a9b07e9-1bc5-42be-9168-2d3224b2250d","ios":"levelo://app?vid=1a9b07e9-1bc5-42be-9168-2d3224b2250d"},"vehicle_type_id":"4","last_reported":1705970230,"current_range_meters":27200,"station_id":"ce4bh012rcd13ifvqcv0","pricing_plan_id":"free"},{"bike_id":"bb6e5e02-099d-432c-a070-e50f2eef89e7","system_id":"levelo_inurba_marseille","lat":43.308862,"lon":5.396418,"is_reserved":false,"is_disabled":false,"rental_uris":{"android":"levelo://app?vid=bb6e5e02-099d-432c-a070-e50f2eef89e7","ios":"levelo://app?vid=bb6e5e02-099d-432c-a070-e50f2eef89e7"},"vehicle_type_id":"4","last_reported":1705970230,"current_range_meters":0,"station_id":"ce4bh012rcd13ifvqcv0","pricing_plan_id":"free"},{"bike_id":"1f314770-b861-4cc3-91da-de0ba114e118","system_id":"levelo_inurba_marseille","lat":43.30881,"lon":5.39641,"is_reserved":false,"is_disabled":false,"rental_uris":{"android":"levelo://app?vid=1f314770-b861-4cc3-91da-de0ba114e118","ios":"levelo://app?vid=1f314770-b861-4cc3-91da-de0ba114e118"},"vehicle_type_id":"4","last_reported":1705970230,"current_range_meters":8400,"station_id":"ce4bh012rcd13ifvqcv0","pricing_plan_id":"free"},{"bike_id":"b3965750-c739-45b3-b92a-9b67ab6e9c32","system_id":"levelo_inurba_marseille","lat":43.313332,"lon":5.396894,"is_reserved":false,"is_disabled":false,"rental_uris":{"android":"levelo://app?vid=b3965750-c739-45b3-b92a-9b67ab6e9c32","ios":"levelo://app?vid=b3965750-c739-45b3-b92a-9b67ab6e9c32"},"vehicle_type_id":"4","last_reported":1705970230,"current_range_meters":17600,"station_id":"ce4bgvp2rcd13ifvqcu0","pricing_plan_id":"free"},{"bike_id":"06e7cdd3-00e8-46d7-addc-bdcff8459390","system_id":"levelo_inurba_marseille","lat":43.313291,"lon":5.396838,"is_reserved":false,"is_disabled":false,"rental_uris":{"android":"levelo://app?vid=06e7cdd3-00e8-46d7-addc-bdcff8459390","ios":"levelo://app?vid=06e7cdd3-00e8-46d7-addc-bdcff8459390"},"vehicle_type_id":"4","last_reported":1705970230,"current_range_meters":7200,"station_id":"ce4bgvp2rcd13ifvqcu0","pricing_plan_id":"free"},{"bike_id":"4e914a54-894e-4ad3-b7e0-25e629a15136","system_id":"levelo_inurba_marseille","lat":43.308884,"lon":5.396465,"is_reserved":false,"is_disabled":false,"rental_uris":{"android":"levelo://app?vid=4e914a54-894e-4ad3-b7e0-25e629a15136","ios":"levelo://app?vid=4e914a54-894e-4ad3-b7e0-25e629a15136"},"vehicle_type_id":"4","last_reported":1705970230,"current_range_meters":8000,"station_id":"ce4bh012rcd13ifvqcv0","pricing_plan_id":"free"},{"bike_id":"f7b139c5-579a-4aa1-82a3-60ecee6294d6","system_id":"levelo_inurba_marseille","lat":43.291994,"lon":5.357886,"is_reserved":false,"is_disabled":false,"rental_uris":{"android":"levelo://app?vid=f7b139c5-579a-4aa1-82a3-60ecee6294d6","ios":"levelo://app?vid=f7b139c5-579a-4aa1-82a3-60ecee6294d6"},"vehicle_type_id":"4","last_reported":1705970230,"current_range_meters":15200,"station_id":"ce4bhb12rcd13ifvqel0","pricing_plan_id":"free"},{"bike_id":"5a5b014c-7897-404a-a269-4a0a75907dd4","system_id":"levelo_inurba_marseille","lat":43.31331,"lon":5.39694,"is_reserved":false,"is_disabled":false,"rental_uris":{"android":"levelo://app?vid=5a5b014c-7897-404a-a269-4a0a75907dd4","ios":"levelo://app?vid=5a5b014c-7897-404a-a269-4a0a75907dd4"},"vehicle_type_id":"4","last_reported":1705970230,"current_range_meters":14000,"station_id":"ce4bgvp2rcd13ifvqcu0","pricing_plan_id":"free"},{"bike_id":"fcb3b231-c529-47e3-b2e2-1d1b695c2837","system_id":"levelo_inurba_marseille","lat":43.31328,"lon":5.39695,"is_reserved":false,"is_disabled":false,"rental_uris":{"android":"levelo://app?vid=fcb3b231-c529-47e3-b2e2-1d1b695c2837","ios":"levelo://app?vid=fcb3b231-c529-47e3-b2e2-1d1b695c2837"},"vehicle_type_id":"4","last_reported":1705970230,"current_range_meters":9200,"station_id":"ce4bgvp2rcd13ifvqcu0","pricing_plan_id":"free"},{"bike_id":"f20820ed-4a7c-433b-9fec-bbc4e814ef62","system_id":"levelo_inurba_marseille","lat":43.31329,"lon":5.39696,"is_reserved":false,"is_disabled":false,"rental_uris":{"android":"levelo://app?vid=f20820ed-4a7c-433b-9fec-bbc4e814ef62","ios":"levelo://app?vid=f20820ed-4a7c-433b-9fec-bbc4e814ef62"},"vehicle_type_id":"4","last_reported":1705970230,"current_range_meters":18800,"station_id":"ce4bgvp2rcd13ifvqcu0","pricing_plan_id":"free"},{"bike_id":"ef396dc3-8557-489c-87ed-049cf0eeda33","system_id":"levelo_inurba_marseille","lat":43.31331,"lon":5.39696,"is_reserved":false,"is_disabled":false,"rental_uris":{"android":"levelo://app?vid=ef396dc3-8557-489c-87ed-049cf0eeda33","ios":"levelo://app?vid=ef396dc3-8557-489c-87ed-049cf0eeda33"},"vehicle_type_id":"4","last_reported":1705970230,"current_range_meters":8800,"station_id":"ce4bgvp2rcd13ifvqcu0","pricing_plan_id":"free"},{"bike_id":"f247119e-2414-4bc8-a1ab-a59951f3faba","system_id":"levelo_inurba_marseille","lat":43.309047,"lon":5.396551,"is_reserved":false,"is_disabled":false,"rental_uris":{"android":"levelo://app?vid=f247119e-2414-4bc8-a1ab-a59951f3faba","ios":"levelo://app?vid=f247119e-2414-4bc8-a1ab-a59951f3faba"},"vehicle_type_id":"4","last_reported":1705970230,"current_range_meters":17200,"station_id":"ce4bh012rcd13ifvqcv0","pricing_plan_id":"free"},{"bike_id":"91dacd66-df61-4b3c-b639-38f081508a8a","system_id":"levelo_inurba_marseille","lat":43.309047,"lon":5.396551,"is_reserved":false,"is_disabled":false,"rental_uris":{"android":"levelo://app?vid=91dacd66-df61-4b3c-b639-38f081508a8a","ios":"levelo://app?vid=91dacd66-df61-4b3c-b639-38f081508a8a"},"vehicle_type_id":"4","last_reported":1705970230,"current_range_meters":26000,"station_id":"ce4bh012rcd13ifvqcv0","pricing_plan_id":"free"},{"bike_id":"4629583c-b1ea-4840-b672-862935324178","system_id":"levelo_inurba_marseille","lat":43.313291,"lon":5.396838,"is_reserved":false,"is_disabled":false,"rental_uris":{"android":"levelo://app?vid=4629583c-b1ea-4840-b672-862935324178","ios":"levelo://app?vid=4629583c-b1ea-4840-b672-862935324178"},"vehicle_type_id":"4","last_reported":1705970230,"current_range_meters":22400,"station_id":"ce4bgvp2rcd13ifvqcu0","pricing_plan_id":"free"},{"bike_id":"e804b5e8-dced-4abf-a3e4-772e410179e3","system_id":"levelo_inurba_marseille","lat":43.31327,"lon":5.39698,"is_reserved":false,"is_disabled":false,"rental_uris":{"android":"levelo://app?vid=e804b5e8-dced-4abf-a3e4-772e410179e3","ios":"levelo://app?vid=e804b5e8-dced-4abf-a3e4-772e410179e3"},"vehicle_type_id":"4","last_reported":1705970230,"current_range_meters":4400,"station_id":"ce4bgvp2rcd13ifvqcu0","pricing_plan_id":"free"},{"bike_id":"d5ebf2ac-e9ba-4c7e-b469-c3e51d9686d9","system_id":"levelo_inurba_marseille","lat":43.313291,"lon":5.396838,"is_reserved":false,"is_disabled":false,"rental_uris":{"android":"levelo://app?vid=d5ebf2ac-e9ba-4c7e-b469-c3e51d9686d9","ios":"levelo://app?vid=d5ebf2ac-e9ba-4c7e-b469-c3e51d9686d9"},"vehicle_type_id":"4","last_reported":1705970230,"current_range_meters":24800,"station_id":"ce4bgvp2rcd13ifvqcu0","pricing_plan_id":"free"},{"bike_id":"3012080d-3dad-4f50-a0a0-86fc36a2dc4d","system_id":"levelo_inurba_marseille","lat":43.30894,"lon":5.39655,"is_reserved":false,"is_disabled":false,"rental_uris":{"android":"levelo://app?vid=3012080d-3dad-4f50-a0a0-86fc36a2dc4d","ios":"levelo://app?vid=3012080d-3dad-4f50-a0a0-86fc36a2dc4d"},"vehicle_type_id":"4","last_reported":1705970230,"current_range_meters":7200,"station_id":"ce4bh012rcd13ifvqcv0","pricing_plan_id":"free"},{"bike_id":"9b7a1f5b-f9d0-4b24-916a-9623318b6539","system_id":"levelo_inurba_marseille","lat":43.29529,"lon":5.385581,"is_reserved":false,"is_disabled":false,"rental_uris":{"android":"levelo://app?vid=9b7a1f5b-f9d0-4b24-916a-9623318b6539","ios":"levelo://app?vid=9b7a1f5b-f9d0-4b24-916a-9623318b6539"},"vehicle_type_id":"4","last_reported":1705970230,"current_range_meters":29200,"station_id":"ce4bgih2rcd13ifvqba0","pricing_plan_id":"free"},{"bike_id":"8b48f6e7-a0cb-45e8-b9cd-c80cd041a1fd","system_id":"levelo_inurba_marseille","lat":43.281044,"lon":5.378308,"is_reserved":false,"is_disabled":false,"rental_uris":{"android":"levelo://app?vid=8b48f6e7-a0cb-45e8-b9cd-c80cd041a1fd","ios":"levelo://app?vid=8b48f6e7-a0cb-45e8-b9cd-c80cd041a1fd"},"vehicle_type_id":"4","last_reported":1705970230,"current_range_meters":27200,"station_id":"ce4bha12rcd13ifvqee0","pricing_plan_id":"free"},{"bike_id":"1ac78ef0-0aeb-4114-bc65-77460ad85422","system_id":"levelo_inurba_marseille","lat":43.302008,"lon":5.394694,"is_reserved":false,"is_disabled":false,"rental_uris":{"android":"levelo://app?vid=1ac78ef0-0aeb-4114-bc65-77460ad85422","ios":"levelo://app?vid=1ac78ef0-0aeb-4114-bc65-77460ad85422"},"vehicle_type_id":"4","last_reported":1705970230,"current_range_meters":26400,"station_id":"ce4bh0p2rcd13ifvqd70","pricing_plan_id":"free"},{"bike_id":"9adea26b-00a4-4d8d-82d8-4c796a6b12a1","system_id":"levelo_inurba_marseille","lat":43.290624,"lon":5.359245,"is_reserved":false,"is_disabled":false,"rental_uris":{"android":"levelo://app?vid=9adea26b-00a4-4d8d-82d8-4c796a6b12a1","ios":"levelo://app?vid=9adea26b-00a4-4d8d-82d8-4c796a6b12a1"},"vehicle_type_id":"4","last_reported":1705970230,"current_range_meters":1600,"station_id":"ce4bha92rcd13ifvqeg0","pricing_plan_id":"free"},{"bike_id":"a556ecf5-dc4d-4981-aca2-53fdc7111f7f","system_id":"levelo_inurba_marseille","lat":43.290624,"lon":5.359245,"is_reserved":false,"is_disabled":false,"rental_uris":{"android":"levelo://app?vid=a556ecf5-dc4d-4981-aca2-53fdc7111f7f","ios":"levelo://app?vid=a556ecf5-dc4d-4981-aca2-53fdc7111f7f"},"vehicle_type_id":"4","last_reported":1705970230,"current_range_meters":31600,"station_id":"ce4bha92rcd13ifvqeg0","pricing_plan_id":"free"},{"bike_id":"bbe57f4d-cf05-42e2-b9bd-c1b4457b589d","system_id":"levelo_inurba_marseille","lat":43.290624,"lon":5.359245,"is_reserved":false,"is_disabled":false,"rental_uris":{"android":"levelo://app?vid=bbe57f4d-cf05-42e2-b9bd-c1b4457b589d","ios":"levelo://app?vid=bbe57f4d-cf05-42e2-b9bd-c1b4457b589d"},"vehicle_type_id":"4","last_reported":1705970230,"current_range_meters":30000,"station_id":"ce4bha92rcd13ifvqeg0","pricing_plan_id":"free"},{"bike_id":"1cd59b15-824e-457e-be20-6875a3b76b9c","system_id":"levelo_inurba_marseille","lat":43.295169,"lon":5.390426,"is_reserved":false,"is_disabled":false,"rental_uris":{"android":"levelo://app?vid=1cd59b15-824e-457e-be20-6875a3b76b9c","ios":"levelo://app?vid=1cd59b15-824e-457e-be20-6875a3b76b9c"},"vehicle_type_id":"4","last_reported":1705970230,"current_range_meters":10000,"station_id":"ce4bh3p2rcd13ifvqdp0","pricing_plan_id":"free"},{"bike_id":"9f4505bd-9290-420e-8672-0d634fe361a2","system_id":"levelo_inurba_marseille","lat":43.290327,"lon":5.375711,"is_reserved":false,"is_disabled":false,"rental_uris":{"android":"levelo://app?vid=9f4505bd-9290-420e-8672-0d634fe361a2","ios":"levelo://app?vid=9f4505bd-9290-420e-8672-0d634fe361a2"},"vehicle_type_id":"4","last_reported":1705970230,"current_range_meters":24000,"station_id":"ce4bh692rcd13ifvqe90","pricing_plan_id":"free"},{"bike_id":"5f6696ef-5f6a-428f-a13b-b810eb84599b","system_id":"levelo_inurba_marseille","lat":43.284538,"lon":5.358657,"is_reserved":false,"is_disabled":false,"rental_uris":{"android":"levelo://app?vid=5f6696ef-5f6a-428f-a13b-b810eb84599b","ios":"levelo://app?vid=5f6696ef-5f6a-428f-a13b-b810eb84599b"},"vehicle_type_id":"4","last_reported":1705970230,"current_range_meters":17600,"station_id":"ce4bhah2rcd13ifvqei0","pricing_plan_id":"free"},{"bike_id":"6142de90-235c-4ae7-9c16-fdba232dc2d6","system_id":"levelo_inurba_marseille","lat":43.289184,"lon":5.366408,"is_reserved":false,"is_disabled":false,"rental_uris":{"android":"levelo://app?vid=6142de90-235c-4ae7-9c16-fdba232dc2d6","ios":"levelo://app?vid=6142de90-235c-4ae7-9c16-fdba232dc2d6"},"vehicle_type_id":"4","last_reported":1705970230,"current_range_meters":7600,"station_id":"ce4bhap2rcd13ifvqek0","pricing_plan_id":"free"},{"bike_id":"0b3488b8-b131-4aeb-ad7e-ce91d92078c5","system_id":"levelo_inurba_marseille","lat":43.309038,"lon":5.396546,"is_reserved":false,"is_disabled":false,"rental_uris":{"android":"levelo://app?vid=0b3488b8-b131-4aeb-ad7e-ce91d92078c5","ios":"levelo://app?vid=0b3488b8-b131-4aeb-ad7e-ce91d92078c5"},"vehicle_type_id":"4","last_reported":1705970230,"current_range_meters":0,"station_id":"ce4bh012rcd13ifvqcv0","pricing_plan_id":"free"},{"bike_id":"b3a5f064-fab3-4b98-a57e-e93d718440cc","system_id":"levelo_inurba_marseille","lat":43.290104,"lon":5.356111,"is_reserved":false,"is_disabled":false,"rental_uris":{"android":"levelo://app?vid=b3a5f064-fab3-4b98-a57e-e93d718440cc","ios":"levelo://app?vid=b3a5f064-fab3-4b98-a57e-e93d718440cc"},"vehicle_type_id":"4","last_reported":1705970230,"current_range_meters":30400,"station_id":"ce4bhb92rcd13ifvqen0","pricing_plan_id":"free"},{"bike_id":"26f13e78-0c2a-434b-a18d-b5653021a91b","system_id":"levelo_inurba_marseille","lat":43.290104,"lon":5.356111,"is_reserved":false,"is_disabled":false,"rental_uris":{"android":"levelo://app?vid=26f13e78-0c2a-434b-a18d-b5653021a91b","ios":"levelo://app?vid=26f13e78-0c2a-434b-a18d-b5653021a91b"},"vehicle_type_id":"4","last_reported":1705970230,"current_range_meters":31600,"station_id":"ce4bhb92rcd13ifvqen0","pricing_plan_id":"free"},{"bike_id":"fdaee489-fa61-4c0c-b888-896d54f84711","system_id":"levelo_inurba_marseille","lat":43.290103,"lon":5.356114,"is_reserved":false,"is_disabled":false,"rental_uris":{"android":"levelo://app?vid=fdaee489-fa61-4c0c-b888-896d54f84711","ios":"levelo://app?vid=fdaee489-fa61-4c0c-b888-896d54f84711"},"vehicle_type_id":"4","last_reported":1705970230,"current_range_meters":31200,"station_id":"ce4bhb92rcd13ifvqen0","pricing_plan_id":"free"},{"bike_id":"499c1929-bb3e-4230-ad7a-39785cb68d82","system_id":"levelo_inurba_marseille","lat":43.290995,"lon":5.381361,"is_reserved":false,"is_disabled":false,"rental_uris":{"android":"levelo://app?vid=499c1929-bb3e-4230-ad7a-39785cb68d82","ios":"levelo://app?vid=499c1929-bb3e-4230-ad7a-39785cb68d82"},"vehicle_type_id":"4","last_reported":1705970230,"current_range_meters":15200,"station_id":"ce4bh512rcd13ifvqe2g","pricing_plan_id":"free"},{"bike_id":"1c5f8ec4-07c6-46aa-a56d-4bf392a31ebb","system_id":"levelo_inurba_marseille","lat":43.29798,"lon":5.39339,"is_reserved":false,"is_disabled":false,"rental_uris":{"android":"levelo://app?vid=1c5f8ec4-07c6-46aa-a56d-4bf392a31ebb","ios":"levelo://app?vid=1c5f8ec4-07c6-46aa-a56d-4bf392a31ebb"},"vehicle_type_id":"4","last_reported":1705970230,"current_range_meters":3600,"station_id":"chh1huq6cuj3fo74tm60","pricing_plan_id":"free"},{"bike_id":"5c9ee738-55b0-4436-81c8-ddcf6a63d13b","system_id":"levelo_inurba_marseille","lat":43.297815,"lon":5.393548,"is_reserved":false,"is_disabled":false,"rental_uris":{"android":"levelo://app?vid=5c9ee738-55b0-4436-81c8-ddcf6a63d13b","ios":"levelo://app?vid=5c9ee738-55b0-4436-81c8-ddcf6a63d13b"},"vehicle_type_id":"4","last_reported":1705970230,"current_range_meters":18800,"station_id":"chh1huq6cuj3fo74tm60","pricing_plan_id":"free"},{"bike_id":"73ae075a-0587-45e0-a21e-ab30b3e2ff70","system_id":"levelo_inurba_marseille","lat":43.297815,"lon":5.393548,"is_reserved":false,"is_disabled":false,"rental_uris":{"android":"levelo://app?vid=73ae075a-0587-45e0-a21e-ab30b3e2ff70","ios":"levelo://app?vid=73ae075a-0587-45e0-a21e-ab30b3e2ff70"},"vehicle_type_id":"4","last_reported":1705970230,"current_range_meters":7600,"station_id":"chh1huq6cuj3fo74tm60","pricing_plan_id":"free"},{"bike_id":"49c210f8-61b3-4d1f-9089-14286fe8d1b1","system_id":"levelo_inurba_marseille","lat":43.297815,"lon":5.393548,"is_reserved":false,"is_disabled":false,"rental_uris":{"android":"levelo://app?vid=49c210f8-61b3-4d1f-9089-14286fe8d1b1","ios":"levelo://app?vid=49c210f8-61b3-4d1f-9089-14286fe8d1b1"},"vehicle_type_id":"4","last_reported":1705970230,"current_range_meters":26800,"station_id":"chh1huq6cuj3fo74tm60","pricing_plan_id":"free"},{"bike_id":"a2647b11-9795-473d-bf33-33b2d37561c2","system_id":"levelo_inurba_marseille","lat":43.330442,"lon":5.389148,"is_reserved":false,"is_disabled":false,"rental_uris":{"android":"levelo://app?vid=a2647b11-9795-473d-bf33-33b2d37561c2","ios":"levelo://app?vid=a2647b11-9795-473d-bf33-33b2d37561c2"},"vehicle_type_id":"4","last_reported":1705970230,"current_range_meters":5600,"station_id":"ce4bhr92rcd13ifvqhrg","pricing_plan_id":"free"},{"bike_id":"939083b6-7ee5-4f58-b38b-72d3f9c1db2e","system_id":"levelo_inurba_marseille","lat":43.29785,"lon":5.39356,"is_reserved":false,"is_disabled":false,"rental_uris":{"android":"levelo://app?vid=939083b6-7ee5-4f58-b38b-72d3f9c1db2e","ios":"levelo://app?vid=939083b6-7ee5-4f58-b38b-72d3f9c1db2e"},"vehicle_type_id":"4","last_reported":1705970230,"current_range_meters":23200,"station_id":"chh1huq6cuj3fo74tm60","pricing_plan_id":"free"},{"bike_id":"77f89468-23f4-42b0-aa40-da8db5c2b420","system_id":"levelo_inurba_marseille","lat":43.33027,"lon":5.39036,"is_reserved":false,"is_disabled":false,"rental_uris":{"android":"levelo://app?vid=77f89468-23f4-42b0-aa40-da8db5c2b420","ios":"levelo://app?vid=77f89468-23f4-42b0-aa40-da8db5c2b420"},"vehicle_type_id":"4","last_reported":1705970230,"current_range_meters":17200,"station_id":"ce4bhr92rcd13ifvqhrg","pricing_plan_id":"free"},{"bike_id":"925eaff5-3e49-4fa2-bc92-9f7181735632","system_id":"levelo_inurba_marseille","lat":43.330251,"lon":5.390447,"is_reserved":false,"is_disabled":false,"rental_uris":{"android":"levelo://app?vid=925eaff5-3e49-4fa2-bc92-9f7181735632","ios":"levelo://app?vid=925eaff5-3e49-4fa2-bc92-9f7181735632"},"vehicle_type_id":"4","last_reported":1705970230,"current_range_meters":12400,"station_id":"ce4bhr92rcd13ifvqhrg","pricing_plan_id":"free"},{"bike_id":"88559521-face-4c20-ba2b-67f07c063d95","system_id":"levelo_inurba_marseille","lat":43.330253,"lon":5.390447,"is_reserved":false,"is_disabled":false,"rental_uris":{"android":"levelo://app?vid=88559521-face-4c20-ba2b-67f07c063d95","ios":"levelo://app?vid=88559521-face-4c20-ba2b-67f07c063d95"},"vehicle_type_id":"4","last_reported":1705970230,"current_range_meters":14800,"station_id":"ce4bhr92rcd13ifvqhrg","pricing_plan_id":"free"},{"bike_id":"ae274a34-38eb-4a62-912c-8ad99eb0b799","system_id":"levelo_inurba_marseille","lat":43.33028,"lon":5.39045,"is_reserved":false,"is_disabled":false,"rental_uris":{"android":"levelo://app?vid=ae274a34-38eb-4a62-912c-8ad99eb0b799","ios":"levelo://app?vid=ae274a34-38eb-4a62-912c-8ad99eb0b799"},"vehicle_type_id":"4","last_reported":1705970230,"current_range_meters":6400,"station_id":"ce4bhr92rcd13ifvqhrg","pricing_plan_id":"free"},{"bike_id":"c8217cad-9878-4c41-8e21-9a034be5a361","system_id":"levelo_inurba_marseille","lat":43.330257,"lon":5.390509,"is_reserved":false,"is_disabled":false,"rental_uris":{"android":"levelo://app?vid=c8217cad-9878-4c41-8e21-9a034be5a361","ios":"levelo://app?vid=c8217cad-9878-4c41-8e21-9a034be5a361"},"vehicle_type_id":"4","last_reported":1705970230,"current_range_meters":2800,"station_id":"ce4bhr92rcd13ifvqhrg","pricing_plan_id":"free"},{"bike_id":"71189d73-104f-4b93-a939-cf8a1674f5ce","system_id":"levelo_inurba_marseille","lat":43.28856,"lon":5.358371,"is_reserved":false,"is_disabled":false,"rental_uris":{"android":"levelo://app?vid=71189d73-104f-4b93-a939-cf8a1674f5ce","ios":"levelo://app?vid=71189d73-104f-4b93-a939-cf8a1674f5ce"},"vehicle_type_id":"4","last_reported":1705970230,"current_range_meters":26000,"station_id":"ce4bhb12rcd13ifvqem0","pricing_plan_id":"free"},{"bike_id":"fa281fce-0eec-4700-906b-c5963a30ca1f","system_id":"levelo_inurba_marseille","lat":43.28856,"lon":5.358371,"is_reserved":false,"is_disabled":false,"rental_uris":{"android":"levelo://app?vid=fa281fce-0eec-4700-906b-c5963a30ca1f","ios":"levelo://app?vid=fa281fce-0eec-4700-906b-c5963a30ca1f"},"vehicle_type_id":"4","last_reported":1705970230,"current_range_meters":6000,"station_id":"ce4bhb12rcd13ifvqem0","pricing_plan_id":"free"},{"bike_id":"7efdef8e-5d7d-47e7-bd9a-ccf65e3fcd53","system_id":"levelo_inurba_marseille","lat":43.28856,"lon":5.358371,"is_reserved":false,"is_disabled":false,"rental_uris":{"android":"levelo://app?vid=7efdef8e-5d7d-47e7-bd9a-ccf65e3fcd53","ios":"levelo://app?vid=7efdef8e-5d7d-47e7-bd9a-ccf65e3fcd53"},"vehicle_type_id":"4","last_reported":1705970230,"current_range_meters":17200,"station_id":"ce4bhb12rcd13ifvqem0","pricing_plan_id":"free"},{"bike_id":"ce9f47a8-cd0a-4a2f-9f4a-5f5e6ca9476f","system_id":"levelo_inurba_marseille","lat":43.28856,"lon":5.358371,"is_reserved":false,"is_disabled":false,"rental_uris":{"android":"levelo://app?vid=ce9f47a8-cd0a-4a2f-9f4a-5f5e6ca9476f","ios":"levelo://app?vid=ce9f47a8-cd0a-4a2f-9f4a-5f5e6ca9476f"},"vehicle_type_id":"4","last_reported":1705970230,"current_range_meters":3600,"station_id":"ce4bhb12rcd13ifvqem0","pricing_plan_id":"free"},{"bike_id":"f23bdc28-a4b2-4cfd-80c9-42f28b2a042e","system_id":"levelo_inurba_marseille","lat":43.28856,"lon":5.358371,"is_reserved":false,"is_disabled":false,"rental_uris":{"android":"levelo://app?vid=f23bdc28-a4b2-4cfd-80c9-42f28b2a042e","ios":"levelo://app?vid=f23bdc28-a4b2-4cfd-80c9-42f28b2a042e"},"vehicle_type_id":"4","last_reported":1705970230,"current_range_meters":3600,"station_id":"ce4bhb12rcd13ifvqem0","pricing_plan_id":"free"},{"bike_id":"185d7004-c8e3-4036-a09c-9542b0b58642","system_id":"levelo_inurba_marseille","lat":43.28857,"lon":5.358462,"is_reserved":false,"is_disabled":false,"rental_uris":{"android":"levelo://app?vid=185d7004-c8e3-4036-a09c-9542b0b58642","ios":"levelo://app?vid=185d7004-c8e3-4036-a09c-9542b0b58642"},"vehicle_type_id":"4","last_reported":1705970230,"current_range_meters":22800,"station_id":"","pricing_plan_id":"free"},{"bike_id":"24eeed53-8266-429b-8664-dc34e2c0ef30","system_id":"levelo_inurba_marseille","lat":43.28856,"lon":5.358371,"is_reserved":false,"is_disabled":false,"rental_uris":{"android":"levelo://app?vid=24eeed53-8266-429b-8664-dc34e2c0ef30","ios":"levelo://app?vid=24eeed53-8266-429b-8664-dc34e2c0ef30"},"vehicle_type_id":"4","last_reported":1705970230,"current_range_meters":11600,"station_id":"ce4bhb12rcd13ifvqem0","pricing_plan_id":"free"},{"bike_id":"bac46955-6528-4bef-a737-cc5be3e54450","system_id":"levelo_inurba_marseille","lat":43.28856,"lon":5.358371,"is_reserved":false,"is_disabled":false,"rental_uris":{"android":"levelo://app?vid=bac46955-6528-4bef-a737-cc5be3e54450","ios":"levelo://app?vid=bac46955-6528-4bef-a737-cc5be3e54450"},"vehicle_type_id":"4","last_reported":1705970230,"current_range_meters":12400,"station_id":"ce4bhb12rcd13ifvqem0","pricing_plan_id":"free"},{"bike_id":"cb916230-284d-490f-ab49-a612e1e06a28","system_id":"levelo_inurba_marseille","lat":43.281044,"lon":5.378308,"is_reserved":false,"is_disabled":false,"rental_uris":{"android":"levelo://app?vid=cb916230-284d-490f-ab49-a612e1e06a28","ios":"levelo://app?vid=cb916230-284d-490f-ab49-a612e1e06a28"},"vehicle_type_id":"4","last_reported":1705970230,"current_range_meters":12800,"station_id":"ce4bha12rcd13ifvqee0","pricing_plan_id":"free"},{"bike_id":"52d08e4b-58ea-4eda-ace4-f7a55e9f4e33","system_id":"levelo_inurba_marseille","lat":43.309371,"lon":5.401449,"is_reserved":false,"is_disabled":false,"rental_uris":{"android":"levelo://app?vid=52d08e4b-58ea-4eda-ace4-f7a55e9f4e33","ios":"levelo://app?vid=52d08e4b-58ea-4eda-ace4-f7a55e9f4e33"},"vehicle_type_id":"4","last_reported":1705970230,"current_range_meters":19200,"station_id":"ce4bgvp2rcd13ifvqct0","pricing_plan_id":"free"},{"bike_id":"fe27389b-3c3a-4ad2-b34e-e3c131898f74","system_id":"levelo_inurba_marseille","lat":43.312609,"lon":5.401662,"is_reserved":false,"is_disabled":false,"rental_uris":{"android":"levelo://app?vid=fe27389b-3c3a-4ad2-b34e-e3c131898f74","ios":"levelo://app?vid=fe27389b-3c3a-4ad2-b34e-e3c131898f74"},"vehicle_type_id":"4","last_reported":1705970230,"current_range_meters":400,"station_id":"ce4bh092rcd13ifvqd30","pricing_plan_id":"free"},{"bike_id":"ad581a2b-0f90-49af-b2ef-0ca0167df15a","system_id":"levelo_inurba_marseille","lat":43.312609,"lon":5.401662,"is_reserved":false,"is_disabled":false,"rental_uris":{"android":"levelo://app?vid=ad581a2b-0f90-49af-b2ef-0ca0167df15a","ios":"levelo://app?vid=ad581a2b-0f90-49af-b2ef-0ca0167df15a"},"vehicle_type_id":"4","last_reported":1705970230,"current_range_meters":20000,"station_id":"ce4bh092rcd13ifvqd30","pricing_plan_id":"free"},{"bike_id":"903f67a8-78da-4312-a041-3150df0c6060","system_id":"levelo_inurba_marseille","lat":43.312609,"lon":5.401662,"is_reserved":false,"is_disabled":false,"rental_uris":{"android":"levelo://app?vid=903f67a8-78da-4312-a041-3150df0c6060","ios":"levelo://app?vid=903f67a8-78da-4312-a041-3150df0c6060"},"vehicle_type_id":"4","last_reported":1705970230,"current_range_meters":0,"station_id":"ce4bh092rcd13ifvqd30","pricing_plan_id":"free"},{"bike_id":"206f158a-0545-4c60-8ca6-b3437d3d43ef","system_id":"levelo_inurba_marseille","lat":43.312609,"lon":5.401662,"is_reserved":false,"is_disabled":false,"rental_uris":{"android":"levelo://app?vid=206f158a-0545-4c60-8ca6-b3437d3d43ef","ios":"levelo://app?vid=206f158a-0545-4c60-8ca6-b3437d3d43ef"},"vehicle_type_id":"4","last_reported":1705970230,"current_range_meters":11600,"station_id":"ce4bh092rcd13ifvqd30","pricing_plan_id":"free"},{"bike_id":"6242f914-b33b-4b05-b781-04f0f5646e7a","system_id":"levelo_inurba_marseille","lat":43.312609,"lon":5.401662,"is_reserved":false,"is_disabled":false,"rental_uris":{"android":"levelo://app?vid=6242f914-b33b-4b05-b781-04f0f5646e7a","ios":"levelo://app?vid=6242f914-b33b-4b05-b781-04f0f5646e7a"},"vehicle_type_id":"4","last_reported":1705970230,"current_range_meters":12800,"station_id":"ce4bh092rcd13ifvqd30","pricing_plan_id":"free"},{"bike_id":"92583824-3061-4362-a215-b6a04643adf9","system_id":"levelo_inurba_marseille","lat":43.312609,"lon":5.401662,"is_reserved":false,"is_disabled":false,"rental_uris":{"android":"levelo://app?vid=92583824-3061-4362-a215-b6a04643adf9","ios":"levelo://app?vid=92583824-3061-4362-a215-b6a04643adf9"},"vehicle_type_id":"4","last_reported":1705970230,"current_range_meters":20400,"station_id":"ce4bh092rcd13ifvqd30","pricing_plan_id":"free"},{"bike_id":"fb3b9925-f953-4f44-89a5-5e2de792e22d","system_id":"levelo_inurba_marseille","lat":43.309371,"lon":5.401449,"is_reserved":false,"is_disabled":false,"rental_uris":{"android":"levelo://app?vid=fb3b9925-f953-4f44-89a5-5e2de792e22d","ios":"levelo://app?vid=fb3b9925-f953-4f44-89a5-5e2de792e22d"},"vehicle_type_id":"4","last_reported":1705970230,"current_range_meters":13200,"station_id":"ce4bgvp2rcd13ifvqct0","pricing_plan_id":"free"},{"bike_id":"4770cd9e-f395-447d-973b-a32bbf0871ff","system_id":"levelo_inurba_marseille","lat":43.312609,"lon":5.401662,"is_reserved":false,"is_disabled":false,"rental_uris":{"android":"levelo://app?vid=4770cd9e-f395-447d-973b-a32bbf0871ff","ios":"levelo://app?vid=4770cd9e-f395-447d-973b-a32bbf0871ff"},"vehicle_type_id":"4","last_reported":1705970230,"current_range_meters":6000,"station_id":"ce4bh092rcd13ifvqd30","pricing_plan_id":"free"},{"bike_id":"a8fb37f4-7045-4e12-8e7c-c4c1968b41f6","system_id":"levelo_inurba_marseille","lat":43.309371,"lon":5.401449,"is_reserved":false,"is_disabled":false,"rental_uris":{"android":"levelo://app?vid=a8fb37f4-7045-4e12-8e7c-c4c1968b41f6","ios":"levelo://app?vid=a8fb37f4-7045-4e12-8e7c-c4c1968b41f6"},"vehicle_type_id":"4","last_reported":1705970230,"current_range_meters":27600,"station_id":"ce4bgvp2rcd13ifvqct0","pricing_plan_id":"free"},{"bike_id":"5f4ff106-1ccb-4d8b-8c6a-3f3a6149e94d","system_id":"levelo_inurba_marseille","lat":43.309371,"lon":5.401449,"is_reserved":false,"is_disabled":false,"rental_uris":{"android":"levelo://app?vid=5f4ff106-1ccb-4d8b-8c6a-3f3a6149e94d","ios":"levelo://app?vid=5f4ff106-1ccb-4d8b-8c6a-3f3a6149e94d"},"vehicle_type_id":"4","last_reported":1705970230,"current_range_meters":31600,"station_id":"ce4bgvp2rcd13ifvqct0","pricing_plan_id":"free"},{"bike_id":"3fa2ff80-869c-4c58-b361-34d802d91b22","system_id":"levelo_inurba_marseille","lat":43.309371,"lon":5.401449,"is_reserved":false,"is_disabled":false,"rental_uris":{"android":"levelo://app?vid=3fa2ff80-869c-4c58-b361-34d802d91b22","ios":"levelo://app?vid=3fa2ff80-869c-4c58-b361-34d802d91b22"},"vehicle_type_id":"4","last_reported":1705970230,"current_range_meters":400,"station_id":"ce4bgvp2rcd13ifvqct0","pricing_plan_id":"free"},{"bike_id":"62dc1930-496c-4ab3-a1f9-7bbeb3c16dd0","system_id":"levelo_inurba_marseille","lat":43.309371,"lon":5.401449,"is_reserved":false,"is_disabled":false,"rental_uris":{"android":"levelo://app?vid=62dc1930-496c-4ab3-a1f9-7bbeb3c16dd0","ios":"levelo://app?vid=62dc1930-496c-4ab3-a1f9-7bbeb3c16dd0"},"vehicle_type_id":"4","last_reported":1705970230,"current_range_meters":18400,"station_id":"ce4bgvp2rcd13ifvqct0","pricing_plan_id":"free"},{"bike_id":"b0b3665f-97a5-49fd-86be-a4c1e1fd1343","system_id":"levelo_inurba_marseille","lat":43.309371,"lon":5.401449,"is_reserved":false,"is_disabled":false,"rental_uris":{"android":"levelo://app?vid=b0b3665f-97a5-49fd-86be-a4c1e1fd1343","ios":"levelo://app?vid=b0b3665f-97a5-49fd-86be-a4c1e1fd1343"},"vehicle_type_id":"4","last_reported":1705970230,"current_range_meters":4800,"station_id":"ce4bgvp2rcd13ifvqct0","pricing_plan_id":"free"},{"bike_id":"1337d088-b461-4af4-9bfe-5d65476f273c","system_id":"levelo_inurba_marseille","lat":43.337541,"lon":5.374545,"is_reserved":false,"is_disabled":false,"rental_uris":{"android":"levelo://app?vid=1337d088-b461-4af4-9bfe-5d65476f273c","ios":"levelo://app?vid=1337d088-b461-4af4-9bfe-5d65476f273c"},"vehicle_type_id":"4","last_reported":1705970230,"current_range_meters":17600,"station_id":"","pricing_plan_id":"free"},{"bike_id":"731ecd52-74e3-4c7c-8249-a1be5b60a503","system_id":"levelo_inurba_marseille","lat":43.30642,"lon":5.401031,"is_reserved":false,"is_disabled":false,"rental_uris":{"android":"levelo://app?vid=731ecd52-74e3-4c7c-8249-a1be5b60a503","ios":"levelo://app?vid=731ecd52-74e3-4c7c-8249-a1be5b60a503"},"vehicle_type_id":"4","last_reported":1705970230,"current_range_meters":24800,"station_id":"ce4bh112rcd13ifvqda0","pricing_plan_id":"free"},{"bike_id":"14056439-d77a-469e-a234-9273395c67f0","system_id":"levelo_inurba_marseille","lat":43.306412,"lon":5.401035,"is_reserved":false,"is_disabled":false,"rental_uris":{"android":"levelo://app?vid=14056439-d77a-469e-a234-9273395c67f0","ios":"levelo://app?vid=14056439-d77a-469e-a234-9273395c67f0"},"vehicle_type_id":"4","last_reported":1705970230,"current_range_meters":31600,"station_id":"ce4bh112rcd13ifvqda0","pricing_plan_id":"free"},{"bike_id":"b20d6da6-6b3f-4a87-a46b-fbe91b010837","system_id":"levelo_inurba_marseille","lat":43.306412,"lon":5.401035,"is_reserved":false,"is_disabled":false,"rental_uris":{"android":"levelo://app?vid=b20d6da6-6b3f-4a87-a46b-fbe91b010837","ios":"levelo://app?vid=b20d6da6-6b3f-4a87-a46b-fbe91b010837"},"vehicle_type_id":"4","last_reported":1705970230,"current_range_meters":12000,"station_id":"ce4bh112rcd13ifvqda0","pricing_plan_id":"free"},{"bike_id":"f8378a07-cb6b-415b-bb76-49c4df3ba911","system_id":"levelo_inurba_marseille","lat":43.301117,"lon":5.398795,"is_reserved":false,"is_disabled":false,"rental_uris":{"android":"levelo://app?vid=f8378a07-cb6b-415b-bb76-49c4df3ba911","ios":"levelo://app?vid=f8378a07-cb6b-415b-bb76-49c4df3ba911"},"vehicle_type_id":"4","last_reported":1705970230,"current_range_meters":16800,"station_id":"ce4bh0h2rcd13ifvqd40","pricing_plan_id":"free"},{"bike_id":"264324cd-0e3d-42f2-b656-a8f1256c720f","system_id":"levelo_inurba_marseille","lat":43.28727,"lon":5.36078,"is_reserved":false,"is_disabled":false,"rental_uris":{"android":"levelo://app?vid=264324cd-0e3d-42f2-b656-a8f1256c720f","ios":"levelo://app?vid=264324cd-0e3d-42f2-b656-a8f1256c720f"},"vehicle_type_id":"4","last_reported":1705970230,"current_range_meters":0,"station_id":"cki0cbj6b192h4jlfktg","pricing_plan_id":"free"},{"bike_id":"6629a316-e0f9-4aa7-9261-955701d2d230","system_id":"levelo_inurba_marseille","lat":43.30468,"lon":5.40063,"is_reserved":false,"is_disabled":false,"rental_uris":{"android":"levelo://app?vid=6629a316-e0f9-4aa7-9261-955701d2d230","ios":"levelo://app?vid=6629a316-e0f9-4aa7-9261-955701d2d230"},"vehicle_type_id":"4","last_reported":1705970230,"current_range_meters":7600,"station_id":"","pricing_plan_id":"free"},{"bike_id":"8cc25bdc-0a7b-4b66-9dbb-cd29a862987d","system_id":"levelo_inurba_marseille","lat":43.28727,"lon":5.36078,"is_reserved":false,"is_disabled":false,"rental_uris":{"android":"levelo://app?vid=8cc25bdc-0a7b-4b66-9dbb-cd29a862987d","ios":"levelo://app?vid=8cc25bdc-0a7b-4b66-9dbb-cd29a862987d"},"vehicle_type_id":"4","last_reported":1705970230,"current_range_meters":18800,"station_id":"cki0cbj6b192h4jlfktg","pricing_plan_id":"free"},{"bike_id":"d131c853-a95d-4ae4-a8d1-f4664f3e8cf2","system_id":"levelo_inurba_marseille","lat":43.28727,"lon":5.36078,"is_reserved":false,"is_disabled":false,"rental_uris":{"android":"levelo://app?vid=d131c853-a95d-4ae4-a8d1-f4664f3e8cf2","ios":"levelo://app?vid=d131c853-a95d-4ae4-a8d1-f4664f3e8cf2"},"vehicle_type_id":"4","last_reported":1705970230,"current_range_meters":1600,"station_id":"cki0cbj6b192h4jlfktg","pricing_plan_id":"free"},{"bike_id":"64acc24d-1610-4996-94f0-054ed62a353b","system_id":"levelo_inurba_marseille","lat":43.28727,"lon":5.36078,"is_reserved":false,"is_disabled":false,"rental_uris":{"android":"levelo://app?vid=64acc24d-1610-4996-94f0-054ed62a353b","ios":"levelo://app?vid=64acc24d-1610-4996-94f0-054ed62a353b"},"vehicle_type_id":"4","last_reported":1705970230,"current_range_meters":17600,"station_id":"cki0cbj6b192h4jlfktg","pricing_plan_id":"free"},{"bike_id":"89930a60-09ee-4dc5-a058-4a6341b0f454","system_id":"levelo_inurba_marseille","lat":43.28727,"lon":5.36078,"is_reserved":false,"is_disabled":false,"rental_uris":{"android":"levelo://app?vid=89930a60-09ee-4dc5-a058-4a6341b0f454","ios":"levelo://app?vid=89930a60-09ee-4dc5-a058-4a6341b0f454"},"vehicle_type_id":"4","last_reported":1705970230,"current_range_meters":12400,"station_id":"cki0cbj6b192h4jlfktg","pricing_plan_id":"free"},{"bike_id":"5293c249-d79e-42ef-86fb-8449c71ed1c2","system_id":"levelo_inurba_marseille","lat":43.28727,"lon":5.36078,"is_reserved":false,"is_disabled":false,"rental_uris":{"android":"levelo://app?vid=5293c249-d79e-42ef-86fb-8449c71ed1c2","ios":"levelo://app?vid=5293c249-d79e-42ef-86fb-8449c71ed1c2"},"vehicle_type_id":"4","last_reported":1705970230,"current_range_meters":28400,"station_id":"cki0cbj6b192h4jlfktg","pricing_plan_id":"free"},{"bike_id":"88212189-e9a7-4468-9c25-4ed184e7bef3","system_id":"levelo_inurba_marseille","lat":43.302759,"lon":5.400793,"is_reserved":false,"is_disabled":false,"rental_uris":{"android":"levelo://app?vid=88212189-e9a7-4468-9c25-4ed184e7bef3","ios":"levelo://app?vid=88212189-e9a7-4468-9c25-4ed184e7bef3"},"vehicle_type_id":"4","last_reported":1705970230,"current_range_meters":6400,"station_id":"ce4bgvh2rcd13ifvqcs0","pricing_plan_id":"free"},{"bike_id":"eea73bde-ed5e-4fa7-b5a8-af2903b7abc2","system_id":"levelo_inurba_marseille","lat":43.286961,"lon":5.373785,"is_reserved":false,"is_disabled":false,"rental_uris":{"android":"levelo://app?vid=eea73bde-ed5e-4fa7-b5a8-af2903b7abc2","ios":"levelo://app?vid=eea73bde-ed5e-4fa7-b5a8-af2903b7abc2"},"vehicle_type_id":"4","last_reported":1705970230,"current_range_meters":27600,"station_id":"ce4bh3p2rcd13ifvqdq0","pricing_plan_id":"free"},{"bike_id":"89601acf-4766-49b7-8152-fc6446c0e453","system_id":"levelo_inurba_marseille","lat":43.286591,"lon":5.363346,"is_reserved":false,"is_disabled":false,"rental_uris":{"android":"levelo://app?vid=89601acf-4766-49b7-8152-fc6446c0e453","ios":"levelo://app?vid=89601acf-4766-49b7-8152-fc6446c0e453"},"vehicle_type_id":"4","last_reported":1705970230,"current_range_meters":32000,"station_id":"ce4bhah2rcd13ifvqej0","pricing_plan_id":"free"},{"bike_id":"363c8480-dfae-4c21-ba1a-8bc277b1a5db","system_id":"levelo_inurba_marseille","lat":43.298755,"lon":5.397275,"is_reserved":false,"is_disabled":false,"rental_uris":{"android":"levelo://app?vid=363c8480-dfae-4c21-ba1a-8bc277b1a5db","ios":"levelo://app?vid=363c8480-dfae-4c21-ba1a-8bc277b1a5db"},"vehicle_type_id":"4","last_reported":1705970230,"current_range_meters":12800,"station_id":"ce4bh0h2rcd13ifvqd50","pricing_plan_id":"free"},{"bike_id":"b6b45d57-9fef-4732-b30a-3c04d54aba21","system_id":"levelo_inurba_marseille","lat":43.286961,"lon":5.373785,"is_reserved":false,"is_disabled":false,"rental_uris":{"android":"levelo://app?vid=b6b45d57-9fef-4732-b30a-3c04d54aba21","ios":"levelo://app?vid=b6b45d57-9fef-4732-b30a-3c04d54aba21"},"vehicle_type_id":"4","last_reported":1705970230,"current_range_meters":18000,"station_id":"ce4bh3p2rcd13ifvqdq0","pricing_plan_id":"free"},{"bike_id":"4e6aea79-d4fa-4a89-813a-b650de635f90","system_id":"levelo_inurba_marseille","lat":43.298681,"lon":5.397225,"is_reserved":false,"is_disabled":false,"rental_uris":{"android":"levelo://app?vid=4e6aea79-d4fa-4a89-813a-b650de635f90","ios":"levelo://app?vid=4e6aea79-d4fa-4a89-813a-b650de635f90"},"vehicle_type_id":"4","last_reported":1705970230,"current_range_meters":4800,"station_id":"ce4bh0h2rcd13ifvqd50","pricing_plan_id":"free"},{"bike_id":"33bf5ec0-0bc3-4782-b6db-cf0c133bc9b1","system_id":"levelo_inurba_marseille","lat":43.298681,"lon":5.397225,"is_reserved":false,"is_disabled":false,"rental_uris":{"android":"levelo://app?vid=33bf5ec0-0bc3-4782-b6db-cf0c133bc9b1","ios":"levelo://app?vid=33bf5ec0-0bc3-4782-b6db-cf0c133bc9b1"},"vehicle_type_id":"4","last_reported":1705970230,"current_range_meters":18800,"station_id":"ce4bh0h2rcd13ifvqd50","pricing_plan_id":"free"},{"bike_id":"bfb6abb7-74e8-4a6b-8d5b-a3cbcf66b9a6","system_id":"levelo_inurba_marseille","lat":43.286591,"lon":5.363346,"is_reserved":false,"is_disabled":false,"rental_uris":{"android":"levelo://app?vid=bfb6abb7-74e8-4a6b-8d5b-a3cbcf66b9a6","ios":"levelo://app?vid=bfb6abb7-74e8-4a6b-8d5b-a3cbcf66b9a6"},"vehicle_type_id":"4","last_reported":1705970230,"current_range_meters":29200,"station_id":"ce4bhah2rcd13ifvqej0","pricing_plan_id":"free"},{"bike_id":"f9dbff0b-ef67-472b-9db7-ed901d94929d","system_id":"levelo_inurba_marseille","lat":43.286961,"lon":5.373785,"is_reserved":false,"is_disabled":false,"rental_uris":{"android":"levelo://app?vid=f9dbff0b-ef67-472b-9db7-ed901d94929d","ios":"levelo://app?vid=f9dbff0b-ef67-472b-9db7-ed901d94929d"},"vehicle_type_id":"4","last_reported":1705970230,"current_range_meters":27200,"station_id":"ce4bh3p2rcd13ifvqdq0","pricing_plan_id":"free"},{"bike_id":"82aae27d-5d39-47fe-9fce-0c2dfc257070","system_id":"levelo_inurba_marseille","lat":43.298681,"lon":5.397225,"is_reserved":false,"is_disabled":false,"rental_uris":{"android":"levelo://app?vid=82aae27d-5d39-47fe-9fce-0c2dfc257070","ios":"levelo://app?vid=82aae27d-5d39-47fe-9fce-0c2dfc257070"},"vehicle_type_id":"4","last_reported":1705970230,"current_range_meters":2800,"station_id":"ce4bh0h2rcd13ifvqd50","pricing_plan_id":"free"},{"bike_id":"87a9a9f4-5bf0-4fd8-a7a8-261e9a258b47","system_id":"levelo_inurba_marseille","lat":43.298718,"lon":5.397348,"is_reserved":false,"is_disabled":false,"rental_uris":{"android":"levelo://app?vid=87a9a9f4-5bf0-4fd8-a7a8-261e9a258b47","ios":"levelo://app?vid=87a9a9f4-5bf0-4fd8-a7a8-261e9a258b47"},"vehicle_type_id":"4","last_reported":1705970230,"current_range_meters":27200,"station_id":"ce4bh0h2rcd13ifvqd50","pricing_plan_id":"free"},{"bike_id":"adbdd199-6972-4a4f-9214-f6fa59a8c8e2","system_id":"levelo_inurba_marseille","lat":43.286591,"lon":5.363346,"is_reserved":false,"is_disabled":false,"rental_uris":{"android":"levelo://app?vid=adbdd199-6972-4a4f-9214-f6fa59a8c8e2","ios":"levelo://app?vid=adbdd199-6972-4a4f-9214-f6fa59a8c8e2"},"vehicle_type_id":"4","last_reported":1705970230,"current_range_meters":22800,"station_id":"ce4bhah2rcd13ifvqej0","pricing_plan_id":"free"},{"bike_id":"f99f9657-634b-4e12-af52-5824d72682ec","system_id":"levelo_inurba_marseille","lat":43.286961,"lon":5.373785,"is_reserved":false,"is_disabled":false,"rental_uris":{"android":"levelo://app?vid=f99f9657-634b-4e12-af52-5824d72682ec","ios":"levelo://app?vid=f99f9657-634b-4e12-af52-5824d72682ec"},"vehicle_type_id":"4","last_reported":1705970230,"current_range_meters":30000,"station_id":"ce4bh3p2rcd13ifvqdq0","pricing_plan_id":"free"},{"bike_id":"1ebf8b55-5f4a-4e5b-a8da-9a84cc7bf7a6","system_id":"levelo_inurba_marseille","lat":43.286961,"lon":5.373785,"is_reserved":false,"is_disabled":false,"rental_uris":{"android":"levelo://app?vid=1ebf8b55-5f4a-4e5b-a8da-9a84cc7bf7a6","ios":"levelo://app?vid=1ebf8b55-5f4a-4e5b-a8da-9a84cc7bf7a6"},"vehicle_type_id":"4","last_reported":1705970230,"current_range_meters":10800,"station_id":"ce4bh3p2rcd13ifvqdq0","pricing_plan_id":"free"},{"bike_id":"4c137a39-a8c0-40e4-9a19-021198fc2953","system_id":"levelo_inurba_marseille","lat":43.286961,"lon":5.373785,"is_reserved":false,"is_disabled":false,"rental_uris":{"android":"levelo://app?vid=4c137a39-a8c0-40e4-9a19-021198fc2953","ios":"levelo://app?vid=4c137a39-a8c0-40e4-9a19-021198fc2953"},"vehicle_type_id":"4","last_reported":1705970230,"current_range_meters":12000,"station_id":"ce4bh3p2rcd13ifvqdq0","pricing_plan_id":"free"},{"bike_id":"c822e0c0-e258-4c3b-9e8e-b87d7b7a6400","system_id":"levelo_inurba_marseille","lat":43.298695,"lon":5.397379,"is_reserved":false,"is_disabled":false,"rental_uris":{"android":"levelo://app?vid=c822e0c0-e258-4c3b-9e8e-b87d7b7a6400","ios":"levelo://app?vid=c822e0c0-e258-4c3b-9e8e-b87d7b7a6400"},"vehicle_type_id":"4","last_reported":1705970230,"current_range_meters":6000,"station_id":"ce4bh0h2rcd13ifvqd50","pricing_plan_id":"free"},{"bike_id":"c349c7a9-9b35-4299-9239-81af9f7a050a","system_id":"levelo_inurba_marseille","lat":43.286961,"lon":5.373785,"is_reserved":false,"is_disabled":false,"rental_uris":{"android":"levelo://app?vid=c349c7a9-9b35-4299-9239-81af9f7a050a","ios":"levelo://app?vid=c349c7a9-9b35-4299-9239-81af9f7a050a"},"vehicle_type_id":"4","last_reported":1705970230,"current_range_meters":20000,"station_id":"ce4bh3p2rcd13ifvqdq0","pricing_plan_id":"free"},{"bike_id":"d195e0df-a76e-47bf-a2e5-5e8e05259bd1","system_id":"levelo_inurba_marseille","lat":43.295177,"lon":5.39396,"is_reserved":false,"is_disabled":false,"rental_uris":{"android":"levelo://app?vid=d195e0df-a76e-47bf-a2e5-5e8e05259bd1","ios":"levelo://app?vid=d195e0df-a76e-47bf-a2e5-5e8e05259bd1"},"vehicle_type_id":"4","last_reported":1705970230,"current_range_meters":22000,"station_id":"ce4bh292rcd13ifvqdf0","pricing_plan_id":"free"},{"bike_id":"6a5d6c0f-d2c8-42e0-8144-e7e9da7e9536","system_id":"levelo_inurba_marseille","lat":43.295196,"lon":5.39397,"is_reserved":false,"is_disabled":false,"rental_uris":{"android":"levelo://app?vid=6a5d6c0f-d2c8-42e0-8144-e7e9da7e9536","ios":"levelo://app?vid=6a5d6c0f-d2c8-42e0-8144-e7e9da7e9536"},"vehicle_type_id":"4","last_reported":1705970230,"current_range_meters":26000,"station_id":"ce4bh292rcd13ifvqdf0","pricing_plan_id":"free"},{"bike_id":"f873451a-6718-48a4-9a86-1b11eac804f9","system_id":"levelo_inurba_marseille","lat":43.29519,"lon":5.394,"is_reserved":false,"is_disabled":false,"rental_uris":{"android":"levelo://app?vid=f873451a-6718-48a4-9a86-1b11eac804f9","ios":"levelo://app?vid=f873451a-6718-48a4-9a86-1b11eac804f9"},"vehicle_type_id":"4","last_reported":1705970230,"current_range_meters":400,"station_id":"ce4bh292rcd13ifvqdf0","pricing_plan_id":"free"},{"bike_id":"7b6a218b-ef5d-4319-a23f-456b401673cc","system_id":"levelo_inurba_marseille","lat":43.295196,"lon":5.39397,"is_reserved":false,"is_disabled":false,"rental_uris":{"android":"levelo://app?vid=7b6a218b-ef5d-4319-a23f-456b401673cc","ios":"levelo://app?vid=7b6a218b-ef5d-4319-a23f-456b401673cc"},"vehicle_type_id":"4","last_reported":1705970230,"current_range_meters":19600,"station_id":"ce4bh292rcd13ifvqdf0","pricing_plan_id":"free"},{"bike_id":"b0886a44-0eba-4a3c-8e50-b37a84fa3289","system_id":"levelo_inurba_marseille","lat":43.29516,"lon":5.394044,"is_reserved":false,"is_disabled":false,"rental_uris":{"android":"levelo://app?vid=b0886a44-0eba-4a3c-8e50-b37a84fa3289","ios":"levelo://app?vid=b0886a44-0eba-4a3c-8e50-b37a84fa3289"},"vehicle_type_id":"4","last_reported":1705970230,"current_range_meters":6800,"station_id":"ce4bh292rcd13ifvqdf0","pricing_plan_id":"free"},{"bike_id":"6d6c2a9d-ab67-48ee-8a41-56bb8f39be3b","system_id":"levelo_inurba_marseille","lat":43.295158,"lon":5.394045,"is_reserved":false,"is_disabled":false,"rental_uris":{"android":"levelo://app?vid=6d6c2a9d-ab67-48ee-8a41-56bb8f39be3b","ios":"levelo://app?vid=6d6c2a9d-ab67-48ee-8a41-56bb8f39be3b"},"vehicle_type_id":"4","last_reported":1705970230,"current_range_meters":21600,"station_id":"ce4bh292rcd13ifvqdf0","pricing_plan_id":"free"},{"bike_id":"c58dfecc-82f1-4c37-906e-22014d08464e","system_id":"levelo_inurba_marseille","lat":43.295151,"lon":5.394091,"is_reserved":false,"is_disabled":false,"rental_uris":{"android":"levelo://app?vid=c58dfecc-82f1-4c37-906e-22014d08464e","ios":"levelo://app?vid=c58dfecc-82f1-4c37-906e-22014d08464e"},"vehicle_type_id":"4","last_reported":1705970230,"current_range_meters":19200,"station_id":"ce4bh292rcd13ifvqdf0","pricing_plan_id":"free"},{"bike_id":"27b4fa33-57f2-4b59-a48e-364aa4394e88","system_id":"levelo_inurba_marseille","lat":43.302759,"lon":5.400793,"is_reserved":false,"is_disabled":false,"rental_uris":{"android":"levelo://app?vid=27b4fa33-57f2-4b59-a48e-364aa4394e88","ios":"levelo://app?vid=27b4fa33-57f2-4b59-a48e-364aa4394e88"},"vehicle_type_id":"4","last_reported":1705970230,"current_range_meters":10800,"station_id":"ce4bgvh2rcd13ifvqcs0","pricing_plan_id":"free"},{"bike_id":"7f31bcb9-fadf-4bdd-93a6-27b0ceb89f3f","system_id":"levelo_inurba_marseille","lat":43.302759,"lon":5.400793,"is_reserved":false,"is_disabled":false,"rental_uris":{"android":"levelo://app?vid=7f31bcb9-fadf-4bdd-93a6-27b0ceb89f3f","ios":"levelo://app?vid=7f31bcb9-fadf-4bdd-93a6-27b0ceb89f3f"},"vehicle_type_id":"4","last_reported":1705970230,"current_range_meters":9600,"station_id":"ce4bgvh2rcd13ifvqcs0","pricing_plan_id":"free"},{"bike_id":"a6a3ac5d-b13d-4f12-a4ad-ef90a1dda0ce","system_id":"levelo_inurba_marseille","lat":43.302759,"lon":5.400793,"is_reserved":false,"is_disabled":false,"rental_uris":{"android":"levelo://app?vid=a6a3ac5d-b13d-4f12-a4ad-ef90a1dda0ce","ios":"levelo://app?vid=a6a3ac5d-b13d-4f12-a4ad-ef90a1dda0ce"},"vehicle_type_id":"4","last_reported":1705970230,"current_range_meters":23200,"station_id":"ce4bgvh2rcd13ifvqcs0","pricing_plan_id":"free"},{"bike_id":"750f517c-2a35-4cfc-a1e4-44650bcd0613","system_id":"levelo_inurba_marseille","lat":43.302759,"lon":5.400793,"is_reserved":false,"is_disabled":false,"rental_uris":{"android":"levelo://app?vid=750f517c-2a35-4cfc-a1e4-44650bcd0613","ios":"levelo://app?vid=750f517c-2a35-4cfc-a1e4-44650bcd0613"},"vehicle_type_id":"4","last_reported":1705970230,"current_range_meters":1200,"station_id":"ce4bgvh2rcd13ifvqcs0","pricing_plan_id":"free"},