{"last_updated":1702742872,"ttl":30,"version":"2.2","data":{"bikes":[{"bike_id":"ccd1ad02-8bf6-4a7b-9d1b-451ff7e3555d","system_id":"levelo_inurba_marseille","lat":43.314811,"lon":5.373103,"is_reserved":false,"is_disabled":false,"rental_uris":{"android":"levelo://app?vid=ccd1ad02-8bf6-4a7b-9d1b-451ff7e3555d","ios":"levelo://app?vid=ccd1ad02-8bf6-4a7b-9d1b-451ff7e3555d"},"vehicle_type_id":"4","last_reported":1702742872,"current_range_meters":15200,"station_id":"ce4bgt12rcd13ifvqcd0","pricing_plan_id":"free"},{"bike_id":"3f8b821f-e430-4a35-bf14-f8b6e777ea11","system_id":"levelo_inurba_marseille","lat":43.313939,"lon":5.375306,"is_reserved":false,"is_disabled":false,"rental_uris":{"android":"levelo://app?vid=3f8b821f-e430-4a35-bf14-f8b6e777ea11","ios":"levelo://app?vid=3f8b821f-e430-4a35-bf14-f8b6e777ea11"},"vehicle_type_id":"4","last_reported":1702742872,"current_range_meters":0,"station_id":"","pricing_plan_id":"free"},{"bike_id":"955e4ab2-16e5-44e8-a986-a2f50ff96c06","system_id":"levelo_inurba_marseille","lat":43.305382,"lon":5.365389,"is_reserved":false,"is_disabled":false,"rental_uris":{"android":"levelo://app?vid=955e4ab2-16e5-44e8-a986-a2f50ff96c06","ios":"levelo://app?vid=955e4ab2-16e5-44e8-a986-a2f50ff96c06"},"vehicle_type_id":"4","last_reported":1702742872,"current_range_meters":15200,"station_id":"","pricing_plan_id":"free"},{"bike_id":"a236f51c-9607-42ee-b653-288e6a97e375","system_id":"levelo_inurba_marseille","lat":43.30534,"lon":5.36547,"is_reserved":false,"is_disabled":false,"rental_uris":{"android":"levelo://app?vid=a236f51c-9607-42ee-b653-288e6a97e375","ios":"levelo://app?vid=a236f51c-9607-42ee-b653-288e6a97e375"},"vehicle_type_id":"4","last_reported":1702742872,"current_range_meters":12000,"station_id":"ce4bgs12rcd13ifvqcag","pricing_plan_id":"free"},{"bike_id":"70f45e25-e10f-45d0-9332-7c9ffe8bd5d8","system_id":"levelo_inurba_marseille","lat":43.305989,"lon":5.37225,"is_reserved":false,"is_disabled":false,"rental_uris":{"android":"levelo://app?vid=70f45e25-e10f-45d0-9332-7c9ffe8bd5d8","ios":"levelo://app?vid=70f45e25-e10f-45d0-9332-7c9ffe8bd5d8"},"vehicle_type_id":"4","last_reported":1702742872,"current_range_meters":14800,"station_id":"ce4bgqh2rcd13ifvqc4g","pricing_plan_id":"free"},{"bike_id":"2d7c44d2-ccdb-46c2-9b11-2f5e462e928a","system_id":"levelo_inurba_marseille","lat":43.305989,"lon":5.37225,"is_reserved":false,"is_disabled":false,"rental_uris":{"android":"levelo://app?vid=2d7c44d2-ccdb-46c2-9b11-2f5e462e928a","ios":"levelo://app?vid=2d7c44d2-ccdb-46c2-9b11-2f5e462e928a"},"vehicle_type_id":"4","last_reported":1702742872,"current_range_meters":6400,"station_id":"ce4bgqh2rcd13ifvqc4g","pricing_plan_id":"free"},{"bike_id":"98fd1626-650e-4625-89ef-2086b7ceeb9e","system_id":"levelo_inurba_marseille","lat":43.307945,"lon":5.376487,"is_reserved":false,"is_disabled":false,"rental_uris":{"android":"levelo://app?vid=98fd1626-650e-4625-89ef-2086b7ceeb9e","ios":"levelo://app?vid=98fd1626-650e-4625-89ef-2086b7ceeb9e"},"vehicle_type_id":"4","last_reported":1702742872,"current_range_meters":28800,"station_id":"ce4bgv92rcd13ifvqcq0","pricing_plan_id":"free"},{"bike_id":"8ca06f85-0a67-4f2f-b47b-6329136aa613","system_id":"levelo_inurba_marseille","lat":43.317075,"lon":5.377367,"is_reserved":false,"is_disabled":false,"rental_uris":{"android":"levelo://app?vid=8ca06f85-0a67-4f2f-b47b-6329136aa613","ios":"levelo://app?vid=8ca06f85-0a67-4f2f-b47b-6329136aa613"},"vehicle_type_id":"4","last_reported":1702742872,"current_range_meters":28800,"station_id":"ce4bgth2rcd13ifvqch0","pricing_plan_id":"free"},{"bike_id":"5aa1c98c-5dd1-49eb-8d10-9e3a2c03e6d0","system_id":"levelo_inurba_marseille","lat":43.301939,"lon":5.366286,"is_reserved":false,"is_disabled":false,"rental_uris":{"android":"levelo://app?vid=5aa1c98c-5dd1-49eb-8d10-9e3a2c03e6d0","ios":"levelo://app?vid=5aa1c98c-5dd1-49eb-8d10-9e3a2c03e6d0"},"vehicle_type_id":"4","last_reported":1702742872,"current_range_meters":2800,"station_id":"ce4bgrh2rcd13ifvqc8g","pricing_plan_id":"free"},{"bike_id":"05800320-2eda-4eb7-a6b2-d883d1d40a60","system_id":"levelo_inurba_marseille","lat":43.301939,"lon":5.366286,"is_reserved":false,"is_disabled":false,"rental_uris":{"android":"levelo://app?vid=05800320-2eda-4eb7-a6b2-d883d1d40a60","ios":"levelo://app?vid=05800320-2eda-4eb7-a6b2-d883d1d40a60"},"vehicle_type_id":"4","last_reported":1702742872,"current_range_meters":400,"station_id":"ce4bgrh2rcd13ifvqc8g","pricing_plan_id":"free"},{"bike_id":"97acbc79-2d36-4d9e-9629-859813e8a89e","system_id":"levelo_inurba_marseille","lat":43.308012,"lon":5.381511,"is_reserved":false,"is_disabled":false,"rental_uris":{"android":"levelo://app?vid=97acbc79-2d36-4d9e-9629-859813e8a89e","ios":"levelo://app?vid=97acbc79-2d36-4d9e-9629-859813e8a89e"},"vehicle_type_id":"4","last_reported":1702742872,"current_range_meters":23600,"station_id":"ce4bgt12rcd13ifvqce0","pricing_plan_id":"free"},{"bike_id":"93a897ae-a3b9-4fa5-97d3-7fa925a3ef2e","system_id":"levelo_inurba_marseille","lat":43.30795,"lon":5.38161,"is_reserved":false,"is_disabled":false,"rental_uris":{"android":"levelo://app?vid=93a897ae-a3b9-4fa5-97d3-7fa925a3ef2e","ios":"levelo://app?vid=93a897ae-a3b9-4fa5-97d3-7fa925a3ef2e"},"vehicle_type_id":"4","last_reported":1702742872,"current_range_meters":10800,"station_id":"ce4bgt12rcd13ifvqce0","pricing_plan_id":"free"},{"bike_id":"dfe62985-6f65-471f-8bdb-4e96693a7937","system_id":"levelo_inurba_marseille","lat":43.324784,"lon":5.365768,"is_reserved":false,"is_disabled":false,"rental_uris":{"android":"levelo://app?vid=dfe62985-6f65-471f-8bdb-4e96693a7937","ios":"levelo://app?vid=dfe62985-6f65-471f-8bdb-4e96693a7937"},"vehicle_type_id":"4","last_reported":1702742872,"current_range_meters":18000,"station_id":"ce4bhs12rcd13ifvqhvg","pricing_plan_id":"free"},{"bike_id":"88f7ea2a-62f7-4a88-9e9d-900940b4d7e5","system_id":"levelo_inurba_marseille","lat":43.324837,"lon":5.36557,"is_reserved":false,"is_disabled":false,"rental_uris":{"android":"levelo://app?vid=88f7ea2a-62f7-4a88-9e9d-900940b4d7e5","ios":"levelo://app?vid=88f7ea2a-62f7-4a88-9e9d-900940b4d7e5"},"vehicle_type_id":"4","last_reported":1702742872,"current_range_meters":15200,"station_id":"ce4bhs12rcd13ifvqhvg","pricing_plan_id":"free"},{"bike_id":"e6f52ad3-cad8-459d-92cb-90c122abb20d","system_id":"levelo_inurba_marseille","lat":43.301429,"lon":5.37413,"is_reserved":false,"is_disabled":false,"rental_uris":{"android":"levelo://app?vid=e6f52ad3-cad8-459d-92cb-90c122abb20d","ios":"levelo://app?vid=e6f52ad3-cad8-459d-92cb-90c122abb20d"},"vehicle_type_id":"4","last_reported":1702742872,"current_range_meters":29600,"station_id":"ce4bgs92rcd13ifvqcc0","pricing_plan_id":"free"},{"bike_id":"0500aeca-d7bb-4953-b6a6-8226883ccb75","system_id":"levelo_inurba_marseille","lat":43.299357,"lon":5.365477,"is_reserved":false,"is_disabled":false,"rental_uris":{"android":"levelo://app?vid=0500aeca-d7bb-4953-b6a6-8226883ccb75","ios":"levelo://app?vid=0500aeca-d7bb-4953-b6a6-8226883ccb75"},"vehicle_type_id":"4","last_reported":1702742872,"current_range_meters":10400,"station_id":"ce4bgm92rcd13ifvqbr0","pricing_plan_id":"free"},{"bike_id":"2c95b8bf-6004-4c9a-8057-71ce96f7b4dc","system_id":"levelo_inurba_marseille","lat":43.29932,"lon":5.36565,"is_reserved":false,"is_disabled":false,"rental_uris":{"android":"levelo://app?vid=2c95b8bf-6004-4c9a-8057-71ce96f7b4dc","ios":"levelo://app?vid=2c95b8bf-6004-4c9a-8057-71ce96f7b4dc"},"vehicle_type_id":"4","last_reported":1702742872,"current_range_meters":19200,"station_id":"ce4bgm92rcd13ifvqbr0","pricing_plan_id":"free"},{"bike_id":"12590cc0-f1d5-418e-9d7a-886469f3766d","system_id":"levelo_inurba_marseille","lat":43.29928,"lon":5.3654,"is_reserved":false,"is_disabled":false,"rental_uris":{"android":"levelo://app?vid=12590cc0-f1d5-418e-9d7a-886469f3766d","ios":"levelo://app?vid=12590cc0-f1d5-418e-9d7a-886469f3766d"},"vehicle_type_id":"4","last_reported":1702742872,"current_range_meters":16000,"station_id":"ce4bgm92rcd13ifvqbr0","pricing_plan_id":"free"},{"bike_id":"f627bf43-077e-4de1-9991-62d36166c0e4","system_id":"levelo_inurba_marseille","lat":43.299724,"lon":5.371829,"is_reserved":false,"is_disabled":false,"rental_uris":{"android":"levelo://app?vid=f627bf43-077e-4de1-9991-62d36166c0e4","ios":"levelo://app?vid=f627bf43-077e-4de1-9991-62d36166c0e4"},"vehicle_type_id":"4","last_reported":1702742872,"current_range_meters":24800,"station_id":"ce4bgr92rcd13ifvqc7g","pricing_plan_id":"free"},{"bike_id":"e608665c-a0fa-449d-b33f-ed0cd033c740","system_id":"levelo_inurba_marseille","lat":43.31197,"lon":5.38683,"is_reserved":false,"is_disabled":false,"rental_uris":{"android":"levelo://app?vid=e608665c-a0fa-449d-b33f-ed0cd033c740","ios":"levelo://app?vid=e608665c-a0fa-449d-b33f-ed0cd033c740"},"vehicle_type_id":"4","last_reported":1702742872,"current_range_meters":18000,"station_id":"","pricing_plan_id":"free"},{"bike_id":"4a45a2b9-f56c-425d-8faa-fb7b5d0b1777","system_id":"levelo_inurba_marseille","lat":43.298433,"lon":5.362774,"is_reserved":false,"is_disabled":false,"rental_uris":{"android":"levelo://app?vid=4a45a2b9-f56c-425d-8faa-fb7b5d0b1777","ios":"levelo://app?vid=4a45a2b9-f56c-425d-8faa-fb7b5d0b1777"},"vehicle_type_id":"4","last_reported":1702742872,"current_range_meters":6000,"station_id":"ce4bgpp2rcd13ifvqc3g","pricing_plan_id":"free"},{"bike_id":"c4e77394-aef9-4077-b745-e99148625344","system_id":"levelo_inurba_marseille","lat":43.32733,"lon":5.36707,"is_reserved":false,"is_disabled":false,"rental_uris":{"android":"levelo://app?vid=c4e77394-aef9-4077-b745-e99148625344","ios":"levelo://app?vid=c4e77394-aef9-4077-b745-e99148625344"},"vehicle_type_id":"4","last_reported":1702742872,"current_range_meters":22400,"station_id":"","pricing_plan_id":"free"},{"bike_id":"819cb438-2e9c-4e0b-902b-5e19ef554d5c","system_id":"levelo_inurba_marseille","lat":43.305465,"lon":5.384495,"is_reserved":false,"is_disabled":false,"rental_uris":{"android":"levelo://app?vid=819cb438-2e9c-4e0b-902b-5e19ef554d5c","ios":"levelo://app?vid=819cb438-2e9c-4e0b-902b-5e19ef554d5c"},"vehicle_type_id":"4","last_reported":1702742872,"current_range_meters":16000,"station_id":"","pricing_plan_id":"free"},{"bike_id":"2db874e7-afae-4a0f-ae99-366f8f377565","system_id":"levelo_inurba_marseille","lat":43.311722,"lon":5.387247,"is_reserved":false,"is_disabled":false,"rental_uris":{"android":"levelo://app?vid=2db874e7-afae-4a0f-ae99-366f8f377565","ios":"levelo://app?vid=2db874e7-afae-4a0f-ae99-366f8f377565"},"vehicle_type_id":"4","last_reported":1702742872,"current_range_meters":9600,"station_id":"ce4bgv12rcd13ifvqcp0","pricing_plan_id":"free"},{"bike_id":"6291b0e6-4399-4711-87e0-e7ba7dd38a31","system_id":"levelo_inurba_marseille","lat":43.297794,"lon":5.370888,"is_reserved":false,"is_disabled":false,"rental_uris":{"android":"levelo://app?vid=6291b0e6-4399-4711-87e0-e7ba7dd38a31","ios":"levelo://app?vid=6291b0e6-4399-4711-87e0-e7ba7dd38a31"},"vehicle_type_id":"4","last_reported":1702742872,"current_range_meters":12000,"station_id":"ce4bgop2rcd13ifvqc1g","pricing_plan_id":"free"},{"bike_id":"1737724e-cb2c-4de9-82f2-77dd2021971f","system_id":"levelo_inurba_marseille","lat":43.32828,"lon":5.36678,"is_reserved":false,"is_disabled":false,"rental_uris":{"android":"levelo://app?vid=1737724e-cb2c-4de9-82f2-77dd2021971f","ios":"levelo://app?vid=1737724e-cb2c-4de9-82f2-77dd2021971f"},"vehicle_type_id":"4","last_reported":1702742872,"current_range_meters":16000,"station_id":"ce4bhs92rcd13ifvqi0g","pricing_plan_id":"free"},{"bike_id":"426dd8da-454e-4ced-ac61-75161de61193","system_id":"levelo_inurba_marseille","lat":43.299154,"lon":5.381531,"is_reserved":false,"is_disabled":false,"rental_uris":{"android":"levelo://app?vid=426dd8da-454e-4ced-ac61-75161de61193","ios":"levelo://app?vid=426dd8da-454e-4ced-ac61-75161de61193"},"vehicle_type_id":"4","last_reported":1702742872,"current_range_meters":9600,"station_id":"ce4bgj12rcd13ifvqbc0","pricing_plan_id":"free"},{"bike_id":"4a463250-05da-4035-aca2-f6ef27d9bbf8","system_id":"levelo_inurba_marseille","lat":43.309589,"lon":5.390258,"is_reserved":false,"is_disabled":false,"rental_uris":{"android":"levelo://app?vid=4a463250-05da-4035-aca2-f6ef27d9bbf8","ios":"levelo://app?vid=4a463250-05da-4035-aca2-f6ef27d9bbf8"},"vehicle_type_id":"4","last_reported":1702742872,"current_range_meters":18000,"station_id":"ce4bgup2rcd13ifvqco0","pricing_plan_id":"free"},{"bike_id":"e4e25505-fc35-4e76-ba27-c2b94e35f175","system_id":"levelo_inurba_marseille","lat":43.317557,"lon":5.390173,"is_reserved":false,"is_disabled":false,"rental_uris":{"android":"levelo://app?vid=e4e25505-fc35-4e76-ba27-c2b94e35f175","ios":"levelo://app?vid=e4e25505-fc35-4e76-ba27-c2b94e35f175"},"vehicle_type_id":"4","last_reported":1702742872,"current_range_meters":26800,"station_id":"ce4bhqp2rcd13ifvqhng","pricing_plan_id":"free"},{"bike_id":"03c134a7-7c7c-4151-991c-353bca23c699","system_id":"levelo_inurba_marseille","lat":43.295748,"lon":5.37522,"is_reserved":false,"is_disabled":false,"rental_uris":{"android":"levelo://app?vid=03c134a7-7c7c-4151-991c-353bca23c699","ios":"levelo://app?vid=03c134a7-7c7c-4151-991c-353bca23c699"},"vehicle_type_id":"4","last_reported":1702742872,"current_range_meters":0,"station_id":"ce4bgh92rcd13ifvqb50","pricing_plan_id":"free"},{"bike_id":"df8c1ef6-e80a-4179-9a9f-ecec4cdb517a","system_id":"levelo_inurba_marseille","lat":43.299724,"lon":5.384848,"is_reserved":false,"is_disabled":false,"rental_uris":{"android":"levelo://app?vid=df8c1ef6-e80a-4179-9a9f-ecec4cdb517a","ios":"levelo://app?vid=df8c1ef6-e80a-4179-9a9f-ecec4cdb517a"},"vehicle_type_id":"4","last_reported":1702742872,"current_range_meters":26400,"station_id":"ce4bgj92rcd13ifvqbd0","pricing_plan_id":"free"},{"bike_id":"2d339ccb-9fe7-4132-b39e-b9bd4a932749","system_id":"levelo_inurba_marseille","lat":43.32356,"lon":5.38883,"is_reserved":false,"is_disabled":false,"rental_uris":{"android":"levelo://app?vid=2d339ccb-9fe7-4132-b39e-b9bd4a932749","ios":"levelo://app?vid=2d339ccb-9fe7-4132-b39e-b9bd4a932749"},"vehicle_type_id":"4","last_reported":1702742872,"current_range_meters":16000,"station_id":"ce4bhqp2rcd13ifvqhog","pricing_plan_id":"free"},{"bike_id":"59714292-8fbb-4680-9091-f6716d92c77d","system_id":"levelo_inurba_marseille","lat":43.32367,"lon":5.388836,"is_reserved":false,"is_disabled":false,"rental_uris":{"android":"levelo://app?vid=59714292-8fbb-4680-9091-f6716d92c77d","ios":"levelo://app?vid=59714292-8fbb-4680-9091-f6716d92c77d"},"vehicle_type_id":"4","last_reported":1702742872,"current_range_meters":7200,"station_id":"ce4bhqp2rcd13ifvqhog","pricing_plan_id":"free"},{"bike_id":"fa886c85-cf6e-4aec-bfb5-316c4da0721f","system_id":"levelo_inurba_marseille","lat":43.293259,"lon":5.371586,"is_reserved":false,"is_disabled":false,"rental_uris":{"android":"levelo://app?vid=fa886c85-cf6e-4aec-bfb5-316c4da0721f","ios":"levelo://app?vid=fa886c85-cf6e-4aec-bfb5-316c4da0721f"},"vehicle_type_id":"4","last_reported":1702742872,"current_range_meters":0,"station_id":"ce4bgh92rcd13ifvqb40","pricing_plan_id":"free"},{"bike_id":"040df58b-7a69-4c8a-981e-0ee939ee251f","system_id":"levelo_inurba_marseille","lat":43.293009,"lon":5.374584,"is_reserved":false,"is_disabled":false,"rental_uris":{"android":"levelo://app?vid=040df58b-7a69-4c8a-981e-0ee939ee251f","ios":"levelo://app?vid=040df58b-7a69-4c8a-981e-0ee939ee251f"},"vehicle_type_id":"4","last_reported":1702742872,"current_range_meters":18400,"station_id":"ce4bgi12rcd13ifvqb70","pricing_plan_id":"free"},{"bike_id":"d35c3d8b-5cd9-407f-8812-f74b478429d4","system_id":"levelo_inurba_marseille","lat":43.302992,"lon":5.392136,"is_reserved":false,"is_disabled":false,"rental_uris":{"android":"levelo://app?vid=d35c3d8b-5cd9-407f-8812-f74b478429d4","ios":"levelo://app?vid=d35c3d8b-5cd9-407f-8812-f74b478429d4"},"vehicle_type_id":"4","last_reported":1702742872,"current_range_meters":2400,"station_id":"ce4bgkh2rcd13ifvqbk0","pricing_plan_id":"free"},{"bike_id":"07fa97af-d21a-4b87-867c-09a9005a5984","system_id":"levelo_inurba_marseille","lat":43.302992,"lon":5.392136,"is_reserved":false,"is_disabled":false,"rental_uris":{"android":"levelo://app?vid=07fa97af-d21a-4b87-867c-09a9005a5984","ios":"levelo://app?vid=07fa97af-d21a-4b87-867c-09a9005a5984"},"vehicle_type_id":"4","last_reported":1702742872,"current_range_meters":0,"station_id":"ce4bgkh2rcd13ifvqbk0","pricing_plan_id":"free"},{"bike_id":"4e2d7b9f-f038-44c6-ab80-cb47f05e5863","system_id":"levelo_inurba_marseille","lat":43.292311,"lon":5.360731,"is_reserved":false,"is_disabled":false,"rental_uris":{"android":"levelo://app?vid=4e2d7b9f-f038-44c6-ab80-cb47f05e5863","ios":"levelo://app?vid=4e2d7b9f-f038-44c6-ab80-cb47f05e5863"},"vehicle_type_id":"4","last_reported":1702742872,"current_range_meters":0,"station_id":"ce4bhbh2rcd13ifvqeqg","pricing_plan_id":"free"},{"bike_id":"b43efb05-1bde-45f4-870c-1517a6826997","system_id":"levelo_inurba_marseille","lat":43.29878,"lon":5.38913,"is_reserved":false,"is_disabled":false,"rental_uris":{"android":"levelo://app?vid=b43efb05-1bde-45f4-870c-1517a6826997","ios":"levelo://app?vid=b43efb05-1bde-45f4-870c-1517a6826997"},"vehicle_type_id":"4","last_reported":1702742872,"current_range_meters":28000,"station_id":"","pricing_plan_id":"free"},{"bike_id":"e8eb2164-59ee-4ee6-a133-20ddba55278d","system_id":"levelo_inurba_marseille","lat":43.291958,"lon":5.357931,"is_reserved":false,"is_disabled":false,"rental_uris":{"android":"levelo://app?vid=e8eb2164-59ee-4ee6-a133-20ddba55278d","ios":"levelo://app?vid=e8eb2164-59ee-4ee6-a133-20ddba55278d"},"vehicle_type_id":"4","last_reported":1702742872,"current_range_meters":3200,"station_id":"ce4bhb12rcd13ifvqel0","pricing_plan_id":"free"},{"bike_id":"36e12b78-a35f-4c3e-a78f-4980da08565c","system_id":"levelo_inurba_marseille","lat":43.309038,"lon":5.396546,"is_reserved":false,"is_disabled":false,"rental_uris":{"android":"levelo://app?vid=36e12b78-a35f-4c3e-a78f-4980da08565c","ios":"levelo://app?vid=36e12b78-a35f-4c3e-a78f-4980da08565c"},"vehicle_type_id":"4","last_reported":1702742872,"current_range_meters":20000,"station_id":"ce4bh012rcd13ifvqcv0","pricing_plan_id":"free"},{"bike_id":"bcc718ed-3fd2-422c-8411-9e22400aa00a","system_id":"levelo_inurba_marseille","lat":43.290779,"lon":5.371482,"is_reserved":false,"is_disabled":false,"rental_uris":{"android":"levelo://app?vid=bcc718ed-3fd2-422c-8411-9e22400aa00a","ios":"levelo://app?vid=bcc718ed-3fd2-422c-8411-9e22400aa00a"},"vehicle_type_id":"4","last_reported":1702742872,"current_range_meters":16400,"station_id":"ce4bh5p2rcd13ifvqe4g","pricing_plan_id":"free"},{"bike_id":"bd7af164-f1e0-4b14-8fe7-983a17ebc7d9","system_id":"levelo_inurba_marseille","lat":43.302008,"lon":5.394694,"is_reserved":false,"is_disabled":false,"rental_uris":{"android":"levelo://app?vid=bd7af164-f1e0-4b14-8fe7-983a17ebc7d9","ios":"levelo://app?vid=bd7af164-f1e0-4b14-8fe7-983a17ebc7d9"},"vehicle_type_id":"4","last_reported":1702742872,"current_range_meters":18400,"station_id":"ce4bh0p2rcd13ifvqd70","pricing_plan_id":"free"},{"bike_id":"883ccffd-c105-46ca-b2e8-766befd6d0ab","system_id":"levelo_inurba_marseille","lat":43.290624,"lon":5.359245,"is_reserved":false,"is_disabled":false,"rental_uris":{"android":"levelo://app?vid=883ccffd-c105-46ca-b2e8-766befd6d0ab","ios":"levelo://app?vid=883ccffd-c105-46ca-b2e8-766befd6d0ab"},"vehicle_type_id":"4","last_reported":1702742872,"current_range_meters":29600,"station_id":"ce4bha92rcd13ifvqeg0","pricing_plan_id":"free"},{"bike_id":"968c179f-36e2-42b6-9af4-0eef7c789e51","system_id":"levelo_inurba_marseille","lat":43.29042,"lon":5.375567,"is_reserved":false,"is_disabled":false,"rental_uris":{"android":"levelo://app?vid=968c179f-36e2-42b6-9af4-0eef7c789e51","ios":"levelo://app?vid=968c179f-36e2-42b6-9af4-0eef7c789e51"},"vehicle_type_id":"4","last_reported":1702742872,"current_range_meters":23600,"station_id":"ce4bh692rcd13ifvqe90","pricing_plan_id":"free"},{"bike_id":"24df9627-61b5-4fbf-932a-c77fbe40a98d","system_id":"levelo_inurba_marseille","lat":43.290327,"lon":5.375711,"is_reserved":false,"is_disabled":false,"rental_uris":{"android":"levelo://app?vid=24df9627-61b5-4fbf-932a-c77fbe40a98d","ios":"levelo://app?vid=24df9627-61b5-4fbf-932a-c77fbe40a98d"},"vehicle_type_id":"4","last_reported":1702742872,"current_range_meters":6800,"station_id":"ce4bh692rcd13ifvqe90","pricing_plan_id":"free"},{"bike_id":"8fe255aa-9e88-400c-93cb-768dbfc4f145","system_id":"levelo_inurba_marseille","lat":43.289184,"lon":5.366408,"is_reserved":false,"is_disabled":false,"rental_uris":{"android":"levelo://app?vid=8fe255aa-9e88-400c-93cb-768dbfc4f145","ios":"levelo://app?vid=8fe255aa-9e88-400c-93cb-768dbfc4f145"},"vehicle_type_id":"4","last_reported":1702742872,"current_range_meters":28400,"station_id":"ce4bhap2rcd13ifvqek0","pricing_plan_id":"free"},{"bike_id":"6f538d84-8c7f-4965-9d73-02579a6fccb7","system_id":"levelo_inurba_marseille","lat":43.289184,"lon":5.366408,"is_reserved":false,"is_disabled":false,"rental_uris":{"android":"levelo://app?vid=6f538d84-8c7f-4965-9d73-02579a6fccb7","ios":"levelo://app?vid=6f538d84-8c7f-4965-9d73-02579a6fccb7"},"vehicle_type_id":"4","last_reported":1702742872,"current_range_meters":19600,"station_id":"ce4bhap2rcd13ifvqek0","pricing_plan_id":"free"},{"bike_id":"bb43c308-b4a1-4cd9-adc8-ab77b4873e4c","system_id":"levelo_inurba_marseille","lat":43.289408,"lon":5.364038,"is_reserved":false,"is_disabled":false,"rental_uris":{"android":"levelo://app?vid=bb43c308-b4a1-4cd9-adc8-ab77b4873e4c","ios":"levelo://app?vid=bb43c308-b4a1-4cd9-adc8-ab77b4873e4c"},"vehicle_type_id":"4","last_reported":1702742872,"current_range_meters":26400,"station_id":"ce4bhc92rcd13ifvqetg","pricing_plan_id":"free"},{"bike_id":"9642d6d5-2fc5-46c7-a0a1-f55ef363ba75","system_id":"levelo_inurba_marseille","lat":43.289184,"lon":5.366408,"is_reserved":false,"is_disabled":false,"rental_uris":{"android":"levelo://app?vid=9642d6d5-2fc5-46c7-a0a1-f55ef363ba75","ios":"levelo://app?vid=9642d6d5-2fc5-46c7-a0a1-f55ef363ba75"},"vehicle_type_id":"4","last_reported":1702742872,"current_range_meters":3200,"station_id":"ce4bhap2rcd13ifvqek0","pricing_plan_id":"free"},{"bike_id":"6055aefb-7f43-46e7-9919-c6df64dcab02","system_id":"levelo_inurba_marseille","lat":43.292644,"lon":5.384257,"is_reserved":false,"is_disabled":false,"rental_uris":{"android":"levelo://app?vid=6055aefb-7f43-46e7-9919-c6df64dcab02","ios":"levelo://app?vid=6055aefb-7f43-46e7-9919-c6df64dcab02"},"vehicle_type_id":"4","last_reported":1702742872,"current_range_meters":5600,"station_id":"ce4bh692rcd13ifvqea0","pricing_plan_id":"free"},{"bike_id":"73eb7b68-f5ae-4f9c-a0fa-8b09a3d1660a","system_id":"levelo_inurba_marseille","lat":43.2927,"lon":5.3844,"is_reserved":false,"is_disabled":false,"rental_uris":{"android":"levelo://app?vid=73eb7b68-f5ae-4f9c-a0fa-8b09a3d1660a","ios":"levelo://app?vid=73eb7b68-f5ae-4f9c-a0fa-8b09a3d1660a"},"vehicle_type_id":"4","last_reported":1702742872,"current_range_meters":9600,"station_id":"ce4bh692rcd13ifvqea0","pricing_plan_id":"free"},{"bike_id":"e0ab0dfa-58cf-4e20-948b-8cd91f1c8b64","system_id":"levelo_inurba_marseille","lat":43.30433,"lon":5.39746,"is_reserved":false,"is_disabled":false,"rental_uris":{"android":"levelo://app?vid=e0ab0dfa-58cf-4e20-948b-8cd91f1c8b64","ios":"levelo://app?vid=e0ab0dfa-58cf-4e20-948b-8cd91f1c8b64"},"vehicle_type_id":"4","last_reported":1702742872,"current_range_meters":17200,"station_id":"","pricing_plan_id":"free"},{"bike_id":"d3c32059-9b51-4a89-9e1c-f6c9df467816","system_id":"levelo_inurba_marseille","lat":43.292642,"lon":5.384254,"is_reserved":false,"is_disabled":false,"rental_uris":{"android":"levelo://app?vid=d3c32059-9b51-4a89-9e1c-f6c9df467816","ios":"levelo://app?vid=d3c32059-9b51-4a89-9e1c-f6c9df467816"},"vehicle_type_id":"4","last_reported":1702742872,"current_range_meters":16800,"station_id":"ce4bh692rcd13ifvqea0","pricing_plan_id":"free"},{"bike_id":"4b72cb79-73c8-41f5-8101-ba160b575569","system_id":"levelo_inurba_marseille","lat":43.292642,"lon":5.384254,"is_reserved":false,"is_disabled":false,"rental_uris":{"android":"levelo://app?vid=4b72cb79-73c8-41f5-8101-ba160b575569","ios":"levelo://app?vid=4b72cb79-73c8-41f5-8101-ba160b575569"},"vehicle_type_id":"4","last_reported":1702742872,"current_range_meters":1200,"station_id":"ce4bh692rcd13ifvqea0","pricing_plan_id":"free"},{"bike_id":"417e06cd-29f6-47f9-a0f3-be89b192dd4d","system_id":"levelo_inurba_marseille","lat":43.304296,"lon":5.397513,"is_reserved":false,"is_disabled":false,"rental_uris":{"android":"levelo://app?vid=417e06cd-29f6-47f9-a0f3-be89b192dd4d","ios":"levelo://app?vid=417e06cd-29f6-47f9-a0f3-be89b192dd4d"},"vehicle_type_id":"4","last_reported":1702742872,"current_range_meters":14800,"station_id":"ce4bh092rcd13ifvqd20","pricing_plan_id":"free"},{"bike_id":"b7015c97-1e2d-47ea-9fe4-1521fdff8377","system_id":"levelo_inurba_marseille","lat":43.292644,"lon":5.384257,"is_reserved":false,"is_disabled":false,"rental_uris":{"android":"levelo://app?vid=b7015c97-1e2d-47ea-9fe4-1521fdff8377","ios":"levelo://app?vid=b7015c97-1e2d-47ea-9fe4-1521fdff8377"},"vehicle_type_id":"4","last_reported":1702742872,"current_range_meters":0,"station_id":"ce4bh692rcd13ifvqea0","pricing_plan_id":"free"},{"bike_id":"a355e363-192a-4918-9a7f-176268b05bc4","system_id":"levelo_inurba_marseille","lat":43.292644,"lon":5.384257,"is_reserved":false,"is_disabled":false,"rental_uris":{"android":"levelo://app?vid=a355e363-192a-4918-9a7f-176268b05bc4","ios":"levelo://app?vid=a355e363-192a-4918-9a7f-176268b05bc4"},"vehicle_type_id":"4","last_reported":1702742872,"current_range_meters":3200,"station_id":"ce4bh692rcd13ifvqea0","pricing_plan_id":"free"},{"bike_id":"1ced1f3d-f523-4bee-b2e3-a33c24ce02da","system_id":"levelo_inurba_marseille","lat":43.304274,"lon":5.397513,"is_reserved":false,"is_disabled":false,"rental_uris":{"android":"levelo://app?vid=1ced1f3d-f523-4bee-b2e3-a33c24ce02da","ios":"levelo://app?vid=1ced1f3d-f523-4bee-b2e3-a33c24ce02da"},"vehicle_type_id":"4","last_reported":1702742872,"current_range_meters":6000,"station_id":"ce4bh092rcd13ifvqd20","pricing_plan_id":"free"},{"bike_id":"7869065b-ba9c-4e14-a6e0-075a72b86610","system_id":"levelo_inurba_marseille","lat":43.330442,"lon":5.389148,"is_reserved":false,"is_disabled":false,"rental_uris":{"android":"levelo://app?vid=7869065b-ba9c-4e14-a6e0-075a72b86610","ios":"levelo://app?vid=7869065b-ba9c-4e14-a6e0-075a72b86610"},"vehicle_type_id":"4","last_reported":1702742872,"current_range_meters":8000,"station_id":"ce4bhr92rcd13ifvqhrg","pricing_plan_id":"free"},{"bike_id":"fffd6322-316f-4473-9081-f5fab31b5311","system_id":"levelo_inurba_marseille","lat":43.290995,"lon":5.381361,"is_reserved":false,"is_disabled":false,"rental_uris":{"android":"levelo://app?vid=fffd6322-316f-4473-9081-f5fab31b5311","ios":"levelo://app?vid=fffd6322-316f-4473-9081-f5fab31b5311"},"vehicle_type_id":"4","last_reported":1702742872,"current_range_meters":18000,"station_id":"ce4bh512rcd13ifvqe2g","pricing_plan_id":"free"},{"bike_id":"cd507a4f-b063-45a7-9880-0c64ce5bb7ee","system_id":"levelo_inurba_marseille","lat":43.295169,"lon":5.390426,"is_reserved":false,"is_disabled":false,"rental_uris":{"android":"levelo://app?vid=cd507a4f-b063-45a7-9880-0c64ce5bb7ee","ios":"levelo://app?vid=cd507a4f-b063-45a7-9880-0c64ce5bb7ee"},"vehicle_type_id":"4","last_reported":1702742872,"current_range_meters":19600,"station_id":"ce4bh3p2rcd13ifvqdp0","pricing_plan_id":"free"},{"bike_id":"a4b4c5b1-9a32-459f-b487-26eab509d0d5","system_id":"levelo_inurba_marseille","lat":43.295169,"lon":5.390426,"is_reserved":false,"is_disabled":false,"rental_uris":{"android":"levelo://app?vid=a4b4c5b1-9a32-459f-b487-26eab509d0d5","ios":"levelo://app?vid=a4b4c5b1-9a32-459f-b487-26eab509d0d5"},"vehicle_type_id":"4","last_reported":1702742872,"current_range_meters":6000,"station_id":"ce4bh3p2rcd13ifvqdp0","pricing_plan_id":"free"},{"bike_id":"a2cd8a33-282e-4a6b-ad52-7ebfc0ec8f42","system_id":"levelo_inurba_marseille","lat":43.289741,"lon":5.378306,"is_reserved":false,"is_disabled":false,"rental_uris":{"android":"levelo://app?vid=a2cd8a33-282e-4a6b-ad52-7ebfc0ec8f42","ios":"levelo://app?vid=a2cd8a33-282e-4a6b-ad52-7ebfc0ec8f42"},"vehicle_type_id":"4","last_reported":1702742872,"current_range_meters":18800,"station_id":"ce4bh9p2rcd13ifvqed0","pricing_plan_id":"free"},{"bike_id":"2dfa5049-0e1b-4839-b5c3-156910a65dbd","system_id":"levelo_inurba_marseille","lat":43.330857,"lon":5.390308,"is_reserved":false,"is_disabled":false,"rental_uris":{"android":"levelo://app?vid=2dfa5049-0e1b-4839-b5c3-156910a65dbd","ios":"levelo://app?vid=2dfa5049-0e1b-4839-b5c3-156910a65dbd"},"vehicle_type_id":"4","last_reported":1702742872,"current_range_meters":8000,"station_id":"","pricing_plan_id":"free"},{"bike_id":"a9f07576-8e7d-40a5-aba5-10d5be3efacd","system_id":"levelo_inurba_marseille","lat":43.309371,"lon":5.401449,"is_reserved":false,"is_disabled":false,"rental_uris":{"android":"levelo://app?vid=a9f07576-8e7d-40a5-aba5-10d5be3efacd","ios":"levelo://app?vid=a9f07576-8e7d-40a5-aba5-10d5be3efacd"},"vehicle_type_id":"4","last_reported":1702742872,"current_range_meters":800,"station_id":"ce4bgvp2rcd13ifvqct0","pricing_plan_id":"free"},{"bike_id":"f0cd831c-cfb9-44c7-9487-103b6df223ca","system_id":"levelo_inurba_marseille","lat":43.337445,"lon":5.374592,"is_reserved":false,"is_disabled":false,"rental_uris":{"android":"levelo://app?vid=f0cd831c-cfb9-44c7-9487-103b6df223ca","ios":"levelo://app?vid=f0cd831c-cfb9-44c7-9487-103b6df223ca"},"vehicle_type_id":"4","last_reported":1702742872,"current_range_meters":28800,"station_id":"","pricing_plan_id":"free"},{"bike_id":"e825280f-6908-4798-bc42-f92edb257dbb","system_id":"levelo_inurba_marseille","lat":43.312609,"lon":5.401662,"is_reserved":false,"is_disabled":false,"rental_uris":{"android":"levelo://app?vid=e825280f-6908-4798-bc42-f92edb257dbb","ios":"levelo://app?vid=e825280f-6908-4798-bc42-f92edb257dbb"},"vehicle_type_id":"4","last_reported":1702742872,"current_range_meters":0,"station_id":"ce4bh092rcd13ifvqd30","pricing_plan_id":"free"},{"bike_id":"a15a6f31-d26a-498f-aab0-fad2629bd007","system_id":"levelo_inurba_marseille","lat":43.337535,"lon":5.37446,"is_reserved":false,"is_disabled":false,"rental_uris":{"android":"levelo://app?vid=a15a6f31-d26a-498f-aab0-fad2629bd007","ios":"levelo://app?vid=a15a6f31-d26a-498f-aab0-fad2629bd007"},"vehicle_type_id":"4","last_reported":1702742872,"current_range_meters":0,"station_id":"","pricing_plan_id":"free"},{"bike_id":"726aeff9-08c4-4eb2-a1ce-94c000c84921","system_id":"levelo_inurba_marseille","lat":43.30923,"lon":5.40149,"is_reserved":false,"is_disabled":false,"rental_uris":{"android":"levelo://app?vid=726aeff9-08c4-4eb2-a1ce-94c000c84921","ios":"levelo://app?vid=726aeff9-08c4-4eb2-a1ce-94c000c84921"},"vehicle_type_id":"4","last_reported":1702742872,"current_range_meters":20400,"station_id":"ce4bgvp2rcd13ifvqct0","pricing_plan_id":"free"},{"bike_id":"ef80ceab-dc9f-4b6c-8f52-707d5177f481","system_id":"levelo_inurba_marseille","lat":43.33752,"lon":5.37466,"is_reserved":false,"is_disabled":false,"rental_uris":{"android":"levelo://app?vid=ef80ceab-dc9f-4b6c-8f52-707d5177f481","ios":"levelo://app?vid=ef80ceab-dc9f-4b6c-8f52-707d5177f481"},"vehicle_type_id":"4","last_reported":1702742872,"current_range_meters":28400,"station_id":"","pricing_plan_id":"free"},{"bike_id":"0ec0ca4e-c369-419e-8572-4f06b68f3d18","system_id":"levelo_inurba_marseille","lat":43.30923,"lon":5.40153,"is_reserved":false,"is_disabled":false,"rental_uris":{"android":"levelo://app?vid=0ec0ca4e-c369-419e-8572-4f06b68f3d18","ios":"levelo://app?vid=0ec0ca4e-c369-419e-8572-4f06b68f3d18"},"vehicle_type_id":"4","last_reported":1702742872,"current_range_meters":26000,"station_id":"ce4bgvp2rcd13ifvqct0","pricing_plan_id":"free"},{"bike_id":"f76b5299-0f77-4772-a933-02b9c9d158d9","system_id":"levelo_inurba_marseille","lat":43.30918,"lon":5.40155,"is_reserved":false,"is_disabled":false,"rental_uris":{"android":"levelo://app?vid=f76b5299-0f77-4772-a933-02b9c9d158d9","ios":"levelo://app?vid=f76b5299-0f77-4772-a933-02b9c9d158d9"},"vehicle_type_id":"4","last_reported":1702742872,"current_range_meters":26800,"station_id":"ce4bgvp2rcd13ifvqct0","pricing_plan_id":"free"},{"bike_id":"7841362a-8881-410e-aca0-62e8722c9a7f","system_id":"levelo_inurba_marseille","lat":43.30128,"lon":5.3986,"is_reserved":false,"is_disabled":false,"rental_uris":{"android":"levelo://app?vid=7841362a-8881-410e-aca0-62e8722c9a7f","ios":"levelo://app?vid=7841362a-8881-410e-aca0-62e8722c9a7f"},"vehicle_type_id":"4","last_reported":1702742872,"current_range_meters":8400,"station_id":"ce4bh0h2rcd13ifvqd40","pricing_plan_id":"free"},{"bike_id":"dc43d17d-1b92-47e7-84b5-f8bedf9df110","system_id":"levelo_inurba_marseille","lat":43.30124,"lon":5.39872,"is_reserved":false,"is_disabled":false,"rental_uris":{"android":"levelo://app?vid=dc43d17d-1b92-47e7-84b5-f8bedf9df110","ios":"levelo://app?vid=dc43d17d-1b92-47e7-84b5-f8bedf9df110"},"vehicle_type_id":"4","last_reported":1702742872,"current_range_meters":7200,"station_id":"ce4bh0h2rcd13ifvqd40","pricing_plan_id":"free"},{"bike_id":"9de7fe6b-2b83-4447-9f36-8d653e85334f","system_id":"levelo_inurba_marseille","lat":43.286591,"lon":5.363346,"is_reserved":false,"is_disabled":false,"rental_uris":{"android":"levelo://app?vid=9de7fe6b-2b83-4447-9f36-8d653e85334f","ios":"levelo://app?vid=9de7fe6b-2b83-4447-9f36-8d653e85334f"},"vehicle_type_id":"4","last_reported":1702742872,"current_range_meters":4000,"station_id":"ce4bhah2rcd13ifvqej0","pricing_plan_id":"free"},{"bike_id":"81938497-1f0d-4e45-84ff-7afb99b95132","system_id":"levelo_inurba_marseille","lat":43.290345,"lon":5.38646,"is_reserved":false,"is_disabled":false,"rental_uris":{"android":"levelo://app?vid=81938497-1f0d-4e45-84ff-7afb99b95132","ios":"levelo://app?vid=81938497-1f0d-4e45-84ff-7afb99b95132"},"vehicle_type_id":"4","last_reported":1702742872,"current_range_meters":8800,"station_id":"ce4bh4p2rcd13ifvqe0g","pricing_plan_id":"free"},{"bike_id":"46937d05-36c2-495a-9b30-7603f646a5e5","system_id":"levelo_inurba_marseille","lat":43.307534,"lon":5.402758,"is_reserved":false,"is_disabled":false,"rental_uris":{"android":"levelo://app?vid=46937d05-36c2-495a-9b30-7603f646a5e5","ios":"levelo://app?vid=46937d05-36c2-495a-9b30-7603f646a5e5"},"vehicle_type_id":"4","last_reported":1702742872,"current_range_meters":13200,"station_id":"","pricing_plan_id":"free"},{"bike_id":"08359ad4-52ea-4377-bbb9-daa2dd67eb87","system_id":"levelo_inurba_marseille","lat":43.289307,"lon":5.38406,"is_reserved":false,"is_disabled":false,"rental_uris":{"android":"levelo://app?vid=08359ad4-52ea-4377-bbb9-daa2dd67eb87","ios":"levelo://app?vid=08359ad4-52ea-4377-bbb9-daa2dd67eb87"},"vehicle_type_id":"4","last_reported":1702742872,"current_range_meters":16000,"station_id":"ce4bh612rcd13ifvqe6g","pricing_plan_id":"free"},{"bike_id":"8925a346-cac4-4be3-b936-7e9dac96f6bf","system_id":"levelo_inurba_marseille","lat":43.28604,"lon":5.3707,"is_reserved":false,"is_disabled":false,"rental_uris":{"android":"levelo://app?vid=8925a346-cac4-4be3-b936-7e9dac96f6bf","ios":"levelo://app?vid=8925a346-cac4-4be3-b936-7e9dac96f6bf"},"vehicle_type_id":"4","last_reported":1702742872,"current_range_meters":20000,"station_id":"ce4bht12rcd13ifvqi60","pricing_plan_id":"free"},{"bike_id":"5a68fca7-3730-4455-b3e3-a140aa40f1c6","system_id":"levelo_inurba_marseille","lat":43.31683,"lon":5.40474,"is_reserved":false,"is_disabled":false,"rental_uris":{"android":"levelo://app?vid=5a68fca7-3730-4455-b3e3-a140aa40f1c6","ios":"levelo://app?vid=5a68fca7-3730-4455-b3e3-a140aa40f1c6"},"vehicle_type_id":"4","last_reported":1702742872,"current_range_meters":9600,"station_id":"ce4bh012rcd13ifvqd00","pricing_plan_id":"free"},{"bike_id":"a9116d8a-eb54-4e54-a904-0ae4af043378","system_id":"levelo_inurba_marseille","lat":43.284538,"lon":5.358657,"is_reserved":false,"is_disabled":false,"rental_uris":{"android":"levelo://app?vid=a9116d8a-eb54-4e54-a904-0ae4af043378","ios":"levelo://app?vid=a9116d8a-eb54-4e54-a904-0ae4af043378"},"vehicle_type_id":"4","last_reported":1702742872,"current_range_meters":0,"station_id":"ce4bhah2rcd13ifvqei0","pricing_plan_id":"free"},{"bike_id":"4b82e9b3-f17b-4308-8e70-7ce5c9606bae","system_id":"levelo_inurba_marseille","lat":43.29438,"lon":5.39762,"is_reserved":false,"is_disabled":false,"rental_uris":{"android":"levelo://app?vid=4b82e9b3-f17b-4308-8e70-7ce5c9606bae","ios":"levelo://app?vid=4b82e9b3-f17b-4308-8e70-7ce5c9606bae"},"vehicle_type_id":"4","last_reported":1702742872,"current_range_meters":0,"station_id":"ce4bh3h2rcd13ifvqdo0","pricing_plan_id":"free"},{"bike_id":"d5c2519e-edfb-4de7-9b03-235cf0fcf3c0","system_id":"levelo_inurba_marseille","lat":43.2957,"lon":5.39985,"is_reserved":false,"is_disabled":false,"rental_uris":{"android":"levelo://app?vid=d5c2519e-edfb-4de7-9b03-235cf0fcf3c0","ios":"levelo://app?vid=d5c2519e-edfb-4de7-9b03-235cf0fcf3c0"},"vehicle_type_id":"4","last_reported":1702742872,"current_range_meters":10400,"station_id":"ce4bh312rcd13ifvqdj0","pricing_plan_id":"free"},{"bike_id":"7d9ebe82-bbf6-4a0e-af71-bf9c6b833097","system_id":"levelo_inurba_marseille","lat":43.28566,"lon":5.35077,"is_reserved":false,"is_disabled":false,"rental_uris":{"android":"levelo://app?vid=7d9ebe82-bbf6-4a0e-af71-bf9c6b833097","ios":"levelo://app?vid=7d9ebe82-bbf6-4a0e-af71-bf9c6b833097"},"vehicle_type_id":"4","last_reported":1702742872,"current_range_meters":6400,"station_id":"","pricing_plan_id":"free"},{"bike_id":"45f7250e-5db3-4722-aecf-8f488dedeee0","system_id":"levelo_inurba_marseille","lat":43.286595,"lon":5.386795,"is_reserved":false,"is_disabled":false,"rental_uris":{"android":"levelo://app?vid=45f7250e-5db3-4722-aecf-8f488dedeee0","ios":"levelo://app?vid=45f7250e-5db3-4722-aecf-8f488dedeee0"},"vehicle_type_id":"4","last_reported":1702742872,"current_range_meters":0,"station_id":"ce4bh492rcd13ifvqdug","pricing_plan_id":"free"},{"bike_id":"74c5cf30-49f6-42f3-835f-9c531e7566b4","system_id":"levelo_inurba_marseille","lat":43.319179,"lon":5.407725,"is_reserved":false,"is_disabled":false,"rental_uris":{"android":"levelo://app?vid=74c5cf30-49f6-42f3-835f-9c531e7566b4","ios":"levelo://app?vid=74c5cf30-49f6-42f3-835f-9c531e7566b4"},"vehicle_type_id":"4","last_reported":1702742872,"current_range_meters":28400,"station_id":"ce4bhq12rcd13ifvqhig","pricing_plan_id":"free"},{"bike_id":"eca0d983-9da9-46e9-9ca9-8ca06c05ddd8","system_id":"levelo_inurba_marseille","lat":43.32353,"lon":5.40623,"is_reserved":false,"is_disabled":false,"rental_uris":{"android":"levelo://app?vid=eca0d983-9da9-46e9-9ca9-8ca06c05ddd8","ios":"levelo://app?vid=eca0d983-9da9-46e9-9ca9-8ca06c05ddd8"},"vehicle_type_id":"4","last_reported":1702742872,"current_range_meters":12000,"station_id":"ce4bhq92rcd13ifvqhjg","pricing_plan_id":"free"},{"bike_id":"904e5374-c51b-4b1f-b457-27975433a011","system_id":"levelo_inurba_marseille","lat":43.284793,"lon":5.384119,"is_reserved":false,"is_disabled":false,"rental_uris":{"android":"levelo://app?vid=904e5374-c51b-4b1f-b457-27975433a011","ios":"levelo://app?vid=904e5374-c51b-4b1f-b457-27975433a011"},"vehicle_type_id":"4","last_reported":1702742872,"current_range_meters":11200,"station_id":"ce4bh512rcd13ifvqe3g","pricing_plan_id":"free"},{"bike_id":"f93d46f9-ec14-40e4-ae6c-175f792cfc07","system_id":"levelo_inurba_marseille","lat":43.28855,"lon":5.39317,"is_reserved":false,"is_disabled":false,"rental_uris":{"android":"levelo://app?vid=f93d46f9-ec14-40e4-ae6c-175f792cfc07","ios":"levelo://app?vid=f93d46f9-ec14-40e4-ae6c-175f792cfc07"},"vehicle_type_id":"4","last_reported":1702742872,"current_range_meters":0,"station_id":"ce4bh2p2rcd13ifvqdi0","pricing_plan_id":"free"},{"bike_id":"8e355c90-e144-4743-b6be-3ea83712e7e8","system_id":"levelo_inurba_marseille","lat":43.284219,"lon":5.3497,"is_reserved":false,"is_disabled":false,"rental_uris":{"android":"levelo://app?vid=8e355c90-e144-4743-b6be-3ea83712e7e8","ios":"levelo://app?vid=8e355c90-e144-4743-b6be-3ea83712e7e8"},"vehicle_type_id":"4","last_reported":1702742872,"current_range_meters":2800,"station_id":"ce4bhbh2rcd13ifvqepg","pricing_plan_id":"free"},{"bike_id":"c8f323bb-5427-4de0-9ce6-1bf9d21b14b4","system_id":"levelo_inurba_marseille","lat":43.289363,"lon":5.396322,"is_reserved":false,"is_disabled":false,"rental_uris":{"android":"levelo://app?vid=c8f323bb-5427-4de0-9ce6-1bf9d21b14b4","ios":"levelo://app?vid=c8f323bb-5427-4de0-9ce6-1bf9d21b14b4"},"vehicle_type_id":"4","last_reported":1702742872,"current_range_meters":23200,"station_id":"ce4bh3h2rcd13ifvqdn0","pricing_plan_id":"free"},{"bike_id":"3cb6e8a9-892d-468d-a6e5-e3706eace86d","system_id":"levelo_inurba_marseille","lat":43.282754,"lon":5.350519,"is_reserved":false,"is_disabled":false,"rental_uris":{"android":"levelo://app?vid=3cb6e8a9-892d-468d-a6e5-e3706eace86d","ios":"levelo://app?vid=3cb6e8a9-892d-468d-a6e5-e3706eace86d"},"vehicle_type_id":"4","last_reported":1702742872,"current_range_meters":2000,"station_id":"ce4bhbp2rcd13ifvqerg","pricing_plan_id":"free"},{"bike_id":"7adf0000-ea9f-46cb-8a10-d458024b948c","system_id":"levelo_inurba_marseille","lat":43.280382,"lon":5.369291,"is_reserved":false,"is_disabled":false,"rental_uris":{"android":"levelo://app?vid=7adf0000-ea9f-46cb-8a10-d458024b948c","ios":"levelo://app?vid=7adf0000-ea9f-46cb-8a10-d458024b948c"},"vehicle_type_id":"4","last_reported":1702742872,"current_range_meters":14400,"station_id":"ce4bha12rcd13ifvqef0","pricing_plan_id":"free"},{"bike_id":"252ae26e-e5e5-4e18-b43b-bbdccbfe0054","system_id":"levelo_inurba_marseille","lat":43.282744,"lon":5.350533,"is_reserved":false,"is_disabled":false,"rental_uris":{"android":"levelo://app?vid=252ae26e-e5e5-4e18-b43b-bbdccbfe0054","ios":"levelo://app?vid=252ae26e-e5e5-4e18-b43b-bbdccbfe0054"},"vehicle_type_id":"4","last_reported":1702742872,"current_range_meters":0,"station_id":"ce4bhbp2rcd13ifvqerg","pricing_plan_id":"free"},{"bike_id":"0d6c51b3-1f5f-4039-95f2-7bd1c74f6556","system_id":"levelo_inurba_marseille","lat":43.280382,"lon":5.369291,"is_reserved":false,"is_disabled":false,"rental_uris":{"android":"levelo://app?vid=0d6c51b3-1f5f-4039-95f2-7bd1c74f6556","ios":"levelo://app?vid=0d6c51b3-1f5f-4039-95f2-7bd1c74f6556"},"vehicle_type_id":"4","last_reported":1702742872,"current_range_meters":10400,"station_id":"ce4bha12rcd13ifvqef0","pricing_plan_id":"free"},{"bike_id":"634b3e69-2435-41b2-a35b-a3083b6d3d81","system_id":"levelo_inurba_marseille","lat":43.28039,"lon":5.369297,"is_reserved":false,"is_disabled":false,"rental_uris":{"android":"levelo://app?vid=634b3e69-2435-41b2-a35b-a3083b6d3d81","ios":"levelo://app?vid=634b3e69-2435-41b2-a35b-a3083b6d3d81"},"vehicle_type_id":"4","last_reported":1702742872,"current_range_meters":16800,"station_id":"ce4bha12rcd13ifvqef0","pricing_plan_id":"free"},{"bike_id":"6394e82c-6fe6-4a93-82b3-60d2e6387021","system_id":"levelo_inurba_marseille","lat":43.296263,"lon":5.40601,"is_reserved":false,"is_disabled":false,"rental_uris":{"android":"levelo://app?vid=6394e82c-6fe6-4a93-82b3-60d2e6387021","ios":"levelo://app?vid=6394e82c-6fe6-4a93-82b3-60d2e6387021"},"vehicle_type_id":"4","last_reported":1702742872,"current_range_meters":10000,"station_id":"ce4bh0h2rcd13ifvqd60","pricing_plan_id":"free"},{"bike_id":"06df1117-ae7b-44a4-9259-748f2be67f15","system_id":"levelo_inurba_marseille","lat":43.28573,"lon":5.394992,"is_reserved":false,"is_disabled":false,"rental_uris":{"android":"levelo://app?vid=06df1117-ae7b-44a4-9259-748f2be67f15","ios":"levelo://app?vid=06df1117-ae7b-44a4-9259-748f2be67f15"},"vehicle_type_id":"4","last_reported":1702742872,"current_range_meters":19200,"station_id":"ce4bh292rcd13ifvqdg0","pricing_plan_id":"free"},{"bike_id":"181f1520-161c-4174-a2af-dfc40357b09b","system_id":"levelo_inurba_marseille","lat":43.326605,"lon":5.409903,"is_reserved":false,"is_disabled":false,"rental_uris":{"android":"levelo://app?vid=181f1520-161c-4174-a2af-dfc40357b09b","ios":"levelo://app?vid=181f1520-161c-4174-a2af-dfc40357b09b"},"vehicle_type_id":"4","last_reported":1702742872,"current_range_meters":4800,"station_id":"ce4bhpp2rcd13ifvqhgg","pricing_plan_id":"free"},{"bike_id":"4b4681e8-5ae5-40ac-b6b6-d29c248b4938","system_id":"levelo_inurba_marseille","lat":43.30421,"lon":5.41288,"is_reserved":false,"is_disabled":false,"rental_uris":{"android":"levelo://app?vid=4b4681e8-5ae5-40ac-b6b6-d29c248b4938","ios":"levelo://app?vid=4b4681e8-5ae5-40ac-b6b6-d29c248b4938"},"vehicle_type_id":"4","last_reported":1702742872,"current_range_meters":31200,"station_id":"ce4bhop2rcd13ifvqh8g","pricing_plan_id":"free"},{"bike_id":"d7165970-d21f-4a5a-8753-47daa742087e","system_id":"levelo_inurba_marseille","lat":43.279087,"lon":5.380114,"is_reserved":false,"is_disabled":false,"rental_uris":{"android":"levelo://app?vid=d7165970-d21f-4a5a-8753-47daa742087e","ios":"levelo://app?vid=d7165970-d21f-4a5a-8753-47daa742087e"},"vehicle_type_id":"4","last_reported":1702742872,"current_range_meters":27600,"station_id":"ce4bhf92rcd13ifvqf50","pricing_plan_id":"free"},{"bike_id":"ff37b15d-8556-415a-8272-970e6f0cff81","system_id":"levelo_inurba_marseille","lat":43.279087,"lon":5.380114,"is_reserved":false,"is_disabled":false,"rental_uris":{"android":"levelo://app?vid=ff37b15d-8556-415a-8272-970e6f0cff81","ios":"levelo://app?vid=ff37b15d-8556-415a-8272-970e6f0cff81"},"vehicle_type_id":"4","last_reported":1702742872,"current_range_meters":23600,"station_id":"ce4bhf92rcd13ifvqf50","pricing_plan_id":"free"},{"bike_id":"fa1bd6fa-e8d5-490c-ab43-247eeca63426","system_id":"levelo_inurba_marseille","lat":43.287154,"lon":5.399979,"is_reserved":false,"is_disabled":false,"rental_uris":{"android":"levelo://app?vid=fa1bd6fa-e8d5-490c-ab43-247eeca63426","ios":"levelo://app?vid=fa1bd6fa-e8d5-490c-ab43-247eeca63426"},"vehicle_type_id":"4","last_reported":1702742872,"current_range_meters":17600,"station_id":"ce4bho92rcd13ifvqh3g","pricing_plan_id":"free"},{"bike_id":"b20b997c-e71c-4908-ab85-2e82e1ac7d9c","system_id":"levelo_inurba_marseille","lat":43.299579,"lon":5.413255,"is_reserved":false,"is_disabled":false,"rental_uris":{"android":"levelo://app?vid=b20b997c-e71c-4908-ab85-2e82e1ac7d9c","ios":"levelo://app?vid=b20b997c-e71c-4908-ab85-2e82e1ac7d9c"},"vehicle_type_id":"4","last_reported":1702742872,"current_range_meters":19200,"station_id":"ce4bhp12rcd13ifvqh9g","pricing_plan_id":"free"},{"bike_id":"42282aeb-56a0-40af-888e-44c200a3b64d","system_id":"levelo_inurba_marseille","lat":43.279742,"lon":5.38744,"is_reserved":false,"is_disabled":false,"rental_uris":{"android":"levelo://app?vid=42282aeb-56a0-40af-888e-44c200a3b64d","ios":"levelo://app?vid=42282aeb-56a0-40af-888e-44c200a3b64d"},"vehicle_type_id":"4","last_reported":1702742872,"current_range_meters":14800,"station_id":"ce4bhg12rcd13ifvqf80","pricing_plan_id":"free"},{"bike_id":"b959a030-c61a-4323-aada-ac6de11bf7f3","system_id":"levelo_inurba_marseille","lat":43.280784,"lon":5.396622,"is_reserved":false,"is_disabled":false,"rental_uris":{"android":"levelo://app?vid=b959a030-c61a-4323-aada-ac6de11bf7f3","ios":"levelo://app?vid=b959a030-c61a-4323-aada-ac6de11bf7f3"},"vehicle_type_id":"4","last_reported":1702742872,"current_range_meters":12000,"station_id":"ce4bho12rcd13ifvqh2g","pricing_plan_id":"free"},{"bike_id":"4c794363-f2ec-4478-bb04-574eac18fde2","system_id":"levelo_inurba_marseille","lat":43.278401,"lon":5.392152,"is_reserved":false,"is_disabled":false,"rental_uris":{"android":"levelo://app?vid=4c794363-f2ec-4478-bb04-574eac18fde2","ios":"levelo://app?vid=4c794363-f2ec-4478-bb04-574eac18fde2"},"vehicle_type_id":"4","last_reported":1702742872,"current_range_meters":18400,"station_id":"ce4bhjp2rcd13ifvqga0","pricing_plan_id":"free"},{"bike_id":"462fb428-40b3-4580-b7bf-003bd1f563d0","system_id":"levelo_inurba_marseille","lat":43.273613,"lon":5.362705,"is_reserved":false,"is_disabled":false,"rental_uris":{"android":"levelo://app?vid=462fb428-40b3-4580-b7bf-003bd1f563d0","ios":"levelo://app?vid=462fb428-40b3-4580-b7bf-003bd1f563d0"},"vehicle_type_id":"4","last_reported":1702742872,"current_range_meters":30400,"station_id":"ce4bhbh2rcd13ifvqeo0","pricing_plan_id":"free"},{"bike_id":"b23173a5-9918-4c10-b92b-d155857f9d95","system_id":"levelo_inurba_marseille","lat":43.273774,"lon":5.362496,"is_reserved":false,"is_disabled":false,"rental_uris":{"android":"levelo://app?vid=b23173a5-9918-4c10-b92b-d155857f9d95","ios":"levelo://app?vid=b23173a5-9918-4c10-b92b-d155857f9d95"},"vehicle_type_id":"4","last_reported":1702742872,"current_range_meters":27600,"station_id":"ce4bhbh2rcd13ifvqeo0","pricing_plan_id":"free"},{"bike_id":"432334b8-c957-41a4-b831-3064576c75dc","system_id":"levelo_inurba_marseille","lat":43.27376,"lon":5.3625,"is_reserved":false,"is_disabled":false,"rental_uris":{"android":"levelo://app?vid=432334b8-c957-41a4-b831-3064576c75dc","ios":"levelo://app?vid=432334b8-c957-41a4-b831-3064576c75dc"},"vehicle_type_id":"4","last_reported":1702742872,"current_range_meters":5200,"station_id":"ce4bhbh2rcd13ifvqeo0","pricing_plan_id":"free"},{"bike_id":"a16003f8-6ee5-400e-b9cc-95a819cc5e64","system_id":"levelo_inurba_marseille","lat":43.27375,"lon":5.36251,"is_reserved":false,"is_disabled":false,"rental_uris":{"android":"levelo://app?vid=a16003f8-6ee5-400e-b9cc-95a819cc5e64","ios":"levelo://app?vid=a16003f8-6ee5-400e-b9cc-95a819cc5e64"},"vehicle_type_id":"4","last_reported":1702742872,"current_range_meters":27600,"station_id":"ce4bhbh2rcd13ifvqeo0","pricing_plan_id":"free"},{"bike_id":"7f2c5036-bbca-45ec-975a-7e0fbea4945c","system_id":"levelo_inurba_marseille","lat":43.273609,"lon":5.362708,"is_reserved":false,"is_disabled":false,"rental_uris":{"android":"levelo://app?vid=7f2c5036-bbca-45ec-975a-7e0fbea4945c","ios":"levelo://app?vid=7f2c5036-bbca-45ec-975a-7e0fbea4945c"},"vehicle_type_id":"4","last_reported":1702742872,"current_range_meters":16000,"station_id":"ce4bhbh2rcd13ifvqeo0","pricing_plan_id":"free"},{"bike_id":"5ebbafd3-4425-4b56-91c5-ba048b8c65b7","system_id":"levelo_inurba_marseille","lat":43.273609,"lon":5.362708,"is_reserved":false,"is_disabled":false,"rental_uris":{"android":"levelo://app?vid=5ebbafd3-4425-4b56-91c5-ba048b8c65b7","ios":"levelo://app?vid=5ebbafd3-4425-4b56-91c5-ba048b8c65b7"},"vehicle_type_id":"4","last_reported":1702742872,"current_range_meters":29600,"station_id":"ce4bhbh2rcd13ifvqeo0","pricing_plan_id":"free"},{"bike_id":"c37fffe7-a221-4f99-b28b-eb170dc30509","system_id":"levelo_inurba_marseille","lat":43.275625,"lon":5.384392,"is_reserved":false,"is_disabled":false,"rental_uris":{"android":"levelo://app?vid=c37fffe7-a221-4f99-b28b-eb170dc30509","ios":"levelo://app?vid=c37fffe7-a221-4f99-b28b-eb170dc30509"},"vehicle_type_id":"4","last_reported":1702742872,"current_range_meters":21200,"station_id":"ce4bhh92rcd13ifvqfi0","pricing_plan_id":"free"},{"bike_id":"d42e8555-6019-4631-9aaf-667d76b0507f","system_id":"levelo_inurba_marseille","lat":43.273609,"lon":5.362708,"is_reserved":false,"is_disabled":false,"rental_uris":{"android":"levelo://app?vid=d42e8555-6019-4631-9aaf-667d76b0507f","ios":"levelo://app?vid=d42e8555-6019-4631-9aaf-667d76b0507f"},"vehicle_type_id":"4","last_reported":1702742872,"current_range_meters":17200,"station_id":"ce4bhbh2rcd13ifvqeo0","pricing_plan_id":"free"},{"bike_id":"a29e20d4-18d0-4f9c-a13d-90cc9f50c878","system_id":"levelo_inurba_marseille","lat":43.273609,"lon":5.362708,"is_reserved":false,"is_disabled":false,"rental_uris":{"android":"levelo://app?vid=a29e20d4-18d0-4f9c-a13d-90cc9f50c878","ios":"levelo://app?vid=a29e20d4-18d0-4f9c-a13d-90cc9f50c878"},"vehicle_type_id":"4","last_reported":1702742872,"current_range_meters":27200,"station_id":"ce4bhbh2rcd13ifvqeo0","pricing_plan_id":"free"},{"bike_id":"7587518e-9cc8-4773-97c4-01985805bd19","system_id":"levelo_inurba_marseille","lat":43.336134,"lon":5.410341,"is_reserved":false,"is_disabled":false,"rental_uris":{"android":"levelo://app?vid=7587518e-9cc8-4773-97c4-01985805bd19","ios":"levelo://app?vid=7587518e-9cc8-4773-97c4-01985805bd19"},"vehicle_type_id":"4","last_reported":1702742872,"current_range_meters":24800,"station_id":"ce4bhqh2rcd13ifvqhmg","pricing_plan_id":"free"},{"bike_id":"ea3d35f6-b07e-4308-ae51-5376e9d8e7cc","system_id":"levelo_inurba_marseille","lat":43.27352,"lon":5.36455,"is_reserved":false,"is_disabled":false,"rental_uris":{"android":"levelo://app?vid=ea3d35f6-b07e-4308-ae51-5376e9d8e7cc","ios":"levelo://app?vid=ea3d35f6-b07e-4308-ae51-5376e9d8e7cc"},"vehicle_type_id":"4","last_reported":1702742872,"current_range_meters":16000,"station_id":"","pricing_plan_id":"free"},{"bike_id":"e7f3199b-16c7-4ec8-844a-fb3b2f233e43","system_id":"levelo_inurba_marseille","lat":43.317121,"lon":5.423936,"is_reserved":false,"is_disabled":false,"rental_uris":{"android":"levelo://app?vid=e7f3199b-16c7-4ec8-844a-fb3b2f233e43","ios":"levelo://app?vid=e7f3199b-16c7-4ec8-844a-fb3b2f233e43"},"vehicle_type_id":"4","last_reported":1702742872,"current_range_meters":31200,"station_id":"ce4bhp92rcd13ifvqhbg","pricing_plan_id":"free"},{"bike_id":"d5776951-a88b-40da-9925-a49c0668d0c0","system_id":"levelo_inurba_marseille","lat":43.310785,"lon":5.424305,"is_reserved":false,"is_disabled":false,"rental_uris":{"android":"levelo://app?vid=d5776951-a88b-40da-9925-a49c0668d0c0","ios":"levelo://app?vid=d5776951-a88b-40da-9925-a49c0668d0c0"},"vehicle_type_id":"4","last_reported":1702742872,"current_range_meters":8400,"station_id":"ce4bhp92rcd13ifvqhag","pricing_plan_id":"free"},{"bike_id":"13b63d08-aaa3-4985-bf57-1f32727c58d1","system_id":"levelo_inurba_marseille","lat":43.310785,"lon":5.424305,"is_reserved":false,"is_disabled":false,"rental_uris":{"android":"levelo://app?vid=13b63d08-aaa3-4985-bf57-1f32727c58d1","ios":"levelo://app?vid=13b63d08-aaa3-4985-bf57-1f32727c58d1"},"vehicle_type_id":"4","last_reported":1702742872,"current_range_meters":30800,"station_id":"ce4bhp92rcd13ifvqhag","pricing_plan_id":"free"},{"bike_id":"93a9a0b0-f09a-4679-973e-f3ebca0caf36","system_id":"levelo_inurba_marseille","lat":43.310785,"lon":5.424305,"is_reserved":false,"is_disabled":false,"rental_uris":{"android":"levelo://app?vid=93a9a0b0-f09a-4679-973e-f3ebca0caf36","ios":"levelo://app?vid=93a9a0b0-f09a-4679-973e-f3ebca0caf36"},"vehicle_type_id":"4","last_reported":1702742872,"current_range_meters":31600,"station_id":"ce4bhp92rcd13ifvqhag","pricing_plan_id":"free"},{"bike_id":"82465d3b-247b-4c26-89a8-ceee402e70c7","system_id":"levelo_inurba_marseille","lat":43.310785,"lon":5.424305,"is_reserved":false,"is_disabled":false,"rental_uris":{"android":"levelo://app?vid=82465d3b-247b-4c26-89a8-ceee402e70c7","ios":"levelo://app?vid=82465d3b-247b-4c26-89a8-ceee402e70c7"},"vehicle_type_id":"4","last_reported":1702742872,"current_range_meters":6000,"station_id":"ce4bhp92rcd13ifvqhag","pricing_plan_id":"free"},{"bike_id":"537d4ba1-d686-41ad-b23a-d66071d8f96a","system_id":"levelo_inurba_marseille","lat":43.310785,"lon":5.424305,"is_reserved":false,"is_disabled":false,"rental_uris":{"android":"levelo://app?vid=537d4ba1-d686-41ad-b23a-d66071d8f96a","ios":"levelo://app?vid=537d4ba1-d686-41ad-b23a-d66071d8f96a"},"vehicle_type_id":"4","last_reported":1702742872,"current_range_meters":31600,"station_id":"ce4bhp92rcd13ifvqhag","pricing_plan_id":"free"},{"bike_id":"10eadedf-b2e9-4bb9-a1f0-77df69175439","system_id":"levelo_inurba_marseille","lat":43.28386,"lon":5.40852,"is_reserved":false,"is_disabled":false,"rental_uris":{"android":"levelo://app?vid=10eadedf-b2e9-4bb9-a1f0-77df69175439","ios":"levelo://app?vid=10eadedf-b2e9-4bb9-a1f0-77df69175439"},"vehicle_type_id":"4","last_reported":1702742872,"current_range_meters":12000,"station_id":"","pricing_plan_id":"free"},{"bike_id":"87cc8c4f-8ecf-420c-bac2-ed05f14f8c04","system_id":"levelo_inurba_marseille","lat":43.2761,"lon":5.39493,"is_reserved":false,"is_disabled":false,"rental_uris":{"android":"levelo://app?vid=87cc8c4f-8ecf-420c-bac2-ed05f14f8c04","ios":"levelo://app?vid=87cc8c4f-8ecf-420c-bac2-ed05f14f8c04"},"vehicle_type_id":"4","last_reported":1702742872,"current_range_meters":16000,"station_id":"","pricing_plan_id":"free"},{"bike_id":"3ca2c2d2-99b0-4aa6-a05d-e30f02e6a7fb","system_id":"levelo_inurba_marseille","lat":43.276092,"lon":5.395289,"is_reserved":false,"is_disabled":false,"rental_uris":{"android":"levelo://app?vid=3ca2c2d2-99b0-4aa6-a05d-e30f02e6a7fb","ios":"levelo://app?vid=3ca2c2d2-99b0-4aa6-a05d-e30f02e6a7fb"},"vehicle_type_id":"4","last_reported":1702742872,"current_range_meters":22000,"station_id":"","pricing_plan_id":"free"},{"bike_id":"19541092-7362-4be4-8908-5d83863a4be3","system_id":"levelo_inurba_marseille","lat":43.295511,"lon":5.422926,"is_reserved":false,"is_disabled":false,"rental_uris":{"android":"levelo://app?vid=19541092-7362-4be4-8908-5d83863a4be3","ios":"levelo://app?vid=19541092-7362-4be4-8908-5d83863a4be3"},"vehicle_type_id":"4","last_reported":1702742872,"current_range_meters":28000,"station_id":"ce4bhph2rcd13ifvqhdg","pricing_plan_id":"free"},{"bike_id":"5110e4b3-d09d-42e1-9825-c04502f09554","system_id":"levelo_inurba_marseille","lat":43.295511,"lon":5.422926,"is_reserved":false,"is_disabled":false,"rental_uris":{"android":"levelo://app?vid=5110e4b3-d09d-42e1-9825-c04502f09554","ios":"levelo://app?vid=5110e4b3-d09d-42e1-9825-c04502f09554"},"vehicle_type_id":"4","last_reported":1702742872,"current_range_meters":23600,"station_id":"ce4bhph2rcd13ifvqhdg","pricing_plan_id":"free"},{"bike_id":"7c5e5a9a-9f39-4a14-9573-d5b8ab599dd5","system_id":"levelo_inurba_marseille","lat":43.27191,"lon":5.39229,"is_reserved":false,"is_disabled":false,"rental_uris":{"android":"levelo://app?vid=7c5e5a9a-9f39-4a14-9573-d5b8ab599dd5","ios":"levelo://app?vid=7c5e5a9a-9f39-4a14-9573-d5b8ab599dd5"},"vehicle_type_id":"4","last_reported":1702742872,"current_range_meters":18400,"station_id":"ce4bhhp2rcd13ifvqfm0","pricing_plan_id":"free"},{"bike_id":"72ef019a-7364-4e50-9ca7-24a91c82c412","system_id":"levelo_inurba_marseille","lat":43.278128,"lon":5.407195,"is_reserved":false,"is_disabled":false,"rental_uris":{"android":"levelo://app?vid=72ef019a-7364-4e50-9ca7-24a91c82c412","ios":"levelo://app?vid=72ef019a-7364-4e50-9ca7-24a91c82c412"},"vehicle_type_id":"4","last_reported":1702742872,"current_range_meters":27600,"station_id":"ce4bhnh2rcd13ifvqgtg","pricing_plan_id":"free"},{"bike_id":"2035f977-70fd-41d1-9768-2cf3c33ac9f8","system_id":"levelo_inurba_marseille","lat":43.272118,"lon":5.391758,"is_reserved":false,"is_disabled":false,"rental_uris":{"android":"levelo://app?vid=2035f977-70fd-41d1-9768-2cf3c33ac9f8","ios":"levelo://app?vid=2035f977-70fd-41d1-9768-2cf3c33ac9f8"},"vehicle_type_id":"4","last_reported":1702742872,"current_range_meters":12000,"station_id":"ce4bhhp2rcd13ifvqfm0","pricing_plan_id":"free"},{"bike_id":"db774753-4382-453e-a138-c32d538f9839","system_id":"levelo_inurba_marseille","lat":43.35867,"lon":5.35674,"is_reserved":false,"is_disabled":false,"rental_uris":{"android":"levelo://app?vid=db774753-4382-453e-a138-c32d538f9839","ios":"levelo://app?vid=db774753-4382-453e-a138-c32d538f9839"},"vehicle_type_id":"4","last_reported":1702742872,"current_range_meters":9600,"station_id":"","pricing_plan_id":"free"},{"bike_id":"bf0641b1-f9bc-49a9-aa45-d344a6991d52","system_id":"levelo_inurba_marseille","lat":43.265714,"lon":5.372891,"is_reserved":false,"is_disabled":false,"rental_uris":{"android":"levelo://app?vid=bf0641b1-f9bc-49a9-aa45-d344a6991d52","ios":"levelo://app?vid=bf0641b1-f9bc-49a9-aa45-d344a6991d52"},"vehicle_type_id":"4","last_reported":1702742872,"current_range_meters":1600,"station_id":"ce4bhg12rcd13ifvqf70","pricing_plan_id":"free"},{"bike_id":"503fb117-51de-436a-a57b-ac1821627426","system_id":"levelo_inurba_marseille","lat":43.267966,"lon":5.393976,"is_reserved":false,"is_disabled":false,"rental_uris":{"android":"levelo://app?vid=503fb117-51de-436a-a57b-ac1821627426","ios":"levelo://app?vid=503fb117-51de-436a-a57b-ac1821627426"},"vehicle_type_id":"4","last_reported":1702742872,"current_range_meters":19600,"station_id":"ce4bhh12rcd13ifvqfg0","pricing_plan_id":"free"},{"bike_id":"7b3acfec-7269-4a55-abfa-7819202d73ef","system_id":"levelo_inurba_marseille","lat":43.308051,"lon":5.43527,"is_reserved":false,"is_disabled":false,"rental_uris":{"android":"levelo://app?vid=7b3acfec-7269-4a55-abfa-7819202d73ef","ios":"levelo://app?vid=7b3acfec-7269-4a55-abfa-7819202d73ef"},"vehicle_type_id":"4","last_reported":1702742872,"current_range_meters":28000,"station_id":"ce4bhph2rcd13ifvqheg","pricing_plan_id":"free"},{"bike_id":"63a5be26-ca79-42ce-b963-ff2f251917d4","system_id":"levelo_inurba_marseille","lat":43.26563,"lon":5.39012,"is_reserved":false,"is_disabled":false,"rental_uris":{"android":"levelo://app?vid=63a5be26-ca79-42ce-b963-ff2f251917d4","ios":"levelo://app?vid=63a5be26-ca79-42ce-b963-ff2f251917d4"},"vehicle_type_id":"4","last_reported":1702742872,"current_range_meters":0,"station_id":"ce4bhe12rcd13ifvqf30","pricing_plan_id":"free"},{"bike_id":"9a565409-9e4d-4447-8a35-ed26f5edc19c","system_id":"levelo_inurba_marseille","lat":43.26202,"lon":5.379299,"is_reserved":false,"is_disabled":false,"rental_uris":{"android":"levelo://app?vid=9a565409-9e4d-4447-8a35-ed26f5edc19c","ios":"levelo://app?vid=9a565409-9e4d-4447-8a35-ed26f5edc19c"},"vehicle_type_id":"4","last_reported":1702742872,"current_range_meters":31200,"station_id":"ce4bhjp2rcd13ifvqg90","pricing_plan_id":"free"},{"bike_id":"a7430006-b231-45eb-bbe9-f0444a1226f8","system_id":"levelo_inurba_marseille","lat":43.26202,"lon":5.379299,"is_reserved":false,"is_disabled":false,"rental_uris":{"android":"levelo://app?vid=a7430006-b231-45eb-bbe9-f0444a1226f8","ios":"levelo://app?vid=a7430006-b231-45eb-bbe9-f0444a1226f8"},"vehicle_type_id":"4","last_reported":1702742872,"current_range_meters":25200,"station_id":"ce4bhjp2rcd13ifvqg90","pricing_plan_id":"free"},{"bike_id":"da261a51-b875-49ca-a1f2-c891859e9a5d","system_id":"levelo_inurba_marseille","lat":43.26202,"lon":5.379299,"is_reserved":false,"is_disabled":false,"rental_uris":{"android":"levelo://app?vid=da261a51-b875-49ca-a1f2-c891859e9a5d","ios":"levelo://app?vid=da261a51-b875-49ca-a1f2-c891859e9a5d"},"vehicle_type_id":"4","last_reported":1702742872,"current_range_meters":16400,"station_id":"ce4bhjp2rcd13ifvqg90","pricing_plan_id":"free"},{"bike_id":"13d8f21a-915d-4b44-a5d4-e05dbec66ced","system_id":"levelo_inurba_marseille","lat":43.26499,"lon":5.39549,"is_reserved":false,"is_disabled":false,"rental_uris":{"android":"levelo://app?vid=13d8f21a-915d-4b44-a5d4-e05dbec66ced","ios":"levelo://app?vid=13d8f21a-915d-4b44-a5d4-e05dbec66ced"},"vehicle_type_id":"4","last_reported":1702742872,"current_range_meters":15600,"station_id":"","pricing_plan_id":"free"},{"bike_id":"ef1ed4df-a6af-43d7-83ad-c599364fa346","system_id":"levelo_inurba_marseille","lat":43.26491,"lon":5.39543,"is_reserved":false,"is_disabled":false,"rental_uris":{"android":"levelo://app?vid=ef1ed4df-a6af-43d7-83ad-c599364fa346","ios":"levelo://app?vid=ef1ed4df-a6af-43d7-83ad-c599364fa346"},"vehicle_type_id":"4","last_reported":1702742872,"current_range_meters":26400,"station_id":"","pricing_plan_id":"free"},{"bike_id":"9d93988b-8bdf-4759-a4d5-0d0e5c5a8307","system_id":"levelo_inurba_marseille","lat":43.260219,"lon":5.37546,"is_reserved":false,"is_disabled":false,"rental_uris":{"android":"levelo://app?vid=9d93988b-8bdf-4759-a4d5-0d0e5c5a8307","ios":"levelo://app?vid=9d93988b-8bdf-4759-a4d5-0d0e5c5a8307"},"vehicle_type_id":"4","last_reported":1702742872,"current_range_meters":27200,"station_id":"ce4bhgh2rcd13ifvqfa0","pricing_plan_id":"free"},{"bike_id":"c6a7f794-866d-4923-aae0-434b6385b15e","system_id":"levelo_inurba_marseille","lat":43.281548,"lon":5.42643,"is_reserved":false,"is_disabled":false,"rental_uris":{"android":"levelo://app?vid=c6a7f794-866d-4923-aae0-434b6385b15e","ios":"levelo://app?vid=c6a7f794-866d-4923-aae0-434b6385b15e"},"vehicle_type_id":"4","last_reported":1702742872,"current_range_meters":8400,"station_id":"ce4bhnh2rcd13ifvqgug","pricing_plan_id":"free"},{"bike_id":"4e9ad1d1-4225-4a0d-a43a-d6caf5ccd1b4","system_id":"levelo_inurba_marseille","lat":43.2607,"lon":5.393983,"is_reserved":false,"is_disabled":false,"rental_uris":{"android":"levelo://app?vid=4e9ad1d1-4225-4a0d-a43a-d6caf5ccd1b4","ios":"levelo://app?vid=4e9ad1d1-4225-4a0d-a43a-d6caf5ccd1b4"},"vehicle_type_id":"4","last_reported":1702742872,"current_range_meters":22400,"station_id":"ce4bhh92rcd13ifvqfj0","pricing_plan_id":"free"},{"bike_id":"fd6b11de-343f-4a7a-a03d-88739cace253","system_id":"levelo_inurba_marseille","lat":43.275028,"lon":5.424534,"is_reserved":false,"is_disabled":false,"rental_uris":{"android":"levelo://app?vid=fd6b11de-343f-4a7a-a03d-88739cace253","ios":"levelo://app?vid=fd6b11de-343f-4a7a-a03d-88739cace253"},"vehicle_type_id":"4","last_reported":1702742872,"current_range_meters":22000,"station_id":"ce4bhn92rcd13ifvqgrg","pricing_plan_id":"free"},{"bike_id":"7b0436b3-ff96-4c5c-8bad-aa3b2a2477cd","system_id":"levelo_inurba_marseille","lat":43.275028,"lon":5.424534,"is_reserved":false,"is_disabled":false,"rental_uris":{"android":"levelo://app?vid=7b0436b3-ff96-4c5c-8bad-aa3b2a2477cd","ios":"levelo://app?vid=7b0436b3-ff96-4c5c-8bad-aa3b2a2477cd"},"vehicle_type_id":"4","last_reported":1702742872,"current_range_meters":31600,"station_id":"ce4bhn92rcd13ifvqgrg","pricing_plan_id":"free"},{"bike_id":"eadd3c4d-f16c-4035-8e55-227066638d63","system_id":"levelo_inurba_marseille","lat":43.258224,"lon":5.394369,"is_reserved":false,"is_disabled":false,"rental_uris":{"android":"levelo://app?vid=eadd3c4d-f16c-4035-8e55-227066638d63","ios":"levelo://app?vid=eadd3c4d-f16c-4035-8e55-227066638d63"},"vehicle_type_id":"4","last_reported":1702742872,"current_range_meters":26000,"station_id":"ce4bhip2rcd13ifvqft0","pricing_plan_id":"free"},{"bike_id":"370447df-b209-41ad-8c43-574dc9a47e54","system_id":"levelo_inurba_marseille","lat":43.25503,"lon":5.37651,"is_reserved":false,"is_disabled":false,"rental_uris":{"android":"levelo://app?vid=370447df-b209-41ad-8c43-574dc9a47e54","ios":"levelo://app?vid=370447df-b209-41ad-8c43-574dc9a47e54"},"vehicle_type_id":"4","last_reported":1702742872,"current_range_meters":2000,"station_id":"ce4bhh12rcd13ifvqff0","pricing_plan_id":"free"},{"bike_id":"e6cdc3ab-fc1f-46da-b251-bab347a95ba6","system_id":"levelo_inurba_marseille","lat":43.25501,"lon":5.37651,"is_reserved":false,"is_disabled":false,"rental_uris":{"android":"levelo://app?vid=e6cdc3ab-fc1f-46da-b251-bab347a95ba6","ios":"levelo://app?vid=e6cdc3ab-fc1f-46da-b251-bab347a95ba6"},"vehicle_type_id":"4","last_reported":1702742872,"current_range_meters":11200,"station_id":"ce4bhh12rcd13ifvqff0","pricing_plan_id":"free"},{"bike_id":"c02b28e1-29a8-4197-a770-b8d442c01a25","system_id":"levelo_inurba_marseille","lat":43.25499,"lon":5.3765,"is_reserved":false,"is_disabled":false,"rental_uris":{"android":"levelo://app?vid=c02b28e1-29a8-4197-a770-b8d442c01a25","ios":"levelo://app?vid=c02b28e1-29a8-4197-a770-b8d442c01a25"},"vehicle_type_id":"4","last_reported":1702742872,"current_range_meters":14800,"station_id":"ce4bhh12rcd13ifvqff0","pricing_plan_id":"free"},{"bike_id":"e4f667ae-afe9-411c-8b51-aa4ece9e3e22","system_id":"levelo_inurba_marseille","lat":43.254947,"lon":5.376454,"is_reserved":false,"is_disabled":false,"rental_uris":{"android":"levelo://app?vid=e4f667ae-afe9-411c-8b51-aa4ece9e3e22","ios":"levelo://app?vid=e4f667ae-afe9-411c-8b51-aa4ece9e3e22"},"vehicle_type_id":"4","last_reported":1702742872,"current_range_meters":17600,"station_id":"ce4bhh12rcd13ifvqff0","pricing_plan_id":"free"},{"bike_id":"093f9a2d-44cd-4c5c-9b01-d801e514e832","system_id":"levelo_inurba_marseille","lat":43.254947,"lon":5.376454,"is_reserved":false,"is_disabled":false,"rental_uris":{"android":"levelo://app?vid=093f9a2d-44cd-4c5c-9b01-d801e514e832","ios":"levelo://app?vid=093f9a2d-44cd-4c5c-9b01-d801e514e832"},"vehicle_type_id":"4","last_reported":1702742872,"current_range_meters":28400,"station_id":"ce4bhh12rcd13ifvqff0","pricing_plan_id":"free"},{"bike_id":"68e7d4f2-afdf-4f29-901c-35913c5aae20","system_id":"levelo_inurba_marseille","lat":43.27073,"lon":5.42277,"is_reserved":false,"is_disabled":false,"rental_uris":{"android":"levelo://app?vid=68e7d4f2-afdf-4f29-901c-35913c5aae20","ios":"levelo://app?vid=68e7d4f2-afdf-4f29-901c-35913c5aae20"},"vehicle_type_id":"4","last_reported":1702742872,"current_range_meters":16800,"station_id":"ce4bhk92rcd13ifvqgb0","pricing_plan_id":"free"},{"bike_id":"72b18dfa-34f6-4967-9cd1-6491cf975629","system_id":"levelo_inurba_marseille","lat":43.270721,"lon":5.422764,"is_reserved":false,"is_disabled":false,"rental_uris":{"android":"levelo://app?vid=72b18dfa-34f6-4967-9cd1-6491cf975629","ios":"levelo://app?vid=72b18dfa-34f6-4967-9cd1-6491cf975629"},"vehicle_type_id":"4","last_reported":1702742872,"current_range_meters":21600,"station_id":"ce4bhk92rcd13ifvqgb0","pricing_plan_id":"free"},{"bike_id":"c98d070b-1c6e-483c-b054-c855006c48f8","system_id":"levelo_inurba_marseille","lat":43.270721,"lon":5.422764,"is_reserved":false,"is_disabled":false,"rental_uris":{"android":"levelo://app?vid=c98d070b-1c6e-483c-b054-c855006c48f8","ios":"levelo://app?vid=c98d070b-1c6e-483c-b054-c855006c48f8"},"vehicle_type_id":"4","last_reported":1702742872,"current_range_meters":30800,"station_id":"ce4bhk92rcd13ifvqgb0","pricing_plan_id":"free"},{"bike_id":"26954362-f19b-4ce0-ad65-e308ed4d326d","system_id":"levelo_inurba_marseille","lat":43.270721,"lon":5.422764,"is_reserved":false,"is_disabled":false,"rental_uris":{"android":"levelo://app?vid=26954362-f19b-4ce0-ad65-e308ed4d326d","ios":"levelo://app?vid=26954362-f19b-4ce0-ad65-e308ed4d326d"},"vehicle_type_id":"4","last_reported":1702742872,"current_range_meters":27200,"station_id":"ce4bhk92rcd13ifvqgb0","pricing_plan_id":"free"},{"bike_id":"fe42548c-02db-4bc4-a909-bf8f1c3c6f5a","system_id":"levelo_inurba_marseille","lat":43.259013,"lon":5.409301,"is_reserved":false,"is_disabled":false,"rental_uris":{"android":"levelo://app?vid=fe42548c-02db-4bc4-a909-bf8f1c3c6f5a","ios":"levelo://app?vid=fe42548c-02db-4bc4-a909-bf8f1c3c6f5a"},"vehicle_type_id":"4","last_reported":1702742872,"current_range_meters":24400,"station_id":"ce4bhm92rcd13ifvqglg","pricing_plan_id":"free"},{"bike_id":"d580425e-fb16-4470-bb41-0d899b50c75c","system_id":"levelo_inurba_marseille","lat":43.257079,"lon":5.411051,"is_reserved":false,"is_disabled":false,"rental_uris":{"android":"levelo://app?vid=d580425e-fb16-4470-bb41-0d899b50c75c","ios":"levelo://app?vid=d580425e-fb16-4470-bb41-0d899b50c75c"},"vehicle_type_id":"4","last_reported":1702742872,"current_range_meters":19600,"station_id":"ce4bhkp2rcd13ifvqgd0","pricing_plan_id":"free"},{"bike_id":"99ba9d84-c93f-454d-acfc-7fa92c9b8fd3","system_id":"levelo_inurba_marseille","lat":43.257259,"lon":5.411091,"is_reserved":false,"is_disabled":false,"rental_uris":{"android":"levelo://app?vid=99ba9d84-c93f-454d-acfc-7fa92c9b8fd3","ios":"levelo://app?vid=99ba9d84-c93f-454d-acfc-7fa92c9b8fd3"},"vehicle_type_id":"4","last_reported":1702742872,"current_range_meters":15600,"station_id":"","pricing_plan_id":"free"},{"bike_id":"e52e5d19-d706-4382-833c-ef1d7bd531d8","system_id":"levelo_inurba_marseille","lat":43.2479,"lon":5.374457,"is_reserved":false,"is_disabled":false,"rental_uris":{"android":"levelo://app?vid=e52e5d19-d706-4382-833c-ef1d7bd531d8","ios":"levelo://app?vid=e52e5d19-d706-4382-833c-ef1d7bd531d8"},"vehicle_type_id":"4","last_reported":1702742872,"current_range_meters":12800,"station_id":"ce4bhgh2rcd13ifvqfb0","pricing_plan_id":"free"},{"bike_id":"a3023094-33f3-4f00-bc13-8c935d542efa","system_id":"levelo_inurba_marseille","lat":43.250023,"lon":5.38919,"is_reserved":false,"is_disabled":false,"rental_uris":{"android":"levelo://app?vid=a3023094-33f3-4f00-bc13-8c935d542efa","ios":"levelo://app?vid=a3023094-33f3-4f00-bc13-8c935d542efa"},"vehicle_type_id":"4","last_reported":1702742872,"current_range_meters":4000,"station_id":"ce4bhgp2rcd13ifvqfd0","pricing_plan_id":"free"},{"bike_id":"cda151f2-9ad2-46c9-9115-b73ba9a06619","system_id":"levelo_inurba_marseille","lat":43.252223,"lon":5.406407,"is_reserved":false,"is_disabled":false,"rental_uris":{"android":"levelo://app?vid=cda151f2-9ad2-46c9-9115-b73ba9a06619","ios":"levelo://app?vid=cda151f2-9ad2-46c9-9115-b73ba9a06619"},"vehicle_type_id":"4","last_reported":1702742872,"current_range_meters":3600,"station_id":"","pricing_plan_id":"free"},{"bike_id":"473addf1-24cc-41e8-85a0-2e4f1eb6be6e","system_id":"levelo_inurba_marseille","lat":43.25102,"lon":5.403214,"is_reserved":false,"is_disabled":false,"rental_uris":{"android":"levelo://app?vid=473addf1-24cc-41e8-85a0-2e4f1eb6be6e","ios":"levelo://app?vid=473addf1-24cc-41e8-85a0-2e4f1eb6be6e"},"vehicle_type_id":"4","last_reported":1702742872,"current_range_meters":14800,"station_id":"ce4bhlh2rcd13ifvqgig","pricing_plan_id":"free"},{"bike_id":"949d15e9-8df3-4d8f-90d6-7e91ac0bdddf","system_id":"levelo_inurba_marseille","lat":43.246461,"lon":5.389014,"is_reserved":false,"is_disabled":false,"rental_uris":{"android":"levelo://app?vid=949d15e9-8df3-4d8f-90d6-7e91ac0bdddf","ios":"levelo://app?vid=949d15e9-8df3-4d8f-90d6-7e91ac0bdddf"},"vehicle_type_id":"4","last_reported":1702742872,"current_range_meters":28000,"station_id":"ce4bhg12rcd13ifvqf60","pricing_plan_id":"free"},{"bike_id":"de4ae7e3-f75e-4e41-b022-9f5b3ddbc8a1","system_id":"levelo_inurba_marseille","lat":43.243884,"lon":5.370736,"is_reserved":false,"is_disabled":false,"rental_uris":{"android":"levelo://app?vid=de4ae7e3-f75e-4e41-b022-9f5b3ddbc8a1","ios":"levelo://app?vid=de4ae7e3-f75e-4e41-b022-9f5b3ddbc8a1"},"vehicle_type_id":"4","last_reported":1702742872,"current_range_meters":18000,"station_id":"ce4bhhh2rcd13ifvqfk0","pricing_plan_id":"free"},{"bike_id":"c8fb3ef5-2594-44bf-9329-0f87f5449748","system_id":"levelo_inurba_marseille","lat":43.243884,"lon":5.370737,"is_reserved":false,"is_disabled":false,"rental_uris":{"android":"levelo://app?vid=c8fb3ef5-2594-44bf-9329-0f87f5449748","ios":"levelo://app?vid=c8fb3ef5-2594-44bf-9329-0f87f5449748"},"vehicle_type_id":"4","last_reported":1702742872,"current_range_meters":31600,"station_id":"ce4bhhh2rcd13ifvqfk0","pricing_plan_id":"free"},{"bike_id":"6a1bf401-9f7b-4765-82f0-079de6e6d77d","system_id":"levelo_inurba_marseille","lat":43.243884,"lon":5.370737,"is_reserved":false,"is_disabled":false,"rental_uris":{"android":"levelo://app?vid=6a1bf401-9f7b-4765-82f0-079de6e6d77d","ios":"levelo://app?vid=6a1bf401-9f7b-4765-82f0-079de6e6d77d"},"vehicle_type_id":"4","last_reported":1702742872,"current_range_meters":2800,"station_id":"ce4bhhh2rcd13ifvqfk0","pricing_plan_id":"free"},{"bike_id":"d8b8d34e-c77a-4f98-8ea8-3342f72816eb","system_id":"levelo_inurba_marseille","lat":43.245581,"lon":5.395069,"is_reserved":false,"is_disabled":false,"rental_uris":{"android":"levelo://app?vid=d8b8d34e-c77a-4f98-8ea8-3342f72816eb","ios":"levelo://app?vid=d8b8d34e-c77a-4f98-8ea8-3342f72816eb"},"vehicle_type_id":"4","last_reported":1702742872,"current_range_meters":4400,"station_id":"ce4bhlp2rcd13ifvqgjg","pricing_plan_id":"free"},{"bike_id":"de87c427-3d6d-4336-9661-4a4d0530dc65","system_id":"levelo_inurba_marseille","lat":43.24543,"lon":5.39525,"is_reserved":false,"is_disabled":false,"rental_uris":{"android":"levelo://app?vid=de87c427-3d6d-4336-9661-4a4d0530dc65","ios":"levelo://app?vid=de87c427-3d6d-4336-9661-4a4d0530dc65"},"vehicle_type_id":"4","last_reported":1702742872,"current_range_meters":29600,"station_id":"ce4bhlp2rcd13ifvqgjg","pricing_plan_id":"free"},{"bike_id":"2913b0e3-c44c-49f1-ba84-d9d46d3f68b0","system_id":"levelo_inurba_marseille","lat":43.24869,"lon":5.41,"is_reserved":false,"is_disabled":false,"rental_uris":{"android":"levelo://app?vid=2913b0e3-c44c-49f1-ba84-d9d46d3f68b0","ios":"levelo://app?vid=2913b0e3-c44c-49f1-ba84-d9d46d3f68b0"},"vehicle_type_id":"4","last_reported":1702742872,"current_range_meters":18400,"station_id":"","pricing_plan_id":"free"},{"bike_id":"ee83fd25-65b9-414e-935b-7e3d2531a0b9","system_id":"levelo_inurba_marseille","lat":43.24132,"lon":5.37023,"is_reserved":false,"is_disabled":false,"rental_uris":{"android":"levelo://app?vid=ee83fd25-65b9-414e-935b-7e3d2531a0b9","ios":"levelo://app?vid=ee83fd25-65b9-414e-935b-7e3d2531a0b9"},"vehicle_type_id":"4","last_reported":1702742872,"current_range_meters":800,"station_id":"","pricing_plan_id":"free"},{"bike_id":"723190e8-2435-4395-8f3a-405b8b91239c","system_id":"levelo_inurba_marseille","lat":43.240623,"lon":5.377642,"is_reserved":false,"is_disabled":false,"rental_uris":{"android":"levelo://app?vid=723190e8-2435-4395-8f3a-405b8b91239c","ios":"levelo://app?vid=723190e8-2435-4395-8f3a-405b8b91239c"},"vehicle_type_id":"4","last_reported":1702742872,"current_range_meters":0,"station_id":"ce4bhnp2rcd13ifvqgvg","pricing_plan_id":"free"},{"bike_id":"be641546-dcea-4309-ad5a-32c7507f146a","system_id":"levelo_inurba_marseille","lat":43.23199,"lon":5.3555,"is_reserved":false,"is_disabled":false,"rental_uris":{"android":"levelo://app?vid=be641546-dcea-4309-ad5a-32c7507f146a","ios":"levelo://app?vid=be641546-dcea-4309-ad5a-32c7507f146a"},"vehicle_type_id":"4","last_reported":1702742872,"current_range_meters":14400,"station_id":"ce4bhu92rcd13ifvqi70","pricing_plan_id":"free"},{"bike_id":"d3de5ca6-d559-43d0-8ed6-c46c756ed81c","system_id":"levelo_inurba_marseille","lat":43.23198,"lon":5.35556,"is_reserved":false,"is_disabled":false,"rental_uris":{"android":"levelo://app?vid=d3de5ca6-d559-43d0-8ed6-c46c756ed81c","ios":"levelo://app?vid=d3de5ca6-d559-43d0-8ed6-c46c756ed81c"},"vehicle_type_id":"4","last_reported":1702742872,"current_range_meters":2400,"station_id":"ce4bhu92rcd13ifvqi70","pricing_plan_id":"free"},{"bike_id":"547672b1-18af-4711-b9a3-86e73cab70b4","system_id":"levelo_inurba_marseille","lat":43.23198,"lon":5.35552,"is_reserved":false,"is_disabled":false,"rental_uris":{"android":"levelo://app?vid=547672b1-18af-4711-b9a3-86e73cab70b4","ios":"levelo://app?vid=547672b1-18af-4711-b9a3-86e73cab70b4"},"vehicle_type_id":"4","last_reported":1702742872,"current_range_meters":16000,"station_id":"ce4bhu92rcd13ifvqi70","pricing_plan_id":"free"},{"bike_id":"c0509687-6622-44dd-a042-9b19ef27d0ea","system_id":"levelo_inurba_marseille","lat":43.231975,"lon":5.35553,"is_reserved":false,"is_disabled":false,"rental_uris":{"android":"levelo://app?vid=c0509687-6622-44dd-a042-9b19ef27d0ea","ios":"levelo://app?vid=c0509687-6622-44dd-a042-9b19ef27d0ea"},"vehicle_type_id":"4","last_reported":1702742872,"current_range_meters":31200,"station_id":"ce4bhu92rcd13ifvqi70","pricing_plan_id":"free"},{"bike_id":"85d4097c-b8fb-47e3-9b73-ba49b70e33d8","system_id":"levelo_inurba_marseille","lat":43.23197,"lon":5.35552,"is_reserved":false,"is_disabled":false,"rental_uris":{"android":"levelo://app?vid=85d4097c-b8fb-47e3-9b73-ba49b70e33d8","ios":"levelo://app?vid=85d4097c-b8fb-47e3-9b73-ba49b70e33d8"},"vehicle_type_id":"4","last_reported":1702742872,"current_range_meters":23600,"station_id":"ce4bhu92rcd13ifvqi70","pricing_plan_id":"free"},{"bike_id":"e4f94050-aae1-4821-b78a-030e7070af2a","system_id":"levelo_inurba_marseille","lat":43.23197,"lon":5.35552,"is_reserved":false,"is_disabled":false,"rental_uris":{"android":"levelo://app?vid=e4f94050-aae1-4821-b78a-030e7070af2a","ios":"levelo://app?vid=e4f94050-aae1-4821-b78a-030e7070af2a"},"vehicle_type_id":"4","last_reported":1702742872,"current_range_meters":20000,"station_id":"ce4bhu92rcd13ifvqi70","pricing_plan_id":"free"},{"bike_id":"760219ab-0887-48ce-b49e-5a40cc3afc6e","system_id":"levelo_inurba_marseille","lat":43.23196,"lon":5.35547,"is_reserved":false,"is_disabled":false,"rental_uris":{"android":"levelo://app?vid=760219ab-0887-48ce-b49e-5a40cc3afc6e","ios":"levelo://app?vid=760219ab-0887-48ce-b49e-5a40cc3afc6e"},"vehicle_type_id":"4","last_reported":1702742872,"current_range_meters":22000,"station_id":"ce4bhu92rcd13ifvqi70","pricing_plan_id":"free"},{"bike_id":"039c8836-5750-4239-bfe5-c54c2d49b674","system_id":"levelo_inurba_marseille","lat":43.231919,"lon":5.355532,"is_reserved":false,"is_disabled":false,"rental_uris":{"android":"levelo://app?vid=039c8836-5750-4239-bfe5-c54c2d49b674","ios":"levelo://app?vid=039c8836-5750-4239-bfe5-c54c2d49b674"},"vehicle_type_id":"4","last_reported":1702742872,"current_range_meters":13600,"station_id":"ce4bhu92rcd13ifvqi70","pricing_plan_id":"free"},{"bike_id":"9ca3011f-2d0a-4b46-84e2-5e1bb5df7278","system_id":"levelo_inurba_marseille","lat":43.23195,"lon":5.3555,"is_reserved":false,"is_disabled":false,"rental_uris":{"android":"levelo://app?vid=9ca3011f-2d0a-4b46-84e2-5e1bb5df7278","ios":"levelo://app?vid=9ca3011f-2d0a-4b46-84e2-5e1bb5df7278"},"vehicle_type_id":"4","last_reported":1702742872,"current_range_meters":31200,"station_id":"ce4bhu92rcd13ifvqi70","pricing_plan_id":"free"},{"bike_id":"73cd9c87-b558-4a96-b49b-b12814d070b1","system_id":"levelo_inurba_marseille","lat":43.23195,"lon":5.3555,"is_reserved":false,"is_disabled":false,"rental_uris":{"android":"levelo://app?vid=73cd9c87-b558-4a96-b49b-b12814d070b1","ios":"levelo://app?vid=73cd9c87-b558-4a96-b49b-b12814d070b1"},"vehicle_type_id":"4","last_reported":1702742872,"current_range_meters":30400,"station_id":"ce4bhu92rcd13ifvqi70","pricing_plan_id":"free"},{"bike_id":"c1f76b82-4e66-4ae8-8e5d-049d6742016a","system_id":"levelo_inurba_marseille","lat":43.231919,"lon":5.355532,"is_reserved":false,"is_disabled":false,"rental_uris":{"android":"levelo://app?vid=c1f76b82-4e66-4ae8-8e5d-049d6742016a","ios":"levelo://app?vid=c1f76b82-4e66-4ae8-8e5d-049d6742016a"},"vehicle_type_id":"4","last_reported":1702742872,"current_range_meters":18800,"station_id":"ce4bhu92rcd13ifvqi70","pricing_plan_id":"free"},{"bike_id":"bb21ca5a-cb13-451e-943b-2dfa4a3b7fbc","system_id":"levelo_inurba_marseille","lat":43.231919,"lon":5.355532,"is_reserved":false,"is_disabled":false,"rental_uris":{"android":"levelo://app?vid=bb21ca5a-cb13-451e-943b-2dfa4a3b7fbc","ios":"levelo://app?vid=bb21ca5a-cb13-451e-943b-2dfa4a3b7fbc"},"vehicle_type_id":"4","last_reported":1702742872,"current_range_meters":31200,"station_id":"ce4bhu92rcd13ifvqi70","pricing_plan_id":"free"},{"bike_id":"a6ab5f0e-f0ee-41be-b237-17726a43f065","system_id":"levelo_inurba_marseille","lat":43.23194,"lon":5.35551,"is_reserved":false,"is_disabled":false,"rental_uris":{"android":"levelo://app?vid=a6ab5f0e-f0ee-41be-b237-17726a43f065","ios":"levelo://app?vid=a6ab5f0e-f0ee-41be-b237-17726a43f065"},"vehicle_type_id":"4","last_reported":1702742872,"current_range_meters":28800,"station_id":"ce4bhu92rcd13ifvqi70","pricing_plan_id":"free"},{"bike_id":"1941891e-39f7-4cab-a101-89db57bf9cfa","system_id":"levelo_inurba_marseille","lat":43.23193,"lon":5.35556,"is_reserved":false,"is_disabled":false,"rental_uris":{"android":"levelo://app?vid=1941891e-39f7-4cab-a101-89db57bf9cfa","ios":"levelo://app?vid=1941891e-39f7-4cab-a101-89db57bf9cfa"},"vehicle_type_id":"4","last_reported":1702742872,"current_range_meters":30400,"station_id":"ce4bhu92rcd13ifvqi70","pricing_plan_id":"free"},{"bike_id":"c58c2105-152a-4be3-96b7-ef7d8114d5d4","system_id":"levelo_inurba_marseille","lat":43.23192,"lon":5.35554,"is_reserved":false,"is_disabled":false,"rental_uris":{"android":"levelo://app?vid=c58c2105-152a-4be3-96b7-ef7d8114d5d4","ios":"levelo://app?vid=c58c2105-152a-4be3-96b7-ef7d8114d5d4"},"vehicle_type_id":"4","last_reported":1702742872,"current_range_meters":17200,"station_id":"ce4bhu92rcd13ifvqi70","pricing_plan_id":"free"},{"bike_id":"bad9b33d-de7d-4c7c-82d1-be01fc455f93","system_id":"levelo_inurba_marseille","lat":43.231923,"lon":5.35546,"is_reserved":false,"is_disabled":false,"rental_uris":{"android":"levelo://app?vid=bad9b33d-de7d-4c7c-82d1-be01fc455f93","ios":"levelo://app?vid=bad9b33d-de7d-4c7c-82d1-be01fc455f93"},"vehicle_type_id":"4","last_reported":1702742872,"current_range_meters":22400,"station_id":"ce4bhu92rcd13ifvqi70","pricing_plan_id":"free"},{"bike_id":"90458881-97e2-4d19-a7dd-597c18dc1844","system_id":"levelo_inurba_marseille","lat":43.23192,"lon":5.35549,"is_reserved":false,"is_disabled":false,"rental_uris":{"android":"levelo://app?vid=90458881-97e2-4d19-a7dd-597c18dc1844","ios":"levelo://app?vid=90458881-97e2-4d19-a7dd-597c18dc1844"},"vehicle_type_id":"4","last_reported":1702742872,"current_range_meters":22000,"station_id":"ce4bhu92rcd13ifvqi70","pricing_plan_id":"free"},{"bike_id":"e2effc20-8600-4cb3-88e5-e93a2f872714","system_id":"levelo_inurba_marseille","lat":43.231919,"lon":5.355483,"is_reserved":false,"is_disabled":false,"rental_uris":{"android":"levelo://app?vid=e2effc20-8600-4cb3-88e5-e93a2f872714","ios":"levelo://app?vid=e2effc20-8600-4cb3-88e5-e93a2f872714"},"vehicle_type_id":"4","last_reported":1702742872,"current_range_meters":28400,"station_id":"ce4bhu92rcd13ifvqi70","pricing_plan_id":"free"},{"bike_id":"8bde1f20-3114-431c-b2df-22d6e7b7655a","system_id":"levelo_inurba_marseille","lat":43.2319,"lon":5.35554,"is_reserved":false,"is_disabled":false,"rental_uris":{"android":"levelo://app?vid=8bde1f20-3114-431c-b2df-22d6e7b7655a","ios":"levelo://app?vid=8bde1f20-3114-431c-b2df-22d6e7b7655a"},"vehicle_type_id":"4","last_reported":1702742872,"current_range_meters":9600,"station_id":"ce4bhu92rcd13ifvqi70","pricing_plan_id":"free"},{"bike_id":"600bdeb8-ea2a-4d1c-a6da-f7a255388a48","system_id":"levelo_inurba_marseille","lat":43.23189,"lon":5.35548,"is_reserved":false,"is_disabled":false,"rental_uris":{"android":"levelo://app?vid=600bdeb8-ea2a-4d1c-a6da-f7a255388a48","ios":"levelo://app?vid=600bdeb8-ea2a-4d1c-a6da-f7a255388a48"},"vehicle_type_id":"4","last_reported":1702742872,"current_range_meters":31200,"station_id":"ce4bhu92rcd13ifvqi70","pricing_plan_id":"free"},{"bike_id":"0914bc04-89c8-46f4-bf04-78aea5230869","system_id":"levelo_inurba_marseille","lat":43.23188,"lon":5.35559,"is_reserved":false,"is_disabled":false,"rental_uris":{"android":"levelo://app?vid=0914bc04-89c8-46f4-bf04-78aea5230869","ios":"levelo://app?vid=0914bc04-89c8-46f4-bf04-78aea5230869"},"vehicle_type_id":"4","last_reported":1702742872,"current_range_meters":30000,"station_id":"ce4bhu92rcd13ifvqi70","pricing_plan_id":"free"},{"bike_id":"558e02d6-3326-402c-9557-aa313ea3e720","system_id":"levelo_inurba_marseille","lat":43.231919,"lon":5.355532,"is_reserved":false,"is_disabled":false,"rental_uris":{"android":"levelo://app?vid=558e02d6-3326-402c-9557-aa313ea3e720","ios":"levelo://app?vid=558e02d6-3326-402c-9557-aa313ea3e720"},"vehicle_type_id":"4","last_reported":1702742872,"current_range_meters":0,"station_id":"ce4bhu92rcd13ifvqi70","pricing_plan_id":"free"}]}}