{"last_updated":1731337739,"ttl":60,"version":"2.2","data":{"bikes":[{"bike_id":"721fbd53-b0c5-4b4d-8347-51c88d10df20","system_id":"levelo_inurba_marseille","lat":43.24807,"lon":5.37451,"is_reserved":false,"is_disabled":false,"rental_uris":{"android":"levelo://app?vid=721fbd53-b0c5-4b4d-8347-51c88d10df20","ios":"levelo://app?vid=721fbd53-b0c5-4b4d-8347-51c88d10df20"},"vehicle_type_id":"4","last_reported":1731337739,"current_range_meters":36000,"station_id":"ce4bhgh2rcd13ifvqfb0","pricing_plan_id":"cebpf4jnsgd1na2vs0mg"},{"bike_id":"55f338da-564d-4339-bcb5-5d0a4b68c4e6","system_id":"levelo_inurba_marseille","lat":43.31047,"lon":5.40099,"is_reserved":false,"is_disabled":false,"rental_uris":{"android":"levelo://app?vid=55f338da-564d-4339-bcb5-5d0a4b68c4e6","ios":"levelo://app?vid=55f338da-564d-4339-bcb5-5d0a4b68c4e6"},"vehicle_type_id":"4","last_reported":1731337739,"current_range_meters":6800,"station_id":"","pricing_plan_id":"cebpf4jnsgd1na2vs0mg"},{"bike_id":"7b6cffec-197f-449c-990a-dd8962a7e5bf","system_id":"levelo_inurba_marseille","lat":43.25497,"lon":5.37654,"is_reserved":false,"is_disabled":false,"rental_uris":{"android":"levelo://app?vid=7b6cffec-197f-449c-990a-dd8962a7e5bf","ios":"levelo://app?vid=7b6cffec-197f-449c-990a-dd8962a7e5bf"},"vehicle_type_id":"4","last_reported":1731337739,"current_range_meters":12400,"station_id":"ce4bhh12rcd13ifvqff0","pricing_plan_id":"cebpf4jnsgd1na2vs0mg"},{"bike_id":"be73e7f1-a633-47ca-a44a-782bfcef011d","system_id":"levelo_inurba_marseille","lat":43.27959,"lon":5.41786,"is_reserved":false,"is_disabled":false,"rental_uris":{"android":"levelo://app?vid=be73e7f1-a633-47ca-a44a-782bfcef011d","ios":"levelo://app?vid=be73e7f1-a633-47ca-a44a-782bfcef011d"},"vehicle_type_id":"4","last_reported":1731337739,"current_range_meters":8800,"station_id":"ce4bhnh2rcd13ifvqgug","pricing_plan_id":"cebpf4jnsgd1na2vs0mg"},{"bike_id":"31ff5e47-a32e-47c1-9252-8d83ac4520ef","system_id":"levelo_inurba_marseille","lat":43.28038,"lon":5.36962,"is_reserved":false,"is_disabled":false,"rental_uris":{"android":"levelo://app?vid=31ff5e47-a32e-47c1-9252-8d83ac4520ef","ios":"levelo://app?vid=31ff5e47-a32e-47c1-9252-8d83ac4520ef"},"vehicle_type_id":"4","last_reported":1731337739,"current_range_meters":28800,"station_id":"ce4bha12rcd13ifvqef0","pricing_plan_id":"cebpf4jnsgd1na2vs0mg"},{"bike_id":"8d774357-09a9-4b00-8eaa-8f76ab0240c4","system_id":"levelo_inurba_marseille","lat":43.28402,"lon":5.34982,"is_reserved":false,"is_disabled":false,"rental_uris":{"android":"levelo://app?vid=8d774357-09a9-4b00-8eaa-8f76ab0240c4","ios":"levelo://app?vid=8d774357-09a9-4b00-8eaa-8f76ab0240c4"},"vehicle_type_id":"4","last_reported":1731337739,"current_range_meters":34000,"station_id":"ce4bhbh2rcd13ifvqepg","pricing_plan_id":"cebpf4jnsgd1na2vs0mg"},{"bike_id":"28d95551-ee12-43b0-b45c-0725ae74bf04","system_id":"levelo_inurba_marseille","lat":43.26554,"lon":5.37288,"is_reserved":false,"is_disabled":false,"rental_uris":{"android":"levelo://app?vid=28d95551-ee12-43b0-b45c-0725ae74bf04","ios":"levelo://app?vid=28d95551-ee12-43b0-b45c-0725ae74bf04"},"vehicle_type_id":"4","last_reported":1731337739,"current_range_meters":30800,"station_id":"ce4bhg12rcd13ifvqf70","pricing_plan_id":"cebpf4jnsgd1na2vs0mg"},{"bike_id":"6d0d5526-2b6c-4eee-93d6-42c07dbe7b80","system_id":"levelo_inurba_marseille","lat":43.25502,"lon":5.37651,"is_reserved":false,"is_disabled":false,"rental_uris":{"android":"levelo://app?vid=6d0d5526-2b6c-4eee-93d6-42c07dbe7b80","ios":"levelo://app?vid=6d0d5526-2b6c-4eee-93d6-42c07dbe7b80"},"vehicle_type_id":"4","last_reported":1731337739,"current_range_meters":39200,"station_id":"ce4bhh12rcd13ifvqff0","pricing_plan_id":"cebpf4jnsgd1na2vs0mg"},{"bike_id":"d2c1fb59-08cf-4886-bdef-b5fac3c49007","system_id":"levelo_inurba_marseille","lat":43.2846,"lon":5.35884,"is_reserved":false,"is_disabled":false,"rental_uris":{"android":"levelo://app?vid=d2c1fb59-08cf-4886-bdef-b5fac3c49007","ios":"levelo://app?vid=d2c1fb59-08cf-4886-bdef-b5fac3c49007"},"vehicle_type_id":"4","last_reported":1731337739,"current_range_meters":37600,"station_id":"ce4bhah2rcd13ifvqei0","pricing_plan_id":"cebpf4jnsgd1na2vs0mg"},{"bike_id":"f3de71f6-9479-401a-bb1a-1835e29c88f1","system_id":"levelo_inurba_marseille","lat":43.27371,"lon":5.3626,"is_reserved":false,"is_disabled":false,"rental_uris":{"android":"levelo://app?vid=f3de71f6-9479-401a-bb1a-1835e29c88f1","ios":"levelo://app?vid=f3de71f6-9479-401a-bb1a-1835e29c88f1"},"vehicle_type_id":"4","last_reported":1731337739,"current_range_meters":38800,"station_id":"ce4bhbh2rcd13ifvqeo0","pricing_plan_id":"cebpf4jnsgd1na2vs0mg"},{"bike_id":"21dde677-107f-4b15-a499-7a4daf4d2706","system_id":"levelo_inurba_marseille","lat":43.2558,"lon":5.38235,"is_reserved":false,"is_disabled":false,"rental_uris":{"android":"levelo://app?vid=21dde677-107f-4b15-a499-7a4daf4d2706","ios":"levelo://app?vid=21dde677-107f-4b15-a499-7a4daf4d2706"},"vehicle_type_id":"4","last_reported":1731337739,"current_range_meters":30400,"station_id":"ce4bhih2rcd13ifvqfs0","pricing_plan_id":"cebpf4jnsgd1na2vs0mg"},{"bike_id":"9919db7a-8b4f-4220-becb-f54e10b5b1b8","system_id":"levelo_inurba_marseille","lat":43.23058,"lon":5.35492,"is_reserved":false,"is_disabled":false,"rental_uris":{"android":"levelo://app?vid=9919db7a-8b4f-4220-becb-f54e10b5b1b8","ios":"levelo://app?vid=9919db7a-8b4f-4220-becb-f54e10b5b1b8"},"vehicle_type_id":"4","last_reported":1731337739,"current_range_meters":36400,"station_id":"cpo3342slgdg3j2ifvpg","pricing_plan_id":"cebpf4jnsgd1na2vs0mg"},{"bike_id":"5fb393c3-84e2-439f-94a1-e61f74163abd","system_id":"levelo_inurba_marseille","lat":43.22915,"lon":5.35387,"is_reserved":false,"is_disabled":false,"rental_uris":{"android":"levelo://app?vid=5fb393c3-84e2-439f-94a1-e61f74163abd","ios":"levelo://app?vid=5fb393c3-84e2-439f-94a1-e61f74163abd"},"vehicle_type_id":"4","last_reported":1731337739,"current_range_meters":26000,"station_id":"cpo3532slgdg3j2ikp40","pricing_plan_id":"cebpf4jnsgd1na2vs0mg"},{"bike_id":"1ec31f50-d96c-47c6-9806-96f227089cd4","system_id":"levelo_inurba_marseille","lat":43.27487,"lon":5.42464,"is_reserved":false,"is_disabled":false,"rental_uris":{"android":"levelo://app?vid=1ec31f50-d96c-47c6-9806-96f227089cd4","ios":"levelo://app?vid=1ec31f50-d96c-47c6-9806-96f227089cd4"},"vehicle_type_id":"4","last_reported":1731337739,"current_range_meters":36800,"station_id":"ce4bhn92rcd13ifvqgrg","pricing_plan_id":"cebpf4jnsgd1na2vs0mg"},{"bike_id":"67f196aa-1027-41b1-b069-91732f9236ec","system_id":"levelo_inurba_marseille","lat":43.260323,"lon":5.375451,"is_reserved":false,"is_disabled":false,"rental_uris":{"android":"levelo://app?vid=67f196aa-1027-41b1-b069-91732f9236ec","ios":"levelo://app?vid=67f196aa-1027-41b1-b069-91732f9236ec"},"vehicle_type_id":"4","last_reported":1731337739,"current_range_meters":19200,"station_id":"ce4bhgh2rcd13ifvqfa0","pricing_plan_id":"cebpf4jnsgd1na2vs0mg"},{"bike_id":"669c6d61-bccc-46a5-8b64-5907254cc8b8","system_id":"levelo_inurba_marseille","lat":43.292682,"lon":5.368493,"is_reserved":false,"is_disabled":false,"rental_uris":{"android":"levelo://app?vid=669c6d61-bccc-46a5-8b64-5907254cc8b8","ios":"levelo://app?vid=669c6d61-bccc-46a5-8b64-5907254cc8b8"},"vehicle_type_id":"4","last_reported":1731337739,"current_range_meters":15200,"station_id":"ce4bhbp2rcd13ifvqesg","pricing_plan_id":"cebpf4jnsgd1na2vs0mg"},{"bike_id":"62525474-570b-40ea-b46c-186cd3aa1d1a","system_id":"levelo_inurba_marseille","lat":43.24812,"lon":5.37459,"is_reserved":false,"is_disabled":false,"rental_uris":{"android":"levelo://app?vid=62525474-570b-40ea-b46c-186cd3aa1d1a","ios":"levelo://app?vid=62525474-570b-40ea-b46c-186cd3aa1d1a"},"vehicle_type_id":"4","last_reported":1731337739,"current_range_meters":36000,"station_id":"ce4bhgh2rcd13ifvqfb0","pricing_plan_id":"cebpf4jnsgd1na2vs0mg"},{"bike_id":"edd5ca3c-ee2d-4c45-b5bb-5aa7bea70cb5","system_id":"levelo_inurba_marseille","lat":43.26204,"lon":5.37931,"is_reserved":false,"is_disabled":false,"rental_uris":{"android":"levelo://app?vid=edd5ca3c-ee2d-4c45-b5bb-5aa7bea70cb5","ios":"levelo://app?vid=edd5ca3c-ee2d-4c45-b5bb-5aa7bea70cb5"},"vehicle_type_id":"4","last_reported":1731337739,"current_range_meters":37600,"station_id":"ce4bhjp2rcd13ifvqg90","pricing_plan_id":"cebpf4jnsgd1na2vs0mg"},{"bike_id":"c04e085b-2f93-438c-8325-3e100325499e","system_id":"levelo_inurba_marseille","lat":43.24993,"lon":5.38936,"is_reserved":false,"is_disabled":false,"rental_uris":{"android":"levelo://app?vid=c04e085b-2f93-438c-8325-3e100325499e","ios":"levelo://app?vid=c04e085b-2f93-438c-8325-3e100325499e"},"vehicle_type_id":"4","last_reported":1731337739,"current_range_meters":36800,"station_id":"ce4bhgp2rcd13ifvqfd0","pricing_plan_id":"cebpf4jnsgd1na2vs0mg"},{"bike_id":"96ac797d-fee3-4d9f-93fe-eff2df4bd39e","system_id":"levelo_inurba_marseille","lat":43.23192,"lon":5.35548,"is_reserved":false,"is_disabled":false,"rental_uris":{"android":"levelo://app?vid=96ac797d-fee3-4d9f-93fe-eff2df4bd39e","ios":"levelo://app?vid=96ac797d-fee3-4d9f-93fe-eff2df4bd39e"},"vehicle_type_id":"4","last_reported":1731337739,"current_range_meters":14800,"station_id":"ce4bhu92rcd13ifvqi70","pricing_plan_id":"cebpf4jnsgd1na2vs0mg"},{"bike_id":"1c009e4f-aee7-430b-90e0-d4b61a8b9a2c","system_id":"levelo_inurba_marseille","lat":43.29193,"lon":5.39329,"is_reserved":false,"is_disabled":false,"rental_uris":{"android":"levelo://app?vid=1c009e4f-aee7-430b-90e0-d4b61a8b9a2c","ios":"levelo://app?vid=1c009e4f-aee7-430b-90e0-d4b61a8b9a2c"},"vehicle_type_id":"4","last_reported":1731337739,"current_range_meters":2000,"station_id":"ce4bh192rcd13ifvqdd0","pricing_plan_id":"cebpf4jnsgd1na2vs0mg"},{"bike_id":"da7d2f76-8140-4e48-b1d5-24f2af01bb85","system_id":"levelo_inurba_marseille","lat":43.3414,"lon":5.40899,"is_reserved":false,"is_disabled":false,"rental_uris":{"android":"levelo://app?vid=da7d2f76-8140-4e48-b1d5-24f2af01bb85","ios":"levelo://app?vid=da7d2f76-8140-4e48-b1d5-24f2af01bb85"},"vehicle_type_id":"4","last_reported":1731337739,"current_range_meters":3600,"station_id":"ce4bhqh2rcd13ifvqhlg","pricing_plan_id":"cebpf4jnsgd1na2vs0mg"},{"bike_id":"d2514595-1919-4217-b2fb-3a15540a6a04","system_id":"levelo_inurba_marseille","lat":43.32656,"lon":5.40984,"is_reserved":false,"is_disabled":false,"rental_uris":{"android":"levelo://app?vid=d2514595-1919-4217-b2fb-3a15540a6a04","ios":"levelo://app?vid=d2514595-1919-4217-b2fb-3a15540a6a04"},"vehicle_type_id":"4","last_reported":1731337739,"current_range_meters":36000,"station_id":"ce4bhpp2rcd13ifvqhgg","pricing_plan_id":"cebpf4jnsgd1na2vs0mg"},{"bike_id":"b81ee9db-87fc-45da-a598-7bae9bbe6aed","system_id":"levelo_inurba_marseille","lat":43.27181,"lon":5.41002,"is_reserved":false,"is_disabled":false,"rental_uris":{"android":"levelo://app?vid=b81ee9db-87fc-45da-a598-7bae9bbe6aed","ios":"levelo://app?vid=b81ee9db-87fc-45da-a598-7bae9bbe6aed"},"vehicle_type_id":"4","last_reported":1731337739,"current_range_meters":34000,"station_id":"ce4bhl12rcd13ifvqgf0","pricing_plan_id":"cebpf4jnsgd1na2vs0mg"},{"bike_id":"f444922b-a1d7-4ade-ac35-2a6c7f940fe9","system_id":"levelo_inurba_marseille","lat":43.27974,"lon":5.38729,"is_reserved":false,"is_disabled":false,"rental_uris":{"android":"levelo://app?vid=f444922b-a1d7-4ade-ac35-2a6c7f940fe9","ios":"levelo://app?vid=f444922b-a1d7-4ade-ac35-2a6c7f940fe9"},"vehicle_type_id":"4","last_reported":1731337739,"current_range_meters":31200,"station_id":"ce4bhg12rcd13ifvqf80","pricing_plan_id":"cebpf4jnsgd1na2vs0mg"},{"bike_id":"cd7ee716-3378-42ca-867f-f7e633074c42","system_id":"levelo_inurba_marseille","lat":43.29529,"lon":5.38549,"is_reserved":false,"is_disabled":false,"rental_uris":{"android":"levelo://app?vid=cd7ee716-3378-42ca-867f-f7e633074c42","ios":"levelo://app?vid=cd7ee716-3378-42ca-867f-f7e633074c42"},"vehicle_type_id":"4","last_reported":1731337739,"current_range_meters":39200,"station_id":"ce4bgih2rcd13ifvqba0","pricing_plan_id":"cebpf4jnsgd1na2vs0mg"},{"bike_id":"9e5b19f2-1a3d-44ee-b4ec-50c7c049ac4b","system_id":"levelo_inurba_marseille","lat":43.26209,"lon":5.37445,"is_reserved":false,"is_disabled":false,"rental_uris":{"android":"levelo://app?vid=9e5b19f2-1a3d-44ee-b4ec-50c7c049ac4b","ios":"levelo://app?vid=9e5b19f2-1a3d-44ee-b4ec-50c7c049ac4b"},"vehicle_type_id":"4","last_reported":1731337739,"current_range_meters":24800,"station_id":"ce4bhgp2rcd13ifvqfc0","pricing_plan_id":"cebpf4jnsgd1na2vs0mg"},{"bike_id":"f669496d-fae4-44fd-8a51-586e76ca89f8","system_id":"levelo_inurba_marseille","lat":43.23196,"lon":5.35555,"is_reserved":false,"is_disabled":false,"rental_uris":{"android":"levelo://app?vid=f669496d-fae4-44fd-8a51-586e76ca89f8","ios":"levelo://app?vid=f669496d-fae4-44fd-8a51-586e76ca89f8"},"vehicle_type_id":"4","last_reported":1731337739,"current_range_meters":15200,"station_id":"ce4bhu92rcd13ifvqi70","pricing_plan_id":"cebpf4jnsgd1na2vs0mg"},{"bike_id":"333a8fd1-0af5-4d2d-8e99-f8610bc57a84","system_id":"levelo_inurba_marseille","lat":43.23965,"lon":5.36637,"is_reserved":false,"is_disabled":false,"rental_uris":{"android":"levelo://app?vid=333a8fd1-0af5-4d2d-8e99-f8610bc57a84","ios":"levelo://app?vid=333a8fd1-0af5-4d2d-8e99-f8610bc57a84"},"vehicle_type_id":"4","last_reported":1731337739,"current_range_meters":10000,"station_id":"ce4bhi12rcd13ifvqfp0","pricing_plan_id":"cebpf4jnsgd1na2vs0mg"},{"bike_id":"7b97c9f4-4eb3-40e5-8f64-9e243305087a","system_id":"levelo_inurba_marseille","lat":43.336053,"lon":5.410389,"is_reserved":false,"is_disabled":false,"rental_uris":{"android":"levelo://app?vid=7b97c9f4-4eb3-40e5-8f64-9e243305087a","ios":"levelo://app?vid=7b97c9f4-4eb3-40e5-8f64-9e243305087a"},"vehicle_type_id":"4","last_reported":1731337739,"current_range_meters":25200,"station_id":"ce4bhqh2rcd13ifvqhmg","pricing_plan_id":"cebpf4jnsgd1na2vs0mg"},{"bike_id":"e45c3b16-9d56-4cb0-9735-cef5134d710a","system_id":"levelo_inurba_marseille","lat":43.25502,"lon":5.37648,"is_reserved":false,"is_disabled":false,"rental_uris":{"android":"levelo://app?vid=e45c3b16-9d56-4cb0-9735-cef5134d710a","ios":"levelo://app?vid=e45c3b16-9d56-4cb0-9735-cef5134d710a"},"vehicle_type_id":"4","last_reported":1731337739,"current_range_meters":14400,"station_id":"ce4bhh12rcd13ifvqff0","pricing_plan_id":"cebpf4jnsgd1na2vs0mg"},{"bike_id":"f2f2ad49-af25-4b8e-8e5a-253d5f2d2ed5","system_id":"levelo_inurba_marseille","lat":43.28414,"lon":5.34994,"is_reserved":false,"is_disabled":false,"rental_uris":{"android":"levelo://app?vid=f2f2ad49-af25-4b8e-8e5a-253d5f2d2ed5","ios":"levelo://app?vid=f2f2ad49-af25-4b8e-8e5a-253d5f2d2ed5"},"vehicle_type_id":"4","last_reported":1731337739,"current_range_meters":30800,"station_id":"ce4bhbh2rcd13ifvqepg","pricing_plan_id":"cebpf4jnsgd1na2vs0mg"},{"bike_id":"2972f759-c98e-4fe7-9758-85d215895273","system_id":"levelo_inurba_marseille","lat":43.23955,"lon":5.36633,"is_reserved":false,"is_disabled":false,"rental_uris":{"android":"levelo://app?vid=2972f759-c98e-4fe7-9758-85d215895273","ios":"levelo://app?vid=2972f759-c98e-4fe7-9758-85d215895273"},"vehicle_type_id":"4","last_reported":1731337739,"current_range_meters":30400,"station_id":"ce4bhi12rcd13ifvqfp0","pricing_plan_id":"cebpf4jnsgd1na2vs0mg"},{"bike_id":"f6a1b58a-57a9-4d0c-bf9d-7f459ea98054","system_id":"levelo_inurba_marseille","lat":43.24814,"lon":5.37463,"is_reserved":false,"is_disabled":false,"rental_uris":{"android":"levelo://app?vid=f6a1b58a-57a9-4d0c-bf9d-7f459ea98054","ios":"levelo://app?vid=f6a1b58a-57a9-4d0c-bf9d-7f459ea98054"},"vehicle_type_id":"4","last_reported":1731337739,"current_range_meters":7200,"station_id":"ce4bhgh2rcd13ifvqfb0","pricing_plan_id":"cebpf4jnsgd1na2vs0mg"},{"bike_id":"baff3d6d-9293-4877-a078-c307f9a2d6ce","system_id":"levelo_inurba_marseille","lat":43.337444,"lon":5.374475,"is_reserved":false,"is_disabled":false,"rental_uris":{"android":"levelo://app?vid=baff3d6d-9293-4877-a078-c307f9a2d6ce","ios":"levelo://app?vid=baff3d6d-9293-4877-a078-c307f9a2d6ce"},"vehicle_type_id":"4","last_reported":1731337739,"current_range_meters":27200,"station_id":"","pricing_plan_id":"cebpf4jnsgd1na2vs0mg"},{"bike_id":"aa798a92-febc-48ef-89c0-fb13aa331898","system_id":"levelo_inurba_marseille","lat":43.28619,"lon":5.35114,"is_reserved":false,"is_disabled":false,"rental_uris":{"android":"levelo://app?vid=aa798a92-febc-48ef-89c0-fb13aa331898","ios":"levelo://app?vid=aa798a92-febc-48ef-89c0-fb13aa331898"},"vehicle_type_id":"4","last_reported":1731337739,"current_range_meters":38800,"station_id":"ce4bhch2rcd13ifvqeug","pricing_plan_id":"cebpf4jnsgd1na2vs0mg"},{"bike_id":"ad9054c5-3d33-417c-bab9-7a426ca4c9e6","system_id":"levelo_inurba_marseille","lat":43.25723,"lon":5.4111,"is_reserved":false,"is_disabled":false,"rental_uris":{"android":"levelo://app?vid=ad9054c5-3d33-417c-bab9-7a426ca4c9e6","ios":"levelo://app?vid=ad9054c5-3d33-417c-bab9-7a426ca4c9e6"},"vehicle_type_id":"4","last_reported":1731337739,"current_range_meters":12400,"station_id":"ce4bhkp2rcd13ifvqgd0","pricing_plan_id":"cebpf4jnsgd1na2vs0mg"},{"bike_id":"d94b397c-9ed6-4dd6-87b4-02d65206c18b","system_id":"levelo_inurba_marseille","lat":43.28724,"lon":5.36089,"is_reserved":false,"is_disabled":false,"rental_uris":{"android":"levelo://app?vid=d94b397c-9ed6-4dd6-87b4-02d65206c18b","ios":"levelo://app?vid=d94b397c-9ed6-4dd6-87b4-02d65206c18b"},"vehicle_type_id":"4","last_reported":1731337739,"current_range_meters":38800,"station_id":"cki0cbj6b192h4jlfktg","pricing_plan_id":"cebpf4jnsgd1na2vs0mg"},{"bike_id":"7f3e1ff6-1483-4b12-acd5-3838fb7f84bf","system_id":"levelo_inurba_marseille","lat":43.23963,"lon":5.3664,"is_reserved":false,"is_disabled":false,"rental_uris":{"android":"levelo://app?vid=7f3e1ff6-1483-4b12-acd5-3838fb7f84bf","ios":"levelo://app?vid=7f3e1ff6-1483-4b12-acd5-3838fb7f84bf"},"vehicle_type_id":"4","last_reported":1731337739,"current_range_meters":16400,"station_id":"ce4bhi12rcd13ifvqfp0","pricing_plan_id":"cebpf4jnsgd1na2vs0mg"},{"bike_id":"e6b098be-d2e0-4794-a988-451893aaba89","system_id":"levelo_inurba_marseille","lat":43.27179,"lon":5.41003,"is_reserved":false,"is_disabled":false,"rental_uris":{"android":"levelo://app?vid=e6b098be-d2e0-4794-a988-451893aaba89","ios":"levelo://app?vid=e6b098be-d2e0-4794-a988-451893aaba89"},"vehicle_type_id":"4","last_reported":1731337739,"current_range_meters":30800,"station_id":"ce4bhl12rcd13ifvqgf0","pricing_plan_id":"cebpf4jnsgd1na2vs0mg"},{"bike_id":"eec18c95-c5cc-4bd3-9c4c-e4ce75d051fa","system_id":"levelo_inurba_marseille","lat":43.25581,"lon":5.38232,"is_reserved":false,"is_disabled":false,"rental_uris":{"android":"levelo://app?vid=eec18c95-c5cc-4bd3-9c4c-e4ce75d051fa","ios":"levelo://app?vid=eec18c95-c5cc-4bd3-9c4c-e4ce75d051fa"},"vehicle_type_id":"4","last_reported":1731337739,"current_range_meters":28000,"station_id":"ce4bhih2rcd13ifvqfs0","pricing_plan_id":"cebpf4jnsgd1na2vs0mg"},{"bike_id":"b96c04c7-ca0f-40ca-adc1-4ea740360744","system_id":"levelo_inurba_marseille","lat":43.337444,"lon":5.374475,"is_reserved":false,"is_disabled":false,"rental_uris":{"android":"levelo://app?vid=b96c04c7-ca0f-40ca-adc1-4ea740360744","ios":"levelo://app?vid=b96c04c7-ca0f-40ca-adc1-4ea740360744"},"vehicle_type_id":"4","last_reported":1731337739,"current_range_meters":38800,"station_id":"","pricing_plan_id":"cebpf4jnsgd1na2vs0mg"},{"bike_id":"ee029cd4-5bd2-435a-acde-8505033c6721","system_id":"levelo_inurba_marseille","lat":43.29192,"lon":5.35795,"is_reserved":false,"is_disabled":false,"rental_uris":{"android":"levelo://app?vid=ee029cd4-5bd2-435a-acde-8505033c6721","ios":"levelo://app?vid=ee029cd4-5bd2-435a-acde-8505033c6721"},"vehicle_type_id":"4","last_reported":1731337739,"current_range_meters":37600,"station_id":"ce4bhb12rcd13ifvqel0","pricing_plan_id":"cebpf4jnsgd1na2vs0mg"},{"bike_id":"f5f7adb1-08a0-41e5-84f8-4eacbb87fa6f","system_id":"levelo_inurba_marseille","lat":43.2396,"lon":5.36642,"is_reserved":false,"is_disabled":false,"rental_uris":{"android":"levelo://app?vid=f5f7adb1-08a0-41e5-84f8-4eacbb87fa6f","ios":"levelo://app?vid=f5f7adb1-08a0-41e5-84f8-4eacbb87fa6f"},"vehicle_type_id":"4","last_reported":1731337739,"current_range_meters":38800,"station_id":"ce4bhi12rcd13ifvqfp0","pricing_plan_id":"cebpf4jnsgd1na2vs0mg"},{"bike_id":"cd3763b4-c6c9-439a-8c88-6b6d78464d6e","system_id":"levelo_inurba_marseille","lat":43.337444,"lon":5.374475,"is_reserved":false,"is_disabled":false,"rental_uris":{"android":"levelo://app?vid=cd3763b4-c6c9-439a-8c88-6b6d78464d6e","ios":"levelo://app?vid=cd3763b4-c6c9-439a-8c88-6b6d78464d6e"},"vehicle_type_id":"4","last_reported":1731337739,"current_range_meters":36000,"station_id":"","pricing_plan_id":"cebpf4jnsgd1na2vs0mg"},{"bike_id":"c4773bc0-e021-4cc0-a28d-9360b0acc7dd","system_id":"levelo_inurba_marseille","lat":43.23958,"lon":5.36627,"is_reserved":false,"is_disabled":false,"rental_uris":{"android":"levelo://app?vid=c4773bc0-e021-4cc0-a28d-9360b0acc7dd","ios":"levelo://app?vid=c4773bc0-e021-4cc0-a28d-9360b0acc7dd"},"vehicle_type_id":"4","last_reported":1731337739,"current_range_meters":23200,"station_id":"ce4bhi12rcd13ifvqfp0","pricing_plan_id":"cebpf4jnsgd1na2vs0mg"},{"bike_id":"eca75e3a-df82-4e7a-854a-9f477ca985fb","system_id":"levelo_inurba_marseille","lat":43.28442,"lon":5.39209,"is_reserved":false,"is_disabled":false,"rental_uris":{"android":"levelo://app?vid=eca75e3a-df82-4e7a-854a-9f477ca985fb","ios":"levelo://app?vid=eca75e3a-df82-4e7a-854a-9f477ca985fb"},"vehicle_type_id":"4","last_reported":1731337739,"current_range_meters":38000,"station_id":"ce4bhoh2rcd13ifvqh5g","pricing_plan_id":"cebpf4jnsgd1na2vs0mg"},{"bike_id":"5f430956-a963-4063-b44c-695855253ada","system_id":"levelo_inurba_marseille","lat":43.281545,"lon":5.426404,"is_reserved":false,"is_disabled":false,"rental_uris":{"android":"levelo://app?vid=5f430956-a963-4063-b44c-695855253ada","ios":"levelo://app?vid=5f430956-a963-4063-b44c-695855253ada"},"vehicle_type_id":"4","last_reported":1731337739,"current_range_meters":9600,"station_id":"ce4bhnh2rcd13ifvqgug","pricing_plan_id":"cebpf4jnsgd1na2vs0mg"},{"bike_id":"31838c8d-4241-4b9b-b26f-bcbc0901cec6","system_id":"levelo_inurba_marseille","lat":43.27619,"lon":5.36122,"is_reserved":false,"is_disabled":false,"rental_uris":{"android":"levelo://app?vid=31838c8d-4241-4b9b-b26f-bcbc0901cec6","ios":"levelo://app?vid=31838c8d-4241-4b9b-b26f-bcbc0901cec6"},"vehicle_type_id":"4","last_reported":1731337739,"current_range_meters":12000,"station_id":"ce4bgj92rcd13ifvqbe0","pricing_plan_id":"cebpf4jnsgd1na2vs0mg"},{"bike_id":"0fda3478-aca6-4744-abba-5cf9abceace0","system_id":"levelo_inurba_marseille","lat":43.29186,"lon":5.35721,"is_reserved":false,"is_disabled":false,"rental_uris":{"android":"levelo://app?vid=0fda3478-aca6-4744-abba-5cf9abceace0","ios":"levelo://app?vid=0fda3478-aca6-4744-abba-5cf9abceace0"},"vehicle_type_id":"4","last_reported":1731337739,"current_range_meters":13600,"station_id":"","pricing_plan_id":"cebpf4jnsgd1na2vs0mg"},{"bike_id":"97d76c48-b6d0-49aa-a91d-3718b611762d","system_id":"levelo_inurba_marseille","lat":43.29976,"lon":5.37177,"is_reserved":false,"is_disabled":false,"rental_uris":{"android":"levelo://app?vid=97d76c48-b6d0-49aa-a91d-3718b611762d","ios":"levelo://app?vid=97d76c48-b6d0-49aa-a91d-3718b611762d"},"vehicle_type_id":"4","last_reported":1731337739,"current_range_meters":36800,"station_id":"ce4bgr92rcd13ifvqc7g","pricing_plan_id":"cebpf4jnsgd1na2vs0mg"},{"bike_id":"f97b6bb8-fda2-436e-9020-908b83fb722c","system_id":"levelo_inurba_marseille","lat":43.23194,"lon":5.35561,"is_reserved":false,"is_disabled":false,"rental_uris":{"android":"levelo://app?vid=f97b6bb8-fda2-436e-9020-908b83fb722c","ios":"levelo://app?vid=f97b6bb8-fda2-436e-9020-908b83fb722c"},"vehicle_type_id":"4","last_reported":1731337739,"current_range_meters":9600,"station_id":"ce4bhu92rcd13ifvqi70","pricing_plan_id":"cebpf4jnsgd1na2vs0mg"},{"bike_id":"85c6c43a-ec27-4ab5-a406-8ca39b34fe69","system_id":"levelo_inurba_marseille","lat":43.23195,"lon":5.35557,"is_reserved":false,"is_disabled":false,"rental_uris":{"android":"levelo://app?vid=85c6c43a-ec27-4ab5-a406-8ca39b34fe69","ios":"levelo://app?vid=85c6c43a-ec27-4ab5-a406-8ca39b34fe69"},"vehicle_type_id":"4","last_reported":1731337739,"current_range_meters":9200,"station_id":"ce4bhu92rcd13ifvqi70","pricing_plan_id":"cebpf4jnsgd1na2vs0mg"},{"bike_id":"9df299a9-dbc2-46ec-b191-8acb7b624f5b","system_id":"levelo_inurba_marseille","lat":43.24806,"lon":5.37457,"is_reserved":false,"is_disabled":false,"rental_uris":{"android":"levelo://app?vid=9df299a9-dbc2-46ec-b191-8acb7b624f5b","ios":"levelo://app?vid=9df299a9-dbc2-46ec-b191-8acb7b624f5b"},"vehicle_type_id":"4","last_reported":1731337739,"current_range_meters":33600,"station_id":"ce4bhgh2rcd13ifvqfb0","pricing_plan_id":"cebpf4jnsgd1na2vs0mg"},{"bike_id":"751a3c0b-9388-4ac3-a0c4-1525b1803435","system_id":"levelo_inurba_marseille","lat":43.337652,"lon":5.374571,"is_reserved":false,"is_disabled":false,"rental_uris":{"android":"levelo://app?vid=751a3c0b-9388-4ac3-a0c4-1525b1803435","ios":"levelo://app?vid=751a3c0b-9388-4ac3-a0c4-1525b1803435"},"vehicle_type_id":"4","last_reported":1731337739,"current_range_meters":38800,"station_id":"","pricing_plan_id":"cebpf4jnsgd1na2vs0mg"},{"bike_id":"1d75d4ce-da07-47a0-83ad-027ef32b7b53","system_id":"levelo_inurba_marseille","lat":43.27404,"lon":5.38962,"is_reserved":false,"is_disabled":false,"rental_uris":{"android":"levelo://app?vid=1d75d4ce-da07-47a0-83ad-027ef32b7b53","ios":"levelo://app?vid=1d75d4ce-da07-47a0-83ad-027ef32b7b53"},"vehicle_type_id":"4","last_reported":1731337739,"current_range_meters":20400,"station_id":"","pricing_plan_id":"cebpf4jnsgd1na2vs0mg"},{"bike_id":"cb32d0a8-b2de-42ad-b147-a94dda329382","system_id":"levelo_inurba_marseille","lat":43.337444,"lon":5.374475,"is_reserved":false,"is_disabled":false,"rental_uris":{"android":"levelo://app?vid=cb32d0a8-b2de-42ad-b147-a94dda329382","ios":"levelo://app?vid=cb32d0a8-b2de-42ad-b147-a94dda329382"},"vehicle_type_id":"4","last_reported":1731337739,"current_range_meters":26800,"station_id":"","pricing_plan_id":"cebpf4jnsgd1na2vs0mg"},{"bike_id":"6bf4b3c0-83cf-41dd-911d-f0765df67655","system_id":"levelo_inurba_marseille","lat":43.27495,"lon":5.42449,"is_reserved":false,"is_disabled":false,"rental_uris":{"android":"levelo://app?vid=6bf4b3c0-83cf-41dd-911d-f0765df67655","ios":"levelo://app?vid=6bf4b3c0-83cf-41dd-911d-f0765df67655"},"vehicle_type_id":"4","last_reported":1731337739,"current_range_meters":16800,"station_id":"ce4bhn92rcd13ifvqgrg","pricing_plan_id":"cebpf4jnsgd1na2vs0mg"},{"bike_id":"ca6bc757-afb2-47ae-8348-d50290e625d2","system_id":"levelo_inurba_marseille","lat":43.24806,"lon":5.37451,"is_reserved":false,"is_disabled":false,"rental_uris":{"android":"levelo://app?vid=ca6bc757-afb2-47ae-8348-d50290e625d2","ios":"levelo://app?vid=ca6bc757-afb2-47ae-8348-d50290e625d2"},"vehicle_type_id":"4","last_reported":1731337739,"current_range_meters":29600,"station_id":"ce4bhgh2rcd13ifvqfb0","pricing_plan_id":"cebpf4jnsgd1na2vs0mg"},{"bike_id":"bdf00644-feeb-4cfc-b7e7-a0b3e87216f9","system_id":"levelo_inurba_marseille","lat":43.23189,"lon":5.35556,"is_reserved":false,"is_disabled":false,"rental_uris":{"android":"levelo://app?vid=bdf00644-feeb-4cfc-b7e7-a0b3e87216f9","ios":"levelo://app?vid=bdf00644-feeb-4cfc-b7e7-a0b3e87216f9"},"vehicle_type_id":"4","last_reported":1731337739,"current_range_meters":37600,"station_id":"ce4bhu92rcd13ifvqi70","pricing_plan_id":"cebpf4jnsgd1na2vs0mg"},{"bike_id":"e87aa06c-f67f-4cdc-ba13-29969933e8d2","system_id":"levelo_inurba_marseille","lat":43.30244,"lon":5.40048,"is_reserved":false,"is_disabled":false,"rental_uris":{"android":"levelo://app?vid=e87aa06c-f67f-4cdc-ba13-29969933e8d2","ios":"levelo://app?vid=e87aa06c-f67f-4cdc-ba13-29969933e8d2"},"vehicle_type_id":"4","last_reported":1731337739,"current_range_meters":25200,"station_id":"ce4bgvh2rcd13ifvqcs0","pricing_plan_id":"cebpf4jnsgd1na2vs0mg"},{"bike_id":"00079633-0204-49b0-9404-0f1d9390baca","system_id":"levelo_inurba_marseille","lat":43.24804,"lon":5.37455,"is_reserved":false,"is_disabled":false,"rental_uris":{"android":"levelo://app?vid=00079633-0204-49b0-9404-0f1d9390baca","ios":"levelo://app?vid=00079633-0204-49b0-9404-0f1d9390baca"},"vehicle_type_id":"4","last_reported":1731337739,"current_range_meters":38800,"station_id":"ce4bhgh2rcd13ifvqfb0","pricing_plan_id":"cebpf4jnsgd1na2vs0mg"},{"bike_id":"1064cbe5-0b25-44f7-ab24-5aa89f925aa0","system_id":"levelo_inurba_marseille","lat":43.27071,"lon":5.42284,"is_reserved":false,"is_disabled":false,"rental_uris":{"android":"levelo://app?vid=1064cbe5-0b25-44f7-ab24-5aa89f925aa0","ios":"levelo://app?vid=1064cbe5-0b25-44f7-ab24-5aa89f925aa0"},"vehicle_type_id":"4","last_reported":1731337739,"current_range_meters":6800,"station_id":"ce4bhk92rcd13ifvqgb0","pricing_plan_id":"cebpf4jnsgd1na2vs0mg"},{"bike_id":"784616cb-3dcc-4a17-ae25-f5786a0d223a","system_id":"levelo_inurba_marseille","lat":43.337444,"lon":5.374475,"is_reserved":false,"is_disabled":false,"rental_uris":{"android":"levelo://app?vid=784616cb-3dcc-4a17-ae25-f5786a0d223a","ios":"levelo://app?vid=784616cb-3dcc-4a17-ae25-f5786a0d223a"},"vehicle_type_id":"4","last_reported":1731337739,"current_range_meters":36400,"station_id":"","pricing_plan_id":"cebpf4jnsgd1na2vs0mg"},{"bike_id":"bbd15542-9a18-45ac-89de-c5d57ab3a68f","system_id":"levelo_inurba_marseille","lat":43.246483,"lon":5.388913,"is_reserved":false,"is_disabled":false,"rental_uris":{"android":"levelo://app?vid=bbd15542-9a18-45ac-89de-c5d57ab3a68f","ios":"levelo://app?vid=bbd15542-9a18-45ac-89de-c5d57ab3a68f"},"vehicle_type_id":"4","last_reported":1731337739,"current_range_meters":17600,"station_id":"ce4bhg12rcd13ifvqf60","pricing_plan_id":"cebpf4jnsgd1na2vs0mg"},{"bike_id":"bf26cce5-70af-4db1-b294-e3f280d1df49","system_id":"levelo_inurba_marseille","lat":43.28612,"lon":5.35099,"is_reserved":false,"is_disabled":false,"rental_uris":{"android":"levelo://app?vid=bf26cce5-70af-4db1-b294-e3f280d1df49","ios":"levelo://app?vid=bf26cce5-70af-4db1-b294-e3f280d1df49"},"vehicle_type_id":"4","last_reported":1731337739,"current_range_meters":38800,"station_id":"ce4bhch2rcd13ifvqeug","pricing_plan_id":"cebpf4jnsgd1na2vs0mg"},{"bike_id":"ed01fa4f-61ab-4e3c-9524-6f09c303685d","system_id":"levelo_inurba_marseille","lat":43.28709,"lon":5.37377,"is_reserved":false,"is_disabled":false,"rental_uris":{"android":"levelo://app?vid=ed01fa4f-61ab-4e3c-9524-6f09c303685d","ios":"levelo://app?vid=ed01fa4f-61ab-4e3c-9524-6f09c303685d"},"vehicle_type_id":"4","last_reported":1731337739,"current_range_meters":14000,"station_id":"ce4bh3p2rcd13ifvqdq0","pricing_plan_id":"cebpf4jnsgd1na2vs0mg"},{"bike_id":"2d0081f0-13a2-4734-b5c8-a0594c4f7227","system_id":"levelo_inurba_marseille","lat":43.23192,"lon":5.35558,"is_reserved":false,"is_disabled":false,"rental_uris":{"android":"levelo://app?vid=2d0081f0-13a2-4734-b5c8-a0594c4f7227","ios":"levelo://app?vid=2d0081f0-13a2-4734-b5c8-a0594c4f7227"},"vehicle_type_id":"4","last_reported":1731337739,"current_range_meters":33200,"station_id":"ce4bhu92rcd13ifvqi70","pricing_plan_id":"cebpf4jnsgd1na2vs0mg"},{"bike_id":"125308d1-3380-484b-9db2-9979385d1ddd","system_id":"levelo_inurba_marseille","lat":43.31183,"lon":5.38711,"is_reserved":false,"is_disabled":false,"rental_uris":{"android":"levelo://app?vid=125308d1-3380-484b-9db2-9979385d1ddd","ios":"levelo://app?vid=125308d1-3380-484b-9db2-9979385d1ddd"},"vehicle_type_id":"4","last_reported":1731337739,"current_range_meters":38800,"station_id":"ce4bgv12rcd13ifvqcp0","pricing_plan_id":"cebpf4jnsgd1na2vs0mg"},{"bike_id":"b6fc6fc0-0fbf-4090-a202-772b5f1577ba","system_id":"levelo_inurba_marseille","lat":43.24816,"lon":5.37459,"is_reserved":false,"is_disabled":false,"rental_uris":{"android":"levelo://app?vid=b6fc6fc0-0fbf-4090-a202-772b5f1577ba","ios":"levelo://app?vid=b6fc6fc0-0fbf-4090-a202-772b5f1577ba"},"vehicle_type_id":"4","last_reported":1731337739,"current_range_meters":33200,"station_id":"ce4bhgh2rcd13ifvqfb0","pricing_plan_id":"cebpf4jnsgd1na2vs0mg"},{"bike_id":"181fa628-fd06-4339-88f4-5d411c857699","system_id":"levelo_inurba_marseille","lat":43.27065,"lon":5.42281,"is_reserved":false,"is_disabled":false,"rental_uris":{"android":"levelo://app?vid=181fa628-fd06-4339-88f4-5d411c857699","ios":"levelo://app?vid=181fa628-fd06-4339-88f4-5d411c857699"},"vehicle_type_id":"4","last_reported":1731337739,"current_range_meters":36800,"station_id":"ce4bhk92rcd13ifvqgb0","pricing_plan_id":"cebpf4jnsgd1na2vs0mg"},{"bike_id":"85fa527a-4f7a-44b0-8cbc-91a52835149b","system_id":"levelo_inurba_marseille","lat":43.262,"lon":5.37932,"is_reserved":false,"is_disabled":false,"rental_uris":{"android":"levelo://app?vid=85fa527a-4f7a-44b0-8cbc-91a52835149b","ios":"levelo://app?vid=85fa527a-4f7a-44b0-8cbc-91a52835149b"},"vehicle_type_id":"4","last_reported":1731337739,"current_range_meters":17600,"station_id":"ce4bhjp2rcd13ifvqg90","pricing_plan_id":"cebpf4jnsgd1na2vs0mg"},{"bike_id":"d7425ed5-16f4-4986-ab5b-a93e0b9eff2a","system_id":"levelo_inurba_marseille","lat":43.28155,"lon":5.4265,"is_reserved":false,"is_disabled":false,"rental_uris":{"android":"levelo://app?vid=d7425ed5-16f4-4986-ab5b-a93e0b9eff2a","ios":"levelo://app?vid=d7425ed5-16f4-4986-ab5b-a93e0b9eff2a"},"vehicle_type_id":"4","last_reported":1731337739,"current_range_meters":4400,"station_id":"ce4bhnh2rcd13ifvqgug","pricing_plan_id":"cebpf4jnsgd1na2vs0mg"},{"bike_id":"1e7fd650-28c5-42ee-9922-4070c0acdb85","system_id":"levelo_inurba_marseille","lat":43.27493,"lon":5.42468,"is_reserved":false,"is_disabled":false,"rental_uris":{"android":"levelo://app?vid=1e7fd650-28c5-42ee-9922-4070c0acdb85","ios":"levelo://app?vid=1e7fd650-28c5-42ee-9922-4070c0acdb85"},"vehicle_type_id":"4","last_reported":1731337739,"current_range_meters":35200,"station_id":"ce4bhn92rcd13ifvqgrg","pricing_plan_id":"cebpf4jnsgd1na2vs0mg"},{"bike_id":"1dc7ac1a-b527-47b1-86f9-8ca8fddb6202","system_id":"levelo_inurba_marseille","lat":43.23068,"lon":5.35504,"is_reserved":false,"is_disabled":false,"rental_uris":{"android":"levelo://app?vid=1dc7ac1a-b527-47b1-86f9-8ca8fddb6202","ios":"levelo://app?vid=1dc7ac1a-b527-47b1-86f9-8ca8fddb6202"},"vehicle_type_id":"4","last_reported":1731337739,"current_range_meters":8400,"station_id":"cpo3342slgdg3j2ifvpg","pricing_plan_id":"cebpf4jnsgd1na2vs0mg"},{"bike_id":"a5379cc8-aca3-463b-9c9c-1562c0ff3ffe","system_id":"levelo_inurba_marseille","lat":43.24391,"lon":5.37052,"is_reserved":false,"is_disabled":false,"rental_uris":{"android":"levelo://app?vid=a5379cc8-aca3-463b-9c9c-1562c0ff3ffe","ios":"levelo://app?vid=a5379cc8-aca3-463b-9c9c-1562c0ff3ffe"},"vehicle_type_id":"4","last_reported":1731337739,"current_range_meters":30800,"station_id":"ce4bhhh2rcd13ifvqfk0","pricing_plan_id":"cebpf4jnsgd1na2vs0mg"},{"bike_id":"50dc8b7a-33bc-47bc-845c-130580c6a795","system_id":"levelo_inurba_marseille","lat":43.31166,"lon":5.38723,"is_reserved":false,"is_disabled":false,"rental_uris":{"android":"levelo://app?vid=50dc8b7a-33bc-47bc-845c-130580c6a795","ios":"levelo://app?vid=50dc8b7a-33bc-47bc-845c-130580c6a795"},"vehicle_type_id":"4","last_reported":1731337739,"current_range_meters":26000,"station_id":"ce4bgv12rcd13ifvqcp0","pricing_plan_id":"cebpf4jnsgd1na2vs0mg"},{"bike_id":"3fc39ebf-0213-4b83-8658-c6630267dc92","system_id":"levelo_inurba_marseille","lat":43.31142,"lon":5.384948,"is_reserved":false,"is_disabled":false,"rental_uris":{"android":"levelo://app?vid=3fc39ebf-0213-4b83-8658-c6630267dc92","ios":"levelo://app?vid=3fc39ebf-0213-4b83-8658-c6630267dc92"},"vehicle_type_id":"4","last_reported":1731337739,"current_range_meters":24000,"station_id":"ce4bgjh2rcd13ifvqbf0","pricing_plan_id":"cebpf4jnsgd1na2vs0mg"},{"bike_id":"4e736b8c-d8d3-4d2f-8953-399e25b357a0","system_id":"levelo_inurba_marseille","lat":43.29418,"lon":5.38628,"is_reserved":false,"is_disabled":false,"rental_uris":{"android":"levelo://app?vid=4e736b8c-d8d3-4d2f-8953-399e25b357a0","ios":"levelo://app?vid=4e736b8c-d8d3-4d2f-8953-399e25b357a0"},"vehicle_type_id":"4","last_reported":1731337739,"current_range_meters":37600,"station_id":"ce4bh2h2rcd13ifvqdh0","pricing_plan_id":"cebpf4jnsgd1na2vs0mg"},{"bike_id":"3b859eb5-4b02-4baa-883b-28e2e539ed61","system_id":"levelo_inurba_marseille","lat":43.27916,"lon":5.39574,"is_reserved":false,"is_disabled":false,"rental_uris":{"android":"levelo://app?vid=3b859eb5-4b02-4baa-883b-28e2e539ed61","ios":"levelo://app?vid=3b859eb5-4b02-4baa-883b-28e2e539ed61"},"vehicle_type_id":"4","last_reported":1731337739,"current_range_meters":28400,"station_id":"ce4bhf92rcd13ifvqf40","pricing_plan_id":"cebpf4jnsgd1na2vs0mg"},{"bike_id":"70a0c8b9-7dd1-4d8d-a096-ac9001d42116","system_id":"levelo_inurba_marseille","lat":43.28462,"lon":5.35883,"is_reserved":false,"is_disabled":false,"rental_uris":{"android":"levelo://app?vid=70a0c8b9-7dd1-4d8d-a096-ac9001d42116","ios":"levelo://app?vid=70a0c8b9-7dd1-4d8d-a096-ac9001d42116"},"vehicle_type_id":"4","last_reported":1731337739,"current_range_meters":16800,"station_id":"ce4bhah2rcd13ifvqei0","pricing_plan_id":"cebpf4jnsgd1na2vs0mg"},{"bike_id":"1bb21fc2-55e7-4feb-9e37-af35a7a6531b","system_id":"levelo_inurba_marseille","lat":43.2883,"lon":5.35845,"is_reserved":false,"is_disabled":false,"rental_uris":{"android":"levelo://app?vid=1bb21fc2-55e7-4feb-9e37-af35a7a6531b","ios":"levelo://app?vid=1bb21fc2-55e7-4feb-9e37-af35a7a6531b"},"vehicle_type_id":"4","last_reported":1731337739,"current_range_meters":35600,"station_id":"ce4bhb12rcd13ifvqem0","pricing_plan_id":"cebpf4jnsgd1na2vs0mg"},{"bike_id":"14d20505-09c3-49e6-b487-149678ce51b5","system_id":"levelo_inurba_marseille","lat":43.23195,"lon":5.35557,"is_reserved":false,"is_disabled":false,"rental_uris":{"android":"levelo://app?vid=14d20505-09c3-49e6-b487-149678ce51b5","ios":"levelo://app?vid=14d20505-09c3-49e6-b487-149678ce51b5"},"vehicle_type_id":"4","last_reported":1731337739,"current_range_meters":23200,"station_id":"ce4bhu92rcd13ifvqi70","pricing_plan_id":"cebpf4jnsgd1na2vs0mg"},{"bike_id":"c7f13ec4-2801-4cff-acf9-2528707f4a3d","system_id":"levelo_inurba_marseille","lat":43.27988,"lon":5.40015,"is_reserved":false,"is_disabled":false,"rental_uris":{"android":"levelo://app?vid=c7f13ec4-2801-4cff-acf9-2528707f4a3d","ios":"levelo://app?vid=c7f13ec4-2801-4cff-acf9-2528707f4a3d"},"vehicle_type_id":"4","last_reported":1731337739,"current_range_meters":27600,"station_id":"ce4bho92rcd13ifvqh4g","pricing_plan_id":"cebpf4jnsgd1na2vs0mg"},{"bike_id":"d2bd9332-8f9b-4e5f-b0ca-5e8e4a76daca","system_id":"levelo_inurba_marseille","lat":43.27611,"lon":5.36107,"is_reserved":false,"is_disabled":false,"rental_uris":{"android":"levelo://app?vid=d2bd9332-8f9b-4e5f-b0ca-5e8e4a76daca","ios":"levelo://app?vid=d2bd9332-8f9b-4e5f-b0ca-5e8e4a76daca"},"vehicle_type_id":"4","last_reported":1731337739,"current_range_meters":30000,"station_id":"ce4bgj92rcd13ifvqbe0","pricing_plan_id":"cebpf4jnsgd1na2vs0mg"},{"bike_id":"0389f6ba-9b11-4bae-aa59-6c887bee55e5","system_id":"levelo_inurba_marseille","lat":43.32283,"lon":5.38292,"is_reserved":false,"is_disabled":false,"rental_uris":{"android":"levelo://app?vid=0389f6ba-9b11-4bae-aa59-6c887bee55e5","ios":"levelo://app?vid=0389f6ba-9b11-4bae-aa59-6c887bee55e5"},"vehicle_type_id":"4","last_reported":1731337739,"current_range_meters":30400,"station_id":"ce4bhr12rcd13ifvqhqg","pricing_plan_id":"cebpf4jnsgd1na2vs0mg"},{"bike_id":"4a61f892-6a9b-4be2-a612-3ad60649d466","system_id":"levelo_inurba_marseille","lat":43.25003,"lon":5.38923,"is_reserved":false,"is_disabled":false,"rental_uris":{"android":"levelo://app?vid=4a61f892-6a9b-4be2-a612-3ad60649d466","ios":"levelo://app?vid=4a61f892-6a9b-4be2-a612-3ad60649d466"},"vehicle_type_id":"4","last_reported":1731337739,"current_range_meters":29600,"station_id":"ce4bhgp2rcd13ifvqfd0","pricing_plan_id":"cebpf4jnsgd1na2vs0mg"},{"bike_id":"29f3fefb-e306-4c09-a922-7d78895ebba5","system_id":"levelo_inurba_marseille","lat":43.23966,"lon":5.36629,"is_reserved":false,"is_disabled":false,"rental_uris":{"android":"levelo://app?vid=29f3fefb-e306-4c09-a922-7d78895ebba5","ios":"levelo://app?vid=29f3fefb-e306-4c09-a922-7d78895ebba5"},"vehicle_type_id":"4","last_reported":1731337739,"current_range_meters":24000,"station_id":"ce4bhi12rcd13ifvqfp0","pricing_plan_id":"cebpf4jnsgd1na2vs0mg"},{"bike_id":"223cb3dc-89db-437f-a733-d8ba2fd6c352","system_id":"levelo_inurba_marseille","lat":43.28269,"lon":5.35076,"is_reserved":false,"is_disabled":false,"rental_uris":{"android":"levelo://app?vid=223cb3dc-89db-437f-a733-d8ba2fd6c352","ios":"levelo://app?vid=223cb3dc-89db-437f-a733-d8ba2fd6c352"},"vehicle_type_id":"4","last_reported":1731337739,"current_range_meters":26000,"station_id":"ce4bhbp2rcd13ifvqerg","pricing_plan_id":"cebpf4jnsgd1na2vs0mg"},{"bike_id":"c1e70269-c155-460e-aa50-d5a936cbf590","system_id":"levelo_inurba_marseille","lat":43.23064,"lon":5.35494,"is_reserved":false,"is_disabled":false,"rental_uris":{"android":"levelo://app?vid=c1e70269-c155-460e-aa50-d5a936cbf590","ios":"levelo://app?vid=c1e70269-c155-460e-aa50-d5a936cbf590"},"vehicle_type_id":"4","last_reported":1731337739,"current_range_meters":34800,"station_id":"cpo3342slgdg3j2ifvpg","pricing_plan_id":"cebpf4jnsgd1na2vs0mg"},{"bike_id":"5d77ac71-310e-42bf-9bac-7c7779d1b0ab","system_id":"levelo_inurba_marseille","lat":43.25574,"lon":5.38235,"is_reserved":false,"is_disabled":false,"rental_uris":{"android":"levelo://app?vid=5d77ac71-310e-42bf-9bac-7c7779d1b0ab","ios":"levelo://app?vid=5d77ac71-310e-42bf-9bac-7c7779d1b0ab"},"vehicle_type_id":"4","last_reported":1731337739,"current_range_meters":30000,"station_id":"ce4bhih2rcd13ifvqfs0","pricing_plan_id":"cebpf4jnsgd1na2vs0mg"},{"bike_id":"a6045460-5038-48ba-9982-748890abe30d","system_id":"levelo_inurba_marseille","lat":43.28412,"lon":5.34993,"is_reserved":false,"is_disabled":false,"rental_uris":{"android":"levelo://app?vid=a6045460-5038-48ba-9982-748890abe30d","ios":"levelo://app?vid=a6045460-5038-48ba-9982-748890abe30d"},"vehicle_type_id":"4","last_reported":1731337739,"current_range_meters":38800,"station_id":"ce4bhbh2rcd13ifvqepg","pricing_plan_id":"cebpf4jnsgd1na2vs0mg"},{"bike_id":"f231988b-c677-4d61-8d18-d58a52fe96b5","system_id":"levelo_inurba_marseille","lat":43.25501,"lon":5.37655,"is_reserved":false,"is_disabled":false,"rental_uris":{"android":"levelo://app?vid=f231988b-c677-4d61-8d18-d58a52fe96b5","ios":"levelo://app?vid=f231988b-c677-4d61-8d18-d58a52fe96b5"},"vehicle_type_id":"4","last_reported":1731337739,"current_range_meters":39200,"station_id":"ce4bhh12rcd13ifvqff0","pricing_plan_id":"cebpf4jnsgd1na2vs0mg"},{"bike_id":"05b62862-8331-49c7-8a0f-0d0121269a5e","system_id":"levelo_inurba_marseille","lat":43.28407,"lon":5.34992,"is_reserved":false,"is_disabled":false,"rental_uris":{"android":"levelo://app?vid=05b62862-8331-49c7-8a0f-0d0121269a5e","ios":"levelo://app?vid=05b62862-8331-49c7-8a0f-0d0121269a5e"},"vehicle_type_id":"4","last_reported":1731337739,"current_range_meters":40000,"station_id":"ce4bhbh2rcd13ifvqepg","pricing_plan_id":"cebpf4jnsgd1na2vs0mg"},{"bike_id":"96b9ab94-7262-4e09-b6aa-bb658a02f5a4","system_id":"levelo_inurba_marseille","lat":43.27823,"lon":5.40729,"is_reserved":false,"is_disabled":false,"rental_uris":{"android":"levelo://app?vid=96b9ab94-7262-4e09-b6aa-bb658a02f5a4","ios":"levelo://app?vid=96b9ab94-7262-4e09-b6aa-bb658a02f5a4"},"vehicle_type_id":"4","last_reported":1731337739,"current_range_meters":27600,"station_id":"ce4bhnh2rcd13ifvqgtg","pricing_plan_id":"cebpf4jnsgd1na2vs0mg"},{"bike_id":"0ddc6cef-4a19-42a6-95a0-b546207e9d35","system_id":"levelo_inurba_marseille","lat":43.2319,"lon":5.35555,"is_reserved":false,"is_disabled":false,"rental_uris":{"android":"levelo://app?vid=0ddc6cef-4a19-42a6-95a0-b546207e9d35","ios":"levelo://app?vid=0ddc6cef-4a19-42a6-95a0-b546207e9d35"},"vehicle_type_id":"4","last_reported":1731337739,"current_range_meters":30800,"station_id":"ce4bhu92rcd13ifvqi70","pricing_plan_id":"cebpf4jnsgd1na2vs0mg"},{"bike_id":"b94c89c6-4b8c-4e22-82fd-e89eda3ebcd6","system_id":"levelo_inurba_marseille","lat":43.27811,"lon":5.40727,"is_reserved":false,"is_disabled":false,"rental_uris":{"android":"levelo://app?vid=b94c89c6-4b8c-4e22-82fd-e89eda3ebcd6","ios":"levelo://app?vid=b94c89c6-4b8c-4e22-82fd-e89eda3ebcd6"},"vehicle_type_id":"4","last_reported":1731337739,"current_range_meters":10800,"station_id":"ce4bhnh2rcd13ifvqgtg","pricing_plan_id":"cebpf4jnsgd1na2vs0mg"},{"bike_id":"15b5d19b-0f71-4c01-802c-12f58dcc6423","system_id":"levelo_inurba_marseille","lat":43.26567,"lon":5.39016,"is_reserved":false,"is_disabled":false,"rental_uris":{"android":"levelo://app?vid=15b5d19b-0f71-4c01-802c-12f58dcc6423","ios":"levelo://app?vid=15b5d19b-0f71-4c01-802c-12f58dcc6423"},"vehicle_type_id":"4","last_reported":1731337739,"current_range_meters":34800,"station_id":"ce4bhe12rcd13ifvqf30","pricing_plan_id":"cebpf4jnsgd1na2vs0mg"},{"bike_id":"ed342d4f-b0b3-4438-bdf7-a19fb2971c2f","system_id":"levelo_inurba_marseille","lat":43.24806,"lon":5.37464,"is_reserved":false,"is_disabled":false,"rental_uris":{"android":"levelo://app?vid=ed342d4f-b0b3-4438-bdf7-a19fb2971c2f","ios":"levelo://app?vid=ed342d4f-b0b3-4438-bdf7-a19fb2971c2f"},"vehicle_type_id":"4","last_reported":1731337739,"current_range_meters":25200,"station_id":"ce4bhgh2rcd13ifvqfb0","pricing_plan_id":"cebpf4jnsgd1na2vs0mg"},{"bike_id":"c4ee0c99-8506-449c-ada0-5e04cd9a6b1e","system_id":"levelo_inurba_marseille","lat":43.28859,"lon":5.39305,"is_reserved":false,"is_disabled":false,"rental_uris":{"android":"levelo://app?vid=c4ee0c99-8506-449c-ada0-5e04cd9a6b1e","ios":"levelo://app?vid=c4ee0c99-8506-449c-ada0-5e04cd9a6b1e"},"vehicle_type_id":"4","last_reported":1731337739,"current_range_meters":21600,"station_id":"ce4bh2p2rcd13ifvqdi0","pricing_plan_id":"cebpf4jnsgd1na2vs0mg"},{"bike_id":"82ce0d1a-35aa-4501-b8b0-471c54595dce","system_id":"levelo_inurba_marseille","lat":43.23963,"lon":5.36642,"is_reserved":false,"is_disabled":false,"rental_uris":{"android":"levelo://app?vid=82ce0d1a-35aa-4501-b8b0-471c54595dce","ios":"levelo://app?vid=82ce0d1a-35aa-4501-b8b0-471c54595dce"},"vehicle_type_id":"4","last_reported":1731337739,"current_range_meters":24000,"station_id":"ce4bhi12rcd13ifvqfp0","pricing_plan_id":"cebpf4jnsgd1na2vs0mg"},{"bike_id":"0f22c2a6-e94e-4f17-a7aa-0f3dc499945b","system_id":"levelo_inurba_marseille","lat":43.31712,"lon":5.43711,"is_reserved":false,"is_disabled":false,"rental_uris":{"android":"levelo://app?vid=0f22c2a6-e94e-4f17-a7aa-0f3dc499945b","ios":"levelo://app?vid=0f22c2a6-e94e-4f17-a7aa-0f3dc499945b"},"vehicle_type_id":"4","last_reported":1731337739,"current_range_meters":28800,"station_id":"ce4bhp92rcd13ifvqhcg","pricing_plan_id":"cebpf4jnsgd1na2vs0mg"},{"bike_id":"85849e39-f38e-4437-afbd-f8d706fa4b32","system_id":"levelo_inurba_marseille","lat":43.28413,"lon":5.34986,"is_reserved":false,"is_disabled":false,"rental_uris":{"android":"levelo://app?vid=85849e39-f38e-4437-afbd-f8d706fa4b32","ios":"levelo://app?vid=85849e39-f38e-4437-afbd-f8d706fa4b32"},"vehicle_type_id":"4","last_reported":1731337739,"current_range_meters":31200,"station_id":"ce4bhbh2rcd13ifvqepg","pricing_plan_id":"cebpf4jnsgd1na2vs0mg"},{"bike_id":"216df996-ebca-4609-84fd-16774870aa5f","system_id":"levelo_inurba_marseille","lat":43.26034,"lon":5.37553,"is_reserved":false,"is_disabled":false,"rental_uris":{"android":"levelo://app?vid=216df996-ebca-4609-84fd-16774870aa5f","ios":"levelo://app?vid=216df996-ebca-4609-84fd-16774870aa5f"},"vehicle_type_id":"4","last_reported":1731337739,"current_range_meters":24800,"station_id":"ce4bhgh2rcd13ifvqfa0","pricing_plan_id":"cebpf4jnsgd1na2vs0mg"},{"bike_id":"661d5acc-b484-4b55-a345-df081023ec30","system_id":"levelo_inurba_marseille","lat":43.27316,"lon":5.39085,"is_reserved":false,"is_disabled":false,"rental_uris":{"android":"levelo://app?vid=661d5acc-b484-4b55-a345-df081023ec30","ios":"levelo://app?vid=661d5acc-b484-4b55-a345-df081023ec30"},"vehicle_type_id":"4","last_reported":1731337739,"current_range_meters":36800,"station_id":"ce4bhgp2rcd13ifvqfe0","pricing_plan_id":"cebpf4jnsgd1na2vs0mg"},{"bike_id":"d5990e19-0551-4ad3-8c2a-d80513ba61ae","system_id":"levelo_inurba_marseille","lat":43.23194,"lon":5.35552,"is_reserved":false,"is_disabled":false,"rental_uris":{"android":"levelo://app?vid=d5990e19-0551-4ad3-8c2a-d80513ba61ae","ios":"levelo://app?vid=d5990e19-0551-4ad3-8c2a-d80513ba61ae"},"vehicle_type_id":"4","last_reported":1731337739,"current_range_meters":39200,"station_id":"ce4bhu92rcd13ifvqi70","pricing_plan_id":"cebpf4jnsgd1na2vs0mg"},{"bike_id":"b2f3adca-b446-441d-a1ab-5903c30fd432","system_id":"levelo_inurba_marseille","lat":43.33772,"lon":5.37447,"is_reserved":false,"is_disabled":false,"rental_uris":{"android":"levelo://app?vid=b2f3adca-b446-441d-a1ab-5903c30fd432","ios":"levelo://app?vid=b2f3adca-b446-441d-a1ab-5903c30fd432"},"vehicle_type_id":"4","last_reported":1731337739,"current_range_meters":10800,"station_id":"","pricing_plan_id":"cebpf4jnsgd1na2vs0mg"},{"bike_id":"45fbf89f-f078-47bb-bb9d-178d95b97f33","system_id":"levelo_inurba_marseille","lat":43.28152,"lon":5.4265,"is_reserved":false,"is_disabled":false,"rental_uris":{"android":"levelo://app?vid=45fbf89f-f078-47bb-bb9d-178d95b97f33","ios":"levelo://app?vid=45fbf89f-f078-47bb-bb9d-178d95b97f33"},"vehicle_type_id":"4","last_reported":1731337739,"current_range_meters":7200,"station_id":"ce4bhnh2rcd13ifvqgug","pricing_plan_id":"cebpf4jnsgd1na2vs0mg"},{"bike_id":"6e50c90e-0002-4d5d-a6aa-3d8628f231fb","system_id":"levelo_inurba_marseille","lat":43.2904,"lon":5.35916,"is_reserved":false,"is_disabled":false,"rental_uris":{"android":"levelo://app?vid=6e50c90e-0002-4d5d-a6aa-3d8628f231fb","ios":"levelo://app?vid=6e50c90e-0002-4d5d-a6aa-3d8628f231fb"},"vehicle_type_id":"4","last_reported":1731337739,"current_range_meters":6400,"station_id":"ce4bha92rcd13ifvqeg0","pricing_plan_id":"cebpf4jnsgd1na2vs0mg"},{"bike_id":"19fa704b-aa6a-4aee-9b85-b1d4bec7f4b0","system_id":"levelo_inurba_marseille","lat":43.2306,"lon":5.35497,"is_reserved":false,"is_disabled":false,"rental_uris":{"android":"levelo://app?vid=19fa704b-aa6a-4aee-9b85-b1d4bec7f4b0","ios":"levelo://app?vid=19fa704b-aa6a-4aee-9b85-b1d4bec7f4b0"},"vehicle_type_id":"4","last_reported":1731337739,"current_range_meters":11200,"station_id":"cpo3342slgdg3j2ifvpg","pricing_plan_id":"cebpf4jnsgd1na2vs0mg"},{"bike_id":"61d59144-939f-4582-9efc-d588c6421da9","system_id":"levelo_inurba_marseille","lat":43.24167,"lon":5.364,"is_reserved":false,"is_disabled":false,"rental_uris":{"android":"levelo://app?vid=61d59144-939f-4582-9efc-d588c6421da9","ios":"levelo://app?vid=61d59144-939f-4582-9efc-d588c6421da9"},"vehicle_type_id":"4","last_reported":1731337739,"current_range_meters":10800,"station_id":"cpo36qri1sfpv3e86is0","pricing_plan_id":"cebpf4jnsgd1na2vs0mg"},{"bike_id":"549c7648-1223-4cb7-9500-6ad52dc39b80","system_id":"levelo_inurba_marseille","lat":43.26032,"lon":5.37549,"is_reserved":false,"is_disabled":false,"rental_uris":{"android":"levelo://app?vid=549c7648-1223-4cb7-9500-6ad52dc39b80","ios":"levelo://app?vid=549c7648-1223-4cb7-9500-6ad52dc39b80"},"vehicle_type_id":"4","last_reported":1731337739,"current_range_meters":20400,"station_id":"ce4bhgh2rcd13ifvqfa0","pricing_plan_id":"cebpf4jnsgd1na2vs0mg"},{"bike_id":"b7181347-5adb-4b88-8701-597130d9ab12","system_id":"levelo_inurba_marseille","lat":43.27379,"lon":5.36258,"is_reserved":false,"is_disabled":false,"rental_uris":{"android":"levelo://app?vid=b7181347-5adb-4b88-8701-597130d9ab12","ios":"levelo://app?vid=b7181347-5adb-4b88-8701-597130d9ab12"},"vehicle_type_id":"4","last_reported":1731337739,"current_range_meters":22000,"station_id":"ce4bhbh2rcd13ifvqeo0","pricing_plan_id":"cebpf4jnsgd1na2vs0mg"},{"bike_id":"b72ca6e7-47e9-42be-9a97-b74e22acdc0e","system_id":"levelo_inurba_marseille","lat":43.32101,"lon":5.36784,"is_reserved":false,"is_disabled":false,"rental_uris":{"android":"levelo://app?vid=b72ca6e7-47e9-42be-9a97-b74e22acdc0e","ios":"levelo://app?vid=b72ca6e7-47e9-42be-9a97-b74e22acdc0e"},"vehicle_type_id":"4","last_reported":1731337739,"current_range_meters":30000,"station_id":"ce4bhrh2rcd13ifvqhug","pricing_plan_id":"cebpf4jnsgd1na2vs0mg"},{"bike_id":"b918d797-fe08-446e-aa3d-75603c2c3c85","system_id":"levelo_inurba_marseille","lat":43.27375,"lon":5.36261,"is_reserved":false,"is_disabled":false,"rental_uris":{"android":"levelo://app?vid=b918d797-fe08-446e-aa3d-75603c2c3c85","ios":"levelo://app?vid=b918d797-fe08-446e-aa3d-75603c2c3c85"},"vehicle_type_id":"4","last_reported":1731337739,"current_range_meters":38800,"station_id":"ce4bhbh2rcd13ifvqeo0","pricing_plan_id":"cebpf4jnsgd1na2vs0mg"},{"bike_id":"2bbb68e8-9d77-4ce0-ab08-77bb4deea9c5","system_id":"levelo_inurba_marseille","lat":43.24182,"lon":5.39719,"is_reserved":false,"is_disabled":false,"rental_uris":{"android":"levelo://app?vid=2bbb68e8-9d77-4ce0-ab08-77bb4deea9c5","ios":"levelo://app?vid=2bbb68e8-9d77-4ce0-ab08-77bb4deea9c5"},"vehicle_type_id":"4","last_reported":1731337739,"current_range_meters":32000,"station_id":"ce4bhn12rcd13ifvqgpg","pricing_plan_id":"cebpf4jnsgd1na2vs0mg"},{"bike_id":"46ebbe9d-b751-4aef-804c-1876f9e81d6c","system_id":"levelo_inurba_marseille","lat":43.28416,"lon":5.34997,"is_reserved":false,"is_disabled":false,"rental_uris":{"android":"levelo://app?vid=46ebbe9d-b751-4aef-804c-1876f9e81d6c","ios":"levelo://app?vid=46ebbe9d-b751-4aef-804c-1876f9e81d6c"},"vehicle_type_id":"4","last_reported":1731337739,"current_range_meters":31200,"station_id":"ce4bhbh2rcd13ifvqepg","pricing_plan_id":"cebpf4jnsgd1na2vs0mg"},{"bike_id":"0e76562e-553c-4e26-8a62-b4f19117316b","system_id":"levelo_inurba_marseille","lat":43.29549,"lon":5.42289,"is_reserved":false,"is_disabled":false,"rental_uris":{"android":"levelo://app?vid=0e76562e-553c-4e26-8a62-b4f19117316b","ios":"levelo://app?vid=0e76562e-553c-4e26-8a62-b4f19117316b"},"vehicle_type_id":"4","last_reported":1731337739,"current_range_meters":12000,"station_id":"ce4bhph2rcd13ifvqhdg","pricing_plan_id":"cebpf4jnsgd1na2vs0mg"},{"bike_id":"52a71ef5-8ef7-4a13-9edb-b931936b8cfb","system_id":"levelo_inurba_marseille","lat":43.33719,"lon":5.39194,"is_reserved":false,"is_disabled":false,"rental_uris":{"android":"levelo://app?vid=52a71ef5-8ef7-4a13-9edb-b931936b8cfb","ios":"levelo://app?vid=52a71ef5-8ef7-4a13-9edb-b931936b8cfb"},"vehicle_type_id":"4","last_reported":1731337739,"current_range_meters":30400,"station_id":"ce4bhr92rcd13ifvqhsg","pricing_plan_id":"cebpf4jnsgd1na2vs0mg"},{"bike_id":"0066a098-e53d-489b-8fd6-eab96991de80","system_id":"levelo_inurba_marseille","lat":43.337444,"lon":5.374475,"is_reserved":false,"is_disabled":false,"rental_uris":{"android":"levelo://app?vid=0066a098-e53d-489b-8fd6-eab96991de80","ios":"levelo://app?vid=0066a098-e53d-489b-8fd6-eab96991de80"},"vehicle_type_id":"4","last_reported":1731337739,"current_range_meters":38400,"station_id":"ce4bhnh2rcd13ifvqgtg","pricing_plan_id":"cebpf4jnsgd1na2vs0mg"},{"bike_id":"2ef372e4-58da-4185-8422-ad2f980d0ae2","system_id":"levelo_inurba_marseille","lat":43.29622,"lon":5.37711,"is_reserved":false,"is_disabled":false,"rental_uris":{"android":"levelo://app?vid=2ef372e4-58da-4185-8422-ad2f980d0ae2","ios":"levelo://app?vid=2ef372e4-58da-4185-8422-ad2f980d0ae2"},"vehicle_type_id":"4","last_reported":1731337739,"current_range_meters":16400,"station_id":"ce4bgi92rcd13ifvqb90","pricing_plan_id":"cebpf4jnsgd1na2vs0mg"},{"bike_id":"a880805a-5e20-4601-9aa4-5689575add7f","system_id":"levelo_inurba_marseille","lat":43.30588,"lon":5.39352,"is_reserved":false,"is_disabled":false,"rental_uris":{"android":"levelo://app?vid=a880805a-5e20-4601-9aa4-5689575add7f","ios":"levelo://app?vid=a880805a-5e20-4601-9aa4-5689575add7f"},"vehicle_type_id":"4","last_reported":1731337739,"current_range_meters":27600,"station_id":"ce4bgl12rcd13ifvqbo0","pricing_plan_id":"cebpf4jnsgd1na2vs0mg"},{"bike_id":"30a130ac-572b-4498-bc5f-bed403fa1550","system_id":"levelo_inurba_marseille","lat":43.337444,"lon":5.374475,"is_reserved":false,"is_disabled":false,"rental_uris":{"android":"levelo://app?vid=30a130ac-572b-4498-bc5f-bed403fa1550","ios":"levelo://app?vid=30a130ac-572b-4498-bc5f-bed403fa1550"},"vehicle_type_id":"4","last_reported":1731337739,"current_range_meters":34000,"station_id":"","pricing_plan_id":"cebpf4jnsgd1na2vs0mg"},{"bike_id":"16edd5e5-0497-4831-bb6b-d18eb7e92293","system_id":"levelo_inurba_marseille","lat":43.24808,"lon":5.37453,"is_reserved":false,"is_disabled":false,"rental_uris":{"android":"levelo://app?vid=16edd5e5-0497-4831-bb6b-d18eb7e92293","ios":"levelo://app?vid=16edd5e5-0497-4831-bb6b-d18eb7e92293"},"vehicle_type_id":"4","last_reported":1731337739,"current_range_meters":23200,"station_id":"ce4bhgh2rcd13ifvqfb0","pricing_plan_id":"cebpf4jnsgd1na2vs0mg"},{"bike_id":"0bf7ffdf-c141-401e-bd05-f65057ee34e9","system_id":"levelo_inurba_marseille","lat":43.29226,"lon":5.36057,"is_reserved":false,"is_disabled":false,"rental_uris":{"android":"levelo://app?vid=0bf7ffdf-c141-401e-bd05-f65057ee34e9","ios":"levelo://app?vid=0bf7ffdf-c141-401e-bd05-f65057ee34e9"},"vehicle_type_id":"4","last_reported":1731337739,"current_range_meters":36800,"station_id":"ce4bhbh2rcd13ifvqeqg","pricing_plan_id":"cebpf4jnsgd1na2vs0mg"},{"bike_id":"feb86f62-2c80-4064-8e38-33c5534046da","system_id":"levelo_inurba_marseille","lat":43.28204,"lon":5.3992,"is_reserved":false,"is_disabled":false,"rental_uris":{"android":"levelo://app?vid=feb86f62-2c80-4064-8e38-33c5534046da","ios":"levelo://app?vid=feb86f62-2c80-4064-8e38-33c5534046da"},"vehicle_type_id":"4","last_reported":1731337739,"current_range_meters":16000,"station_id":"","pricing_plan_id":"cebpf4jnsgd1na2vs0mg"},{"bike_id":"a2e0dbd8-6bb6-4f58-81e6-a5bb2ebfdca4","system_id":"levelo_inurba_marseille","lat":43.23194,"lon":5.35553,"is_reserved":false,"is_disabled":false,"rental_uris":{"android":"levelo://app?vid=a2e0dbd8-6bb6-4f58-81e6-a5bb2ebfdca4","ios":"levelo://app?vid=a2e0dbd8-6bb6-4f58-81e6-a5bb2ebfdca4"},"vehicle_type_id":"4","last_reported":1731337739,"current_range_meters":38800,"station_id":"ce4bhu92rcd13ifvqi70","pricing_plan_id":"cebpf4jnsgd1na2vs0mg"},{"bike_id":"b03abf6e-6eea-4ffb-ac28-9602aca8ca60","system_id":"levelo_inurba_marseille","lat":43.27493,"lon":5.42454,"is_reserved":false,"is_disabled":false,"rental_uris":{"android":"levelo://app?vid=b03abf6e-6eea-4ffb-ac28-9602aca8ca60","ios":"levelo://app?vid=b03abf6e-6eea-4ffb-ac28-9602aca8ca60"},"vehicle_type_id":"4","last_reported":1731337739,"current_range_meters":33200,"station_id":"ce4bhn92rcd13ifvqgrg","pricing_plan_id":"cebpf4jnsgd1na2vs0mg"},{"bike_id":"9e3f5526-dc45-4ee1-9c8e-05c036614c5b","system_id":"levelo_inurba_marseille","lat":43.248,"lon":5.37455,"is_reserved":false,"is_disabled":false,"rental_uris":{"android":"levelo://app?vid=9e3f5526-dc45-4ee1-9c8e-05c036614c5b","ios":"levelo://app?vid=9e3f5526-dc45-4ee1-9c8e-05c036614c5b"},"vehicle_type_id":"4","last_reported":1731337739,"current_range_meters":36400,"station_id":"ce4bhgh2rcd13ifvqfb0","pricing_plan_id":"cebpf4jnsgd1na2vs0mg"},{"bike_id":"d34bf5b5-25e3-4cbb-9654-ea9ef4a468a2","system_id":"levelo_inurba_marseille","lat":43.23948,"lon":5.36675,"is_reserved":false,"is_disabled":false,"rental_uris":{"android":"levelo://app?vid=d34bf5b5-25e3-4cbb-9654-ea9ef4a468a2","ios":"levelo://app?vid=d34bf5b5-25e3-4cbb-9654-ea9ef4a468a2"},"vehicle_type_id":"4","last_reported":1731337739,"current_range_meters":19600,"station_id":"ce4bhi12rcd13ifvqfp0","pricing_plan_id":"cebpf4jnsgd1na2vs0mg"},{"bike_id":"214cc0e5-bcc1-4cf2-9574-4ce8af4f29fd","system_id":"levelo_inurba_marseille","lat":43.251168,"lon":5.403161,"is_reserved":false,"is_disabled":false,"rental_uris":{"android":"levelo://app?vid=214cc0e5-bcc1-4cf2-9574-4ce8af4f29fd","ios":"levelo://app?vid=214cc0e5-bcc1-4cf2-9574-4ce8af4f29fd"},"vehicle_type_id":"4","last_reported":1731337739,"current_range_meters":12000,"station_id":"ce4bhi12rcd13ifvqfo0","pricing_plan_id":"cebpf4jnsgd1na2vs0mg"},{"bike_id":"ddc3eb59-4520-4a46-8489-a1519bcaf575","system_id":"levelo_inurba_marseille","lat":43.28614,"lon":5.35104,"is_reserved":false,"is_disabled":false,"rental_uris":{"android":"levelo://app?vid=ddc3eb59-4520-4a46-8489-a1519bcaf575","ios":"levelo://app?vid=ddc3eb59-4520-4a46-8489-a1519bcaf575"},"vehicle_type_id":"4","last_reported":1731337739,"current_range_meters":36400,"station_id":"ce4bhch2rcd13ifvqeug","pricing_plan_id":"cebpf4jnsgd1na2vs0mg"},{"bike_id":"d8e7aa58-ad05-4560-903b-d29be1a88b1d","system_id":"levelo_inurba_marseille","lat":43.29085,"lon":5.38132,"is_reserved":false,"is_disabled":false,"rental_uris":{"android":"levelo://app?vid=d8e7aa58-ad05-4560-903b-d29be1a88b1d","ios":"levelo://app?vid=d8e7aa58-ad05-4560-903b-d29be1a88b1d"},"vehicle_type_id":"4","last_reported":1731337739,"current_range_meters":8400,"station_id":"ce4bh512rcd13ifvqe2g","pricing_plan_id":"cebpf4jnsgd1na2vs0mg"},{"bike_id":"43b14cd0-89bb-4437-bd30-74acfcc0f07f","system_id":"levelo_inurba_marseille","lat":43.2907,"lon":5.37159,"is_reserved":false,"is_disabled":false,"rental_uris":{"android":"levelo://app?vid=43b14cd0-89bb-4437-bd30-74acfcc0f07f","ios":"levelo://app?vid=43b14cd0-89bb-4437-bd30-74acfcc0f07f"},"vehicle_type_id":"4","last_reported":1731337739,"current_range_meters":10000,"station_id":"ce4bh5p2rcd13ifvqe4g","pricing_plan_id":"cebpf4jnsgd1na2vs0mg"},{"bike_id":"0e1b6e24-8ebe-441d-ac01-cf4aede805b5","system_id":"levelo_inurba_marseille","lat":43.28854,"lon":5.35867,"is_reserved":false,"is_disabled":false,"rental_uris":{"android":"levelo://app?vid=0e1b6e24-8ebe-441d-ac01-cf4aede805b5","ios":"levelo://app?vid=0e1b6e24-8ebe-441d-ac01-cf4aede805b5"},"vehicle_type_id":"4","last_reported":1731337739,"current_range_meters":38800,"station_id":"ce4bhb12rcd13ifvqem0","pricing_plan_id":"cebpf4jnsgd1na2vs0mg"},{"bike_id":"a9279aec-fd42-446f-98f8-78f07cda3dc4","system_id":"levelo_inurba_marseille","lat":43.24168,"lon":5.36396,"is_reserved":false,"is_disabled":false,"rental_uris":{"android":"levelo://app?vid=a9279aec-fd42-446f-98f8-78f07cda3dc4","ios":"levelo://app?vid=a9279aec-fd42-446f-98f8-78f07cda3dc4"},"vehicle_type_id":"4","last_reported":1731337739,"current_range_meters":10800,"station_id":"cpo36qri1sfpv3e86is0","pricing_plan_id":"cebpf4jnsgd1na2vs0mg"},{"bike_id":"412062b4-0805-4e54-aead-77124e15f488","system_id":"levelo_inurba_marseille","lat":43.28003,"lon":5.41657,"is_reserved":false,"is_disabled":false,"rental_uris":{"android":"levelo://app?vid=412062b4-0805-4e54-aead-77124e15f488","ios":"levelo://app?vid=412062b4-0805-4e54-aead-77124e15f488"},"vehicle_type_id":"4","last_reported":1731337739,"current_range_meters":28000,"station_id":"ce4bho12rcd13ifvqh1g","pricing_plan_id":"cebpf4jnsgd1na2vs0mg"},{"bike_id":"106cc77c-122d-43e9-b84f-d8544cad5890","system_id":"levelo_inurba_marseille","lat":43.28973,"lon":5.36709,"is_reserved":false,"is_disabled":false,"rental_uris":{"android":"levelo://app?vid=106cc77c-122d-43e9-b84f-d8544cad5890","ios":"levelo://app?vid=106cc77c-122d-43e9-b84f-d8544cad5890"},"vehicle_type_id":"4","last_reported":1731337739,"current_range_meters":30800,"station_id":"","pricing_plan_id":"cebpf4jnsgd1na2vs0mg"},{"bike_id":"b16943e1-6e4b-4767-8789-7da828786277","system_id":"levelo_inurba_marseille","lat":43.34183,"lon":5.38614,"is_reserved":false,"is_disabled":false,"rental_uris":{"android":"levelo://app?vid=b16943e1-6e4b-4767-8789-7da828786277","ios":"levelo://app?vid=b16943e1-6e4b-4767-8789-7da828786277"},"vehicle_type_id":"4","last_reported":1731337739,"current_range_meters":12400,"station_id":"","pricing_plan_id":"cebpf4jnsgd1na2vs0mg"},{"bike_id":"2992d2a5-2394-490d-b745-63dbb7eb11f2","system_id":"levelo_inurba_marseille","lat":43.28457,"lon":5.35884,"is_reserved":false,"is_disabled":false,"rental_uris":{"android":"levelo://app?vid=2992d2a5-2394-490d-b745-63dbb7eb11f2","ios":"levelo://app?vid=2992d2a5-2394-490d-b745-63dbb7eb11f2"},"vehicle_type_id":"4","last_reported":1731337739,"current_range_meters":18800,"station_id":"ce4bhah2rcd13ifvqei0","pricing_plan_id":"cebpf4jnsgd1na2vs0mg"},{"bike_id":"0e8fe75d-ba6e-4003-8100-3968d3249175","system_id":"levelo_inurba_marseille","lat":43.24071,"lon":5.37767,"is_reserved":false,"is_disabled":false,"rental_uris":{"android":"levelo://app?vid=0e8fe75d-ba6e-4003-8100-3968d3249175","ios":"levelo://app?vid=0e8fe75d-ba6e-4003-8100-3968d3249175"},"vehicle_type_id":"4","last_reported":1731337739,"current_range_meters":26000,"station_id":"ce4bhnp2rcd13ifvqgvg","pricing_plan_id":"cebpf4jnsgd1na2vs0mg"},{"bike_id":"3fead4d3-c851-4846-a3cd-c06fa9dfa28a","system_id":"levelo_inurba_marseille","lat":43.27945,"lon":5.41049,"is_reserved":false,"is_disabled":false,"rental_uris":{"android":"levelo://app?vid=3fead4d3-c851-4846-a3cd-c06fa9dfa28a","ios":"levelo://app?vid=3fead4d3-c851-4846-a3cd-c06fa9dfa28a"},"vehicle_type_id":"4","last_reported":1731337739,"current_range_meters":8400,"station_id":"ce4bhnp2rcd13ifvqh0g","pricing_plan_id":"cebpf4jnsgd1na2vs0mg"},{"bike_id":"f69fd271-b659-4e5e-85a2-4369393b4a84","system_id":"levelo_inurba_marseille","lat":43.30178,"lon":5.36627,"is_reserved":false,"is_disabled":false,"rental_uris":{"android":"levelo://app?vid=f69fd271-b659-4e5e-85a2-4369393b4a84","ios":"levelo://app?vid=f69fd271-b659-4e5e-85a2-4369393b4a84"},"vehicle_type_id":"4","last_reported":1731337739,"current_range_meters":35200,"station_id":"ce4bgrh2rcd13ifvqc8g","pricing_plan_id":"cebpf4jnsgd1na2vs0mg"},{"bike_id":"dc12c22a-8cf2-4528-b50b-ec412d178453","system_id":"levelo_inurba_marseille","lat":43.31728,"lon":5.42398,"is_reserved":false,"is_disabled":false,"rental_uris":{"android":"levelo://app?vid=dc12c22a-8cf2-4528-b50b-ec412d178453","ios":"levelo://app?vid=dc12c22a-8cf2-4528-b50b-ec412d178453"},"vehicle_type_id":"4","last_reported":1731337739,"current_range_meters":30000,"station_id":"ce4bhp92rcd13ifvqhbg","pricing_plan_id":"cebpf4jnsgd1na2vs0mg"},{"bike_id":"3dfc655f-dc40-40e1-adc8-dad4496f2e4c","system_id":"levelo_inurba_marseille","lat":43.23961,"lon":5.36641,"is_reserved":false,"is_disabled":false,"rental_uris":{"android":"levelo://app?vid=3dfc655f-dc40-40e1-adc8-dad4496f2e4c","ios":"levelo://app?vid=3dfc655f-dc40-40e1-adc8-dad4496f2e4c"},"vehicle_type_id":"4","last_reported":1731337739,"current_range_meters":35200,"station_id":"ce4bhi12rcd13ifvqfp0","pricing_plan_id":"cebpf4jnsgd1na2vs0mg"},{"bike_id":"670a0569-1cd2-4534-816e-2223647a4790","system_id":"levelo_inurba_marseille","lat":43.337444,"lon":5.374475,"is_reserved":false,"is_disabled":false,"rental_uris":{"android":"levelo://app?vid=670a0569-1cd2-4534-816e-2223647a4790","ios":"levelo://app?vid=670a0569-1cd2-4534-816e-2223647a4790"},"vehicle_type_id":"4","last_reported":1731337739,"current_range_meters":36000,"station_id":"","pricing_plan_id":"cebpf4jnsgd1na2vs0mg"},{"bike_id":"2678dba8-96db-431b-8501-19eb207e0f6b","system_id":"levelo_inurba_marseille","lat":43.28453,"lon":5.35893,"is_reserved":false,"is_disabled":false,"rental_uris":{"android":"levelo://app?vid=2678dba8-96db-431b-8501-19eb207e0f6b","ios":"levelo://app?vid=2678dba8-96db-431b-8501-19eb207e0f6b"},"vehicle_type_id":"4","last_reported":1731337739,"current_range_meters":38800,"station_id":"ce4bhah2rcd13ifvqei0","pricing_plan_id":"cebpf4jnsgd1na2vs0mg"},{"bike_id":"998dc545-5f7e-485a-a63a-44de7e4b4540","system_id":"levelo_inurba_marseille","lat":43.31479,"lon":5.37309,"is_reserved":false,"is_disabled":false,"rental_uris":{"android":"levelo://app?vid=998dc545-5f7e-485a-a63a-44de7e4b4540","ios":"levelo://app?vid=998dc545-5f7e-485a-a63a-44de7e4b4540"},"vehicle_type_id":"4","last_reported":1731337739,"current_range_meters":19200,"station_id":"ce4bgt12rcd13ifvqcd0","pricing_plan_id":"cebpf4jnsgd1na2vs0mg"},{"bike_id":"cda4d5ca-16db-4d45-9822-14141a1915b8","system_id":"levelo_inurba_marseille","lat":43.3172,"lon":5.42401,"is_reserved":false,"is_disabled":false,"rental_uris":{"android":"levelo://app?vid=cda4d5ca-16db-4d45-9822-14141a1915b8","ios":"levelo://app?vid=cda4d5ca-16db-4d45-9822-14141a1915b8"},"vehicle_type_id":"4","last_reported":1731337739,"current_range_meters":12400,"station_id":"ce4bhp92rcd13ifvqhbg","pricing_plan_id":"cebpf4jnsgd1na2vs0mg"},{"bike_id":"ac18b882-d9e8-4e91-a9db-7312f9ca8dd4","system_id":"levelo_inurba_marseille","lat":43.28929,"lon":5.39645,"is_reserved":false,"is_disabled":false,"rental_uris":{"android":"levelo://app?vid=ac18b882-d9e8-4e91-a9db-7312f9ca8dd4","ios":"levelo://app?vid=ac18b882-d9e8-4e91-a9db-7312f9ca8dd4"},"vehicle_type_id":"4","last_reported":1731337739,"current_range_meters":17600,"station_id":"ce4bhg12rcd13ifvqf80","pricing_plan_id":"cebpf4jnsgd1na2vs0mg"},{"bike_id":"2e953deb-b0ff-40a8-976e-9504b36c8ff3","system_id":"levelo_inurba_marseille","lat":43.33748,"lon":5.37463,"is_reserved":false,"is_disabled":false,"rental_uris":{"android":"levelo://app?vid=2e953deb-b0ff-40a8-976e-9504b36c8ff3","ios":"levelo://app?vid=2e953deb-b0ff-40a8-976e-9504b36c8ff3"},"vehicle_type_id":"4","last_reported":1731337739,"current_range_meters":9600,"station_id":"","pricing_plan_id":"cebpf4jnsgd1na2vs0mg"},{"bike_id":"fc1d4d1e-0096-4862-b51f-40c5798e9b1b","system_id":"levelo_inurba_marseille","lat":43.29974,"lon":5.37178,"is_reserved":false,"is_disabled":false,"rental_uris":{"android":"levelo://app?vid=fc1d4d1e-0096-4862-b51f-40c5798e9b1b","ios":"levelo://app?vid=fc1d4d1e-0096-4862-b51f-40c5798e9b1b"},"vehicle_type_id":"4","last_reported":1731337739,"current_range_meters":29600,"station_id":"ce4bgr92rcd13ifvqc7g","pricing_plan_id":"cebpf4jnsgd1na2vs0mg"},{"bike_id":"91590a60-07bc-48e4-b7f5-d2c2149e5699","system_id":"levelo_inurba_marseille","lat":43.25827,"lon":5.39441,"is_reserved":false,"is_disabled":false,"rental_uris":{"android":"levelo://app?vid=91590a60-07bc-48e4-b7f5-d2c2149e5699","ios":"levelo://app?vid=91590a60-07bc-48e4-b7f5-d2c2149e5699"},"vehicle_type_id":"4","last_reported":1731337739,"current_range_meters":26800,"station_id":"ce4bhip2rcd13ifvqft0","pricing_plan_id":"cebpf4jnsgd1na2vs0mg"},{"bike_id":"dbd90aed-ee13-49a9-b118-b0ab9f7706ee","system_id":"levelo_inurba_marseille","lat":43.28723,"lon":5.36084,"is_reserved":false,"is_disabled":false,"rental_uris":{"android":"levelo://app?vid=dbd90aed-ee13-49a9-b118-b0ab9f7706ee","ios":"levelo://app?vid=dbd90aed-ee13-49a9-b118-b0ab9f7706ee"},"vehicle_type_id":"4","last_reported":1731337739,"current_range_meters":14800,"station_id":"cki0cbj6b192h4jlfktg","pricing_plan_id":"cebpf4jnsgd1na2vs0mg"},{"bike_id":"5b86b072-d114-4fe3-b97d-b7eec3b13ee7","system_id":"levelo_inurba_marseille","lat":43.2593,"lon":5.40916,"is_reserved":false,"is_disabled":false,"rental_uris":{"android":"levelo://app?vid=5b86b072-d114-4fe3-b97d-b7eec3b13ee7","ios":"levelo://app?vid=5b86b072-d114-4fe3-b97d-b7eec3b13ee7"},"vehicle_type_id":"4","last_reported":1731337739,"current_range_meters":4800,"station_id":"ce4bhm92rcd13ifvqglg","pricing_plan_id":"cebpf4jnsgd1na2vs0mg"},{"bike_id":"4534de4e-3589-405d-bc26-29f2857dfb4a","system_id":"levelo_inurba_marseille","lat":43.2884,"lon":5.35834,"is_reserved":false,"is_disabled":false,"rental_uris":{"android":"levelo://app?vid=4534de4e-3589-405d-bc26-29f2857dfb4a","ios":"levelo://app?vid=4534de4e-3589-405d-bc26-29f2857dfb4a"},"vehicle_type_id":"4","last_reported":1731337739,"current_range_meters":36000,"station_id":"ce4bhb12rcd13ifvqem0","pricing_plan_id":"cebpf4jnsgd1na2vs0mg"},{"bike_id":"c5222783-c5ca-4f71-949e-7508f94952eb","system_id":"levelo_inurba_marseille","lat":43.28274,"lon":5.3507,"is_reserved":false,"is_disabled":false,"rental_uris":{"android":"levelo://app?vid=c5222783-c5ca-4f71-949e-7508f94952eb","ios":"levelo://app?vid=c5222783-c5ca-4f71-949e-7508f94952eb"},"vehicle_type_id":"4","last_reported":1731337739,"current_range_meters":39200,"station_id":"ce4bhbp2rcd13ifvqerg","pricing_plan_id":"cebpf4jnsgd1na2vs0mg"},{"bike_id":"dafce56d-e09b-4261-9d38-4e21f2ad627e","system_id":"levelo_inurba_marseille","lat":43.27917,"lon":5.39584,"is_reserved":false,"is_disabled":false,"rental_uris":{"android":"levelo://app?vid=dafce56d-e09b-4261-9d38-4e21f2ad627e","ios":"levelo://app?vid=dafce56d-e09b-4261-9d38-4e21f2ad627e"},"vehicle_type_id":"4","last_reported":1731337739,"current_range_meters":27200,"station_id":"ce4bhf92rcd13ifvqf40","pricing_plan_id":"cebpf4jnsgd1na2vs0mg"},{"bike_id":"d1c6e8af-eddd-44c1-9054-4b0fd729beb7","system_id":"levelo_inurba_marseille","lat":43.32339,"lon":5.40641,"is_reserved":false,"is_disabled":false,"rental_uris":{"android":"levelo://app?vid=d1c6e8af-eddd-44c1-9054-4b0fd729beb7","ios":"levelo://app?vid=d1c6e8af-eddd-44c1-9054-4b0fd729beb7"},"vehicle_type_id":"4","last_reported":1731337739,"current_range_meters":3200,"station_id":"ce4bhq92rcd13ifvqhjg","pricing_plan_id":"cebpf4jnsgd1na2vs0mg"},{"bike_id":"fdbc2a9e-7944-4253-9ffb-4970ecb27c14","system_id":"levelo_inurba_marseille","lat":43.32106,"lon":5.36781,"is_reserved":false,"is_disabled":false,"rental_uris":{"android":"levelo://app?vid=fdbc2a9e-7944-4253-9ffb-4970ecb27c14","ios":"levelo://app?vid=fdbc2a9e-7944-4253-9ffb-4970ecb27c14"},"vehicle_type_id":"4","last_reported":1731337739,"current_range_meters":28800,"station_id":"ce4bhrh2rcd13ifvqhug","pricing_plan_id":"cebpf4jnsgd1na2vs0mg"},{"bike_id":"f56850d5-898d-4f35-a94f-20bf0c82bceb","system_id":"levelo_inurba_marseille","lat":43.2781,"lon":5.40716,"is_reserved":false,"is_disabled":false,"rental_uris":{"android":"levelo://app?vid=f56850d5-898d-4f35-a94f-20bf0c82bceb","ios":"levelo://app?vid=f56850d5-898d-4f35-a94f-20bf0c82bceb"},"vehicle_type_id":"4","last_reported":1731337739,"current_range_meters":28800,"station_id":"ce4bhnh2rcd13ifvqgtg","pricing_plan_id":"cebpf4jnsgd1na2vs0mg"},{"bike_id":"09be4196-db9d-45ef-82bb-999cf536196d","system_id":"levelo_inurba_marseille","lat":43.28454,"lon":5.35888,"is_reserved":false,"is_disabled":false,"rental_uris":{"android":"levelo://app?vid=09be4196-db9d-45ef-82bb-999cf536196d","ios":"levelo://app?vid=09be4196-db9d-45ef-82bb-999cf536196d"},"vehicle_type_id":"4","last_reported":1731337739,"current_range_meters":34800,"station_id":"ce4bhah2rcd13ifvqei0","pricing_plan_id":"cebpf4jnsgd1na2vs0mg"},{"bike_id":"adba6c2e-d94e-493f-9129-3a714de0e7bc","system_id":"levelo_inurba_marseille","lat":43.33024,"lon":5.39046,"is_reserved":false,"is_disabled":false,"rental_uris":{"android":"levelo://app?vid=adba6c2e-d94e-493f-9129-3a714de0e7bc","ios":"levelo://app?vid=adba6c2e-d94e-493f-9129-3a714de0e7bc"},"vehicle_type_id":"4","last_reported":1731337739,"current_range_meters":38800,"station_id":"ce4bhr92rcd13ifvqhrg","pricing_plan_id":"cebpf4jnsgd1na2vs0mg"},{"bike_id":"02b05c13-95e5-4ce2-a518-51cb2642ad82","system_id":"levelo_inurba_marseille","lat":43.24667,"lon":5.38162,"is_reserved":false,"is_disabled":false,"rental_uris":{"android":"levelo://app?vid=02b05c13-95e5-4ce2-a518-51cb2642ad82","ios":"levelo://app?vid=02b05c13-95e5-4ce2-a518-51cb2642ad82"},"vehicle_type_id":"4","last_reported":1731337739,"current_range_meters":19200,"station_id":"ce4bhih2rcd13ifvqfr0","pricing_plan_id":"cebpf4jnsgd1na2vs0mg"},{"bike_id":"82c9b95f-7670-46d2-8de1-1c40015bfade","system_id":"levelo_inurba_marseille","lat":43.28936,"lon":5.36646,"is_reserved":false,"is_disabled":false,"rental_uris":{"android":"levelo://app?vid=82c9b95f-7670-46d2-8de1-1c40015bfade","ios":"levelo://app?vid=82c9b95f-7670-46d2-8de1-1c40015bfade"},"vehicle_type_id":"4","last_reported":1731337739,"current_range_meters":36400,"station_id":"ce4bhap2rcd13ifvqek0","pricing_plan_id":"cebpf4jnsgd1na2vs0mg"},{"bike_id":"8daf8490-2c90-4a03-9082-a85c8a022a49","system_id":"levelo_inurba_marseille","lat":43.29029,"lon":5.37548,"is_reserved":false,"is_disabled":false,"rental_uris":{"android":"levelo://app?vid=8daf8490-2c90-4a03-9082-a85c8a022a49","ios":"levelo://app?vid=8daf8490-2c90-4a03-9082-a85c8a022a49"},"vehicle_type_id":"4","last_reported":1731337739,"current_range_meters":36400,"station_id":"ce4bh692rcd13ifvqe90","pricing_plan_id":"cebpf4jnsgd1na2vs0mg"},{"bike_id":"91d27678-9fb5-4cf2-a1c3-8861feddf228","system_id":"levelo_inurba_marseille","lat":43.2319,"lon":5.35552,"is_reserved":false,"is_disabled":false,"rental_uris":{"android":"levelo://app?vid=91d27678-9fb5-4cf2-a1c3-8861feddf228","ios":"levelo://app?vid=91d27678-9fb5-4cf2-a1c3-8861feddf228"},"vehicle_type_id":"4","last_reported":1731337739,"current_range_meters":36800,"station_id":"ce4bhu92rcd13ifvqi70","pricing_plan_id":"cebpf4jnsgd1na2vs0mg"},{"bike_id":"e5677edb-b8c8-49ed-972a-8ff04966b521","system_id":"levelo_inurba_marseille","lat":43.30341,"lon":5.40426,"is_reserved":false,"is_disabled":false,"rental_uris":{"android":"levelo://app?vid=e5677edb-b8c8-49ed-972a-8ff04966b521","ios":"levelo://app?vid=e5677edb-b8c8-49ed-972a-8ff04966b521"},"vehicle_type_id":"4","last_reported":1731337739,"current_range_meters":27200,"station_id":"ce4bh012rcd13ifvqd10","pricing_plan_id":"cebpf4jnsgd1na2vs0mg"},{"bike_id":"f27a5891-2fb2-42b1-acbc-b0fa1b834f74","system_id":"levelo_inurba_marseille","lat":43.31253,"lon":5.40162,"is_reserved":false,"is_disabled":false,"rental_uris":{"android":"levelo://app?vid=f27a5891-2fb2-42b1-acbc-b0fa1b834f74","ios":"levelo://app?vid=f27a5891-2fb2-42b1-acbc-b0fa1b834f74"},"vehicle_type_id":"4","last_reported":1731337739,"current_range_meters":32800,"station_id":"ce4bh092rcd13ifvqd30","pricing_plan_id":"cebpf4jnsgd1na2vs0mg"},{"bike_id":"196d96e7-39b9-404d-9f03-63d715e7eebd","system_id":"levelo_inurba_marseille","lat":43.28152,"lon":5.42648,"is_reserved":false,"is_disabled":false,"rental_uris":{"android":"levelo://app?vid=196d96e7-39b9-404d-9f03-63d715e7eebd","ios":"levelo://app?vid=196d96e7-39b9-404d-9f03-63d715e7eebd"},"vehicle_type_id":"4","last_reported":1731337739,"current_range_meters":3600,"station_id":"ce4bhnh2rcd13ifvqgug","pricing_plan_id":"cebpf4jnsgd1na2vs0mg"},{"bike_id":"4dc0e3bd-ab9c-461a-835f-d4784d7b8326","system_id":"levelo_inurba_marseille","lat":43.31321,"lon":5.42371,"is_reserved":false,"is_disabled":false,"rental_uris":{"android":"levelo://app?vid=4dc0e3bd-ab9c-461a-835f-d4784d7b8326","ios":"levelo://app?vid=4dc0e3bd-ab9c-461a-835f-d4784d7b8326"},"vehicle_type_id":"4","last_reported":1731337739,"current_range_meters":8400,"station_id":"ce4bhp92rcd13ifvqhcg","pricing_plan_id":"cebpf4jnsgd1na2vs0mg"},{"bike_id":"8e3d5b00-e559-4ba4-8506-b31b8a4e5008","system_id":"levelo_inurba_marseille","lat":43.28414,"lon":5.3499,"is_reserved":false,"is_disabled":false,"rental_uris":{"android":"levelo://app?vid=8e3d5b00-e559-4ba4-8506-b31b8a4e5008","ios":"levelo://app?vid=8e3d5b00-e559-4ba4-8506-b31b8a4e5008"},"vehicle_type_id":"4","last_reported":1731337739,"current_range_meters":39200,"station_id":"ce4bhbh2rcd13ifvqepg","pricing_plan_id":"cebpf4jnsgd1na2vs0mg"},{"bike_id":"52cbd37b-1529-4980-ae8a-b78e49fdebce","system_id":"levelo_inurba_marseille","lat":43.23955,"lon":5.36636,"is_reserved":false,"is_disabled":false,"rental_uris":{"android":"levelo://app?vid=52cbd37b-1529-4980-ae8a-b78e49fdebce","ios":"levelo://app?vid=52cbd37b-1529-4980-ae8a-b78e49fdebce"},"vehicle_type_id":"4","last_reported":1731337739,"current_range_meters":6800,"station_id":"ce4bhi12rcd13ifvqfp0","pricing_plan_id":"cebpf4jnsgd1na2vs0mg"},{"bike_id":"46c2f473-1e6c-41b6-ab8f-926ec93aca43","system_id":"levelo_inurba_marseille","lat":43.27495,"lon":5.42452,"is_reserved":false,"is_disabled":false,"rental_uris":{"android":"levelo://app?vid=46c2f473-1e6c-41b6-ab8f-926ec93aca43","ios":"levelo://app?vid=46c2f473-1e6c-41b6-ab8f-926ec93aca43"},"vehicle_type_id":"4","last_reported":1731337739,"current_range_meters":21600,"station_id":"ce4bhn92rcd13ifvqgrg","pricing_plan_id":"cebpf4jnsgd1na2vs0mg"},{"bike_id":"c30c7c17-b515-4143-9517-47b104debd66","system_id":"levelo_inurba_marseille","lat":43.337444,"lon":5.374475,"is_reserved":false,"is_disabled":false,"rental_uris":{"android":"levelo://app?vid=c30c7c17-b515-4143-9517-47b104debd66","ios":"levelo://app?vid=c30c7c17-b515-4143-9517-47b104debd66"},"vehicle_type_id":"4","last_reported":1731337739,"current_range_meters":10000,"station_id":"","pricing_plan_id":"cebpf4jnsgd1na2vs0mg"},{"bike_id":"a3737c00-2b24-45c7-87f6-a52becd1e5b4","system_id":"levelo_inurba_marseille","lat":43.27074,"lon":5.37997,"is_reserved":false,"is_disabled":false,"rental_uris":{"android":"levelo://app?vid=a3737c00-2b24-45c7-87f6-a52becd1e5b4","ios":"levelo://app?vid=a3737c00-2b24-45c7-87f6-a52becd1e5b4"},"vehicle_type_id":"4","last_reported":1731337739,"current_range_meters":30800,"station_id":"","pricing_plan_id":"cebpf4jnsgd1na2vs0mg"},{"bike_id":"1d2be291-e7bd-4203-8c56-e25289f5284d","system_id":"levelo_inurba_marseille","lat":43.23959,"lon":5.3663,"is_reserved":false,"is_disabled":false,"rental_uris":{"android":"levelo://app?vid=1d2be291-e7bd-4203-8c56-e25289f5284d","ios":"levelo://app?vid=1d2be291-e7bd-4203-8c56-e25289f5284d"},"vehicle_type_id":"4","last_reported":1731337739,"current_range_meters":28000,"station_id":"ce4bhi12rcd13ifvqfp0","pricing_plan_id":"cebpf4jnsgd1na2vs0mg"},{"bike_id":"1535e82a-fdee-4999-904d-6b56b6f682b2","system_id":"levelo_inurba_marseille","lat":43.23961,"lon":5.36638,"is_reserved":false,"is_disabled":false,"rental_uris":{"android":"levelo://app?vid=1535e82a-fdee-4999-904d-6b56b6f682b2","ios":"levelo://app?vid=1535e82a-fdee-4999-904d-6b56b6f682b2"},"vehicle_type_id":"4","last_reported":1731337739,"current_range_meters":16000,"station_id":"ce4bhi12rcd13ifvqfp0","pricing_plan_id":"cebpf4jnsgd1na2vs0mg"},{"bike_id":"411837cc-71c9-4190-9fad-d7aaffbacce8","system_id":"levelo_inurba_marseille","lat":43.28261,"lon":5.35076,"is_reserved":false,"is_disabled":false,"rental_uris":{"android":"levelo://app?vid=411837cc-71c9-4190-9fad-d7aaffbacce8","ios":"levelo://app?vid=411837cc-71c9-4190-9fad-d7aaffbacce8"},"vehicle_type_id":"4","last_reported":1731337739,"current_range_meters":38800,"station_id":"ce4bhbp2rcd13ifvqerg","pricing_plan_id":"cebpf4jnsgd1na2vs0mg"},{"bike_id":"3c8af3c5-bb73-4ccb-bf1c-ce6f9151d77c","system_id":"levelo_inurba_marseille","lat":43.23964,"lon":5.36642,"is_reserved":false,"is_disabled":false,"rental_uris":{"android":"levelo://app?vid=3c8af3c5-bb73-4ccb-bf1c-ce6f9151d77c","ios":"levelo://app?vid=3c8af3c5-bb73-4ccb-bf1c-ce6f9151d77c"},"vehicle_type_id":"4","last_reported":1731337739,"current_range_meters":39200,"station_id":"ce4bhi12rcd13ifvqfp0","pricing_plan_id":"cebpf4jnsgd1na2vs0mg"},{"bike_id":"22a9c8a0-c214-4eb1-ab32-77ae8fe21245","system_id":"levelo_inurba_marseille","lat":43.31263,"lon":5.40178,"is_reserved":false,"is_disabled":false,"rental_uris":{"android":"levelo://app?vid=22a9c8a0-c214-4eb1-ab32-77ae8fe21245","ios":"levelo://app?vid=22a9c8a0-c214-4eb1-ab32-77ae8fe21245"},"vehicle_type_id":"4","last_reported":1731337739,"current_range_meters":16400,"station_id":"ce4bh092rcd13ifvqd30","pricing_plan_id":"cebpf4jnsgd1na2vs0mg"},{"bike_id":"521e275b-b4dc-47c2-8732-60c94343a39a","system_id":"levelo_inurba_marseille","lat":43.25868,"lon":5.39891,"is_reserved":false,"is_disabled":false,"rental_uris":{"android":"levelo://app?vid=521e275b-b4dc-47c2-8732-60c94343a39a","ios":"levelo://app?vid=521e275b-b4dc-47c2-8732-60c94343a39a"},"vehicle_type_id":"4","last_reported":1731337739,"current_range_meters":6000,"station_id":"ce4bhl92rcd13ifvqghg","pricing_plan_id":"cebpf4jnsgd1na2vs0mg"},{"bike_id":"cc025f2c-f32e-49be-ba17-795e0d5a10a6","system_id":"levelo_inurba_marseille","lat":43.305786,"lon":5.384129,"is_reserved":false,"is_disabled":false,"rental_uris":{"android":"levelo://app?vid=cc025f2c-f32e-49be-ba17-795e0d5a10a6","ios":"levelo://app?vid=cc025f2c-f32e-49be-ba17-795e0d5a10a6"},"vehicle_type_id":"4","last_reported":1731337739,"current_range_meters":19200,"station_id":"ce4bgg92rcd13ifvqb30","pricing_plan_id":"cebpf4jnsgd1na2vs0mg"},{"bike_id":"d0da24cc-e5cc-40d6-9328-ac8b8019ffc7","system_id":"levelo_inurba_marseille","lat":43.28994,"lon":5.35618,"is_reserved":false,"is_disabled":false,"rental_uris":{"android":"levelo://app?vid=d0da24cc-e5cc-40d6-9328-ac8b8019ffc7","ios":"levelo://app?vid=d0da24cc-e5cc-40d6-9328-ac8b8019ffc7"},"vehicle_type_id":"4","last_reported":1731337739,"current_range_meters":20000,"station_id":"ce4bhb92rcd13ifvqen0","pricing_plan_id":"cebpf4jnsgd1na2vs0mg"},{"bike_id":"2db66751-37ec-4df7-90db-1e6ae7ea061d","system_id":"levelo_inurba_marseille","lat":43.304173,"lon":5.412922,"is_reserved":false,"is_disabled":false,"rental_uris":{"android":"levelo://app?vid=2db66751-37ec-4df7-90db-1e6ae7ea061d","ios":"levelo://app?vid=2db66751-37ec-4df7-90db-1e6ae7ea061d"},"vehicle_type_id":"4","last_reported":1731337739,"current_range_meters":38400,"station_id":"ce4bhop2rcd13ifvqh8g","pricing_plan_id":"cebpf4jnsgd1na2vs0mg"},{"bike_id":"5f79bb43-d6a1-42a5-a554-664b0791887c","system_id":"levelo_inurba_marseille","lat":43.25584,"lon":5.3823,"is_reserved":false,"is_disabled":false,"rental_uris":{"android":"levelo://app?vid=5f79bb43-d6a1-42a5-a554-664b0791887c","ios":"levelo://app?vid=5f79bb43-d6a1-42a5-a554-664b0791887c"},"vehicle_type_id":"4","last_reported":1731337739,"current_range_meters":14000,"station_id":"ce4bhih2rcd13ifvqfs0","pricing_plan_id":"cebpf4jnsgd1na2vs0mg"},{"bike_id":"c15557a1-52c4-46ca-82d6-83bceac933de","system_id":"levelo_inurba_marseille","lat":43.28617,"lon":5.3511,"is_reserved":false,"is_disabled":false,"rental_uris":{"android":"levelo://app?vid=c15557a1-52c4-46ca-82d6-83bceac933de","ios":"levelo://app?vid=c15557a1-52c4-46ca-82d6-83bceac933de"},"vehicle_type_id":"4","last_reported":1731337739,"current_range_meters":35600,"station_id":"ce4bhch2rcd13ifvqeug","pricing_plan_id":"cebpf4jnsgd1na2vs0mg"},{"bike_id":"3c9c3067-40b0-4fdd-b31a-b4ed7c72723c","system_id":"levelo_inurba_marseille","lat":43.239622,"lon":5.366274,"is_reserved":false,"is_disabled":false,"rental_uris":{"android":"levelo://app?vid=3c9c3067-40b0-4fdd-b31a-b4ed7c72723c","ios":"levelo://app?vid=3c9c3067-40b0-4fdd-b31a-b4ed7c72723c"},"vehicle_type_id":"4","last_reported":1731337739,"current_range_meters":24800,"station_id":"ce4bhi12rcd13ifvqfp0","pricing_plan_id":"cebpf4jnsgd1na2vs0mg"},{"bike_id":"eb7c8550-5d81-4894-b822-a49f357ecda5","system_id":"levelo_inurba_marseille","lat":43.28848,"lon":5.35858,"is_reserved":false,"is_disabled":false,"rental_uris":{"android":"levelo://app?vid=eb7c8550-5d81-4894-b822-a49f357ecda5","ios":"levelo://app?vid=eb7c8550-5d81-4894-b822-a49f357ecda5"},"vehicle_type_id":"4","last_reported":1731337739,"current_range_meters":39200,"station_id":"ce4bhb12rcd13ifvqem0","pricing_plan_id":"cebpf4jnsgd1na2vs0mg"},{"bike_id":"d1002e6f-ed47-49ee-92a9-d53dff30160d","system_id":"levelo_inurba_marseille","lat":43.28402,"lon":5.34987,"is_reserved":false,"is_disabled":false,"rental_uris":{"android":"levelo://app?vid=d1002e6f-ed47-49ee-92a9-d53dff30160d","ios":"levelo://app?vid=d1002e6f-ed47-49ee-92a9-d53dff30160d"},"vehicle_type_id":"4","last_reported":1731337739,"current_range_meters":24400,"station_id":"ce4bhbh2rcd13ifvqepg","pricing_plan_id":"cebpf4jnsgd1na2vs0mg"},{"bike_id":"e6798bbc-0707-42c5-9a11-d1fda0166cf7","system_id":"levelo_inurba_marseille","lat":43.337444,"lon":5.374475,"is_reserved":false,"is_disabled":false,"rental_uris":{"android":"levelo://app?vid=e6798bbc-0707-42c5-9a11-d1fda0166cf7","ios":"levelo://app?vid=e6798bbc-0707-42c5-9a11-d1fda0166cf7"},"vehicle_type_id":"4","last_reported":1731337739,"current_range_meters":10000,"station_id":"","pricing_plan_id":"cebpf4jnsgd1na2vs0mg"},{"bike_id":"01c41bf4-296d-4536-bd21-9ab058268e5d","system_id":"levelo_inurba_marseille","lat":43.26572,"lon":5.39011,"is_reserved":false,"is_disabled":false,"rental_uris":{"android":"levelo://app?vid=01c41bf4-296d-4536-bd21-9ab058268e5d","ios":"levelo://app?vid=01c41bf4-296d-4536-bd21-9ab058268e5d"},"vehicle_type_id":"4","last_reported":1731337739,"current_range_meters":36000,"station_id":"ce4bhe12rcd13ifvqf30","pricing_plan_id":"cebpf4jnsgd1na2vs0mg"},{"bike_id":"df7c770f-be89-4ee1-aa53-ead6750d16b7","system_id":"levelo_inurba_marseille","lat":43.26557,"lon":5.37291,"is_reserved":false,"is_disabled":false,"rental_uris":{"android":"levelo://app?vid=df7c770f-be89-4ee1-aa53-ead6750d16b7","ios":"levelo://app?vid=df7c770f-be89-4ee1-aa53-ead6750d16b7"},"vehicle_type_id":"4","last_reported":1731337739,"current_range_meters":25200,"station_id":"ce4bhg12rcd13ifvqf70","pricing_plan_id":"cebpf4jnsgd1na2vs0mg"},{"bike_id":"fab1c3c5-8352-44d8-aa2d-cabcd999e31a","system_id":"levelo_inurba_marseille","lat":43.27495,"lon":5.42452,"is_reserved":false,"is_disabled":false,"rental_uris":{"android":"levelo://app?vid=fab1c3c5-8352-44d8-aa2d-cabcd999e31a","ios":"levelo://app?vid=fab1c3c5-8352-44d8-aa2d-cabcd999e31a"},"vehicle_type_id":"4","last_reported":1731337739,"current_range_meters":20000,"station_id":"ce4bhn92rcd13ifvqgrg","pricing_plan_id":"cebpf4jnsgd1na2vs0mg"},{"bike_id":"7bdba878-2994-4869-9e59-7b6ea2916fdc","system_id":"levelo_inurba_marseille","lat":43.28261,"lon":5.35082,"is_reserved":false,"is_disabled":false,"rental_uris":{"android":"levelo://app?vid=7bdba878-2994-4869-9e59-7b6ea2916fdc","ios":"levelo://app?vid=7bdba878-2994-4869-9e59-7b6ea2916fdc"},"vehicle_type_id":"4","last_reported":1731337739,"current_range_meters":38400,"station_id":"ce4bhbp2rcd13ifvqerg","pricing_plan_id":"cebpf4jnsgd1na2vs0mg"},{"bike_id":"6962350e-7aa4-440c-82bf-69fc595fca75","system_id":"levelo_inurba_marseille","lat":43.23963,"lon":5.36643,"is_reserved":false,"is_disabled":false,"rental_uris":{"android":"levelo://app?vid=6962350e-7aa4-440c-82bf-69fc595fca75","ios":"levelo://app?vid=6962350e-7aa4-440c-82bf-69fc595fca75"},"vehicle_type_id":"4","last_reported":1731337739,"current_range_meters":6800,"station_id":"ce4bhi12rcd13ifvqfp0","pricing_plan_id":"cebpf4jnsgd1na2vs0mg"},{"bike_id":"748c00a5-88b3-4a8c-b960-4bc6a0622822","system_id":"levelo_inurba_marseille","lat":43.301697,"lon":5.366257,"is_reserved":false,"is_disabled":false,"rental_uris":{"android":"levelo://app?vid=748c00a5-88b3-4a8c-b960-4bc6a0622822","ios":"levelo://app?vid=748c00a5-88b3-4a8c-b960-4bc6a0622822"},"vehicle_type_id":"4","last_reported":1731337739,"current_range_meters":34800,"station_id":"ce4bgrh2rcd13ifvqc8g","pricing_plan_id":"cebpf4jnsgd1na2vs0mg"},{"bike_id":"85600b83-fbb8-4a1d-871b-d12d0e49c9a3","system_id":"levelo_inurba_marseille","lat":43.23949,"lon":5.3664,"is_reserved":false,"is_disabled":false,"rental_uris":{"android":"levelo://app?vid=85600b83-fbb8-4a1d-871b-d12d0e49c9a3","ios":"levelo://app?vid=85600b83-fbb8-4a1d-871b-d12d0e49c9a3"},"vehicle_type_id":"4","last_reported":1731337739,"current_range_meters":8000,"station_id":"ce4bhi12rcd13ifvqfp0","pricing_plan_id":"cebpf4jnsgd1na2vs0mg"},{"bike_id":"ed13e6da-b392-435c-b1ca-b04792596dce","system_id":"levelo_inurba_marseille","lat":43.2846,"lon":5.35876,"is_reserved":false,"is_disabled":false,"rental_uris":{"android":"levelo://app?vid=ed13e6da-b392-435c-b1ca-b04792596dce","ios":"levelo://app?vid=ed13e6da-b392-435c-b1ca-b04792596dce"},"vehicle_type_id":"4","last_reported":1731337739,"current_range_meters":4800,"station_id":"ce4bhah2rcd13ifvqei0","pricing_plan_id":"cebpf4jnsgd1na2vs0mg"},{"bike_id":"3e2387da-4c10-410c-8689-d0f06d8a551f","system_id":"levelo_inurba_marseille","lat":43.25825,"lon":5.39448,"is_reserved":false,"is_disabled":false,"rental_uris":{"android":"levelo://app?vid=3e2387da-4c10-410c-8689-d0f06d8a551f","ios":"levelo://app?vid=3e2387da-4c10-410c-8689-d0f06d8a551f"},"vehicle_type_id":"4","last_reported":1731337739,"current_range_meters":30800,"station_id":"ce4bhip2rcd13ifvqft0","pricing_plan_id":"cebpf4jnsgd1na2vs0mg"},{"bike_id":"5870b8b8-fdff-43fa-b5bd-c7233d18dae9","system_id":"levelo_inurba_marseille","lat":43.23193,"lon":5.35562,"is_reserved":false,"is_disabled":false,"rental_uris":{"android":"levelo://app?vid=5870b8b8-fdff-43fa-b5bd-c7233d18dae9","ios":"levelo://app?vid=5870b8b8-fdff-43fa-b5bd-c7233d18dae9"},"vehicle_type_id":"4","last_reported":1731337739,"current_range_meters":34800,"station_id":"ce4bhu92rcd13ifvqi70","pricing_plan_id":"cebpf4jnsgd1na2vs0mg"},{"bike_id":"deabd688-bcc2-4c19-8736-f2414d474dc3","system_id":"levelo_inurba_marseille","lat":43.2717,"lon":5.40995,"is_reserved":false,"is_disabled":false,"rental_uris":{"android":"levelo://app?vid=deabd688-bcc2-4c19-8736-f2414d474dc3","ios":"levelo://app?vid=deabd688-bcc2-4c19-8736-f2414d474dc3"},"vehicle_type_id":"4","last_reported":1731337739,"current_range_meters":38800,"station_id":"ce4bhl12rcd13ifvqgf0","pricing_plan_id":"cebpf4jnsgd1na2vs0mg"},{"bike_id":"174e4871-cae4-405a-8811-ceb499be56fe","system_id":"levelo_inurba_marseille","lat":43.22932,"lon":5.35379,"is_reserved":false,"is_disabled":false,"rental_uris":{"android":"levelo://app?vid=174e4871-cae4-405a-8811-ceb499be56fe","ios":"levelo://app?vid=174e4871-cae4-405a-8811-ceb499be56fe"},"vehicle_type_id":"4","last_reported":1731337739,"current_range_meters":16800,"station_id":"cpo3532slgdg3j2ikp40","pricing_plan_id":"cebpf4jnsgd1na2vs0mg"},{"bike_id":"afd84fcc-4d8c-4b89-ba13-10681ba93fa3","system_id":"levelo_inurba_marseille","lat":43.29356,"lon":5.45046,"is_reserved":false,"is_disabled":false,"rental_uris":{"android":"levelo://app?vid=afd84fcc-4d8c-4b89-ba13-10681ba93fa3","ios":"levelo://app?vid=afd84fcc-4d8c-4b89-ba13-10681ba93fa3"},"vehicle_type_id":"4","last_reported":1731337739,"current_range_meters":17200,"station_id":"","pricing_plan_id":"cebpf4jnsgd1na2vs0mg"},{"bike_id":"a00c50e9-f932-4280-8641-6de0ae3844c5","system_id":"levelo_inurba_marseille","lat":43.32431,"lon":5.36987,"is_reserved":false,"is_disabled":false,"rental_uris":{"android":"levelo://app?vid=a00c50e9-f932-4280-8641-6de0ae3844c5","ios":"levelo://app?vid=a00c50e9-f932-4280-8641-6de0ae3844c5"},"vehicle_type_id":"4","last_reported":1731337739,"current_range_meters":16400,"station_id":"","pricing_plan_id":"cebpf4jnsgd1na2vs0mg"},{"bike_id":"5e50d75e-b002-4fa5-a26f-ffead006208b","system_id":"levelo_inurba_marseille","lat":43.2396,"lon":5.36631,"is_reserved":false,"is_disabled":false,"rental_uris":{"android":"levelo://app?vid=5e50d75e-b002-4fa5-a26f-ffead006208b","ios":"levelo://app?vid=5e50d75e-b002-4fa5-a26f-ffead006208b"},"vehicle_type_id":"4","last_reported":1731337739,"current_range_meters":16000,"station_id":"ce4bhi12rcd13ifvqfp0","pricing_plan_id":"cebpf4jnsgd1na2vs0mg"},{"bike_id":"d5badd4e-8080-4929-8560-97473eb4aafc","system_id":"levelo_inurba_marseille","lat":43.29036,"lon":5.3593,"is_reserved":false,"is_disabled":false,"rental_uris":{"android":"levelo://app?vid=d5badd4e-8080-4929-8560-97473eb4aafc","ios":"levelo://app?vid=d5badd4e-8080-4929-8560-97473eb4aafc"},"vehicle_type_id":"4","last_reported":1731337739,"current_range_meters":38800,"station_id":"ce4bha92rcd13ifvqeg0","pricing_plan_id":"cebpf4jnsgd1na2vs0mg"},{"bike_id":"566eab89-15f5-4d14-956b-e8eac078cde9","system_id":"levelo_inurba_marseille","lat":43.23956,"lon":5.36634,"is_reserved":false,"is_disabled":false,"rental_uris":{"android":"levelo://app?vid=566eab89-15f5-4d14-956b-e8eac078cde9","ios":"levelo://app?vid=566eab89-15f5-4d14-956b-e8eac078cde9"},"vehicle_type_id":"4","last_reported":1731337739,"current_range_meters":30800,"station_id":"ce4bhi12rcd13ifvqfp0","pricing_plan_id":"cebpf4jnsgd1na2vs0mg"},{"bike_id":"abd6bb3f-2407-4899-87a9-c4b52ce58cd5","system_id":"levelo_inurba_marseille","lat":43.25497,"lon":5.3765,"is_reserved":false,"is_disabled":false,"rental_uris":{"android":"levelo://app?vid=abd6bb3f-2407-4899-87a9-c4b52ce58cd5","ios":"levelo://app?vid=abd6bb3f-2407-4899-87a9-c4b52ce58cd5"},"vehicle_type_id":"4","last_reported":1731337739,"current_range_meters":21600,"station_id":"ce4bhh12rcd13ifvqff0","pricing_plan_id":"cebpf4jnsgd1na2vs0mg"},{"bike_id":"4bfc7cfc-a0a8-496b-932f-a2b1757ae91d","system_id":"levelo_inurba_marseille","lat":43.24454,"lon":5.37252,"is_reserved":false,"is_disabled":false,"rental_uris":{"android":"levelo://app?vid=4bfc7cfc-a0a8-496b-932f-a2b1757ae91d","ios":"levelo://app?vid=4bfc7cfc-a0a8-496b-932f-a2b1757ae91d"},"vehicle_type_id":"4","last_reported":1731337739,"current_range_meters":27200,"station_id":"","pricing_plan_id":"cebpf4jnsgd1na2vs0mg"},{"bike_id":"3b49a11e-e9aa-41ac-89ef-d54410de94b3","system_id":"levelo_inurba_marseille","lat":43.2959,"lon":5.38102,"is_reserved":false,"is_disabled":false,"rental_uris":{"android":"levelo://app?vid=3b49a11e-e9aa-41ac-89ef-d54410de94b3","ios":"levelo://app?vid=3b49a11e-e9aa-41ac-89ef-d54410de94b3"},"vehicle_type_id":"4","last_reported":1731337739,"current_range_meters":33200,"station_id":"ce4bgl12rcd13ifvqbo0","pricing_plan_id":"cebpf4jnsgd1na2vs0mg"},{"bike_id":"036ed9a3-ecbd-42c2-8f66-aa5d9df3af7c","system_id":"levelo_inurba_marseille","lat":43.269365,"lon":5.402453,"is_reserved":false,"is_disabled":false,"rental_uris":{"android":"levelo://app?vid=036ed9a3-ecbd-42c2-8f66-aa5d9df3af7c","ios":"levelo://app?vid=036ed9a3-ecbd-42c2-8f66-aa5d9df3af7c"},"vehicle_type_id":"4","last_reported":1731337739,"current_range_meters":8400,"station_id":"cjm6bp8fraef2m0cb0m0","pricing_plan_id":"cebpf4jnsgd1na2vs0mg"},{"bike_id":"cdeef424-bf53-4a0d-81e4-f7f638cec86b","system_id":"levelo_inurba_marseille","lat":43.22924,"lon":5.3538,"is_reserved":false,"is_disabled":false,"rental_uris":{"android":"levelo://app?vid=cdeef424-bf53-4a0d-81e4-f7f638cec86b","ios":"levelo://app?vid=cdeef424-bf53-4a0d-81e4-f7f638cec86b"},"vehicle_type_id":"4","last_reported":1731337739,"current_range_meters":16800,"station_id":"cpo3532slgdg3j2ikp40","pricing_plan_id":"cebpf4jnsgd1na2vs0mg"},{"bike_id":"6ef4c265-87ae-4f73-aef0-81134b6e32ea","system_id":"levelo_inurba_marseille","lat":43.33765,"lon":5.3745,"is_reserved":false,"is_disabled":false,"rental_uris":{"android":"levelo://app?vid=6ef4c265-87ae-4f73-aef0-81134b6e32ea","ios":"levelo://app?vid=6ef4c265-87ae-4f73-aef0-81134b6e32ea"},"vehicle_type_id":"4","last_reported":1731337739,"current_range_meters":33600,"station_id":"","pricing_plan_id":"cebpf4jnsgd1na2vs0mg"},{"bike_id":"97c72c15-b2a4-44ec-9a14-8ec0a3148744","system_id":"levelo_inurba_marseille","lat":43.27495,"lon":5.42454,"is_reserved":false,"is_disabled":false,"rental_uris":{"android":"levelo://app?vid=97c72c15-b2a4-44ec-9a14-8ec0a3148744","ios":"levelo://app?vid=97c72c15-b2a4-44ec-9a14-8ec0a3148744"},"vehicle_type_id":"4","last_reported":1731337739,"current_range_meters":35200,"station_id":"ce4bhn92rcd13ifvqgrg","pricing_plan_id":"cebpf4jnsgd1na2vs0mg"},{"bike_id":"96bf234b-de86-4709-9437-03202a56f17d","system_id":"levelo_inurba_marseille","lat":43.29791,"lon":5.39358,"is_reserved":false,"is_disabled":false,"rental_uris":{"android":"levelo://app?vid=96bf234b-de86-4709-9437-03202a56f17d","ios":"levelo://app?vid=96bf234b-de86-4709-9437-03202a56f17d"},"vehicle_type_id":"4","last_reported":1731337739,"current_range_meters":8000,"station_id":"chh1huq6cuj3fo74tm60","pricing_plan_id":"cebpf4jnsgd1na2vs0mg"},{"bike_id":"0709646c-f55c-4bcf-a9ba-81f7ba7e860c","system_id":"levelo_inurba_marseille","lat":43.2737,"lon":5.36266,"is_reserved":false,"is_disabled":false,"rental_uris":{"android":"levelo://app?vid=0709646c-f55c-4bcf-a9ba-81f7ba7e860c","ios":"levelo://app?vid=0709646c-f55c-4bcf-a9ba-81f7ba7e860c"},"vehicle_type_id":"4","last_reported":1731337739,"current_range_meters":40000,"station_id":"ce4bhbh2rcd13ifvqeo0","pricing_plan_id":"cebpf4jnsgd1na2vs0mg"},{"bike_id":"31c92d37-1ac3-4147-916d-a3db05434d44","system_id":"levelo_inurba_marseille","lat":43.29174,"lon":5.37149,"is_reserved":false,"is_disabled":false,"rental_uris":{"android":"levelo://app?vid=31c92d37-1ac3-4147-916d-a3db05434d44","ios":"levelo://app?vid=31c92d37-1ac3-4147-916d-a3db05434d44"},"vehicle_type_id":"4","last_reported":1731337739,"current_range_meters":28800,"station_id":"ce4bha92rcd13ifvqeh0","pricing_plan_id":"cebpf4jnsgd1na2vs0mg"},{"bike_id":"c562ed1c-ff5b-4870-adaf-ccaccfa5eed4","system_id":"levelo_inurba_marseille","lat":43.28947,"lon":5.36381,"is_reserved":false,"is_disabled":false,"rental_uris":{"android":"levelo://app?vid=c562ed1c-ff5b-4870-adaf-ccaccfa5eed4","ios":"levelo://app?vid=c562ed1c-ff5b-4870-adaf-ccaccfa5eed4"},"vehicle_type_id":"4","last_reported":1731337739,"current_range_meters":25200,"station_id":"ce4bhc92rcd13ifvqetg","pricing_plan_id":"cebpf4jnsgd1na2vs0mg"},{"bike_id":"d4fa128f-1065-4355-88f3-82e5b5cada2c","system_id":"levelo_inurba_marseille","lat":43.23057,"lon":5.35491,"is_reserved":false,"is_disabled":false,"rental_uris":{"android":"levelo://app?vid=d4fa128f-1065-4355-88f3-82e5b5cada2c","ios":"levelo://app?vid=d4fa128f-1065-4355-88f3-82e5b5cada2c"},