{"last_updated":1689800760,"ttl":30,"version":"2.2","data":{"bikes":[{"bike_id":"36b6fc2d-7378-40b4-8a55-03a25c895908","system_id":"levelo_inurba_marseille","lat":43.313391,"lon":5.36706,"is_reserved":false,"is_disabled":false,"rental_uris":{"android":"levelo://app?vid=36b6fc2d-7378-40b4-8a55-03a25c895908","ios":"levelo://app?vid=36b6fc2d-7378-40b4-8a55-03a25c895908"},"vehicle_type_id":"4","last_reported":1689800761,"current_range_meters":12400,"station_id":"ce4bgr92rcd13ifvqc6g","pricing_plan_id":"free"},{"bike_id":"b20d4323-8515-4e80-be8a-31aa24b3dc2f","system_id":"levelo_inurba_marseille","lat":43.312239,"lon":5.368562,"is_reserved":false,"is_disabled":false,"rental_uris":{"android":"levelo://app?vid=b20d4323-8515-4e80-be8a-31aa24b3dc2f","ios":"levelo://app?vid=b20d4323-8515-4e80-be8a-31aa24b3dc2f"},"vehicle_type_id":"4","last_reported":1689800761,"current_range_meters":1600,"station_id":"ce4bgl92rcd13ifvqbq0","pricing_plan_id":"free"},{"bike_id":"c636e5ba-6b4b-4dbc-b686-5e82d98b1f96","system_id":"levelo_inurba_marseille","lat":43.312239,"lon":5.368562,"is_reserved":false,"is_disabled":false,"rental_uris":{"android":"levelo://app?vid=c636e5ba-6b4b-4dbc-b686-5e82d98b1f96","ios":"levelo://app?vid=c636e5ba-6b4b-4dbc-b686-5e82d98b1f96"},"vehicle_type_id":"4","last_reported":1689800761,"current_range_meters":2000,"station_id":"ce4bgl92rcd13ifvqbq0","pricing_plan_id":"free"},{"bike_id":"d89e4452-6384-4f8f-b0ea-2a8f6bf71d70","system_id":"levelo_inurba_marseille","lat":43.312239,"lon":5.368562,"is_reserved":false,"is_disabled":false,"rental_uris":{"android":"levelo://app?vid=d89e4452-6384-4f8f-b0ea-2a8f6bf71d70","ios":"levelo://app?vid=d89e4452-6384-4f8f-b0ea-2a8f6bf71d70"},"vehicle_type_id":"4","last_reported":1689800761,"current_range_meters":11200,"station_id":"ce4bgl92rcd13ifvqbq0","pricing_plan_id":"free"},{"bike_id":"bccd9a51-b979-47ac-99d2-5d6044989297","system_id":"levelo_inurba_marseille","lat":43.312239,"lon":5.368562,"is_reserved":false,"is_disabled":false,"rental_uris":{"android":"levelo://app?vid=bccd9a51-b979-47ac-99d2-5d6044989297","ios":"levelo://app?vid=bccd9a51-b979-47ac-99d2-5d6044989297"},"vehicle_type_id":"4","last_reported":1689800761,"current_range_meters":26400,"station_id":"ce4bgl92rcd13ifvqbq0","pricing_plan_id":"free"},{"bike_id":"743d2ecf-200c-4384-9f98-fedd88c5977e","system_id":"levelo_inurba_marseille","lat":43.312239,"lon":5.368562,"is_reserved":false,"is_disabled":false,"rental_uris":{"android":"levelo://app?vid=743d2ecf-200c-4384-9f98-fedd88c5977e","ios":"levelo://app?vid=743d2ecf-200c-4384-9f98-fedd88c5977e"},"vehicle_type_id":"4","last_reported":1689800761,"current_range_meters":6400,"station_id":"ce4bgl92rcd13ifvqbq0","pricing_plan_id":"free"},{"bike_id":"e7988f5d-a4b4-47ba-8a87-7885799657df","system_id":"levelo_inurba_marseille","lat":43.312239,"lon":5.368562,"is_reserved":false,"is_disabled":false,"rental_uris":{"android":"levelo://app?vid=e7988f5d-a4b4-47ba-8a87-7885799657df","ios":"levelo://app?vid=e7988f5d-a4b4-47ba-8a87-7885799657df"},"vehicle_type_id":"4","last_reported":1689800761,"current_range_meters":23600,"station_id":"ce4bgl92rcd13ifvqbq0","pricing_plan_id":"free"},{"bike_id":"468c5650-6046-4d3a-83a0-8411ef867082","system_id":"levelo_inurba_marseille","lat":43.312239,"lon":5.368562,"is_reserved":false,"is_disabled":false,"rental_uris":{"android":"levelo://app?vid=468c5650-6046-4d3a-83a0-8411ef867082","ios":"levelo://app?vid=468c5650-6046-4d3a-83a0-8411ef867082"},"vehicle_type_id":"4","last_reported":1689800761,"current_range_meters":14400,"station_id":"ce4bgl92rcd13ifvqbq0","pricing_plan_id":"free"},{"bike_id":"3b00a134-b5a4-4fa7-ac6c-4ac43a90111d","system_id":"levelo_inurba_marseille","lat":43.312239,"lon":5.368562,"is_reserved":false,"is_disabled":false,"rental_uris":{"android":"levelo://app?vid=3b00a134-b5a4-4fa7-ac6c-4ac43a90111d","ios":"levelo://app?vid=3b00a134-b5a4-4fa7-ac6c-4ac43a90111d"},"vehicle_type_id":"4","last_reported":1689800761,"current_range_meters":6000,"station_id":"ce4bgl92rcd13ifvqbq0","pricing_plan_id":"free"},{"bike_id":"99024414-9e70-4560-af76-a5525d067311","system_id":"levelo_inurba_marseille","lat":43.312239,"lon":5.368562,"is_reserved":false,"is_disabled":false,"rental_uris":{"android":"levelo://app?vid=99024414-9e70-4560-af76-a5525d067311","ios":"levelo://app?vid=99024414-9e70-4560-af76-a5525d067311"},"vehicle_type_id":"4","last_reported":1689800761,"current_range_meters":7600,"station_id":"ce4bgl92rcd13ifvqbq0","pricing_plan_id":"free"},{"bike_id":"dfb209ec-86a1-4996-96c8-1302f8ac3fc1","system_id":"levelo_inurba_marseille","lat":43.314811,"lon":5.373103,"is_reserved":false,"is_disabled":false,"rental_uris":{"android":"levelo://app?vid=dfb209ec-86a1-4996-96c8-1302f8ac3fc1","ios":"levelo://app?vid=dfb209ec-86a1-4996-96c8-1302f8ac3fc1"},"vehicle_type_id":"4","last_reported":1689800761,"current_range_meters":8000,"station_id":"ce4bgt12rcd13ifvqcd0","pricing_plan_id":"free"},{"bike_id":"6825c955-5d6a-4ab4-ac5a-add3f47d58c1","system_id":"levelo_inurba_marseille","lat":43.314811,"lon":5.373104,"is_reserved":false,"is_disabled":false,"rental_uris":{"android":"levelo://app?vid=6825c955-5d6a-4ab4-ac5a-add3f47d58c1","ios":"levelo://app?vid=6825c955-5d6a-4ab4-ac5a-add3f47d58c1"},"vehicle_type_id":"4","last_reported":1689800761,"current_range_meters":30400,"station_id":"ce4bgt12rcd13ifvqcd0","pricing_plan_id":"free"},{"bike_id":"360650f3-a957-4815-8ebd-1e40102227b7","system_id":"levelo_inurba_marseille","lat":43.31418,"lon":5.3734,"is_reserved":false,"is_disabled":false,"rental_uris":{"android":"levelo://app?vid=360650f3-a957-4815-8ebd-1e40102227b7","ios":"levelo://app?vid=360650f3-a957-4815-8ebd-1e40102227b7"},"vehicle_type_id":"4","last_reported":1689800761,"current_range_meters":27200,"station_id":"","pricing_plan_id":"free"},{"bike_id":"0b12a1dd-1564-4aa9-b61c-6fcd6a1ec6e0","system_id":"levelo_inurba_marseille","lat":43.314811,"lon":5.373103,"is_reserved":false,"is_disabled":false,"rental_uris":{"android":"levelo://app?vid=0b12a1dd-1564-4aa9-b61c-6fcd6a1ec6e0","ios":"levelo://app?vid=0b12a1dd-1564-4aa9-b61c-6fcd6a1ec6e0"},"vehicle_type_id":"4","last_reported":1689800761,"current_range_meters":28400,"station_id":"ce4bgt12rcd13ifvqcd0","pricing_plan_id":"free"},{"bike_id":"3dbbc142-3027-495a-ab18-b55fafa8ac87","system_id":"levelo_inurba_marseille","lat":43.314811,"lon":5.373103,"is_reserved":false,"is_disabled":false,"rental_uris":{"android":"levelo://app?vid=3dbbc142-3027-495a-ab18-b55fafa8ac87","ios":"levelo://app?vid=3dbbc142-3027-495a-ab18-b55fafa8ac87"},"vehicle_type_id":"4","last_reported":1689800761,"current_range_meters":10800,"station_id":"ce4bgt12rcd13ifvqcd0","pricing_plan_id":"free"},{"bike_id":"62f3738f-26d2-43ab-86bf-592eb5da1b81","system_id":"levelo_inurba_marseille","lat":43.314811,"lon":5.373103,"is_reserved":false,"is_disabled":false,"rental_uris":{"android":"levelo://app?vid=62f3738f-26d2-43ab-86bf-592eb5da1b81","ios":"levelo://app?vid=62f3738f-26d2-43ab-86bf-592eb5da1b81"},"vehicle_type_id":"4","last_reported":1689800761,"current_range_meters":30000,"station_id":"ce4bgt12rcd13ifvqcd0","pricing_plan_id":"free"},{"bike_id":"4e5744a6-1dff-46ab-aded-6c43e7789cd1","system_id":"levelo_inurba_marseille","lat":43.314811,"lon":5.373103,"is_reserved":false,"is_disabled":false,"rental_uris":{"android":"levelo://app?vid=4e5744a6-1dff-46ab-aded-6c43e7789cd1","ios":"levelo://app?vid=4e5744a6-1dff-46ab-aded-6c43e7789cd1"},"vehicle_type_id":"4","last_reported":1689800761,"current_range_meters":16400,"station_id":"ce4bgt12rcd13ifvqcd0","pricing_plan_id":"free"},{"bike_id":"115ddc84-9963-4371-ac88-90df75990d15","system_id":"levelo_inurba_marseille","lat":43.314811,"lon":5.373103,"is_reserved":false,"is_disabled":false,"rental_uris":{"android":"levelo://app?vid=115ddc84-9963-4371-ac88-90df75990d15","ios":"levelo://app?vid=115ddc84-9963-4371-ac88-90df75990d15"},"vehicle_type_id":"4","last_reported":1689800761,"current_range_meters":23600,"station_id":"ce4bgt12rcd13ifvqcd0","pricing_plan_id":"free"},{"bike_id":"8a9f8d2a-3734-4f6a-a888-ffa5fddb1d6d","system_id":"levelo_inurba_marseille","lat":43.314811,"lon":5.373103,"is_reserved":false,"is_disabled":false,"rental_uris":{"android":"levelo://app?vid=8a9f8d2a-3734-4f6a-a888-ffa5fddb1d6d","ios":"levelo://app?vid=8a9f8d2a-3734-4f6a-a888-ffa5fddb1d6d"},"vehicle_type_id":"4","last_reported":1689800761,"current_range_meters":10400,"station_id":"ce4bgt12rcd13ifvqcd0","pricing_plan_id":"free"},{"bike_id":"dcc9bb1a-b7f6-4527-92a6-973dde87e254","system_id":"levelo_inurba_marseille","lat":43.309034,"lon":5.371783,"is_reserved":false,"is_disabled":false,"rental_uris":{"android":"levelo://app?vid=dcc9bb1a-b7f6-4527-92a6-973dde87e254","ios":"levelo://app?vid=dcc9bb1a-b7f6-4527-92a6-973dde87e254"},"vehicle_type_id":"4","last_reported":1689800761,"current_range_meters":26800,"station_id":"ce4bguh2rcd13ifvqckg","pricing_plan_id":"free"},{"bike_id":"92aacd8e-2410-494c-ab1e-5d488417fab7","system_id":"levelo_inurba_marseille","lat":43.309034,"lon":5.371783,"is_reserved":false,"is_disabled":false,"rental_uris":{"android":"levelo://app?vid=92aacd8e-2410-494c-ab1e-5d488417fab7","ios":"levelo://app?vid=92aacd8e-2410-494c-ab1e-5d488417fab7"},"vehicle_type_id":"4","last_reported":1689800761,"current_range_meters":12400,"station_id":"ce4bguh2rcd13ifvqckg","pricing_plan_id":"free"},{"bike_id":"c5b520e4-9cc2-408f-a732-4c662eb7bbf7","system_id":"levelo_inurba_marseille","lat":43.309034,"lon":5.371783,"is_reserved":false,"is_disabled":false,"rental_uris":{"android":"levelo://app?vid=c5b520e4-9cc2-408f-a732-4c662eb7bbf7","ios":"levelo://app?vid=c5b520e4-9cc2-408f-a732-4c662eb7bbf7"},"vehicle_type_id":"4","last_reported":1689800761,"current_range_meters":19200,"station_id":"ce4bguh2rcd13ifvqckg","pricing_plan_id":"free"},{"bike_id":"9ebfdadf-eebb-4934-973d-55963c25c762","system_id":"levelo_inurba_marseille","lat":43.31575,"lon":5.37316,"is_reserved":false,"is_disabled":false,"rental_uris":{"android":"levelo://app?vid=9ebfdadf-eebb-4934-973d-55963c25c762","ios":"levelo://app?vid=9ebfdadf-eebb-4934-973d-55963c25c762"},"vehicle_type_id":"4","last_reported":1689800761,"current_range_meters":30800,"station_id":"","pricing_plan_id":"free"},{"bike_id":"f508272a-ab00-434e-841c-4959d5643898","system_id":"levelo_inurba_marseille","lat":43.31667,"lon":5.37293,"is_reserved":false,"is_disabled":false,"rental_uris":{"android":"levelo://app?vid=f508272a-ab00-434e-841c-4959d5643898","ios":"levelo://app?vid=f508272a-ab00-434e-841c-4959d5643898"},"vehicle_type_id":"4","last_reported":1689800761,"current_range_meters":20800,"station_id":"","pricing_plan_id":"free"},{"bike_id":"8dab606f-2c1b-4486-94b1-66ef570c57d5","system_id":"levelo_inurba_marseille","lat":43.30888,"lon":5.37304,"is_reserved":false,"is_disabled":false,"rental_uris":{"android":"levelo://app?vid=8dab606f-2c1b-4486-94b1-66ef570c57d5","ios":"levelo://app?vid=8dab606f-2c1b-4486-94b1-66ef570c57d5"},"vehicle_type_id":"4","last_reported":1689800761,"current_range_meters":13200,"station_id":"","pricing_plan_id":"free"},{"bike_id":"d5452eac-45ec-41ca-8734-58f25f4b1789","system_id":"levelo_inurba_marseille","lat":43.31311,"lon":5.37667,"is_reserved":false,"is_disabled":false,"rental_uris":{"android":"levelo://app?vid=d5452eac-45ec-41ca-8734-58f25f4b1789","ios":"levelo://app?vid=d5452eac-45ec-41ca-8734-58f25f4b1789"},"vehicle_type_id":"4","last_reported":1689800761,"current_range_meters":25200,"station_id":"","pricing_plan_id":"free"},{"bike_id":"5528517b-a2ef-4776-8992-f6135da74dff","system_id":"levelo_inurba_marseille","lat":43.305368,"lon":5.367343,"is_reserved":false,"is_disabled":false,"rental_uris":{"android":"levelo://app?vid=5528517b-a2ef-4776-8992-f6135da74dff","ios":"levelo://app?vid=5528517b-a2ef-4776-8992-f6135da74dff"},"vehicle_type_id":"4","last_reported":1689800761,"current_range_meters":12400,"station_id":"ce4bgrp2rcd13ifvqc9g","pricing_plan_id":"free"},{"bike_id":"a2e136f1-c728-4018-88c2-a46aa30aa3c2","system_id":"levelo_inurba_marseille","lat":43.305368,"lon":5.367343,"is_reserved":false,"is_disabled":false,"rental_uris":{"android":"levelo://app?vid=a2e136f1-c728-4018-88c2-a46aa30aa3c2","ios":"levelo://app?vid=a2e136f1-c728-4018-88c2-a46aa30aa3c2"},"vehicle_type_id":"4","last_reported":1689800761,"current_range_meters":20000,"station_id":"ce4bgrp2rcd13ifvqc9g","pricing_plan_id":"free"},{"bike_id":"ae4e3b72-0a5e-4338-a0f3-f897c163026b","system_id":"levelo_inurba_marseille","lat":43.305714,"lon":5.365633,"is_reserved":false,"is_disabled":false,"rental_uris":{"android":"levelo://app?vid=ae4e3b72-0a5e-4338-a0f3-f897c163026b","ios":"levelo://app?vid=ae4e3b72-0a5e-4338-a0f3-f897c163026b"},"vehicle_type_id":"4","last_reported":1689800761,"current_range_meters":30400,"station_id":"ce4bgs12rcd13ifvqcag","pricing_plan_id":"free"},{"bike_id":"953d82af-6c3d-4c8c-bb97-ef8d6cc9f286","system_id":"levelo_inurba_marseille","lat":43.305706,"lon":5.365654,"is_reserved":false,"is_disabled":false,"rental_uris":{"android":"levelo://app?vid=953d82af-6c3d-4c8c-bb97-ef8d6cc9f286","ios":"levelo://app?vid=953d82af-6c3d-4c8c-bb97-ef8d6cc9f286"},"vehicle_type_id":"4","last_reported":1689800761,"current_range_meters":800,"station_id":"ce4bgs12rcd13ifvqcag","pricing_plan_id":"free"},{"bike_id":"a2864b10-c30e-4fa6-9c81-19cc57117a4d","system_id":"levelo_inurba_marseille","lat":43.305706,"lon":5.365654,"is_reserved":false,"is_disabled":false,"rental_uris":{"android":"levelo://app?vid=a2864b10-c30e-4fa6-9c81-19cc57117a4d","ios":"levelo://app?vid=a2864b10-c30e-4fa6-9c81-19cc57117a4d"},"vehicle_type_id":"4","last_reported":1689800761,"current_range_meters":2800,"station_id":"ce4bgs12rcd13ifvqcag","pricing_plan_id":"free"},{"bike_id":"e7ba141c-f332-49ac-8a7c-ad30e23f7f09","system_id":"levelo_inurba_marseille","lat":43.305368,"lon":5.367343,"is_reserved":false,"is_disabled":false,"rental_uris":{"android":"levelo://app?vid=e7ba141c-f332-49ac-8a7c-ad30e23f7f09","ios":"levelo://app?vid=e7ba141c-f332-49ac-8a7c-ad30e23f7f09"},"vehicle_type_id":"4","last_reported":1689800761,"current_range_meters":2400,"station_id":"ce4bgrp2rcd13ifvqc9g","pricing_plan_id":"free"},{"bike_id":"674c4add-539d-4855-b76c-c42570d22cc7","system_id":"levelo_inurba_marseille","lat":43.305989,"lon":5.37225,"is_reserved":false,"is_disabled":false,"rental_uris":{"android":"levelo://app?vid=674c4add-539d-4855-b76c-c42570d22cc7","ios":"levelo://app?vid=674c4add-539d-4855-b76c-c42570d22cc7"},"vehicle_type_id":"4","last_reported":1689800761,"current_range_meters":18800,"station_id":"ce4bgqh2rcd13ifvqc4g","pricing_plan_id":"free"},{"bike_id":"b9d4c3f2-463b-49df-acbc-052f6c26680b","system_id":"levelo_inurba_marseille","lat":43.305989,"lon":5.37225,"is_reserved":false,"is_disabled":false,"rental_uris":{"android":"levelo://app?vid=b9d4c3f2-463b-49df-acbc-052f6c26680b","ios":"levelo://app?vid=b9d4c3f2-463b-49df-acbc-052f6c26680b"},"vehicle_type_id":"4","last_reported":1689800761,"current_range_meters":21600,"station_id":"ce4bgqh2rcd13ifvqc4g","pricing_plan_id":"free"},{"bike_id":"b2ae16e3-003b-43a6-9831-ec5f6391508a","system_id":"levelo_inurba_marseille","lat":43.311131,"lon":5.377651,"is_reserved":false,"is_disabled":false,"rental_uris":{"android":"levelo://app?vid=b2ae16e3-003b-43a6-9831-ec5f6391508a","ios":"levelo://app?vid=b2ae16e3-003b-43a6-9831-ec5f6391508a"},"vehicle_type_id":"4","last_reported":1689800761,"current_range_meters":19600,"station_id":"ce4bgt92rcd13ifvqcg0","pricing_plan_id":"free"},{"bike_id":"735f386f-7db9-435a-93c7-b04fca6e6c61","system_id":"levelo_inurba_marseille","lat":43.31698,"lon":5.37738,"is_reserved":false,"is_disabled":false,"rental_uris":{"android":"levelo://app?vid=735f386f-7db9-435a-93c7-b04fca6e6c61","ios":"levelo://app?vid=735f386f-7db9-435a-93c7-b04fca6e6c61"},"vehicle_type_id":"4","last_reported":1689800761,"current_range_meters":30000,"station_id":"","pricing_plan_id":"free"},{"bike_id":"c0a093f0-cbe8-4784-a4fa-055fdbcae3ca","system_id":"levelo_inurba_marseille","lat":43.317075,"lon":5.377367,"is_reserved":false,"is_disabled":false,"rental_uris":{"android":"levelo://app?vid=c0a093f0-cbe8-4784-a4fa-055fdbcae3ca","ios":"levelo://app?vid=c0a093f0-cbe8-4784-a4fa-055fdbcae3ca"},"vehicle_type_id":"4","last_reported":1689800761,"current_range_meters":22400,"station_id":"ce4bgth2rcd13ifvqch0","pricing_plan_id":"free"},{"bike_id":"510ab947-c241-4363-9174-d9b4cfea12c1","system_id":"levelo_inurba_marseille","lat":43.303046,"lon":5.368981,"is_reserved":false,"is_disabled":false,"rental_uris":{"android":"levelo://app?vid=510ab947-c241-4363-9174-d9b4cfea12c1","ios":"levelo://app?vid=510ab947-c241-4363-9174-d9b4cfea12c1"},"vehicle_type_id":"4","last_reported":1689800761,"current_range_meters":24800,"station_id":"ce4bgqh2rcd13ifvqc5g","pricing_plan_id":"free"},{"bike_id":"e9ec95b0-da07-4d74-abad-d7e431214fe2","system_id":"levelo_inurba_marseille","lat":43.303046,"lon":5.368981,"is_reserved":false,"is_disabled":false,"rental_uris":{"android":"levelo://app?vid=e9ec95b0-da07-4d74-abad-d7e431214fe2","ios":"levelo://app?vid=e9ec95b0-da07-4d74-abad-d7e431214fe2"},"vehicle_type_id":"4","last_reported":1689800761,"current_range_meters":0,"station_id":"ce4bgqh2rcd13ifvqc5g","pricing_plan_id":"free"},{"bike_id":"0070f38a-7596-4d73-a2bc-b70d358656b4","system_id":"levelo_inurba_marseille","lat":43.303046,"lon":5.368981,"is_reserved":false,"is_disabled":false,"rental_uris":{"android":"levelo://app?vid=0070f38a-7596-4d73-a2bc-b70d358656b4","ios":"levelo://app?vid=0070f38a-7596-4d73-a2bc-b70d358656b4"},"vehicle_type_id":"4","last_reported":1689800761,"current_range_meters":17200,"station_id":"ce4bgqh2rcd13ifvqc5g","pricing_plan_id":"free"},{"bike_id":"4935a174-fe2e-4b69-a2fa-275694cbffd8","system_id":"levelo_inurba_marseille","lat":43.303046,"lon":5.368981,"is_reserved":false,"is_disabled":false,"rental_uris":{"android":"levelo://app?vid=4935a174-fe2e-4b69-a2fa-275694cbffd8","ios":"levelo://app?vid=4935a174-fe2e-4b69-a2fa-275694cbffd8"},"vehicle_type_id":"4","last_reported":1689800761,"current_range_meters":21200,"station_id":"ce4bgqh2rcd13ifvqc5g","pricing_plan_id":"free"},{"bike_id":"ea2adf0f-3fd5-485e-9332-fdf53469ff4d","system_id":"levelo_inurba_marseille","lat":43.315293,"lon":5.380349,"is_reserved":false,"is_disabled":false,"rental_uris":{"android":"levelo://app?vid=ea2adf0f-3fd5-485e-9332-fdf53469ff4d","ios":"levelo://app?vid=ea2adf0f-3fd5-485e-9332-fdf53469ff4d"},"vehicle_type_id":"4","last_reported":1689800761,"current_range_meters":6000,"station_id":"ce4bhsp2rcd13ifvqi50","pricing_plan_id":"free"},{"bike_id":"c3be3ed4-091b-4a6d-bccb-64e0dc394b8c","system_id":"levelo_inurba_marseille","lat":43.315293,"lon":5.380349,"is_reserved":false,"is_disabled":false,"rental_uris":{"android":"levelo://app?vid=c3be3ed4-091b-4a6d-bccb-64e0dc394b8c","ios":"levelo://app?vid=c3be3ed4-091b-4a6d-bccb-64e0dc394b8c"},"vehicle_type_id":"4","last_reported":1689800761,"current_range_meters":21600,"station_id":"ce4bhsp2rcd13ifvqi50","pricing_plan_id":"free"},{"bike_id":"9599f709-3cb8-4be8-b6d2-64beea24b87e","system_id":"levelo_inurba_marseille","lat":43.315293,"lon":5.380349,"is_reserved":false,"is_disabled":false,"rental_uris":{"android":"levelo://app?vid=9599f709-3cb8-4be8-b6d2-64beea24b87e","ios":"levelo://app?vid=9599f709-3cb8-4be8-b6d2-64beea24b87e"},"vehicle_type_id":"4","last_reported":1689800761,"current_range_meters":6400,"station_id":"ce4bhsp2rcd13ifvqi50","pricing_plan_id":"free"},{"bike_id":"bc9ecdbd-f758-441d-a2a1-cfe345658aab","system_id":"levelo_inurba_marseille","lat":43.308012,"lon":5.381511,"is_reserved":false,"is_disabled":false,"rental_uris":{"android":"levelo://app?vid=bc9ecdbd-f758-441d-a2a1-cfe345658aab","ios":"levelo://app?vid=bc9ecdbd-f758-441d-a2a1-cfe345658aab"},"vehicle_type_id":"4","last_reported":1689800761,"current_range_meters":13200,"station_id":"ce4bgt12rcd13ifvqce0","pricing_plan_id":"free"},{"bike_id":"1a26c26c-c675-490b-ae38-6cfdccfa5853","system_id":"levelo_inurba_marseille","lat":43.308012,"lon":5.381511,"is_reserved":false,"is_disabled":false,"rental_uris":{"android":"levelo://app?vid=1a26c26c-c675-490b-ae38-6cfdccfa5853","ios":"levelo://app?vid=1a26c26c-c675-490b-ae38-6cfdccfa5853"},"vehicle_type_id":"4","last_reported":1689800761,"current_range_meters":9200,"station_id":"ce4bgt12rcd13ifvqce0","pricing_plan_id":"free"},{"bike_id":"09642bd8-c908-4a32-9b51-23e6cf91238e","system_id":"levelo_inurba_marseille","lat":43.30807,"lon":5.38155,"is_reserved":false,"is_disabled":false,"rental_uris":{"android":"levelo://app?vid=09642bd8-c908-4a32-9b51-23e6cf91238e","ios":"levelo://app?vid=09642bd8-c908-4a32-9b51-23e6cf91238e"},"vehicle_type_id":"4","last_reported":1689800761,"current_range_meters":25200,"station_id":"ce4bgt12rcd13ifvqce0","pricing_plan_id":"free"},{"bike_id":"96d5a73f-c967-4a21-a028-d169a4aed49c","system_id":"levelo_inurba_marseille","lat":43.308012,"lon":5.381511,"is_reserved":false,"is_disabled":false,"rental_uris":{"android":"levelo://app?vid=96d5a73f-c967-4a21-a028-d169a4aed49c","ios":"levelo://app?vid=96d5a73f-c967-4a21-a028-d169a4aed49c"},"vehicle_type_id":"4","last_reported":1689800761,"current_range_meters":7200,"station_id":"ce4bgt12rcd13ifvqce0","pricing_plan_id":"free"},{"bike_id":"8b46eca2-fd70-4a8c-9e2c-f1aa2ab1fa88","system_id":"levelo_inurba_marseille","lat":43.30803,"lon":5.38153,"is_reserved":false,"is_disabled":false,"rental_uris":{"android":"levelo://app?vid=8b46eca2-fd70-4a8c-9e2c-f1aa2ab1fa88","ios":"levelo://app?vid=8b46eca2-fd70-4a8c-9e2c-f1aa2ab1fa88"},"vehicle_type_id":"4","last_reported":1689800761,"current_range_meters":3600,"station_id":"ce4bgt12rcd13ifvqce0","pricing_plan_id":"free"},{"bike_id":"5a605a45-c07c-4c30-aab9-ebd8a401dcf0","system_id":"levelo_inurba_marseille","lat":43.308012,"lon":5.381511,"is_reserved":false,"is_disabled":false,"rental_uris":{"android":"levelo://app?vid=5a605a45-c07c-4c30-aab9-ebd8a401dcf0","ios":"levelo://app?vid=5a605a45-c07c-4c30-aab9-ebd8a401dcf0"},"vehicle_type_id":"4","last_reported":1689800761,"current_range_meters":18800,"station_id":"ce4bgt12rcd13ifvqce0","pricing_plan_id":"free"},{"bike_id":"98350bb9-df50-430a-b9f1-bd3dd91331e8","system_id":"levelo_inurba_marseille","lat":43.308012,"lon":5.381511,"is_reserved":false,"is_disabled":false,"rental_uris":{"android":"levelo://app?vid=98350bb9-df50-430a-b9f1-bd3dd91331e8","ios":"levelo://app?vid=98350bb9-df50-430a-b9f1-bd3dd91331e8"},"vehicle_type_id":"4","last_reported":1689800761,"current_range_meters":10000,"station_id":"ce4bgt12rcd13ifvqce0","pricing_plan_id":"free"},{"bike_id":"a7a740d0-f9ff-4551-8294-79c73fd3af2a","system_id":"levelo_inurba_marseille","lat":43.308012,"lon":5.381511,"is_reserved":false,"is_disabled":false,"rental_uris":{"android":"levelo://app?vid=a7a740d0-f9ff-4551-8294-79c73fd3af2a","ios":"levelo://app?vid=a7a740d0-f9ff-4551-8294-79c73fd3af2a"},"vehicle_type_id":"4","last_reported":1689800761,"current_range_meters":18800,"station_id":"ce4bgt12rcd13ifvqce0","pricing_plan_id":"free"},{"bike_id":"fc8a80ae-72a3-466f-b4b5-1b8355e80efa","system_id":"levelo_inurba_marseille","lat":43.308012,"lon":5.381511,"is_reserved":false,"is_disabled":false,"rental_uris":{"android":"levelo://app?vid=fc8a80ae-72a3-466f-b4b5-1b8355e80efa","ios":"levelo://app?vid=fc8a80ae-72a3-466f-b4b5-1b8355e80efa"},"vehicle_type_id":"4","last_reported":1689800761,"current_range_meters":28000,"station_id":"ce4bgt12rcd13ifvqce0","pricing_plan_id":"free"},{"bike_id":"9ab133cc-59b0-4c34-8ef0-99233425e24b","system_id":"levelo_inurba_marseille","lat":43.308012,"lon":5.381511,"is_reserved":false,"is_disabled":false,"rental_uris":{"android":"levelo://app?vid=9ab133cc-59b0-4c34-8ef0-99233425e24b","ios":"levelo://app?vid=9ab133cc-59b0-4c34-8ef0-99233425e24b"},"vehicle_type_id":"4","last_reported":1689800761,"current_range_meters":18400,"station_id":"ce4bgt12rcd13ifvqce0","pricing_plan_id":"free"},{"bike_id":"50542eb1-6783-4ac5-aab4-fded3ff8c8ac","system_id":"levelo_inurba_marseille","lat":43.304606,"lon":5.379026,"is_reserved":false,"is_disabled":false,"rental_uris":{"android":"levelo://app?vid=50542eb1-6783-4ac5-aab4-fded3ff8c8ac","ios":"levelo://app?vid=50542eb1-6783-4ac5-aab4-fded3ff8c8ac"},"vehicle_type_id":"4","last_reported":1689800761,"current_range_meters":18400,"station_id":"ce4bgup2rcd13ifvqcn0","pricing_plan_id":"free"},{"bike_id":"d1aa5e1a-fdb6-4663-ae31-66af7298b75e","system_id":"levelo_inurba_marseille","lat":43.304606,"lon":5.379026,"is_reserved":false,"is_disabled":false,"rental_uris":{"android":"levelo://app?vid=d1aa5e1a-fdb6-4663-ae31-66af7298b75e","ios":"levelo://app?vid=d1aa5e1a-fdb6-4663-ae31-66af7298b75e"},"vehicle_type_id":"4","last_reported":1689800761,"current_range_meters":31200,"station_id":"ce4bgup2rcd13ifvqcn0","pricing_plan_id":"free"},{"bike_id":"7bdabb38-98d0-4858-9825-90c185566e90","system_id":"levelo_inurba_marseille","lat":43.304606,"lon":5.379026,"is_reserved":false,"is_disabled":false,"rental_uris":{"android":"levelo://app?vid=7bdabb38-98d0-4858-9825-90c185566e90","ios":"levelo://app?vid=7bdabb38-98d0-4858-9825-90c185566e90"},"vehicle_type_id":"4","last_reported":1689800761,"current_range_meters":12400,"station_id":"ce4bgup2rcd13ifvqcn0","pricing_plan_id":"free"},{"bike_id":"43e8cc75-ffe6-4a18-839a-c6d0c4d3b2f9","system_id":"levelo_inurba_marseille","lat":43.304606,"lon":5.379026,"is_reserved":false,"is_disabled":false,"rental_uris":{"android":"levelo://app?vid=43e8cc75-ffe6-4a18-839a-c6d0c4d3b2f9","ios":"levelo://app?vid=43e8cc75-ffe6-4a18-839a-c6d0c4d3b2f9"},"vehicle_type_id":"4","last_reported":1689800761,"current_range_meters":26800,"station_id":"ce4bgup2rcd13ifvqcn0","pricing_plan_id":"free"},{"bike_id":"7b88987d-ee3a-4f68-8054-b162fbe25a8c","system_id":"levelo_inurba_marseille","lat":43.304606,"lon":5.379026,"is_reserved":false,"is_disabled":false,"rental_uris":{"android":"levelo://app?vid=7b88987d-ee3a-4f68-8054-b162fbe25a8c","ios":"levelo://app?vid=7b88987d-ee3a-4f68-8054-b162fbe25a8c"},"vehicle_type_id":"4","last_reported":1689800761,"current_range_meters":28000,"station_id":"ce4bgup2rcd13ifvqcn0","pricing_plan_id":"free"},{"bike_id":"a94a352b-c156-4a5d-89c9-69ec48c32354","system_id":"levelo_inurba_marseille","lat":43.304606,"lon":5.379026,"is_reserved":false,"is_disabled":false,"rental_uris":{"android":"levelo://app?vid=a94a352b-c156-4a5d-89c9-69ec48c32354","ios":"levelo://app?vid=a94a352b-c156-4a5d-89c9-69ec48c32354"},"vehicle_type_id":"4","last_reported":1689800761,"current_range_meters":30000,"station_id":"ce4bgup2rcd13ifvqcn0","pricing_plan_id":"free"},{"bike_id":"4e83cff6-bc8b-4388-b1d5-c7ec876dc170","system_id":"levelo_inurba_marseille","lat":43.30465,"lon":5.37897,"is_reserved":false,"is_disabled":false,"rental_uris":{"android":"levelo://app?vid=4e83cff6-bc8b-4388-b1d5-c7ec876dc170","ios":"levelo://app?vid=4e83cff6-bc8b-4388-b1d5-c7ec876dc170"},"vehicle_type_id":"4","last_reported":1689800761,"current_range_meters":30800,"station_id":"ce4bgup2rcd13ifvqcn0","pricing_plan_id":"free"},{"bike_id":"64dbc8b1-b06e-4adc-8a95-5f14a007bb7c","system_id":"levelo_inurba_marseille","lat":43.304606,"lon":5.379026,"is_reserved":false,"is_disabled":false,"rental_uris":{"android":"levelo://app?vid=64dbc8b1-b06e-4adc-8a95-5f14a007bb7c","ios":"levelo://app?vid=64dbc8b1-b06e-4adc-8a95-5f14a007bb7c"},"vehicle_type_id":"4","last_reported":1689800761,"current_range_meters":16400,"station_id":"ce4bgup2rcd13ifvqcn0","pricing_plan_id":"free"},{"bike_id":"f3607e89-89c1-412e-8937-05484510165e","system_id":"levelo_inurba_marseille","lat":43.304606,"lon":5.379026,"is_reserved":false,"is_disabled":false,"rental_uris":{"android":"levelo://app?vid=f3607e89-89c1-412e-8937-05484510165e","ios":"levelo://app?vid=f3607e89-89c1-412e-8937-05484510165e"},"vehicle_type_id":"4","last_reported":1689800761,"current_range_meters":29600,"station_id":"ce4bgup2rcd13ifvqcn0","pricing_plan_id":"free"},{"bike_id":"0c543ff6-6641-4957-b1eb-de6a686e6ee1","system_id":"levelo_inurba_marseille","lat":43.304606,"lon":5.379026,"is_reserved":false,"is_disabled":false,"rental_uris":{"android":"levelo://app?vid=0c543ff6-6641-4957-b1eb-de6a686e6ee1","ios":"levelo://app?vid=0c543ff6-6641-4957-b1eb-de6a686e6ee1"},"vehicle_type_id":"4","last_reported":1689800761,"current_range_meters":27200,"station_id":"ce4bgup2rcd13ifvqcn0","pricing_plan_id":"free"},{"bike_id":"7a057b16-5805-41d7-b942-e5139c20fd0b","system_id":"levelo_inurba_marseille","lat":43.304606,"lon":5.379026,"is_reserved":false,"is_disabled":false,"rental_uris":{"android":"levelo://app?vid=7a057b16-5805-41d7-b942-e5139c20fd0b","ios":"levelo://app?vid=7a057b16-5805-41d7-b942-e5139c20fd0b"},"vehicle_type_id":"4","last_reported":1689800761,"current_range_meters":28800,"station_id":"ce4bgup2rcd13ifvqcn0","pricing_plan_id":"free"},{"bike_id":"0bdd39eb-497c-4e9b-9fd9-d8a8cf7f2a53","system_id":"levelo_inurba_marseille","lat":43.304606,"lon":5.379026,"is_reserved":false,"is_disabled":false,"rental_uris":{"android":"levelo://app?vid=0bdd39eb-497c-4e9b-9fd9-d8a8cf7f2a53","ios":"levelo://app?vid=0bdd39eb-497c-4e9b-9fd9-d8a8cf7f2a53"},"vehicle_type_id":"4","last_reported":1689800761,"current_range_meters":32000,"station_id":"ce4bgup2rcd13ifvqcn0","pricing_plan_id":"free"},{"bike_id":"b60786b0-1b4d-444b-801d-86d0fddfa283","system_id":"levelo_inurba_marseille","lat":43.304606,"lon":5.379026,"is_reserved":false,"is_disabled":false,"rental_uris":{"android":"levelo://app?vid=b60786b0-1b4d-444b-801d-86d0fddfa283","ios":"levelo://app?vid=b60786b0-1b4d-444b-801d-86d0fddfa283"},"vehicle_type_id":"4","last_reported":1689800761,"current_range_meters":21200,"station_id":"ce4bgup2rcd13ifvqcn0","pricing_plan_id":"free"},{"bike_id":"3e6b9371-617c-4bd2-b060-d8fe6d26cf94","system_id":"levelo_inurba_marseille","lat":43.304606,"lon":5.379026,"is_reserved":false,"is_disabled":false,"rental_uris":{"android":"levelo://app?vid=3e6b9371-617c-4bd2-b060-d8fe6d26cf94","ios":"levelo://app?vid=3e6b9371-617c-4bd2-b060-d8fe6d26cf94"},"vehicle_type_id":"4","last_reported":1689800761,"current_range_meters":31200,"station_id":"ce4bgup2rcd13ifvqcn0","pricing_plan_id":"free"},{"bike_id":"5d697bcd-305b-45f7-96b1-51f36aa2467e","system_id":"levelo_inurba_marseille","lat":43.304606,"lon":5.379026,"is_reserved":false,"is_disabled":false,"rental_uris":{"android":"levelo://app?vid=5d697bcd-305b-45f7-96b1-51f36aa2467e","ios":"levelo://app?vid=5d697bcd-305b-45f7-96b1-51f36aa2467e"},"vehicle_type_id":"4","last_reported":1689800761,"current_range_meters":3600,"station_id":"ce4bgup2rcd13ifvqcn0","pricing_plan_id":"free"},{"bike_id":"00ec3091-b99e-4ffc-92b0-0ee938ac6556","system_id":"levelo_inurba_marseille","lat":43.304606,"lon":5.379026,"is_reserved":false,"is_disabled":false,"rental_uris":{"android":"levelo://app?vid=00ec3091-b99e-4ffc-92b0-0ee938ac6556","ios":"levelo://app?vid=00ec3091-b99e-4ffc-92b0-0ee938ac6556"},"vehicle_type_id":"4","last_reported":1689800761,"current_range_meters":0,"station_id":"ce4bgup2rcd13ifvqcn0","pricing_plan_id":"free"},{"bike_id":"417d9bb0-0255-4773-b84f-701fd06899cf","system_id":"levelo_inurba_marseille","lat":43.30461,"lon":5.37907,"is_reserved":false,"is_disabled":false,"rental_uris":{"android":"levelo://app?vid=417d9bb0-0255-4773-b84f-701fd06899cf","ios":"levelo://app?vid=417d9bb0-0255-4773-b84f-701fd06899cf"},"vehicle_type_id":"4","last_reported":1689800761,"current_range_meters":12400,"station_id":"ce4bgup2rcd13ifvqcn0","pricing_plan_id":"free"},{"bike_id":"ab9484aa-8827-4c0d-9193-4a0bc2166247","system_id":"levelo_inurba_marseille","lat":43.30464,"lon":5.37911,"is_reserved":false,"is_disabled":false,"rental_uris":{"android":"levelo://app?vid=ab9484aa-8827-4c0d-9193-4a0bc2166247","ios":"levelo://app?vid=ab9484aa-8827-4c0d-9193-4a0bc2166247"},"vehicle_type_id":"4","last_reported":1689800761,"current_range_meters":28400,"station_id":"ce4bgup2rcd13ifvqcn0","pricing_plan_id":"free"},{"bike_id":"d876d23f-59b7-46e9-8b57-734447fe2a5d","system_id":"levelo_inurba_marseille","lat":43.295279,"lon":5.375048,"is_reserved":false,"is_disabled":false,"rental_uris":{"android":"levelo://app?vid=d876d23f-59b7-46e9-8b57-734447fe2a5d","ios":"levelo://app?vid=d876d23f-59b7-46e9-8b57-734447fe2a5d"},"vehicle_type_id":"4","last_reported":1689800761,"current_range_meters":31200,"station_id":"ce4bgkp2rcd13ifvqbmg","pricing_plan_id":"free"},{"bike_id":"c6a2d5da-1321-4378-96b7-251946d6613e","system_id":"levelo_inurba_marseille","lat":43.302784,"lon":5.377158,"is_reserved":false,"is_disabled":false,"rental_uris":{"android":"levelo://app?vid=c6a2d5da-1321-4378-96b7-251946d6613e","ios":"levelo://app?vid=c6a2d5da-1321-4378-96b7-251946d6613e"},"vehicle_type_id":"4","last_reported":1689800761,"current_range_meters":31200,"station_id":"ce4bguh2rcd13ifvqcj0","pricing_plan_id":"free"},{"bike_id":"2461ebfb-7ee8-489a-8fa3-52668e32330f","system_id":"levelo_inurba_marseille","lat":43.302784,"lon":5.377158,"is_reserved":false,"is_disabled":false,"rental_uris":{"android":"levelo://app?vid=2461ebfb-7ee8-489a-8fa3-52668e32330f","ios":"levelo://app?vid=2461ebfb-7ee8-489a-8fa3-52668e32330f"},"vehicle_type_id":"4","last_reported":1689800761,"current_range_meters":25200,"station_id":"ce4bguh2rcd13ifvqcj0","pricing_plan_id":"free"},{"bike_id":"19100311-c096-4ea3-9658-fe0675467fb5","system_id":"levelo_inurba_marseille","lat":43.319935,"lon":5.381699,"is_reserved":false,"is_disabled":false,"rental_uris":{"android":"levelo://app?vid=19100311-c096-4ea3-9658-fe0675467fb5","ios":"levelo://app?vid=19100311-c096-4ea3-9658-fe0675467fb5"},"vehicle_type_id":"4","last_reported":1689800761,"current_range_meters":25200,"station_id":"ce4bhr12rcd13ifvqhpg","pricing_plan_id":"free"},{"bike_id":"9f03a4dd-df2e-4157-a8bf-57a40ce14c85","system_id":"levelo_inurba_marseille","lat":43.319935,"lon":5.381699,"is_reserved":false,"is_disabled":false,"rental_uris":{"android":"levelo://app?vid=9f03a4dd-df2e-4157-a8bf-57a40ce14c85","ios":"levelo://app?vid=9f03a4dd-df2e-4157-a8bf-57a40ce14c85"},"vehicle_type_id":"4","last_reported":1689800761,"current_range_meters":30000,"station_id":"ce4bhr12rcd13ifvqhpg","pricing_plan_id":"free"},{"bike_id":"f90240af-64d0-4ba8-8f20-53e145a77c44","system_id":"levelo_inurba_marseille","lat":43.319935,"lon":5.381699,"is_reserved":false,"is_disabled":false,"rental_uris":{"android":"levelo://app?vid=f90240af-64d0-4ba8-8f20-53e145a77c44","ios":"levelo://app?vid=f90240af-64d0-4ba8-8f20-53e145a77c44"},"vehicle_type_id":"4","last_reported":1689800761,"current_range_meters":26400,"station_id":"ce4bhr12rcd13ifvqhpg","pricing_plan_id":"free"},{"bike_id":"aecf68cc-6dab-4d48-9b33-456f56f1c060","system_id":"levelo_inurba_marseille","lat":43.319935,"lon":5.381699,"is_reserved":false,"is_disabled":false,"rental_uris":{"android":"levelo://app?vid=aecf68cc-6dab-4d48-9b33-456f56f1c060","ios":"levelo://app?vid=aecf68cc-6dab-4d48-9b33-456f56f1c060"},"vehicle_type_id":"4","last_reported":1689800761,"current_range_meters":21600,"station_id":"ce4bhr12rcd13ifvqhpg","pricing_plan_id":"free"},{"bike_id":"b0dd87b2-d98f-41f0-92f5-f872f1fe0084","system_id":"levelo_inurba_marseille","lat":43.319935,"lon":5.381699,"is_reserved":false,"is_disabled":false,"rental_uris":{"android":"levelo://app?vid=b0dd87b2-d98f-41f0-92f5-f872f1fe0084","ios":"levelo://app?vid=b0dd87b2-d98f-41f0-92f5-f872f1fe0084"},"vehicle_type_id":"4","last_reported":1689800761,"current_range_meters":26000,"station_id":"ce4bhr12rcd13ifvqhpg","pricing_plan_id":"free"},{"bike_id":"faa650bc-ef8b-4851-89a5-35d775b19054","system_id":"levelo_inurba_marseille","lat":43.319935,"lon":5.381699,"is_reserved":false,"is_disabled":false,"rental_uris":{"android":"levelo://app?vid=faa650bc-ef8b-4851-89a5-35d775b19054","ios":"levelo://app?vid=faa650bc-ef8b-4851-89a5-35d775b19054"},"vehicle_type_id":"4","last_reported":1689800761,"current_range_meters":6000,"station_id":"ce4bhr12rcd13ifvqhpg","pricing_plan_id":"free"},{"bike_id":"81dbb561-ba63-4cda-a721-d080e1d9f826","system_id":"levelo_inurba_marseille","lat":43.319935,"lon":5.381699,"is_reserved":false,"is_disabled":false,"rental_uris":{"android":"levelo://app?vid=81dbb561-ba63-4cda-a721-d080e1d9f826","ios":"levelo://app?vid=81dbb561-ba63-4cda-a721-d080e1d9f826"},"vehicle_type_id":"4","last_reported":1689800761,"current_range_meters":13600,"station_id":"ce4bhr12rcd13ifvqhpg","pricing_plan_id":"free"},{"bike_id":"d38cccfa-5ebc-4b9c-9934-933da8233c7f","system_id":"levelo_inurba_marseille","lat":43.319935,"lon":5.381699,"is_reserved":false,"is_disabled":false,"rental_uris":{"android":"levelo://app?vid=d38cccfa-5ebc-4b9c-9934-933da8233c7f","ios":"levelo://app?vid=d38cccfa-5ebc-4b9c-9934-933da8233c7f"},"vehicle_type_id":"4","last_reported":1689800761,"current_range_meters":9200,"station_id":"ce4bhr12rcd13ifvqhpg","pricing_plan_id":"free"},{"bike_id":"d83eaa40-f4d3-4e37-910c-d9a6410f7691","system_id":"levelo_inurba_marseille","lat":43.319935,"lon":5.381699,"is_reserved":false,"is_disabled":false,"rental_uris":{"android":"levelo://app?vid=d83eaa40-f4d3-4e37-910c-d9a6410f7691","ios":"levelo://app?vid=d83eaa40-f4d3-4e37-910c-d9a6410f7691"},"vehicle_type_id":"4","last_reported":1689800761,"current_range_meters":15600,"station_id":"ce4bhr12rcd13ifvqhpg","pricing_plan_id":"free"},{"bike_id":"46ab4ae8-3e03-4e2f-88b5-ce635874443d","system_id":"levelo_inurba_marseille","lat":43.319935,"lon":5.381699,"is_reserved":false,"is_disabled":false,"rental_uris":{"android":"levelo://app?vid=46ab4ae8-3e03-4e2f-88b5-ce635874443d","ios":"levelo://app?vid=46ab4ae8-3e03-4e2f-88b5-ce635874443d"},"vehicle_type_id":"4","last_reported":1689800761,"current_range_meters":18400,"station_id":"ce4bhr12rcd13ifvqhpg","pricing_plan_id":"free"},{"bike_id":"fd242919-17d6-4c09-be04-801d0b1fb50e","system_id":"levelo_inurba_marseille","lat":43.313571,"lon":5.384829,"is_reserved":false,"is_disabled":false,"rental_uris":{"android":"levelo://app?vid=fd242919-17d6-4c09-be04-801d0b1fb50e","ios":"levelo://app?vid=fd242919-17d6-4c09-be04-801d0b1fb50e"},"vehicle_type_id":"4","last_reported":1689800761,"current_range_meters":0,"station_id":"ce4bgt92rcd13ifvqcf0","pricing_plan_id":"free"},{"bike_id":"c22d629b-e57f-42b0-a646-d6518b1f8da3","system_id":"levelo_inurba_marseille","lat":43.313571,"lon":5.384829,"is_reserved":false,"is_disabled":false,"rental_uris":{"android":"levelo://app?vid=c22d629b-e57f-42b0-a646-d6518b1f8da3","ios":"levelo://app?vid=c22d629b-e57f-42b0-a646-d6518b1f8da3"},"vehicle_type_id":"4","last_reported":1689800761,"current_range_meters":12000,"station_id":"ce4bgt92rcd13ifvqcf0","pricing_plan_id":"free"},{"bike_id":"e69bf61d-9a95-4cad-a8bd-da5033f7d0b6","system_id":"levelo_inurba_marseille","lat":43.31357,"lon":5.38507,"is_reserved":false,"is_disabled":false,"rental_uris":{"android":"levelo://app?vid=e69bf61d-9a95-4cad-a8bd-da5033f7d0b6","ios":"levelo://app?vid=e69bf61d-9a95-4cad-a8bd-da5033f7d0b6"},"vehicle_type_id":"4","last_reported":1689800761,"current_range_meters":28400,"station_id":"ce4bgt92rcd13ifvqcf0","pricing_plan_id":"free"},{"bike_id":"27e1ba8d-5e7a-4619-8af5-d47551793877","system_id":"levelo_inurba_marseille","lat":43.299222,"lon":5.365554,"is_reserved":false,"is_disabled":false,"rental_uris":{"android":"levelo://app?vid=27e1ba8d-5e7a-4619-8af5-d47551793877","ios":"levelo://app?vid=27e1ba8d-5e7a-4619-8af5-d47551793877"},"vehicle_type_id":"4","last_reported":1689800761,"current_range_meters":3200,"station_id":"ce4bgm92rcd13ifvqbr0","pricing_plan_id":"free"},{"bike_id":"cc4c85d0-1f68-4780-9902-8c9140d64535","system_id":"levelo_inurba_marseille","lat":43.29933,"lon":5.36545,"is_reserved":false,"is_disabled":false,"rental_uris":{"android":"levelo://app?vid=cc4c85d0-1f68-4780-9902-8c9140d64535","ios":"levelo://app?vid=cc4c85d0-1f68-4780-9902-8c9140d64535"},"vehicle_type_id":"4","last_reported":1689800761,"current_range_meters":25600,"station_id":"ce4bgm92rcd13ifvqbr0","pricing_plan_id":"free"},{"bike_id":"abcd80e0-37ff-4442-a7b9-13e86bb2b907","system_id":"levelo_inurba_marseille","lat":43.30024,"lon":5.37663,"is_reserved":false,"is_disabled":false,"rental_uris":{"android":"levelo://app?vid=abcd80e0-37ff-4442-a7b9-13e86bb2b907","ios":"levelo://app?vid=abcd80e0-37ff-4442-a7b9-13e86bb2b907"},"vehicle_type_id":"4","last_reported":1689800761,"current_range_meters":6000,"station_id":"","pricing_plan_id":"free"},{"bike_id":"82c89cce-ef7b-4f28-b4fd-edf58598f8e6","system_id":"levelo_inurba_marseille","lat":43.29851,"lon":5.36285,"is_reserved":false,"is_disabled":false,"rental_uris":{"android":"levelo://app?vid=82c89cce-ef7b-4f28-b4fd-edf58598f8e6","ios":"levelo://app?vid=82c89cce-ef7b-4f28-b4fd-edf58598f8e6"},"vehicle_type_id":"4","last_reported":1689800761,"current_range_meters":5600,"station_id":"ce4bgpp2rcd13ifvqc3g","pricing_plan_id":"free"},{"bike_id":"abc4e737-4e2c-4a26-ad95-f406c688a5f5","system_id":"levelo_inurba_marseille","lat":43.2985,"lon":5.36287,"is_reserved":false,"is_disabled":false,"rental_uris":{"android":"levelo://app?vid=abc4e737-4e2c-4a26-ad95-f406c688a5f5","ios":"levelo://app?vid=abc4e737-4e2c-4a26-ad95-f406c688a5f5"},"vehicle_type_id":"4","last_reported":1689800761,"current_range_meters":11600,"station_id":"ce4bgpp2rcd13ifvqc3g","pricing_plan_id":"free"},{"bike_id":"f0a09b45-cf19-4f0a-a0a2-f7a82e1c9e14","system_id":"levelo_inurba_marseille","lat":43.2985,"lon":5.36283,"is_reserved":false,"is_disabled":false,"rental_uris":{"android":"levelo://app?vid=f0a09b45-cf19-4f0a-a0a2-f7a82e1c9e14","ios":"levelo://app?vid=f0a09b45-cf19-4f0a-a0a2-f7a82e1c9e14"},"vehicle_type_id":"4","last_reported":1689800761,"current_range_meters":8800,"station_id":"ce4bgpp2rcd13ifvqc3g","pricing_plan_id":"free"},{"bike_id":"81def130-d34a-40b0-bf08-6c4eef114ca0","system_id":"levelo_inurba_marseille","lat":43.305364,"lon":5.384119,"is_reserved":false,"is_disabled":false,"rental_uris":{"android":"levelo://app?vid=81def130-d34a-40b0-bf08-6c4eef114ca0","ios":"levelo://app?vid=81def130-d34a-40b0-bf08-6c4eef114ca0"},"vehicle_type_id":"4","last_reported":1689800761,"current_range_meters":30400,"station_id":"ce4bgg92rcd13ifvqb30","pricing_plan_id":"free"},{"bike_id":"4c8ca54e-7f9a-4af4-91d8-7cc4900dd500","system_id":"levelo_inurba_marseille","lat":43.305364,"lon":5.384119,"is_reserved":false,"is_disabled":false,"rental_uris":{"android":"levelo://app?vid=4c8ca54e-7f9a-4af4-91d8-7cc4900dd500","ios":"levelo://app?vid=4c8ca54e-7f9a-4af4-91d8-7cc4900dd500"},"vehicle_type_id":"4","last_reported":1689800761,"current_range_meters":25200,"station_id":"ce4bgg92rcd13ifvqb30","pricing_plan_id":"free"},{"bike_id":"34e1b65c-9f2c-4df0-9082-7e6d41416097","system_id":"levelo_inurba_marseille","lat":43.29847,"lon":5.36279,"is_reserved":false,"is_disabled":false,"rental_uris":{"android":"levelo://app?vid=34e1b65c-9f2c-4df0-9082-7e6d41416097","ios":"levelo://app?vid=34e1b65c-9f2c-4df0-9082-7e6d41416097"},"vehicle_type_id":"4","last_reported":1689800761,"current_range_meters":16000,"station_id":"ce4bgpp2rcd13ifvqc3g","pricing_plan_id":"free"},{"bike_id":"65d84cb3-cc96-4b33-a7aa-7b6a39041141","system_id":"levelo_inurba_marseille","lat":43.305364,"lon":5.384119,"is_reserved":false,"is_disabled":false,"rental_uris":{"android":"levelo://app?vid=65d84cb3-cc96-4b33-a7aa-7b6a39041141","ios":"levelo://app?vid=65d84cb3-cc96-4b33-a7aa-7b6a39041141"},"vehicle_type_id":"4","last_reported":1689800761,"current_range_meters":8800,"station_id":"ce4bgg92rcd13ifvqb30","pricing_plan_id":"free"},{"bike_id":"24f6271b-eb87-41b9-a041-bfd4295111af","system_id":"levelo_inurba_marseille","lat":43.29846,"lon":5.36275,"is_reserved":false,"is_disabled":false,"rental_uris":{"android":"levelo://app?vid=24f6271b-eb87-41b9-a041-bfd4295111af","ios":"levelo://app?vid=24f6271b-eb87-41b9-a041-bfd4295111af"},"vehicle_type_id":"4","last_reported":1689800761,"current_range_meters":30000,"station_id":"ce4bgpp2rcd13ifvqc3g","pricing_plan_id":"free"},{"bike_id":"bad2e2ed-e74e-43eb-b992-55665c7115db","system_id":"levelo_inurba_marseille","lat":43.29845,"lon":5.36279,"is_reserved":false,"is_disabled":false,"rental_uris":{"android":"levelo://app?vid=bad2e2ed-e74e-43eb-b992-55665c7115db","ios":"levelo://app?vid=bad2e2ed-e74e-43eb-b992-55665c7115db"},"vehicle_type_id":"4","last_reported":1689800761,"current_range_meters":10000,"station_id":"ce4bgpp2rcd13ifvqc3g","pricing_plan_id":"free"},{"bike_id":"cd4811ff-a565-4fc4-ad62-aef0c1594bf1","system_id":"levelo_inurba_marseille","lat":43.29845,"lon":5.36273,"is_reserved":false,"is_disabled":false,"rental_uris":{"android":"levelo://app?vid=cd4811ff-a565-4fc4-ad62-aef0c1594bf1","ios":"levelo://app?vid=cd4811ff-a565-4fc4-ad62-aef0c1594bf1"},"vehicle_type_id":"4","last_reported":1689800761,"current_range_meters":10000,"station_id":"ce4bgpp2rcd13ifvqc3g","pricing_plan_id":"free"},{"bike_id":"e3e26794-925c-4a72-a5d6-27f6d9e67888","system_id":"levelo_inurba_marseille","lat":43.29845,"lon":5.36272,"is_reserved":false,"is_disabled":false,"rental_uris":{"android":"levelo://app?vid=e3e26794-925c-4a72-a5d6-27f6d9e67888","ios":"levelo://app?vid=e3e26794-925c-4a72-a5d6-27f6d9e67888"},"vehicle_type_id":"4","last_reported":1689800761,"current_range_meters":28000,"station_id":"ce4bgpp2rcd13ifvqc3g","pricing_plan_id":"free"},{"bike_id":"01b26ff0-333c-4b6e-849f-0d7d800a5590","system_id":"levelo_inurba_marseille","lat":43.29844,"lon":5.36278,"is_reserved":false,"is_disabled":false,"rental_uris":{"android":"levelo://app?vid=01b26ff0-333c-4b6e-849f-0d7d800a5590","ios":"levelo://app?vid=01b26ff0-333c-4b6e-849f-0d7d800a5590"},"vehicle_type_id":"4","last_reported":1689800761,"current_range_meters":30000,"station_id":"ce4bgpp2rcd13ifvqc3g","pricing_plan_id":"free"},{"bike_id":"db104de0-dac4-420c-8460-a4649f76d9d4","system_id":"levelo_inurba_marseille","lat":43.305364,"lon":5.384119,"is_reserved":false,"is_disabled":false,"rental_uris":{"android":"levelo://app?vid=db104de0-dac4-420c-8460-a4649f76d9d4","ios":"levelo://app?vid=db104de0-dac4-420c-8460-a4649f76d9d4"},"vehicle_type_id":"4","last_reported":1689800761,"current_range_meters":18400,"station_id":"ce4bgg92rcd13ifvqb30","pricing_plan_id":"free"},{"bike_id":"afe271d2-9e04-4c8d-ae71-020eb3f0fcfa","system_id":"levelo_inurba_marseille","lat":43.29843,"lon":5.36273,"is_reserved":false,"is_disabled":false,"rental_uris":{"android":"levelo://app?vid=afe271d2-9e04-4c8d-ae71-020eb3f0fcfa","ios":"levelo://app?vid=afe271d2-9e04-4c8d-ae71-020eb3f0fcfa"},"vehicle_type_id":"4","last_reported":1689800761,"current_range_meters":30800,"station_id":"ce4bgpp2rcd13ifvqc3g","pricing_plan_id":"free"},{"bike_id":"e8c9cc66-863e-4f9d-b03f-80992fc120c0","system_id":"levelo_inurba_marseille","lat":43.305364,"lon":5.384119,"is_reserved":false,"is_disabled":false,"rental_uris":{"android":"levelo://app?vid=e8c9cc66-863e-4f9d-b03f-80992fc120c0","ios":"levelo://app?vid=e8c9cc66-863e-4f9d-b03f-80992fc120c0"},"vehicle_type_id":"4","last_reported":1689800761,"current_range_meters":12000,"station_id":"ce4bgg92rcd13ifvqb30","pricing_plan_id":"free"},{"bike_id":"49e336e3-7e63-43d4-9a61-055c05fb2adf","system_id":"levelo_inurba_marseille","lat":43.29842,"lon":5.36269,"is_reserved":false,"is_disabled":false,"rental_uris":{"android":"levelo://app?vid=49e336e3-7e63-43d4-9a61-055c05fb2adf","ios":"levelo://app?vid=49e336e3-7e63-43d4-9a61-055c05fb2adf"},"vehicle_type_id":"4","last_reported":1689800761,"current_range_meters":16800,"station_id":"ce4bgpp2rcd13ifvqc3g","pricing_plan_id":"free"},{"bike_id":"8b1348b1-a271-497e-87aa-40ab4625e38b","system_id":"levelo_inurba_marseille","lat":43.29842,"lon":5.36266,"is_reserved":false,"is_disabled":false,"rental_uris":{"android":"levelo://app?vid=8b1348b1-a271-497e-87aa-40ab4625e38b","ios":"levelo://app?vid=8b1348b1-a271-497e-87aa-40ab4625e38b"},"vehicle_type_id":"4","last_reported":1689800761,"current_range_meters":25200,"station_id":"ce4bgpp2rcd13ifvqc3g","pricing_plan_id":"free"},{"bike_id":"8a4af9bc-0d30-4e2c-81f6-b037bce77e43","system_id":"levelo_inurba_marseille","lat":43.2984,"lon":5.3627,"is_reserved":false,"is_disabled":false,"rental_uris":{"android":"levelo://app?vid=8a4af9bc-0d30-4e2c-81f6-b037bce77e43","ios":"levelo://app?vid=8a4af9bc-0d30-4e2c-81f6-b037bce77e43"},"vehicle_type_id":"4","last_reported":1689800761,"current_range_meters":4400,"station_id":"ce4bgpp2rcd13ifvqc3g","pricing_plan_id":"free"},{"bike_id":"8e80645f-995c-4113-a395-8fb69cac7403","system_id":"levelo_inurba_marseille","lat":43.29839,"lon":5.3627,"is_reserved":false,"is_disabled":false,"rental_uris":{"android":"levelo://app?vid=8e80645f-995c-4113-a395-8fb69cac7403","ios":"levelo://app?vid=8e80645f-995c-4113-a395-8fb69cac7403"},"vehicle_type_id":"4","last_reported":1689800761,"current_range_meters":30000,"station_id":"ce4bgpp2rcd13ifvqc3g","pricing_plan_id":"free"},{"bike_id":"8fef798b-9c1a-4c7e-9640-5d86d9bfbebd","system_id":"levelo_inurba_marseille","lat":43.311722,"lon":5.387247,"is_reserved":false,"is_disabled":false,"rental_uris":{"android":"levelo://app?vid=8fef798b-9c1a-4c7e-9640-5d86d9bfbebd","ios":"levelo://app?vid=8fef798b-9c1a-4c7e-9640-5d86d9bfbebd"},"vehicle_type_id":"4","last_reported":1689800761,"current_range_meters":26800,"station_id":"ce4bgv12rcd13ifvqcp0","pricing_plan_id":"free"},{"bike_id":"ff7644b5-17e4-4c17-9069-fb8b77872712","system_id":"levelo_inurba_marseille","lat":43.298433,"lon":5.362774,"is_reserved":false,"is_disabled":false,"rental_uris":{"android":"levelo://app?vid=ff7644b5-17e4-4c17-9069-fb8b77872712","ios":"levelo://app?vid=ff7644b5-17e4-4c17-9069-fb8b77872712"},"vehicle_type_id":"4","last_reported":1689800761,"current_range_meters":30800,"station_id":"ce4bgpp2rcd13ifvqc3g","pricing_plan_id":"free"},{"bike_id":"36b4d994-f54c-42ca-a130-0b493c269616","system_id":"levelo_inurba_marseille","lat":43.29839,"lon":5.36262,"is_reserved":false,"is_disabled":false,"rental_uris":{"android":"levelo://app?vid=36b4d994-f54c-42ca-a130-0b493c269616","ios":"levelo://app?vid=36b4d994-f54c-42ca-a130-0b493c269616"},"vehicle_type_id":"4","last_reported":1689800761,"current_range_meters":31200,"station_id":"ce4bgpp2rcd13ifvqc3g","pricing_plan_id":"free"},{"bike_id":"e9356394-b2db-41c3-815a-8315b83c30b3","system_id":"levelo_inurba_marseille","lat":43.29836,"lon":5.36261,"is_reserved":false,"is_disabled":false,"rental_uris":{"android":"levelo://app?vid=e9356394-b2db-41c3-815a-8315b83c30b3","ios":"levelo://app?vid=e9356394-b2db-41c3-815a-8315b83c30b3"},"vehicle_type_id":"4","last_reported":1689800761,"current_range_meters":30400,"station_id":"ce4bgpp2rcd13ifvqc3g","pricing_plan_id":"free"},{"bike_id":"edc23f06-2aec-4012-a8c8-549c8dc7105a","system_id":"levelo_inurba_marseille","lat":43.299243,"lon":5.37481,"is_reserved":false,"is_disabled":false,"rental_uris":{"android":"levelo://app?vid=edc23f06-2aec-4012-a8c8-549c8dc7105a","ios":"levelo://app?vid=edc23f06-2aec-4012-a8c8-549c8dc7105a"},"vehicle_type_id":"4","last_reported":1689800761,"current_range_meters":29600,"station_id":"ce4bgjh2rcd13ifvqbg0","pricing_plan_id":"free"},{"bike_id":"6e540f5c-0a2b-4998-a803-006b3bd56c6d","system_id":"levelo_inurba_marseille","lat":43.311722,"lon":5.387247,"is_reserved":false,"is_disabled":false,"rental_uris":{"android":"levelo://app?vid=6e540f5c-0a2b-4998-a803-006b3bd56c6d","ios":"levelo://app?vid=6e540f5c-0a2b-4998-a803-006b3bd56c6d"},"vehicle_type_id":"4","last_reported":1689800761,"current_range_meters":28400,"station_id":"ce4bgv12rcd13ifvqcp0","pricing_plan_id":"free"},{"bike_id":"bd6ff138-9b05-43aa-a500-8caf08da3f7b","system_id":"levelo_inurba_marseille","lat":43.311722,"lon":5.387247,"is_reserved":false,"is_disabled":false,"rental_uris":{"android":"levelo://app?vid=bd6ff138-9b05-43aa-a500-8caf08da3f7b","ios":"levelo://app?vid=bd6ff138-9b05-43aa-a500-8caf08da3f7b"},"vehicle_type_id":"4","last_reported":1689800761,"current_range_meters":31200,"station_id":"ce4bgv12rcd13ifvqcp0","pricing_plan_id":"free"},{"bike_id":"6cc50536-6efd-4f65-8477-e13a95899fef","system_id":"levelo_inurba_marseille","lat":43.311722,"lon":5.387247,"is_reserved":false,"is_disabled":false,"rental_uris":{"android":"levelo://app?vid=6cc50536-6efd-4f65-8477-e13a95899fef","ios":"levelo://app?vid=6cc50536-6efd-4f65-8477-e13a95899fef"},"vehicle_type_id":"4","last_reported":1689800761,"current_range_meters":18800,"station_id":"ce4bgv12rcd13ifvqcp0","pricing_plan_id":"free"},{"bike_id":"c8aa2752-a8f8-489f-b613-df27017142f0","system_id":"levelo_inurba_marseille","lat":43.299243,"lon":5.37481,"is_reserved":false,"is_disabled":false,"rental_uris":{"android":"levelo://app?vid=c8aa2752-a8f8-489f-b613-df27017142f0","ios":"levelo://app?vid=c8aa2752-a8f8-489f-b613-df27017142f0"},"vehicle_type_id":"4","last_reported":1689800761,"current_range_meters":1200,"station_id":"ce4bgjh2rcd13ifvqbg0","pricing_plan_id":"free"},{"bike_id":"aa5c686c-f8bc-4604-89ea-ebc13c4eef9d","system_id":"levelo_inurba_marseille","lat":43.311722,"lon":5.387247,"is_reserved":false,"is_disabled":false,"rental_uris":{"android":"levelo://app?vid=aa5c686c-f8bc-4604-89ea-ebc13c4eef9d","ios":"levelo://app?vid=aa5c686c-f8bc-4604-89ea-ebc13c4eef9d"},"vehicle_type_id":"4","last_reported":1689800761,"current_range_meters":12000,"station_id":"ce4bgv12rcd13ifvqcp0","pricing_plan_id":"free"},{"bike_id":"e01d59e3-f51d-479d-abfd-af12e9aa917d","system_id":"levelo_inurba_marseille","lat":43.311722,"lon":5.387247,"is_reserved":false,"is_disabled":false,"rental_uris":{"android":"levelo://app?vid=e01d59e3-f51d-479d-abfd-af12e9aa917d","ios":"levelo://app?vid=e01d59e3-f51d-479d-abfd-af12e9aa917d"},"vehicle_type_id":"4","last_reported":1689800761,"current_range_meters":17600,"station_id":"ce4bgv12rcd13ifvqcp0","pricing_plan_id":"free"},{"bike_id":"74938e7e-f1ad-49cf-a085-7d0cff10da01","system_id":"levelo_inurba_marseille","lat":43.311722,"lon":5.387247,"is_reserved":false,"is_disabled":false,"rental_uris":{"android":"levelo://app?vid=74938e7e-f1ad-49cf-a085-7d0cff10da01","ios":"levelo://app?vid=74938e7e-f1ad-49cf-a085-7d0cff10da01"},"vehicle_type_id":"4","last_reported":1689800761,"current_range_meters":4400,"station_id":"ce4bgv12rcd13ifvqcp0","pricing_plan_id":"free"},{"bike_id":"be58a856-69a2-4bea-8d50-7dd0c535c30b","system_id":"levelo_inurba_marseille","lat":43.29933,"lon":5.37615,"is_reserved":false,"is_disabled":false,"rental_uris":{"android":"levelo://app?vid=be58a856-69a2-4bea-8d50-7dd0c535c30b","ios":"levelo://app?vid=be58a856-69a2-4bea-8d50-7dd0c535c30b"},"vehicle_type_id":"4","last_reported":1689800761,"current_range_meters":9200,"station_id":"","pricing_plan_id":"free"},{"bike_id":"df66c8fa-fd75-44af-9869-f6c6fae2d030","system_id":"levelo_inurba_marseille","lat":43.297794,"lon":5.370888,"is_reserved":false,"is_disabled":false,"rental_uris":{"android":"levelo://app?vid=df66c8fa-fd75-44af-9869-f6c6fae2d030","ios":"levelo://app?vid=df66c8fa-fd75-44af-9869-f6c6fae2d030"},"vehicle_type_id":"4","last_reported":1689800761,"current_range_meters":28800,"station_id":"ce4bgop2rcd13ifvqc1g","pricing_plan_id":"free"},{"bike_id":"2ed41945-cea8-4afa-87d0-4eb6bbef9c57","system_id":"levelo_inurba_marseille","lat":43.32282,"lon":5.38266,"is_reserved":false,"is_disabled":false,"rental_uris":{"android":"levelo://app?vid=2ed41945-cea8-4afa-87d0-4eb6bbef9c57","ios":"levelo://app?vid=2ed41945-cea8-4afa-87d0-4eb6bbef9c57"},"vehicle_type_id":"4","last_reported":1689800761,"current_range_meters":21200,"station_id":"ce4bhr12rcd13ifvqhqg","pricing_plan_id":"free"},{"bike_id":"818a262c-8ab2-47ea-b60a-ae52f0d82709","system_id":"levelo_inurba_marseille","lat":43.322872,"lon":5.382756,"is_reserved":false,"is_disabled":false,"rental_uris":{"android":"levelo://app?vid=818a262c-8ab2-47ea-b60a-ae52f0d82709","ios":"levelo://app?vid=818a262c-8ab2-47ea-b60a-ae52f0d82709"},"vehicle_type_id":"4","last_reported":1689800761,"current_range_meters":19600,"station_id":"ce4bhr12rcd13ifvqhqg","pricing_plan_id":"free"},{"bike_id":"38cb8470-ab16-4d1e-bd37-13ef2ac7db48","system_id":"levelo_inurba_marseille","lat":43.322872,"lon":5.382756,"is_reserved":false,"is_disabled":false,"rental_uris":{"android":"levelo://app?vid=38cb8470-ab16-4d1e-bd37-13ef2ac7db48","ios":"levelo://app?vid=38cb8470-ab16-4d1e-bd37-13ef2ac7db48"},"vehicle_type_id":"4","last_reported":1689800761,"current_range_meters":20800,"station_id":"ce4bhr12rcd13ifvqhqg","pricing_plan_id":"free"},{"bike_id":"3296666b-4550-46e5-8780-de3f4f4bdb22","system_id":"levelo_inurba_marseille","lat":43.322872,"lon":5.382756,"is_reserved":false,"is_disabled":false,"rental_uris":{"android":"levelo://app?vid=3296666b-4550-46e5-8780-de3f4f4bdb22","ios":"levelo://app?vid=3296666b-4550-46e5-8780-de3f4f4bdb22"},"vehicle_type_id":"4","last_reported":1689800761,"current_range_meters":19200,"station_id":"ce4bhr12rcd13ifvqhqg","pricing_plan_id":"free"},{"bike_id":"e916ca30-98a4-4365-b6d6-d96cd71c267d","system_id":"levelo_inurba_marseille","lat":43.322872,"lon":5.382756,"is_reserved":false,"is_disabled":false,"rental_uris":{"android":"levelo://app?vid=e916ca30-98a4-4365-b6d6-d96cd71c267d","ios":"levelo://app?vid=e916ca30-98a4-4365-b6d6-d96cd71c267d"},"vehicle_type_id":"4","last_reported":1689800761,"current_range_meters":10800,"station_id":"ce4bhr12rcd13ifvqhqg","pricing_plan_id":"free"},{"bike_id":"b795213b-a1bf-4ed8-9d4d-f4a3b5a2a58d","system_id":"levelo_inurba_marseille","lat":43.322872,"lon":5.382756,"is_reserved":false,"is_disabled":false,"rental_uris":{"android":"levelo://app?vid=b795213b-a1bf-4ed8-9d4d-f4a3b5a2a58d","ios":"levelo://app?vid=b795213b-a1bf-4ed8-9d4d-f4a3b5a2a58d"},"vehicle_type_id":"4","last_reported":1689800761,"current_range_meters":7600,"station_id":"ce4bhr12rcd13ifvqhqg","pricing_plan_id":"free"},{"bike_id":"7c154cf1-be76-45ac-8f98-526cdbeb1a99","system_id":"levelo_inurba_marseille","lat":43.32291,"lon":5.38274,"is_reserved":false,"is_disabled":false,"rental_uris":{"android":"levelo://app?vid=7c154cf1-be76-45ac-8f98-526cdbeb1a99","ios":"levelo://app?vid=7c154cf1-be76-45ac-8f98-526cdbeb1a99"},"vehicle_type_id":"4","last_reported":1689800761,"current_range_meters":21200,"station_id":"ce4bhr12rcd13ifvqhqg","pricing_plan_id":"free"},{"bike_id":"c2dbc644-c7fb-4fb5-923b-703ff3d9c54f","system_id":"levelo_inurba_marseille","lat":43.328371,"lon":5.366912,"is_reserved":false,"is_disabled":false,"rental_uris":{"android":"levelo://app?vid=c2dbc644-c7fb-4fb5-923b-703ff3d9c54f","ios":"levelo://app?vid=c2dbc644-c7fb-4fb5-923b-703ff3d9c54f"},"vehicle_type_id":"4","last_reported":1689800761,"current_range_meters":28800,"station_id":"ce4bhs92rcd13ifvqi0g","pricing_plan_id":"free"},{"bike_id":"613c152a-da35-48a6-b01f-b1926d03745e","system_id":"levelo_inurba_marseille","lat":43.328371,"lon":5.366912,"is_reserved":false,"is_disabled":false,"rental_uris":{"android":"levelo://app?vid=613c152a-da35-48a6-b01f-b1926d03745e","ios":"levelo://app?vid=613c152a-da35-48a6-b01f-b1926d03745e"},"vehicle_type_id":"4","last_reported":1689800761,"current_range_meters":28800,"station_id":"ce4bhs92rcd13ifvqi0g","pricing_plan_id":"free"},{"bike_id":"1b1a92f9-a469-49be-ae33-4794a606317c","system_id":"levelo_inurba_marseille","lat":43.328371,"lon":5.366909,"is_reserved":false,"is_disabled":false,"rental_uris":{"android":"levelo://app?vid=1b1a92f9-a469-49be-ae33-4794a606317c","ios":"levelo://app?vid=1b1a92f9-a469-49be-ae33-4794a606317c"},"vehicle_type_id":"4","last_reported":1689800761,"current_range_meters":13600,"station_id":"ce4bhs92rcd13ifvqi0g","pricing_plan_id":"free"},{"bike_id":"bccd87f9-44fb-4c8c-b55e-836d1e79bd1d","system_id":"levelo_inurba_marseille","lat":43.328371,"lon":5.366909,"is_reserved":false,"is_disabled":false,"rental_uris":{"android":"levelo://app?vid=bccd87f9-44fb-4c8c-b55e-836d1e79bd1d","ios":"levelo://app?vid=bccd87f9-44fb-4c8c-b55e-836d1e79bd1d"},"vehicle_type_id":"4","last_reported":1689800761,"current_range_meters":20400,"station_id":"ce4bhs92rcd13ifvqi0g","pricing_plan_id":"free"},{"bike_id":"68aff992-6a2f-4df7-84f1-5f129124d378","system_id":"levelo_inurba_marseille","lat":43.32827,"lon":5.36688,"is_reserved":false,"is_disabled":false,"rental_uris":{"android":"levelo://app?vid=68aff992-6a2f-4df7-84f1-5f129124d378","ios":"levelo://app?vid=68aff992-6a2f-4df7-84f1-5f129124d378"},"vehicle_type_id":"4","last_reported":1689800761,"current_range_meters":29200,"station_id":"ce4bhs92rcd13ifvqi0g","pricing_plan_id":"free"},{"bike_id":"c52398db-3149-4ccd-8b41-49b4cc753238","system_id":"levelo_inurba_marseille","lat":43.328371,"lon":5.366912,"is_reserved":false,"is_disabled":false,"rental_uris":{"android":"levelo://app?vid=c52398db-3149-4ccd-8b41-49b4cc753238","ios":"levelo://app?vid=c52398db-3149-4ccd-8b41-49b4cc753238"},"vehicle_type_id":"4","last_reported":1689800761,"current_range_meters":14000,"station_id":"ce4bhs92rcd13ifvqi0g","pricing_plan_id":"free"},{"bike_id":"c60ae560-9dc6-4bdd-b313-baa25229a308","system_id":"levelo_inurba_marseille","lat":43.328371,"lon":5.366912,"is_reserved":false,"is_disabled":false,"rental_uris":{"android":"levelo://app?vid=c60ae560-9dc6-4bdd-b313-baa25229a308","ios":"levelo://app?vid=c60ae560-9dc6-4bdd-b313-baa25229a308"},"vehicle_type_id":"4","last_reported":1689800761,"current_range_meters":18800,"station_id":"ce4bhs92rcd13ifvqi0g","pricing_plan_id":"free"},{"bike_id":"da10ba33-5415-4d7a-97f6-c10c6d32e73b","system_id":"levelo_inurba_marseille","lat":43.3283,"lon":5.3669,"is_reserved":false,"is_disabled":false,"rental_uris":{"android":"levelo://app?vid=da10ba33-5415-4d7a-97f6-c10c6d32e73b","ios":"levelo://app?vid=da10ba33-5415-4d7a-97f6-c10c6d32e73b"},"vehicle_type_id":"4","last_reported":1689800761,"current_range_meters":11200,"station_id":"ce4bhs92rcd13ifvqi0g","pricing_plan_id":"free"},{"bike_id":"13d003be-42f5-4e3b-9b1b-d7cf7e52da36","system_id":"levelo_inurba_marseille","lat":43.3283,"lon":5.36687,"is_reserved":false,"is_disabled":false,"rental_uris":{"android":"levelo://app?vid=13d003be-42f5-4e3b-9b1b-d7cf7e52da36","ios":"levelo://app?vid=13d003be-42f5-4e3b-9b1b-d7cf7e52da36"},"vehicle_type_id":"4","last_reported":1689800761,"current_range_meters":19600,"station_id":"ce4bhs92rcd13ifvqi0g","pricing_plan_id":"free"},{"bike_id":"8301fc62-03e5-4157-b5c8-6668c5d99125","system_id":"levelo_inurba_marseille","lat":43.3283,"lon":5.36685,"is_reserved":false,"is_disabled":false,"rental_uris":{"android":"levelo://app?vid=8301fc62-03e5-4157-b5c8-6668c5d99125","ios":"levelo://app?vid=8301fc62-03e5-4157-b5c8-6668c5d99125"},"vehicle_type_id":"4","last_reported":1689800761,"current_range_meters":2800,"station_id":"ce4bhs92rcd13ifvqi0g","pricing_plan_id":"free"},{"bike_id":"4339c714-480f-436b-b9e8-7710d4628761","system_id":"levelo_inurba_marseille","lat":43.32831,"lon":5.36687,"is_reserved":false,"is_disabled":false,"rental_uris":{"android":"levelo://app?vid=4339c714-480f-436b-b9e8-7710d4628761","ios":"levelo://app?vid=4339c714-480f-436b-b9e8-7710d4628761"},"vehicle_type_id":"4","last_reported":1689800761,"current_range_meters":10400,"station_id":"ce4bhs92rcd13ifvqi0g","pricing_plan_id":"free"},{"bike_id":"fa22a42c-19fd-4d4c-b13d-acfa470204e5","system_id":"levelo_inurba_marseille","lat":43.328371,"lon":5.366909,"is_reserved":false,"is_disabled":false,"rental_uris":{"android":"levelo://app?vid=fa22a42c-19fd-4d4c-b13d-acfa470204e5","ios":"levelo://app?vid=fa22a42c-19fd-4d4c-b13d-acfa470204e5"},"vehicle_type_id":"4","last_reported":1689800761,"current_range_meters":18400,"station_id":"ce4bhs92rcd13ifvqi0g","pricing_plan_id":"free"},{"bike_id":"7cf3ce18-fc93-49d0-8266-df893e5e40fa","system_id":"levelo_inurba_marseille","lat":43.297163,"lon":5.365866,"is_reserved":false,"is_disabled":false,"rental_uris":{"android":"levelo://app?vid=7cf3ce18-fc93-49d0-8266-df893e5e40fa","ios":"levelo://app?vid=7cf3ce18-fc93-49d0-8266-df893e5e40fa"},"vehicle_type_id":"4","last_reported":1689800761,"current_range_meters":22000,"station_id":"ce4bgn12rcd13ifvqbt0","pricing_plan_id":"free"},{"bike_id":"3916e407-8c11-4a2b-8e00-1d25f7bfdca8","system_id":"levelo_inurba_marseille","lat":43.297163,"lon":5.365866,"is_reserved":false,"is_disabled":false,"rental_uris":{"android":"levelo://app?vid=3916e407-8c11-4a2b-8e00-1d25f7bfdca8","ios":"levelo://app?vid=3916e407-8c11-4a2b-8e00-1d25f7bfdca8"},"vehicle_type_id":"4","last_reported":1689800761,"current_range_meters":25200,"station_id":"ce4bgn12rcd13ifvqbt0","pricing_plan_id":"free"},{"bike_id":"5b8a7518-5216-454d-9b40-b7871c1908ae","system_id":"levelo_inurba_marseille","lat":43.2968,"lon":5.37291,"is_reserved":false,"is_disabled":false,"rental_uris":{"android":"levelo://app?vid=5b8a7518-5216-454d-9b40-b7871c1908ae","ios":"levelo://app?vid=5b8a7518-5216-454d-9b40-b7871c1908ae"},"vehicle_type_id":"4","last_reported":1689800761,"current_range_meters":14400,"station_id":"ce4bgk12rcd13ifvqbj0","pricing_plan_id":"free"},{"bike_id":"6c6910e7-02aa-4511-afdc-de4027496eb4","system_id":"levelo_inurba_marseille","lat":43.2968,"lon":5.37291,"is_reserved":false,"is_disabled":false,"rental_uris":{"android":"levelo://app?vid=6c6910e7-02aa-4511-afdc-de4027496eb4","ios":"levelo://app?vid=6c6910e7-02aa-4511-afdc-de4027496eb4"},"vehicle_type_id":"4","last_reported":1689800761,"current_range_meters":29200,"station_id":"ce4bgk12rcd13ifvqbj0","pricing_plan_id":"free"},{"bike_id":"1beec325-4d8f-4c00-b885-b78818bc7f58","system_id":"levelo_inurba_marseille","lat":43.29582,"lon":5.3675,"is_reserved":false,"is_disabled":false,"rental_uris":{"android":"levelo://app?vid=1beec325-4d8f-4c00-b885-b78818bc7f58","ios":"levelo://app?vid=1beec325-4d8f-4c00-b885-b78818bc7f58"},"vehicle_type_id":"4","last_reported":1689800761,"current_range_meters":28400,"station_id":"ce4bgph2rcd13ifvqc2g","pricing_plan_id":"free"},{"bike_id":"c1b8a9e1-b4b3-4ecf-b661-7fd9a3891525","system_id":"levelo_inurba_marseille","lat":43.296921,"lon":5.376579,"is_reserved":false,"is_disabled":false,"rental_uris":{"android":"levelo://app?vid=c1b8a9e1-b4b3-4ecf-b661-7fd9a3891525","ios":"levelo://app?vid=c1b8a9e1-b4b3-4ecf-b661-7fd9a3891525"},"vehicle_type_id":"4","last_reported":1689800761,"current_range_meters":11600,"station_id":"ce4bgkh2rcd13ifvqbl0","pricing_plan_id":"free"},{"bike_id":"f9d209b6-dc93-4a81-b83c-3c2bb6c98dd6","system_id":"levelo_inurba_marseille","lat":43.2962,"lon":5.36047,"is_reserved":false,"is_disabled":false,"rental_uris":{"android":"levelo://app?vid=f9d209b6-dc93-4a81-b83c-3c2bb6c98dd6","ios":"levelo://app?vid=f9d209b6-dc93-4a81-b83c-3c2bb6c98dd6"},"vehicle_type_id":"4","last_reported":1689800761,"current_range_meters":26000,"station_id":"","pricing_plan_id":"free"},{"bike_id":"08fcd5ed-86a8-4fa2-8b07-02a6ae0fafae","system_id":"levelo_inurba_marseille","lat":43.29906,"lon":5.38133,"is_reserved":false,"is_disabled":false,"rental_uris":{"android":"levelo://app?vid=08fcd5ed-86a8-4fa2-8b07-02a6ae0fafae","ios":"levelo://app?vid=08fcd5ed-86a8-4fa2-8b07-02a6ae0fafae"},"vehicle_type_id":"4","last_reported":1689800761,"current_range_meters":20400,"station_id":"ce4bgj12rcd13ifvqbc0","pricing_plan_id":"free"},{"bike_id":"9fa2e0f7-9a34-45ae-80b2-158f7c2b1fc5","system_id":"levelo_inurba_marseille","lat":43.299028,"lon":5.381509,"is_reserved":false,"is_disabled":false,"rental_uris":{"android":"levelo://app?vid=9fa2e0f7-9a34-45ae-80b2-158f7c2b1fc5","ios":"levelo://app?vid=9fa2e0f7-9a34-45ae-80b2-158f7c2b1fc5"},"vehicle_type_id":"4","last_reported":1689800761,"current_range_meters":4800,"station_id":"ce4bgj12rcd13ifvqbc0","pricing_plan_id":"free"},{"bike_id":"44492cb2-0763-4644-8429-316db2c06f14","system_id":"levelo_inurba_marseille","lat":43.299,"lon":5.38131,"is_reserved":false,"is_disabled":false,"rental_uris":{"android":"levelo://app?vid=44492cb2-0763-4644-8429-316db2c06f14","ios":"levelo://app?vid=44492cb2-0763-4644-8429-316db2c06f14"},"vehicle_type_id":"4","last_reported":1689800761,"current_range_meters":18400,"station_id":"ce4bgj12rcd13ifvqbc0","pricing_plan_id":"free"},{"bike_id":"de3ae1bb-95ed-48c6-9f34-cff79b929089","system_id":"levelo_inurba_marseille","lat":43.299028,"lon":5.381509,"is_reserved":false,"is_disabled":false,"rental_uris":{"android":"levelo://app?vid=de3ae1bb-95ed-48c6-9f34-cff79b929089","ios":"levelo://app?vid=de3ae1bb-95ed-48c6-9f34-cff79b929089"},"vehicle_type_id":"4","last_reported":1689800761,"current_range_meters":24800,"station_id":"ce4bgj12rcd13ifvqbc0","pricing_plan_id":"free"},{"bike_id":"83dde77d-9ff6-4d94-9e95-eab64f7c7979","system_id":"levelo_inurba_marseille","lat":43.309589,"lon":5.390258,"is_reserved":false,"is_disabled":false,"rental_uris":{"android":"levelo://app?vid=83dde77d-9ff6-4d94-9e95-eab64f7c7979","ios":"levelo://app?vid=83dde77d-9ff6-4d94-9e95-eab64f7c7979"},"vehicle_type_id":"4","last_reported":1689800761,"current_range_meters":17600,"station_id":"ce4bgup2rcd13ifvqco0","pricing_plan_id":"free"},{"bike_id":"4ba7d06b-350f-4d41-83b0-07d897c408af","system_id":"levelo_inurba_marseille","lat":43.299028,"lon":5.381509,"is_reserved":false,"is_disabled":false,"rental_uris":{"android":"levelo://app?vid=4ba7d06b-350f-4d41-83b0-07d897c408af","ios":"levelo://app?vid=4ba7d06b-350f-4d41-83b0-07d897c408af"},"vehicle_type_id":"4","last_reported":1689800761,"current_range_meters":31600,"station_id":"ce4bgj12rcd13ifvqbc0","pricing_plan_id":"free"},{"bike_id":"35d08ab4-92e7-4a5c-af9a-00a6b9fbda1b","system_id":"levelo_inurba_marseille","lat":43.296921,"lon":5.376579,"is_reserved":false,"is_disabled":false,"rental_uris":{"android":"levelo://app?vid=35d08ab4-92e7-4a5c-af9a-00a6b9fbda1b","ios":"levelo://app?vid=35d08ab4-92e7-4a5c-af9a-00a6b9fbda1b"},"vehicle_type_id":"4","last_reported":1689800761,"current_range_meters":30000,"station_id":"ce4bgkh2rcd13ifvqbl0","pricing_plan_id":"free"},{"bike_id":"62f0ea14-2ebe-4bab-8ac3-4c624de0c956","system_id":"levelo_inurba_marseille","lat":43.296921,"lon":5.376579,"is_reserved":false,"is_disabled":false,"rental_uris":{"android":"levelo://app?vid=62f0ea14-2ebe-4bab-8ac3-4c624de0c956","ios":"levelo://app?vid=62f0ea14-2ebe-4bab-8ac3-4c624de0c956"},"vehicle_type_id":"4","last_reported":1689800761,"current_range_meters":13200,"station_id":"ce4bgkh2rcd13ifvqbl0","pricing_plan_id":"free"},{"bike_id":"bb576ec3-6280-4aad-a50a-6f5a38127f82","system_id":"levelo_inurba_marseille","lat":43.299028,"lon":5.381509,"is_reserved":false,"is_disabled":false,"rental_uris":{"android":"levelo://app?vid=bb576ec3-6280-4aad-a50a-6f5a38127f82","ios":"levelo://app?vid=bb576ec3-6280-4aad-a50a-6f5a38127f82"},"vehicle_type_id":"4","last_reported":1689800761,"current_range_meters":28800,"station_id":"ce4bgj12rcd13ifvqbc0","pricing_plan_id":"free"},{"bike_id":"39d396cb-18b9-4666-8acf-90d9bddbdb47","system_id":"levelo_inurba_marseille","lat":43.299028,"lon":5.381509,"is_reserved":false,"is_disabled":false,"rental_uris":{"android":"levelo://app?vid=39d396cb-18b9-4666-8acf-90d9bddbdb47","ios":"levelo://app?vid=39d396cb-18b9-4666-8acf-90d9bddbdb47"},"vehicle_type_id":"4","last_reported":1689800761,"current_range_meters":27200,"station_id":"ce4bgj12rcd13ifvqbc0","pricing_plan_id":"free"},{"bike_id":"3e68acac-5d66-4f9e-aca6-91f240b0491a","system_id":"levelo_inurba_marseille","lat":43.299028,"lon":5.381509,"is_reserved":false,"is_disabled":false,"rental_uris":{"android":"levelo://app?vid=3e68acac-5d66-4f9e-aca6-91f240b0491a","ios":"levelo://app?vid=3e68acac-5d66-4f9e-aca6-91f240b0491a"},"vehicle_type_id":"4","last_reported":1689800761,"current_range_meters":31200,"station_id":"ce4bgj12rcd13ifvqbc0","pricing_plan_id":"free"},{"bike_id":"0067aad5-1eb9-4b8d-8773-71092011dd0a","system_id":"levelo_inurba_marseille","lat":43.309589,"lon":5.390258,"is_reserved":false,"is_disabled":false,"rental_uris":{"android":"levelo://app?vid=0067aad5-1eb9-4b8d-8773-71092011dd0a","ios":"levelo://app?vid=0067aad5-1eb9-4b8d-8773-71092011dd0a"},"vehicle_type_id":"4","last_reported":1689800761,"current_range_meters":30800,"station_id":"ce4bgup2rcd13ifvqco0","pricing_plan_id":"free"},{"bike_id":"547ebcab-c826-47da-a439-80020c8fa12b","system_id":"levelo_inurba_marseille","lat":43.299028,"lon":5.381509,"is_reserved":false,"is_disabled":false,"rental_uris":{"android":"levelo://app?vid=547ebcab-c826-47da-a439-80020c8fa12b","ios":"levelo://app?vid=547ebcab-c826-47da-a439-80020c8fa12b"},"vehicle_type_id":"4","last_reported":1689800761,"current_range_meters":24400,"station_id":"ce4bgj12rcd13ifvqbc0","pricing_plan_id":"free"},{"bike_id":"5190cbf6-4352-41af-b5fd-9e0f4654dc8c","system_id":"levelo_inurba_marseille","lat":43.29665,"lon":5.37625,"is_reserved":false,"is_disabled":false,"rental_uris":{"android":"levelo://app?vid=5190cbf6-4352-41af-b5fd-9e0f4654dc8c","ios":"levelo://app?vid=5190cbf6-4352-41af-b5fd-9e0f4654dc8c"},"vehicle_type_id":"4","last_reported":1689800761,"current_range_meters":10000,"station_id":"","pricing_plan_id":"free"},{"bike_id":"cbeb4e06-9a75-465b-886d-291d40563171","system_id":"levelo_inurba_marseille","lat":43.317557,"lon":5.390173,"is_reserved":false,"is_disabled":false,"rental_uris":{"android":"levelo://app?vid=cbeb4e06-9a75-465b-886d-291d40563171","ios":"levelo://app?vid=cbeb4e06-9a75-465b-886d-291d40563171"},"vehicle_type_id":"4","last_reported":1689800761,"current_range_meters":12800,"station_id":"ce4bhqp2rcd13ifvqhng","pricing_plan_id":"free"},{"bike_id":"433b16e5-ef4a-484c-a62d-532404766549","system_id":"levelo_inurba_marseille","lat":43.317557,"lon":5.390173,"is_reserved":false,"is_disabled":false,"rental_uris":{"android":"levelo://app?vid=433b16e5-ef4a-484c-a62d-532404766549","ios":"levelo://app?vid=433b16e5-ef4a-484c-a62d-532404766549"},"vehicle_type_id":"4","last_reported":1689800761,"current_range_meters":27600,"station_id":"ce4bhqp2rcd13ifvqhng","pricing_plan_id":"free"},{"bike_id":"e169092d-6a86-456a-b8a5-88d83c7d7b4c","system_id":"levelo_inurba_marseille","lat":43.298037,"lon":5.381066,"is_reserved":false,"is_disabled":false,"rental_uris":{"android":"levelo://app?vid=e169092d-6a86-456a-b8a5-88d83c7d7b4c","ios":"levelo://app?vid=e169092d-6a86-456a-b8a5-88d83c7d7b4c"},"vehicle_type_id":"4","last_reported":1689800761,"current_range_meters":31200,"station_id":"ce4bgip2rcd13ifvqbb0","pricing_plan_id":"free"},{"bike_id":"50737f05-2c23-4da9-86bb-1dfe7beffc1f","system_id":"levelo_inurba_marseille","lat":43.29808,"lon":5.38095,"is_reserved":false,"is_disabled":false,"rental_uris":{"android":"levelo://app?vid=50737f05-2c23-4da9-86bb-1dfe7beffc1f","ios":"levelo://app?vid=50737f05-2c23-4da9-86bb-1dfe7beffc1f"},"vehicle_type_id":"4","last_reported":1689800761,"current_range_meters":25600,"station_id":"","pricing_plan_id":"free"},{"bike_id":"f7de828b-7dbc-43bc-8c9b-dd7f6adfce6d","system_id":"levelo_inurba_marseille","lat":43.298037,"lon":5.381066,"is_reserved":false,"is_disabled":false,"rental_uris":{"android":"levelo://app?vid=f7de828b-7dbc-43bc-8c9b-dd7f6adfce6d","ios":"levelo://app?vid=f7de828b-7dbc-43bc-8c9b-dd7f6adfce6d"},"vehicle_type_id":"4","last_reported":1689800761,"current_range_meters":20400,"station_id":"ce4bgip2rcd13ifvqbb0","pricing_plan_id":"free"},{"bike_id":"d2d350ac-00a0-41d5-b88e-3c410e763201","system_id":"levelo_inurba_marseille","lat":43.304278,"lon":5.388868,"is_reserved":false,"is_disabled":false,"rental_uris":{"android":"levelo://app?vid=d2d350ac-00a0-41d5-b88e-3c410e763201","ios":"levelo://app?vid=d2d350ac-00a0-41d5-b88e-3c410e763201"},"vehicle_type_id":"4","last_reported":1689800761,"current_range_meters":14000,"station_id":"ce4bgk12rcd13ifvqbi0","pricing_plan_id":"free"},{"bike_id":"81d2d1b5-5741-472c-9b33-a615f72023e2","system_id":"levelo_inurba_marseille","lat":43.295748,"lon":5.37522,"is_reserved":false,"is_disabled":false,"rental_uris":{"android":"levelo://app?vid=81d2d1b5-5741-472c-9b33-a615f72023e2","ios":"levelo://app?vid=81d2d1b5-5741-472c-9b33-a615f72023e2"},"vehicle_type_id":"4","last_reported":1689800761,"current_range_meters":1600,"station_id":"ce4bgh92rcd13ifvqb50","pricing_plan_id":"free"},{"bike_id":"59394152-a3bf-4f25-8dfe-6f94e8e8ff3d","system_id":"levelo_inurba_marseille","lat":43.296277,"lon":5.377108,"is_reserved":false,"is_disabled":false,"rental_uris":{"android":"levelo://app?vid=59394152-a3bf-4f25-8dfe-6f94e8e8ff3d","ios":"levelo://app?vid=59394152-a3bf-4f25-8dfe-6f94e8e8ff3d"},"vehicle_type_id":"4","last_reported":1689800761,"current_range_meters":10000,"station_id":"ce4bgi92rcd13ifvqb90","pricing_plan_id":"free"},{"bike_id":"c7bfcda3-40fb-42ca-96e0-462b9a131ee4","system_id":"levelo_inurba_marseille","lat":43.296277,"lon":5.377108,"is_reserved":false,"is_disabled":false,"rental_uris":{"android":"levelo://app?vid=c7bfcda3-40fb-42ca-96e0-462b9a131ee4","ios":"levelo://app?vid=c7bfcda3-40fb-42ca-96e0-462b9a131ee4"},"vehicle_type_id":"4","last_reported":1689800761,"current_range_meters":4400,"station_id":"ce4bgi92rcd13ifvqb90","pricing_plan_id":"free"},{"bike_id":"43f946c7-83ac-4b48-8ce1-6ddd998e1261","system_id":"levelo_inurba_marseille","lat":43.296277,"lon":5.377108,"is_reserved":false,"is_disabled":false,"rental_uris":{"android":"levelo://app?vid=43f946c7-83ac-4b48-8ce1-6ddd998e1261","ios":"levelo://app?vid=43f946c7-83ac-4b48-8ce1-6ddd998e1261"},"vehicle_type_id":"4","last_reported":1689800761,"current_range_meters":13600,"station_id":"ce4bgi92rcd13ifvqb90","pricing_plan_id":"free"},{"bike_id":"df11dd94-83bd-4d00-b2cc-b15f733b813c","system_id":"levelo_inurba_marseille","lat":43.295279,"lon":5.375048,"is_reserved":false,"is_disabled":false,"rental_uris":{"android":"levelo://app?vid=df11dd94-83bd-4d00-b2cc-b15f733b813c","ios":"levelo://app?vid=df11dd94-83bd-4d00-b2cc-b15f733b813c"},"vehicle_type_id":"4","last_reported":1689800761,"current_range_meters":8800,"station_id":"ce4bgkp2rcd13ifvqbmg","pricing_plan_id":"free"},{"bike_id":"d03e6f2d-7cd3-4fe3-b231-d9059c294282","system_id":"levelo_inurba_marseille","lat":43.295279,"lon":5.375048,"is_reserved":false,"is_disabled":false,"rental_uris":{"android":"levelo://app?vid=d03e6f2d-7cd3-4fe3-b231-d9059c294282","ios":"levelo://app?vid=d03e6f2d-7cd3-4fe3-b231-d9059c294282"},"vehicle_type_id":"4","last_reported":1689800761,"current_range_meters":27600,"station_id":"ce4bgkp2rcd13ifvqbmg","pricing_plan_id":"free"},{"bike_id":"b201d5c9-2487-4a4d-9486-801352ffe77b","system_id":"levelo_inurba_marseille","lat":43.299707,"lon":5.384859,"is_reserved":false,"is_disabled":false,"rental_uris":{"android":"levelo://app?vid=b201d5c9-2487-4a4d-9486-801352ffe77b","ios":"levelo://app?vid=b201d5c9-2487-4a4d-9486-801352ffe77b"},"vehicle_type_id":"4","last_reported":1689800761,"current_range_meters":18400,"station_id":"ce4bgj92rcd13ifvqbd0","pricing_plan_id":"free"},{"bike_id":"38770162-7c67-425c-a043-712da5f9b2d7","system_id":"levelo_inurba_marseille","lat":43.299707,"lon":5.384859,"is_reserved":false,"is_disabled":false,"rental_uris":{"android":"levelo://app?vid=38770162-7c67-425c-a043-712da5f9b2d7","ios":"levelo://app?vid=38770162-7c67-425c-a043-712da5f9b2d7"},"vehicle_type_id":"4","last_reported":1689800761,"current_range_meters":4800,"station_id":"ce4bgj92rcd13ifvqbd0","pricing_plan_id":"free"},{"bike_id":"c5969982-d1a3-4e1d-b556-453b3c28d95d","system_id":"levelo_inurba_marseille","lat":43.29532,"lon":5.37498,"is_reserved":false,"is_disabled":false,"rental_uris":{"android":"levelo://app?vid=c5969982-d1a3-4e1d-b556-453b3c28d95d","ios":"levelo://app?vid=c5969982-d1a3-4e1d-b556-453b3c28d95d"},"vehicle_type_id":"4","last_reported":1689800761,"current_range_meters":24800,"station_id":"ce4bgkp2rcd13ifvqbmg","pricing_plan_id":"free"},{"bike_id":"46ea01eb-1982-4783-8112-f4acac522702","system_id":"levelo_inurba_marseille","lat":43.295279,"lon":5.375048,"is_reserved":false,"is_disabled":false,"rental_uris":{"android":"levelo://app?vid=46ea01eb-1982-4783-8112-f4acac522702","ios":"levelo://app?vid=46ea01eb-1982-4783-8112-f4acac522702"},"vehicle_type_id":"4","last_reported":1689800761,"current_range_meters":9200,"station_id":"ce4bgkp2rcd13ifvqbmg","pricing_plan_id":"free"},{"bike_id":"5cc27a6a-6045-48e1-8244-24acb6ccd06d","system_id":"levelo_inurba_marseille","lat":43.295279,"lon":5.375048,"is_reserved":false,"is_disabled":false,"rental_uris":{"android":"levelo://app?vid=5cc27a6a-6045-48e1-8244-24acb6ccd06d","ios":"levelo://app?vid=5cc27a6a-6045-48e1-8244-24acb6ccd06d"},"vehicle_type_id":"4","last_reported":1689800761,"current_range_meters":26400,"station_id":"ce4bgkp2rcd13ifvqbmg","pricing_plan_id":"free"},{"bike_id":"33512d02-ec57-4fb1-80a7-b1b40a77d3c0","system_id":"levelo_inurba_marseille","lat":43.299707,"lon":5.384859,"is_reserved":false,"is_disabled":false,"rental_uris":{"android":"levelo://app?vid=33512d02-ec57-4fb1-80a7-b1b40a77d3c0","ios":"levelo://app?vid=33512d02-ec57-4fb1-80a7-b1b40a77d3c0"},"vehicle_type_id":"4","last_reported":1689800761,"current_range_meters":9200,"station_id":"ce4bgj92rcd13ifvqbd0","pricing_plan_id":"free"},{"bike_id":"b42befd7-6d2f-4249-bad3-ecde31bc38e8","system_id":"levelo_inurba_marseille","lat":43.299724,"lon":5.384848,"is_reserved":false,"is_disabled":false,"rental_uris":{"android":"levelo://app?vid=b42befd7-6d2f-4249-bad3-ecde31bc38e8","ios":"levelo://app?vid=b42befd7-6d2f-4249-bad3-ecde31bc38e8"},"vehicle_type_id":"4","last_reported":1689800761,"current_range_meters":15600,"station_id":"ce4bgj92rcd13ifvqbd0","pricing_plan_id":"free"},{"bike_id":"354a0ba5-e887-4181-bcbd-a25b2f01dbfb","system_id":"levelo_inurba_marseille","lat":43.299724,"lon":5.384848,"is_reserved":false,"is_disabled":false,"rental_uris":{"android":"levelo://app?vid=354a0ba5-e887-4181-bcbd-a25b2f01dbfb","ios":"levelo://app?vid=354a0ba5-e887-4181-bcbd-a25b2f01dbfb"},"vehicle_type_id":"4","last_reported":1689800761,"current_range_meters":10000,"station_id":"ce4bgj92rcd13ifvqbd0","pricing_plan_id":"free"},{"bike_id":"0ab1fa93-4b94-41d9-93e9-159116400a02","system_id":"levelo_inurba_marseille","lat":43.29974,"lon":5.38492,"is_reserved":false,"is_disabled":false,"rental_uris":{"android":"levelo://app?vid=0ab1fa93-4b94-41d9-93e9-159116400a02","ios":"levelo://app?vid=0ab1fa93-4b94-41d9-93e9-159116400a02"},"vehicle_type_id":"4","last_reported":1689800761,"current_range_meters":28400,"station_id":"ce4bgj92rcd13ifvqbd0","pricing_plan_id":"free"},{"bike_id":"8915427b-c342-4dd9-a656-1ede38c32562","system_id":"levelo_inurba_marseille","lat":43.29971,"lon":5.38488,"is_reserved":false,"is_disabled":false,"rental_uris":{"android":"levelo://app?vid=8915427b-c342-4dd9-a656-1ede38c32562","ios":"levelo://app?vid=8915427b-c342-4dd9-a656-1ede38c32562"},"vehicle_type_id":"4","last_reported":1689800761,"current_range_meters":23600,"station_id":"ce4bgj92rcd13ifvqbd0","pricing_plan_id":"free"},{"bike_id":"55dcf4ec-d592-4e8d-85a9-1c861f93b3cc","system_id":"levelo_inurba_marseille","lat":43.299717,"lon":5.384845,"is_reserved":false,"is_disabled":false,"rental_uris":{"android":"levelo://app?vid=55dcf4ec-d592-4e8d-85a9-1c861f93b3cc","ios":"levelo://app?vid=55dcf4ec-d592-4e8d-85a9-1c861f93b3cc"},"vehicle_type_id":"4","last_reported":1689800761,"current_range_meters":24800,"station_id":"ce4bgj92rcd13ifvqbd0","pricing_plan_id":"free"},{"bike_id":"ed9eec32-79f9-4733-97b5-8e08d0b325ae","system_id":"levelo_inurba_marseille","lat":43.299717,"lon":5.384845,"is_reserved":false,"is_disabled":false,"rental_uris":{"android":"levelo://app?vid=ed9eec32-79f9-4733-97b5-8e08d0b325ae","ios":"levelo://app?vid=ed9eec32-79f9-4733-97b5-8e08d0b325ae"},"vehicle_type_id":"4","last_reported":1689800761,"current_range_meters":19600,"station_id":"ce4bgj92rcd13ifvqbd0","pricing_plan_id":"free"},{"bike_id":"2a5d4ce1-2584-4d7e-8454-2f4ab2c75392","system_id":"levelo_inurba_marseille","lat":43.299717,"lon":5.384845,"is_reserved":false,"is_disabled":false,"rental_uris":{"android":"levelo://app?vid=2a5d4ce1-2584-4d7e-8454-2f4ab2c75392","ios":"levelo://app?vid=2a5d4ce1-2584-4d7e-8454-2f4ab2c75392"},"vehicle_type_id":"4","last_reported":1689800761,"current_range_meters":24000,"station_id":"ce4bgj92rcd13ifvqbd0","pricing_plan_id":"free"},{"bike_id":"a5414f8d-008f-4bc3-abe5-293e7d14ae2b","system_id":"levelo_inurba_marseille","lat":43.299717,"lon":5.384845,"is_reserved":false,"is_disabled":false,"rental_uris":{"android":"levelo://app?vid=a5414f8d-008f-4bc3-abe5-293e7d14ae2b","ios":"levelo://app?vid=a5414f8d-008f-4bc3-abe5-293e7d14ae2b"},"vehicle_type_id":"4","last_reported":1689800761,"current_range_meters":5600,"station_id":"ce4bgj92rcd13ifvqbd0","pricing_plan_id":"free"},{"bike_id":"350642f8-b006-4b71-8e93-6f4f5bf5787a","system_id":"levelo_inurba_marseille","lat":43.299717,"lon":5.384845,"is_reserved":false,"is_disabled":false,"rental_uris":{"android":"levelo://app?vid=350642f8-b006-4b71-8e93-6f4f5bf5787a","ios":"levelo://app?vid=350642f8-b006-4b71-8e93-6f4f5bf5787a"},"vehicle_type_id":"4","last_reported":1689800761,"current_range_meters":12400,"station_id":"ce4bgj92rcd13ifvqbd0","pricing_plan_id":"free"},{"bike_id":"61229be2-0960-48eb-b40b-2ad919debe09","system_id":"levelo_inurba_marseille","lat":43.29969,"lon":5.38499,"is_reserved":false,"is_disabled":false,"rental_uris":{"android":"levelo://app?vid=61229be2-0960-48eb-b40b-2ad919debe09","ios":"levelo://app?vid=61229be2-0960-48eb-b40b-2ad919debe09"},"vehicle_type_id":"4","last_reported":1689800761,"current_range_meters":15600,"station_id":"ce4bgj92rcd13ifvqbd0","pricing_plan_id":"free"},{"bike_id":"7bd88bd0-e57b-43af-8a6e-0967debe6b12","system_id":"levelo_inurba_marseille","lat":43.299724,"lon":5.384848,"is_reserved":false,"is_disabled":false,"rental_uris":{"android":"levelo://app?vid=7bd88bd0-e57b-43af-8a6e-0967debe6b12","ios":"levelo://app?vid=7bd88bd0-e57b-43af-8a6e-0967debe6b12"},"vehicle_type_id":"4","last_reported":1689800761,"current_range_meters":31200,"station_id":"ce4bgj92rcd13ifvqbd0","pricing_plan_id":"free"},{"bike_id":"13a3d53a-6e69-468d-8f53-3589e79ba2f4","system_id":"levelo_inurba_marseille","lat":43.299717,"lon":5.384845,"is_reserved":false,"is_disabled":false,"rental_uris":{"android":"levelo://app?vid=13a3d53a-6e69-468d-8f53-3589e79ba2f4","ios":"levelo://app?vid=13a3d53a-6e69-468d-8f53-3589e79ba2f4"},"vehicle_type_id":"4","last_reported":1689800761,"current_range_meters":18800,"station_id":"ce4bgj92rcd13ifvqbd0","pricing_plan_id":"free"},{"bike_id":"1a5b5c4b-5f40-41c1-92f3-0aabb852d443","system_id":"levelo_inurba_marseille","lat":43.32364,"lon":5.38884,"is_reserved":false,"is_disabled":false,"rental_uris":{"android":"levelo://app?vid=1a5b5c4b-5f40-41c1-92f3-0aabb852d443","ios":"levelo://app?vid=1a5b5c4b-5f40-41c1-92f3-0aabb852d443"},"vehicle_type_id":"4","last_reported":1689800761,"current_range_meters":14000,"station_id":"ce4bhqp2rcd13ifvqhog","pricing_plan_id":"free"},{"bike_id":"68185b9f-8aac-440b-8362-a6811b119de2","system_id":"levelo_inurba_marseille","lat":43.29601,"lon":5.381084,"is_reserved":false,"is_disabled":false,"rental_uris":{"android":"levelo://app?vid=68185b9f-8aac-440b-8362-a6811b119de2","ios":"levelo://app?vid=68185b9f-8aac-440b-8362-a6811b119de2"},"vehicle_type_id":"4","last_reported":1689800761,"current_range_meters":20800,"station_id":"ce4bgl12rcd13ifvqbo0","pricing_plan_id":"free"},{"bike_id":"89024f3f-38f6-4c33-a6a3-757e64c3efcd","system_id":"levelo_inurba_marseille","lat":43.29602,"lon":5.381084,"is_reserved":false,"is_disabled":false,"rental_uris":{"android":"levelo://app?vid=89024f3f-38f6-4c33-a6a3-757e64c3efcd","ios":"levelo://app?vid=89024f3f-38f6-4c33-a6a3-757e64c3efcd"},"vehicle_type_id":"4","last_reported":1689800761,"current_range_meters":13200,"station_id":"ce4bgl12rcd13ifvqbo0","pricing_plan_id":"free"},{"bike_id":"30876767-5135-49a5-acb0-eefcc0cf8831","system_id":"levelo_inurba_marseille","lat":43.293249,"lon":5.371578,"is_reserved":false,"is_disabled":false,"rental_uris":{"android":"levelo://app?vid=30876767-5135-49a5-acb0-eefcc0cf8831","ios":"levelo://app?vid=30876767-5135-49a5-acb0-eefcc0cf8831"},"vehicle_type_id":"4","last_reported":1689800761,"current_range_meters":21600,"station_id":"ce4bgh92rcd13ifvqb40","pricing_plan_id":"free"},{"bike_id":"327448c9-ec25-4e8f-8153-b647b1e4ddba","system_id":"levelo_inurba_marseille","lat":43.292749,"lon":5.368402,"is_reserved":false,"is_disabled":false,"rental_uris":{"android":"levelo://app?vid=327448c9-ec25-4e8f-8153-b647b1e4ddba","ios":"levelo://app?vid=327448c9-ec25-4e8f-8153-b647b1e4ddba"},"vehicle_type_id":"4","last_reported":1689800761,"current_range_meters":21200,"station_id":"ce4bhbp2rcd13ifvqesg","pricing_plan_id":"free"},{"bike_id":"c692545d-74c9-484b-a2ff-ee571d589158","system_id":"levelo_inurba_marseille","lat":43.30594,"lon":5.3935,"is_reserved":false,"is_disabled":false,"rental_uris":{"android":"levelo://app?vid=c692545d-74c9-484b-a2ff-ee571d589158","ios":"levelo://app?vid=c692545d-74c9-484b-a2ff-ee571d589158"},"vehicle_type_id":"4","last_reported":1689800761,"current_range_meters":1600,"station_id":"ce4bh0p2rcd13ifvqd80","pricing_plan_id":"free"},{"bike_id":"843c2a1a-9269-4f05-af95-56bcf404767c","system_id":"levelo_inurba_marseille","lat":43.305994,"lon":5.393687,"is_reserved":false,"is_disabled":false,"rental_uris":{"android":"levelo://app?vid=843c2a1a-9269-4f05-af95-56bcf404767c","ios":"levelo://app?vid=843c2a1a-9269-4f05-af95-56bcf404767c"},"vehicle_type_id":"4","last_reported":1689800761,"current_range_meters":20800,"station_id":"ce4bh0p2rcd13ifvqd80","pricing_plan_id":"free"},{"bike_id":"75b4081e-0a5e-4480-a2d8-19a31dd11a92","system_id":"levelo_inurba_marseille","lat":43.3031,"lon":5.39219,"is_reserved":false,"is_disabled":false,"rental_uris":{"android":"levelo://app?vid=75b4081e-0a5e-4480-a2d8-19a31dd11a92","ios":"levelo://app?vid=75b4081e-0a5e-4480-a2d8-19a31dd11a92"},"vehicle_type_id":"4","last_reported":1689800761,"current_range_meters":0,"station_id":"ce4bh0p2rcd13ifvqd80","pricing_plan_id":"free"},{"bike_id":"1c60ec3f-3420-4a66-babd-0c73009f20d7","system_id":"levelo_inurba_marseille","lat":43.2936,"lon":5.37835,"is_reserved":false,"is_disabled":false,"rental_uris":{"android":"levelo://app?vid=1c60ec3f-3420-4a66-babd-0c73009f20d7","ios":"levelo://app?vid=1c60ec3f-3420-4a66-babd-0c73009f20d7"},"vehicle_type_id":"4","last_reported":1689800761,"current_range_meters":30400,"station_id":"ce4bgjh2rcd13ifvqbf0","pricing_plan_id":"free"},{"bike_id":"f634662a-87ac-4bb0-afd2-60550f374c39","system_id":"levelo_inurba_marseille","lat":43.30301,"lon":5.39229,"is_reserved":false,"is_disabled":false,"rental_uris":{"android":"levelo://app?vid=f634662a-87ac-4bb0-afd2-60550f374c39","ios":"levelo://app?vid=f634662a-87ac-4bb0-afd2-60550f374c39"},"vehicle_type_id":"4","last_reported":1689800761,"current_range_meters":2000,"station_id":"ce4bgkh2rcd13ifvqbk0","pricing_plan_id":"free"},{"bike_id":"1b89fa0e-a815-46ef-ba41-73e3f0cebd5f","system_id":"levelo_inurba_marseille","lat":43.292311,"lon":5.360731,"is_reserved":false,"is_disabled":false,"rental_uris":{"android":"levelo://app?vid=1b89fa0e-a815-46ef-ba41-73e3f0cebd5f","ios":"levelo://app?vid=1b89fa0e-a815-46ef-ba41-73e3f0cebd5f"},"vehicle_type_id":"4","last_reported":1689800761,"current_range_meters":25200,"station_id":"ce4bhbh2rcd13ifvqeqg","pricing_plan_id":"free"},{"bike_id":"bc407d92-db76-4ba4-8cdb-dbd78e99de2a","system_id":"levelo_inurba_marseille","lat":43.292663,"lon":5.376394,"is_reserved":false,"is_disabled":false,"rental_uris":{"android":"levelo://app?vid=bc407d92-db76-4ba4-8cdb-dbd78e99de2a","ios":"levelo://app?vid=bc407d92-db76-4ba4-8cdb-dbd78e99de2a"},"vehicle_type_id":"4","last_reported":1689800761,"current_range_meters":28800,"station_id":"ce4bgi12rcd13ifvqb80","pricing_plan_id":"free"},{"bike_id":"3fe07b01-6359-4395-8456-f02044e430dd","system_id":"levelo_inurba_marseille","lat":43.298764,"lon":5.388973,"is_reserved":false,"is_disabled":false,"rental_uris":{"android":"levelo://app?vid=3fe07b01-6359-4395-8456-f02044e430dd","ios":"levelo://app?vid=3fe07b01-6359-4395-8456-f02044e430dd"},"vehicle_type_id":"4","last_reported":1689800761,"current_range_meters":21600,"station_id":"ce4bh392rcd13ifvqdl0","pricing_plan_id":"free"},{"bike_id":"2dab089d-8878-495f-82fb-6800a3809b0a","system_id":"levelo_inurba_marseille","lat":43.291675,"lon":5.371583,"is_reserved":false,"is_disabled":false,"rental_uris":{"android":"levelo://app?vid=2dab089d-8878-495f-82fb-6800a3809b0a","ios":"levelo://app?vid=2dab089d-8878-495f-82fb-6800a3809b0a"},"vehicle_type_id":"4","last_reported":1689800761,"current_range_meters":14400,"station_id":"ce4bha92rcd13ifvqeh0","pricing_plan_id":"free"},{"bike_id":"9d0e22e2-fb2b-48d7-b212-43dbb276e039","system_id":"levelo_inurba_marseille","lat":43.291671,"lon":5.371575,"is_reserved":false,"is_disabled":false,"rental_uris":{"android":"levelo://app?vid=9d0e22e2-fb2b-48d7-b212-43dbb276e039","ios":"levelo://app?vid=9d0e22e2-fb2b-48d7-b212-43dbb276e039"},"vehicle_type_id":"4","last_reported":1689800761,"current_range_meters":30000,"station_id":"ce4bha92rcd13ifvqeh0","pricing_plan_id":"free"},{"bike_id":"ee5cecc0-b570-48ce-9228-c7e7d6a822b0","system_id":"levelo_inurba_marseille","lat":43.298764,"lon":5.388973,"is_reserved":false,"is_disabled":false,"rental_uris":{"android":"levelo://app?vid=ee5cecc0-b570-48ce-9228-c7e7d6a822b0","ios":"levelo://app?vid=ee5cecc0-b570-48ce-9228-c7e7d6a822b0"},"vehicle_type_id":"4","last_reported":1689800761,"current_range_meters":22800,"station_id":"ce4bh392rcd13ifvqdl0","pricing_plan_id":"free"},{"bike_id":"f688a2cd-4fe1-4b57-8842-de63631294c5","system_id":"levelo_inurba_marseille","lat":43.298764,"lon":5.388973,"is_reserved":false,"is_disabled":false,"rental_uris":{"android":"levelo://app?vid=f688a2cd-4fe1-4b57-8842-de63631294c5","ios":"levelo://app?vid=f688a2cd-4fe1-4b57-8842-de63631294c5"},"vehicle_type_id":"4","last_reported":1689800761,"current_range_meters":29200,"station_id":"ce4bh392rcd13ifvqdl0","pricing_plan_id":"free"},{"bike_id":"4e5d0700-4c01-41fd-8ef7-1f94730a8d2a","system_id":"levelo_inurba_marseille","lat":43.298764,"lon":5.388973,"is_reserved":false,"is_disabled":false,"rental_uris":{"android":"levelo://app?vid=4e5d0700-4c01-41fd-8ef7-1f94730a8d2a","ios":"levelo://app?vid=4e5d0700-4c01-41fd-8ef7-1f94730a8d2a"},"vehicle_type_id":"4","last_reported":1689800761,"current_range_meters":31200,"station_id":"ce4bh392rcd13ifvqdl0","pricing_plan_id":"free"},{"bike_id":"2dbde184-76e3-4790-bf1f-c786b5b157ae","system_id":"levelo_inurba_marseille","lat":43.309038,"lon":5.396546,"is_reserved":false,"is_disabled":false,"rental_uris":{"android":"levelo://app?vid=2dbde184-76e3-4790-bf1f-c786b5b157ae","ios":"levelo://app?vid=2dbde184-76e3-4790-bf1f-c786b5b157ae"},"vehicle_type_id":"4","last_reported":1689800761,"current_range_meters":28000,"station_id":"ce4bh012rcd13ifvqcv0","pricing_plan_id":"free"},{"bike_id":"ba9742d5-5e1e-458f-9055-959b9ff70161","system_id":"levelo_inurba_marseille","lat":43.309038,"lon":5.396546,"is_reserved":false,"is_disabled":false,"rental_uris":{"android":"levelo://app?vid=ba9742d5-5e1e-458f-9055-959b9ff70161","ios":"levelo://app?vid=ba9742d5-5e1e-458f-9055-959b9ff70161"},"vehicle_type_id":"4","last_reported":1689800761,"current_range_meters":24800,"station_id":"ce4bh012rcd13ifvqcv0","pricing_plan_id":"free"},{"bike_id":"f045e2ba-5b44-42a2-a049-edab6ab8ba1e","system_id":"levelo_inurba_marseille","lat":43.313291,"lon":5.396838,"is_reserved":false,"is_disabled":false,"rental_uris":{"android":"levelo://app?vid=f045e2ba-5b44-42a2-a049-edab6ab8ba1e","ios":"levelo://app?vid=f045e2ba-5b44-42a2-a049-edab6ab8ba1e"},"vehicle_type_id":"4","last_reported":1689800761,"current_range_meters":18000,"station_id":"ce4bgvp2rcd13ifvqcu0","pricing_plan_id":"free"},{"bike_id":"7c789a75-961e-4af4-9e93-0152b71a380d","system_id":"levelo_inurba_marseille","lat":43.309038,"lon":5.396546,"is_reserved":false,"is_disabled":false,"rental_uris":{"android":"levelo://app?vid=7c789a75-961e-4af4-9e93-0152b71a380d","ios":"levelo://app?vid=7c789a75-961e-4af4-9e93-0152b71a380d"},"vehicle_type_id":"4","last_reported":1689800761,"current_range_meters":13600,"station_id":"ce4bh012rcd13ifvqcv0","pricing_plan_id":"free"},{"bike_id":"7f4802cd-523e-414b-b7a0-c89008a5941d","system_id":"levelo_inurba_marseille","lat":43.313291,"lon":5.396838,"is_reserved":false,"is_disabled":false,"rental_uris":{"android":"levelo://app?vid=7f4802cd-523e-414b-b7a0-c89008a5941d","ios":"levelo://app?vid=7f4802cd-523e-414b-b7a0-c89008a5941d"},"vehicle_type_id":"4","last_reported":1689800761,"current_range_meters":14800,"station_id":"ce4bgvp2rcd13ifvqcu0","pricing_plan_id":"free"},{"bike_id":"892468a7-8e76-4722-b45a-401394794269","system_id":"levelo_inurba_marseille","lat":43.313291,"lon":5.396838,"is_reserved":false,"is_disabled":false,"rental_uris":{"android":"levelo://app?vid=892468a7-8e76-4722-b45a-401394794269","ios":"levelo://app?vid=892468a7-8e76-4722-b45a-401394794269"},"vehicle_type_id":"4","last_reported":1689800761,"current_range_meters":3200,"station_id":"ce4bgvp2rcd13ifvqcu0","pricing_plan_id":"free"},{"bike_id":"458a3ca6-27f1-4f2d-8349-a3026b98698f","system_id":"levelo_inurba_marseille","lat":43.309038,"lon":5.396546,"is_reserved":false,"is_disabled":false,"rental_uris":{"android":"levelo://app?vid=458a3ca6-27f1-4f2d-8349-a3026b98698f","ios":"levelo://app?vid=458a3ca6-27f1-4f2d-8349-a3026b98698f"},"vehicle_type_id":"4","last_reported":1689800761,"current_range_meters":4400,"station_id":"ce4bh012rcd13ifvqcv0","pricing_plan_id":"free"},{"bike_id":"7e138ae6-deee-4873-9fe5-3d890f624019","system_id":"levelo_inurba_marseille","lat":43.309038,"lon":5.396546,"is_reserved":false,"is_disabled":false,"rental_uris":{"android":"levelo://app?vid=7e138ae6-deee-4873-9fe5-3d890f624019","ios":"levelo://app?vid=7e138ae6-deee-4873-9fe5-3d890f624019"},"vehicle_type_id":"4","last_reported":1689800761,"current_range_meters":22400,"station_id":"ce4bh012rcd13ifvqcv0","pricing_plan_id":"free"},{"bike_id":"05305c32-7402-43c5-8e5e-1766cea5e2d9","system_id":"levelo_inurba_marseille","lat":43.309038,"lon":5.396546,"is_reserved":false,"is_disabled":false,"rental_uris":{"android":"levelo://app?vid=05305c32-7402-43c5-8e5e-1766cea5e2d9","ios":"levelo://app?vid=05305c32-7402-43c5-8e5e-1766cea5e2d9"},"vehicle_type_id":"4","last_reported":1689800761,"current_range_meters":1600,"station_id":"ce4bh012rcd13ifvqcv0","pricing_plan_id":"free"},{"bike_id":"5b901635-3d76-4922-899b-1d981c50e29d","system_id":"levelo_inurba_marseille","lat":43.309038,"lon":5.396546,"is_reserved":false,"is_disabled":false,"rental_uris":{"android":"levelo://app?vid=5b901635-3d76-4922-899b-1d981c50e29d","ios":"levelo://app?vid=5b901635-3d76-4922-899b-1d981c50e29d"},"vehicle_type_id":"4","last_reported":1689800761,"current_range_meters":4800,"station_id":"ce4bh012rcd13ifvqcv0","pricing_plan_id":"free"},{"bike_id":"3f82ae94-ae71-407c-a181-0e75387a26f7","system_id":"levelo_inurba_marseille","lat":43.308748,"lon":5.396551,"is_reserved":false,"is_disabled":false,"rental_uris":{"android":"levelo://app?vid=3f82ae94-ae71-407c-a181-0e75387a26f7","ios":"levelo://app?vid=3f82ae94-ae71-407c-a181-0e75387a26f7"},"vehicle_type_id":"4","last_reported":1689800761,"current_range_meters":6400,"station_id":"","pricing_plan_id":"free"},{"bike_id":"e68b5237-e636-44ae-9f1a-c25a2affefb3","system_id":"levelo_inurba_marseille","lat":43.29529,"lon":5.385581,"is_reserved":false,"is_disabled":false,"rental_uris":{"android":"levelo://app?vid=e68b5237-e636-44ae-9f1a-c25a2affefb3","ios":"levelo://app?vid=e68b5237-e636-44ae-9f1a-c25a2affefb3"},"vehicle_type_id":"4","last_reported":1689800761,"current_range_meters":5200,"station_id":"ce4bgih2rcd13ifvqba0","pricing_plan_id":"free"},{"bike_id":"3d1b4ebe-229c-439e-a59d-ae5e996ddfcc","system_id":"levelo_inurba_marseille","lat":43.29529,"lon":5.385581,"is_reserved":false,"is_disabled":false,"rental_uris":{"android":"levelo://app?vid=3d1b4ebe-229c-439e-a59d-ae5e996ddfcc","ios":"levelo://app?vid=3d1b4ebe-229c-439e-a59d-ae5e996ddfcc"},"vehicle_type_id":"4","last_reported":1689800761,"current_range_meters":4800,"station_id":"ce4bgih2rcd13ifvqba0","pricing_plan_id":"free"},{"bike_id":"35a6a6a1-876b-4ba0-9c19-bf16bd5f31eb","system_id":"levelo_inurba_marseille","lat":43.29537,"lon":5.38543,"is_reserved":false,"is_disabled":false,"rental_uris":{"android":"levelo://app?vid=35a6a6a1-876b-4ba0-9c19-bf16bd5f31eb","ios":"levelo://app?vid=35a6a6a1-876b-4ba0-9c19-bf16bd5f31eb"},"vehicle_type_id":"4","last_reported":1689800761,"current_range_meters":18000,"station_id":"ce4bgih2rcd13ifvqba0","pricing_plan_id":"free"},