{"last_updated":1732785062,"ttl":60,"version":"2.2","data":{"bikes":[{"bike_id":"2a75e0b5-ea55-47da-90e1-27ddaec067b7","system_id":"levelo_inurba_marseille","lat":43.30139,"lon":5.37417,"is_reserved":false,"is_disabled":false,"rental_uris":{"android":"levelo://app?vid=2a75e0b5-ea55-47da-90e1-27ddaec067b7","ios":"levelo://app?vid=2a75e0b5-ea55-47da-90e1-27ddaec067b7"},"vehicle_type_id":"4","last_reported":1732785062,"current_range_meters":12000,"station_id":"ce4bgs92rcd13ifvqcc0","pricing_plan_id":"cebpf4jnsgd1na2vs0mg"},{"bike_id":"439859a0-37e6-4b63-a5ed-4e543b91defb","system_id":"levelo_inurba_marseille","lat":43.33612,"lon":5.41025,"is_reserved":false,"is_disabled":false,"rental_uris":{"android":"levelo://app?vid=439859a0-37e6-4b63-a5ed-4e543b91defb","ios":"levelo://app?vid=439859a0-37e6-4b63-a5ed-4e543b91defb"},"vehicle_type_id":"4","last_reported":1732785062,"current_range_meters":36800,"station_id":"ce4bhqh2rcd13ifvqhmg","pricing_plan_id":"cebpf4jnsgd1na2vs0mg"},{"bike_id":"927924fc-8a74-47c2-8b69-b7e14b1090b9","system_id":"levelo_inurba_marseille","lat":43.2781,"lon":5.40723,"is_reserved":false,"is_disabled":true,"rental_uris":{"android":"levelo://app?vid=927924fc-8a74-47c2-8b69-b7e14b1090b9","ios":"levelo://app?vid=927924fc-8a74-47c2-8b69-b7e14b1090b9"},"vehicle_type_id":"4","last_reported":1732785062,"current_range_meters":10800,"station_id":"ce4bhnh2rcd13ifvqgtg","pricing_plan_id":"cebpf4jnsgd1na2vs0mg"},{"bike_id":"b856c8b4-412d-4c25-bdd4-e6b29aed04cb","system_id":"levelo_inurba_marseille","lat":43.22932,"lon":5.35379,"is_reserved":false,"is_disabled":false,"rental_uris":{"android":"levelo://app?vid=b856c8b4-412d-4c25-bdd4-e6b29aed04cb","ios":"levelo://app?vid=b856c8b4-412d-4c25-bdd4-e6b29aed04cb"},"vehicle_type_id":"4","last_reported":1732785062,"current_range_meters":38800,"station_id":"cpo3532slgdg3j2ikp40","pricing_plan_id":"cebpf4jnsgd1na2vs0mg"},{"bike_id":"863c9696-d78b-4e98-be5f-966913ade150","system_id":"levelo_inurba_marseille","lat":43.26942,"lon":5.38918,"is_reserved":false,"is_disabled":true,"rental_uris":{"android":"levelo://app?vid=863c9696-d78b-4e98-be5f-966913ade150","ios":"levelo://app?vid=863c9696-d78b-4e98-be5f-966913ade150"},"vehicle_type_id":"4","last_reported":1732785062,"current_range_meters":30000,"station_id":"ce4bhhh2rcd13ifvqfl0","pricing_plan_id":"cebpf4jnsgd1na2vs0mg"},{"bike_id":"18e286fe-ad1d-4749-8f04-705671e4c581","system_id":"levelo_inurba_marseille","lat":43.30467,"lon":5.37913,"is_reserved":false,"is_disabled":false,"rental_uris":{"android":"levelo://app?vid=18e286fe-ad1d-4749-8f04-705671e4c581","ios":"levelo://app?vid=18e286fe-ad1d-4749-8f04-705671e4c581"},"vehicle_type_id":"4","last_reported":1732785062,"current_range_meters":36400,"station_id":"ce4bgup2rcd13ifvqcn0","pricing_plan_id":"cebpf4jnsgd1na2vs0mg"},{"bike_id":"fa2ab0aa-936a-4413-b089-be10aff2487b","system_id":"levelo_inurba_marseille","lat":43.24067,"lon":5.37765,"is_reserved":false,"is_disabled":false,"rental_uris":{"android":"levelo://app?vid=fa2ab0aa-936a-4413-b089-be10aff2487b","ios":"levelo://app?vid=fa2ab0aa-936a-4413-b089-be10aff2487b"},"vehicle_type_id":"4","last_reported":1732785062,"current_range_meters":38000,"station_id":"ce4bhnp2rcd13ifvqgvg","pricing_plan_id":"cebpf4jnsgd1na2vs0mg"},{"bike_id":"71cf8534-4c71-4a87-b3f7-fbbb731ae674","system_id":"levelo_inurba_marseille","lat":43.24073,"lon":5.37752,"is_reserved":false,"is_disabled":true,"rental_uris":{"android":"levelo://app?vid=71cf8534-4c71-4a87-b3f7-fbbb731ae674","ios":"levelo://app?vid=71cf8534-4c71-4a87-b3f7-fbbb731ae674"},"vehicle_type_id":"4","last_reported":1732785062,"current_range_meters":13600,"station_id":"ce4bhnp2rcd13ifvqgvg","pricing_plan_id":"cebpf4jnsgd1na2vs0mg"},{"bike_id":"f8ac00ad-4fd1-4f46-a28a-20e0b73fee9d","system_id":"levelo_inurba_marseille","lat":43.28084,"lon":5.39651,"is_reserved":false,"is_disabled":false,"rental_uris":{"android":"levelo://app?vid=f8ac00ad-4fd1-4f46-a28a-20e0b73fee9d","ios":"levelo://app?vid=f8ac00ad-4fd1-4f46-a28a-20e0b73fee9d"},"vehicle_type_id":"4","last_reported":1732785062,"current_range_meters":24000,"station_id":"ce4bho12rcd13ifvqh2g","pricing_plan_id":"cebpf4jnsgd1na2vs0mg"},{"bike_id":"4dd7424d-7207-4aea-b728-1ac783687a17","system_id":"levelo_inurba_marseille","lat":43.33769,"lon":5.37429,"is_reserved":false,"is_disabled":false,"rental_uris":{"android":"levelo://app?vid=4dd7424d-7207-4aea-b728-1ac783687a17","ios":"levelo://app?vid=4dd7424d-7207-4aea-b728-1ac783687a17"},"vehicle_type_id":"4","last_reported":1732785062,"current_range_meters":35600,"station_id":"","pricing_plan_id":"cebpf4jnsgd1na2vs0mg"},{"bike_id":"890f737b-cd69-4ea1-b121-1a499e00f5b8","system_id":"levelo_inurba_marseille","lat":43.27078,"lon":5.42267,"is_reserved":false,"is_disabled":false,"rental_uris":{"android":"levelo://app?vid=890f737b-cd69-4ea1-b121-1a499e00f5b8","ios":"levelo://app?vid=890f737b-cd69-4ea1-b121-1a499e00f5b8"},"vehicle_type_id":"4","last_reported":1732785062,"current_range_meters":28000,"station_id":"ce4bhk92rcd13ifvqgb0","pricing_plan_id":"cebpf4jnsgd1na2vs0mg"},{"bike_id":"048557ff-d27c-43d1-b8d2-0505b10745a5","system_id":"levelo_inurba_marseille","lat":43.28702,"lon":5.37389,"is_reserved":false,"is_disabled":false,"rental_uris":{"android":"levelo://app?vid=048557ff-d27c-43d1-b8d2-0505b10745a5","ios":"levelo://app?vid=048557ff-d27c-43d1-b8d2-0505b10745a5"},"vehicle_type_id":"4","last_reported":1732785062,"current_range_meters":8400,"station_id":"ce4bh3p2rcd13ifvqdq0","pricing_plan_id":"cebpf4jnsgd1na2vs0mg"},{"bike_id":"5a769ab6-6537-4d03-ab16-ba3286f41743","system_id":"levelo_inurba_marseille","lat":43.3089,"lon":5.37232,"is_reserved":false,"is_disabled":false,"rental_uris":{"android":"levelo://app?vid=5a769ab6-6537-4d03-ab16-ba3286f41743","ios":"levelo://app?vid=5a769ab6-6537-4d03-ab16-ba3286f41743"},"vehicle_type_id":"4","last_reported":1732785062,"current_range_meters":38800,"station_id":"ce4bguh2rcd13ifvqckg","pricing_plan_id":"cebpf4jnsgd1na2vs0mg"},{"bike_id":"41e53bad-9423-47c3-8583-825ffc9e72cd","system_id":"levelo_inurba_marseille","lat":43.27958,"lon":5.38709,"is_reserved":false,"is_disabled":true,"rental_uris":{"android":"levelo://app?vid=41e53bad-9423-47c3-8583-825ffc9e72cd","ios":"levelo://app?vid=41e53bad-9423-47c3-8583-825ffc9e72cd"},"vehicle_type_id":"4","last_reported":1732785062,"current_range_meters":34000,"station_id":"ce4bhg12rcd13ifvqf80","pricing_plan_id":"cebpf4jnsgd1na2vs0mg"},{"bike_id":"113ec61c-057a-4335-a2b2-22183d6987e0","system_id":"levelo_inurba_marseille","lat":43.27493,"lon":5.42453,"is_reserved":false,"is_disabled":false,"rental_uris":{"android":"levelo://app?vid=113ec61c-057a-4335-a2b2-22183d6987e0","ios":"levelo://app?vid=113ec61c-057a-4335-a2b2-22183d6987e0"},"vehicle_type_id":"4","last_reported":1732785062,"current_range_meters":12000,"station_id":"ce4bhn92rcd13ifvqgrg","pricing_plan_id":"cebpf4jnsgd1na2vs0mg"},{"bike_id":"e2fcd88a-5b50-4059-b110-891c7847ea5f","system_id":"levelo_inurba_marseille","lat":43.30601,"lon":5.37207,"is_reserved":false,"is_disabled":false,"rental_uris":{"android":"levelo://app?vid=e2fcd88a-5b50-4059-b110-891c7847ea5f","ios":"levelo://app?vid=e2fcd88a-5b50-4059-b110-891c7847ea5f"},"vehicle_type_id":"4","last_reported":1732785062,"current_range_meters":38800,"station_id":"ce4bgqh2rcd13ifvqc4g","pricing_plan_id":"cebpf4jnsgd1na2vs0mg"},{"bike_id":"2e912540-8917-42c0-a200-917afa7a5eb9","system_id":"levelo_inurba_marseille","lat":43.28079,"lon":5.39669,"is_reserved":false,"is_disabled":false,"rental_uris":{"android":"levelo://app?vid=2e912540-8917-42c0-a200-917afa7a5eb9","ios":"levelo://app?vid=2e912540-8917-42c0-a200-917afa7a5eb9"},"vehicle_type_id":"4","last_reported":1732785062,"current_range_meters":12000,"station_id":"ce4bho12rcd13ifvqh2g","pricing_plan_id":"cebpf4jnsgd1na2vs0mg"},{"bike_id":"02f937c3-681a-41c4-a04e-d4667e8340e1","system_id":"levelo_inurba_marseille","lat":43.296,"lon":5.36726,"is_reserved":false,"is_disabled":false,"rental_uris":{"android":"levelo://app?vid=02f937c3-681a-41c4-a04e-d4667e8340e1","ios":"levelo://app?vid=02f937c3-681a-41c4-a04e-d4667e8340e1"},"vehicle_type_id":"4","last_reported":1732785062,"current_range_meters":34800,"station_id":"ce4bgph2rcd13ifvqc2g","pricing_plan_id":"cebpf4jnsgd1na2vs0mg"},{"bike_id":"5d874ca9-2900-4f7e-afdd-a3f87da715a8","system_id":"levelo_inurba_marseille","lat":43.31361,"lon":5.38493,"is_reserved":false,"is_disabled":false,"rental_uris":{"android":"levelo://app?vid=5d874ca9-2900-4f7e-afdd-a3f87da715a8","ios":"levelo://app?vid=5d874ca9-2900-4f7e-afdd-a3f87da715a8"},"vehicle_type_id":"4","last_reported":1732785062,"current_range_meters":19200,"station_id":"ce4bgt92rcd13ifvqcf0","pricing_plan_id":"cebpf4jnsgd1na2vs0mg"},{"bike_id":"ce15a521-8a1d-47b7-92c8-091ca367d00e","system_id":"levelo_inurba_marseille","lat":43.3368,"lon":5.37194,"is_reserved":false,"is_disabled":false,"rental_uris":{"android":"levelo://app?vid=ce15a521-8a1d-47b7-92c8-091ca367d00e","ios":"levelo://app?vid=ce15a521-8a1d-47b7-92c8-091ca367d00e"},"vehicle_type_id":"4","last_reported":1732785062,"current_range_meters":38400,"station_id":"","pricing_plan_id":"cebpf4jnsgd1na2vs0mg"},{"bike_id":"ec09b0cc-3621-4afa-bff4-debce0b2cc37","system_id":"levelo_inurba_marseille","lat":43.27177,"lon":5.40995,"is_reserved":false,"is_disabled":true,"rental_uris":{"android":"levelo://app?vid=ec09b0cc-3621-4afa-bff4-debce0b2cc37","ios":"levelo://app?vid=ec09b0cc-3621-4afa-bff4-debce0b2cc37"},"vehicle_type_id":"4","last_reported":1732785062,"current_range_meters":20000,"station_id":"ce4bhl12rcd13ifvqgf0","pricing_plan_id":"cebpf4jnsgd1na2vs0mg"},{"bike_id":"6f6a2a2a-466a-48ad-b705-d5887c808530","system_id":"levelo_inurba_marseille","lat":43.26934,"lon":5.3892,"is_reserved":false,"is_disabled":false,"rental_uris":{"android":"levelo://app?vid=6f6a2a2a-466a-48ad-b705-d5887c808530","ios":"levelo://app?vid=6f6a2a2a-466a-48ad-b705-d5887c808530"},"vehicle_type_id":"4","last_reported":1732785062,"current_range_meters":20800,"station_id":"ce4bhhh2rcd13ifvqfl0","pricing_plan_id":"cebpf4jnsgd1na2vs0mg"},{"bike_id":"49d93f30-3698-463f-a6ff-07f30736ddd5","system_id":"levelo_inurba_marseille","lat":43.29912,"lon":5.37464,"is_reserved":false,"is_disabled":false,"rental_uris":{"android":"levelo://app?vid=49d93f30-3698-463f-a6ff-07f30736ddd5","ios":"levelo://app?vid=49d93f30-3698-463f-a6ff-07f30736ddd5"},"vehicle_type_id":"4","last_reported":1732785062,"current_range_meters":38800,"station_id":"ce4bgjh2rcd13ifvqbg0","pricing_plan_id":"cebpf4jnsgd1na2vs0mg"},{"bike_id":"908a91b4-f74f-4175-9a94-be2178948b1b","system_id":"levelo_inurba_marseille","lat":43.25931,"lon":5.40911,"is_reserved":false,"is_disabled":true,"rental_uris":{"android":"levelo://app?vid=908a91b4-f74f-4175-9a94-be2178948b1b","ios":"levelo://app?vid=908a91b4-f74f-4175-9a94-be2178948b1b"},"vehicle_type_id":"4","last_reported":1732785062,"current_range_meters":400,"station_id":"ce4bhm92rcd13ifvqglg","pricing_plan_id":"cebpf4jnsgd1na2vs0mg"},{"bike_id":"46065823-23cd-4ffb-8b28-ffe79264ae68","system_id":"levelo_inurba_marseille","lat":43.27492,"lon":5.42455,"is_reserved":false,"is_disabled":false,"rental_uris":{"android":"levelo://app?vid=46065823-23cd-4ffb-8b28-ffe79264ae68","ios":"levelo://app?vid=46065823-23cd-4ffb-8b28-ffe79264ae68"},"vehicle_type_id":"4","last_reported":1732785062,"current_range_meters":24800,"station_id":"ce4bhn92rcd13ifvqgrg","pricing_plan_id":"cebpf4jnsgd1na2vs0mg"},{"bike_id":"a02c6f50-5239-4d2d-9d29-f10a09d08087","system_id":"levelo_inurba_marseille","lat":43.29073,"lon":5.37184,"is_reserved":false,"is_disabled":false,"rental_uris":{"android":"levelo://app?vid=a02c6f50-5239-4d2d-9d29-f10a09d08087","ios":"levelo://app?vid=a02c6f50-5239-4d2d-9d29-f10a09d08087"},"vehicle_type_id":"4","last_reported":1732785062,"current_range_meters":38000,"station_id":"ce4bh5p2rcd13ifvqe4g","pricing_plan_id":"cebpf4jnsgd1na2vs0mg"},{"bike_id":"c594db08-3289-4ae1-9974-627fdf9e43bd","system_id":"levelo_inurba_marseille","lat":43.24075,"lon":5.37757,"is_reserved":false,"is_disabled":false,"rental_uris":{"android":"levelo://app?vid=c594db08-3289-4ae1-9974-627fdf9e43bd","ios":"levelo://app?vid=c594db08-3289-4ae1-9974-627fdf9e43bd"},"vehicle_type_id":"4","last_reported":1732785062,"current_range_meters":36800,"station_id":"ce4bhnp2rcd13ifvqgvg","pricing_plan_id":"cebpf4jnsgd1na2vs0mg"},{"bike_id":"6f7949e1-de87-4a49-8620-fec27e04447f","system_id":"levelo_inurba_marseille","lat":43.33732,"lon":5.39197,"is_reserved":false,"is_disabled":false,"rental_uris":{"android":"levelo://app?vid=6f7949e1-de87-4a49-8620-fec27e04447f","ios":"levelo://app?vid=6f7949e1-de87-4a49-8620-fec27e04447f"},"vehicle_type_id":"4","last_reported":1732785062,"current_range_meters":36000,"station_id":"ce4bhr92rcd13ifvqhsg","pricing_plan_id":"cebpf4jnsgd1na2vs0mg"},{"bike_id":"7e1300ef-0202-45a0-b7f8-6a39eef0080f","system_id":"levelo_inurba_marseille","lat":43.30548,"lon":5.38423,"is_reserved":false,"is_disabled":false,"rental_uris":{"android":"levelo://app?vid=7e1300ef-0202-45a0-b7f8-6a39eef0080f","ios":"levelo://app?vid=7e1300ef-0202-45a0-b7f8-6a39eef0080f"},"vehicle_type_id":"4","last_reported":1732785062,"current_range_meters":38800,"station_id":"ce4bgg92rcd13ifvqb30","pricing_plan_id":"cebpf4jnsgd1na2vs0mg"},{"bike_id":"13363970-23be-4c1d-b032-bf93e6eb5052","system_id":"levelo_inurba_marseille","lat":43.29684,"lon":5.37291,"is_reserved":false,"is_disabled":false,"rental_uris":{"android":"levelo://app?vid=13363970-23be-4c1d-b032-bf93e6eb5052","ios":"levelo://app?vid=13363970-23be-4c1d-b032-bf93e6eb5052"},"vehicle_type_id":"4","last_reported":1732785062,"current_range_meters":23200,"station_id":"ce4bgk12rcd13ifvqbj0","pricing_plan_id":"cebpf4jnsgd1na2vs0mg"},{"bike_id":"db061391-173a-46a3-8c7f-679ed9d30a0c","system_id":"levelo_inurba_marseille","lat":43.30537,"lon":5.36536,"is_reserved":false,"is_disabled":false,"rental_uris":{"android":"levelo://app?vid=db061391-173a-46a3-8c7f-679ed9d30a0c","ios":"levelo://app?vid=db061391-173a-46a3-8c7f-679ed9d30a0c"},"vehicle_type_id":"4","last_reported":1732785062,"current_range_meters":22400,"station_id":"ce4bgs12rcd13ifvqcag","pricing_plan_id":"cebpf4jnsgd1na2vs0mg"},{"bike_id":"f814062f-3921-47c5-b53b-36c63ad7cd42","system_id":"levelo_inurba_marseille","lat":43.30167,"lon":5.38071,"is_reserved":false,"is_disabled":true,"rental_uris":{"android":"levelo://app?vid=f814062f-3921-47c5-b53b-36c63ad7cd42","ios":"levelo://app?vid=f814062f-3921-47c5-b53b-36c63ad7cd42"},"vehicle_type_id":"4","last_reported":1732785062,"current_range_meters":0,"station_id":"ce4bgjp2rcd13ifvqbh0","pricing_plan_id":"cebpf4jnsgd1na2vs0mg"},{"bike_id":"88c0a23c-decf-469d-95fc-e70f9cd8eb3b","system_id":"levelo_inurba_marseille","lat":43.33746,"lon":5.3745,"is_reserved":false,"is_disabled":false,"rental_uris":{"android":"levelo://app?vid=88c0a23c-decf-469d-95fc-e70f9cd8eb3b","ios":"levelo://app?vid=88c0a23c-decf-469d-95fc-e70f9cd8eb3b"},"vehicle_type_id":"4","last_reported":1732785062,"current_range_meters":31200,"station_id":"","pricing_plan_id":"cebpf4jnsgd1na2vs0mg"},{"bike_id":"2f0cb11d-2f6f-49b3-9f8d-4f2c839a038d","system_id":"levelo_inurba_marseille","lat":43.30144,"lon":5.37431,"is_reserved":false,"is_disabled":false,"rental_uris":{"android":"levelo://app?vid=2f0cb11d-2f6f-49b3-9f8d-4f2c839a038d","ios":"levelo://app?vid=2f0cb11d-2f6f-49b3-9f8d-4f2c839a038d"},"vehicle_type_id":"4","last_reported":1732785062,"current_range_meters":38800,"station_id":"ce4bgs92rcd13ifvqcc0","pricing_plan_id":"cebpf4jnsgd1na2vs0mg"},{"bike_id":"8035e00b-0c1a-42ea-a613-33d98eefcc7f","system_id":"levelo_inurba_marseille","lat":43.24545,"lon":5.39523,"is_reserved":false,"is_disabled":true,"rental_uris":{"android":"levelo://app?vid=8035e00b-0c1a-42ea-a613-33d98eefcc7f","ios":"levelo://app?vid=8035e00b-0c1a-42ea-a613-33d98eefcc7f"},"vehicle_type_id":"4","last_reported":1732785062,"current_range_meters":400,"station_id":"ce4bhlp2rcd13ifvqgjg","pricing_plan_id":"cebpf4jnsgd1na2vs0mg"},{"bike_id":"4eb855f4-0c33-4e46-b9c3-fb652c131a25","system_id":"levelo_inurba_marseille","lat":43.26783,"lon":5.39413,"is_reserved":false,"is_disabled":true,"rental_uris":{"android":"levelo://app?vid=4eb855f4-0c33-4e46-b9c3-fb652c131a25","ios":"levelo://app?vid=4eb855f4-0c33-4e46-b9c3-fb652c131a25"},"vehicle_type_id":"4","last_reported":1732785062,"current_range_meters":1600,"station_id":"ce4bhh12rcd13ifvqfg0","pricing_plan_id":"cebpf4jnsgd1na2vs0mg"},{"bike_id":"56d86ab7-968f-4c20-9359-241791eb84a0","system_id":"levelo_inurba_marseille","lat":43.32566,"lon":5.41462,"is_reserved":false,"is_disabled":false,"rental_uris":{"android":"levelo://app?vid=56d86ab7-968f-4c20-9359-241791eb84a0","ios":"levelo://app?vid=56d86ab7-968f-4c20-9359-241791eb84a0"},"vehicle_type_id":"4","last_reported":1732785062,"current_range_meters":39200,"station_id":"ce4bhq12rcd13ifvqhhg","pricing_plan_id":"cebpf4jnsgd1na2vs0mg"},{"bike_id":"d208b70b-cfeb-47de-81b0-222dbd574cb7","system_id":"levelo_inurba_marseille","lat":43.23067,"lon":5.35494,"is_reserved":false,"is_disabled":false,"rental_uris":{"android":"levelo://app?vid=d208b70b-cfeb-47de-81b0-222dbd574cb7","ios":"levelo://app?vid=d208b70b-cfeb-47de-81b0-222dbd574cb7"},"vehicle_type_id":"4","last_reported":1732785062,"current_range_meters":37600,"station_id":"cpo3342slgdg3j2ifvpg","pricing_plan_id":"cebpf4jnsgd1na2vs0mg"},{"bike_id":"a0f844a0-1165-4a98-b19b-6a707f1ae693","system_id":"levelo_inurba_marseille","lat":43.26506,"lon":5.39534,"is_reserved":false,"is_disabled":false,"rental_uris":{"android":"levelo://app?vid=a0f844a0-1165-4a98-b19b-6a707f1ae693","ios":"levelo://app?vid=a0f844a0-1165-4a98-b19b-6a707f1ae693"},"vehicle_type_id":"4","last_reported":1732785062,"current_range_meters":6400,"station_id":"ce4bhi12rcd13ifvqfq0","pricing_plan_id":"cebpf4jnsgd1na2vs0mg"},{"bike_id":"5249c720-4ecf-407f-95ee-f4da1041dcb5","system_id":"levelo_inurba_marseille","lat":43.26687,"lon":5.38271,"is_reserved":false,"is_disabled":true,"rental_uris":{"android":"levelo://app?vid=5249c720-4ecf-407f-95ee-f4da1041dcb5","ios":"levelo://app?vid=5249c720-4ecf-407f-95ee-f4da1041dcb5"},"vehicle_type_id":"4","last_reported":1732785062,"current_range_meters":30000,"station_id":"ce4bhg92rcd13ifvqf90","pricing_plan_id":"cebpf4jnsgd1na2vs0mg"},{"bike_id":"b1422ff8-74e2-4dc1-94ac-a145ceea1d5e","system_id":"levelo_inurba_marseille","lat":43.32357,"lon":5.3676,"is_reserved":false,"is_disabled":false,"rental_uris":{"android":"levelo://app?vid=b1422ff8-74e2-4dc1-94ac-a145ceea1d5e","ios":"levelo://app?vid=b1422ff8-74e2-4dc1-94ac-a145ceea1d5e"},"vehicle_type_id":"4","last_reported":1732785062,"current_range_meters":14800,"station_id":"ce4bhsh2rcd13ifvqi2g","pricing_plan_id":"cebpf4jnsgd1na2vs0mg"},{"bike_id":"1e527cbd-42bc-495d-a38e-80a8c3b7278f","system_id":"levelo_inurba_marseille","lat":43.29581,"lon":5.37498,"is_reserved":false,"is_disabled":false,"rental_uris":{"android":"levelo://app?vid=1e527cbd-42bc-495d-a38e-80a8c3b7278f","ios":"levelo://app?vid=1e527cbd-42bc-495d-a38e-80a8c3b7278f"},"vehicle_type_id":"4","last_reported":1732785062,"current_range_meters":38800,"station_id":"ce4bgh92rcd13ifvqb50","pricing_plan_id":"cebpf4jnsgd1na2vs0mg"},{"bike_id":"4709c438-f4af-415a-a919-d27302b75dca","system_id":"levelo_inurba_marseille","lat":43.23196,"lon":5.35553,"is_reserved":false,"is_disabled":false,"rental_uris":{"android":"levelo://app?vid=4709c438-f4af-415a-a919-d27302b75dca","ios":"levelo://app?vid=4709c438-f4af-415a-a919-d27302b75dca"},"vehicle_type_id":"4","last_reported":1732785062,"current_range_meters":39200,"station_id":"ce4bhu92rcd13ifvqi70","pricing_plan_id":"cebpf4jnsgd1na2vs0mg"},{"bike_id":"2b921899-1359-49b6-a793-ffb9ef50e656","system_id":"levelo_inurba_marseille","lat":43.29605,"lon":5.37704,"is_reserved":false,"is_disabled":true,"rental_uris":{"android":"levelo://app?vid=2b921899-1359-49b6-a793-ffb9ef50e656","ios":"levelo://app?vid=2b921899-1359-49b6-a793-ffb9ef50e656"},"vehicle_type_id":"4","last_reported":1732785062,"current_range_meters":38000,"station_id":"ce4bgi92rcd13ifvqb90","pricing_plan_id":"cebpf4jnsgd1na2vs0mg"},{"bike_id":"eccc2b38-428e-448c-a061-33d23a7d1135","system_id":"levelo_inurba_marseille","lat":43.30195,"lon":5.36627,"is_reserved":false,"is_disabled":false,"rental_uris":{"android":"levelo://app?vid=eccc2b38-428e-448c-a061-33d23a7d1135","ios":"levelo://app?vid=eccc2b38-428e-448c-a061-33d23a7d1135"},"vehicle_type_id":"4","last_reported":1732785062,"current_range_meters":32400,"station_id":"ce4bgrh2rcd13ifvqc8g","pricing_plan_id":"cebpf4jnsgd1na2vs0mg"},{"bike_id":"c6974d8a-fa0d-413f-a1ad-1956b49fc8fb","system_id":"levelo_inurba_marseille","lat":43.28076,"lon":5.39664,"is_reserved":false,"is_disabled":false,"rental_uris":{"android":"levelo://app?vid=c6974d8a-fa0d-413f-a1ad-1956b49fc8fb","ios":"levelo://app?vid=c6974d8a-fa0d-413f-a1ad-1956b49fc8fb"},"vehicle_type_id":"4","last_reported":1732785062,"current_range_meters":38000,"station_id":"ce4bho12rcd13ifvqh2g","pricing_plan_id":"cebpf4jnsgd1na2vs0mg"},{"bike_id":"77021241-3d49-4e85-b0fb-01ec6fbb8ef5","system_id":"levelo_inurba_marseille","lat":43.30129,"lon":5.3878,"is_reserved":false,"is_disabled":true,"rental_uris":{"android":"levelo://app?vid=77021241-3d49-4e85-b0fb-01ec6fbb8ef5","ios":"levelo://app?vid=77021241-3d49-4e85-b0fb-01ec6fbb8ef5"},"vehicle_type_id":"4","last_reported":1732785062,"current_range_meters":0,"station_id":"ce4bghh2rcd13ifvqb60","pricing_plan_id":"cebpf4jnsgd1na2vs0mg"},{"bike_id":"869146c7-107f-4a8d-a9de-076457eea766","system_id":"levelo_inurba_marseille","lat":43.21676,"lon":5.34639,"is_reserved":false,"is_disabled":false,"rental_uris":{"android":"levelo://app?vid=869146c7-107f-4a8d-a9de-076457eea766","ios":"levelo://app?vid=869146c7-107f-4a8d-a9de-076457eea766"},"vehicle_type_id":"4","last_reported":1732785062,"current_range_meters":11200,"station_id":"","pricing_plan_id":"cebpf4jnsgd1na2vs0mg"},{"bike_id":"ec846015-248e-4cc3-bd4b-dea1ec57eabc","system_id":"levelo_inurba_marseille","lat":43.25935,"lon":5.40911,"is_reserved":false,"is_disabled":false,"rental_uris":{"android":"levelo://app?vid=ec846015-248e-4cc3-bd4b-dea1ec57eabc","ios":"levelo://app?vid=ec846015-248e-4cc3-bd4b-dea1ec57eabc"},"vehicle_type_id":"4","last_reported":1732785062,"current_range_meters":32000,"station_id":"ce4bhm92rcd13ifvqglg","pricing_plan_id":"cebpf4jnsgd1na2vs0mg"},{"bike_id":"40f3d279-a09f-47d0-a43f-af664ab11ed2","system_id":"levelo_inurba_marseille","lat":43.30951,"lon":5.39029,"is_reserved":false,"is_disabled":false,"rental_uris":{"android":"levelo://app?vid=40f3d279-a09f-47d0-a43f-af664ab11ed2","ios":"levelo://app?vid=40f3d279-a09f-47d0-a43f-af664ab11ed2"},"vehicle_type_id":"4","last_reported":1732785062,"current_range_meters":18800,"station_id":"ce4bgup2rcd13ifvqco0","pricing_plan_id":"cebpf4jnsgd1na2vs0mg"},{"bike_id":"1ee8ca89-a27b-412b-b790-b2c24db2b11e","system_id":"levelo_inurba_marseille","lat":43.26505,"lon":5.39544,"is_reserved":false,"is_disabled":false,"rental_uris":{"android":"levelo://app?vid=1ee8ca89-a27b-412b-b790-b2c24db2b11e","ios":"levelo://app?vid=1ee8ca89-a27b-412b-b790-b2c24db2b11e"},"vehicle_type_id":"4","last_reported":1732785062,"current_range_meters":17200,"station_id":"ce4bhi12rcd13ifvqfq0","pricing_plan_id":"cebpf4jnsgd1na2vs0mg"},{"bike_id":"de8f421f-2711-4efd-9de2-733952991229","system_id":"levelo_inurba_marseille","lat":43.30463,"lon":5.37902,"is_reserved":false,"is_disabled":false,"rental_uris":{"android":"levelo://app?vid=de8f421f-2711-4efd-9de2-733952991229","ios":"levelo://app?vid=de8f421f-2711-4efd-9de2-733952991229"},"vehicle_type_id":"4","last_reported":1732785062,"current_range_meters":18000,"station_id":"ce4bgup2rcd13ifvqcn0","pricing_plan_id":"cebpf4jnsgd1na2vs0mg"},{"bike_id":"f55ec180-dbd7-4667-921c-25040ac5bf5a","system_id":"levelo_inurba_marseille","lat":43.30187,"lon":5.36608,"is_reserved":false,"is_disabled":false,"rental_uris":{"android":"levelo://app?vid=f55ec180-dbd7-4667-921c-25040ac5bf5a","ios":"levelo://app?vid=f55ec180-dbd7-4667-921c-25040ac5bf5a"},"vehicle_type_id":"4","last_reported":1732785062,"current_range_meters":16000,"station_id":"ce4bgrh2rcd13ifvqc8g","pricing_plan_id":"cebpf4jnsgd1na2vs0mg"},{"bike_id":"0f699098-74d3-4ef9-ab38-ec9d86d45573","system_id":"levelo_inurba_marseille","lat":43.29042,"lon":5.39957,"is_reserved":false,"is_disabled":false,"rental_uris":{"android":"levelo://app?vid=0f699098-74d3-4ef9-ab38-ec9d86d45573","ios":"levelo://app?vid=0f699098-74d3-4ef9-ab38-ec9d86d45573"},"vehicle_type_id":"4","last_reported":1732785062,"current_range_meters":8400,"station_id":"ce4bh392rcd13ifvqdm0","pricing_plan_id":"cebpf4jnsgd1na2vs0mg"},{"bike_id":"775aba22-baf5-4ce5-b645-5941a20cb104","system_id":"levelo_inurba_marseille","lat":43.27381,"lon":5.36256,"is_reserved":false,"is_disabled":true,"rental_uris":{"android":"levelo://app?vid=775aba22-baf5-4ce5-b645-5941a20cb104","ios":"levelo://app?vid=775aba22-baf5-4ce5-b645-5941a20cb104"},"vehicle_type_id":"4","last_reported":1732785062,"current_range_meters":38000,"station_id":"ce4bhbh2rcd13ifvqeo0","pricing_plan_id":"cebpf4jnsgd1na2vs0mg"},{"bike_id":"95ae37b5-add4-404e-b606-18569c489f38","system_id":"levelo_inurba_marseille","lat":43.23151,"lon":5.43712,"is_reserved":false,"is_disabled":false,"rental_uris":{"android":"levelo://app?vid=95ae37b5-add4-404e-b606-18569c489f38","ios":"levelo://app?vid=95ae37b5-add4-404e-b606-18569c489f38"},"vehicle_type_id":"4","last_reported":1732785062,"current_range_meters":15200,"station_id":"ce4bhmp2rcd13ifvqgog","pricing_plan_id":"cebpf4jnsgd1na2vs0mg"},{"bike_id":"9a0d92ca-9d17-493c-8662-281d5ca64075","system_id":"levelo_inurba_marseille","lat":43.28032,"lon":5.3695,"is_reserved":false,"is_disabled":false,"rental_uris":{"android":"levelo://app?vid=9a0d92ca-9d17-493c-8662-281d5ca64075","ios":"levelo://app?vid=9a0d92ca-9d17-493c-8662-281d5ca64075"},"vehicle_type_id":"4","last_reported":1732785062,"current_range_meters":19200,"station_id":"ce4bha12rcd13ifvqef0","pricing_plan_id":"cebpf4jnsgd1na2vs0mg"},{"bike_id":"cc8c3624-8cbd-4c0d-9c30-d79456ef6fd0","system_id":"levelo_inurba_marseille","lat":43.32542,"lon":5.41438,"is_reserved":false,"is_disabled":false,"rental_uris":{"android":"levelo://app?vid=cc8c3624-8cbd-4c0d-9c30-d79456ef6fd0","ios":"levelo://app?vid=cc8c3624-8cbd-4c0d-9c30-d79456ef6fd0"},"vehicle_type_id":"4","last_reported":1732785062,"current_range_meters":34800,"station_id":"ce4bhq12rcd13ifvqhhg","pricing_plan_id":"cebpf4jnsgd1na2vs0mg"},{"bike_id":"4d4c884f-6933-49c0-8899-f9856d90f44d","system_id":"levelo_inurba_marseille","lat":43.29748,"lon":5.37971,"is_reserved":false,"is_disabled":true,"rental_uris":{"android":"levelo://app?vid=4d4c884f-6933-49c0-8899-f9856d90f44d","ios":"levelo://app?vid=4d4c884f-6933-49c0-8899-f9856d90f44d"},"vehicle_type_id":"4","last_reported":1732785062,"current_range_meters":0,"station_id":"","pricing_plan_id":"cebpf4jnsgd1na2vs0mg"},{"bike_id":"497503fe-5efc-49a3-b750-0eb1d7c8980e","system_id":"levelo_inurba_marseille","lat":43.23067,"lon":5.35495,"is_reserved":false,"is_disabled":false,"rental_uris":{"android":"levelo://app?vid=497503fe-5efc-49a3-b750-0eb1d7c8980e","ios":"levelo://app?vid=497503fe-5efc-49a3-b750-0eb1d7c8980e"},"vehicle_type_id":"4","last_reported":1732785062,"current_range_meters":26000,"station_id":"cpo3342slgdg3j2ifvpg","pricing_plan_id":"cebpf4jnsgd1na2vs0mg"},{"bike_id":"64ba858c-b225-4a78-9a95-4d5f323c48ef","system_id":"levelo_inurba_marseille","lat":43.29896,"lon":5.38145,"is_reserved":false,"is_disabled":false,"rental_uris":{"android":"levelo://app?vid=64ba858c-b225-4a78-9a95-4d5f323c48ef","ios":"levelo://app?vid=64ba858c-b225-4a78-9a95-4d5f323c48ef"},"vehicle_type_id":"4","last_reported":1732785062,"current_range_meters":12400,"station_id":"","pricing_plan_id":"cebpf4jnsgd1na2vs0mg"},{"bike_id":"9009be37-c6b1-406b-b0a8-fbab355f715e","system_id":"levelo_inurba_marseille","lat":43.33762,"lon":5.37493,"is_reserved":false,"is_disabled":false,"rental_uris":{"android":"levelo://app?vid=9009be37-c6b1-406b-b0a8-fbab355f715e","ios":"levelo://app?vid=9009be37-c6b1-406b-b0a8-fbab355f715e"},"vehicle_type_id":"4","last_reported":1732785062,"current_range_meters":38000,"station_id":"","pricing_plan_id":"cebpf4jnsgd1na2vs0mg"},{"bike_id":"698a4486-2082-4411-9bb5-26cb3d238d76","system_id":"levelo_inurba_marseille","lat":43.32546,"lon":5.41444,"is_reserved":false,"is_disabled":false,"rental_uris":{"android":"levelo://app?vid=698a4486-2082-4411-9bb5-26cb3d238d76","ios":"levelo://app?vid=698a4486-2082-4411-9bb5-26cb3d238d76"},"vehicle_type_id":"4","last_reported":1732785062,"current_range_meters":36000,"station_id":"ce4bhq12rcd13ifvqhhg","pricing_plan_id":"cebpf4jnsgd1na2vs0mg"},{"bike_id":"af0acac0-8fdb-4638-84d0-671159a94129","system_id":"levelo_inurba_marseille","lat":43.30315,"lon":5.36899,"is_reserved":false,"is_disabled":false,"rental_uris":{"android":"levelo://app?vid=af0acac0-8fdb-4638-84d0-671159a94129","ios":"levelo://app?vid=af0acac0-8fdb-4638-84d0-671159a94129"},"vehicle_type_id":"4","last_reported":1732785062,"current_range_meters":27600,"station_id":"ce4bgqh2rcd13ifvqc5g","pricing_plan_id":"cebpf4jnsgd1na2vs0mg"},{"bike_id":"ceb58516-bc8c-40df-9da4-368ee1d8d8aa","system_id":"levelo_inurba_marseille","lat":43.24071,"lon":5.37756,"is_reserved":false,"is_disabled":false,"rental_uris":{"android":"levelo://app?vid=ceb58516-bc8c-40df-9da4-368ee1d8d8aa","ios":"levelo://app?vid=ceb58516-bc8c-40df-9da4-368ee1d8d8aa"},"vehicle_type_id":"4","last_reported":1732785062,"current_range_meters":30400,"station_id":"ce4bhnp2rcd13ifvqgvg","pricing_plan_id":"cebpf4jnsgd1na2vs0mg"},{"bike_id":"cc39417c-9fe6-4314-b916-d5d5360bfdd4","system_id":"levelo_inurba_marseille","lat":43.32549,"lon":5.41437,"is_reserved":false,"is_disabled":false,"rental_uris":{"android":"levelo://app?vid=cc39417c-9fe6-4314-b916-d5d5360bfdd4","ios":"levelo://app?vid=cc39417c-9fe6-4314-b916-d5d5360bfdd4"},"vehicle_type_id":"4","last_reported":1732785062,"current_range_meters":39200,"station_id":"ce4bhq12rcd13ifvqhhg","pricing_plan_id":"cebpf4jnsgd1na2vs0mg"},{"bike_id":"de93f962-86a2-4563-b1b9-8b6483fb8202","system_id":"levelo_inurba_marseille","lat":43.27917,"lon":5.39576,"is_reserved":false,"is_disabled":false,"rental_uris":{"android":"levelo://app?vid=de93f962-86a2-4563-b1b9-8b6483fb8202","ios":"levelo://app?vid=de93f962-86a2-4563-b1b9-8b6483fb8202"},"vehicle_type_id":"4","last_reported":1732785062,"current_range_meters":36800,"station_id":"ce4bhf92rcd13ifvqf40","pricing_plan_id":"cebpf4jnsgd1na2vs0mg"},{"bike_id":"b43a52b8-bdfd-4c5a-9c50-41b5f9068705","system_id":"levelo_inurba_marseille","lat":43.32546,"lon":5.41435,"is_reserved":false,"is_disabled":false,"rental_uris":{"android":"levelo://app?vid=b43a52b8-bdfd-4c5a-9c50-41b5f9068705","ios":"levelo://app?vid=b43a52b8-bdfd-4c5a-9c50-41b5f9068705"},"vehicle_type_id":"4","last_reported":1732785062,"current_range_meters":38400,"station_id":"ce4bhq12rcd13ifvqhhg","pricing_plan_id":"cebpf4jnsgd1na2vs0mg"},{"bike_id":"4d809776-4d2b-4bf5-8aa6-666b5b1fd18f","system_id":"levelo_inurba_marseille","lat":43.33733,"lon":5.39187,"is_reserved":false,"is_disabled":false,"rental_uris":{"android":"levelo://app?vid=4d809776-4d2b-4bf5-8aa6-666b5b1fd18f","ios":"levelo://app?vid=4d809776-4d2b-4bf5-8aa6-666b5b1fd18f"},"vehicle_type_id":"4","last_reported":1732785062,"current_range_meters":34800,"station_id":"ce4bhr92rcd13ifvqhsg","pricing_plan_id":"cebpf4jnsgd1na2vs0mg"},{"bike_id":"4d596ab7-e3b9-471e-a0d6-0fbbe9b0932d","system_id":"levelo_inurba_marseille","lat":43.3053,"lon":5.36722,"is_reserved":false,"is_disabled":false,"rental_uris":{"android":"levelo://app?vid=4d596ab7-e3b9-471e-a0d6-0fbbe9b0932d","ios":"levelo://app?vid=4d596ab7-e3b9-471e-a0d6-0fbbe9b0932d"},"vehicle_type_id":"4","last_reported":1732785062,"current_range_meters":26000,"station_id":"ce4bgrp2rcd13ifvqc9g","pricing_plan_id":"cebpf4jnsgd1na2vs0mg"},{"bike_id":"2b539107-529c-4a94-900a-48d38a7e5032","system_id":"levelo_inurba_marseille","lat":43.30146,"lon":5.37415,"is_reserved":false,"is_disabled":false,"rental_uris":{"android":"levelo://app?vid=2b539107-529c-4a94-900a-48d38a7e5032","ios":"levelo://app?vid=2b539107-529c-4a94-900a-48d38a7e5032"},"vehicle_type_id":"4","last_reported":1732785062,"current_range_meters":27600,"station_id":"ce4bgs92rcd13ifvqcc0","pricing_plan_id":"cebpf4jnsgd1na2vs0mg"},{"bike_id":"7dccca16-9c81-46ba-8ec7-8ac114550316","system_id":"levelo_inurba_marseille","lat":43.337444,"lon":5.374475,"is_reserved":false,"is_disabled":false,"rental_uris":{"android":"levelo://app?vid=7dccca16-9c81-46ba-8ec7-8ac114550316","ios":"levelo://app?vid=7dccca16-9c81-46ba-8ec7-8ac114550316"},"vehicle_type_id":"4","last_reported":1732785062,"current_range_meters":34000,"station_id":"","pricing_plan_id":"cebpf4jnsgd1na2vs0mg"},{"bike_id":"ca76a201-f66a-4daa-8658-bffa4fbb7afa","system_id":"levelo_inurba_marseille","lat":43.30888,"lon":5.37198,"is_reserved":false,"is_disabled":false,"rental_uris":{"android":"levelo://app?vid=ca76a201-f66a-4daa-8658-bffa4fbb7afa","ios":"levelo://app?vid=ca76a201-f66a-4daa-8658-bffa4fbb7afa"},"vehicle_type_id":"4","last_reported":1732785062,"current_range_meters":38000,"station_id":"ce4bguh2rcd13ifvqckg","pricing_plan_id":"cebpf4jnsgd1na2vs0mg"},{"bike_id":"6f5782de-b8bd-4266-beb8-9ca918b980af","system_id":"levelo_inurba_marseille","lat":43.29571,"lon":5.39971,"is_reserved":false,"is_disabled":false,"rental_uris":{"android":"levelo://app?vid=6f5782de-b8bd-4266-beb8-9ca918b980af","ios":"levelo://app?vid=6f5782de-b8bd-4266-beb8-9ca918b980af"},"vehicle_type_id":"4","last_reported":1732785062,"current_range_meters":8400,"station_id":"ce4bh312rcd13ifvqdj0","pricing_plan_id":"cebpf4jnsgd1na2vs0mg"},{"bike_id":"c611a17a-f2d3-4f60-8464-809b1bcd4c11","system_id":"levelo_inurba_marseille","lat":43.2407,"lon":5.37759,"is_reserved":false,"is_disabled":false,"rental_uris":{"android":"levelo://app?vid=c611a17a-f2d3-4f60-8464-809b1bcd4c11","ios":"levelo://app?vid=c611a17a-f2d3-4f60-8464-809b1bcd4c11"},"vehicle_type_id":"4","last_reported":1732785062,"current_range_meters":19600,"station_id":"ce4bhnp2rcd13ifvqgvg","pricing_plan_id":"cebpf4jnsgd1na2vs0mg"},{"bike_id":"c6503f95-a2da-4b3b-82b1-0e08a76abfd0","system_id":"levelo_inurba_marseille","lat":43.25934,"lon":5.40912,"is_reserved":false,"is_disabled":false,"rental_uris":{"android":"levelo://app?vid=c6503f95-a2da-4b3b-82b1-0e08a76abfd0","ios":"levelo://app?vid=c6503f95-a2da-4b3b-82b1-0e08a76abfd0"},"vehicle_type_id":"4","last_reported":1732785062,"current_range_meters":26000,"station_id":"ce4bhm92rcd13ifvqglg","pricing_plan_id":"cebpf4jnsgd1na2vs0mg"},{"bike_id":"362db241-7e11-4775-b954-2b767a09870c","system_id":"levelo_inurba_marseille","lat":43.31363,"lon":5.38489,"is_reserved":false,"is_disabled":false,"rental_uris":{"android":"levelo://app?vid=362db241-7e11-4775-b954-2b767a09870c","ios":"levelo://app?vid=362db241-7e11-4775-b954-2b767a09870c"},"vehicle_type_id":"4","last_reported":1732785062,"current_range_meters":14000,"station_id":"ce4bgt92rcd13ifvqcf0","pricing_plan_id":"cebpf4jnsgd1na2vs0mg"},{"bike_id":"95c39abd-631b-4674-8877-bb71fdbca347","system_id":"levelo_inurba_marseille","lat":43.29599,"lon":5.37716,"is_reserved":false,"is_disabled":true,"rental_uris":{"android":"levelo://app?vid=95c39abd-631b-4674-8877-bb71fdbca347","ios":"levelo://app?vid=95c39abd-631b-4674-8877-bb71fdbca347"},"vehicle_type_id":"4","last_reported":1732785062,"current_range_meters":9200,"station_id":"ce4bgi92rcd13ifvqb90","pricing_plan_id":"cebpf4jnsgd1na2vs0mg"},{"bike_id":"35637c9f-d6c4-4d75-82b5-13284fd1c1f7","system_id":"levelo_inurba_marseille","lat":43.31227,"lon":5.36843,"is_reserved":false,"is_disabled":false,"rental_uris":{"android":"levelo://app?vid=35637c9f-d6c4-4d75-82b5-13284fd1c1f7","ios":"levelo://app?vid=35637c9f-d6c4-4d75-82b5-13284fd1c1f7"},"vehicle_type_id":"4","last_reported":1732785062,"current_range_meters":20000,"station_id":"ce4bgl92rcd13ifvqbq0","pricing_plan_id":"cebpf4jnsgd1na2vs0mg"},{"bike_id":"df1919fe-5865-46fa-9ab6-059b74a4fb31","system_id":"levelo_inurba_marseille","lat":43.23155,"lon":5.43707,"is_reserved":false,"is_disabled":false,"rental_uris":{"android":"levelo://app?vid=df1919fe-5865-46fa-9ab6-059b74a4fb31","ios":"levelo://app?vid=df1919fe-5865-46fa-9ab6-059b74a4fb31"},"vehicle_type_id":"4","last_reported":1732785062,"current_range_meters":32400,"station_id":"ce4bhmp2rcd13ifvqgog","pricing_plan_id":"cebpf4jnsgd1na2vs0mg"},{"bike_id":"8429aac6-e205-4db7-b830-738d1a402a04","system_id":"levelo_inurba_marseille","lat":43.31093,"lon":5.37484,"is_reserved":false,"is_disabled":false,"rental_uris":{"android":"levelo://app?vid=8429aac6-e205-4db7-b830-738d1a402a04","ios":"levelo://app?vid=8429aac6-e205-4db7-b830-738d1a402a04"},"vehicle_type_id":"4","last_reported":1732785062,"current_range_meters":14000,"station_id":"","pricing_plan_id":"cebpf4jnsgd1na2vs0mg"},{"bike_id":"1dee5398-ece1-4217-b5b9-984f22c2ff59","system_id":"levelo_inurba_marseille","lat":43.29249,"lon":5.38433,"is_reserved":false,"is_disabled":true,"rental_uris":{"android":"levelo://app?vid=1dee5398-ece1-4217-b5b9-984f22c2ff59","ios":"levelo://app?vid=1dee5398-ece1-4217-b5b9-984f22c2ff59"},"vehicle_type_id":"4","last_reported":1732785062,"current_range_meters":0,"station_id":"ce4bh692rcd13ifvqea0","pricing_plan_id":"cebpf4jnsgd1na2vs0mg"},{"bike_id":"5e606358-6ec5-4ba1-b7a5-4160b77dadb0","system_id":"levelo_inurba_marseille","lat":43.2439,"lon":5.37062,"is_reserved":false,"is_disabled":false,"rental_uris":{"android":"levelo://app?vid=5e606358-6ec5-4ba1-b7a5-4160b77dadb0","ios":"levelo://app?vid=5e606358-6ec5-4ba1-b7a5-4160b77dadb0"},"vehicle_type_id":"4","last_reported":1732785062,"current_range_meters":38400,"station_id":"ce4bhhh2rcd13ifvqfk0","pricing_plan_id":"cebpf4jnsgd1na2vs0mg"},{"bike_id":"b8ab9e35-c8aa-49e6-9ad0-60fe686bb49a","system_id":"levelo_inurba_marseille","lat":43.25115,"lon":5.40321,"is_reserved":false,"is_disabled":false,"rental_uris":{"android":"levelo://app?vid=b8ab9e35-c8aa-49e6-9ad0-60fe686bb49a","ios":"levelo://app?vid=b8ab9e35-c8aa-49e6-9ad0-60fe686bb49a"},"vehicle_type_id":"4","last_reported":1732785062,"current_range_meters":36800,"station_id":"ce4bhlh2rcd13ifvqgig","pricing_plan_id":"cebpf4jnsgd1na2vs0mg"},{"bike_id":"80f4ea0a-f40f-482d-ad25-da02fbec78bb","system_id":"levelo_inurba_marseille","lat":43.30137,"lon":5.37423,"is_reserved":false,"is_disabled":false,"rental_uris":{"android":"levelo://app?vid=80f4ea0a-f40f-482d-ad25-da02fbec78bb","ios":"levelo://app?vid=80f4ea0a-f40f-482d-ad25-da02fbec78bb"},"vehicle_type_id":"4","last_reported":1732785062,"current_range_meters":38800,"station_id":"ce4bgs92rcd13ifvqcc0","pricing_plan_id":"cebpf4jnsgd1na2vs0mg"},{"bike_id":"29d04266-ba8c-420a-8554-91dfb9162bbd","system_id":"levelo_inurba_marseille","lat":43.29597,"lon":5.381,"is_reserved":false,"is_disabled":false,"rental_uris":{"android":"levelo://app?vid=29d04266-ba8c-420a-8554-91dfb9162bbd","ios":"levelo://app?vid=29d04266-ba8c-420a-8554-91dfb9162bbd"},"vehicle_type_id":"4","last_reported":1732785062,"current_range_meters":28000,"station_id":"ce4bgl12rcd13ifvqbo0","pricing_plan_id":"cebpf4jnsgd1na2vs0mg"},{"bike_id":"ae27d36e-a736-4bd0-9e1e-8d7ee12e2e51","system_id":"levelo_inurba_marseille","lat":43.29533,"lon":5.3775,"is_reserved":false,"is_disabled":true,"rental_uris":{"android":"levelo://app?vid=ae27d36e-a736-4bd0-9e1e-8d7ee12e2e51","ios":"levelo://app?vid=ae27d36e-a736-4bd0-9e1e-8d7ee12e2e51"},"vehicle_type_id":"4","last_reported":1732785062,"current_range_meters":0,"station_id":"ce4bgi92rcd13ifvqb90","pricing_plan_id":"cebpf4jnsgd1na2vs0mg"},{"bike_id":"4d965c4c-39af-424a-9fef-4dc6eac85546","system_id":"levelo_inurba_marseille","lat":43.31111,"lon":5.37783,"is_reserved":false,"is_disabled":false,"rental_uris":{"android":"levelo://app?vid=4d965c4c-39af-424a-9fef-4dc6eac85546","ios":"levelo://app?vid=4d965c4c-39af-424a-9fef-4dc6eac85546"},"vehicle_type_id":"4","last_reported":1732785062,"current_range_meters":12400,"station_id":"ce4bgt92rcd13ifvqcg0","pricing_plan_id":"cebpf4jnsgd1na2vs0mg"},{"bike_id":"0d6ad86a-d679-4803-96ca-14041613c9a8","system_id":"levelo_inurba_marseille","lat":43.29849,"lon":5.36262,"is_reserved":false,"is_disabled":false,"rental_uris":{"android":"levelo://app?vid=0d6ad86a-d679-4803-96ca-14041613c9a8","ios":"levelo://app?vid=0d6ad86a-d679-4803-96ca-14041613c9a8"},"vehicle_type_id":"4","last_reported":1732785062,"current_range_meters":28800,"station_id":"ce4bgpp2rcd13ifvqc3g","pricing_plan_id":"cebpf4jnsgd1na2vs0mg"},{"bike_id":"b5e89d7e-b7fd-43b9-85a6-b30c5657d315","system_id":"levelo_inurba_marseille","lat":43.29258,"lon":5.38437,"is_reserved":false,"is_disabled":false,"rental_uris":{"android":"levelo://app?vid=b5e89d7e-b7fd-43b9-85a6-b30c5657d315","ios":"levelo://app?vid=b5e89d7e-b7fd-43b9-85a6-b30c5657d315"},"vehicle_type_id":"4","last_reported":1732785062,"current_range_meters":12800,"station_id":"ce4bh692rcd13ifvqea0","pricing_plan_id":"cebpf4jnsgd1na2vs0mg"},{"bike_id":"2df24cb5-e68b-4866-a60a-ca502f7c40db","system_id":"levelo_inurba_marseille","lat":43.29607,"lon":5.38108,"is_reserved":false,"is_disabled":false,"rental_uris":{"android":"levelo://app?vid=2df24cb5-e68b-4866-a60a-ca502f7c40db","ios":"levelo://app?vid=2df24cb5-e68b-4866-a60a-ca502f7c40db"},"vehicle_type_id":"4","last_reported":1732785062,"current_range_meters":39200,"station_id":"ce4bgl12rcd13ifvqbo0","pricing_plan_id":"cebpf4jnsgd1na2vs0mg"},{"bike_id":"39b04c21-6a6a-40a7-a489-741c2b67c9bd","system_id":"levelo_inurba_marseille","lat":43.33723,"lon":5.39192,"is_reserved":false,"is_disabled":false,"rental_uris":{"android":"levelo://app?vid=39b04c21-6a6a-40a7-a489-741c2b67c9bd","ios":"levelo://app?vid=39b04c21-6a6a-40a7-a489-741c2b67c9bd"},"vehicle_type_id":"4","last_reported":1732785062,"current_range_meters":6400,"station_id":"ce4bhr92rcd13ifvqhsg","pricing_plan_id":"cebpf4jnsgd1na2vs0mg"},{"bike_id":"573f1a32-0100-4632-81f0-9f78c4587cd4","system_id":"levelo_inurba_marseille","lat":43.2841,"lon":5.37508,"is_reserved":false,"is_disabled":true,"rental_uris":{"android":"levelo://app?vid=573f1a32-0100-4632-81f0-9f78c4587cd4","ios":"levelo://app?vid=573f1a32-0100-4632-81f0-9f78c4587cd4"},"vehicle_type_id":"4","last_reported":1732785062,"current_range_meters":0,"station_id":"ce4bh412rcd13ifvqds0","pricing_plan_id":"cebpf4jnsgd1na2vs0mg"},{"bike_id":"59310c24-aada-47db-9c55-db87d9c8f60e","system_id":"levelo_inurba_marseille","lat":43.28975,"lon":5.37837,"is_reserved":false,"is_disabled":true,"rental_uris":{"android":"levelo://app?vid=59310c24-aada-47db-9c55-db87d9c8f60e","ios":"levelo://app?vid=59310c24-aada-47db-9c55-db87d9c8f60e"},"vehicle_type_id":"4","last_reported":1732785062,"current_range_meters":38800,"station_id":"ce4bh9p2rcd13ifvqed0","pricing_plan_id":"cebpf4jnsgd1na2vs0mg"},{"bike_id":"9a43b951-fd0f-48f0-8ea1-36abcf466877","system_id":"levelo_inurba_marseille","lat":43.25944,"lon":5.409,"is_reserved":false,"is_disabled":false,"rental_uris":{"android":"levelo://app?vid=9a43b951-fd0f-48f0-8ea1-36abcf466877","ios":"levelo://app?vid=9a43b951-fd0f-48f0-8ea1-36abcf466877"},"vehicle_type_id":"4","last_reported":1732785062,"current_range_meters":5600,"station_id":"ce4bhm92rcd13ifvqglg","pricing_plan_id":"cebpf4jnsgd1na2vs0mg"},{"bike_id":"4d76aa46-38ce-4912-828f-6aa7c3ebd017","system_id":"levelo_inurba_marseille","lat":43.30543,"lon":5.36556,"is_reserved":false,"is_disabled":false,"rental_uris":{"android":"levelo://app?vid=4d76aa46-38ce-4912-828f-6aa7c3ebd017","ios":"levelo://app?vid=4d76aa46-38ce-4912-828f-6aa7c3ebd017"},"vehicle_type_id":"4","last_reported":1732785062,"current_range_meters":36400,"station_id":"ce4bgs12rcd13ifvqcag","pricing_plan_id":"cebpf4jnsgd1na2vs0mg"},{"bike_id":"16259231-83f4-4c0b-b4de-0dcb1d03ab7a","system_id":"levelo_inurba_marseille","lat":43.337444,"lon":5.374475,"is_reserved":false,"is_disabled":false,"rental_uris":{"android":"levelo://app?vid=16259231-83f4-4c0b-b4de-0dcb1d03ab7a","ios":"levelo://app?vid=16259231-83f4-4c0b-b4de-0dcb1d03ab7a"},"vehicle_type_id":"4","last_reported":1732785062,"current_range_meters":38000,"station_id":"","pricing_plan_id":"cebpf4jnsgd1na2vs0mg"},{"bike_id":"e2aa56d9-70ff-4a87-b5d7-eee3dcd91418","system_id":"levelo_inurba_marseille","lat":43.24071,"lon":5.37756,"is_reserved":false,"is_disabled":false,"rental_uris":{"android":"levelo://app?vid=e2aa56d9-70ff-4a87-b5d7-eee3dcd91418","ios":"levelo://app?vid=e2aa56d9-70ff-4a87-b5d7-eee3dcd91418"},"vehicle_type_id":"4","last_reported":1732785062,"current_range_meters":11200,"station_id":"ce4bhnp2rcd13ifvqgvg","pricing_plan_id":"cebpf4jnsgd1na2vs0mg"},{"bike_id":"e163bcfa-3686-4530-b9d7-a14cbd1893ab","system_id":"levelo_inurba_marseille","lat":43.325404,"lon":5.414334,"is_reserved":false,"is_disabled":false,"rental_uris":{"android":"levelo://app?vid=e163bcfa-3686-4530-b9d7-a14cbd1893ab","ios":"levelo://app?vid=e163bcfa-3686-4530-b9d7-a14cbd1893ab"},"vehicle_type_id":"4","last_reported":1732785062,"current_range_meters":30800,"station_id":"ce4bhq12rcd13ifvqhhg","pricing_plan_id":"cebpf4jnsgd1na2vs0mg"},{"bike_id":"220ce8bf-6055-439a-932f-70112f24c52b","system_id":"levelo_inurba_marseille","lat":43.321066,"lon":5.3678,"is_reserved":false,"is_disabled":false,"rental_uris":{"android":"levelo://app?vid=220ce8bf-6055-439a-932f-70112f24c52b","ios":"levelo://app?vid=220ce8bf-6055-439a-932f-70112f24c52b"},"vehicle_type_id":"4","last_reported":1732785062,"current_range_meters":10800,"station_id":"ce4bhrh2rcd13ifvqhug","pricing_plan_id":"cebpf4jnsgd1na2vs0mg"},{"bike_id":"24404b8c-92d5-4ffc-a704-f49736075a77","system_id":"levelo_inurba_marseille","lat":43.32365,"lon":5.38876,"is_reserved":false,"is_disabled":true,"rental_uris":{"android":"levelo://app?vid=24404b8c-92d5-4ffc-a704-f49736075a77","ios":"levelo://app?vid=24404b8c-92d5-4ffc-a704-f49736075a77"},"vehicle_type_id":"4","last_reported":1732785062,"current_range_meters":19600,"station_id":"ce4bhqp2rcd13ifvqhog","pricing_plan_id":"cebpf4jnsgd1na2vs0mg"},{"bike_id":"790c638a-213d-467e-832f-925eae328b2d","system_id":"levelo_inurba_marseille","lat":43.27966,"lon":5.38735,"is_reserved":false,"is_disabled":false,"rental_uris":{"android":"levelo://app?vid=790c638a-213d-467e-832f-925eae328b2d","ios":"levelo://app?vid=790c638a-213d-467e-832f-925eae328b2d"},"vehicle_type_id":"4","last_reported":1732785062,"current_range_meters":34000,"station_id":"ce4bhg12rcd13ifvqf80","pricing_plan_id":"cebpf4jnsgd1na2vs0mg"},{"bike_id":"55def45f-9948-4148-8f9c-11a0cb8de0cb","system_id":"levelo_inurba_marseille","lat":43.30959,"lon":5.39034,"is_reserved":false,"is_disabled":false,"rental_uris":{"android":"levelo://app?vid=55def45f-9948-4148-8f9c-11a0cb8de0cb","ios":"levelo://app?vid=55def45f-9948-4148-8f9c-11a0cb8de0cb"},"vehicle_type_id":"4","last_reported":1732785062,"current_range_meters":39200,"station_id":"ce4bgup2rcd13ifvqco0","pricing_plan_id":"cebpf4jnsgd1na2vs0mg"},{"bike_id":"9cc80f1b-9830-4f87-ae7b-da681f0b049e","system_id":"levelo_inurba_marseille","lat":43.30922,"lon":5.40151,"is_reserved":false,"is_disabled":false,"rental_uris":{"android":"levelo://app?vid=9cc80f1b-9830-4f87-ae7b-da681f0b049e","ios":"levelo://app?vid=9cc80f1b-9830-4f87-ae7b-da681f0b049e"},"vehicle_type_id":"4","last_reported":1732785062,"current_range_meters":10800,"station_id":"ce4bgvp2rcd13ifvqct0","pricing_plan_id":"cebpf4jnsgd1na2vs0mg"},{"bike_id":"befd70af-0170-4a22-9cf7-bc67e949484d","system_id":"levelo_inurba_marseille","lat":43.25823,"lon":5.39425,"is_reserved":false,"is_disabled":false,"rental_uris":{"android":"levelo://app?vid=befd70af-0170-4a22-9cf7-bc67e949484d","ios":"levelo://app?vid=befd70af-0170-4a22-9cf7-bc67e949484d"},"vehicle_type_id":"4","last_reported":1732785062,"current_range_meters":2000,"station_id":"ce4bhip2rcd13ifvqft0","pricing_plan_id":"cebpf4jnsgd1na2vs0mg"},{"bike_id":"d4f2b80e-deb0-4225-9b05-088e4ed4dd4b","system_id":"levelo_inurba_marseille","lat":43.3031,"lon":5.36904,"is_reserved":false,"is_disabled":false,"rental_uris":{"android":"levelo://app?vid=d4f2b80e-deb0-4225-9b05-088e4ed4dd4b","ios":"levelo://app?vid=d4f2b80e-deb0-4225-9b05-088e4ed4dd4b"},"vehicle_type_id":"4","last_reported":1732785062,"current_range_meters":27600,"station_id":"ce4bgqh2rcd13ifvqc5g","pricing_plan_id":"cebpf4jnsgd1na2vs0mg"},{"bike_id":"394222ca-330d-4796-8c52-f534acf24f05","system_id":"levelo_inurba_marseille","lat":43.27666,"lon":5.38914,"is_reserved":false,"is_disabled":true,"rental_uris":{"android":"levelo://app?vid=394222ca-330d-4796-8c52-f534acf24f05","ios":"levelo://app?vid=394222ca-330d-4796-8c52-f534acf24f05"},"vehicle_type_id":"4","last_reported":1732785062,"current_range_meters":37600,"station_id":"ce4bhi12rcd13ifvqfo0","pricing_plan_id":"cebpf4jnsgd1na2vs0mg"},{"bike_id":"1cd78e3c-eca2-430e-a00b-3450b52eb373","system_id":"levelo_inurba_marseille","lat":43.22931,"lon":5.35377,"is_reserved":false,"is_disabled":false,"rental_uris":{"android":"levelo://app?vid=1cd78e3c-eca2-430e-a00b-3450b52eb373","ios":"levelo://app?vid=1cd78e3c-eca2-430e-a00b-3450b52eb373"},"vehicle_type_id":"4","last_reported":1732785062,"current_range_meters":33600,"station_id":"cpo3532slgdg3j2ikp40","pricing_plan_id":"cebpf4jnsgd1na2vs0mg"},{"bike_id":"e8a8f6ce-56ed-4695-a217-49bcb5a1326f","system_id":"levelo_inurba_marseille","lat":43.31224,"lon":5.36863,"is_reserved":false,"is_disabled":false,"rental_uris":{"android":"levelo://app?vid=e8a8f6ce-56ed-4695-a217-49bcb5a1326f","ios":"levelo://app?vid=e8a8f6ce-56ed-4695-a217-49bcb5a1326f"},"vehicle_type_id":"4","last_reported":1732785062,"current_range_meters":36800,"station_id":"ce4bgl92rcd13ifvqbq0","pricing_plan_id":"cebpf4jnsgd1na2vs0mg"},{"bike_id":"681460a9-806c-471b-88e8-ce403c82f10b","system_id":"levelo_inurba_marseille","lat":43.30605,"lon":5.37204,"is_reserved":false,"is_disabled":true,"rental_uris":{"android":"levelo://app?vid=681460a9-806c-471b-88e8-ce403c82f10b","ios":"levelo://app?vid=681460a9-806c-471b-88e8-ce403c82f10b"},"vehicle_type_id":"4","last_reported":1732785062,"current_range_meters":0,"station_id":"","pricing_plan_id":"cebpf4jnsgd1na2vs0mg"},{"bike_id":"8781107a-bca3-4fb5-8e13-c1a0e84595bc","system_id":"levelo_inurba_marseille","lat":43.27079,"lon":5.4227,"is_reserved":false,"is_disabled":false,"rental_uris":{"android":"levelo://app?vid=8781107a-bca3-4fb5-8e13-c1a0e84595bc","ios":"levelo://app?vid=8781107a-bca3-4fb5-8e13-c1a0e84595bc"},"vehicle_type_id":"4","last_reported":1732785062,"current_range_meters":8400,"station_id":"ce4bhk92rcd13ifvqgb0","pricing_plan_id":"cebpf4jnsgd1na2vs0mg"},{"bike_id":"05ae948f-a083-4d33-969f-23e97fd73569","system_id":"levelo_inurba_marseille","lat":43.29174,"lon":5.37141,"is_reserved":false,"is_disabled":false,"rental_uris":{"android":"levelo://app?vid=05ae948f-a083-4d33-969f-23e97fd73569","ios":"levelo://app?vid=05ae948f-a083-4d33-969f-23e97fd73569"},"vehicle_type_id":"4","last_reported":1732785062,"current_range_meters":12400,"station_id":"ce4bha92rcd13ifvqeh0","pricing_plan_id":"cebpf4jnsgd1na2vs0mg"},{"bike_id":"9c7ed69e-3ca0-4b11-a0fe-fed470807c75","system_id":"levelo_inurba_marseille","lat":43.25821,"lon":5.39439,"is_reserved":false,"is_disabled":false,"rental_uris":{"android":"levelo://app?vid=9c7ed69e-3ca0-4b11-a0fe-fed470807c75","ios":"levelo://app?vid=9c7ed69e-3ca0-4b11-a0fe-fed470807c75"},"vehicle_type_id":"4","last_reported":1732785062,"current_range_meters":17600,"station_id":"ce4bhip2rcd13ifvqft0","pricing_plan_id":"cebpf4jnsgd1na2vs0mg"},{"bike_id":"8057ed49-e09d-4d52-928f-21b1a2b65995","system_id":"levelo_inurba_marseille","lat":43.29623,"lon":5.37171,"is_reserved":false,"is_disabled":true,"rental_uris":{"android":"levelo://app?vid=8057ed49-e09d-4d52-928f-21b1a2b65995","ios":"levelo://app?vid=8057ed49-e09d-4d52-928f-21b1a2b65995"},"vehicle_type_id":"4","last_reported":1732785062,"current_range_meters":38000,"station_id":"ce4bgnh2rcd13ifvqc0g","pricing_plan_id":"cebpf4jnsgd1na2vs0mg"},{"bike_id":"a4507f4e-a70d-43d3-be57-3a44f88c7c9c","system_id":"levelo_inurba_marseille","lat":43.30471,"lon":5.37901,"is_reserved":false,"is_disabled":false,"rental_uris":{"android":"levelo://app?vid=a4507f4e-a70d-43d3-be57-3a44f88c7c9c","ios":"levelo://app?vid=a4507f4e-a70d-43d3-be57-3a44f88c7c9c"},"vehicle_type_id":"4","last_reported":1732785062,"current_range_meters":37600,"station_id":"ce4bgup2rcd13ifvqcn0","pricing_plan_id":"cebpf4jnsgd1na2vs0mg"},{"bike_id":"dd676baa-3c1a-4998-bc94-dbefd50838ff","system_id":"levelo_inurba_marseille","lat":43.27653,"lon":5.42139,"is_reserved":false,"is_disabled":false,"rental_uris":{"android":"levelo://app?vid=dd676baa-3c1a-4998-bc94-dbefd50838ff","ios":"levelo://app?vid=dd676baa-3c1a-4998-bc94-dbefd50838ff"},"vehicle_type_id":"4","last_reported":1732785062,"current_range_meters":23200,"station_id":"","pricing_plan_id":"cebpf4jnsgd1na2vs0mg"},{"bike_id":"3dd27f14-51ec-4d1e-8d64-1ea7632555f3","system_id":"levelo_inurba_marseille","lat":43.32111,"lon":5.3677,"is_reserved":false,"is_disabled":false,"rental_uris":{"android":"levelo://app?vid=3dd27f14-51ec-4d1e-8d64-1ea7632555f3","ios":"levelo://app?vid=3dd27f14-51ec-4d1e-8d64-1ea7632555f3"},"vehicle_type_id":"4","last_reported":1732785062,"current_range_meters":36400,"station_id":"ce4bhrh2rcd13ifvqhug","pricing_plan_id":"cebpf4jnsgd1na2vs0mg"},{"bike_id":"ef7faf07-a670-4e15-b564-bded5c7ce834","system_id":"levelo_inurba_marseille","lat":43.32363,"lon":5.36759,"is_reserved":false,"is_disabled":false,"rental_uris":{"android":"levelo://app?vid=ef7faf07-a670-4e15-b564-bded5c7ce834","ios":"levelo://app?vid=ef7faf07-a670-4e15-b564-bded5c7ce834"},"vehicle_type_id":"4","last_reported":1732785062,"current_range_meters":37600,"station_id":"ce4bhsh2rcd13ifvqi2g","pricing_plan_id":"cebpf4jnsgd1na2vs0mg"},{"bike_id":"26c5a90d-aa2c-4df7-b5b6-5638cd41d0a7","system_id":"levelo_inurba_marseille","lat":43.2439,"lon":5.37052,"is_reserved":false,"is_disabled":false,"rental_uris":{"android":"levelo://app?vid=26c5a90d-aa2c-4df7-b5b6-5638cd41d0a7","ios":"levelo://app?vid=26c5a90d-aa2c-4df7-b5b6-5638cd41d0a7"},"vehicle_type_id":"4","last_reported":1732785062,"current_range_meters":39200,"station_id":"ce4bhhh2rcd13ifvqfk0","pricing_plan_id":"cebpf4jnsgd1na2vs0mg"},{"bike_id":"a4a44eea-7afa-4c63-a662-beba7965732a","system_id":"levelo_inurba_marseille","lat":43.29628,"lon":5.37145,"is_reserved":false,"is_disabled":true,"rental_uris":{"android":"levelo://app?vid=a4a44eea-7afa-4c63-a662-beba7965732a","ios":"levelo://app?vid=a4a44eea-7afa-4c63-a662-beba7965732a"},"vehicle_type_id":"4","last_reported":1732785062,"current_range_meters":0,"station_id":"ce4bgnh2rcd13ifvqc0g","pricing_plan_id":"cebpf4jnsgd1na2vs0mg"},{"bike_id":"3d09f206-225d-4ef6-835a-a8c04f4350e8","system_id":"levelo_inurba_marseille","lat":43.28742,"lon":5.37652,"is_reserved":false,"is_disabled":true,"rental_uris":{"android":"levelo://app?vid=3d09f206-225d-4ef6-835a-a8c04f4350e8","ios":"levelo://app?vid=3d09f206-225d-4ef6-835a-a8c04f4350e8"},"vehicle_type_id":"4","last_reported":1732785062,"current_range_meters":32800,"station_id":"","pricing_plan_id":"cebpf4jnsgd1na2vs0mg"},{"bike_id":"dbfa7f95-56c1-4b5c-8ade-89a5463b3921","system_id":"levelo_inurba_marseille","lat":43.26957,"lon":5.38622,"is_reserved":false,"is_disabled":false,"rental_uris":{"android":"levelo://app?vid=dbfa7f95-56c1-4b5c-8ade-89a5463b3921","ios":"levelo://app?vid=dbfa7f95-56c1-4b5c-8ade-89a5463b3921"},"vehicle_type_id":"4","last_reported":1732785062,"current_range_meters":2800,"station_id":"ce4bhh92rcd13ifvqfh0","pricing_plan_id":"cebpf4jnsgd1na2vs0mg"},{"bike_id":"7acf64e6-102c-4b24-bfca-4cd2f2ab9f83","system_id":"levelo_inurba_marseille","lat":43.3054,"lon":5.36534,"is_reserved":false,"is_disabled":false,"rental_uris":{"android":"levelo://app?vid=7acf64e6-102c-4b24-bfca-4cd2f2ab9f83","ios":"levelo://app?vid=7acf64e6-102c-4b24-bfca-4cd2f2ab9f83"},"vehicle_type_id":"4","last_reported":1732785062,"current_range_meters":38800,"station_id":"","pricing_plan_id":"cebpf4jnsgd1na2vs0mg"},{"bike_id":"2e95a691-d7d8-426b-8dba-47b6b56c6a41","system_id":"levelo_inurba_marseille","lat":43.28151,"lon":5.42641,"is_reserved":false,"is_disabled":false,"rental_uris":{"android":"levelo://app?vid=2e95a691-d7d8-426b-8dba-47b6b56c6a41","ios":"levelo://app?vid=2e95a691-d7d8-426b-8dba-47b6b56c6a41"},"vehicle_type_id":"4","last_reported":1732785062,"current_range_meters":2800,"station_id":"ce4bhnh2rcd13ifvqgug","pricing_plan_id":"cebpf4jnsgd1na2vs0mg"},{"bike_id":"aa262170-281b-4556-817d-784dc19f9c9b","system_id":"levelo_inurba_marseille","lat":43.3248,"lon":5.365628,"is_reserved":false,"is_disabled":false,"rental_uris":{"android":"levelo://app?vid=aa262170-281b-4556-817d-784dc19f9c9b","ios":"levelo://app?vid=aa262170-281b-4556-817d-784dc19f9c9b"},"vehicle_type_id":"4","last_reported":1732785062,"current_range_meters":38800,"station_id":"ce4bhs12rcd13ifvqhvg","pricing_plan_id":"cebpf4jnsgd1na2vs0mg"},{"bike_id":"0cdb351a-dec4-4042-b58f-b44de31cef06","system_id":"levelo_inurba_marseille","lat":43.31364,"lon":5.3849,"is_reserved":false,"is_disabled":true,"rental_uris":{"android":"levelo://app?vid=0cdb351a-dec4-4042-b58f-b44de31cef06","ios":"levelo://app?vid=0cdb351a-dec4-4042-b58f-b44de31cef06"},"vehicle_type_id":"4","last_reported":1732785062,"current_range_meters":0,"station_id":"ce4bgt92rcd13ifvqcf0","pricing_plan_id":"cebpf4jnsgd1na2vs0mg"},{"bike_id":"413c985f-1937-4c6d-ab5d-14dfcd68ec85","system_id":"levelo_inurba_marseille","lat":43.29014,"lon":5.36746,"is_reserved":false,"is_disabled":false,"rental_uris":{"android":"levelo://app?vid=413c985f-1937-4c6d-ab5d-14dfcd68ec85","ios":"levelo://app?vid=413c985f-1937-4c6d-ab5d-14dfcd68ec85"},"vehicle_type_id":"4","last_reported":1732785062,"current_range_meters":14400,"station_id":"ce4bh412rcd13ifvqdr0","pricing_plan_id":"cebpf4jnsgd1na2vs0mg"},{"bike_id":"86856675-f5cc-41cb-b489-246f1ba881b5","system_id":"levelo_inurba_marseille","lat":43.28668,"lon":5.36361,"is_reserved":false,"is_disabled":false,"rental_uris":{"android":"levelo://app?vid=86856675-f5cc-41cb-b489-246f1ba881b5","ios":"levelo://app?vid=86856675-f5cc-41cb-b489-246f1ba881b5"},"vehicle_type_id":"4","last_reported":1732785062,"current_range_meters":38800,"station_id":"ce4bhah2rcd13ifvqej0","pricing_plan_id":"cebpf4jnsgd1na2vs0mg"},{"bike_id":"858b65e1-94fc-4151-a71e-8b168cb19dcb","system_id":"levelo_inurba_marseille","lat":43.32249,"lon":5.39241,"is_reserved":false,"is_disabled":true,"rental_uris":{"android":"levelo://app?vid=858b65e1-94fc-4151-a71e-8b168cb19dcb","ios":"levelo://app?vid=858b65e1-94fc-4151-a71e-8b168cb19dcb"},"vehicle_type_id":"4","last_reported":1732785062,"current_range_meters":0,"station_id":"","pricing_plan_id":"cebpf4jnsgd1na2vs0mg"},{"bike_id":"e51b2acb-d883-446b-9ce9-347608453ece","system_id":"levelo_inurba_marseille","lat":43.22928,"lon":5.35375,"is_reserved":false,"is_disabled":false,"rental_uris":{"android":"levelo://app?vid=e51b2acb-d883-446b-9ce9-347608453ece","ios":"levelo://app?vid=e51b2acb-d883-446b-9ce9-347608453ece"},"vehicle_type_id":"4","last_reported":1732785062,"current_range_meters":32800,"station_id":"cpo3532slgdg3j2ikp40","pricing_plan_id":"cebpf4jnsgd1na2vs0mg"},{"bike_id":"6b81a982-a787-4916-ba41-bbf2f336c5b7","system_id":"levelo_inurba_marseille","lat":43.27915,"lon":5.395704,"is_reserved":false,"is_disabled":false,"rental_uris":{"android":"levelo://app?vid=6b81a982-a787-4916-ba41-bbf2f336c5b7","ios":"levelo://app?vid=6b81a982-a787-4916-ba41-bbf2f336c5b7"},"vehicle_type_id":"4","last_reported":1732785062,"current_range_meters":24000,"station_id":"ce4bhf92rcd13ifvqf40","pricing_plan_id":"cebpf4jnsgd1na2vs0mg"},{"bike_id":"54d92e45-0c73-4cef-bfa3-0fc84870e3ef","system_id":"levelo_inurba_marseille","lat":43.25926,"lon":5.40884,"is_reserved":false,"is_disabled":false,"rental_uris":{"android":"levelo://app?vid=54d92e45-0c73-4cef-bfa3-0fc84870e3ef","ios":"levelo://app?vid=54d92e45-0c73-4cef-bfa3-0fc84870e3ef"},"vehicle_type_id":"4","last_reported":1732785062,"current_range_meters":14000,"station_id":"ce4bhm92rcd13ifvqglg","pricing_plan_id":"cebpf4jnsgd1na2vs0mg"},{"bike_id":"a6c754f9-f15d-49bc-a552-34b37a860a56","system_id":"levelo_inurba_marseille","lat":43.29171,"lon":5.37165,"is_reserved":false,"is_disabled":false,"rental_uris":{"android":"levelo://app?vid=a6c754f9-f15d-49bc-a552-34b37a860a56","ios":"levelo://app?vid=a6c754f9-f15d-49bc-a552-34b37a860a56"},"vehicle_type_id":"4","last_reported":1732785062,"current_range_meters":13600,"station_id":"ce4bha92rcd13ifvqeh0","pricing_plan_id":"cebpf4jnsgd1na2vs0mg"},{"bike_id":"f5f4e3ff-5939-4058-95e9-0ce7505e213c","system_id":"levelo_inurba_marseille","lat":43.32478,"lon":5.36581,"is_reserved":false,"is_disabled":false,"rental_uris":{"android":"levelo://app?vid=f5f4e3ff-5939-4058-95e9-0ce7505e213c","ios":"levelo://app?vid=f5f4e3ff-5939-4058-95e9-0ce7505e213c"},"vehicle_type_id":"4","last_reported":1732785062,"current_range_meters":13600,"station_id":"ce4bhs12rcd13ifvqhvg","pricing_plan_id":"cebpf4jnsgd1na2vs0mg"},{"bike_id":"6a4001d6-d444-4013-81f0-795a143d0522","system_id":"levelo_inurba_marseille","lat":43.30188,"lon":5.38722,"is_reserved":false,"is_disabled":true,"rental_uris":{"android":"levelo://app?vid=6a4001d6-d444-4013-81f0-795a143d0522","ios":"levelo://app?vid=6a4001d6-d444-4013-81f0-795a143d0522"},"vehicle_type_id":"4","last_reported":1732785062,"current_range_meters":29600,"station_id":"","pricing_plan_id":"cebpf4jnsgd1na2vs0mg"},{"bike_id":"c69ad13d-85ec-435b-9e60-6ab266dd3f8b","system_id":"levelo_inurba_marseille","lat":43.28714,"lon":5.37387,"is_reserved":false,"is_disabled":false,"rental_uris":{"android":"levelo://app?vid=c69ad13d-85ec-435b-9e60-6ab266dd3f8b","ios":"levelo://app?vid=c69ad13d-85ec-435b-9e60-6ab266dd3f8b"},"vehicle_type_id":"4","last_reported":1732785062,"current_range_meters":10800,"station_id":"ce4bh3p2rcd13ifvqdq0","pricing_plan_id":"cebpf4jnsgd1na2vs0mg"},{"bike_id":"36c2e099-818d-4574-9908-042aa295646a","system_id":"levelo_inurba_marseille","lat":43.25941,"lon":5.409,"is_reserved":false,"is_disabled":true,"rental_uris":{"android":"levelo://app?vid=36c2e099-818d-4574-9908-042aa295646a","ios":"levelo://app?vid=36c2e099-818d-4574-9908-042aa295646a"},"vehicle_type_id":"4","last_reported":1732785062,"current_range_meters":38800,"station_id":"ce4bhm92rcd13ifvqglg","pricing_plan_id":"cebpf4jnsgd1na2vs0mg"},{"bike_id":"f7f3756c-1ec7-4782-9c87-6273f87b6774","system_id":"levelo_inurba_marseille","lat":43.337444,"lon":5.374475,"is_reserved":false,"is_disabled":true,"rental_uris":{"android":"levelo://app?vid=f7f3756c-1ec7-4782-9c87-6273f87b6774","ios":"levelo://app?vid=f7f3756c-1ec7-4782-9c87-6273f87b6774"},"vehicle_type_id":"4","last_reported":1732785062,"current_range_meters":11200,"station_id":"","pricing_plan_id":"cebpf4jnsgd1na2vs0mg"},{"bike_id":"86b3eb09-0bce-4f11-936c-9d67af3242bd","system_id":"levelo_inurba_marseille","lat":43.24544,"lon":5.39527,"is_reserved":false,"is_disabled":false,"rental_uris":{"android":"levelo://app?vid=86b3eb09-0bce-4f11-936c-9d67af3242bd","ios":"levelo://app?vid=86b3eb09-0bce-4f11-936c-9d67af3242bd"},"vehicle_type_id":"4","last_reported":1732785062,"current_range_meters":37600,"station_id":"ce4bhlp2rcd13ifvqgjg","pricing_plan_id":"cebpf4jnsgd1na2vs0mg"},{"bike_id":"856b2149-c74c-4c19-a974-c0bd5f27fd11","system_id":"levelo_inurba_marseille","lat":43.28728,"lon":5.37937,"is_reserved":false,"is_disabled":false,"rental_uris":{"android":"levelo://app?vid=856b2149-c74c-4c19-a974-c0bd5f27fd11","ios":"levelo://app?vid=856b2149-c74c-4c19-a974-c0bd5f27fd11"},"vehicle_type_id":"4","last_reported":1732785062,"current_range_meters":35200,"station_id":"ce4bh9p2rcd13ifvqec0","pricing_plan_id":"cebpf4jnsgd1na2vs0mg"},{"bike_id":"a68656e0-e386-49d6-9b75-e307ad643c84","system_id":"levelo_inurba_marseille","lat":43.29582,"lon":5.36731,"is_reserved":false,"is_disabled":false,"rental_uris":{"android":"levelo://app?vid=a68656e0-e386-49d6-9b75-e307ad643c84","ios":"levelo://app?vid=a68656e0-e386-49d6-9b75-e307ad643c84"},"vehicle_type_id":"4","last_reported":1732785062,"current_range_meters":38400,"station_id":"ce4bgph2rcd13ifvqc2g","pricing_plan_id":"cebpf4jnsgd1na2vs0mg"},{"bike_id":"4901cb6b-dd97-4bff-858e-a1bb50bb2b3e","system_id":"levelo_inurba_marseille","lat":43.30464,"lon":5.37906,"is_reserved":false,"is_disabled":true,"rental_uris":{"android":"levelo://app?vid=4901cb6b-dd97-4bff-858e-a1bb50bb2b3e","ios":"levelo://app?vid=4901cb6b-dd97-4bff-858e-a1bb50bb2b3e"},"vehicle_type_id":"4","last_reported":1732785062,"current_range_meters":0,"station_id":"ce4bgup2rcd13ifvqcn0","pricing_plan_id":"cebpf4jnsgd1na2vs0mg"},{"bike_id":"40153f7e-e943-44f9-9a5c-c9c0bbb9caee","system_id":"levelo_inurba_marseille","lat":43.27494,"lon":5.42457,"is_reserved":false,"is_disabled":false,"rental_uris":{"android":"levelo://app?vid=40153f7e-e943-44f9-9a5c-c9c0bbb9caee","ios":"levelo://app?vid=40153f7e-e943-44f9-9a5c-c9c0bbb9caee"},"vehicle_type_id":"4","last_reported":1732785062,"current_range_meters":8400,"station_id":"ce4bhn92rcd13ifvqgrg","pricing_plan_id":"cebpf4jnsgd1na2vs0mg"},{"bike_id":"1430bcba-b921-48d4-94e7-c400b9d380c7","system_id":"levelo_inurba_marseille","lat":43.27311,"lon":5.39099,"is_reserved":false,"is_disabled":false,"rental_uris":{"android":"levelo://app?vid=1430bcba-b921-48d4-94e7-c400b9d380c7","ios":"levelo://app?vid=1430bcba-b921-48d4-94e7-c400b9d380c7"},"vehicle_type_id":"4","last_reported":1732785062,"current_range_meters":38800,"station_id":"ce4bhgp2rcd13ifvqfe0","pricing_plan_id":"cebpf4jnsgd1na2vs0mg"},{"bike_id":"df744899-6467-4a2d-8132-101284d5d795","system_id":"levelo_inurba_marseille","lat":43.27831,"lon":5.39199,"is_reserved":false,"is_disabled":false,"rental_uris":{"android":"levelo://app?vid=df744899-6467-4a2d-8132-101284d5d795","ios":"levelo://app?vid=df744899-6467-4a2d-8132-101284d5d795"},"vehicle_type_id":"4","last_reported":1732785062,"current_range_meters":33600,"station_id":"ce4bhjp2rcd13ifvqga0","pricing_plan_id":"cebpf4jnsgd1na2vs0mg"},{"bike_id":"bc6040f1-df60-4d6f-99de-06d4962fb67a","system_id":"levelo_inurba_marseille","lat":43.30139,"lon":5.37422,"is_reserved":false,"is_disabled":false,"rental_uris":{"android":"levelo://app?vid=bc6040f1-df60-4d6f-99de-06d4962fb67a","ios":"levelo://app?vid=bc6040f1-df60-4d6f-99de-06d4962fb67a"},"vehicle_type_id":"4","last_reported":1732785062,"current_range_meters":16000,"station_id":"ce4bgs92rcd13ifvqcc0","pricing_plan_id":"cebpf4jnsgd1na2vs0mg"},{"bike_id":"a7d21e0b-9544-42dc-a0c6-5e884f578af9","system_id":"levelo_inurba_marseille","lat":43.2464,"lon":5.43501,"is_reserved":false,"is_disabled":true,"rental_uris":{"android":"levelo://app?vid=a7d21e0b-9544-42dc-a0c6-5e884f578af9","ios":"levelo://app?vid=a7d21e0b-9544-42dc-a0c6-5e884f578af9"},"vehicle_type_id":"4","last_reported":1732785062,"current_range_meters":0,"station_id":"","pricing_plan_id":"cebpf4jnsgd1na2vs0mg"},{"bike_id":"a5909545-3e09-4859-9fda-9ffe4e6e4883","system_id":"levelo_inurba_marseille","lat":43.23067,"lon":5.35489,"is_reserved":false,"is_disabled":false,"rental_uris":{"android":"levelo://app?vid=a5909545-3e09-4859-9fda-9ffe4e6e4883","ios":"levelo://app?vid=a5909545-3e09-4859-9fda-9ffe4e6e4883"},"vehicle_type_id":"4","last_reported":1732785062,"current_range_meters":24000,"station_id":"cpo3342slgdg3j2ifvpg","pricing_plan_id":"cebpf4jnsgd1na2vs0mg"},{"bike_id":"c1aea119-ad60-410f-a666-477cd43ca8ab","system_id":"levelo_inurba_marseille","lat":43.29796,"lon":5.38113,"is_reserved":false,"is_disabled":false,"rental_uris":{"android":"levelo://app?vid=c1aea119-ad60-410f-a666-477cd43ca8ab","ios":"levelo://app?vid=c1aea119-ad60-410f-a666-477cd43ca8ab"},"vehicle_type_id":"4","last_reported":1732785062,"current_range_meters":30000,"station_id":"ce4bgip2rcd13ifvqbb0","pricing_plan_id":"cebpf4jnsgd1na2vs0mg"},{"bike_id":"c35663dc-288f-4db1-91d0-05b86317fa24","system_id":"levelo_inurba_marseille","lat":43.29523,"lon":5.39046,"is_reserved":false,"is_disabled":false,"rental_uris":{"android":"levelo://app?vid=c35663dc-288f-4db1-91d0-05b86317fa24","ios":"levelo://app?vid=c35663dc-288f-4db1-91d0-05b86317fa24"},"vehicle_type_id":"4","last_reported":1732785062,"current_range_meters":24000,"station_id":"","pricing_plan_id":"cebpf4jnsgd1na2vs0mg"},{"bike_id":"c125dd6f-3ad5-427c-a31b-f983259d1b39","system_id":"levelo_inurba_marseille","lat":43.3373,"lon":5.39185,"is_reserved":false,"is_disabled":false,"rental_uris":{"android":"levelo://app?vid=c125dd6f-3ad5-427c-a31b-f983259d1b39","ios":"levelo://app?vid=c125dd6f-3ad5-427c-a31b-f983259d1b39"},"vehicle_type_id":"4","last_reported":1732785062,"current_range_meters":38800,"station_id":"ce4bhr92rcd13ifvqhsg","pricing_plan_id":"cebpf4jnsgd1na2vs0mg"},{"bike_id":"636c38c7-b57f-44ef-879f-37f296bc8e0a","system_id":"levelo_inurba_marseille","lat":43.32108,"lon":5.36797,"is_reserved":false,"is_disabled":false,"rental_uris":{"android":"levelo://app?vid=636c38c7-b57f-44ef-879f-37f296bc8e0a","ios":"levelo://app?vid=636c38c7-b57f-44ef-879f-37f296bc8e0a"},"vehicle_type_id":"4","last_reported":1732785062,"current_range_meters":20000,"station_id":"ce4bhrh2rcd13ifvqhug","pricing_plan_id":"cebpf4jnsgd1na2vs0mg"},{"bike_id":"a9463519-6949-4a9b-97f7-9a4bad2d0d1a","system_id":"levelo_inurba_marseille","lat":43.29042,"lon":5.39953,"is_reserved":false,"is_disabled":false,"rental_uris":{"android":"levelo://app?vid=a9463519-6949-4a9b-97f7-9a4bad2d0d1a","ios":"levelo://app?vid=a9463519-6949-4a9b-97f7-9a4bad2d0d1a"},"vehicle_type_id":"4","last_reported":1732785062,"current_range_meters":27200,"station_id":"ce4bh392rcd13ifvqdm0","pricing_plan_id":"cebpf4jnsgd1na2vs0mg"},{"bike_id":"bfe1eb72-d0ad-4e63-bc4b-f4d3ac6727ba","system_id":"levelo_inurba_marseille","lat":43.24391,"lon":5.37055,"is_reserved":false,"is_disabled":false,"rental_uris":{"android":"levelo://app?vid=bfe1eb72-d0ad-4e63-bc4b-f4d3ac6727ba","ios":"levelo://app?vid=bfe1eb72-d0ad-4e63-bc4b-f4d3ac6727ba"},"vehicle_type_id":"4","last_reported":1732785062,"current_range_meters":38800,"station_id":"ce4bhhh2rcd13ifvqfk0","pricing_plan_id":"cebpf4jnsgd1na2vs0mg"},{"bike_id":"ae934905-edbe-426a-b615-778d21c28ba5","system_id":"levelo_inurba_marseille","lat":43.31351,"lon":5.3672,"is_reserved":false,"is_disabled":false,"rental_uris":{"android":"levelo://app?vid=ae934905-edbe-426a-b615-778d21c28ba5","ios":"levelo://app?vid=ae934905-edbe-426a-b615-778d21c28ba5"},"vehicle_type_id":"4","last_reported":1732785062,"current_range_meters":39200,"station_id":"ce4bgr92rcd13ifvqc6g","pricing_plan_id":"cebpf4jnsgd1na2vs0mg"},{"bike_id":"e5951ee3-4a5a-4ebb-b469-096c5188dfa3","system_id":"levelo_inurba_marseille","lat":43.23187,"lon":5.35566,"is_reserved":false,"is_disabled":false,"rental_uris":{"android":"levelo://app?vid=e5951ee3-4a5a-4ebb-b469-096c5188dfa3","ios":"levelo://app?vid=e5951ee3-4a5a-4ebb-b469-096c5188dfa3"},"vehicle_type_id":"4","last_reported":1732785062,"current_range_meters":28400,"station_id":"ce4bhu92rcd13ifvqi70","pricing_plan_id":"cebpf4jnsgd1na2vs0mg"},{"bike_id":"a1f77444-ef16-4ca0-b202-de4073cedd35","system_id":"levelo_inurba_marseille","lat":43.30476,"lon":5.37898,"is_reserved":false,"is_disabled":false,"rental_uris":{"android":"levelo://app?vid=a1f77444-ef16-4ca0-b202-de4073cedd35","ios":"levelo://app?vid=a1f77444-ef16-4ca0-b202-de4073cedd35"},"vehicle_type_id":"4","last_reported":1732785062,"current_range_meters":8800,"station_id":"ce4bgup2rcd13ifvqcn0","pricing_plan_id":"cebpf4jnsgd1na2vs0mg"},{"bike_id":"551079ac-62f6-4029-9579-63ffc464325f","system_id":"levelo_inurba_marseille","lat":43.23225,"lon":5.35543,"is_reserved":false,"is_disabled":false,"rental_uris":{"android":"levelo://app?vid=551079ac-62f6-4029-9579-63ffc464325f","ios":"levelo://app?vid=551079ac-62f6-4029-9579-63ffc464325f"},"vehicle_type_id":"4","last_reported":1732785062,"current_range_meters":38800,"station_id":"ce4bhu92rcd13ifvqi70","pricing_plan_id":"cebpf4jnsgd1na2vs0mg"},{"bike_id":"be1ad04c-13f8-4868-a008-10e7c5ff3976","system_id":"levelo_inurba_marseille","lat":43.24072,"lon":5.37754,"is_reserved":false,"is_disabled":false,"rental_uris":{"android":"levelo://app?vid=be1ad04c-13f8-4868-a008-10e7c5ff3976","ios":"levelo://app?vid=be1ad04c-13f8-4868-a008-10e7c5ff3976"},"vehicle_type_id":"4","last_reported":1732785062,"current_range_meters":20000,"station_id":"ce4bhnp2rcd13ifvqgvg","pricing_plan_id":"cebpf4jnsgd1na2vs0mg"},{"bike_id":"6c948e9c-d5b3-4fe5-a918-1bd2f7c83b02","system_id":"levelo_inurba_marseille","lat":43.32111,"lon":5.3677,"is_reserved":false,"is_disabled":false,"rental_uris":{"android":"levelo://app?vid=6c948e9c-d5b3-4fe5-a918-1bd2f7c83b02","ios":"levelo://app?vid=6c948e9c-d5b3-4fe5-a918-1bd2f7c83b02"},"vehicle_type_id":"4","last_reported":1732785062,"current_range_meters":8400,"station_id":"ce4bhrh2rcd13ifvqhug","pricing_plan_id":"cebpf4jnsgd1na2vs0mg"},{"bike_id":"81d5315b-ecf8-4a90-acd8-dcf42a7aa5bc","system_id":"levelo_inurba_marseille","lat":43.2749,"lon":5.42456,"is_reserved":false,"is_disabled":true,"rental_uris":{"android":"levelo://app?vid=81d5315b-ecf8-4a90-acd8-dcf42a7aa5bc","ios":"levelo://app?vid=81d5315b-ecf8-4a90-acd8-dcf42a7aa5bc"},"vehicle_type_id":"4","last_reported":1732785062,"current_range_meters":400,"station_id":"ce4bhn92rcd13ifvqgrg","pricing_plan_id":"cebpf4jnsgd1na2vs0mg"},{"bike_id":"237c7831-f015-446b-9201-d076af52f98b","system_id":"levelo_inurba_marseille","lat":43.3046,"lon":5.37907,"is_reserved":false,"is_disabled":false,"rental_uris":{"android":"levelo://app?vid=237c7831-f015-446b-9201-d076af52f98b","ios":"levelo://app?vid=237c7831-f015-446b-9201-d076af52f98b"},"vehicle_type_id":"4","last_reported":1732785062,"current_range_meters":30000,"station_id":"ce4bgup2rcd13ifvqcn0","pricing_plan_id":"cebpf4jnsgd1na2vs0mg"},{"bike_id":"1818d67f-e831-4ab4-aa19-c23094d4bd27","system_id":"levelo_inurba_marseille","lat":43.29029,"lon":5.38644,"is_reserved":false,"is_disabled":false,"rental_uris":{"android":"levelo://app?vid=1818d67f-e831-4ab4-aa19-c23094d4bd27","ios":"levelo://app?vid=1818d67f-e831-4ab4-aa19-c23094d4bd27"},"vehicle_type_id":"4","last_reported":1732785062,"current_range_meters":38000,"station_id":"ce4bh4p2rcd13ifvqe0g","pricing_plan_id":"cebpf4jnsgd1na2vs0mg"},{"bike_id":"d62cca3a-d7c7-4fe7-84f1-2d0237b15498","system_id":"levelo_inurba_marseille","lat":43.337444,"lon":5.374475,"is_reserved":false,"is_disabled":false,"rental_uris":{"android":"levelo://app?vid=d62cca3a-d7c7-4fe7-84f1-2d0237b15498","ios":"levelo://app?vid=d62cca3a-d7c7-4fe7-84f1-2d0237b15498"},"vehicle_type_id":"4","last_reported":1732785062,"current_range_meters":36400,"station_id":"","pricing_plan_id":"cebpf4jnsgd1na2vs0mg"},{"bike_id":"79cbdda0-2eff-47cd-9b37-93ae421cbcd8","system_id":"levelo_inurba_marseille","lat":43.30955,"lon":5.39039,"is_reserved":false,"is_disabled":false,"rental_uris":{"android":"levelo://app?vid=79cbdda0-2eff-47cd-9b37-93ae421cbcd8","ios":"levelo://app?vid=79cbdda0-2eff-47cd-9b37-93ae421cbcd8"},"vehicle_type_id":"4","last_reported":1732785062,"current_range_meters":34800,"station_id":"ce4bgup2rcd13ifvqco0","pricing_plan_id":"cebpf4jnsgd1na2vs0mg"},{"bike_id":"45ba5f73-ec93-4f07-a828-0cb625a1ae35","system_id":"levelo_inurba_marseille","lat":43.27072,"lon":5.42279,"is_reserved":false,"is_disabled":true,"rental_uris":{"android":"levelo://app?vid=45ba5f73-ec93-4f07-a828-0cb625a1ae35","ios":"levelo://app?vid=45ba5f73-ec93-4f07-a828-0cb625a1ae35"},"vehicle_type_id":"4","last_reported":1732785062,"current_range_meters":3200,"station_id":"ce4bhk92rcd13ifvqgb0","pricing_plan_id":"cebpf4jnsgd1na2vs0mg"},{"bike_id":"a266235d-36a2-424d-b11a-6faa3aaa9904","system_id":"levelo_inurba_marseille","lat":43.25938,"lon":5.40905,"is_reserved":false,"is_disabled":false,"rental_uris":{"android":"levelo://app?vid=a266235d-36a2-424d-b11a-6faa3aaa9904","ios":"levelo://app?vid=a266235d-36a2-424d-b11a-6faa3aaa9904"},"vehicle_type_id":"4","last_reported":1732785062,"current_range_meters":8400,"station_id":"ce4bhm92rcd13ifvqglg","pricing_plan_id":"cebpf4jnsgd1na2vs0mg"},{"bike_id":"3104eddf-b3f0-42b3-9000-bbc7edcefe7d","system_id":"levelo_inurba_marseille","lat":43.29519,"lon":5.37489,"is_reserved":false,"is_disabled":true,"rental_uris":{"android":"levelo://app?vid=3104eddf-b3f0-42b3-9000-bbc7edcefe7d","ios":"levelo://app?vid=3104eddf-b3f0-42b3-9000-bbc7edcefe7d"},"vehicle_type_id":"4","last_reported":1732785062,"current_range_meters":35600,"station_id":"ce4bgkp2rcd13ifvqbmg","pricing_plan_id":"cebpf4jnsgd1na2vs0mg"},{"bike_id":"bfa7c1a2-f54e-402a-a2db-4de6455ffddf","system_id":"levelo_inurba_marseille","lat":43.32484,"lon":5.36565,"is_reserved":false,"is_disabled":false,"rental_uris":{"android":"levelo://app?vid=bfa7c1a2-f54e-402a-a2db-4de6455ffddf","ios":"levelo://app?vid=bfa7c1a2-f54e-402a-a2db-4de6455ffddf"},"vehicle_type_id":"4","last_reported":1732785062,"current_range_meters":8800,"station_id":"ce4bhs12rcd13ifvqhvg","pricing_plan_id":"cebpf4jnsgd1na2vs0mg"},{"bike_id":"458063ea-7d34-45eb-b85d-2685b8b49ef7","system_id":"levelo_inurba_marseille","lat":43.32543,"lon":5.41441,"is_reserved":false,"is_disabled":false,"rental_uris":{"android":"levelo://app?vid=458063ea-7d34-45eb-b85d-2685b8b49ef7","ios":"levelo://app?vid=458063ea-7d34-45eb-b85d-2685b8b49ef7"},"vehicle_type_id":"4","last_reported":1732785062,"current_range_meters":37600,"station_id":"ce4bhq12rcd13ifvqhhg","pricing_plan_id":"cebpf4jnsgd1na2vs0mg"},{"bike_id":"9b767232-5c2b-49ff-b0f6-3592aae87a3d","system_id":"levelo_inurba_marseille","lat":43.23155,"lon":5.43706,"is_reserved":false,"is_disabled":false,"rental_uris":{"android":"levelo://app?vid=9b767232-5c2b-49ff-b0f6-3592aae87a3d","ios":"levelo://app?vid=9b767232-5c2b-49ff-b0f6-3592aae87a3d"},"vehicle_type_id":"4","last_reported":1732785062,"current_range_meters":9600,"station_id":"ce4bhmp2rcd13ifvqgog","pricing_plan_id":"cebpf4jnsgd1na2vs0mg"},{"bike_id":"dc87c326-700a-4406-b562-6e0a2f16a630","system_id":"levelo_inurba_marseille","lat":43.2984,"lon":5.36264,"is_reserved":false,"is_disabled":false,"rental_uris":{"android":"levelo://app?vid=dc87c326-700a-4406-b562-6e0a2f16a630","ios":"levelo://app?vid=dc87c326-700a-4406-b562-6e0a2f16a630"},"vehicle_type_id":"4","last_reported":1732785062,"current_range_meters":30800,"station_id":"ce4bgpp2rcd13ifvqc3g","pricing_plan_id":"cebpf4jnsgd1na2vs0mg"},{"bike_id":"bab0b36b-b563-45fb-a98d-1243a433d5b9","system_id":"levelo_inurba_marseille","lat":43.30436,"lon":5.39745,"is_reserved":false,"is_disabled":false,"rental_uris":{"android":"levelo://app?vid=bab0b36b-b563-45fb-a98d-1243a433d5b9","ios":"levelo://app?vid=bab0b36b-b563-45fb-a98d-1243a433d5b9"},"vehicle_type_id":"4","last_reported":1732785062,"current_range_meters":6000,"station_id":"ce4bh092rcd13ifvqd20","pricing_plan_id":"cebpf4jnsgd1na2vs0mg"},{"bike_id":"43746d86-8a13-4845-9faf-ae69b548d714","system_id":"levelo_inurba_marseille","lat":43.29459,"lon":5.37917,"is_reserved":false,"is_disabled":true,"rental_uris":{"android":"levelo://app?vid=43746d86-8a13-4845-9faf-ae69b548d714","ios":"levelo://app?vid=43746d86-8a13-4845-9faf-ae69b548d714"},"vehicle_type_id":"4","last_reported":1732785062,"current_range_meters":0,"station_id":"","pricing_plan_id":"cebpf4jnsgd1na2vs0mg"},{"bike_id":"cea419d5-9bbc-44b0-87d2-ea55fd4752be","system_id":"levelo_inurba_marseille","lat":43.23159,"lon":5.43705,"is_reserved":false,"is_disabled":false,"rental_uris":{"android":"levelo://app?vid=cea419d5-9bbc-44b0-87d2-ea55fd4752be","ios":"levelo://app?vid=cea419d5-9bbc-44b0-87d2-ea55fd4752be"},"vehicle_type_id":"4","last_reported":1732785062,"current_range_meters":9600,"station_id":"ce4bhmp2rcd13ifvqgog","pricing_plan_id":"cebpf4jnsgd1na2vs0mg"},{"bike_id":"493e69bc-180e-41ac-9372-c813b9214afc","system_id":"levelo_inurba_marseille","lat":43.337444,"lon":5.374475,"is_reserved":false,"is_disabled":true,"rental_uris":{"android":"levelo://app?vid=493e69bc-180e-41ac-9372-c813b9214afc","ios":"levelo://app?vid=493e69bc-180e-41ac-9372-c813b9214afc"},"vehicle_type_id":"4","last_reported":1732785062,"current_range_meters":34800,"station_id":"","pricing_plan_id":"cebpf4jnsgd1na2vs0mg"},{"bike_id":"df76b7bf-b879-4e94-9796-439ee296ef0a","system_id":"levelo_inurba_marseille","lat":43.22929,"lon":5.35377,"is_reserved":false,"is_disabled":false,"rental_uris":{"android":"levelo://app?vid=df76b7bf-b879-4e94-9796-439ee296ef0a","ios":"levelo://app?vid=df76b7bf-b879-4e94-9796-439ee296ef0a"},"vehicle_type_id":"4","last_reported":1732785062,"current_range_meters":32400,"station_id":"cpo3532slgdg3j2ikp40","pricing_plan_id":"cebpf4jnsgd1na2vs0mg"},{"bike_id":"206766ee-92c6-4c16-90ce-cc251e811fe8","system_id":"levelo_inurba_marseille","lat":43.24077,"lon":5.37757,"is_reserved":false,"is_disabled":false,"rental_uris":{"android":"levelo://app?vid=206766ee-92c6-4c16-90ce-cc251e811fe8","ios":"levelo://app?vid=206766ee-92c6-4c16-90ce-cc251e811fe8"},"vehicle_type_id":"4","last_reported":1732785062,"current_range_meters":15200,"station_id":"ce4bhnp2rcd13ifvqgvg","pricing_plan_id":"cebpf4jnsgd1na2vs0mg"},{"bike_id":"5085b489-bb45-4e07-afa9-83137ee0aad6","system_id":"levelo_inurba_marseille","lat":43.26944,"lon":5.40251,"is_reserved":false,"is_disabled":false,"rental_uris":{"android":"levelo://app?vid=5085b489-bb45-4e07-afa9-83137ee0aad6","ios":"levelo://app?vid=5085b489-bb45-4e07-afa9-83137ee0aad6"},"vehicle_type_id":"4","last_reported":1732785062,"current_range_meters":39200,"station_id":"cjm6bp8fraef2m0cb0m0","pricing_plan_id":"cebpf4jnsgd1na2vs0mg"},{"bike_id":"b7dcc646-cfc8-48df-80d3-593dce9d9038","system_id":"levelo_inurba_marseille","lat":43.32545,"lon":5.41438,"is_reserved":false,"is_disabled":false,"rental_uris":{"android":"levelo://app?vid=b7dcc646-cfc8-48df-80d3-593dce9d9038","ios":"levelo://app?vid=b7dcc646-cfc8-48df-80d3-593dce9d9038"},"vehicle_type_id":"4","last_reported":1732785062,"current_range_meters":38800,"station_id":"ce4bhq12rcd13ifvqhhg","pricing_plan_id":"cebpf4jnsgd1na2vs0mg"},{"bike_id":"309ab9d8-313c-4da4-9d3d-e2558b05b83d","system_id":"levelo_inurba_marseille","lat":43.28261,"lon":5.35063,"is_reserved":false,"is_disabled":false,"rental_uris":{"android":"levelo://app?vid=309ab9d8-313c-4da4-9d3d-e2558b05b83d","ios":"levelo://app?vid=309ab9d8-313c-4da4-9d3d-e2558b05b83d"},"vehicle_type_id":"4","last_reported":1732785062,"current_range_meters":28000,"station_id":"ce4bguh2rcd13ifvqcj0","pricing_plan_id":"cebpf4jnsgd1na2vs0mg"},{"bike_id":"ba889b58-1b95-4561-9e00-78ec9bbcbe22","system_id":"levelo_inurba_marseille","lat":43.25587,"lon":5.38229,"is_reserved":false,"is_disabled":false,"rental_uris":{"android":"levelo://app?vid=ba889b58-1b95-4561-9e00-78ec9bbcbe22","ios":"levelo://app?vid=ba889b58-1b95-4561-9e00-78ec9bbcbe22"},"vehicle_type_id":"4","last_reported":1732785062,"current_range_meters":37600,"station_id":"ce4bhih2rcd13ifvqfs0","pricing_plan_id":"cebpf4jnsgd1na2vs0mg"},{"bike_id":"c8fe8b4b-2b36-4cb3-8084-478c205937fa","system_id":"levelo_inurba_marseille","lat":43.2408,"lon":5.37759,"is_reserved":false,"is_disabled":false,"rental_uris":{"android":"levelo://app?vid=c8fe8b4b-2b36-4cb3-8084-478c205937fa","ios":"levelo://app?vid=c8fe8b4b-2b36-4cb3-8084-478c205937fa"},"vehicle_type_id":"4","last_reported":1732785062,"current_range_meters":21600,"station_id":"ce4bhnp2rcd13ifvqgvg","pricing_plan_id":"cebpf4jnsgd1na2vs0mg"},{"bike_id":"cb91acb7-2715-4f11-abe7-2be91a122cee","system_id":"levelo_inurba_marseille","lat":43.28703,"lon":5.39985,"is_reserved":false,"is_disabled":true,"rental_uris":{"android":"levelo://app?vid=cb91acb7-2715-4f11-abe7-2be91a122cee","ios":"levelo://app?vid=cb91acb7-2715-4f11-abe7-2be91a122cee"},"vehicle_type_id":"4","last_reported":1732785062,"current_range_meters":0,"station_id":"ce4bho92rcd13ifvqh3g","pricing_plan_id":"cebpf4jnsgd1na2vs0mg"},{"bike_id":"8e4fc7bb-fccf-4550-846f-6e004dcdff9a","system_id":"levelo_inurba_marseille","lat":43.31349,"lon":5.36719,"is_reserved":false,"is_disabled":true,"rental_uris":{"android":"levelo://app?vid=8e4fc7bb-fccf-4550-846f-6e004dcdff9a","ios":"levelo://app?vid=8e4fc7bb-fccf-4550-846f-6e004dcdff9a"},"vehicle_type_id":"4","last_reported":1732785062,"current_range_meters":400,"station_id":"ce4bgr92rcd13ifvqc6g","pricing_plan_id":"cebpf4jnsgd1na2vs0mg"},{"bike_id":"c7c8eb9f-a72f-46cc-a7d7-36fb49eb8a83","system_id":"levelo_inurba_marseille","lat":43.337444,"lon":5.374475,"is_reserved":false,"is_disabled":true,"rental_uris":{"android":"levelo://app?vid=c7c8eb9f-a72f-46cc-a7d7-36fb49eb8a83","ios":"levelo://app?vid=c7c8eb9f-a72f-46cc-a7d7-36fb49eb8a83"},"vehicle_type_id":"4","last_reported":1732785062,"current_range_meters":0,"station_id":"","pricing_plan_id":"cebpf4jnsgd1na2vs0mg"},{"bike_id":"9f0a5a4f-fe03-4ba6-b511-71992ad31d14","system_id":"levelo_inurba_marseille","lat":43.337444,"lon":5.374475,"is_reserved":false,"is_disabled":false,"rental_uris":{"android":"levelo://app?vid=9f0a5a4f-fe03-4ba6-b511-71992ad31d14","ios":"levelo://app?vid=9f0a5a4f-fe03-4ba6-b511-71992ad31d14"},"vehicle_type_id":"4","last_reported":1732785062,"current_range_meters":26800,"station_id":"ce4bh0p2rcd13ifvqd70","pricing_plan_id":"cebpf4jnsgd1na2vs0mg"},{"bike_id":"3017cc76-1544-4d39-8ce1-215dc472ffaa","system_id":"levelo_inurba_marseille","lat":43.28711,"lon":5.36065,"is_reserved":false,"is_disabled":false,"rental_uris":{"android":"levelo://app?vid=3017cc76-1544-4d39-8ce1-215dc472ffaa","ios":"levelo://app?vid=3017cc76-1544-4d39-8ce1-215dc472ffaa"},"vehicle_type_id":"4","last_reported":1732785062,"current_range_meters":4400,"station_id":"cki0cbj6b192h4jlfktg","pricing_plan_id":"cebpf4jnsgd1na2vs0mg"},{"bike_id":"f63adcdc-7762-465d-90eb-d1a63676c13e","system_id":"levelo_inurba_marseille","lat":43.24074,"lon":5.37757,"is_reserved":false,"is_disabled":false,"rental_uris":{"android":"levelo://app?vid=f63adcdc-7762-465d-90eb-d1a63676c13e","ios":"levelo://app?vid=f63adcdc-7762-465d-90eb-d1a63676c13e"},"vehicle_type_id":"4","last_reported":1732785062,"current_range_meters":36400,"station_id":"ce4bhnp2rcd13ifvqgvg","pricing_plan_id":"cebpf4jnsgd1na2vs0mg"},{"bike_id":"fc4d15f5-6256-45a3-90d6-77bb4c676955","system_id":"levelo_inurba_marseille","lat":43.296284,"lon":5.377877,"is_reserved":false,"is_disabled":true,"rental_uris":{"android":"levelo://app?vid=fc4d15f5-6256-45a3-90d6-77bb4c676955","ios":"levelo://app?vid=fc4d15f5-6256-45a3-90d6-77bb4c676955"},"vehicle_type_id":"4","last_reported":1732785062,"current_range_meters":34000,"station_id":"","pricing_plan_id":"cebpf4jnsgd1na2vs0mg"},{"bike_id":"8a6d2d87-b63e-4f2d-a6bb-a798f0427308","system_id":"levelo_inurba_marseille","lat":43.27816,"lon":5.40714,"is_reserved":false,"is_disabled":true,"rental_uris":{"android":"levelo://app?vid=8a6d2d87-b63e-4f2d-a6bb-a798f0427308","ios":"levelo://app?vid=8a6d2d87-b63e-4f2d-a6bb-a798f0427308"},"vehicle_type_id":"4","last_reported":1732785062,"current_range_meters":38800,"station_id":"ce4bhnh2rcd13ifvqgtg","pricing_plan_id":"cebpf4jnsgd1na2vs0mg"},{"bike_id":"c88f8730-1176-4717-97e2-17c27b15274f","system_id":"levelo_inurba_marseille","lat":43.23195,"lon":5.35545,"is_reserved":false,"is_disabled":true,"rental_uris":{"android":"levelo://app?vid=c88f8730-1176-4717-97e2-17c27b15274f","ios":"levelo://app?vid=c88f8730-1176-4717-97e2-17c27b15274f"},"vehicle_type_id":"4","last_reported":1732785062,"current_range_meters":0,"station_id":"ce4bhu92rcd13ifvqi70","pricing_plan_id":"cebpf4jnsgd1na2vs0mg"},{"bike_id":"4174061c-7641-41f1-82b1-107d25ceabec","system_id":"levelo_inurba_marseille","lat":43.30543,"lon":5.38428,"is_reserved":false,"is_disabled":false,"rental_uris":{"android":"levelo://app?vid=4174061c-7641-41f1-82b1-107d25ceabec","ios":"levelo://app?vid=4174061c-7641-41f1-82b1-107d25ceabec"},"vehicle_type_id":"4","last_reported":1732785062,"current_range_meters":12800,"station_id":"ce4bgg92rcd13ifvqb30","pricing_plan_id":"cebpf4jnsgd1na2vs0mg"},{"bike_id":"d1f94dd4-9601-4826-9123-429c805265c9","system_id":"levelo_inurba_marseille","lat":43.32291,"lon":5.38272,"is_reserved":false,"is_disabled":false,"rental_uris":{"android":"levelo://app?vid=d1f94dd4-9601-4826-9123-429c805265c9","ios":"levelo://app?vid=d1f94dd4-9601-4826-9123-429c805265c9"},"vehicle_type_id":"4","last_reported":1732785062,"current_range_meters":22400,"station_id":"ce4bhr12rcd13ifvqhqg","pricing_plan_id":"cebpf4jnsgd1na2vs0mg"},{"bike_id":"b6ed1910-de57-401d-8b1d-af35755f9004","system_id":"levelo_inurba_marseille","lat":43.27955,"lon":5.41053,"is_reserved":false,"is_disabled":true,"rental_uris":{"android":"levelo://app?vid=b6ed1910-de57-401d-8b1d-af35755f9004","ios":"levelo://app?vid=b6ed1910-de57-401d-8b1d-af35755f9004"},"vehicle_type_id":"4","last_reported":1732785062,"current_range_meters":30400,"station_id":"ce4bhnp2rcd13ifvqh0g","pricing_plan_id":"cebpf4jnsgd1na2vs0mg"},{"bike_id":"32a151d9-7005-40eb-a8f7-814ea7e149e3","system_id":"levelo_inurba_marseille","lat":43.30529,"lon":5.365434,"is_reserved":false,"is_disabled":false,"rental_uris":{"android":"levelo://app?vid=32a151d9-7005-40eb-a8f7-814ea7e149e3","ios":"levelo://app?vid=32a151d9-7005-40eb-a8f7-814ea7e149e3"},"vehicle_type_id":"4","last_reported":1732785062,"current_range_meters":38800,"station_id":"ce4bgs12rcd13ifvqcag","pricing_plan_id":"cebpf4jnsgd1na2vs0mg"},{"bike_id":"248c1499-eeac-4495-b648-2f5a2c31833a","system_id":"levelo_inurba_marseille","lat":43.24075,"lon":5.37759,"is_reserved":false,"is_disabled":false,"rental_uris":{"android":"levelo://app?vid=248c1499-eeac-4495-b648-2f5a2c31833a","ios":"levelo://app?vid=248c1499-eeac-4495-b648-2f5a2c31833a"},"vehicle_type_id":"4","last_reported":1732785062,"current_range_meters":31200,"station_id":"ce4bhnp2rcd13ifvqgvg","pricing_plan_id":"cebpf4jnsgd1na2vs0mg"},{"bike_id":"608f97ca-a750-4846-8c96-8d7b070ecbbe","system_id":"levelo_inurba_marseille","lat":43.24072,"lon":5.37765,"is_reserved":false,"is_disabled":false,"rental_uris":{"android":"levelo://app?vid=608f97ca-a750-4846-8c96-8d7b070ecbbe","ios":"levelo://app?vid=608f97ca-a750-4846-8c96-8d7b070ecbbe"},"vehicle_type_id":"4","last_reported":1732785062,"current_range_meters":30800,"station_id":"ce4bhnp2rcd13ifvqgvg","pricing_plan_id":"cebpf4jnsgd1na2vs0mg"},{"bike_id":"3d27800c-ba66-4de2-aa12-1100555b8cf4","system_id":"levelo_inurba_marseille","lat":43.23153,"lon":5.43711,"is_reserved":false,"is_disabled":false,"rental_uris":{"android":"levelo://app?vid=3d27800c-ba66-4de2-aa12-1100555b8cf4","ios":"levelo://app?vid=3d27800c-ba66-4de2-aa12-1100555b8cf4"},"vehicle_type_id":"4","last_reported":1732785062,"current_range_meters":38800,"station_id":"ce4bhmp2rcd13ifvqgog","pricing_plan_id":"cebpf4jnsgd1na2vs0mg"},{"bike_id":"50ee6af1-c149-4df1-bad6-4994700e1e87","system_id":"levelo_inurba_marseille","lat":43.29715,"lon":5.37695,"is_reserved":false,"is_disabled":false,"rental_uris":{"android":"levelo://app?vid=50ee6af1-c149-4df1-bad6-4994700e1e87","ios":"levelo://app?vid=50ee6af1-c149-4df1-bad6-4994700e1e87"},"vehicle_type_id":"4","last_reported":1732785062,"current_range_meters":6400,"station_id":"ce4bgkh2rcd13ifvqbl0","pricing_plan_id":"cebpf4jnsgd1na2vs0mg"},{"bike_id":"641cb894-ff61-44dc-8bbd-b0c91b8a1863","system_id":"levelo_inurba_marseille","lat":43.291,"lon":5.38153,"is_reserved":false,"is_disabled":false,"rental_uris":{"android":"levelo://app?vid=641cb894-ff61-44dc-8bbd-b0c91b8a1863","ios":"levelo://app?vid=641cb894-ff61-44dc-8bbd-b0c91b8a1863"},"vehicle_type_id":"4","last_reported":1732785062,"current_range_meters":29600,"station_id":"ce4bh512rcd13ifvqe2g","pricing_plan_id":"cebpf4jnsgd1na2vs0mg"},{"bike_id":"e54f0174-c7bd-4711-b39d-83487d0a1cd5","system_id":"levelo_inurba_marseille","lat":43.29561,"lon":5.42286,"is_reserved":false,"is_disabled":false,"rental_uris":{"android":"levelo://app?vid=e54f0174-c7bd-4711-b39d-83487d0a1cd5","ios":"levelo://app?vid=e54f0174-c7bd-4711-b39d-83487d0a1cd5"},"vehicle_type_id":"4","last_reported":1732785062,"current_range_meters":38800,"station_id":"ce4bhph2rcd13ifvqhdg","pricing_plan_id":"cebpf4jnsgd1na2vs0mg"},{"bike_id":"28ea9cfc-0e09-4f9a-b8b6-0fd8ca6d9daf","system_id":"levelo_inurba_marseille","lat":43.27212,"lon":5.39177,"is_reserved":false,"is_disabled":false,"rental_uris":{"android":"levelo://app?vid=28ea9cfc-0e09-4f9a-b8b6-0fd8ca6d9daf","ios":"levelo://app?vid=28ea9cfc-0e09-4f9a-b8b6-0fd8ca6d9daf"},"vehicle_type_id":"4","last_reported":1732785062,"current_range_meters":38800,"station_id":"ce4bhhp2rcd13ifvqfm0","pricing_plan_id":"cebpf4jnsgd1na2vs0mg"},{"bike_id":"fd3bc6ec-4d65-4b8c-9c39-97b686e3b390","system_id":"levelo_inurba_marseille","lat":43.32543,"lon":5.4144,"is_reserved":false,"is_disabled":false,"rental_uris":{"android":"levelo://app?vid=fd3bc6ec-4d65-4b8c-9c39-97b686e3b390","ios":"levelo://app?vid=fd3bc6ec-4d65-4b8c-9c39-97b686e3b390"},"vehicle_type_id":"4","last_reported":1732785062,"current_range_meters":24800,"station_id":"ce4bhq12rcd13ifvqhhg","pricing_plan_id":"cebpf4jnsgd1na2vs0mg"},{"bike_id":"97fe0f38-53f3-416b-a627-a69988dfdc04","system_id":"levelo_inurba_marseille","lat":43.24078,"lon":5.3776,"is_reserved":false,"is_disabled":false,"rental_uris":{"android":"levelo://app?vid=97fe0f38-53f3-416b-a627-a69988dfdc04","ios":"levelo://app?vid=97fe0f38-53f3-416b-a627-a69988dfdc04"},"vehicle_type_id":"4","last_reported":1732785062,"current_range_meters":4400,"station_id":"ce4bhnp2rcd13ifvqgvg","pricing_plan_id":"cebpf4jnsgd1na2vs0mg"},{"bike_id":"9c9010cc-7085-44d2-a1f8-67d49b291235","system_id":"levelo_inurba_marseille","lat":43.26946,"lon":5.40248,"is_reserved":false,"is_disabled":false,"rental_uris":{"android":"levelo://app?vid=9c9010cc-7085-44d2-a1f8-67d49b291235","ios":"levelo://app?vid=9c9010cc-7085-44d2-a1f8-67d49b291235"},"vehicle_type_id":"4","last_reported":1732785062,"current_range_meters":38400,"station_id":"cjm6bp8fraef2m0cb0m0","pricing_plan_id":"cebpf4jnsgd1na2vs0mg"},{"bike_id":"09a0fc75-c54b-46af-9b53-51d2fde654ee","system_id":"levelo_inurba_marseille","lat":43.279685,"lon":5.410491,"is_reserved":false,"is_disabled":false,"rental_uris":{"android":"levelo://app?vid=09a0fc75-c54b-46af-9b53-51d2fde654ee","ios":"levelo://app?vid=09a0fc75-c54b-46af-9b53-51d2fde654ee"},"vehicle_type_id":"4","last_reported":1732785062,"current_range_meters":26800,"station_id":"ce4bhnp2rcd13ifvqh0g","pricing_plan_id":"cebpf4jnsgd1na2vs0mg"},{"bike_id":"6484ce8a-2c39-4311-bba5-71a2c46d18a2","system_id":"levelo_inurba_marseille","lat":43.31724,"lon":5.4239,"is_reserved":false,"is_disabled":false,"rental_uris":{"android":"levelo://app?vid=6484ce8a-2c39-4311-bba5-71a2c46d18a2","ios":"levelo://app?vid=6484ce8a-2c39-4311-bba5-71a2c46d18a2"},"vehicle_type_id":"4","last_reported":1732785062,"current_range_meters":29600,"station_id":"ce4bhp92rcd13ifvqhbg","pricing_plan_id":"cebpf4jnsgd1na2vs0mg"},{"bike_id":"0e45148f-1a7e-42d3-9cc8-08bc63689057","system_id":"levelo_inurba_marseille","lat":43.23197,"lon":5.35557,"is_reserved":false,"is_disabled":false,"rental_uris":{"android":"levelo://app?vid=0e45148f-1a7e-42d3-9cc8-08bc63689057","ios":"levelo://app?vid=0e45148f-1a7e-42d3-9cc8-08bc63689057"},"vehicle_type_id":"4","last_reported":1732785062,"current_range_meters":8800,"station_id":"ce4bhu92rcd13ifvqi70","pricing_plan_id":"cebpf4jnsgd1na2vs0mg"},{"bike_id":"5aee8f34-f29b-4446-a958-d36daab9b202","system_id":"levelo_inurba_marseille","lat":43.23153,"lon":5.43718,"is_reserved":false,"is_disabled":false,"rental_uris":{"android":"levelo://app?vid=5aee8f34-f29b-4446-a958-d36daab9b202","ios":"levelo://app?vid=5aee8f34-f29b-4446-a958-d36daab9b202"},"vehicle_type_id":"4","last_reported":1732785062,"current_range_meters":3600,"station_id":"ce4bhmp2rcd13ifvqgog","pricing_plan_id":"cebpf4jnsgd1na2vs0mg"},{"bike_id":"a4c997b5-792e-459f-b9ce-0bbb5ca97061","system_id":"levelo_inurba_marseille","lat":43.29784,"lon":5.37094,"is_reserved":false,"is_disabled":false,"rental_uris":{"android":"levelo://app?vid=a4c997b5-792e-459f-b9ce-0bbb5ca97061","ios":"levelo://app?vid=a4c997b5-792e-459f-b9ce-0bbb5ca97061"},"vehicle_type_id":"4","last_reported":1732785062,"current_range_meters":36400,"station_id":"ce4bgop2rcd13ifvqc1g","pricing_plan_id":"cebpf4jnsgd1na2vs0mg"},{"bike_id":"e4a3ee64-8c9f-47fa-ba19-5213f5308e81","system_id":"levelo_inurba_marseille","lat":43.27212,"lon":5.39191,"is_reserved":false,"is_disabled":true,"rental_uris":{"android":"levelo://app?vid=e4a3ee64-8c9f-47fa-ba19-5213f5308e81","ios":"levelo://app?vid=e4a3ee64-8c9f-47fa-ba19-5213f5308e81"},"vehicle_type_id":"4","last_reported":1732785062,"current_range_meters":400,"station_id":"ce4bhhp2rcd13ifvqfm0","pricing_plan_id":"cebpf4jnsgd1na2vs0mg"},{"bike_id":"116209b0-cbf9-4a36-88c6-72972c1b53d9","system_id":"levelo_inurba_marseille","lat":43.26789,"lon":5.3941,"is_reserved":false,"is_disabled":false,"rental_uris":{"android":"levelo://app?vid=116209b0-cbf9-4a36-88c6-72972c1b53d9","ios":"levelo://app?vid=116209b0-cbf9-4a36-88c6-72972c1b53d9"},"vehicle_type_id":"4","last_reported":1732785062,"current_range_meters":17200,"station_id":"ce4bhh12rcd13ifvqfg0","pricing_plan_id":"cebpf4jnsgd1na2vs0mg"},{"bike_id":"0963a0a7-6b59-4f21-8c23-d2110dec0c86","system_id":"levelo_inurba_marseille","lat":43.3361,"lon":5.41029,"is_reserved":false,"is_disabled":false,"rental_uris":{"android":"levelo://app?vid=0963a0a7-6b59-4f21-8c23-d2110dec0c86","ios":"levelo://app?vid=0963a0a7-6b59-4f21-8c23-d2110dec0c86"},"vehicle_type_id":"4","last_reported":1732785062,"current_range_meters":30400,"station_id":"ce4bhqh2rcd13ifvqhmg","pricing_plan_id":"cebpf4jnsgd1na2vs0mg"},{"bike_id":"1a3dee30-d90a-46f4-828a-7bf72be44a66","system_id":"levelo_inurba_marseille","lat":43.23154,"lon":5.43703,"is_reserved":false,"is_disabled":false,"rental_uris":{"android":"levelo://app?vid=1a3dee30-d90a-46f4-828a-7bf72be44a66","ios":"levelo://app?vid=1a3dee30-d90a-46f4-828a-7bf72be44a66"},"vehicle_type_id":"4","last_reported":1732785062,"current_range_meters":9200,"station_id":"ce4bhmp2rcd13ifvqgog","pricing_plan_id":"cebpf4jnsgd1na2vs0mg"},{"bike_id":"244a3d3e-43a9-4660-8abc-074a863dee2b","system_id":"levelo_inurba_marseille","lat":43.24547,"lon":5.39522,"is_reserved":false,"is_disabled":false,"rental_uris":{"android":"levelo://app?vid=244a3d3e-43a9-4660-8abc-074a863dee2b","ios":"levelo://app?vid=244a3d3e-43a9-4660-8abc-074a863dee2b"},"vehicle_type_id":"4","last_reported":1732785062,"current_range_meters":38000,"station_id":"ce4bhlp2rcd13ifvqgjg","pricing_plan_id":"cebpf4jnsgd1na2vs0mg"},{"bike_id":"2635c99b-943e-4c3b-ac83-65ee5069cb25","system_id":"levelo_inurba_marseille","lat":43.30462,"lon":5.37899,"is_reserved":false,"is_disabled":false,"rental_uris":{"android":"levelo://app?vid=2635c99b-943e-4c3b-ac83-65ee5069cb25","ios":"levelo://app?vid=2635c99b-943e-4c3b-ac83-65ee5069cb25"},"vehicle_type_id":"4","last_reported":1732785062,"current_range_meters":33600,"station_id":"ce4bgup2rcd13ifvqcn0","pricing_plan_id":"cebpf4jnsgd1na2vs0mg"},{"bike_id":"6f8f7372-ecd4-442e-95dd-7b099b7e1a39","system_id":"levelo_inurba_marseille","lat":43.29898,"lon":5.43671,"is_reserved":false,"is_disabled":false,"rental_uris":{"android":"levelo://app?vid=6f8f7372-ecd4-442e-95dd-7b099b7e1a39","ios":"levelo://app?vid=6f8f7372-ecd4-442e-95dd-7b099b7e1a39"},"vehicle_type_id":"4","last_reported":1732785062,"current_range_meters":24000,"station_id":"ce4bhpp2rcd13ifvqhfg","pricing_plan_id":"cebpf4jnsgd1na2vs0mg"},{"bike_id":"fcaafa08-ec11-4972-aa77-b556f1c130fd","system_id":"levelo_inurba_marseille","lat":43.275,"lon":5.42443,"is_reserved":false,"is_disabled":false,"rental_uris":{"android":"levelo://app?vid=fcaafa08-ec11-4972-aa77-b556f1c130fd","ios":"levelo://app?vid=fcaafa08-ec11-4972-aa77-b556f1c130fd"},"vehicle_type_id":"4","last_reported":1732785062,"current_range_meters":22400,"station_id":"ce4bhn92rcd13ifvqgrg","pricing_plan_id":"cebpf4jnsgd1na2vs0mg"},{"bike_id":"7db9c639-3177-4805-92ec-95540cb7e1d6","system_id":"levelo_inurba_marseille","lat":43.30538,"lon":5.36701,"is_reserved":false,"is_disabled":false,"rental_uris":{"android":"levelo://app?vid=7db9c639-3177-4805-92ec-95540cb7e1d6","ios":"levelo://app?vid=7db9c639-3177-4805-92ec-95540cb7e1d6"},"vehicle_type_id":"4","last_reported":1732785062,"current_range_meters":32000,"station_id":"ce4bgrp2rcd13ifvqc9g","pricing_plan_id":"cebpf4jnsgd1na2vs0mg"},