{"last_updated":1758176120,"ttl":60,"version":"2.2","data":{"bikes":[{"bike_id":"ad262146-4f29-497b-82d9-62cc229b7221","system_id":"levelo_inurba_marseille","lat":43.33741,"lon":5.37448,"is_reserved":false,"is_disabled":false,"rental_uris":{"android":"levelo://app?vid=ad262146-4f29-497b-82d9-62cc229b7221","ios":"levelo://app?vid=ad262146-4f29-497b-82d9-62cc229b7221"},"vehicle_type_id":"4","last_reported":1758176120,"current_range_meters":2800,"station_id":"","pricing_plan_id":"cebpf4jnsgd1na2vs0mg"},{"bike_id":"9c54e58a-aa51-41e1-829e-40e509ac2772","system_id":"levelo_inurba_marseille","lat":43.284197,"lon":5.37501,"is_reserved":false,"is_disabled":false,"rental_uris":{"android":"levelo://app?vid=9c54e58a-aa51-41e1-829e-40e509ac2772","ios":"levelo://app?vid=9c54e58a-aa51-41e1-829e-40e509ac2772"},"vehicle_type_id":"4","last_reported":1758176120,"current_range_meters":3200,"station_id":"ce4bh412rcd13ifvqds0","pricing_plan_id":"cebpf4jnsgd1na2vs0mg"},{"bike_id":"13d4eea8-9844-42fe-8267-eaf155e127a2","system_id":"levelo_inurba_marseille","lat":43.2999,"lon":5.37174,"is_reserved":false,"is_disabled":true,"rental_uris":{"android":"levelo://app?vid=13d4eea8-9844-42fe-8267-eaf155e127a2","ios":"levelo://app?vid=13d4eea8-9844-42fe-8267-eaf155e127a2"},"vehicle_type_id":"4","last_reported":1758176120,"current_range_meters":3200,"station_id":"","pricing_plan_id":"cebpf4jnsgd1na2vs0mg"},{"bike_id":"a285c5ca-8031-4794-8def-0f1702201082","system_id":"levelo_inurba_marseille","lat":43.29895,"lon":5.39768,"is_reserved":false,"is_disabled":false,"rental_uris":{"android":"levelo://app?vid=a285c5ca-8031-4794-8def-0f1702201082","ios":"levelo://app?vid=a285c5ca-8031-4794-8def-0f1702201082"},"vehicle_type_id":"4","last_reported":1758176120,"current_range_meters":3600,"station_id":"ce4bh0h2rcd13ifvqd50","pricing_plan_id":"cebpf4jnsgd1na2vs0mg"},{"bike_id":"e1c987cc-6154-43d6-99c4-91e79701af84","system_id":"levelo_inurba_marseille","lat":43.29899,"lon":5.43671,"is_reserved":false,"is_disabled":false,"rental_uris":{"android":"levelo://app?vid=e1c987cc-6154-43d6-99c4-91e79701af84","ios":"levelo://app?vid=e1c987cc-6154-43d6-99c4-91e79701af84"},"vehicle_type_id":"4","last_reported":1758176120,"current_range_meters":3600,"station_id":"ce4bhpp2rcd13ifvqhfg","pricing_plan_id":"cebpf4jnsgd1na2vs0mg"},{"bike_id":"9ea09a38-4a88-49a1-9101-a12e8e8d49e3","system_id":"levelo_inurba_marseille","lat":43.27512,"lon":5.3956,"is_reserved":false,"is_disabled":false,"rental_uris":{"android":"levelo://app?vid=9ea09a38-4a88-49a1-9101-a12e8e8d49e3","ios":"levelo://app?vid=9ea09a38-4a88-49a1-9101-a12e8e8d49e3"},"vehicle_type_id":"4","last_reported":1758176120,"current_range_meters":3600,"station_id":"ce4bhdp2rcd13ifvqf20","pricing_plan_id":"cebpf4jnsgd1na2vs0mg"},{"bike_id":"ab664788-9f58-42d6-8252-34373be3e421","system_id":"levelo_inurba_marseille","lat":43.286442,"lon":5.385443,"is_reserved":false,"is_disabled":false,"rental_uris":{"android":"levelo://app?vid=ab664788-9f58-42d6-8252-34373be3e421","ios":"levelo://app?vid=ab664788-9f58-42d6-8252-34373be3e421"},"vehicle_type_id":"4","last_reported":1758176120,"current_range_meters":3600,"station_id":"ce4bhg12rcd13ifvqf80","pricing_plan_id":"cebpf4jnsgd1na2vs0mg"},{"bike_id":"32ca9d94-8781-4edc-b80f-cdc9cf1fb9fc","system_id":"levelo_inurba_marseille","lat":43.21748,"lon":5.34599,"is_reserved":false,"is_disabled":true,"rental_uris":{"android":"levelo://app?vid=32ca9d94-8781-4edc-b80f-cdc9cf1fb9fc","ios":"levelo://app?vid=32ca9d94-8781-4edc-b80f-cdc9cf1fb9fc"},"vehicle_type_id":"4","last_reported":1758176120,"current_range_meters":3600,"station_id":"st_cvj6r9ubvosntc0bgbag","pricing_plan_id":"cebpf4jnsgd1na2vs0mg"},{"bike_id":"b790f622-4458-4b6b-bd5d-1641ca6a02ca","system_id":"levelo_inurba_marseille","lat":43.28344,"lon":5.38108,"is_reserved":false,"is_disabled":false,"rental_uris":{"android":"levelo://app?vid=b790f622-4458-4b6b-bd5d-1641ca6a02ca","ios":"levelo://app?vid=b790f622-4458-4b6b-bd5d-1641ca6a02ca"},"vehicle_type_id":"4","last_reported":1758176120,"current_range_meters":4000,"station_id":"ce4bh412rcd13ifvqdr0","pricing_plan_id":"cebpf4jnsgd1na2vs0mg"},{"bike_id":"f895eb90-d970-4448-b096-5a166a903f92","system_id":"levelo_inurba_marseille","lat":43.26558,"lon":5.373,"is_reserved":false,"is_disabled":true,"rental_uris":{"android":"levelo://app?vid=f895eb90-d970-4448-b096-5a166a903f92","ios":"levelo://app?vid=f895eb90-d970-4448-b096-5a166a903f92"},"vehicle_type_id":"4","last_reported":1758176120,"current_range_meters":4800,"station_id":"ce4bhg12rcd13ifvqf70","pricing_plan_id":"cebpf4jnsgd1na2vs0mg"},{"bike_id":"1361e432-c5e6-4287-8a47-2a4d6aa4f251","system_id":"levelo_inurba_marseille","lat":43.27218,"lon":5.39185,"is_reserved":false,"is_disabled":false,"rental_uris":{"android":"levelo://app?vid=1361e432-c5e6-4287-8a47-2a4d6aa4f251","ios":"levelo://app?vid=1361e432-c5e6-4287-8a47-2a4d6aa4f251"},"vehicle_type_id":"4","last_reported":1758176120,"current_range_meters":6000,"station_id":"ce4bhhp2rcd13ifvqfm0","pricing_plan_id":"cebpf4jnsgd1na2vs0mg"},{"bike_id":"5f3fa102-e811-4afe-8be6-9792148ce4ba","system_id":"levelo_inurba_marseille","lat":43.30151,"lon":5.37417,"is_reserved":false,"is_disabled":false,"rental_uris":{"android":"levelo://app?vid=5f3fa102-e811-4afe-8be6-9792148ce4ba","ios":"levelo://app?vid=5f3fa102-e811-4afe-8be6-9792148ce4ba"},"vehicle_type_id":"4","last_reported":1758176120,"current_range_meters":6000,"station_id":"","pricing_plan_id":"cebpf4jnsgd1na2vs0mg"},{"bike_id":"3b26aa0d-3679-4b4c-9b55-1096f6d08a9d","system_id":"levelo_inurba_marseille","lat":43.3131,"lon":5.39409,"is_reserved":false,"is_disabled":false,"rental_uris":{"android":"levelo://app?vid=3b26aa0d-3679-4b4c-9b55-1096f6d08a9d","ios":"levelo://app?vid=3b26aa0d-3679-4b4c-9b55-1096f6d08a9d"},"vehicle_type_id":"4","last_reported":1758176120,"current_range_meters":6000,"station_id":"","pricing_plan_id":"cebpf4jnsgd1na2vs0mg"},{"bike_id":"34edca27-3955-406d-804e-05f7b9108640","system_id":"levelo_inurba_marseille","lat":43.29611,"lon":5.38099,"is_reserved":false,"is_disabled":false,"rental_uris":{"android":"levelo://app?vid=34edca27-3955-406d-804e-05f7b9108640","ios":"levelo://app?vid=34edca27-3955-406d-804e-05f7b9108640"},"vehicle_type_id":"4","last_reported":1758176120,"current_range_meters":6000,"station_id":"","pricing_plan_id":"cebpf4jnsgd1na2vs0mg"},{"bike_id":"e8a8554b-98c7-4474-9add-fa0039aaa974","system_id":"levelo_inurba_marseille","lat":43.28159,"lon":5.42656,"is_reserved":false,"is_disabled":false,"rental_uris":{"android":"levelo://app?vid=e8a8554b-98c7-4474-9add-fa0039aaa974","ios":"levelo://app?vid=e8a8554b-98c7-4474-9add-fa0039aaa974"},"vehicle_type_id":"4","last_reported":1758176120,"current_range_meters":6000,"station_id":"ce4bhnh2rcd13ifvqgug","pricing_plan_id":"cebpf4jnsgd1na2vs0mg"},{"bike_id":"0ede21be-37d9-4495-b672-80274a6292be","system_id":"levelo_inurba_marseille","lat":43.350596,"lon":5.341004,"is_reserved":false,"is_disabled":false,"rental_uris":{"android":"levelo://app?vid=0ede21be-37d9-4495-b672-80274a6292be","ios":"levelo://app?vid=0ede21be-37d9-4495-b672-80274a6292be"},"vehicle_type_id":"4","last_reported":1758176120,"current_range_meters":6400,"station_id":"","pricing_plan_id":"cebpf4jnsgd1na2vs0mg"},{"bike_id":"c10c4004-48ca-4dee-933f-44f598a79430","system_id":"levelo_inurba_marseille","lat":43.29607,"lon":5.38103,"is_reserved":false,"is_disabled":false,"rental_uris":{"android":"levelo://app?vid=c10c4004-48ca-4dee-933f-44f598a79430","ios":"levelo://app?vid=c10c4004-48ca-4dee-933f-44f598a79430"},"vehicle_type_id":"4","last_reported":1758176120,"current_range_meters":6800,"station_id":"","pricing_plan_id":"cebpf4jnsgd1na2vs0mg"},{"bike_id":"c954df22-ee4c-466d-8659-8b2793037813","system_id":"levelo_inurba_marseille","lat":43.3149,"lon":5.37309,"is_reserved":false,"is_disabled":false,"rental_uris":{"android":"levelo://app?vid=c954df22-ee4c-466d-8659-8b2793037813","ios":"levelo://app?vid=c954df22-ee4c-466d-8659-8b2793037813"},"vehicle_type_id":"4","last_reported":1758176120,"current_range_meters":6800,"station_id":"ce4bgt12rcd13ifvqcd0","pricing_plan_id":"cebpf4jnsgd1na2vs0mg"},{"bike_id":"775af279-8ac9-4585-9121-809be9b13265","system_id":"levelo_inurba_marseille","lat":43.33757,"lon":5.37426,"is_reserved":false,"is_disabled":false,"rental_uris":{"android":"levelo://app?vid=775af279-8ac9-4585-9121-809be9b13265","ios":"levelo://app?vid=775af279-8ac9-4585-9121-809be9b13265"},"vehicle_type_id":"4","last_reported":1758176120,"current_range_meters":6800,"station_id":"","pricing_plan_id":"cebpf4jnsgd1na2vs0mg"},{"bike_id":"50df05c5-9e78-4a32-8c15-ea1e068d3278","system_id":"levelo_inurba_marseille","lat":43.26952,"lon":5.38629,"is_reserved":false,"is_disabled":false,"rental_uris":{"android":"levelo://app?vid=50df05c5-9e78-4a32-8c15-ea1e068d3278","ios":"levelo://app?vid=50df05c5-9e78-4a32-8c15-ea1e068d3278"},"vehicle_type_id":"4","last_reported":1758176120,"current_range_meters":6800,"station_id":"ce4bhh92rcd13ifvqfh0","pricing_plan_id":"cebpf4jnsgd1na2vs0mg"},{"bike_id":"003515e8-8117-44bb-979d-5f47e8d50fda","system_id":"levelo_inurba_marseille","lat":43.30644,"lon":5.3757,"is_reserved":false,"is_disabled":false,"rental_uris":{"android":"levelo://app?vid=003515e8-8117-44bb-979d-5f47e8d50fda","ios":"levelo://app?vid=003515e8-8117-44bb-979d-5f47e8d50fda"},"vehicle_type_id":"4","last_reported":1758176120,"current_range_meters":7200,"station_id":"","pricing_plan_id":"cebpf4jnsgd1na2vs0mg"},{"bike_id":"61a2a4e3-c6f4-47fe-b890-c44aeeea8a23","system_id":"levelo_inurba_marseille","lat":43.26223,"lon":5.40451,"is_reserved":false,"is_disabled":false,"rental_uris":{"android":"levelo://app?vid=61a2a4e3-c6f4-47fe-b890-c44aeeea8a23","ios":"levelo://app?vid=61a2a4e3-c6f4-47fe-b890-c44aeeea8a23"},"vehicle_type_id":"4","last_reported":1758176120,"current_range_meters":7200,"station_id":"ce4bhmh2rcd13ifvqgmg","pricing_plan_id":"cebpf4jnsgd1na2vs0mg"},{"bike_id":"336c74d9-d9c9-46d7-a94b-134b36ad023a","system_id":"levelo_inurba_marseille","lat":43.298402,"lon":5.378327,"is_reserved":false,"is_disabled":false,"rental_uris":{"android":"levelo://app?vid=336c74d9-d9c9-46d7-a94b-134b36ad023a","ios":"levelo://app?vid=336c74d9-d9c9-46d7-a94b-134b36ad023a"},"vehicle_type_id":"4","last_reported":1758176120,"current_range_meters":8000,"station_id":"","pricing_plan_id":"cebpf4jnsgd1na2vs0mg"},{"bike_id":"9023d84f-8ef9-4749-9cb8-a2ef6b71e57a","system_id":"levelo_inurba_marseille","lat":43.279576,"lon":5.410484,"is_reserved":false,"is_disabled":true,"rental_uris":{"android":"levelo://app?vid=9023d84f-8ef9-4749-9cb8-a2ef6b71e57a","ios":"levelo://app?vid=9023d84f-8ef9-4749-9cb8-a2ef6b71e57a"},"vehicle_type_id":"4","last_reported":1758176120,"current_range_meters":8000,"station_id":"ce4bhnp2rcd13ifvqh0g","pricing_plan_id":"cebpf4jnsgd1na2vs0mg"},{"bike_id":"046ba709-b940-4fa3-9690-1d81db536e4b","system_id":"levelo_inurba_marseille","lat":43.22542,"lon":5.41687,"is_reserved":false,"is_disabled":false,"rental_uris":{"android":"levelo://app?vid=046ba709-b940-4fa3-9690-1d81db536e4b","ios":"levelo://app?vid=046ba709-b940-4fa3-9690-1d81db536e4b"},"vehicle_type_id":"4","last_reported":1758176120,"current_range_meters":8400,"station_id":"","pricing_plan_id":"cebpf4jnsgd1na2vs0mg"},{"bike_id":"5cebaa99-7be9-4a3f-9cc0-5cdfdaef03f0","system_id":"levelo_inurba_marseille","lat":43.225319,"lon":5.348348,"is_reserved":false,"is_disabled":false,"rental_uris":{"android":"levelo://app?vid=5cebaa99-7be9-4a3f-9cc0-5cdfdaef03f0","ios":"levelo://app?vid=5cebaa99-7be9-4a3f-9cc0-5cdfdaef03f0"},"vehicle_type_id":"4","last_reported":1758176120,"current_range_meters":8400,"station_id":"","pricing_plan_id":"cebpf4jnsgd1na2vs0mg"},{"bike_id":"dc056a5f-dd0c-437c-bb54-187cc2a010ce","system_id":"levelo_inurba_marseille","lat":43.29785,"lon":5.39363,"is_reserved":false,"is_disabled":true,"rental_uris":{"android":"levelo://app?vid=dc056a5f-dd0c-437c-bb54-187cc2a010ce","ios":"levelo://app?vid=dc056a5f-dd0c-437c-bb54-187cc2a010ce"},"vehicle_type_id":"4","last_reported":1758176120,"current_range_meters":8400,"station_id":"chh1huq6cuj3fo74tm60","pricing_plan_id":"cebpf4jnsgd1na2vs0mg"},{"bike_id":"862582bc-063b-4de6-a780-8bab58aab37e","system_id":"levelo_inurba_marseille","lat":43.28942,"lon":5.36638,"is_reserved":false,"is_disabled":false,"rental_uris":{"android":"levelo://app?vid=862582bc-063b-4de6-a780-8bab58aab37e","ios":"levelo://app?vid=862582bc-063b-4de6-a780-8bab58aab37e"},"vehicle_type_id":"4","last_reported":1758176120,"current_range_meters":8800,"station_id":"ce4bhap2rcd13ifvqek0","pricing_plan_id":"cebpf4jnsgd1na2vs0mg"},{"bike_id":"96d8f58b-9802-40b9-a682-dc10f9406dba","system_id":"levelo_inurba_marseille","lat":43.2695,"lon":5.38632,"is_reserved":false,"is_disabled":false,"rental_uris":{"android":"levelo://app?vid=96d8f58b-9802-40b9-a682-dc10f9406dba","ios":"levelo://app?vid=96d8f58b-9802-40b9-a682-dc10f9406dba"},"vehicle_type_id":"4","last_reported":1758176120,"current_range_meters":8800,"station_id":"ce4bhh92rcd13ifvqfh0","pricing_plan_id":"cebpf4jnsgd1na2vs0mg"},{"bike_id":"b3cc8184-e160-4263-b5f2-178bc24ffb9d","system_id":"levelo_inurba_marseille","lat":43.27619,"lon":5.36115,"is_reserved":false,"is_disabled":false,"rental_uris":{"android":"levelo://app?vid=b3cc8184-e160-4263-b5f2-178bc24ffb9d","ios":"levelo://app?vid=b3cc8184-e160-4263-b5f2-178bc24ffb9d"},"vehicle_type_id":"4","last_reported":1758176120,"current_range_meters":8800,"station_id":"ce4bgj92rcd13ifvqbe0","pricing_plan_id":"cebpf4jnsgd1na2vs0mg"},{"bike_id":"97fac187-45a1-4e8f-be9b-a5c24559a733","system_id":"levelo_inurba_marseille","lat":43.2177,"lon":5.34624,"is_reserved":false,"is_disabled":false,"rental_uris":{"android":"levelo://app?vid=97fac187-45a1-4e8f-be9b-a5c24559a733","ios":"levelo://app?vid=97fac187-45a1-4e8f-be9b-a5c24559a733"},"vehicle_type_id":"4","last_reported":1758176120,"current_range_meters":9200,"station_id":"st_cvj6r9ubvosntc0bgbag","pricing_plan_id":"cebpf4jnsgd1na2vs0mg"},{"bike_id":"ca5a1340-d41e-49f3-95f8-599734e0a36c","system_id":"levelo_inurba_marseille","lat":43.225336,"lon":5.348339,"is_reserved":false,"is_disabled":false,"rental_uris":{"android":"levelo://app?vid=ca5a1340-d41e-49f3-95f8-599734e0a36c","ios":"levelo://app?vid=ca5a1340-d41e-49f3-95f8-599734e0a36c"},"vehicle_type_id":"4","last_reported":1758176120,"current_range_meters":9200,"station_id":"","pricing_plan_id":"cebpf4jnsgd1na2vs0mg"},{"bike_id":"d2d21405-7d84-46d6-9542-57aa659023fa","system_id":"levelo_inurba_marseille","lat":43.33124,"lon":5.37897,"is_reserved":false,"is_disabled":false,"rental_uris":{"android":"levelo://app?vid=d2d21405-7d84-46d6-9542-57aa659023fa","ios":"levelo://app?vid=d2d21405-7d84-46d6-9542-57aa659023fa"},"vehicle_type_id":"4","last_reported":1758176120,"current_range_meters":9200,"station_id":"","pricing_plan_id":"cebpf4jnsgd1na2vs0mg"},{"bike_id":"05deee42-38f8-4f34-874c-fcd76d6fb332","system_id":"levelo_inurba_marseille","lat":43.29332,"lon":5.37429,"is_reserved":false,"is_disabled":false,"rental_uris":{"android":"levelo://app?vid=05deee42-38f8-4f34-874c-fcd76d6fb332","ios":"levelo://app?vid=05deee42-38f8-4f34-874c-fcd76d6fb332"},"vehicle_type_id":"4","last_reported":1758176120,"current_range_meters":9200,"station_id":"","pricing_plan_id":"cebpf4jnsgd1na2vs0mg"},{"bike_id":"0a714f01-7287-46f8-bbb6-81d9c8aaefe2","system_id":"levelo_inurba_marseille","lat":43.29688,"lon":5.39184,"is_reserved":false,"is_disabled":false,"rental_uris":{"android":"levelo://app?vid=0a714f01-7287-46f8-bbb6-81d9c8aaefe2","ios":"levelo://app?vid=0a714f01-7287-46f8-bbb6-81d9c8aaefe2"},"vehicle_type_id":"4","last_reported":1758176120,"current_range_meters":9600,"station_id":"","pricing_plan_id":"cebpf4jnsgd1na2vs0mg"},{"bike_id":"2a5e641a-ca90-4f3a-9350-63bb94d9cebf","system_id":"levelo_inurba_marseille","lat":43.25557,"lon":5.39173,"is_reserved":false,"is_disabled":false,"rental_uris":{"android":"levelo://app?vid=2a5e641a-ca90-4f3a-9350-63bb94d9cebf","ios":"levelo://app?vid=2a5e641a-ca90-4f3a-9350-63bb94d9cebf"},"vehicle_type_id":"4","last_reported":1758176120,"current_range_meters":9600,"station_id":"","pricing_plan_id":"cebpf4jnsgd1na2vs0mg"},{"bike_id":"00ebc38d-33cc-476e-8c90-8fc4a0f76041","system_id":"levelo_inurba_marseille","lat":43.27912,"lon":5.39587,"is_reserved":false,"is_disabled":true,"rental_uris":{"android":"levelo://app?vid=00ebc38d-33cc-476e-8c90-8fc4a0f76041","ios":"levelo://app?vid=00ebc38d-33cc-476e-8c90-8fc4a0f76041"},"vehicle_type_id":"4","last_reported":1758176120,"current_range_meters":9600,"station_id":"ce4bhf92rcd13ifvqf40","pricing_plan_id":"cebpf4jnsgd1na2vs0mg"},{"bike_id":"0a2e2756-8bf6-4279-a120-8478c237834b","system_id":"levelo_inurba_marseille","lat":43.26474,"lon":5.39559,"is_reserved":false,"is_disabled":true,"rental_uris":{"android":"levelo://app?vid=0a2e2756-8bf6-4279-a120-8478c237834b","ios":"levelo://app?vid=0a2e2756-8bf6-4279-a120-8478c237834b"},"vehicle_type_id":"4","last_reported":1758176120,"current_range_meters":9600,"station_id":"ce4bhi12rcd13ifvqfq0","pricing_plan_id":"cebpf4jnsgd1na2vs0mg"},{"bike_id":"09734f56-1274-4913-8cd9-7e86f641ab44","system_id":"levelo_inurba_marseille","lat":43.29537,"lon":5.3855,"is_reserved":false,"is_disabled":false,"rental_uris":{"android":"levelo://app?vid=09734f56-1274-4913-8cd9-7e86f641ab44","ios":"levelo://app?vid=09734f56-1274-4913-8cd9-7e86f641ab44"},"vehicle_type_id":"4","last_reported":1758176120,"current_range_meters":10000,"station_id":"ce4bgih2rcd13ifvqba0","pricing_plan_id":"cebpf4jnsgd1na2vs0mg"},{"bike_id":"62ad0034-2f00-484d-b4a7-d0313ae59052","system_id":"levelo_inurba_marseille","lat":43.28159,"lon":5.42643,"is_reserved":false,"is_disabled":false,"rental_uris":{"android":"levelo://app?vid=62ad0034-2f00-484d-b4a7-d0313ae59052","ios":"levelo://app?vid=62ad0034-2f00-484d-b4a7-d0313ae59052"},"vehicle_type_id":"4","last_reported":1758176120,"current_range_meters":10000,"station_id":"ce4bhnh2rcd13ifvqgug","pricing_plan_id":"cebpf4jnsgd1na2vs0mg"},{"bike_id":"1819bd9c-dee0-4fba-be3f-f9d8f9408ce3","system_id":"levelo_inurba_marseille","lat":43.243936,"lon":5.370469,"is_reserved":false,"is_disabled":false,"rental_uris":{"android":"levelo://app?vid=1819bd9c-dee0-4fba-be3f-f9d8f9408ce3","ios":"levelo://app?vid=1819bd9c-dee0-4fba-be3f-f9d8f9408ce3"},"vehicle_type_id":"4","last_reported":1758176120,"current_range_meters":10000,"station_id":"ce4bhhh2rcd13ifvqfk0","pricing_plan_id":"cebpf4jnsgd1na2vs0mg"},{"bike_id":"a2cc1c2f-1d11-48db-982e-b4e7fb30e192","system_id":"levelo_inurba_marseille","lat":43.32467,"lon":5.36581,"is_reserved":false,"is_disabled":false,"rental_uris":{"android":"levelo://app?vid=a2cc1c2f-1d11-48db-982e-b4e7fb30e192","ios":"levelo://app?vid=a2cc1c2f-1d11-48db-982e-b4e7fb30e192"},"vehicle_type_id":"4","last_reported":1758176120,"current_range_meters":10000,"station_id":"ce4bhs12rcd13ifvqhvg","pricing_plan_id":"cebpf4jnsgd1na2vs0mg"},{"bike_id":"be7e6a52-5f32-4f5d-ab19-09bbc34d35a2","system_id":"levelo_inurba_marseille","lat":43.21193,"lon":5.3507,"is_reserved":false,"is_disabled":false,"rental_uris":{"android":"levelo://app?vid=be7e6a52-5f32-4f5d-ab19-09bbc34d35a2","ios":"levelo://app?vid=be7e6a52-5f32-4f5d-ab19-09bbc34d35a2"},"vehicle_type_id":"4","last_reported":1758176120,"current_range_meters":10000,"station_id":"st_cvj6sg6p6f1abm77japg","pricing_plan_id":"cebpf4jnsgd1na2vs0mg"},{"bike_id":"5701fe9c-3e98-4b9f-a910-5eb395d4e5d3","system_id":"levelo_inurba_marseille","lat":43.305389,"lon":5.384223,"is_reserved":false,"is_disabled":false,"rental_uris":{"android":"levelo://app?vid=5701fe9c-3e98-4b9f-a910-5eb395d4e5d3","ios":"levelo://app?vid=5701fe9c-3e98-4b9f-a910-5eb395d4e5d3"},"vehicle_type_id":"4","last_reported":1758176120,"current_range_meters":10000,"station_id":"ce4bgg92rcd13ifvqb30","pricing_plan_id":"cebpf4jnsgd1na2vs0mg"},{"bike_id":"a6052ea2-1637-4af6-a204-4e68260c7a59","system_id":"levelo_inurba_marseille","lat":43.29628,"lon":5.38103,"is_reserved":false,"is_disabled":false,"rental_uris":{"android":"levelo://app?vid=a6052ea2-1637-4af6-a204-4e68260c7a59","ios":"levelo://app?vid=a6052ea2-1637-4af6-a204-4e68260c7a59"},"vehicle_type_id":"4","last_reported":1758176120,"current_range_meters":10800,"station_id":"","pricing_plan_id":"cebpf4jnsgd1na2vs0mg"},{"bike_id":"7c53e1e0-9efc-4c15-9c29-668d4dac4c59","system_id":"levelo_inurba_marseille","lat":43.22511,"lon":5.34848,"is_reserved":false,"is_disabled":false,"rental_uris":{"android":"levelo://app?vid=7c53e1e0-9efc-4c15-9c29-668d4dac4c59","ios":"levelo://app?vid=7c53e1e0-9efc-4c15-9c29-668d4dac4c59"},"vehicle_type_id":"4","last_reported":1758176120,"current_range_meters":10800,"station_id":"","pricing_plan_id":"cebpf4jnsgd1na2vs0mg"},{"bike_id":"521e09ca-3685-4545-9cd6-4c1c8368356a","system_id":"levelo_inurba_marseille","lat":43.2463,"lon":5.43149,"is_reserved":false,"is_disabled":false,"rental_uris":{"android":"levelo://app?vid=521e09ca-3685-4545-9cd6-4c1c8368356a","ios":"levelo://app?vid=521e09ca-3685-4545-9cd6-4c1c8368356a"},"vehicle_type_id":"4","last_reported":1758176120,"current_range_meters":11200,"station_id":"st_d2m6c4gdas8pm72e190g","pricing_plan_id":"cebpf4jnsgd1na2vs0mg"},{"bike_id":"3a2fd072-55c6-4292-8ade-97d21356d4ed","system_id":"levelo_inurba_marseille","lat":43.23154,"lon":5.43709,"is_reserved":false,"is_disabled":false,"rental_uris":{"android":"levelo://app?vid=3a2fd072-55c6-4292-8ade-97d21356d4ed","ios":"levelo://app?vid=3a2fd072-55c6-4292-8ade-97d21356d4ed"},"vehicle_type_id":"4","last_reported":1758176120,"current_range_meters":11200,"station_id":"ce4bhmp2rcd13ifvqgog","pricing_plan_id":"cebpf4jnsgd1na2vs0mg"},{"bike_id":"cea622fc-0e0a-4886-b4a5-745091c491ec","system_id":"levelo_inurba_marseille","lat":43.24392,"lon":5.37061,"is_reserved":false,"is_disabled":false,"rental_uris":{"android":"levelo://app?vid=cea622fc-0e0a-4886-b4a5-745091c491ec","ios":"levelo://app?vid=cea622fc-0e0a-4886-b4a5-745091c491ec"},"vehicle_type_id":"4","last_reported":1758176120,"current_range_meters":11200,"station_id":"ce4bhhh2rcd13ifvqfk0","pricing_plan_id":"cebpf4jnsgd1na2vs0mg"},{"bike_id":"f7254990-f51d-45fe-83e3-57aceffccbc4","system_id":"levelo_inurba_marseille","lat":43.2257,"lon":5.41633,"is_reserved":false,"is_disabled":false,"rental_uris":{"android":"levelo://app?vid=f7254990-f51d-45fe-83e3-57aceffccbc4","ios":"levelo://app?vid=f7254990-f51d-45fe-83e3-57aceffccbc4"},"vehicle_type_id":"4","last_reported":1758176120,"current_range_meters":11600,"station_id":"st_d2o4gvlbi1j2169b742g","pricing_plan_id":"cebpf4jnsgd1na2vs0mg"},{"bike_id":"4560da2a-2325-4c04-868f-7d15b78bd3e7","system_id":"levelo_inurba_marseille","lat":43.27077,"lon":5.42276,"is_reserved":false,"is_disabled":false,"rental_uris":{"android":"levelo://app?vid=4560da2a-2325-4c04-868f-7d15b78bd3e7","ios":"levelo://app?vid=4560da2a-2325-4c04-868f-7d15b78bd3e7"},"vehicle_type_id":"4","last_reported":1758176120,"current_range_meters":11600,"station_id":"ce4bhk92rcd13ifvqgb0","pricing_plan_id":"cebpf4jnsgd1na2vs0mg"},{"bike_id":"c9f6af51-eff5-4f79-aca9-3e8e6ef0e8f6","system_id":"levelo_inurba_marseille","lat":43.33776,"lon":5.37459,"is_reserved":false,"is_disabled":false,"rental_uris":{"android":"levelo://app?vid=c9f6af51-eff5-4f79-aca9-3e8e6ef0e8f6","ios":"levelo://app?vid=c9f6af51-eff5-4f79-aca9-3e8e6ef0e8f6"},"vehicle_type_id":"4","last_reported":1758176120,"current_range_meters":11600,"station_id":"","pricing_plan_id":"cebpf4jnsgd1na2vs0mg"},{"bike_id":"0e83af9f-8179-4ee0-8a89-9908110ddbb9","system_id":"levelo_inurba_marseille","lat":43.30297,"lon":5.39216,"is_reserved":false,"is_disabled":false,"rental_uris":{"android":"levelo://app?vid=0e83af9f-8179-4ee0-8a89-9908110ddbb9","ios":"levelo://app?vid=0e83af9f-8179-4ee0-8a89-9908110ddbb9"},"vehicle_type_id":"4","last_reported":1758176120,"current_range_meters":11600,"station_id":"ce4bgkh2rcd13ifvqbk0","pricing_plan_id":"cebpf4jnsgd1na2vs0mg"},{"bike_id":"3cff58c5-b07f-46eb-b6f7-0d01743093e3","system_id":"levelo_inurba_marseille","lat":43.28674,"lon":5.36358,"is_reserved":false,"is_disabled":false,"rental_uris":{"android":"levelo://app?vid=3cff58c5-b07f-46eb-b6f7-0d01743093e3","ios":"levelo://app?vid=3cff58c5-b07f-46eb-b6f7-0d01743093e3"},"vehicle_type_id":"4","last_reported":1758176120,"current_range_meters":11600,"station_id":"ce4bhah2rcd13ifvqej0","pricing_plan_id":"cebpf4jnsgd1na2vs0mg"},{"bike_id":"49230824-e0b0-4942-b254-aed72b06d282","system_id":"levelo_inurba_marseille","lat":43.26969,"lon":5.40535,"is_reserved":false,"is_disabled":false,"rental_uris":{"android":"levelo://app?vid=49230824-e0b0-4942-b254-aed72b06d282","ios":"levelo://app?vid=49230824-e0b0-4942-b254-aed72b06d282"},"vehicle_type_id":"4","last_reported":1758176120,"current_range_meters":12000,"station_id":"","pricing_plan_id":"cebpf4jnsgd1na2vs0mg"},{"bike_id":"55dfb17a-dc13-4669-82ac-2c676d600c2d","system_id":"levelo_inurba_marseille","lat":43.31351,"lon":5.37936,"is_reserved":false,"is_disabled":false,"rental_uris":{"android":"levelo://app?vid=55dfb17a-dc13-4669-82ac-2c676d600c2d","ios":"levelo://app?vid=55dfb17a-dc13-4669-82ac-2c676d600c2d"},"vehicle_type_id":"4","last_reported":1758176120,"current_range_meters":12000,"station_id":"","pricing_plan_id":"cebpf4jnsgd1na2vs0mg"},{"bike_id":"e2688e72-cda6-4015-a88b-f0e32c31b357","system_id":"levelo_inurba_marseille","lat":43.305112,"lon":5.367169,"is_reserved":false,"is_disabled":false,"rental_uris":{"android":"levelo://app?vid=e2688e72-cda6-4015-a88b-f0e32c31b357","ios":"levelo://app?vid=e2688e72-cda6-4015-a88b-f0e32c31b357"},"vehicle_type_id":"4","last_reported":1758176120,"current_range_meters":12400,"station_id":"ce4bgrp2rcd13ifvqc9g","pricing_plan_id":"cebpf4jnsgd1na2vs0mg"},{"bike_id":"6abb0ed1-3c97-4f0a-8c1f-a895ff4e02f7","system_id":"levelo_inurba_marseille","lat":43.273583,"lon":5.423965,"is_reserved":false,"is_disabled":false,"rental_uris":{"android":"levelo://app?vid=6abb0ed1-3c97-4f0a-8c1f-a895ff4e02f7","ios":"levelo://app?vid=6abb0ed1-3c97-4f0a-8c1f-a895ff4e02f7"},"vehicle_type_id":"4","last_reported":1758176120,"current_range_meters":12400,"station_id":"","pricing_plan_id":"cebpf4jnsgd1na2vs0mg"},{"bike_id":"cf66592a-d8fa-4c6c-9927-5d7a9fef5026","system_id":"levelo_inurba_marseille","lat":43.26288,"lon":5.39884,"is_reserved":false,"is_disabled":false,"rental_uris":{"android":"levelo://app?vid=cf66592a-d8fa-4c6c-9927-5d7a9fef5026","ios":"levelo://app?vid=cf66592a-d8fa-4c6c-9927-5d7a9fef5026"},"vehicle_type_id":"4","last_reported":1758176120,"current_range_meters":12400,"station_id":"","pricing_plan_id":"cebpf4jnsgd1na2vs0mg"},{"bike_id":"e0c239fb-6496-44a5-abcd-437c394d68d6","system_id":"levelo_inurba_marseille","lat":43.25871,"lon":5.39893,"is_reserved":false,"is_disabled":false,"rental_uris":{"android":"levelo://app?vid=e0c239fb-6496-44a5-abcd-437c394d68d6","ios":"levelo://app?vid=e0c239fb-6496-44a5-abcd-437c394d68d6"},"vehicle_type_id":"4","last_reported":1758176120,"current_range_meters":12400,"station_id":"ce4bhl92rcd13ifvqghg","pricing_plan_id":"cebpf4jnsgd1na2vs0mg"},{"bike_id":"39b844e1-e825-4b85-9332-a1c42b60200e","system_id":"levelo_inurba_marseille","lat":43.274267,"lon":5.394205,"is_reserved":false,"is_disabled":false,"rental_uris":{"android":"levelo://app?vid=39b844e1-e825-4b85-9332-a1c42b60200e","ios":"levelo://app?vid=39b844e1-e825-4b85-9332-a1c42b60200e"},"vehicle_type_id":"4","last_reported":1758176120,"current_range_meters":12400,"station_id":"ce4bhdp2rcd13ifvqf20","pricing_plan_id":"cebpf4jnsgd1na2vs0mg"},{"bike_id":"5a45408f-d83e-4797-a757-7c3c26ab2b58","system_id":"levelo_inurba_marseille","lat":43.32539,"lon":5.41426,"is_reserved":false,"is_disabled":false,"rental_uris":{"android":"levelo://app?vid=5a45408f-d83e-4797-a757-7c3c26ab2b58","ios":"levelo://app?vid=5a45408f-d83e-4797-a757-7c3c26ab2b58"},"vehicle_type_id":"4","last_reported":1758176120,"current_range_meters":12400,"station_id":"ce4bhq12rcd13ifvqhhg","pricing_plan_id":"cebpf4jnsgd1na2vs0mg"},{"bike_id":"22f0687d-25d3-4094-9c4a-293a61e189a6","system_id":"levelo_inurba_marseille","lat":43.24711,"lon":5.3977,"is_reserved":false,"is_disabled":false,"rental_uris":{"android":"levelo://app?vid=22f0687d-25d3-4094-9c4a-293a61e189a6","ios":"levelo://app?vid=22f0687d-25d3-4094-9c4a-293a61e189a6"},"vehicle_type_id":"4","last_reported":1758176120,"current_range_meters":12800,"station_id":"","pricing_plan_id":"cebpf4jnsgd1na2vs0mg"},{"bike_id":"8dcc13a6-96ea-4868-99e3-20e41910d7f7","system_id":"levelo_inurba_marseille","lat":43.30887,"lon":5.37195,"is_reserved":false,"is_disabled":false,"rental_uris":{"android":"levelo://app?vid=8dcc13a6-96ea-4868-99e3-20e41910d7f7","ios":"levelo://app?vid=8dcc13a6-96ea-4868-99e3-20e41910d7f7"},"vehicle_type_id":"4","last_reported":1758176120,"current_range_meters":13600,"station_id":"ce4bguh2rcd13ifvqckg","pricing_plan_id":"cebpf4jnsgd1na2vs0mg"},{"bike_id":"152b725d-6f61-44b0-bc66-f31437aa6fe9","system_id":"levelo_inurba_marseille","lat":43.22558,"lon":5.41626,"is_reserved":false,"is_disabled":false,"rental_uris":{"android":"levelo://app?vid=152b725d-6f61-44b0-bc66-f31437aa6fe9","ios":"levelo://app?vid=152b725d-6f61-44b0-bc66-f31437aa6fe9"},"vehicle_type_id":"4","last_reported":1758176120,"current_range_meters":13600,"station_id":"st_d2o4gvlbi1j2169b742g","pricing_plan_id":"cebpf4jnsgd1na2vs0mg"},{"bike_id":"bbb81187-6392-44de-bb37-c717af540b6f","system_id":"levelo_inurba_marseille","lat":43.31891,"lon":5.4075,"is_reserved":false,"is_disabled":false,"rental_uris":{"android":"levelo://app?vid=bbb81187-6392-44de-bb37-c717af540b6f","ios":"levelo://app?vid=bbb81187-6392-44de-bb37-c717af540b6f"},"vehicle_type_id":"4","last_reported":1758176120,"current_range_meters":13600,"station_id":"ce4bhq12rcd13ifvqhig","pricing_plan_id":"cebpf4jnsgd1na2vs0mg"},{"bike_id":"3d158815-0ba1-449f-90dd-2b69cf190d13","system_id":"levelo_inurba_marseille","lat":43.32965,"lon":5.39278,"is_reserved":false,"is_disabled":false,"rental_uris":{"android":"levelo://app?vid=3d158815-0ba1-449f-90dd-2b69cf190d13","ios":"levelo://app?vid=3d158815-0ba1-449f-90dd-2b69cf190d13"},"vehicle_type_id":"4","last_reported":1758176120,"current_range_meters":14000,"station_id":"","pricing_plan_id":"cebpf4jnsgd1na2vs0mg"},{"bike_id":"387c8295-5c1a-4e62-91c6-560b703e4279","system_id":"levelo_inurba_marseille","lat":43.32448,"lon":5.42688,"is_reserved":false,"is_disabled":false,"rental_uris":{"android":"levelo://app?vid=387c8295-5c1a-4e62-91c6-560b703e4279","ios":"levelo://app?vid=387c8295-5c1a-4e62-91c6-560b703e4279"},"vehicle_type_id":"4","last_reported":1758176120,"current_range_meters":14000,"station_id":"","pricing_plan_id":"cebpf4jnsgd1na2vs0mg"},{"bike_id":"80332322-52bb-49f4-b738-0ea587c53538","system_id":"levelo_inurba_marseille","lat":43.225357,"lon":5.34837,"is_reserved":false,"is_disabled":false,"rental_uris":{"android":"levelo://app?vid=80332322-52bb-49f4-b738-0ea587c53538","ios":"levelo://app?vid=80332322-52bb-49f4-b738-0ea587c53538"},"vehicle_type_id":"4","last_reported":1758176120,"current_range_meters":14000,"station_id":"","pricing_plan_id":"cebpf4jnsgd1na2vs0mg"},{"bike_id":"3a5880cd-3aaa-45e3-acd9-2ccd914d29dd","system_id":"levelo_inurba_marseille","lat":43.24083,"lon":5.37796,"is_reserved":false,"is_disabled":false,"rental_uris":{"android":"levelo://app?vid=3a5880cd-3aaa-45e3-acd9-2ccd914d29dd","ios":"levelo://app?vid=3a5880cd-3aaa-45e3-acd9-2ccd914d29dd"},"vehicle_type_id":"4","last_reported":1758176120,"current_range_meters":14000,"station_id":"ce4bhnp2rcd13ifvqgvg","pricing_plan_id":"cebpf4jnsgd1na2vs0mg"},{"bike_id":"d1788760-0706-4b90-8999-db00a9e42210","system_id":"levelo_inurba_marseille","lat":43.32797,"lon":5.41011,"is_reserved":false,"is_disabled":false,"rental_uris":{"android":"levelo://app?vid=d1788760-0706-4b90-8999-db00a9e42210","ios":"levelo://app?vid=d1788760-0706-4b90-8999-db00a9e42210"},"vehicle_type_id":"4","last_reported":1758176120,"current_range_meters":14000,"station_id":"","pricing_plan_id":"cebpf4jnsgd1na2vs0mg"},{"bike_id":"d2cff9ba-ed45-4388-b59e-4fc763f6a44c","system_id":"levelo_inurba_marseille","lat":43.2835,"lon":5.38097,"is_reserved":false,"is_disabled":false,"rental_uris":{"android":"levelo://app?vid=d2cff9ba-ed45-4388-b59e-4fc763f6a44c","ios":"levelo://app?vid=d2cff9ba-ed45-4388-b59e-4fc763f6a44c"},"vehicle_type_id":"4","last_reported":1758176120,"current_range_meters":14000,"station_id":"ce4bh412rcd13ifvqdr0","pricing_plan_id":"cebpf4jnsgd1na2vs0mg"},{"bike_id":"dde2e91e-5084-4b39-b78f-82b1ce36a209","system_id":"levelo_inurba_marseille","lat":43.211924,"lon":5.350727,"is_reserved":false,"is_disabled":false,"rental_uris":{"android":"levelo://app?vid=dde2e91e-5084-4b39-b78f-82b1ce36a209","ios":"levelo://app?vid=dde2e91e-5084-4b39-b78f-82b1ce36a209"},"vehicle_type_id":"4","last_reported":1758176120,"current_range_meters":14000,"station_id":"","pricing_plan_id":"cebpf4jnsgd1na2vs0mg"},{"bike_id":"4a9f1525-bb38-489e-be29-d6e9a5dc713e","system_id":"levelo_inurba_marseille","lat":43.27505,"lon":5.42463,"is_reserved":false,"is_disabled":false,"rental_uris":{"android":"levelo://app?vid=4a9f1525-bb38-489e-be29-d6e9a5dc713e","ios":"levelo://app?vid=4a9f1525-bb38-489e-be29-d6e9a5dc713e"},"vehicle_type_id":"4","last_reported":1758176120,"current_range_meters":14400,"station_id":"ce4bhn92rcd13ifvqgrg","pricing_plan_id":"cebpf4jnsgd1na2vs0mg"},{"bike_id":"79a1df48-88e4-4180-9763-80b5df02e73e","system_id":"levelo_inurba_marseille","lat":43.305453,"lon":5.365942,"is_reserved":false,"is_disabled":false,"rental_uris":{"android":"levelo://app?vid=79a1df48-88e4-4180-9763-80b5df02e73e","ios":"levelo://app?vid=79a1df48-88e4-4180-9763-80b5df02e73e"},"vehicle_type_id":"4","last_reported":1758176120,"current_range_meters":14400,"station_id":"ce4bgs12rcd13ifvqcag","pricing_plan_id":"cebpf4jnsgd1na2vs0mg"},{"bike_id":"3684fa1b-e54a-4376-a4d3-c9169e0245f9","system_id":"levelo_inurba_marseille","lat":43.2583,"lon":5.39439,"is_reserved":false,"is_disabled":false,"rental_uris":{"android":"levelo://app?vid=3684fa1b-e54a-4376-a4d3-c9169e0245f9","ios":"levelo://app?vid=3684fa1b-e54a-4376-a4d3-c9169e0245f9"},"vehicle_type_id":"4","last_reported":1758176120,"current_range_meters":14400,"station_id":"ce4bhip2rcd13ifvqft0","pricing_plan_id":"cebpf4jnsgd1na2vs0mg"},{"bike_id":"adf19941-6925-49e3-b023-4f911ffc887f","system_id":"levelo_inurba_marseille","lat":43.32365,"lon":5.36727,"is_reserved":false,"is_disabled":true,"rental_uris":{"android":"levelo://app?vid=adf19941-6925-49e3-b023-4f911ffc887f","ios":"levelo://app?vid=adf19941-6925-49e3-b023-4f911ffc887f"},"vehicle_type_id":"4","last_reported":1758176120,"current_range_meters":14800,"station_id":"ce4bhsh2rcd13ifvqi2g","pricing_plan_id":"cebpf4jnsgd1na2vs0mg"},{"bike_id":"53e32093-87d7-47a8-a5be-30a834c8135a","system_id":"levelo_inurba_marseille","lat":43.32356,"lon":5.36742,"is_reserved":false,"is_disabled":false,"rental_uris":{"android":"levelo://app?vid=53e32093-87d7-47a8-a5be-30a834c8135a","ios":"levelo://app?vid=53e32093-87d7-47a8-a5be-30a834c8135a"},"vehicle_type_id":"4","last_reported":1758176120,"current_range_meters":16000,"station_id":"ce4bhsh2rcd13ifvqi2g","pricing_plan_id":"cebpf4jnsgd1na2vs0mg"},{"bike_id":"80a9a218-f77f-42ce-8136-b0dceb9fc366","system_id":"levelo_inurba_marseille","lat":43.267867,"lon":5.394102,"is_reserved":false,"is_disabled":false,"rental_uris":{"android":"levelo://app?vid=80a9a218-f77f-42ce-8136-b0dceb9fc366","ios":"levelo://app?vid=80a9a218-f77f-42ce-8136-b0dceb9fc366"},"vehicle_type_id":"4","last_reported":1758176120,"current_range_meters":16000,"station_id":"ce4bhh12rcd13ifvqfg0","pricing_plan_id":"cebpf4jnsgd1na2vs0mg"},{"bike_id":"17e32bd2-1c59-42b3-819b-651708de8579","system_id":"levelo_inurba_marseille","lat":43.28358,"lon":5.38116,"is_reserved":false,"is_disabled":true,"rental_uris":{"android":"levelo://app?vid=17e32bd2-1c59-42b3-819b-651708de8579","ios":"levelo://app?vid=17e32bd2-1c59-42b3-819b-651708de8579"},"vehicle_type_id":"4","last_reported":1758176120,"current_range_meters":16000,"station_id":"ce4bh412rcd13ifvqdr0","pricing_plan_id":"cebpf4jnsgd1na2vs0mg"},{"bike_id":"d9f0ae84-d732-44f5-b420-064e325a0d60","system_id":"levelo_inurba_marseille","lat":43.320183,"lon":5.381343,"is_reserved":false,"is_disabled":false,"rental_uris":{"android":"levelo://app?vid=d9f0ae84-d732-44f5-b420-064e325a0d60","ios":"levelo://app?vid=d9f0ae84-d732-44f5-b420-064e325a0d60"},"vehicle_type_id":"4","last_reported":1758176120,"current_range_meters":16000,"station_id":"","pricing_plan_id":"cebpf4jnsgd1na2vs0mg"},{"bike_id":"8b911268-c055-48aa-a297-584fd3a9cf6e","system_id":"levelo_inurba_marseille","lat":43.28418,"lon":5.34988,"is_reserved":false,"is_disabled":false,"rental_uris":{"android":"levelo://app?vid=8b911268-c055-48aa-a297-584fd3a9cf6e","ios":"levelo://app?vid=8b911268-c055-48aa-a297-584fd3a9cf6e"},"vehicle_type_id":"4","last_reported":1758176120,"current_range_meters":16000,"station_id":"ce4bhbh2rcd13ifvqepg","pricing_plan_id":"cebpf4jnsgd1na2vs0mg"},{"bike_id":"e333b169-92c9-439c-ae9b-a18aeb1885c1","system_id":"levelo_inurba_marseille","lat":43.29938,"lon":5.3655,"is_reserved":false,"is_disabled":false,"rental_uris":{"android":"levelo://app?vid=e333b169-92c9-439c-ae9b-a18aeb1885c1","ios":"levelo://app?vid=e333b169-92c9-439c-ae9b-a18aeb1885c1"},"vehicle_type_id":"4","last_reported":1758176120,"current_range_meters":16000,"station_id":"ce4bgm92rcd13ifvqbr0","pricing_plan_id":"cebpf4jnsgd1na2vs0mg"},{"bike_id":"42323a1a-489c-43cb-90ae-c675b27444d5","system_id":"levelo_inurba_marseille","lat":43.21655,"lon":5.34348,"is_reserved":false,"is_disabled":false,"rental_uris":{"android":"levelo://app?vid=42323a1a-489c-43cb-90ae-c675b27444d5","ios":"levelo://app?vid=42323a1a-489c-43cb-90ae-c675b27444d5"},"vehicle_type_id":"4","last_reported":1758176120,"current_range_meters":16000,"station_id":"","pricing_plan_id":"cebpf4jnsgd1na2vs0mg"},{"bike_id":"08128352-d0a0-4f5f-a684-879e4974aa4c","system_id":"levelo_inurba_marseille","lat":43.22557,"lon":5.41627,"is_reserved":false,"is_disabled":false,"rental_uris":{"android":"levelo://app?vid=08128352-d0a0-4f5f-a684-879e4974aa4c","ios":"levelo://app?vid=08128352-d0a0-4f5f-a684-879e4974aa4c"},"vehicle_type_id":"4","last_reported":1758176120,"current_range_meters":16000,"station_id":"st_d2o4gvlbi1j2169b742g","pricing_plan_id":"cebpf4jnsgd1na2vs0mg"},{"bike_id":"40495e59-b743-486e-987c-cb0c3ab2f191","system_id":"levelo_inurba_marseille","lat":43.332,"lon":5.41075,"is_reserved":false,"is_disabled":false,"rental_uris":{"android":"levelo://app?vid=40495e59-b743-486e-987c-cb0c3ab2f191","ios":"levelo://app?vid=40495e59-b743-486e-987c-cb0c3ab2f191"},"vehicle_type_id":"4","last_reported":1758176120,"current_range_meters":16000,"station_id":"","pricing_plan_id":"cebpf4jnsgd1na2vs0mg"},{"bike_id":"88254472-5dcf-422a-bafd-1dd31a4f452f","system_id":"levelo_inurba_marseille","lat":43.249534,"lon":5.404805,"is_reserved":false,"is_disabled":false,"rental_uris":{"android":"levelo://app?vid=88254472-5dcf-422a-bafd-1dd31a4f452f","ios":"levelo://app?vid=88254472-5dcf-422a-bafd-1dd31a4f452f"},"vehicle_type_id":"4","last_reported":1758176120,"current_range_meters":16000,"station_id":"st_d2ngiaodas8pm72gd1h0","pricing_plan_id":"cebpf4jnsgd1na2vs0mg"},{"bike_id":"be9ee84b-9ec1-497c-800c-5907ad1418ae","system_id":"levelo_inurba_marseille","lat":43.22571,"lon":5.41641,"is_reserved":false,"is_disabled":false,"rental_uris":{"android":"levelo://app?vid=be9ee84b-9ec1-497c-800c-5907ad1418ae","ios":"levelo://app?vid=be9ee84b-9ec1-497c-800c-5907ad1418ae"},"vehicle_type_id":"4","last_reported":1758176120,"current_range_meters":16000,"station_id":"st_d2o4gvlbi1j2169b742g","pricing_plan_id":"cebpf4jnsgd1na2vs0mg"},{"bike_id":"1da37b3a-d772-478a-a85c-fb719c8bc7a9","system_id":"levelo_inurba_marseille","lat":43.26557,"lon":5.39659,"is_reserved":false,"is_disabled":false,"rental_uris":{"android":"levelo://app?vid=1da37b3a-d772-478a-a85c-fb719c8bc7a9","ios":"levelo://app?vid=1da37b3a-d772-478a-a85c-fb719c8bc7a9"},"vehicle_type_id":"4","last_reported":1758176120,"current_range_meters":16000,"station_id":"","pricing_plan_id":"cebpf4jnsgd1na2vs0mg"},{"bike_id":"a66b8944-6cea-4817-8024-8e532f57f1cc","system_id":"levelo_inurba_marseille","lat":43.27993,"lon":5.41674,"is_reserved":false,"is_disabled":false,"rental_uris":{"android":"levelo://app?vid=a66b8944-6cea-4817-8024-8e532f57f1cc","ios":"levelo://app?vid=a66b8944-6cea-4817-8024-8e532f57f1cc"},"vehicle_type_id":"4","last_reported":1758176120,"current_range_meters":16400,"station_id":"ce4bho12rcd13ifvqh1g","pricing_plan_id":"cebpf4jnsgd1na2vs0mg"},{"bike_id":"d93f6aec-282b-42a6-9be0-fe23bad38a2b","system_id":"levelo_inurba_marseille","lat":43.24629,"lon":5.43211,"is_reserved":false,"is_disabled":true,"rental_uris":{"android":"levelo://app?vid=d93f6aec-282b-42a6-9be0-fe23bad38a2b","ios":"levelo://app?vid=d93f6aec-282b-42a6-9be0-fe23bad38a2b"},"vehicle_type_id":"4","last_reported":1758176120,"current_range_meters":16400,"station_id":"st_d2m6c4gdas8pm72e190g","pricing_plan_id":"cebpf4jnsgd1na2vs0mg"},{"bike_id":"a4faa1fd-62ee-404a-aff8-b79ea6b6b5d2","system_id":"levelo_inurba_marseille","lat":43.32986,"lon":5.39245,"is_reserved":false,"is_disabled":false,"rental_uris":{"android":"levelo://app?vid=a4faa1fd-62ee-404a-aff8-b79ea6b6b5d2","ios":"levelo://app?vid=a4faa1fd-62ee-404a-aff8-b79ea6b6b5d2"},"vehicle_type_id":"4","last_reported":1758176120,"current_range_meters":16400,"station_id":"","pricing_plan_id":"cebpf4jnsgd1na2vs0mg"},{"bike_id":"ba58613a-9255-41ff-936d-c7269e6271b4","system_id":"levelo_inurba_marseille","lat":43.27977,"lon":5.41667,"is_reserved":false,"is_disabled":false,"rental_uris":{"android":"levelo://app?vid=ba58613a-9255-41ff-936d-c7269e6271b4","ios":"levelo://app?vid=ba58613a-9255-41ff-936d-c7269e6271b4"},"vehicle_type_id":"4","last_reported":1758176120,"current_range_meters":16400,"station_id":"ce4bho12rcd13ifvqh1g","pricing_plan_id":"cebpf4jnsgd1na2vs0mg"},{"bike_id":"2e2ae28d-dee5-4d7d-94ef-359eeb19688f","system_id":"levelo_inurba_marseille","lat":43.31996,"lon":5.38148,"is_reserved":false,"is_disabled":false,"rental_uris":{"android":"levelo://app?vid=2e2ae28d-dee5-4d7d-94ef-359eeb19688f","ios":"levelo://app?vid=2e2ae28d-dee5-4d7d-94ef-359eeb19688f"},"vehicle_type_id":"4","last_reported":1758176120,"current_range_meters":16400,"station_id":"ce4bhr12rcd13ifvqhpg","pricing_plan_id":"cebpf4jnsgd1na2vs0mg"},{"bike_id":"fa0847a4-8d8b-47a2-9c0d-c16fe7a48c9b","system_id":"levelo_inurba_marseille","lat":43.330285,"lon":5.390556,"is_reserved":false,"is_disabled":false,"rental_uris":{"android":"levelo://app?vid=fa0847a4-8d8b-47a2-9c0d-c16fe7a48c9b","ios":"levelo://app?vid=fa0847a4-8d8b-47a2-9c0d-c16fe7a48c9b"},"vehicle_type_id":"4","last_reported":1758176120,"current_range_meters":16400,"station_id":"","pricing_plan_id":"cebpf4jnsgd1na2vs0mg"},{"bike_id":"b2c799b6-987a-4afd-98ce-a4bfccab9b02","system_id":"levelo_inurba_marseille","lat":43.318935,"lon":5.407262,"is_reserved":false,"is_disabled":false,"rental_uris":{"android":"levelo://app?vid=b2c799b6-987a-4afd-98ce-a4bfccab9b02","ios":"levelo://app?vid=b2c799b6-987a-4afd-98ce-a4bfccab9b02"},"vehicle_type_id":"4","last_reported":1758176120,"current_range_meters":16400,"station_id":"ce4bhq12rcd13ifvqhig","pricing_plan_id":"cebpf4jnsgd1na2vs0mg"},{"bike_id":"e1f51025-1404-4cca-96b7-273119670d5f","system_id":"levelo_inurba_marseille","lat":43.25201,"lon":5.42916,"is_reserved":false,"is_disabled":false,"rental_uris":{"android":"levelo://app?vid=e1f51025-1404-4cca-96b7-273119670d5f","ios":"levelo://app?vid=e1f51025-1404-4cca-96b7-273119670d5f"},"vehicle_type_id":"4","last_reported":1758176120,"current_range_meters":16400,"station_id":"","pricing_plan_id":"cebpf4jnsgd1na2vs0mg"},{"bike_id":"acfec73f-5435-48eb-a869-eeb3dc5252c8","system_id":"levelo_inurba_marseille","lat":43.31297,"lon":5.37867,"is_reserved":false,"is_disabled":false,"rental_uris":{"android":"levelo://app?vid=acfec73f-5435-48eb-a869-eeb3dc5252c8","ios":"levelo://app?vid=acfec73f-5435-48eb-a869-eeb3dc5252c8"},"vehicle_type_id":"4","last_reported":1758176120,"current_range_meters":16400,"station_id":"","pricing_plan_id":"cebpf4jnsgd1na2vs0mg"},{"bike_id":"773eaed5-4b92-4f5e-85db-99a3f316852e","system_id":"levelo_inurba_marseille","lat":43.29037,"lon":5.39996,"is_reserved":false,"is_disabled":false,"rental_uris":{"android":"levelo://app?vid=773eaed5-4b92-4f5e-85db-99a3f316852e","ios":"levelo://app?vid=773eaed5-4b92-4f5e-85db-99a3f316852e"},"vehicle_type_id":"4","last_reported":1758176120,"current_range_meters":16800,"station_id":"ce4bh392rcd13ifvqdm0","pricing_plan_id":"cebpf4jnsgd1na2vs0mg"},{"bike_id":"46e89d11-c05c-46a8-952a-3349a961fbf1","system_id":"levelo_inurba_marseille","lat":43.298052,"lon":5.381044,"is_reserved":false,"is_disabled":false,"rental_uris":{"android":"levelo://app?vid=46e89d11-c05c-46a8-952a-3349a961fbf1","ios":"levelo://app?vid=46e89d11-c05c-46a8-952a-3349a961fbf1"},"vehicle_type_id":"4","last_reported":1758176120,"current_range_meters":16800,"station_id":"","pricing_plan_id":"cebpf4jnsgd1na2vs0mg"},{"bike_id":"0a68362e-f5d3-40c2-8eb6-58b476c1e495","system_id":"levelo_inurba_marseille","lat":43.2776,"lon":5.41012,"is_reserved":false,"is_disabled":false,"rental_uris":{"android":"levelo://app?vid=0a68362e-f5d3-40c2-8eb6-58b476c1e495","ios":"levelo://app?vid=0a68362e-f5d3-40c2-8eb6-58b476c1e495"},"vehicle_type_id":"4","last_reported":1758176120,"current_range_meters":16800,"station_id":"","pricing_plan_id":"cebpf4jnsgd1na2vs0mg"},{"bike_id":"47c22245-345e-4b55-8db6-e460226dbf31","system_id":"levelo_inurba_marseille","lat":43.27492,"lon":5.42455,"is_reserved":false,"is_disabled":false,"rental_uris":{"android":"levelo://app?vid=47c22245-345e-4b55-8db6-e460226dbf31","ios":"levelo://app?vid=47c22245-345e-4b55-8db6-e460226dbf31"},"vehicle_type_id":"4","last_reported":1758176120,"current_range_meters":16800,"station_id":"ce4bhn92rcd13ifvqgrg","pricing_plan_id":"cebpf4jnsgd1na2vs0mg"},{"bike_id":"9d8b4944-013e-4958-9415-40d7b5ee9701","system_id":"levelo_inurba_marseille","lat":43.31581,"lon":5.38193,"is_reserved":false,"is_disabled":false,"rental_uris":{"android":"levelo://app?vid=9d8b4944-013e-4958-9415-40d7b5ee9701","ios":"levelo://app?vid=9d8b4944-013e-4958-9415-40d7b5ee9701"},"vehicle_type_id":"4","last_reported":1758176120,"current_range_meters":16800,"station_id":"","pricing_plan_id":"cebpf4jnsgd1na2vs0mg"},{"bike_id":"ebf3d983-9d52-43a2-8c8b-3fb20de22308","system_id":"levelo_inurba_marseille","lat":43.34142,"lon":5.40908,"is_reserved":false,"is_disabled":false,"rental_uris":{"android":"levelo://app?vid=ebf3d983-9d52-43a2-8c8b-3fb20de22308","ios":"levelo://app?vid=ebf3d983-9d52-43a2-8c8b-3fb20de22308"},"vehicle_type_id":"4","last_reported":1758176120,"current_range_meters":16400,"station_id":"ce4bhqh2rcd13ifvqhlg","pricing_plan_id":"cebpf4jnsgd1na2vs0mg"},{"bike_id":"7373168a-6106-45da-bd67-c5ad27bd6854","system_id":"levelo_inurba_marseille","lat":43.25936,"lon":5.40911,"is_reserved":false,"is_disabled":false,"rental_uris":{"android":"levelo://app?vid=7373168a-6106-45da-bd67-c5ad27bd6854","ios":"levelo://app?vid=7373168a-6106-45da-bd67-c5ad27bd6854"},"vehicle_type_id":"4","last_reported":1758176120,"current_range_meters":16800,"station_id":"ce4bhm92rcd13ifvqglg","pricing_plan_id":"cebpf4jnsgd1na2vs0mg"},{"bike_id":"6499745b-7b8b-4d81-afa4-ba9c05652a7b","system_id":"levelo_inurba_marseille","lat":43.28566,"lon":5.37776,"is_reserved":false,"is_disabled":false,"rental_uris":{"android":"levelo://app?vid=6499745b-7b8b-4d81-afa4-ba9c05652a7b","ios":"levelo://app?vid=6499745b-7b8b-4d81-afa4-ba9c05652a7b"},"vehicle_type_id":"4","last_reported":1758176120,"current_range_meters":16800,"station_id":"","pricing_plan_id":"cebpf4jnsgd1na2vs0mg"},{"bike_id":"b0519531-dfa9-409f-a2d0-d87440a09095","system_id":"levelo_inurba_marseille","lat":43.23155,"lon":5.43707,"is_reserved":false,"is_disabled":false,"rental_uris":{"android":"levelo://app?vid=b0519531-dfa9-409f-a2d0-d87440a09095","ios":"levelo://app?vid=b0519531-dfa9-409f-a2d0-d87440a09095"},"vehicle_type_id":"4","last_reported":1758176120,"current_range_meters":16800,"station_id":"ce4bhmp2rcd13ifvqgog","pricing_plan_id":"cebpf4jnsgd1na2vs0mg"},{"bike_id":"bd185fbb-729f-4221-8aa9-562ca885c1f5","system_id":"levelo_inurba_marseille","lat":43.22568,"lon":5.4164,"is_reserved":false,"is_disabled":false,"rental_uris":{"android":"levelo://app?vid=bd185fbb-729f-4221-8aa9-562ca885c1f5","ios":"levelo://app?vid=bd185fbb-729f-4221-8aa9-562ca885c1f5"},"vehicle_type_id":"4","last_reported":1758176120,"current_range_meters":16800,"station_id":"st_d2o4gvlbi1j2169b742g","pricing_plan_id":"cebpf4jnsgd1na2vs0mg"},{"bike_id":"79d7aadf-c300-4266-819d-901f090b58ba","system_id":"levelo_inurba_marseille","lat":43.231434,"lon":5.437235,"is_reserved":false,"is_disabled":false,"rental_uris":{"android":"levelo://app?vid=79d7aadf-c300-4266-819d-901f090b58ba","ios":"levelo://app?vid=79d7aadf-c300-4266-819d-901f090b58ba"},"vehicle_type_id":"4","last_reported":1758176120,"current_range_meters":17200,"station_id":"ce4bhmp2rcd13ifvqgog","pricing_plan_id":"cebpf4jnsgd1na2vs0mg"},{"bike_id":"3b6f29a0-9fb6-4255-b6c3-37d3d6e81da9","system_id":"levelo_inurba_marseille","lat":43.27488,"lon":5.42459,"is_reserved":false,"is_disabled":false,"rental_uris":{"android":"levelo://app?vid=3b6f29a0-9fb6-4255-b6c3-37d3d6e81da9","ios":"levelo://app?vid=3b6f29a0-9fb6-4255-b6c3-37d3d6e81da9"},"vehicle_type_id":"4","last_reported":1758176120,"current_range_meters":17200,"station_id":"ce4bhn92rcd13ifvqgrg","pricing_plan_id":"cebpf4jnsgd1na2vs0mg"},{"bike_id":"b5a2f928-a278-485a-b362-463102929971","system_id":"levelo_inurba_marseille","lat":43.31125,"lon":5.37774,"is_reserved":false,"is_disabled":false,"rental_uris":{"android":"levelo://app?vid=b5a2f928-a278-485a-b362-463102929971","ios":"levelo://app?vid=b5a2f928-a278-485a-b362-463102929971"},"vehicle_type_id":"4","last_reported":1758176120,"current_range_meters":17200,"station_id":"ce4bgt92rcd13ifvqcg0","pricing_plan_id":"cebpf4jnsgd1na2vs0mg"},{"bike_id":"401d6bf1-c635-4571-881f-63c516ca3fcd","system_id":"levelo_inurba_marseille","lat":43.23155,"lon":5.43709,"is_reserved":false,"is_disabled":false,"rental_uris":{"android":"levelo://app?vid=401d6bf1-c635-4571-881f-63c516ca3fcd","ios":"levelo://app?vid=401d6bf1-c635-4571-881f-63c516ca3fcd"},"vehicle_type_id":"4","last_reported":1758176120,"current_range_meters":17200,"station_id":"ce4bhmp2rcd13ifvqgog","pricing_plan_id":"cebpf4jnsgd1na2vs0mg"},{"bike_id":"2629186d-091d-4262-b45e-1bc42bdd62e9","system_id":"levelo_inurba_marseille","lat":43.29107,"lon":5.381374,"is_reserved":false,"is_disabled":true,"rental_uris":{"android":"levelo://app?vid=2629186d-091d-4262-b45e-1bc42bdd62e9","ios":"levelo://app?vid=2629186d-091d-4262-b45e-1bc42bdd62e9"},"vehicle_type_id":"4","last_reported":1758176120,"current_range_meters":17200,"station_id":"ce4bh512rcd13ifvqe2g","pricing_plan_id":"cebpf4jnsgd1na2vs0mg"},{"bike_id":"513f1959-53cd-4645-9e01-af1e8bc9958e","system_id":"levelo_inurba_marseille","lat":43.24392,"lon":5.37064,"is_reserved":false,"is_disabled":false,"rental_uris":{"android":"levelo://app?vid=513f1959-53cd-4645-9e01-af1e8bc9958e","ios":"levelo://app?vid=513f1959-53cd-4645-9e01-af1e8bc9958e"},"vehicle_type_id":"4","last_reported":1758176120,"current_range_meters":17600,"station_id":"ce4bhhh2rcd13ifvqfk0","pricing_plan_id":"cebpf4jnsgd1na2vs0mg"},{"bike_id":"45f6ceba-3123-4bb2-a6a1-083f1e953c55","system_id":"levelo_inurba_marseille","lat":43.30804,"lon":5.43546,"is_reserved":false,"is_disabled":false,"rental_uris":{"android":"levelo://app?vid=45f6ceba-3123-4bb2-a6a1-083f1e953c55","ios":"levelo://app?vid=45f6ceba-3123-4bb2-a6a1-083f1e953c55"},"vehicle_type_id":"4","last_reported":1758176120,"current_range_meters":17600,"station_id":"ce4bhph2rcd13ifvqheg","pricing_plan_id":"cebpf4jnsgd1na2vs0mg"},{"bike_id":"e942f984-8fe7-48d1-8f04-3806656b9996","system_id":"levelo_inurba_marseille","lat":43.33603,"lon":5.37941,"is_reserved":false,"is_disabled":false,"rental_uris":{"android":"levelo://app?vid=e942f984-8fe7-48d1-8f04-3806656b9996","ios":"levelo://app?vid=e942f984-8fe7-48d1-8f04-3806656b9996"},"vehicle_type_id":"4","last_reported":1758176120,"current_range_meters":17600,"station_id":"","pricing_plan_id":"cebpf4jnsgd1na2vs0mg"},{"bike_id":"7eed94c4-182d-4460-826b-78b4ef60c719","system_id":"levelo_inurba_marseille","lat":43.295859,"lon":5.375163,"is_reserved":false,"is_disabled":false,"rental_uris":{"android":"levelo://app?vid=7eed94c4-182d-4460-826b-78b4ef60c719","ios":"levelo://app?vid=7eed94c4-182d-4460-826b-78b4ef60c719"},"vehicle_type_id":"4","last_reported":1758176120,"current_range_meters":17600,"station_id":"","pricing_plan_id":"cebpf4jnsgd1na2vs0mg"},{"bike_id":"f9418cc9-c64d-43d9-9060-3aeedd69cdee","system_id":"levelo_inurba_marseille","lat":43.33086,"lon":5.3788,"is_reserved":false,"is_disabled":false,"rental_uris":{"android":"levelo://app?vid=f9418cc9-c64d-43d9-9060-3aeedd69cdee","ios":"levelo://app?vid=f9418cc9-c64d-43d9-9060-3aeedd69cdee"},"vehicle_type_id":"4","last_reported":1758176120,"current_range_meters":17600,"station_id":"","pricing_plan_id":"cebpf4jnsgd1na2vs0mg"},{"bike_id":"c24ad662-143d-4241-9257-5d62dc7dfa6e","system_id":"levelo_inurba_marseille","lat":43.24073,"lon":5.37738,"is_reserved":false,"is_disabled":false,"rental_uris":{"android":"levelo://app?vid=c24ad662-143d-4241-9257-5d62dc7dfa6e","ios":"levelo://app?vid=c24ad662-143d-4241-9257-5d62dc7dfa6e"},"vehicle_type_id":"4","last_reported":1758176120,"current_range_meters":17200,"station_id":"ce4bhnp2rcd13ifvqgvg","pricing_plan_id":"cebpf4jnsgd1na2vs0mg"},{"bike_id":"965cbfbf-0dea-47b1-a330-f068f124adc0","system_id":"levelo_inurba_marseille","lat":43.29899,"lon":5.43669,"is_reserved":false,"is_disabled":false,"rental_uris":{"android":"levelo://app?vid=965cbfbf-0dea-47b1-a330-f068f124adc0","ios":"levelo://app?vid=965cbfbf-0dea-47b1-a330-f068f124adc0"},"vehicle_type_id":"4","last_reported":1758176120,"current_range_meters":17200,"station_id":"ce4bhpp2rcd13ifvqhfg","pricing_plan_id":"cebpf4jnsgd1na2vs0mg"},{"bike_id":"79dd30e9-1036-4dcc-b18f-c846423441d5","system_id":"levelo_inurba_marseille","lat":43.24082,"lon":5.37775,"is_reserved":false,"is_disabled":false,"rental_uris":{"android":"levelo://app?vid=79dd30e9-1036-4dcc-b18f-c846423441d5","ios":"levelo://app?vid=79dd30e9-1036-4dcc-b18f-c846423441d5"},"vehicle_type_id":"4","last_reported":1758176120,"current_range_meters":18000,"station_id":"ce4bhnp2rcd13ifvqgvg","pricing_plan_id":"cebpf4jnsgd1na2vs0mg"},{"bike_id":"6573b148-1604-48a5-b481-093cbd7915b6","system_id":"levelo_inurba_marseille","lat":43.2997,"lon":5.38501,"is_reserved":false,"is_disabled":false,"rental_uris":{"android":"levelo://app?vid=6573b148-1604-48a5-b481-093cbd7915b6","ios":"levelo://app?vid=6573b148-1604-48a5-b481-093cbd7915b6"},"vehicle_type_id":"4","last_reported":1758176120,"current_range_meters":18000,"station_id":"ce4bgj92rcd13ifvqbd0","pricing_plan_id":"cebpf4jnsgd1na2vs0mg"},{"bike_id":"fb78ea42-e26f-45b3-a617-d3474b811b72","system_id":"levelo_inurba_marseille","lat":43.29886,"lon":5.37942,"is_reserved":false,"is_disabled":false,"rental_uris":{"android":"levelo://app?vid=fb78ea42-e26f-45b3-a617-d3474b811b72","ios":"levelo://app?vid=fb78ea42-e26f-45b3-a617-d3474b811b72"},"vehicle_type_id":"4","last_reported":1758176120,"current_range_meters":18000,"station_id":"","pricing_plan_id":"cebpf4jnsgd1na2vs0mg"},{"bike_id":"9842e96b-970f-44cc-8c5c-7fc08f8cbb9e","system_id":"levelo_inurba_marseille","lat":43.239612,"lon":5.366193,"is_reserved":false,"is_disabled":false,"rental_uris":{"android":"levelo://app?vid=9842e96b-970f-44cc-8c5c-7fc08f8cbb9e","ios":"levelo://app?vid=9842e96b-970f-44cc-8c5c-7fc08f8cbb9e"},"vehicle_type_id":"4","last_reported":1758176120,"current_range_meters":18000,"station_id":"ce4bhi12rcd13ifvqfp0","pricing_plan_id":"cebpf4jnsgd1na2vs0mg"},{"bike_id":"bb945bc0-0083-4341-bdc3-1cc8e8c582ec","system_id":"levelo_inurba_marseille","lat":43.23158,"lon":5.43703,"is_reserved":false,"is_disabled":false,"rental_uris":{"android":"levelo://app?vid=bb945bc0-0083-4341-bdc3-1cc8e8c582ec","ios":"levelo://app?vid=bb945bc0-0083-4341-bdc3-1cc8e8c582ec"},"vehicle_type_id":"4","last_reported":1758176120,"current_range_meters":18000,"station_id":"ce4bhmp2rcd13ifvqgog","pricing_plan_id":"cebpf4jnsgd1na2vs0mg"},{"bike_id":"d65baa26-0f35-46f5-ae09-e2bcec272830","system_id":"levelo_inurba_marseille","lat":43.2594,"lon":5.40901,"is_reserved":false,"is_disabled":false,"rental_uris":{"android":"levelo://app?vid=d65baa26-0f35-46f5-ae09-e2bcec272830","ios":"levelo://app?vid=d65baa26-0f35-46f5-ae09-e2bcec272830"},"vehicle_type_id":"4","last_reported":1758176120,"current_range_meters":18000,"station_id":"ce4bhm92rcd13ifvqglg","pricing_plan_id":"cebpf4jnsgd1na2vs0mg"},{"bike_id":"553f8368-9fc7-4fab-ab6b-4ab64407d3bf","system_id":"levelo_inurba_marseille","lat":43.28869,"lon":5.42512,"is_reserved":false,"is_disabled":false,"rental_uris":{"android":"levelo://app?vid=553f8368-9fc7-4fab-ab6b-4ab64407d3bf","ios":"levelo://app?vid=553f8368-9fc7-4fab-ab6b-4ab64407d3bf"},"vehicle_type_id":"4","last_reported":1758176120,"current_range_meters":18000,"station_id":"","pricing_plan_id":"cebpf4jnsgd1na2vs0mg"},{"bike_id":"6b116da7-dc15-4b7b-92c7-5c84b524f72b","system_id":"levelo_inurba_marseille","lat":43.28101,"lon":5.37851,"is_reserved":false,"is_disabled":true,"rental_uris":{"android":"levelo://app?vid=6b116da7-dc15-4b7b-92c7-5c84b524f72b","ios":"levelo://app?vid=6b116da7-dc15-4b7b-92c7-5c84b524f72b"},"vehicle_type_id":"4","last_reported":1758176120,"current_range_meters":18000,"station_id":"ce4bha12rcd13ifvqee0","pricing_plan_id":"cebpf4jnsgd1na2vs0mg"},{"bike_id":"d7865c8c-0fb7-4671-ba5e-97057a2ede1c","system_id":"levelo_inurba_marseille","lat":43.26946,"lon":5.38641,"is_reserved":false,"is_disabled":false,"rental_uris":{"android":"levelo://app?vid=d7865c8c-0fb7-4671-ba5e-97057a2ede1c","ios":"levelo://app?vid=d7865c8c-0fb7-4671-ba5e-97057a2ede1c"},"vehicle_type_id":"4","last_reported":1758176120,"current_range_meters":18800,"station_id":"ce4bhh92rcd13ifvqfh0","pricing_plan_id":"cebpf4jnsgd1na2vs0mg"},{"bike_id":"fc407023-5868-46e8-85cf-edd69ce1aa39","system_id":"levelo_inurba_marseille","lat":43.273415,"lon":5.390747,"is_reserved":false,"is_disabled":true,"rental_uris":{"android":"levelo://app?vid=fc407023-5868-46e8-85cf-edd69ce1aa39","ios":"levelo://app?vid=fc407023-5868-46e8-85cf-edd69ce1aa39"},"vehicle_type_id":"4","last_reported":1758176120,"current_range_meters":18800,"station_id":"ce4bhgp2rcd13ifvqfe0","pricing_plan_id":"cebpf4jnsgd1na2vs0mg"},{"bike_id":"2c734c36-442f-468e-ab47-e34ad5183e32","system_id":"levelo_inurba_marseille","lat":43.27256,"lon":5.38008,"is_reserved":false,"is_disabled":false,"rental_uris":{"android":"levelo://app?vid=2c734c36-442f-468e-ab47-e34ad5183e32","ios":"levelo://app?vid=2c734c36-442f-468e-ab47-e34ad5183e32"},"vehicle_type_id":"4","last_reported":1758176120,"current_range_meters":18800,"station_id":"","pricing_plan_id":"cebpf4jnsgd1na2vs0mg"},{"bike_id":"7ba6b2a0-db7c-4bda-8408-4063f8f36870","system_id":"levelo_inurba_marseille","lat":43.27078,"lon":5.40268,"is_reserved":false,"is_disabled":false,"rental_uris":{"android":"levelo://app?vid=7ba6b2a0-db7c-4bda-8408-4063f8f36870","ios":"levelo://app?vid=7ba6b2a0-db7c-4bda-8408-4063f8f36870"},"vehicle_type_id":"4","last_reported":1758176120,"current_range_meters":18800,"station_id":"ce4bhk92rcd13ifvqgc0","pricing_plan_id":"cebpf4jnsgd1na2vs0mg"},{"bike_id":"9d181f5a-58ca-49a0-bbcc-8286d3ed3228","system_id":"levelo_inurba_marseille","lat":43.31359,"lon":5.38374,"is_reserved":false,"is_disabled":false,"rental_uris":{"android":"levelo://app?vid=9d181f5a-58ca-49a0-bbcc-8286d3ed3228","ios":"levelo://app?vid=9d181f5a-58ca-49a0-bbcc-8286d3ed3228"},"vehicle_type_id":"4","last_reported":1758176120,"current_range_meters":18800,"station_id":"","pricing_plan_id":"cebpf4jnsgd1na2vs0mg"},{"bike_id":"bf6e6d27-c09e-4725-9fbc-20073fd5a515","system_id":"levelo_inurba_marseille","lat":43.289376,"lon":5.396214,"is_reserved":false,"is_disabled":false,"rental_uris":{"android":"levelo://app?vid=bf6e6d27-c09e-4725-9fbc-20073fd5a515","ios":"levelo://app?vid=bf6e6d27-c09e-4725-9fbc-20073fd5a515"},"vehicle_type_id":"4","last_reported":1758176120,"current_range_meters":18800,"station_id":"","pricing_plan_id":"cebpf4jnsgd1na2vs0mg"},{"bike_id":"40a16e10-c9dd-40a9-80de-0bbe781e2b83","system_id":"levelo_inurba_marseille","lat":43.25941,"lon":5.40901,"is_reserved":false,"is_disabled":false,"rental_uris":{"android":"levelo://app?vid=40a16e10-c9dd-40a9-80de-0bbe781e2b83","ios":"levelo://app?vid=40a16e10-c9dd-40a9-80de-0bbe781e2b83"},"vehicle_type_id":"4","last_reported":1758176120,"current_range_meters":18800,"station_id":"ce4bhm92rcd13ifvqglg","pricing_plan_id":"cebpf4jnsgd1na2vs0mg"},{"bike_id":"0960e3dd-c358-4474-bd10-8223758e1f6b","system_id":"levelo_inurba_marseille","lat":43.296996,"lon":5.376855,"is_reserved":false,"is_disabled":false,"rental_uris":{"android":"levelo://app?vid=0960e3dd-c358-4474-bd10-8223758e1f6b","ios":"levelo://app?vid=0960e3dd-c358-4474-bd10-8223758e1f6b"},"vehicle_type_id":"4","last_reported":1758176120,"current_range_meters":18800,"station_id":"","pricing_plan_id":"cebpf4jnsgd1na2vs0mg"},{"bike_id":"bd02519e-5137-4885-92f3-34abed1c59b5","system_id":"levelo_inurba_marseille","lat":43.34141,"lon":5.40908,"is_reserved":false,"is_disabled":false,"rental_uris":{"android":"levelo://app?vid=bd02519e-5137-4885-92f3-34abed1c59b5","ios":"levelo://app?vid=bd02519e-5137-4885-92f3-34abed1c59b5"},"vehicle_type_id":"4","last_reported":1758176120,"current_range_meters":19200,"station_id":"ce4bhqh2rcd13ifvqhlg","pricing_plan_id":"cebpf4jnsgd1na2vs0mg"},{"bike_id":"c1c423ba-ee6a-4ef3-8ec7-c19edbb603b9","system_id":"levelo_inurba_marseille","lat":43.23154,"lon":5.43701,"is_reserved":false,"is_disabled":false,"rental_uris":{"android":"levelo://app?vid=c1c423ba-ee6a-4ef3-8ec7-c19edbb603b9","ios":"levelo://app?vid=c1c423ba-ee6a-4ef3-8ec7-c19edbb603b9"},"vehicle_type_id":"4","last_reported":1758176120,"current_range_meters":18800,"station_id":"ce4bhmp2rcd13ifvqgog","pricing_plan_id":"cebpf4jnsgd1na2vs0mg"},{"bike_id":"ef4e99f5-fce7-4d49-94ec-ebd34d105f9f","system_id":"levelo_inurba_marseille","lat":43.24957,"lon":5.40513,"is_reserved":false,"is_disabled":false,"rental_uris":{"android":"levelo://app?vid=ef4e99f5-fce7-4d49-94ec-ebd34d105f9f","ios":"levelo://app?vid=ef4e99f5-fce7-4d49-94ec-ebd34d105f9f"},"vehicle_type_id":"4","last_reported":1758176120,"current_range_meters":19200,"station_id":"st_d2ngiaodas8pm72gd1h0","pricing_plan_id":"cebpf4jnsgd1na2vs0mg"},{"bike_id":"c8dba32d-5874-475a-8590-f1962b5dc97f","system_id":"levelo_inurba_marseille","lat":43.2592,"lon":5.40867,"is_reserved":false,"is_disabled":false,"rental_uris":{"android":"levelo://app?vid=c8dba32d-5874-475a-8590-f1962b5dc97f","ios":"levelo://app?vid=c8dba32d-5874-475a-8590-f1962b5dc97f"},"vehicle_type_id":"4","last_reported":1758176120,"current_range_meters":19600,"station_id":"ce4bhm92rcd13ifvqglg","pricing_plan_id":"cebpf4jnsgd1na2vs0mg"},{"bike_id":"d56ea0e0-fccc-4049-93b8-77ace5c73dd1","system_id":"levelo_inurba_marseille","lat":43.27841,"lon":5.385123,"is_reserved":false,"is_disabled":false,"rental_uris":{"android":"levelo://app?vid=d56ea0e0-fccc-4049-93b8-77ace5c73dd1","ios":"levelo://app?vid=d56ea0e0-fccc-4049-93b8-77ace5c73dd1"},"vehicle_type_id":"4","last_reported":1758176120,"current_range_meters":19600,"station_id":"","pricing_plan_id":"cebpf4jnsgd1na2vs0mg"},{"bike_id":"4cb6774a-f732-4788-b580-425b07f14d7e","system_id":"levelo_inurba_marseille","lat":43.292335,"lon":5.360615,"is_reserved":false,"is_disabled":false,"rental_uris":{"android":"levelo://app?vid=4cb6774a-f732-4788-b580-425b07f14d7e","ios":"levelo://app?vid=4cb6774a-f732-4788-b580-425b07f14d7e"},"vehicle_type_id":"4","last_reported":1758176120,"current_range_meters":19600,"station_id":"","pricing_plan_id":"cebpf4jnsgd1na2vs0mg"},{"bike_id":"435ff4e0-8d24-4c74-8dc1-b1d8f315f71c","system_id":"levelo_inurba_marseille","lat":43.27472,"lon":5.4245,"is_reserved":false,"is_disabled":false,"rental_uris":{"android":"levelo://app?vid=435ff4e0-8d24-4c74-8dc1-b1d8f315f71c","ios":"levelo://app?vid=435ff4e0-8d24-4c74-8dc1-b1d8f315f71c"},"vehicle_type_id":"4","last_reported":1758176120,"current_range_meters":19600,"station_id":"ce4bhn92rcd13ifvqgrg","pricing_plan_id":"cebpf4jnsgd1na2vs0mg"},{"bike_id":"5ae8198b-0701-40a4-9083-0a43c75d986b","system_id":"levelo_inurba_marseille","lat":43.2926,"lon":5.37674,"is_reserved":false,"is_disabled":true,"rental_uris":{"android":"levelo://app?vid=5ae8198b-0701-40a4-9083-0a43c75d986b","ios":"levelo://app?vid=5ae8198b-0701-40a4-9083-0a43c75d986b"},"vehicle_type_id":"4","last_reported":1758176120,"current_range_meters":19600,"station_id":"ce4bgi12rcd13ifvqb80","pricing_plan_id":"cebpf4jnsgd1na2vs0mg"},{"bike_id":"32bad0a0-410f-4bd9-a9f8-4140049937bd","system_id":"levelo_inurba_marseille","lat":43.28119,"lon":5.43231,"is_reserved":false,"is_disabled":false,"rental_uris":{"android":"levelo://app?vid=32bad0a0-410f-4bd9-a9f8-4140049937bd","ios":"levelo://app?vid=32bad0a0-410f-4bd9-a9f8-4140049937bd"},"vehicle_type_id":"4","last_reported":1758176120,"current_range_meters":19600,"station_id":"","pricing_plan_id":"cebpf4jnsgd1na2vs0mg"},{"bike_id":"9b77757b-a8f2-4c93-a14e-e6083861628a","system_id":"levelo_inurba_marseille","lat":43.21752,"lon":5.34606,"is_reserved":false,"is_disabled":false,"rental_uris":{"android":"levelo://app?vid=9b77757b-a8f2-4c93-a14e-e6083861628a","ios":"levelo://app?vid=9b77757b-a8f2-4c93-a14e-e6083861628a"},"vehicle_type_id":"4","last_reported":1758176120,"current_range_meters":19600,"station_id":"st_cvj6r9ubvosntc0bgbag","pricing_plan_id":"cebpf4jnsgd1na2vs0mg"},{"bike_id":"ce32f025-48b1-4067-abbf-093007b41034","system_id":"levelo_inurba_marseille","lat":43.28615,"lon":5.37064,"is_reserved":false,"is_disabled":false,"rental_uris":{"android":"levelo://app?vid=ce32f025-48b1-4067-abbf-093007b41034","ios":"levelo://app?vid=ce32f025-48b1-4067-abbf-093007b41034"},"vehicle_type_id":"4","last_reported":1758176120,"current_range_meters":19600,"station_id":"ce4bht12rcd13ifvqi60","pricing_plan_id":"cebpf4jnsgd1na2vs0mg"},{"bike_id":"b10dee2c-6835-4d9a-a95c-bee0c824800a","system_id":"levelo_inurba_marseille","lat":43.26954,"lon":5.38648,"is_reserved":false,"is_disabled":false,"rental_uris":{"android":"levelo://app?vid=b10dee2c-6835-4d9a-a95c-bee0c824800a","ios":"levelo://app?vid=b10dee2c-6835-4d9a-a95c-bee0c824800a"},"vehicle_type_id":"4","last_reported":1758176120,"current_range_meters":20000,"station_id":"ce4bhh92rcd13ifvqfh0","pricing_plan_id":"cebpf4jnsgd1na2vs0mg"},{"bike_id":"a6409c60-ed02-4982-8145-e0aed5116a28","system_id":"levelo_inurba_marseille","lat":43.27514,"lon":5.42482,"is_reserved":false,"is_disabled":false,"rental_uris":{"android":"levelo://app?vid=a6409c60-ed02-4982-8145-e0aed5116a28","ios":"levelo://app?vid=a6409c60-ed02-4982-8145-e0aed5116a28"},"vehicle_type_id":"4","last_reported":1758176120,"current_range_meters":20000,"station_id":"ce4bhn92rcd13ifvqgrg","pricing_plan_id":"cebpf4jnsgd1na2vs0mg"},{"bike_id":"2c664d9e-f9a8-4a6a-8400-da79db47185e","system_id":"levelo_inurba_marseille","lat":43.22556,"lon":5.41632,"is_reserved":false,"is_disabled":false,"rental_uris":{"android":"levelo://app?vid=2c664d9e-f9a8-4a6a-8400-da79db47185e","ios":"levelo://app?vid=2c664d9e-f9a8-4a6a-8400-da79db47185e"},"vehicle_type_id":"4","last_reported":1758176120,"current_range_meters":20000,"station_id":"st_d2o4gvlbi1j2169b742g","pricing_plan_id":"cebpf4jnsgd1na2vs0mg"},{"bike_id":"f85a8c4d-f9d0-4136-9b57-8bfb28db950c","system_id":"levelo_inurba_marseille","lat":43.31902,"lon":5.37432,"is_reserved":false,"is_disabled":false,"rental_uris":{"android":"levelo://app?vid=f85a8c4d-f9d0-4136-9b57-8bfb28db950c","ios":"levelo://app?vid=f85a8c4d-f9d0-4136-9b57-8bfb28db950c"},"vehicle_type_id":"4","last_reported":1758176120,"current_range_meters":20400,"station_id":"","pricing_plan_id":"cebpf4jnsgd1na2vs0mg"},{"bike_id":"f688d35d-8d9b-4e7c-88d0-98f63bd44f2d","system_id":"levelo_inurba_marseille","lat":43.34142,"lon":5.40896,"is_reserved":false,"is_disabled":false,"rental_uris":{"android":"levelo://app?vid=f688d35d-8d9b-4e7c-88d0-98f63bd44f2d","ios":"levelo://app?vid=f688d35d-8d9b-4e7c-88d0-98f63bd44f2d"},"vehicle_type_id":"4","last_reported":1758176120,"current_range_meters":18800,"station_id":"ce4bhqh2rcd13ifvqhlg","pricing_plan_id":"cebpf4jnsgd1na2vs0mg"},{"bike_id":"64863f3b-e7e3-4571-b322-e1fbd1bff012","system_id":"levelo_inurba_marseille","lat":43.290453,"lon":5.399684,"is_reserved":false,"is_disabled":false,"rental_uris":{"android":"levelo://app?vid=64863f3b-e7e3-4571-b322-e1fbd1bff012","ios":"levelo://app?vid=64863f3b-e7e3-4571-b322-e1fbd1bff012"},"vehicle_type_id":"4","last_reported":1758176120,"current_range_meters":20400,"station_id":"ce4bh392rcd13ifvqdm0","pricing_plan_id":"cebpf4jnsgd1na2vs0mg"},{"bike_id":"50e16c80-85d7-472e-87d8-b23869972ed1","system_id":"levelo_inurba_marseille","lat":43.25935,"lon":5.40911,"is_reserved":false,"is_disabled":false,"rental_uris":{"android":"levelo://app?vid=50e16c80-85d7-472e-87d8-b23869972ed1","ios":"levelo://app?vid=50e16c80-85d7-472e-87d8-b23869972ed1"},"vehicle_type_id":"4","last_reported":1758176120,"current_range_meters":20400,"station_id":"ce4bhm92rcd13ifvqglg","pricing_plan_id":"cebpf4jnsgd1na2vs0mg"},{"bike_id":"385e191b-c1ca-4406-9cf0-05fe9a796293","system_id":"levelo_inurba_marseille","lat":43.29798,"lon":5.381,"is_reserved":false,"is_disabled":false,"rental_uris":{"android":"levelo://app?vid=385e191b-c1ca-4406-9cf0-05fe9a796293","ios":"levelo://app?vid=385e191b-c1ca-4406-9cf0-05fe9a796293"},"vehicle_type_id":"4","last_reported":1758176120,"current_range_meters":20800,"station_id":"","pricing_plan_id":"cebpf4jnsgd1na2vs0mg"},{"bike_id":"a29bfb55-c669-4216-9158-727a040eda5e","system_id":"levelo_inurba_marseille","lat":43.27182,"lon":5.40998,"is_reserved":false,"is_disabled":false,"rental_uris":{"android":"levelo://app?vid=a29bfb55-c669-4216-9158-727a040eda5e","ios":"levelo://app?vid=a29bfb55-c669-4216-9158-727a040eda5e"},"vehicle_type_id":"4","last_reported":1758176120,"current_range_meters":20800,"station_id":"ce4bhl12rcd13ifvqgf0","pricing_plan_id":"cebpf4jnsgd1na2vs0mg"},{"bike_id":"840ad4f0-89ee-4ae6-81ef-b8fc76a3f309","system_id":"levelo_inurba_marseille","lat":43.30294,"lon":5.39227,"is_reserved":false,"is_disabled":false,"rental_uris":{"android":"levelo://app?vid=840ad4f0-89ee-4ae6-81ef-b8fc76a3f309","ios":"levelo://app?vid=840ad4f0-89ee-4ae6-81ef-b8fc76a3f309"},"vehicle_type_id":"4","last_reported":1758176120,"current_range_meters":20800,"station_id":"ce4bgkh2rcd13ifvqbk0","pricing_plan_id":"cebpf4jnsgd1na2vs0mg"},{"bike_id":"fa8eeefd-d9d3-4c9a-ba3c-59c7f6465b28","system_id":"levelo_inurba_marseille","lat":43.276169,"lon":5.361012,"is_reserved":false,"is_disabled":false,"rental_uris":{"android":"levelo://app?vid=fa8eeefd-d9d3-4c9a-ba3c-59c7f6465b28","ios":"levelo://app?vid=fa8eeefd-d9d3-4c9a-ba3c-59c7f6465b28"},"vehicle_type_id":"4","last_reported":1758176120,"current_range_meters":20800,"station_id":"ce4bgj92rcd13ifvqbe0","pricing_plan_id":"cebpf4jnsgd1na2vs0mg"},{"bike_id":"45b8914a-e321-4fe4-8eae-7573dac27ce2","system_id":"levelo_inurba_marseille","lat":43.23147,"lon":5.43719,"is_reserved":false,"is_disabled":false,"rental_uris":{"android":"levelo://app?vid=45b8914a-e321-4fe4-8eae-7573dac27ce2","ios":"levelo://app?vid=45b8914a-e321-4fe4-8eae-7573dac27ce2"},"vehicle_type_id":"4","last_reported":1758176120,"current_range_meters":20800,"station_id":"ce4bhmp2rcd13ifvqgog","pricing_plan_id":"cebpf4jnsgd1na2vs0mg"},{"bike_id":"415f1da2-da0d-498a-9edc-1550913c98ee","system_id":"levelo_inurba_marseille","lat":43.282699,"lon":5.350623,"is_reserved":false,"is_disabled":false,"rental_uris":{"android":"levelo://app?vid=415f1da2-da0d-498a-9edc-1550913c98ee","ios":"levelo://app?vid=415f1da2-da0d-498a-9edc-1550913c98ee"},"vehicle_type_id":"4","last_reported":1758176120,"current_range_meters":20800,"station_id":"ce4bhbp2rcd13ifvqerg","pricing_plan_id":"cebpf4jnsgd1na2vs0mg"},{"bike_id":"0de26077-3d5a-45cf-9ae4-72056268d876","system_id":"levelo_inurba_marseille","lat":43.254983,"lon":5.376473,"is_reserved":false,"is_disabled":false,"rental_uris":{"android":"levelo://app?vid=0de26077-3d5a-45cf-9ae4-72056268d876","ios":"levelo://app?vid=0de26077-3d5a-45cf-9ae4-72056268d876"},"vehicle_type_id":"4","last_reported":1758176120,"current_range_meters":20800,"station_id":"","pricing_plan_id":"cebpf4jnsgd1na2vs0mg"},{"bike_id":"9906d2e3-8185-422e-9d5d-4444259e1d78","system_id":"levelo_inurba_marseille","lat":43.29046,"lon":5.39974,"is_reserved":false,"is_disabled":false,"rental_uris":{"android":"levelo://app?vid=9906d2e3-8185-422e-9d5d-4444259e1d78","ios":"levelo://app?vid=9906d2e3-8185-422e-9d5d-4444259e1d78"},"vehicle_type_id":"4","last_reported":1758176120,"current_range_meters":20800,"station_id":"ce4bh392rcd13ifvqdm0","pricing_plan_id":"cebpf4jnsgd1na2vs0mg"},{"bike_id":"2b71aeb6-9975-49ef-91cb-594905aa4d79","system_id":"levelo_inurba_marseille","lat":43.27498,"lon":5.42453,"is_reserved":false,"is_disabled":false,"rental_uris":{"android":"levelo://app?vid=2b71aeb6-9975-49ef-91cb-594905aa4d79","ios":"levelo://app?vid=2b71aeb6-9975-49ef-91cb-594905aa4d79"},"vehicle_type_id":"4","last_reported":1758176120,"current_range_meters":20800,"station_id":"ce4bhn92rcd13ifvqgrg","pricing_plan_id":"cebpf4jnsgd1na2vs0mg"},{"bike_id":"c3529636-2531-4062-8f65-5d2b63d15133","system_id":"levelo_inurba_marseille","lat":43.27492,"lon":5.42458,"is_reserved":false,"is_disabled":false,"rental_uris":{"android":"levelo://app?vid=c3529636-2531-4062-8f65-5d2b63d15133","ios":"levelo://app?vid=c3529636-2531-4062-8f65-5d2b63d15133"},"vehicle_type_id":"4","last_reported":1758176120,"current_range_meters":21600,"station_id":"ce4bhn92rcd13ifvqgrg","pricing_plan_id":"cebpf4jnsgd1na2vs0mg"},{"bike_id":"b9ae8c93-c745-413a-9386-68df571f8cad","system_id":"levelo_inurba_marseille","lat":43.21743,"lon":5.34578,"is_reserved":false,"is_disabled":false,"rental_uris":{"android":"levelo://app?vid=b9ae8c93-c745-413a-9386-68df571f8cad","ios":"levelo://app?vid=b9ae8c93-c745-413a-9386-68df571f8cad"},"vehicle_type_id":"4","last_reported":1758176120,"current_range_meters":21600,"station_id":"","pricing_plan_id":"cebpf4jnsgd1na2vs0mg"},{"bike_id":"939d2df9-e1af-42ce-93f9-cecaa01b9004","system_id":"levelo_inurba_marseille","lat":43.33244,"lon":5.41102,"is_reserved":false,"is_disabled":false,"rental_uris":{"android":"levelo://app?vid=939d2df9-e1af-42ce-93f9-cecaa01b9004","ios":"levelo://app?vid=939d2df9-e1af-42ce-93f9-cecaa01b9004"},"vehicle_type_id":"4","last_reported":1758176120,"current_range_meters":21600,"station_id":"","pricing_plan_id":"cebpf4jnsgd1na2vs0mg"},{"bike_id":"f0cc8c7b-a6ee-4b8f-9fc1-64d64015a662","system_id":"levelo_inurba_marseille","lat":43.321158,"lon":5.367722,"is_reserved":false,"is_disabled":false,"rental_uris":{"android":"levelo://app?vid=f0cc8c7b-a6ee-4b8f-9fc1-64d64015a662","ios":"levelo://app?vid=f0cc8c7b-a6ee-4b8f-9fc1-64d64015a662"},"vehicle_type_id":"4","last_reported":1758176120,"current_range_meters":21600,"station_id":"ce4bhrh2rcd13ifvqhug","pricing_plan_id":"cebpf4jnsgd1na2vs0mg"},{"bike_id":"8455a810-3c7b-4e99-bee1-51697042a6fa","system_id":"levelo_inurba_marseille","lat":43.33768,"lon":5.37467,"is_reserved":false,"is_disabled":false,"rental_uris":{"android":"levelo://app?vid=8455a810-3c7b-4e99-bee1-51697042a6fa","ios":"levelo://app?vid=8455a810-3c7b-4e99-bee1-51697042a6fa"},"vehicle_type_id":"4","last_reported":1758176120,"current_range_meters":21600,"station_id":"","pricing_plan_id":"cebpf4jnsgd1na2vs0mg"},{"bike_id":"c55149d1-3b14-4190-9685-929bf5d49c1e","system_id":"levelo_inurba_marseille","lat":43.21751,"lon":5.346,"is_reserved":false,"is_disabled":false,"rental_uris":{"android":"levelo://app?vid=c55149d1-3b14-4190-9685-929bf5d49c1e","ios":"levelo://app?vid=c55149d1-3b14-4190-9685-929bf5d49c1e"},"vehicle_type_id":"4","last_reported":1758176120,"current_range_meters":22000,"station_id":"st_cvj6r9ubvosntc0bgbag","pricing_plan_id":"cebpf4jnsgd1na2vs0mg"},{"bike_id":"91d7fe7c-c61e-4eb9-a437-54937a9c5eab","system_id":"levelo_inurba_marseille","lat":43.31488,"lon":5.37342,"is_reserved":false,"is_disabled":false,"rental_uris":{"android":"levelo://app?vid=91d7fe7c-c61e-4eb9-a437-54937a9c5eab","ios":"levelo://app?vid=91d7fe7c-c61e-4eb9-a437-54937a9c5eab"},"vehicle_type_id":"4","last_reported":1758176120,"current_range_meters":22000,"station_id":"ce4bgt12rcd13ifvqcd0","pricing_plan_id":"cebpf4jnsgd1na2vs0mg"},{"bike_id":"2d0fc671-dd49-494b-af19-460e11c7ae41","system_id":"levelo_inurba_marseille","lat":43.279912,"lon":5.416562,"is_reserved":false,"is_disabled":false,"rental_uris":{"android":"levelo://app?vid=2d0fc671-dd49-494b-af19-460e11c7ae41","ios":"levelo://app?vid=2d0fc671-dd49-494b-af19-460e11c7ae41"},"vehicle_type_id":"4","last_reported":1758176120,"current_range_meters":22000,"station_id":"ce4bho12rcd13ifvqh1g","pricing_plan_id":"cebpf4jnsgd1na2vs0mg"},{"bike_id":"d41a2866-7039-4128-b92d-69e0c84d4559","system_id":"levelo_inurba_marseille","lat":43.27566,"lon":5.38433,"is_reserved":false,"is_disabled":false,"rental_uris":{"android":"levelo://app?vid=d41a2866-7039-4128-b92d-69e0c84d4559","ios":"levelo://app?vid=d41a2866-7039-4128-b92d-69e0c84d4559"},"vehicle_type_id":"4","last_reported":1758176120,"current_range_meters":22000,"station_id":"ce4bhh92rcd13ifvqfi0","pricing_plan_id":"cebpf4jnsgd1na2vs0mg"},{"bike_id":"6c041fd8-c79d-4610-ad95-c003c7c3f921","system_id":"levelo_inurba_marseille","lat":43.32953,"lon":5.39275,"is_reserved":false,"is_disabled":true,"rental_uris":{"android":"levelo://app?vid=6c041fd8-c79d-4610-ad95-c003c7c3f921","ios":"levelo://app?vid=6c041fd8-c79d-4610-ad95-c003c7c3f921"},"vehicle_type_id":"4","last_reported":1758176120,"current_range_meters":22000,"station_id":"","pricing_plan_id":"cebpf4jnsgd1na2vs0mg"},{"bike_id":"74acebc0-fcbb-4ac8-9f69-ad7ce747289a","system_id":"levelo_inurba_marseille","lat":43.24176,"lon":5.39726,"is_reserved":false,"is_disabled":false,"rental_uris":{"android":"levelo://app?vid=74acebc0-fcbb-4ac8-9f69-ad7ce747289a","ios":"levelo://app?vid=74acebc0-fcbb-4ac8-9f69-ad7ce747289a"},"vehicle_type_id":"4","last_reported":1758176120,"current_range_meters":22000,"station_id":"ce4bhn12rcd13ifvqgpg","pricing_plan_id":"cebpf4jnsgd1na2vs0mg"},{"bike_id":"74ca63b8-846f-4e1e-accd-d5e26d84e612","system_id":"levelo_inurba_marseille","lat":43.31497,"lon":5.37315,"is_reserved":false,"is_disabled":false,"rental_uris":{"android":"levelo://app?vid=74ca63b8-846f-4e1e-accd-d5e26d84e612","ios":"levelo://app?vid=74ca63b8-846f-4e1e-accd-d5e26d84e612"},"vehicle_type_id":"4","last_reported":1758176120,"current_range_meters":22000,"station_id":"ce4bgt12rcd13ifvqcd0","pricing_plan_id":"cebpf4jnsgd1na2vs0mg"},{"bike_id":"a0b02959-08f6-4e79-a260-4812f6d23b86","system_id":"levelo_inurba_marseille","lat":43.289491,"lon":5.363863,"is_reserved":false,"is_disabled":false,"rental_uris":{"android":"levelo://app?vid=a0b02959-08f6-4e79-a260-4812f6d23b86","ios":"levelo://app?vid=a0b02959-08f6-4e79-a260-4812f6d23b86"},"vehicle_type_id":"4","last_reported":1758176120,"current_range_meters":22000,"station_id":"ce4bhc92rcd13ifvqetg","pricing_plan_id":"cebpf4jnsgd1na2vs0mg"},{"bike_id":"c4706891-6ce1-4440-91ff-a3ecf2ff007e","system_id":"levelo_inurba_marseille","lat":43.26374,"lon":5.40075,"is_reserved":false,"is_disabled":false,"rental_uris":{"android":"levelo://app?vid=c4706891-6ce1-4440-91ff-a3ecf2ff007e","ios":"levelo://app?vid=c4706891-6ce1-4440-91ff-a3ecf2ff007e"},"vehicle_type_id":"4","last_reported":1758176120,"current_range_meters":22400,"station_id":"","pricing_plan_id":"cebpf4jnsgd1na2vs0mg"},{"bike_id":"3c59fca0-1e43-4d43-bb61-7c7933df9473","system_id":"levelo_inurba_marseille","lat":43.29957,"lon":5.37759,"is_reserved":false,"is_disabled":false,"rental_uris":{"android":"levelo://app?vid=3c59fca0-1e43-4d43-bb61-7c7933df9473","ios":"levelo://app?vid=3c59fca0-1e43-4d43-bb61-7c7933df9473"},"vehicle_type_id":"4","last_reported":1758176120,"current_range_meters":22400,"station_id":"","pricing_plan_id":"cebpf4jnsgd1na2vs0mg"},{"bike_id":"93c46886-4b1d-4ebe-9c54-eead91fe0ebd","system_id":"levelo_inurba_marseille","lat":43.275,"lon":5.42433,"is_reserved":false,"is_disabled":false,"rental_uris":{"android":"levelo://app?vid=93c46886-4b1d-4ebe-9c54-eead91fe0ebd","ios":"levelo://app?vid=93c46886-4b1d-4ebe-9c54-eead91fe0ebd"},"vehicle_type_id":"4","last_reported":1758176120,"current_range_meters":20400,"station_id":"ce4bhn92rcd13ifvqgrg","pricing_plan_id":"cebpf4jnsgd1na2vs0mg"},{"bike_id":"66a3da1f-dd9a-43e3-af75-68882f7670e5","system_id":"levelo_inurba_marseille","lat":43.22531,"lon":5.348338,"is_reserved":false,"is_disabled":false,"rental_uris":{"android":"levelo://app?vid=66a3da1f-dd9a-43e3-af75-68882f7670e5","ios":"levelo://app?vid=66a3da1f-dd9a-43e3-af75-68882f7670e5"},"vehicle_type_id":"4","last_reported":1758176120,"current_range_meters":22400,"station_id":"","pricing_plan_id":"cebpf4jnsgd1na2vs0mg"},{"bike_id":"86e5ba30-507f-4c89-a69e-9e1354374df6","system_id":"levelo_inurba_marseille","lat":43.28727,"lon":5.40009,"is_reserved":false,"is_disabled":false,"rental_uris":{"android":"levelo://app?vid=86e5ba30-507f-4c89-a69e-9e1354374df6","ios":"levelo://app?vid=86e5ba30-507f-4c89-a69e-9e1354374df6"},"vehicle_type_id":"4","last_reported":1758176120,"current_range_meters":22400,"station_id":"ce4bho92rcd13ifvqh3g","pricing_plan_id":"cebpf4jnsgd1na2vs0mg"},{"bike_id":"835975a0-27c7-47e7-bc1c-b8ba0b505127","system_id":"levelo_inurba_marseille","lat":43.325892,"lon":5.378058,"is_reserved":false,"is_disabled":false,"rental_uris":{"android":"levelo://app?vid=835975a0-27c7-47e7-bc1c-b8ba0b505127","ios":"levelo://app?vid=835975a0-27c7-47e7-bc1c-b8ba0b505127"},"vehicle_type_id":"4","last_reported":1758176120,"current_range_meters":22400,"station_id":"","pricing_plan_id":"cebpf4jnsgd1na2vs0mg"},{"bike_id":"af99d02a-6a78-4d7b-b0f8-3027d1fd7e28","system_id":"levelo_inurba_marseille","lat":43.27497,"lon":5.42436,"is_reserved":false,"is_disabled":false,"rental_uris":{"android":"levelo://app?vid=af99d02a-6a78-4d7b-b0f8-3027d1fd7e28","ios":"levelo://app?vid=af99d02a-6a78-4d7b-b0f8-3027d1fd7e28"},"vehicle_type_id":"4","last_reported":1758176120,"current_range_meters":22400,"station_id":"ce4bhn92rcd13ifvqgrg","pricing_plan_id":"cebpf4jnsgd1na2vs0mg"},{"bike_id":"ad675ead-ad1b-49e4-ae2c-02edd2e38df2","system_id":"levelo_inurba_marseille","lat":43.29095,"lon":5.38125,"is_reserved":false,"is_disabled":false,"rental_uris":{"android":"levelo://app?vid=ad675ead-ad1b-49e4-ae2c-02edd2e38df2","ios":"levelo://app?vid=ad675ead-ad1b-49e4-ae2c-02edd2e38df2"},"vehicle_type_id":"4","last_reported":1758176120,"current_range_meters":22400,"station_id":"ce4bh512rcd13ifvqe2g","pricing_plan_id":"cebpf4jnsgd1na2vs0mg"},{"bike_id":"af92115d-6f7a-49ce-a65e-77f9182df835","system_id":"levelo_inurba_marseille","lat":43.21769,"lon":5.34638,"is_reserved":false,"is_disabled":true,"rental_uris":{"android":"levelo://app?vid=af92115d-6f7a-49ce-a65e-77f9182df835","ios":"levelo://app?vid=af92115d-6f7a-49ce-a65e-77f9182df835"},"vehicle_type_id":"4","last_reported":1758176120,"current_range_meters":22800,"station_id":"st_cvj6r9ubvosntc0bgbag","pricing_plan_id":"cebpf4jnsgd1na2vs0mg"},{"bike_id":"4ae36f82-a200-4272-8bd6-e8f3f3eaea64","system_id":"levelo_inurba_marseille","lat":43.29612,"lon":5.381,"is_reserved":false,"is_disabled":false,"rental_uris":{"android":"levelo://app?vid=4ae36f82-a200-4272-8bd6-e8f3f3eaea64","ios":"levelo://app?vid=4ae36f82-a200-4272-8bd6-e8f3f3eaea64"},"vehicle_type_id":"4","last_reported":1758176120,"current_range_meters":22800,"station_id":"","pricing_plan_id":"cebpf4jnsgd1na2vs0mg"},{"bike_id":"1daea8f2-12aa-43f7-bf32-69b86bcfbd61","system_id":"levelo_inurba_marseille","lat":43.29799,"lon":5.38097,"is_reserved":false,"is_disabled":false,"rental_uris":{"android":"levelo://app?vid=1daea8f2-12aa-43f7-bf32-69b86bcfbd61","ios":"levelo://app?vid=1daea8f2-12aa-43f7-bf32-69b86bcfbd61"},"vehicle_type_id":"4","last_reported":1758176120,"current_range_meters":22800,"station_id":"ce4bgip2rcd13ifvqbb0","pricing_plan_id":"cebpf4jnsgd1na2vs0mg"},{"bike_id":"78e3b2be-95b2-4592-8bfa-2eb395633dc3","system_id":"levelo_inurba_marseille","lat":43.27807,"lon":5.42809,"is_reserved":false,"is_disabled":false,"rental_uris":{"android":"levelo://app?vid=78e3b2be-95b2-4592-8bfa-2eb395633dc3","ios":"levelo://app?vid=78e3b2be-95b2-4592-8bfa-2eb395633dc3"},"vehicle_type_id":"4","last_reported":1758176120,"current_range_meters":23200,"station_id":"","pricing_plan_id":"cebpf4jnsgd1na2vs0mg"},{"bike_id":"f99babd2-b87b-4d94-a596-ced0689cc974","system_id":"levelo_inurba_marseille","lat":43.24074,"lon":5.37758,"is_reserved":false,"is_disabled":false,"rental_uris":{"android":"levelo://app?vid=f99babd2-b87b-4d94-a596-ced0689cc974","ios":"levelo://app?vid=f99babd2-b87b-4d94-a596-ced0689cc974"},"vehicle_type_id":"4","last_reported":1758176120,"current_range_meters":23200,"station_id":"ce4bhnp2rcd13ifvqgvg","pricing_plan_id":"cebpf4jnsgd1na2vs0mg"},{"bike_id":"71b91fb2-90ba-48c7-a90c-5863a07b1098","system_id":"levelo_inurba_marseille","lat":43.3414,"lon":5.40912,"is_reserved":false,"is_disabled":false,"rental_uris":{"android":"levelo://app?vid=71b91fb2-90ba-48c7-a90c-5863a07b1098","ios":"levelo://app?vid=71b91fb2-90ba-48c7-a90c-5863a07b1098"},"vehicle_type_id":"4","last_reported":1758176120,"current_range_meters":23200,"station_id":"ce4bhqh2rcd13ifvqhlg","pricing_plan_id":"cebpf4jnsgd1na2vs0mg"},{"bike_id":"816ec06c-780c-4eae-b7d6-4a30263cd8c1","system_id":"levelo_inurba_marseille","lat":43.30144,"lon":5.37412,"is_reserved":false,"is_disabled":false,"rental_uris":{"android":"levelo://app?vid=816ec06c-780c-4eae-b7d6-4a30263cd8c1","ios":"levelo://app?vid=816ec06c-780c-4eae-b7d6-4a30263cd8c1"},"vehicle_type_id":"4","last_reported":1758176120,"current_range_meters":23200,"station_id":"ce4bgup2rcd13ifvqcn0","pricing_plan_id":"cebpf4jnsgd1na2vs0mg"},{"bike_id":"b7b13eff-41e2-4095-9b6e-f9b148928896","system_id":"levelo_inurba_marseille","lat":43.28863,"lon":5.39301,"is_reserved":false,"is_disabled":true,"rental_uris":{"android":"levelo://app?vid=b7b13eff-41e2-4095-9b6e-f9b148928896","ios":"levelo://app?vid=b7b13eff-41e2-4095-9b6e-f9b148928896"},"vehicle_type_id":"4","last_reported":1758176120,"current_range_meters":23200,"station_id":"ce4bh2p2rcd13ifvqdi0","pricing_plan_id":"cebpf4jnsgd1na2vs0mg"},{"bike_id":"cf81e322-c44d-449e-8f1d-da3ee36f3155","system_id":"levelo_inurba_marseille","lat":43.30928,"lon":5.40159,"is_reserved":false,"is_disabled":true,"rental_uris":{"android":"levelo://app?vid=cf81e322-c44d-449e-8f1d-da3ee36f3155","ios":"levelo://app?vid=cf81e322-c44d-449e-8f1d-da3ee36f3155"},"vehicle_type_id":"4","last_reported":1758176120,"current_range_meters":23200,"station_id":"ce4bgvp2rcd13ifvqct0","pricing_plan_id":"cebpf4jnsgd1na2vs0mg"},{"bike_id":"231c686c-b1d3-4d5c-8514-09ee5467a0f2","system_id":"levelo_inurba_marseille","lat":43.26063,"lon":5.39404,"is_reserved":false,"is_disabled":false,"rental_uris":{"android":"levelo://app?vid=231c686c-b1d3-4d5c-8514-09ee5467a0f2","ios":"levelo://app?vid=231c686c-b1d3-4d5c-8514-09ee5467a0f2"},"vehicle_type_id":"4","last_reported":1758176120,"current_range_meters":22800,"station_id":"ce4bhh92rcd13ifvqfj0","pricing_plan_id":"cebpf4jnsgd1na2vs0mg"},{"bike_id":"5f740a17-f1f8-45f4-8b81-72da85345470","system_id":"levelo_inurba_marseille","lat":43.24954,"lon":5.40498,"is_reserved":false,"is_disabled":false,"rental_uris":{"android":"levelo://app?vid=5f740a17-f1f8-45f4-8b81-72da85345470","ios":"levelo://app?vid=5f740a17-f1f8-45f4-8b81-72da85345470"},"vehicle_type_id":"4","last_reported":1758176120,"current_range_meters":23200,"station_id":"st_d2ngiaodas8pm72gd1h0","pricing_plan_id":"cebpf4jnsgd1na2vs0mg"},{"bike_id":"14beb8ea-5fb5-43b7-8c2a-0ca4c80d2872","system_id":"levelo_inurba_marseille","lat":43.275,"lon":5.42449,"is_reserved":false,"is_disabled":false,"rental_uris":{"android":"levelo://app?vid=14beb8ea-5fb5-43b7-8c2a-0ca4c80d2872","ios":"levelo://app?vid=14beb8ea-5fb5-43b7-8c2a-0ca4c80d2872"},"vehicle_type_id":"4","last_reported":1758176120,"current_range_meters":23200,"station_id":"ce4bhn92rcd13ifvqgrg","pricing_plan_id":"cebpf4jnsgd1na2vs0mg"},{"bike_id":"5f578bde-f2e9-4adf-a307-9cf7a7d32656","system_id":"levelo_inurba_marseille","lat":43.26224,"lon":5.40458,"is_reserved":false,"is_disabled":false,"rental_uris":{"android":"levelo://app?vid=5f578bde-f2e9-4adf-a307-9cf7a7d32656","ios":"levelo://app?vid=5f578bde-f2e9-4adf-a307-9cf7a7d32656"},"vehicle_type_id":"4","last_reported":1758176120,"current_range_meters":23200,"station_id":"ce4bhmh2rcd13ifvqgmg","pricing_plan_id":"cebpf4jnsgd1na2vs0mg"},{"bike_id":"77220845-d4da-4dd0-af51-3f9c65c54509","system_id":"levelo_inurba_marseille","lat":43.21752,"lon":5.34611,"is_reserved":false,"is_disabled":false,"rental_uris":{"android":"levelo://app?vid=77220845-d4da-4dd0-af51-3f9c65c54509","ios":"levelo://app?vid=77220845-d4da-4dd0-af51-3f9c65c54509"},"vehicle_type_id":"4","last_reported":1758176120,"current_range_meters":24000,"station_id":"","pricing_plan_id":"cebpf4jnsgd1na2vs0mg"},{"bike_id":"7d116418-660a-4365-b486-3aae951da852","system_id":"levelo_inurba_marseille","lat":43.34733,"lon":5.3609,"is_reserved":false,"is_disabled":false,"rental_uris":{"android":"levelo://app?vid=7d116418-660a-4365-b486-3aae951da852","ios":"levelo://app?vid=7d116418-660a-4365-b486-3aae951da852"},"vehicle_type_id":"4","last_reported":1758176120,"current_range_meters":24000,"station_id":"","pricing_plan_id":"cebpf4jnsgd1na2vs0mg"},{"bike_id":"9e6835dd-24fe-4198-97d4-44849640c492","system_id":"levelo_inurba_marseille","lat":43.27502,"lon":5.4243,"is_reserved":false,"is_disabled":false,"rental_uris":{"android":"levelo://app?vid=9e6835dd-24fe-4198-97d4-44849640c492","ios":"levelo://app?vid=9e6835dd-24fe-4198-97d4-44849640c492"},"vehicle_type_id":"4","last_reported":1758176120,"current_range_meters":24000,"station_id":"ce4bhn92rcd13ifvqgrg","pricing_plan_id":"cebpf4jnsgd1na2vs0mg"},{"bike_id":"af0490b6-c1c9-4895-8a15-568d23e0a730","system_id":"levelo_inurba_marseille","lat":43.28073,"lon":5.40771,"is_reserved":false,"is_disabled":false,"rental_uris":{"android":"levelo://app?vid=af0490b6-c1c9-4895-8a15-568d23e0a730","ios":"levelo://app?vid=af0490b6-c1c9-4895-8a15-568d23e0a730"},"vehicle_type_id":"4","last_reported":1758176120,"current_range_meters":24000,"station_id":"","pricing_plan_id":"cebpf4jnsgd1na2vs0mg"},{"bike_id":"e4939177-e5c3-4553-9290-568d0201f3e2","system_id":"levelo_inurba_marseille","lat":43.23153,"lon":5.43723,"is_reserved":false,"is_disabled":false,"rental_uris":{"android":"levelo://app?vid=e4939177-e5c3-4553-9290-568d0201f3e2","ios":"levelo://app?vid=e4939177-e5c3-4553-9290-568d0201f3e2"},"vehicle_type_id":"4","last_reported":1758176120,"current_range_meters":24000,"station_id":"ce4bhmp2rcd13ifvqgog","pricing_plan_id":"cebpf4jnsgd1na2vs0mg"},{"bike_id":"18eeb948-ddeb-4efa-9c22-1c7d5102eced","system_id":"levelo_inurba_marseille","lat":43.297058,"lon":5.376943,"is_reserved":false,"is_disabled":true,"rental_uris":{"android":"levelo://app?vid=18eeb948-ddeb-4efa-9c22-1c7d5102eced","ios":"levelo://app?vid=18eeb948-ddeb-4efa-9c22-1c7d5102eced"},"vehicle_type_id":"4","last_reported":1758176120,"current_range_meters":24000,"station_id":"","pricing_plan_id":"cebpf4jnsgd1na2vs0mg"},{"bike_id":"3d158a28-bece-4b10-9f82-ab3eb3313408","system_id":"levelo_inurba_marseille","lat":43.337485,"lon":5.374512,"is_reserved":false,"is_disabled":false,"rental_uris":{"android":"levelo://app?vid=3d158a28-bece-4b10-9f82-ab3eb3313408","ios":"levelo://app?vid=3d158a28-bece-4b10-9f82-ab3eb3313408"},"vehicle_type_id":"4","last_reported":1758176120,"current_range_meters":24000,"station_id":"","pricing_plan_id":"cebpf4jnsgd1na2vs0mg"},{"bike_id":"39923407-05fe-4c06-aeea-941c47a36c24","system_id":"levelo_inurba_marseille","lat":43.31345,"lon":5.36731,"is_reserved":false,"is_disabled":false,"rental_uris":{"android":"levelo://app?vid=39923407-05fe-4c06-aeea-941c47a36c24","ios":"levelo://app?vid=39923407-05fe-4c06-aeea-941c47a36c24"},"vehicle_type_id":"4","last_reported":1758176120,"current_range_meters":23200,"station_id":"ce4bgr92rcd13ifvqc6g","pricing_plan_id":"cebpf4jnsgd1na2vs0mg"},{"bike_id":"f0f7f701-9622-49f0-b225-389b6d6f5d69","system_id":"levelo_inurba_marseille","lat":43.28356,"lon":5.38113,"is_reserved":false,"is_disabled":false,"rental_uris":{"android":"levelo://app?vid=f0f7f701-9622-49f0-b225-389b6d6f5d69","ios":"levelo://app?vid=f0f7f701-9622-49f0-b225-389b6d6f5d69"},"vehicle_type_id":"4","last_reported":1758176120,"current_range_meters":24400,"station_id":"ce4bh412rcd13ifvqdr0","pricing_plan_id":"cebpf4jnsgd1na2vs0mg"},{"bike_id":"73f132ff-3802-4a20-9bf2-b5554725e01f","system_id":"levelo_inurba_marseille","lat":43.27988,"lon":5.41663,"is_reserved":false,"is_disabled":true,"rental_uris":{"android":"levelo://app?vid=73f132ff-3802-4a20-9bf2-b5554725e01f","ios":"levelo://app?vid=73f132ff-3802-4a20-9bf2-b5554725e01f"},"vehicle_type_id":"4","last_reported":1758176120,"current_range_meters":24400,"station_id":"ce4bho12rcd13ifvqh1g","pricing_plan_id":"cebpf4jnsgd1na2vs0mg"},{"bike_id":"408df103-c5da-4950-b228-ed1d11e5fe65","system_id":"levelo_inurba_marseille","lat":43.24458,"lon":5.39039,"is_reserved":false,"is_disabled":false,"rental_uris":{"android":"levelo://app?vid=408df103-c5da-4950-b228-ed1d11e5fe65","ios":"levelo://app?vid=408df103-c5da-4950-b228-ed1d11e5fe65"},"vehicle_type_id":"4","last_reported":1758176120,"current_range_meters":24400,"station_id":"","pricing_plan_id":"cebpf4jnsgd1na2vs0mg"},{"bike_id":"c1951857-8d7d-458a-a1be-0d9f59beb9a7","system_id":"levelo_inurba_marseille","lat":43.31116,"lon":5.37768,"is_reserved":false,"is_disabled":false,"rental_uris":{"android":"levelo://app?vid=c1951857-8d7d-458a-a1be-0d9f59beb9a7","ios":"levelo://app?vid=c1951857-8d7d-458a-a1be-0d9f59beb9a7"},"vehicle_type_id":"4","last_reported":1758176120,"current_range_meters":24400,"station_id":"ce4bgt92rcd13ifvqcg0","pricing_plan_id":"cebpf4jnsgd1na2vs0mg"},{"bike_id":"c244b710-1d54-4cb7-9a3b-3a33b7032e0b","system_id":"levelo_inurba_marseille","lat":43.309283,"lon":5.368521,"is_reserved":false,"is_disabled":false,"rental_uris":{"android":"levelo://app?vid=c244b710-1d54-4cb7-9a3b-3a33b7032e0b","ios":"levelo://app?vid=c244b710-1d54-4cb7-9a3b-3a33b7032e0b"},"vehicle_type_id":"4","last_reported":1758176120,"current_range_meters":24000,"station_id":"ce4bgn92rcd13ifvqbvg","pricing_plan_id":"cebpf4jnsgd1na2vs0mg"},{"bike_id":"a8fdf88d-dbe5-4814-bab9-ca29bb14e2a9","system_id":"levelo_inurba_marseille","lat":43.24954,"lon":5.40504,"is_reserved":false,"is_disabled":false,"rental_uris":{"android":"levelo://app?vid=a8fdf88d-dbe5-4814-bab9-ca29bb14e2a9","ios":"levelo://app?vid=a8fdf88d-dbe5-4814-bab9-ca29bb14e2a9"},"vehicle_type_id":"4","last_reported":1758176120,"current_range_meters":24400,"station_id":"st_d2ngiaodas8pm72gd1h0","pricing_plan_id":"cebpf4jnsgd1na2vs0mg"},{"bike_id":"7a8ad718-aa19-40ae-999e-d2ff05f8cce1","system_id":"levelo_inurba_marseille","lat":43.23962,"lon":5.3663,"is_reserved":false,"is_disabled":false,"rental_uris":{"android":"levelo://app?vid=7a8ad718-aa19-40ae-999e-d2ff05f8cce1","ios":"levelo://app?vid=7a8ad718-aa19-40ae-999e-d2ff05f8cce1"},"vehicle_type_id":"4","last_reported":1758176120,"current_range_meters":24400,"station_id":"ce4bhi12rcd13ifvqfp0","pricing_plan_id":"cebpf4jnsgd1na2vs0mg"},{"bike_id":"ae1f6b4f-cda2-4f6d-ab2d-37776c5237f4","system_id":"levelo_inurba_marseille","lat":43.27494,"lon":5.4246,"is_reserved":false,"is_disabled":false,"rental_uris":{"android":"levelo://app?vid=ae1f6b4f-cda2-4f6d-ab2d-37776c5237f4","ios":"levelo://app?vid=ae1f6b4f-cda2-4f6d-ab2d-37776c5237f4"},"vehicle_type_id":"4","last_reported":1758176120,"current_range_meters":24400,"station_id":"ce4bhn92rcd13ifvqgrg","pricing_plan_id":"cebpf4jnsgd1na2vs0mg"},{"bike_id":"fa04fbd4-83e8-40b3-968d-fa7925a28ab2","system_id":"levelo_inurba_marseille","lat":43.225335,"lon":5.348288,"is_reserved":false,"is_disabled":false,"rental_uris":{"android":"levelo://app?vid=fa04fbd4-83e8-40b3-968d-fa7925a28ab2","ios":"levelo://app?vid=fa04fbd4-83e8-40b3-968d-fa7925a28ab2"},"vehicle_type_id":"4","last_reported":1758176120,"current_range_meters":24400,"station_id":"","pricing_plan_id":"cebpf4jnsgd1na2vs0mg"},{"bike_id":"67df8158-2909-41b3-8de5-88ec92603a08","system_id":"levelo_inurba_marseille","lat":43.293422,"lon":5.377594,"is_reserved":false,"is_disabled":false,"rental_uris":{"android":"levelo://app?vid=67df8158-2909-41b3-8de5-88ec92603a08","ios":"levelo://app?vid=67df8158-2909-41b3-8de5-88ec92603a08"},"vehicle_type_id":"4","last_reported":1758176120,"current_range_meters":24400,"station_id":"","pricing_plan_id":"cebpf4jnsgd1na2vs0mg"},{"bike_id":"779cbdfc-0907-4255-9426-6b1caa47fe77","system_id":"levelo_inurba_marseille","lat":43.35795,"lon":5.35784,"is_reserved":false,"is_disabled":false,"rental_uris":{"android":"levelo://app?vid=779cbdfc-0907-4255-9426-6b1caa47fe77","ios":"levelo://app?vid=779cbdfc-0907-4255-9426-6b1caa47fe77"},"vehicle_type_id":"4","last_reported":1758176120,"current_range_meters":24400,"station_id":"","pricing_plan_id":"cebpf4jnsgd1na2vs0mg"},{"bike_id":"b83db8be-c43e-4bcf-b030-d132ee9cc3fd","system_id":"levelo_inurba_marseille","lat":43.23156,"lon":5.43718,"is_reserved":false,"is_disabled":false,"rental_uris":{"android":"levelo://app?vid=b83db8be-c43e-4bcf-b030-d132ee9cc3fd","ios":"levelo://app?vid=b83db8be-c43e-4bcf-b030-d132ee9cc3fd"},"vehicle_type_id":"4","last_reported":1758176120,"current_range_meters":24400,"station_id":"ce4bhmp2rcd13ifvqgog","pricing_plan_id":"cebpf4jnsgd1na2vs0mg"},{"bike_id":"0f7caa9f-1d1a-40d7-9b4a-2f8720e63681","system_id":"levelo_inurba_marseille","lat":43.308528,"lon":5.375402,"is_reserved":false,"is_disabled":false,"rental_uris":{"android":"levelo://app?vid=0f7caa9f-1d1a-40d7-9b4a-2f8720e63681","ios":"levelo://app?vid=0f7caa9f-1d1a-40d7-9b4a-2f8720e63681"},"vehicle_type_id":"4","last_reported":1758176120,"current_range_meters":24800,"station_id":"","pricing_plan_id":"cebpf4jnsgd1na2vs0mg"},{"bike_id":"90732541-995c-468a-aa16-dfde82c809fb","system_id":"levelo_inurba_marseille","lat":43.27057,"lon":5.40278,"is_reserved":false,"is_disabled":false,"rental_uris":{"android":"levelo://app?vid=90732541-995c-468a-aa16-dfde82c809fb","ios":"levelo://app?vid=90732541-995c-468a-aa16-dfde82c809fb"},"vehicle_type_id":"4","last_reported":1758176120,"current_range_meters":24800,"station_id":"ce4bhk92rcd13ifvqgc0","pricing_plan_id":"cebpf4jnsgd1na2vs0mg"},{"bike_id":"dcb28453-9e69-4332-a131-11b8454a7683","system_id":"levelo_inurba_marseille","lat":43.2572,"lon":5.38277,"is_reserved":false,"is_disabled":false,"rental_uris":{"android":"levelo://app?vid=dcb28453-9e69-4332-a131-11b8454a7683","ios":"levelo://app?vid=dcb28453-9e69-4332-a131-11b8454a7683"},"vehicle_type_id":"4","last_reported":1758176120,"current_range_meters":24800,"station_id":"ce4bhih2rcd13ifvqfs0","pricing_plan_id":"cebpf4jnsgd1na2vs0mg"},{"bike_id":"a0826990-c8da-4478-b081-3c0239354bc0","system_id":"levelo_inurba_marseille","lat":43.28533,"lon":5.37814,"is_reserved":false,"is_disabled":false,"rental_uris":{"android":"levelo://app?vid=a0826990-c8da-4478-b081-3c0239354bc0","ios":"levelo://app?vid=a0826990-c8da-4478-b081-3c0239354bc0"},"vehicle_type_id":"4","last_reported":1758176120,"current_range_meters":24800,"station_id":"","pricing_plan_id":"cebpf4jnsgd1na2vs0mg"},{"bike_id":"830b9b55-b582-49a9-8acf-457ace5fb670","system_id":"levelo_inurba_marseille","lat":43.22559,"lon":5.41626,"is_reserved":false,"is_disabled":false,"rental_uris":{"android":"levelo://app?vid=830b9b55-b582-49a9-8acf-457ace5fb670","ios":"levelo://app?vid=830b9b55-b582-49a9-8acf-457ace5fb670"},