{"last_updated":1750428638,"ttl":60,"version":"2.2","data":{"bikes":[{"bike_id":"3da29fb8-fc97-44c6-b9ac-31dd456b2fd4","system_id":"levelo_inurba_marseille","lat":43.33771,"lon":5.37424,"is_reserved":false,"is_disabled":true,"rental_uris":{"android":"levelo://app?vid=3da29fb8-fc97-44c6-b9ac-31dd456b2fd4","ios":"levelo://app?vid=3da29fb8-fc97-44c6-b9ac-31dd456b2fd4"},"vehicle_type_id":"4","last_reported":1750428638,"current_range_meters":0,"station_id":"","pricing_plan_id":"cebpf4jnsgd1na2vs0mg"},{"bike_id":"01861ad8-a8d7-4be6-816e-651927c87584","system_id":"levelo_inurba_marseille","lat":43.33751,"lon":5.37456,"is_reserved":false,"is_disabled":true,"rental_uris":{"android":"levelo://app?vid=01861ad8-a8d7-4be6-816e-651927c87584","ios":"levelo://app?vid=01861ad8-a8d7-4be6-816e-651927c87584"},"vehicle_type_id":"4","last_reported":1750428638,"current_range_meters":0,"station_id":"","pricing_plan_id":"cebpf4jnsgd1na2vs0mg"},{"bike_id":"d2bd57c8-6b64-48db-ad24-5398eb3fd9d6","system_id":"levelo_inurba_marseille","lat":43.337444,"lon":5.374475,"is_reserved":false,"is_disabled":true,"rental_uris":{"android":"levelo://app?vid=d2bd57c8-6b64-48db-ad24-5398eb3fd9d6","ios":"levelo://app?vid=d2bd57c8-6b64-48db-ad24-5398eb3fd9d6"},"vehicle_type_id":"4","last_reported":1750428638,"current_range_meters":0,"station_id":"","pricing_plan_id":"cebpf4jnsgd1na2vs0mg"},{"bike_id":"62a493c7-4534-4419-ad43-0582de34a72a","system_id":"levelo_inurba_marseille","lat":43.21366,"lon":5.355183,"is_reserved":false,"is_disabled":true,"rental_uris":{"android":"levelo://app?vid=62a493c7-4534-4419-ad43-0582de34a72a","ios":"levelo://app?vid=62a493c7-4534-4419-ad43-0582de34a72a"},"vehicle_type_id":"4","last_reported":1750428638,"current_range_meters":0,"station_id":"","pricing_plan_id":"cebpf4jnsgd1na2vs0mg"},{"bike_id":"faedb750-b8ea-4e5f-b7f1-2931a192c239","system_id":"levelo_inurba_marseille","lat":43.31372,"lon":5.36778,"is_reserved":false,"is_disabled":true,"rental_uris":{"android":"levelo://app?vid=faedb750-b8ea-4e5f-b7f1-2931a192c239","ios":"levelo://app?vid=faedb750-b8ea-4e5f-b7f1-2931a192c239"},"vehicle_type_id":"4","last_reported":1750428638,"current_range_meters":0,"station_id":"","pricing_plan_id":"cebpf4jnsgd1na2vs0mg"},{"bike_id":"d5a1ae9e-4421-4539-b5ac-98a00695a8d8","system_id":"levelo_inurba_marseille","lat":43.33434,"lon":5.40042,"is_reserved":false,"is_disabled":true,"rental_uris":{"android":"levelo://app?vid=d5a1ae9e-4421-4539-b5ac-98a00695a8d8","ios":"levelo://app?vid=d5a1ae9e-4421-4539-b5ac-98a00695a8d8"},"vehicle_type_id":"4","last_reported":1750428638,"current_range_meters":0,"station_id":"","pricing_plan_id":"cebpf4jnsgd1na2vs0mg"},{"bike_id":"d6609b4f-333b-43c1-9ebe-8726f5e76e88","system_id":"levelo_inurba_marseille","lat":43.337444,"lon":5.374475,"is_reserved":false,"is_disabled":true,"rental_uris":{"android":"levelo://app?vid=d6609b4f-333b-43c1-9ebe-8726f5e76e88","ios":"levelo://app?vid=d6609b4f-333b-43c1-9ebe-8726f5e76e88"},"vehicle_type_id":"4","last_reported":1750428638,"current_range_meters":0,"station_id":"","pricing_plan_id":"cebpf4jnsgd1na2vs0mg"},{"bike_id":"c79e0959-add7-4b49-a931-ec131ba2b2d4","system_id":"levelo_inurba_marseille","lat":43.29037,"lon":5.39971,"is_reserved":false,"is_disabled":true,"rental_uris":{"android":"levelo://app?vid=c79e0959-add7-4b49-a931-ec131ba2b2d4","ios":"levelo://app?vid=c79e0959-add7-4b49-a931-ec131ba2b2d4"},"vehicle_type_id":"4","last_reported":1750428638,"current_range_meters":0,"station_id":"ce4bh392rcd13ifvqdm0","pricing_plan_id":"cebpf4jnsgd1na2vs0mg"},{"bike_id":"7ac5cbaa-9960-452b-a843-e4ae0287e488","system_id":"levelo_inurba_marseille","lat":43.29215,"lon":5.36074,"is_reserved":false,"is_disabled":true,"rental_uris":{"android":"levelo://app?vid=7ac5cbaa-9960-452b-a843-e4ae0287e488","ios":"levelo://app?vid=7ac5cbaa-9960-452b-a843-e4ae0287e488"},"vehicle_type_id":"4","last_reported":1750428638,"current_range_meters":0,"station_id":"ce4bhbh2rcd13ifvqeqg","pricing_plan_id":"cebpf4jnsgd1na2vs0mg"},{"bike_id":"0f40ee1e-e3d0-4c4a-80f9-8f71c0f1c7dd","system_id":"levelo_inurba_marseille","lat":43.26203,"lon":5.37454,"is_reserved":false,"is_disabled":true,"rental_uris":{"android":"levelo://app?vid=0f40ee1e-e3d0-4c4a-80f9-8f71c0f1c7dd","ios":"levelo://app?vid=0f40ee1e-e3d0-4c4a-80f9-8f71c0f1c7dd"},"vehicle_type_id":"4","last_reported":1750428638,"current_range_meters":0,"station_id":"ce4bhgp2rcd13ifvqfc0","pricing_plan_id":"cebpf4jnsgd1na2vs0mg"},{"bike_id":"500cf7c7-ea95-4f10-bfb1-a4c510439b9c","system_id":"levelo_inurba_marseille","lat":43.275103,"lon":5.389629,"is_reserved":false,"is_disabled":true,"rental_uris":{"android":"levelo://app?vid=500cf7c7-ea95-4f10-bfb1-a4c510439b9c","ios":"levelo://app?vid=500cf7c7-ea95-4f10-bfb1-a4c510439b9c"},"vehicle_type_id":"4","last_reported":1750428638,"current_range_meters":0,"station_id":"ce4bhgp2rcd13ifvqfe0","pricing_plan_id":"cebpf4jnsgd1na2vs0mg"},{"bike_id":"2be082ca-4467-48fd-b65c-3c02b405800f","system_id":"levelo_inurba_marseille","lat":43.23154,"lon":5.43696,"is_reserved":false,"is_disabled":true,"rental_uris":{"android":"levelo://app?vid=2be082ca-4467-48fd-b65c-3c02b405800f","ios":"levelo://app?vid=2be082ca-4467-48fd-b65c-3c02b405800f"},"vehicle_type_id":"4","last_reported":1750428638,"current_range_meters":0,"station_id":"ce4bhmp2rcd13ifvqgog","pricing_plan_id":"cebpf4jnsgd1na2vs0mg"},{"bike_id":"f784dcac-68d4-4096-9496-91143e0f31b7","system_id":"levelo_inurba_marseille","lat":43.231875,"lon":5.399889,"is_reserved":false,"is_disabled":true,"rental_uris":{"android":"levelo://app?vid=f784dcac-68d4-4096-9496-91143e0f31b7","ios":"levelo://app?vid=f784dcac-68d4-4096-9496-91143e0f31b7"},"vehicle_type_id":"4","last_reported":1750428638,"current_range_meters":0,"station_id":"ce4bhn12rcd13ifvqgqg","pricing_plan_id":"cebpf4jnsgd1na2vs0mg"},{"bike_id":"b4e4a2a1-da5b-4124-bd3c-79ba653449d9","system_id":"levelo_inurba_marseille","lat":43.28447,"lon":5.39193,"is_reserved":false,"is_disabled":true,"rental_uris":{"android":"levelo://app?vid=b4e4a2a1-da5b-4124-bd3c-79ba653449d9","ios":"levelo://app?vid=b4e4a2a1-da5b-4124-bd3c-79ba653449d9"},"vehicle_type_id":"4","last_reported":1750428638,"current_range_meters":0,"station_id":"ce4bhoh2rcd13ifvqh5g","pricing_plan_id":"cebpf4jnsgd1na2vs0mg"},{"bike_id":"9491b791-a5aa-472a-b475-a8adbacb70fe","system_id":"levelo_inurba_marseille","lat":43.3414,"lon":5.40908,"is_reserved":false,"is_disabled":true,"rental_uris":{"android":"levelo://app?vid=9491b791-a5aa-472a-b475-a8adbacb70fe","ios":"levelo://app?vid=9491b791-a5aa-472a-b475-a8adbacb70fe"},"vehicle_type_id":"4","last_reported":1750428638,"current_range_meters":0,"station_id":"ce4bhqh2rcd13ifvqhlg","pricing_plan_id":"cebpf4jnsgd1na2vs0mg"},{"bike_id":"0080b588-b60f-492d-957d-f4bfdfe016d1","system_id":"levelo_inurba_marseille","lat":43.336073,"lon":5.41031,"is_reserved":false,"is_disabled":true,"rental_uris":{"android":"levelo://app?vid=0080b588-b60f-492d-957d-f4bfdfe016d1","ios":"levelo://app?vid=0080b588-b60f-492d-957d-f4bfdfe016d1"},"vehicle_type_id":"4","last_reported":1750428638,"current_range_meters":0,"station_id":"ce4bhqh2rcd13ifvqhmg","pricing_plan_id":"cebpf4jnsgd1na2vs0mg"},{"bike_id":"1d3c5359-5208-4100-a7e3-a6f9f6eda1fe","system_id":"levelo_inurba_marseille","lat":43.33627,"lon":5.41008,"is_reserved":false,"is_disabled":true,"rental_uris":{"android":"levelo://app?vid=1d3c5359-5208-4100-a7e3-a6f9f6eda1fe","ios":"levelo://app?vid=1d3c5359-5208-4100-a7e3-a6f9f6eda1fe"},"vehicle_type_id":"4","last_reported":1750428638,"current_range_meters":0,"station_id":"ce4bhqh2rcd13ifvqhmg","pricing_plan_id":"cebpf4jnsgd1na2vs0mg"},{"bike_id":"8f49a748-5547-4851-a01f-ec21c1b4690e","system_id":"levelo_inurba_marseille","lat":43.32498,"lon":5.3655,"is_reserved":false,"is_disabled":true,"rental_uris":{"android":"levelo://app?vid=8f49a748-5547-4851-a01f-ec21c1b4690e","ios":"levelo://app?vid=8f49a748-5547-4851-a01f-ec21c1b4690e"},"vehicle_type_id":"4","last_reported":1750428638,"current_range_meters":0,"station_id":"ce4bhs12rcd13ifvqhvg","pricing_plan_id":"cebpf4jnsgd1na2vs0mg"},{"bike_id":"62601cf6-4d7a-474f-a378-dfdbba984829","system_id":"levelo_inurba_marseille","lat":43.3129,"lon":5.40178,"is_reserved":false,"is_disabled":true,"rental_uris":{"android":"levelo://app?vid=62601cf6-4d7a-474f-a378-dfdbba984829","ios":"levelo://app?vid=62601cf6-4d7a-474f-a378-dfdbba984829"},"vehicle_type_id":"4","last_reported":1750428638,"current_range_meters":400,"station_id":"ce4bh092rcd13ifvqd30","pricing_plan_id":"cebpf4jnsgd1na2vs0mg"},{"bike_id":"743db5e7-d987-4515-b266-205c02dd9a2b","system_id":"levelo_inurba_marseille","lat":43.29045,"lon":5.35922,"is_reserved":false,"is_disabled":true,"rental_uris":{"android":"levelo://app?vid=743db5e7-d987-4515-b266-205c02dd9a2b","ios":"levelo://app?vid=743db5e7-d987-4515-b266-205c02dd9a2b"},"vehicle_type_id":"4","last_reported":1750428638,"current_range_meters":400,"station_id":"ce4bha92rcd13ifvqeg0","pricing_plan_id":"cebpf4jnsgd1na2vs0mg"},{"bike_id":"8e79a520-88a8-42f2-9bf4-1bdd9230f704","system_id":"levelo_inurba_marseille","lat":43.29218,"lon":5.36068,"is_reserved":false,"is_disabled":true,"rental_uris":{"android":"levelo://app?vid=8e79a520-88a8-42f2-9bf4-1bdd9230f704","ios":"levelo://app?vid=8e79a520-88a8-42f2-9bf4-1bdd9230f704"},"vehicle_type_id":"4","last_reported":1750428638,"current_range_meters":800,"station_id":"ce4bhbh2rcd13ifvqeqg","pricing_plan_id":"cebpf4jnsgd1na2vs0mg"},{"bike_id":"3702e55c-9933-4338-9cdc-42c2599ac5ac","system_id":"levelo_inurba_marseille","lat":43.27967,"lon":5.38752,"is_reserved":false,"is_disabled":true,"rental_uris":{"android":"levelo://app?vid=3702e55c-9933-4338-9cdc-42c2599ac5ac","ios":"levelo://app?vid=3702e55c-9933-4338-9cdc-42c2599ac5ac"},"vehicle_type_id":"4","last_reported":1750428638,"current_range_meters":800,"station_id":"ce4bhg12rcd13ifvqf80","pricing_plan_id":"cebpf4jnsgd1na2vs0mg"},{"bike_id":"e64f2514-2e8f-4058-baaf-2adce501396d","system_id":"levelo_inurba_marseille","lat":43.29699,"lon":5.37694,"is_reserved":false,"is_disabled":true,"rental_uris":{"android":"levelo://app?vid=e64f2514-2e8f-4058-baaf-2adce501396d","ios":"levelo://app?vid=e64f2514-2e8f-4058-baaf-2adce501396d"},"vehicle_type_id":"4","last_reported":1750428638,"current_range_meters":1200,"station_id":"ce4bgkh2rcd13ifvqbl0","pricing_plan_id":"cebpf4jnsgd1na2vs0mg"},{"bike_id":"ee272ff7-81d5-4508-9d7d-ba25e59527fd","system_id":"levelo_inurba_marseille","lat":43.31698,"lon":5.40462,"is_reserved":false,"is_disabled":true,"rental_uris":{"android":"levelo://app?vid=ee272ff7-81d5-4508-9d7d-ba25e59527fd","ios":"levelo://app?vid=ee272ff7-81d5-4508-9d7d-ba25e59527fd"},"vehicle_type_id":"4","last_reported":1750428638,"current_range_meters":1200,"station_id":"ce4bh012rcd13ifvqd00","pricing_plan_id":"cebpf4jnsgd1na2vs0mg"},{"bike_id":"b8d72b6e-5cdb-474f-89d8-712455860330","system_id":"levelo_inurba_marseille","lat":43.29022,"lon":5.38133,"is_reserved":false,"is_disabled":true,"rental_uris":{"android":"levelo://app?vid=b8d72b6e-5cdb-474f-89d8-712455860330","ios":"levelo://app?vid=b8d72b6e-5cdb-474f-89d8-712455860330"},"vehicle_type_id":"4","last_reported":1750428638,"current_range_meters":1200,"station_id":"ce4bh4p2rcd13ifvqe1g","pricing_plan_id":"cebpf4jnsgd1na2vs0mg"},{"bike_id":"73dacd0b-23a9-4257-973a-f4a9ac43b94f","system_id":"levelo_inurba_marseille","lat":43.26785,"lon":5.39422,"is_reserved":false,"is_disabled":true,"rental_uris":{"android":"levelo://app?vid=73dacd0b-23a9-4257-973a-f4a9ac43b94f","ios":"levelo://app?vid=73dacd0b-23a9-4257-973a-f4a9ac43b94f"},"vehicle_type_id":"4","last_reported":1750428638,"current_range_meters":1200,"station_id":"ce4bhh12rcd13ifvqfg0","pricing_plan_id":"cebpf4jnsgd1na2vs0mg"},{"bike_id":"091fcb0c-ecce-41ae-9f81-09966ac2ef4a","system_id":"levelo_inurba_marseille","lat":43.30374,"lon":5.42483,"is_reserved":false,"is_disabled":true,"rental_uris":{"android":"levelo://app?vid=091fcb0c-ecce-41ae-9f81-09966ac2ef4a","ios":"levelo://app?vid=091fcb0c-ecce-41ae-9f81-09966ac2ef4a"},"vehicle_type_id":"4","last_reported":1750428638,"current_range_meters":1200,"station_id":"ce4bhoh2rcd13ifvqh6g","pricing_plan_id":"cebpf4jnsgd1na2vs0mg"},{"bike_id":"b1ea64e5-9981-4460-a2b3-59bf05260b31","system_id":"levelo_inurba_marseille","lat":43.32355,"lon":5.38887,"is_reserved":false,"is_disabled":true,"rental_uris":{"android":"levelo://app?vid=b1ea64e5-9981-4460-a2b3-59bf05260b31","ios":"levelo://app?vid=b1ea64e5-9981-4460-a2b3-59bf05260b31"},"vehicle_type_id":"4","last_reported":1750428638,"current_range_meters":1200,"station_id":"ce4bhqp2rcd13ifvqhog","pricing_plan_id":"cebpf4jnsgd1na2vs0mg"},{"bike_id":"8ce40161-faa4-467e-95a1-175227ba069f","system_id":"levelo_inurba_marseille","lat":43.31324,"lon":5.39706,"is_reserved":false,"is_disabled":true,"rental_uris":{"android":"levelo://app?vid=8ce40161-faa4-467e-95a1-175227ba069f","ios":"levelo://app?vid=8ce40161-faa4-467e-95a1-175227ba069f"},"vehicle_type_id":"4","last_reported":1750428638,"current_range_meters":1600,"station_id":"ce4bgvp2rcd13ifvqcu0","pricing_plan_id":"cebpf4jnsgd1na2vs0mg"},{"bike_id":"32aa3196-b15a-40c4-a463-3b20485b0792","system_id":"levelo_inurba_marseille","lat":43.28261,"lon":5.35063,"is_reserved":false,"is_disabled":true,"rental_uris":{"android":"levelo://app?vid=32aa3196-b15a-40c4-a463-3b20485b0792","ios":"levelo://app?vid=32aa3196-b15a-40c4-a463-3b20485b0792"},"vehicle_type_id":"4","last_reported":1750428638,"current_range_meters":1600,"station_id":"ce4bhbp2rcd13ifvqerg","pricing_plan_id":"cebpf4jnsgd1na2vs0mg"},{"bike_id":"0d7c73ee-88aa-489c-a781-dbf8c336fb40","system_id":"levelo_inurba_marseille","lat":43.29007,"lon":5.35608,"is_reserved":false,"is_disabled":true,"rental_uris":{"android":"levelo://app?vid=0d7c73ee-88aa-489c-a781-dbf8c336fb40","ios":"levelo://app?vid=0d7c73ee-88aa-489c-a781-dbf8c336fb40"},"vehicle_type_id":"4","last_reported":1750428638,"current_range_meters":2000,"station_id":"ce4bhb92rcd13ifvqen0","pricing_plan_id":"cebpf4jnsgd1na2vs0mg"},{"bike_id":"0f9810db-388b-4cfa-b97d-fb2ed6a8fe76","system_id":"levelo_inurba_marseille","lat":43.26525,"lon":5.3804,"is_reserved":false,"is_disabled":true,"rental_uris":{"android":"levelo://app?vid=0f9810db-388b-4cfa-b97d-fb2ed6a8fe76","ios":"levelo://app?vid=0f9810db-388b-4cfa-b97d-fb2ed6a8fe76"},"vehicle_type_id":"4","last_reported":1750428638,"current_range_meters":2000,"station_id":"ce4bhg92rcd13ifvqf90","pricing_plan_id":"cebpf4jnsgd1na2vs0mg"},{"bike_id":"ec13b76a-1810-4beb-bbca-89520e358d3b","system_id":"levelo_inurba_marseille","lat":43.2621,"lon":5.37447,"is_reserved":false,"is_disabled":true,"rental_uris":{"android":"levelo://app?vid=ec13b76a-1810-4beb-bbca-89520e358d3b","ios":"levelo://app?vid=ec13b76a-1810-4beb-bbca-89520e358d3b"},"vehicle_type_id":"4","last_reported":1750428638,"current_range_meters":2000,"station_id":"ce4bhgp2rcd13ifvqfc0","pricing_plan_id":"cebpf4jnsgd1na2vs0mg"},{"bike_id":"c2ead241-9379-41e9-9c7b-a4b2dde1aefe","system_id":"levelo_inurba_marseille","lat":43.25106,"lon":5.40321,"is_reserved":false,"is_disabled":false,"rental_uris":{"android":"levelo://app?vid=c2ead241-9379-41e9-9c7b-a4b2dde1aefe","ios":"levelo://app?vid=c2ead241-9379-41e9-9c7b-a4b2dde1aefe"},"vehicle_type_id":"4","last_reported":1750428638,"current_range_meters":2000,"station_id":"ce4bhlh2rcd13ifvqgig","pricing_plan_id":"cebpf4jnsgd1na2vs0mg"},{"bike_id":"1f5fdf1e-00cd-40fe-ada7-53758b668178","system_id":"levelo_inurba_marseille","lat":43.26205,"lon":5.37438,"is_reserved":false,"is_disabled":false,"rental_uris":{"android":"levelo://app?vid=1f5fdf1e-00cd-40fe-ada7-53758b668178","ios":"levelo://app?vid=1f5fdf1e-00cd-40fe-ada7-53758b668178"},"vehicle_type_id":"4","last_reported":1750428638,"current_range_meters":2800,"station_id":"ce4bhgp2rcd13ifvqfc0","pricing_plan_id":"cebpf4jnsgd1na2vs0mg"},{"bike_id":"93b11a00-fb91-471b-84d9-437f73aac68f","system_id":"levelo_inurba_marseille","lat":43.25498,"lon":5.37647,"is_reserved":false,"is_disabled":false,"rental_uris":{"android":"levelo://app?vid=93b11a00-fb91-471b-84d9-437f73aac68f","ios":"levelo://app?vid=93b11a00-fb91-471b-84d9-437f73aac68f"},"vehicle_type_id":"4","last_reported":1750428638,"current_range_meters":3200,"station_id":"ce4bhh12rcd13ifvqff0","pricing_plan_id":"cebpf4jnsgd1na2vs0mg"},{"bike_id":"68345c71-0ae4-46f1-a2bc-928f9f389600","system_id":"levelo_inurba_marseille","lat":43.306335,"lon":5.372168,"is_reserved":false,"is_disabled":false,"rental_uris":{"android":"levelo://app?vid=68345c71-0ae4-46f1-a2bc-928f9f389600","ios":"levelo://app?vid=68345c71-0ae4-46f1-a2bc-928f9f389600"},"vehicle_type_id":"4","last_reported":1750428638,"current_range_meters":3600,"station_id":"ce4bgqh2rcd13ifvqc4g","pricing_plan_id":"cebpf4jnsgd1na2vs0mg"},{"bike_id":"4817f16d-567a-487a-82cb-76a1be839215","system_id":"levelo_inurba_marseille","lat":43.25579,"lon":5.38231,"is_reserved":false,"is_disabled":false,"rental_uris":{"android":"levelo://app?vid=4817f16d-567a-487a-82cb-76a1be839215","ios":"levelo://app?vid=4817f16d-567a-487a-82cb-76a1be839215"},"vehicle_type_id":"4","last_reported":1750428638,"current_range_meters":3600,"station_id":"ce4bhih2rcd13ifvqfs0","pricing_plan_id":"cebpf4jnsgd1na2vs0mg"},{"bike_id":"9680a594-5792-427b-8e36-e5075de0ec18","system_id":"levelo_inurba_marseille","lat":43.32333,"lon":5.40632,"is_reserved":false,"is_disabled":false,"rental_uris":{"android":"levelo://app?vid=9680a594-5792-427b-8e36-e5075de0ec18","ios":"levelo://app?vid=9680a594-5792-427b-8e36-e5075de0ec18"},"vehicle_type_id":"4","last_reported":1750428638,"current_range_meters":4000,"station_id":"ce4bhq92rcd13ifvqhjg","pricing_plan_id":"cebpf4jnsgd1na2vs0mg"},{"bike_id":"d3830c52-7e5c-4f2e-9ccb-49ca972b7825","system_id":"levelo_inurba_marseille","lat":43.26773,"lon":5.3939,"is_reserved":false,"is_disabled":false,"rental_uris":{"android":"levelo://app?vid=d3830c52-7e5c-4f2e-9ccb-49ca972b7825","ios":"levelo://app?vid=d3830c52-7e5c-4f2e-9ccb-49ca972b7825"},"vehicle_type_id":"4","last_reported":1750428638,"current_range_meters":4400,"station_id":"ce4bhh12rcd13ifvqfg0","pricing_plan_id":"cebpf4jnsgd1na2vs0mg"},{"bike_id":"02c8328a-1e0c-43b9-b20a-72a6553a5656","system_id":"levelo_inurba_marseille","lat":43.298927,"lon":5.436507,"is_reserved":false,"is_disabled":false,"rental_uris":{"android":"levelo://app?vid=02c8328a-1e0c-43b9-b20a-72a6553a5656","ios":"levelo://app?vid=02c8328a-1e0c-43b9-b20a-72a6553a5656"},"vehicle_type_id":"4","last_reported":1750428638,"current_range_meters":4400,"station_id":"ce4bhpp2rcd13ifvqhfg","pricing_plan_id":"cebpf4jnsgd1na2vs0mg"},{"bike_id":"fe47705b-434d-45dd-b262-d5a602e1b5b0","system_id":"levelo_inurba_marseille","lat":43.21182,"lon":5.35072,"is_reserved":false,"is_disabled":false,"rental_uris":{"android":"levelo://app?vid=fe47705b-434d-45dd-b262-d5a602e1b5b0","ios":"levelo://app?vid=fe47705b-434d-45dd-b262-d5a602e1b5b0"},"vehicle_type_id":"4","last_reported":1750428638,"current_range_meters":4400,"station_id":"st_cvj6sg6p6f1abm77japg","pricing_plan_id":"cebpf4jnsgd1na2vs0mg"},{"bike_id":"325dad50-afde-4101-9e62-428e4474849b","system_id":"levelo_inurba_marseille","lat":43.30194,"lon":5.36626,"is_reserved":false,"is_disabled":false,"rental_uris":{"android":"levelo://app?vid=325dad50-afde-4101-9e62-428e4474849b","ios":"levelo://app?vid=325dad50-afde-4101-9e62-428e4474849b"},"vehicle_type_id":"4","last_reported":1750428638,"current_range_meters":5600,"station_id":"ce4bgrh2rcd13ifvqc8g","pricing_plan_id":"cebpf4jnsgd1na2vs0mg"},{"bike_id":"0b1e53b6-bc72-4bff-b2c0-17099e7d43a1","system_id":"levelo_inurba_marseille","lat":43.31491,"lon":5.37315,"is_reserved":false,"is_disabled":false,"rental_uris":{"android":"levelo://app?vid=0b1e53b6-bc72-4bff-b2c0-17099e7d43a1","ios":"levelo://app?vid=0b1e53b6-bc72-4bff-b2c0-17099e7d43a1"},"vehicle_type_id":"4","last_reported":1750428638,"current_range_meters":5600,"station_id":"ce4bgt12rcd13ifvqcd0","pricing_plan_id":"cebpf4jnsgd1na2vs0mg"},{"bike_id":"2fecf2b4-3221-4b35-83b2-29a22a964c47","system_id":"levelo_inurba_marseille","lat":43.26567,"lon":5.39013,"is_reserved":false,"is_disabled":false,"rental_uris":{"android":"levelo://app?vid=2fecf2b4-3221-4b35-83b2-29a22a964c47","ios":"levelo://app?vid=2fecf2b4-3221-4b35-83b2-29a22a964c47"},"vehicle_type_id":"4","last_reported":1750428638,"current_range_meters":5600,"station_id":"ce4bhe12rcd13ifvqf30","pricing_plan_id":"cebpf4jnsgd1na2vs0mg"},{"bike_id":"04d57968-8918-4a5e-ae1e-92e69123dcf1","system_id":"levelo_inurba_marseille","lat":43.25492,"lon":5.37648,"is_reserved":false,"is_disabled":false,"rental_uris":{"android":"levelo://app?vid=04d57968-8918-4a5e-ae1e-92e69123dcf1","ios":"levelo://app?vid=04d57968-8918-4a5e-ae1e-92e69123dcf1"},"vehicle_type_id":"4","last_reported":1750428638,"current_range_meters":5600,"station_id":"ce4bhh12rcd13ifvqff0","pricing_plan_id":"cebpf4jnsgd1na2vs0mg"},{"bike_id":"984ec8f0-45b5-40bb-b2e6-1ca3c49f5c2a","system_id":"levelo_inurba_marseille","lat":43.26946,"lon":5.38626,"is_reserved":false,"is_disabled":false,"rental_uris":{"android":"levelo://app?vid=984ec8f0-45b5-40bb-b2e6-1ca3c49f5c2a","ios":"levelo://app?vid=984ec8f0-45b5-40bb-b2e6-1ca3c49f5c2a"},"vehicle_type_id":"4","last_reported":1750428638,"current_range_meters":5600,"station_id":"ce4bhh92rcd13ifvqfh0","pricing_plan_id":"cebpf4jnsgd1na2vs0mg"},{"bike_id":"268aafb4-1331-426c-97bc-a7d6564caeb6","system_id":"levelo_inurba_marseille","lat":43.32933,"lon":5.37919,"is_reserved":false,"is_disabled":false,"rental_uris":{"android":"levelo://app?vid=268aafb4-1331-426c-97bc-a7d6564caeb6","ios":"levelo://app?vid=268aafb4-1331-426c-97bc-a7d6564caeb6"},"vehicle_type_id":"4","last_reported":1750428638,"current_range_meters":6000,"station_id":"","pricing_plan_id":"cebpf4jnsgd1na2vs0mg"},{"bike_id":"0dedb6f6-6801-483b-bfb8-9cd4533d158f","system_id":"levelo_inurba_marseille","lat":43.311395,"lon":5.380948,"is_reserved":false,"is_disabled":false,"rental_uris":{"android":"levelo://app?vid=0dedb6f6-6801-483b-bfb8-9cd4533d158f","ios":"levelo://app?vid=0dedb6f6-6801-483b-bfb8-9cd4533d158f"},"vehicle_type_id":"4","last_reported":1750428638,"current_range_meters":6000,"station_id":"","pricing_plan_id":"cebpf4jnsgd1na2vs0mg"},{"bike_id":"79626a7a-5350-4b2c-bb43-f1eb0411c96d","system_id":"levelo_inurba_marseille","lat":43.23964,"lon":5.3663,"is_reserved":false,"is_disabled":false,"rental_uris":{"android":"levelo://app?vid=79626a7a-5350-4b2c-bb43-f1eb0411c96d","ios":"levelo://app?vid=79626a7a-5350-4b2c-bb43-f1eb0411c96d"},"vehicle_type_id":"4","last_reported":1750428638,"current_range_meters":6000,"station_id":"ce4bhi12rcd13ifvqfp0","pricing_plan_id":"cebpf4jnsgd1na2vs0mg"},{"bike_id":"da77d13d-a0ec-4c65-a89c-a5b824007f68","system_id":"levelo_inurba_marseille","lat":43.3177,"lon":5.3904,"is_reserved":false,"is_disabled":false,"rental_uris":{"android":"levelo://app?vid=da77d13d-a0ec-4c65-a89c-a5b824007f68","ios":"levelo://app?vid=da77d13d-a0ec-4c65-a89c-a5b824007f68"},"vehicle_type_id":"4","last_reported":1750428638,"current_range_meters":6000,"station_id":"ce4bhqp2rcd13ifvqhng","pricing_plan_id":"cebpf4jnsgd1na2vs0mg"},{"bike_id":"3fcad661-ff21-4483-9be5-9e27a8c8bff4","system_id":"levelo_inurba_marseille","lat":43.31164,"lon":5.38722,"is_reserved":false,"is_disabled":false,"rental_uris":{"android":"levelo://app?vid=3fcad661-ff21-4483-9be5-9e27a8c8bff4","ios":"levelo://app?vid=3fcad661-ff21-4483-9be5-9e27a8c8bff4"},"vehicle_type_id":"4","last_reported":1750428638,"current_range_meters":6400,"station_id":"ce4bgv12rcd13ifvqcp0","pricing_plan_id":"cebpf4jnsgd1na2vs0mg"},{"bike_id":"ef21d472-619b-4672-9054-97ec3bc97065","system_id":"levelo_inurba_marseille","lat":43.29906,"lon":5.436587,"is_reserved":false,"is_disabled":false,"rental_uris":{"android":"levelo://app?vid=ef21d472-619b-4672-9054-97ec3bc97065","ios":"levelo://app?vid=ef21d472-619b-4672-9054-97ec3bc97065"},"vehicle_type_id":"4","last_reported":1750428638,"current_range_meters":6400,"station_id":"ce4bhpp2rcd13ifvqhfg","pricing_plan_id":"cebpf4jnsgd1na2vs0mg"},{"bike_id":"e7ea39a0-08e1-4f09-8f3f-e30c119e669a","system_id":"levelo_inurba_marseille","lat":43.30807,"lon":5.43705,"is_reserved":false,"is_disabled":false,"rental_uris":{"android":"levelo://app?vid=e7ea39a0-08e1-4f09-8f3f-e30c119e669a","ios":"levelo://app?vid=e7ea39a0-08e1-4f09-8f3f-e30c119e669a"},"vehicle_type_id":"4","last_reported":1750428638,"current_range_meters":6800,"station_id":"","pricing_plan_id":"cebpf4jnsgd1na2vs0mg"},{"bike_id":"97c14b47-409f-4d5d-bf6d-1694527848f1","system_id":"levelo_inurba_marseille","lat":43.29797,"lon":5.404093,"is_reserved":false,"is_disabled":false,"rental_uris":{"android":"levelo://app?vid=97c14b47-409f-4d5d-bf6d-1694527848f1","ios":"levelo://app?vid=97c14b47-409f-4d5d-bf6d-1694527848f1"},"vehicle_type_id":"4","last_reported":1750428638,"current_range_meters":6800,"station_id":"ce4bh112rcd13ifvqd90","pricing_plan_id":"cebpf4jnsgd1na2vs0mg"},{"bike_id":"558dd945-97a2-4588-87b9-1ca85559d376","system_id":"levelo_inurba_marseille","lat":43.27373,"lon":5.36236,"is_reserved":false,"is_disabled":false,"rental_uris":{"android":"levelo://app?vid=558dd945-97a2-4588-87b9-1ca85559d376","ios":"levelo://app?vid=558dd945-97a2-4588-87b9-1ca85559d376"},"vehicle_type_id":"4","last_reported":1750428638,"current_range_meters":6800,"station_id":"ce4bhbh2rcd13ifvqeo0","pricing_plan_id":"cebpf4jnsgd1na2vs0mg"},{"bike_id":"6a7275e2-dbe9-4338-985d-e2d721d0630f","system_id":"levelo_inurba_marseille","lat":43.3054,"lon":5.38437,"is_reserved":false,"is_disabled":false,"rental_uris":{"android":"levelo://app?vid=6a7275e2-dbe9-4338-985d-e2d721d0630f","ios":"levelo://app?vid=6a7275e2-dbe9-4338-985d-e2d721d0630f"},"vehicle_type_id":"4","last_reported":1750428638,"current_range_meters":7200,"station_id":"ce4bgg92rcd13ifvqb30","pricing_plan_id":"cebpf4jnsgd1na2vs0mg"},{"bike_id":"e4c2099a-c760-4ffe-a338-5235cd5b6ec4","system_id":"levelo_inurba_marseille","lat":43.3091,"lon":5.36845,"is_reserved":false,"is_disabled":false,"rental_uris":{"android":"levelo://app?vid=e4c2099a-c760-4ffe-a338-5235cd5b6ec4","ios":"levelo://app?vid=e4c2099a-c760-4ffe-a338-5235cd5b6ec4"},"vehicle_type_id":"4","last_reported":1750428638,"current_range_meters":7200,"station_id":"ce4bgn92rcd13ifvqbvg","pricing_plan_id":"cebpf4jnsgd1na2vs0mg"},{"bike_id":"822860a6-4c58-40dd-83cc-fc34af1ccbe1","system_id":"levelo_inurba_marseille","lat":43.284841,"lon":5.38413,"is_reserved":false,"is_disabled":false,"rental_uris":{"android":"levelo://app?vid=822860a6-4c58-40dd-83cc-fc34af1ccbe1","ios":"levelo://app?vid=822860a6-4c58-40dd-83cc-fc34af1ccbe1"},"vehicle_type_id":"4","last_reported":1750428638,"current_range_meters":7200,"station_id":"ce4bh512rcd13ifvqe3g","pricing_plan_id":"cebpf4jnsgd1na2vs0mg"},{"bike_id":"8e4d5e7d-04eb-49ea-af5f-ee817830db8e","system_id":"levelo_inurba_marseille","lat":43.28462,"lon":5.38418,"is_reserved":false,"is_disabled":false,"rental_uris":{"android":"levelo://app?vid=8e4d5e7d-04eb-49ea-af5f-ee817830db8e","ios":"levelo://app?vid=8e4d5e7d-04eb-49ea-af5f-ee817830db8e"},"vehicle_type_id":"4","last_reported":1750428638,"current_range_meters":7200,"station_id":"ce4bh512rcd13ifvqe3g","pricing_plan_id":"cebpf4jnsgd1na2vs0mg"},{"bike_id":"f32a770f-6720-4b73-a838-f1ea42880154","system_id":"levelo_inurba_marseille","lat":43.27374,"lon":5.36255,"is_reserved":false,"is_disabled":false,"rental_uris":{"android":"levelo://app?vid=f32a770f-6720-4b73-a838-f1ea42880154","ios":"levelo://app?vid=f32a770f-6720-4b73-a838-f1ea42880154"},"vehicle_type_id":"4","last_reported":1750428638,"current_range_meters":7200,"station_id":"ce4bhbh2rcd13ifvqeo0","pricing_plan_id":"cebpf4jnsgd1na2vs0mg"},{"bike_id":"ecad6f71-a1e3-49ba-89c1-b9347550ba78","system_id":"levelo_inurba_marseille","lat":43.2826,"lon":5.3509,"is_reserved":false,"is_disabled":false,"rental_uris":{"android":"levelo://app?vid=ecad6f71-a1e3-49ba-89c1-b9347550ba78","ios":"levelo://app?vid=ecad6f71-a1e3-49ba-89c1-b9347550ba78"},"vehicle_type_id":"4","last_reported":1750428638,"current_range_meters":7200,"station_id":"ce4bhbp2rcd13ifvqerg","pricing_plan_id":"cebpf4jnsgd1na2vs0mg"},{"bike_id":"dc896dce-2b53-4779-a2a7-cd3062d82ab1","system_id":"levelo_inurba_marseille","lat":43.27993,"lon":5.41661,"is_reserved":false,"is_disabled":false,"rental_uris":{"android":"levelo://app?vid=dc896dce-2b53-4779-a2a7-cd3062d82ab1","ios":"levelo://app?vid=dc896dce-2b53-4779-a2a7-cd3062d82ab1"},"vehicle_type_id":"4","last_reported":1750428638,"current_range_meters":7200,"station_id":"ce4bho12rcd13ifvqh1g","pricing_plan_id":"cebpf4jnsgd1na2vs0mg"},{"bike_id":"2ffae795-9c9c-41b1-9025-e63a457bc189","system_id":"levelo_inurba_marseille","lat":43.298933,"lon":5.436633,"is_reserved":false,"is_disabled":false,"rental_uris":{"android":"levelo://app?vid=2ffae795-9c9c-41b1-9025-e63a457bc189","ios":"levelo://app?vid=2ffae795-9c9c-41b1-9025-e63a457bc189"},"vehicle_type_id":"4","last_reported":1750428638,"current_range_meters":8000,"station_id":"ce4bhpp2rcd13ifvqhfg","pricing_plan_id":"cebpf4jnsgd1na2vs0mg"},{"bike_id":"f025e0b0-8595-426c-b214-cb9b74c5fcfd","system_id":"levelo_inurba_marseille","lat":43.32193,"lon":5.40567,"is_reserved":false,"is_disabled":false,"rental_uris":{"android":"levelo://app?vid=f025e0b0-8595-426c-b214-cb9b74c5fcfd","ios":"levelo://app?vid=f025e0b0-8595-426c-b214-cb9b74c5fcfd"},"vehicle_type_id":"4","last_reported":1750428638,"current_range_meters":8400,"station_id":"","pricing_plan_id":"cebpf4jnsgd1na2vs0mg"},{"bike_id":"0427e8f0-4366-4485-92ca-b3ae4140c1da","system_id":"levelo_inurba_marseille","lat":43.304331,"lon":5.38885,"is_reserved":false,"is_disabled":false,"rental_uris":{"android":"levelo://app?vid=0427e8f0-4366-4485-92ca-b3ae4140c1da","ios":"levelo://app?vid=0427e8f0-4366-4485-92ca-b3ae4140c1da"},"vehicle_type_id":"4","last_reported":1750428638,"current_range_meters":8400,"station_id":"ce4bgk12rcd13ifvqbi0","pricing_plan_id":"cebpf4jnsgd1na2vs0mg"},{"bike_id":"583fdf87-a691-4b16-8df7-265155131500","system_id":"levelo_inurba_marseille","lat":43.30942,"lon":5.39051,"is_reserved":false,"is_disabled":false,"rental_uris":{"android":"levelo://app?vid=583fdf87-a691-4b16-8df7-265155131500","ios":"levelo://app?vid=583fdf87-a691-4b16-8df7-265155131500"},"vehicle_type_id":"4","last_reported":1750428638,"current_range_meters":8400,"station_id":"ce4bgup2rcd13ifvqco0","pricing_plan_id":"cebpf4jnsgd1na2vs0mg"},{"bike_id":"f48fa908-aa57-48b9-9415-ef9bf3833122","system_id":"levelo_inurba_marseille","lat":43.27374,"lon":5.36252,"is_reserved":false,"is_disabled":false,"rental_uris":{"android":"levelo://app?vid=f48fa908-aa57-48b9-9415-ef9bf3833122","ios":"levelo://app?vid=f48fa908-aa57-48b9-9415-ef9bf3833122"},"vehicle_type_id":"4","last_reported":1750428638,"current_range_meters":8400,"station_id":"ce4bhbh2rcd13ifvqeo0","pricing_plan_id":"cebpf4jnsgd1na2vs0mg"},{"bike_id":"30cf11a7-a6e0-4a21-af73-15e59eb0bd0a","system_id":"levelo_inurba_marseille","lat":43.266796,"lon":5.3827,"is_reserved":false,"is_disabled":false,"rental_uris":{"android":"levelo://app?vid=30cf11a7-a6e0-4a21-af73-15e59eb0bd0a","ios":"levelo://app?vid=30cf11a7-a6e0-4a21-af73-15e59eb0bd0a"},"vehicle_type_id":"4","last_reported":1750428638,"current_range_meters":8400,"station_id":"ce4bhg92rcd13ifvqf90","pricing_plan_id":"cebpf4jnsgd1na2vs0mg"},{"bike_id":"c40946bd-0669-481e-81b6-0016ba7ffe28","system_id":"levelo_inurba_marseille","lat":43.330174,"lon":5.390423,"is_reserved":false,"is_disabled":false,"rental_uris":{"android":"levelo://app?vid=c40946bd-0669-481e-81b6-0016ba7ffe28","ios":"levelo://app?vid=c40946bd-0669-481e-81b6-0016ba7ffe28"},"vehicle_type_id":"4","last_reported":1750428638,"current_range_meters":8400,"station_id":"ce4bhr92rcd13ifvqhrg","pricing_plan_id":"cebpf4jnsgd1na2vs0mg"},{"bike_id":"446dd791-3e9b-463c-ac28-45a76571dc19","system_id":"levelo_inurba_marseille","lat":43.27378,"lon":5.362554,"is_reserved":false,"is_disabled":false,"rental_uris":{"android":"levelo://app?vid=446dd791-3e9b-463c-ac28-45a76571dc19","ios":"levelo://app?vid=446dd791-3e9b-463c-ac28-45a76571dc19"},"vehicle_type_id":"4","last_reported":1750428638,"current_range_meters":8800,"station_id":"","pricing_plan_id":"cebpf4jnsgd1na2vs0mg"},{"bike_id":"49a1c80e-0a21-4fd5-aa46-5280134ed5d6","system_id":"levelo_inurba_marseille","lat":43.29195,"lon":5.3931,"is_reserved":false,"is_disabled":false,"rental_uris":{"android":"levelo://app?vid=49a1c80e-0a21-4fd5-aa46-5280134ed5d6","ios":"levelo://app?vid=49a1c80e-0a21-4fd5-aa46-5280134ed5d6"},"vehicle_type_id":"4","last_reported":1750428638,"current_range_meters":8800,"station_id":"ce4bh192rcd13ifvqdd0","pricing_plan_id":"cebpf4jnsgd1na2vs0mg"},{"bike_id":"f0db038a-091f-4ecf-b0d7-60bfd19d2205","system_id":"levelo_inurba_marseille","lat":43.29017,"lon":5.38119,"is_reserved":false,"is_disabled":false,"rental_uris":{"android":"levelo://app?vid=f0db038a-091f-4ecf-b0d7-60bfd19d2205","ios":"levelo://app?vid=f0db038a-091f-4ecf-b0d7-60bfd19d2205"},"vehicle_type_id":"4","last_reported":1750428638,"current_range_meters":8800,"station_id":"ce4bh4p2rcd13ifvqe1g","pricing_plan_id":"cebpf4jnsgd1na2vs0mg"},{"bike_id":"a2d19b0f-6d25-4e69-b1cc-4c3ea878849a","system_id":"levelo_inurba_marseille","lat":43.24382,"lon":5.37052,"is_reserved":false,"is_disabled":false,"rental_uris":{"android":"levelo://app?vid=a2d19b0f-6d25-4e69-b1cc-4c3ea878849a","ios":"levelo://app?vid=a2d19b0f-6d25-4e69-b1cc-4c3ea878849a"},"vehicle_type_id":"4","last_reported":1750428638,"current_range_meters":8800,"station_id":"ce4bhhh2rcd13ifvqfk0","pricing_plan_id":"cebpf4jnsgd1na2vs0mg"},{"bike_id":"90fe57a8-53a0-4b0c-bffd-b97475853969","system_id":"levelo_inurba_marseille","lat":43.23192,"lon":5.39982,"is_reserved":false,"is_disabled":false,"rental_uris":{"android":"levelo://app?vid=90fe57a8-53a0-4b0c-bffd-b97475853969","ios":"levelo://app?vid=90fe57a8-53a0-4b0c-bffd-b97475853969"},"vehicle_type_id":"4","last_reported":1750428638,"current_range_meters":8800,"station_id":"ce4bhn12rcd13ifvqgqg","pricing_plan_id":"cebpf4jnsgd1na2vs0mg"},{"bike_id":"df735c88-ae0a-4f8e-9723-d29eb27d80b9","system_id":"levelo_inurba_marseille","lat":43.29919,"lon":5.37612,"is_reserved":false,"is_disabled":false,"rental_uris":{"android":"levelo://app?vid=df735c88-ae0a-4f8e-9723-d29eb27d80b9","ios":"levelo://app?vid=df735c88-ae0a-4f8e-9723-d29eb27d80b9"},"vehicle_type_id":"4","last_reported":1750428638,"current_range_meters":9200,"station_id":"","pricing_plan_id":"cebpf4jnsgd1na2vs0mg"},{"bike_id":"fec72ab8-d7a6-46b8-aad3-61d01b715447","system_id":"levelo_inurba_marseille","lat":43.2753,"lon":5.37801,"is_reserved":false,"is_disabled":false,"rental_uris":{"android":"levelo://app?vid=fec72ab8-d7a6-46b8-aad3-61d01b715447","ios":"levelo://app?vid=fec72ab8-d7a6-46b8-aad3-61d01b715447"},"vehicle_type_id":"4","last_reported":1750428638,"current_range_meters":9200,"station_id":"","pricing_plan_id":"cebpf4jnsgd1na2vs0mg"},{"bike_id":"cc604cbb-c008-487e-be1b-88cf4bb96b27","system_id":"levelo_inurba_marseille","lat":43.31493,"lon":5.37291,"is_reserved":false,"is_disabled":false,"rental_uris":{"android":"levelo://app?vid=cc604cbb-c008-487e-be1b-88cf4bb96b27","ios":"levelo://app?vid=cc604cbb-c008-487e-be1b-88cf4bb96b27"},"vehicle_type_id":"4","last_reported":1750428638,"current_range_meters":9200,"station_id":"ce4bgt12rcd13ifvqcd0","pricing_plan_id":"cebpf4jnsgd1na2vs0mg"},{"bike_id":"31e759fd-aade-4319-bfee-7db47271e466","system_id":"levelo_inurba_marseille","lat":43.28102,"lon":5.37862,"is_reserved":false,"is_disabled":false,"rental_uris":{"android":"levelo://app?vid=31e759fd-aade-4319-bfee-7db47271e466","ios":"levelo://app?vid=31e759fd-aade-4319-bfee-7db47271e466"},"vehicle_type_id":"4","last_reported":1750428638,"current_range_meters":9200,"station_id":"ce4bha12rcd13ifvqee0","pricing_plan_id":"cebpf4jnsgd1na2vs0mg"},{"bike_id":"b398ae83-4416-4155-9c08-e7f481f846c6","system_id":"levelo_inurba_marseille","lat":43.282623,"lon":5.350572,"is_reserved":false,"is_disabled":false,"rental_uris":{"android":"levelo://app?vid=b398ae83-4416-4155-9c08-e7f481f846c6","ios":"levelo://app?vid=b398ae83-4416-4155-9c08-e7f481f846c6"},"vehicle_type_id":"4","last_reported":1750428638,"current_range_meters":9200,"station_id":"ce4bhbp2rcd13ifvqerg","pricing_plan_id":"cebpf4jnsgd1na2vs0mg"},{"bike_id":"18183def-35a5-498c-b7a1-1a9b5a9c4031","system_id":"levelo_inurba_marseille","lat":43.2826,"lon":5.35069,"is_reserved":false,"is_disabled":false,"rental_uris":{"android":"levelo://app?vid=18183def-35a5-498c-b7a1-1a9b5a9c4031","ios":"levelo://app?vid=18183def-35a5-498c-b7a1-1a9b5a9c4031"},"vehicle_type_id":"4","last_reported":1750428638,"current_range_meters":9200,"station_id":"ce4bhbp2rcd13ifvqerg","pricing_plan_id":"cebpf4jnsgd1na2vs0mg"},{"bike_id":"4c3b828b-ffc0-45bf-ae07-a11a54471fbd","system_id":"levelo_inurba_marseille","lat":43.28615,"lon":5.35081,"is_reserved":false,"is_disabled":false,"rental_uris":{"android":"levelo://app?vid=4c3b828b-ffc0-45bf-ae07-a11a54471fbd","ios":"levelo://app?vid=4c3b828b-ffc0-45bf-ae07-a11a54471fbd"},"vehicle_type_id":"4","last_reported":1750428638,"current_range_meters":9200,"station_id":"ce4bhch2rcd13ifvqeug","pricing_plan_id":"cebpf4jnsgd1na2vs0mg"},{"bike_id":"2958eeb8-aeb2-4091-80b0-0b57a8c14990","system_id":"levelo_inurba_marseille","lat":43.29297,"lon":5.37458,"is_reserved":false,"is_disabled":false,"rental_uris":{"android":"levelo://app?vid=2958eeb8-aeb2-4091-80b0-0b57a8c14990","ios":"levelo://app?vid=2958eeb8-aeb2-4091-80b0-0b57a8c14990"},"vehicle_type_id":"4","last_reported":1750428638,"current_range_meters":9600,"station_id":"ce4bgi12rcd13ifvqb70","pricing_plan_id":"cebpf4jnsgd1na2vs0mg"},{"bike_id":"9c98e6d7-e3c7-4bd3-a18d-aeda236a3162","system_id":"levelo_inurba_marseille","lat":43.2313,"lon":5.43729,"is_reserved":false,"is_disabled":false,"rental_uris":{"android":"levelo://app?vid=9c98e6d7-e3c7-4bd3-a18d-aeda236a3162","ios":"levelo://app?vid=9c98e6d7-e3c7-4bd3-a18d-aeda236a3162"},"vehicle_type_id":"4","last_reported":1750428638,"current_range_meters":9600,"station_id":"ce4bhmp2rcd13ifvqgog","pricing_plan_id":"cebpf4jnsgd1na2vs0mg"},{"bike_id":"fc9c54e8-b6e1-462b-b393-a453863683f0","system_id":"levelo_inurba_marseille","lat":43.231951,"lon":5.399779,"is_reserved":false,"is_disabled":false,"rental_uris":{"android":"levelo://app?vid=fc9c54e8-b6e1-462b-b393-a453863683f0","ios":"levelo://app?vid=fc9c54e8-b6e1-462b-b393-a453863683f0"},"vehicle_type_id":"4","last_reported":1750428638,"current_range_meters":9600,"station_id":"ce4bhn12rcd13ifvqgqg","pricing_plan_id":"cebpf4jnsgd1na2vs0mg"},{"bike_id":"578faedf-7b10-4d6a-a63c-fd2dc834c9fc","system_id":"levelo_inurba_marseille","lat":43.32035,"lon":5.41558,"is_reserved":false,"is_disabled":false,"rental_uris":{"android":"levelo://app?vid=578faedf-7b10-4d6a-a63c-fd2dc834c9fc","ios":"levelo://app?vid=578faedf-7b10-4d6a-a63c-fd2dc834c9fc"},"vehicle_type_id":"4","last_reported":1750428638,"current_range_meters":9600,"station_id":"ce4bhq92rcd13ifvqhkg","pricing_plan_id":"cebpf4jnsgd1na2vs0mg"},{"bike_id":"3cad492c-cf4e-4e48-b81b-6813c9c5a616","system_id":"levelo_inurba_marseille","lat":43.21188,"lon":5.35078,"is_reserved":false,"is_disabled":false,"rental_uris":{"android":"levelo://app?vid=3cad492c-cf4e-4e48-b81b-6813c9c5a616","ios":"levelo://app?vid=3cad492c-cf4e-4e48-b81b-6813c9c5a616"},"vehicle_type_id":"4","last_reported":1750428638,"current_range_meters":9600,"station_id":"st_cvj6sg6p6f1abm77japg","pricing_plan_id":"cebpf4jnsgd1na2vs0mg"},{"bike_id":"bb43d7fa-4cae-4458-9e42-7fe163290d31","system_id":"levelo_inurba_marseille","lat":43.292634,"lon":5.384483,"is_reserved":false,"is_disabled":false,"rental_uris":{"android":"levelo://app?vid=bb43d7fa-4cae-4458-9e42-7fe163290d31","ios":"levelo://app?vid=bb43d7fa-4cae-4458-9e42-7fe163290d31"},"vehicle_type_id":"4","last_reported":1750428638,"current_range_meters":10000,"station_id":"ce4bh692rcd13ifvqea0","pricing_plan_id":"cebpf4jnsgd1na2vs0mg"},{"bike_id":"9b294d61-797b-47d7-aa21-667fcee59092","system_id":"levelo_inurba_marseille","lat":43.24384,"lon":5.37061,"is_reserved":false,"is_disabled":false,"rental_uris":{"android":"levelo://app?vid=9b294d61-797b-47d7-aa21-667fcee59092","ios":"levelo://app?vid=9b294d61-797b-47d7-aa21-667fcee59092"},"vehicle_type_id":"4","last_reported":1750428638,"current_range_meters":10000,"station_id":"ce4bhhh2rcd13ifvqfk0","pricing_plan_id":"cebpf4jnsgd1na2vs0mg"},{"bike_id":"78c1ab2b-adc1-42c1-9c8c-be305b7bae7c","system_id":"levelo_inurba_marseille","lat":43.330274,"lon":5.390398,"is_reserved":false,"is_disabled":false,"rental_uris":{"android":"levelo://app?vid=78c1ab2b-adc1-42c1-9c8c-be305b7bae7c","ios":"levelo://app?vid=78c1ab2b-adc1-42c1-9c8c-be305b7bae7c"},"vehicle_type_id":"4","last_reported":1750428638,"current_range_meters":10000,"station_id":"ce4bhr92rcd13ifvqhrg","pricing_plan_id":"cebpf4jnsgd1na2vs0mg"},{"bike_id":"943d57f3-b313-44b7-ae78-a394f179e07f","system_id":"levelo_inurba_marseille","lat":43.298457,"lon":5.416467,"is_reserved":false,"is_disabled":false,"rental_uris":{"android":"levelo://app?vid=943d57f3-b313-44b7-ae78-a394f179e07f","ios":"levelo://app?vid=943d57f3-b313-44b7-ae78-a394f179e07f"},"vehicle_type_id":"4","last_reported":1750428638,"current_range_meters":10800,"station_id":"","pricing_plan_id":"cebpf4jnsgd1na2vs0mg"},{"bike_id":"bc818d66-0121-423f-bca6-ebc01df66a0f","system_id":"levelo_inurba_marseille","lat":43.31504,"lon":5.37286,"is_reserved":false,"is_disabled":false,"rental_uris":{"android":"levelo://app?vid=bc818d66-0121-423f-bca6-ebc01df66a0f","ios":"levelo://app?vid=bc818d66-0121-423f-bca6-ebc01df66a0f"},"vehicle_type_id":"4","last_reported":1750428638,"current_range_meters":10800,"station_id":"ce4bgt12rcd13ifvqcd0","pricing_plan_id":"cebpf4jnsgd1na2vs0mg"},{"bike_id":"03dd7f4c-0764-4073-a6d1-395418b46719","system_id":"levelo_inurba_marseille","lat":43.28454,"lon":5.3588,"is_reserved":false,"is_disabled":false,"rental_uris":{"android":"levelo://app?vid=03dd7f4c-0764-4073-a6d1-395418b46719","ios":"levelo://app?vid=03dd7f4c-0764-4073-a6d1-395418b46719"},"vehicle_type_id":"4","last_reported":1750428638,"current_range_meters":10800,"station_id":"ce4bhah2rcd13ifvqei0","pricing_plan_id":"cebpf4jnsgd1na2vs0mg"},{"bike_id":"afbf544e-242d-431a-94f2-ae8c6548c63c","system_id":"levelo_inurba_marseille","lat":43.28618,"lon":5.35107,"is_reserved":false,"is_disabled":false,"rental_uris":{"android":"levelo://app?vid=afbf544e-242d-431a-94f2-ae8c6548c63c","ios":"levelo://app?vid=afbf544e-242d-431a-94f2-ae8c6548c63c"},"vehicle_type_id":"4","last_reported":1750428638,"current_range_meters":10800,"station_id":"ce4bhch2rcd13ifvqeug","pricing_plan_id":"cebpf4jnsgd1na2vs0mg"},{"bike_id":"ee9e43c0-6612-42d2-8e5d-ee22cfd8ab29","system_id":"levelo_inurba_marseille","lat":43.246398,"lon":5.384395,"is_reserved":false,"is_disabled":false,"rental_uris":{"android":"levelo://app?vid=ee9e43c0-6612-42d2-8e5d-ee22cfd8ab29","ios":"levelo://app?vid=ee9e43c0-6612-42d2-8e5d-ee22cfd8ab29"},"vehicle_type_id":"4","last_reported":1750428638,"current_range_meters":10800,"station_id":"ce4bhhh2rcd13ifvqfk0","pricing_plan_id":"cebpf4jnsgd1na2vs0mg"},{"bike_id":"0b6e911c-a38b-4f35-be73-350609d268ec","system_id":"levelo_inurba_marseille","lat":43.29391,"lon":5.37847,"is_reserved":false,"is_disabled":false,"rental_uris":{"android":"levelo://app?vid=0b6e911c-a38b-4f35-be73-350609d268ec","ios":"levelo://app?vid=0b6e911c-a38b-4f35-be73-350609d268ec"},"vehicle_type_id":"4","last_reported":1750428638,"current_range_meters":11200,"station_id":"ce4bgjh2rcd13ifvqbf0","pricing_plan_id":"cebpf4jnsgd1na2vs0mg"},{"bike_id":"60f2b8cd-a1b6-463f-a20f-06f31fdc686d","system_id":"levelo_inurba_marseille","lat":43.30637,"lon":5.40096,"is_reserved":false,"is_disabled":false,"rental_uris":{"android":"levelo://app?vid=60f2b8cd-a1b6-463f-a20f-06f31fdc686d","ios":"levelo://app?vid=60f2b8cd-a1b6-463f-a20f-06f31fdc686d"},"vehicle_type_id":"4","last_reported":1750428638,"current_range_meters":11200,"station_id":"ce4bh112rcd13ifvqda0","pricing_plan_id":"cebpf4jnsgd1na2vs0mg"},{"bike_id":"b541172b-5b30-43b7-90a7-1f304b078276","system_id":"levelo_inurba_marseille","lat":43.28259,"lon":5.35069,"is_reserved":false,"is_disabled":false,"rental_uris":{"android":"levelo://app?vid=b541172b-5b30-43b7-90a7-1f304b078276","ios":"levelo://app?vid=b541172b-5b30-43b7-90a7-1f304b078276"},"vehicle_type_id":"4","last_reported":1750428638,"current_range_meters":11200,"station_id":"ce4bhbp2rcd13ifvqerg","pricing_plan_id":"cebpf4jnsgd1na2vs0mg"},{"bike_id":"2eb82d3c-7db0-466f-80a7-c6ed84d8119f","system_id":"levelo_inurba_marseille","lat":43.27915,"lon":5.38017,"is_reserved":false,"is_disabled":false,"rental_uris":{"android":"levelo://app?vid=2eb82d3c-7db0-466f-80a7-c6ed84d8119f","ios":"levelo://app?vid=2eb82d3c-7db0-466f-80a7-c6ed84d8119f"},"vehicle_type_id":"4","last_reported":1750428638,"current_range_meters":11200,"station_id":"ce4bhf92rcd13ifvqf50","pricing_plan_id":"cebpf4jnsgd1na2vs0mg"},{"bike_id":"f0a90a14-9649-45fa-941a-0d83d5934290","system_id":"levelo_inurba_marseille","lat":43.27976,"lon":5.38744,"is_reserved":false,"is_disabled":false,"rental_uris":{"android":"levelo://app?vid=f0a90a14-9649-45fa-941a-0d83d5934290","ios":"levelo://app?vid=f0a90a14-9649-45fa-941a-0d83d5934290"},"vehicle_type_id":"4","last_reported":1750428638,"current_range_meters":11200,"station_id":"ce4bhg12rcd13ifvqf80","pricing_plan_id":"cebpf4jnsgd1na2vs0mg"},{"bike_id":"9bd636c4-f973-49e0-9c80-c6d15b387238","system_id":"levelo_inurba_marseille","lat":43.23184,"lon":5.39975,"is_reserved":false,"is_disabled":false,"rental_uris":{"android":"levelo://app?vid=9bd636c4-f973-49e0-9c80-c6d15b387238","ios":"levelo://app?vid=9bd636c4-f973-49e0-9c80-c6d15b387238"},"vehicle_type_id":"4","last_reported":1750428638,"current_range_meters":11200,"station_id":"ce4bhn12rcd13ifvqgqg","pricing_plan_id":"cebpf4jnsgd1na2vs0mg"},{"bike_id":"1e11989f-e475-4397-9a45-bd9147224a5e","system_id":"levelo_inurba_marseille","lat":43.24405,"lon":5.37101,"is_reserved":false,"is_disabled":false,"rental_uris":{"android":"levelo://app?vid=1e11989f-e475-4397-9a45-bd9147224a5e","ios":"levelo://app?vid=1e11989f-e475-4397-9a45-bd9147224a5e"},"vehicle_type_id":"4","last_reported":1750428638,"current_range_meters":11600,"station_id":"ce4bhhh2rcd13ifvqfk0","pricing_plan_id":"cebpf4jnsgd1na2vs0mg"},{"bike_id":"71bc928e-be3c-4f45-b10c-e5a60ab68849","system_id":"levelo_inurba_marseille","lat":43.24543,"lon":5.39521,"is_reserved":false,"is_disabled":false,"rental_uris":{"android":"levelo://app?vid=71bc928e-be3c-4f45-b10c-e5a60ab68849","ios":"levelo://app?vid=71bc928e-be3c-4f45-b10c-e5a60ab68849"},"vehicle_type_id":"4","last_reported":1750428638,"current_range_meters":11600,"station_id":"ce4bhlp2rcd13ifvqgjg","pricing_plan_id":"cebpf4jnsgd1na2vs0mg"},{"bike_id":"6b6b17d0-7d6c-44d4-ac50-e8c4d406dd88","system_id":"levelo_inurba_marseille","lat":43.29241,"lon":5.4091,"is_reserved":false,"is_disabled":false,"rental_uris":{"android":"levelo://app?vid=6b6b17d0-7d6c-44d4-ac50-e8c4d406dd88","ios":"levelo://app?vid=6b6b17d0-7d6c-44d4-ac50-e8c4d406dd88"},"vehicle_type_id":"4","last_reported":1750428638,"current_range_meters":12000,"station_id":"ce4bh192rcd13ifvqdc0","pricing_plan_id":"cebpf4jnsgd1na2vs0mg"},{"bike_id":"89dcfd8f-2038-4440-b530-b26d8fc1800a","system_id":"levelo_inurba_marseille","lat":43.28481,"lon":5.3842,"is_reserved":false,"is_disabled":false,"rental_uris":{"android":"levelo://app?vid=89dcfd8f-2038-4440-b530-b26d8fc1800a","ios":"levelo://app?vid=89dcfd8f-2038-4440-b530-b26d8fc1800a"},"vehicle_type_id":"4","last_reported":1750428638,"current_range_meters":12000,"station_id":"ce4bh512rcd13ifvqe3g","pricing_plan_id":"cebpf4jnsgd1na2vs0mg"},{"bike_id":"081e3921-0711-4820-8b05-e212b8947c16","system_id":"levelo_inurba_marseille","lat":43.28039,"lon":5.3695,"is_reserved":false,"is_disabled":false,"rental_uris":{"android":"levelo://app?vid=081e3921-0711-4820-8b05-e212b8947c16","ios":"levelo://app?vid=081e3921-0711-4820-8b05-e212b8947c16"},"vehicle_type_id":"4","last_reported":1750428638,"current_range_meters":12000,"station_id":"ce4bha12rcd13ifvqef0","pricing_plan_id":"cebpf4jnsgd1na2vs0mg"},{"bike_id":"ba68d496-a8c3-47bd-9da7-68aeaad29129","system_id":"levelo_inurba_marseille","lat":43.282593,"lon":5.350585,"is_reserved":false,"is_disabled":false,"rental_uris":{"android":"levelo://app?vid=ba68d496-a8c3-47bd-9da7-68aeaad29129","ios":"levelo://app?vid=ba68d496-a8c3-47bd-9da7-68aeaad29129"},"vehicle_type_id":"4","last_reported":1750428638,"current_range_meters":12000,"station_id":"ce4bhbp2rcd13ifvqerg","pricing_plan_id":"cebpf4jnsgd1na2vs0mg"},{"bike_id":"1311e84c-a933-4c35-a206-ad02698851f6","system_id":"levelo_inurba_marseille","lat":43.2465,"lon":5.38894,"is_reserved":false,"is_disabled":false,"rental_uris":{"android":"levelo://app?vid=1311e84c-a933-4c35-a206-ad02698851f6","ios":"levelo://app?vid=1311e84c-a933-4c35-a206-ad02698851f6"},"vehicle_type_id":"4","last_reported":1750428638,"current_range_meters":12000,"station_id":"ce4bhg12rcd13ifvqf60","pricing_plan_id":"cebpf4jnsgd1na2vs0mg"},{"bike_id":"a63b8b74-a94b-406b-8b41-8f46c7a02902","system_id":"levelo_inurba_marseille","lat":43.26583,"lon":5.37292,"is_reserved":false,"is_disabled":false,"rental_uris":{"android":"levelo://app?vid=a63b8b74-a94b-406b-8b41-8f46c7a02902","ios":"levelo://app?vid=a63b8b74-a94b-406b-8b41-8f46c7a02902"},"vehicle_type_id":"4","last_reported":1750428638,"current_range_meters":12000,"station_id":"ce4bhg12rcd13ifvqf70","pricing_plan_id":"cebpf4jnsgd1na2vs0mg"},{"bike_id":"44349dac-1b15-499d-8ccb-bf2508a558b1","system_id":"levelo_inurba_marseille","lat":43.247807,"lon":5.39052,"is_reserved":false,"is_disabled":false,"rental_uris":{"android":"levelo://app?vid=44349dac-1b15-499d-8ccb-bf2508a558b1","ios":"levelo://app?vid=44349dac-1b15-499d-8ccb-bf2508a558b1"},"vehicle_type_id":"4","last_reported":1750428638,"current_range_meters":12000,"station_id":"ce4bhgp2rcd13ifvqfd0","pricing_plan_id":"cebpf4jnsgd1na2vs0mg"},{"bike_id":"ccbe96e2-567e-4ab7-b854-72410d55c8ba","system_id":"levelo_inurba_marseille","lat":43.24174,"lon":5.39734,"is_reserved":false,"is_disabled":false,"rental_uris":{"android":"levelo://app?vid=ccbe96e2-567e-4ab7-b854-72410d55c8ba","ios":"levelo://app?vid=ccbe96e2-567e-4ab7-b854-72410d55c8ba"},"vehicle_type_id":"4","last_reported":1750428638,"current_range_meters":12000,"station_id":"ce4bhn12rcd13ifvqgpg","pricing_plan_id":"cebpf4jnsgd1na2vs0mg"},{"bike_id":"0708cf38-7a7f-4f4d-a4c6-7778c58c5a3c","system_id":"levelo_inurba_marseille","lat":43.2833,"lon":5.41086,"is_reserved":false,"is_disabled":false,"rental_uris":{"android":"levelo://app?vid=0708cf38-7a7f-4f4d-a4c6-7778c58c5a3c","ios":"levelo://app?vid=0708cf38-7a7f-4f4d-a4c6-7778c58c5a3c"},"vehicle_type_id":"4","last_reported":1750428638,"current_range_meters":12400,"station_id":"","pricing_plan_id":"cebpf4jnsgd1na2vs0mg"},{"bike_id":"ffc20574-c96c-46fb-9cea-b2241a321332","system_id":"levelo_inurba_marseille","lat":43.30938,"lon":5.38209,"is_reserved":false,"is_disabled":false,"rental_uris":{"android":"levelo://app?vid=ffc20574-c96c-46fb-9cea-b2241a321332","ios":"levelo://app?vid=ffc20574-c96c-46fb-9cea-b2241a321332"},"vehicle_type_id":"4","last_reported":1750428638,"current_range_meters":12400,"station_id":"","pricing_plan_id":"cebpf4jnsgd1na2vs0mg"},{"bike_id":"5a4b642c-3551-4f6d-a762-a92369bdba4d","system_id":"levelo_inurba_marseille","lat":43.29199,"lon":5.35799,"is_reserved":false,"is_disabled":false,"rental_uris":{"android":"levelo://app?vid=5a4b642c-3551-4f6d-a762-a92369bdba4d","ios":"levelo://app?vid=5a4b642c-3551-4f6d-a762-a92369bdba4d"},"vehicle_type_id":"4","last_reported":1750428638,"current_range_meters":12400,"station_id":"ce4bhb12rcd13ifvqel0","pricing_plan_id":"cebpf4jnsgd1na2vs0mg"},{"bike_id":"8a13388a-c9a5-4aa9-a7f5-4ca341623576","system_id":"levelo_inurba_marseille","lat":43.24385,"lon":5.37049,"is_reserved":false,"is_disabled":false,"rental_uris":{"android":"levelo://app?vid=8a13388a-c9a5-4aa9-a7f5-4ca341623576","ios":"levelo://app?vid=8a13388a-c9a5-4aa9-a7f5-4ca341623576"},"vehicle_type_id":"4","last_reported":1750428638,"current_range_meters":12400,"station_id":"ce4bhhh2rcd13ifvqfk0","pricing_plan_id":"cebpf4jnsgd1na2vs0mg"},{"bike_id":"e9f65ead-a312-4f38-ad0e-39c0a7cfac28","system_id":"levelo_inurba_marseille","lat":43.2582,"lon":5.39431,"is_reserved":false,"is_disabled":false,"rental_uris":{"android":"levelo://app?vid=e9f65ead-a312-4f38-ad0e-39c0a7cfac28","ios":"levelo://app?vid=e9f65ead-a312-4f38-ad0e-39c0a7cfac28"},"vehicle_type_id":"4","last_reported":1750428638,"current_range_meters":12400,"station_id":"ce4bhip2rcd13ifvqft0","pricing_plan_id":"cebpf4jnsgd1na2vs0mg"},{"bike_id":"cfcc63e5-33ec-4229-a7bf-4d1c7311a7b9","system_id":"levelo_inurba_marseille","lat":43.299127,"lon":5.436433,"is_reserved":false,"is_disabled":false,"rental_uris":{"android":"levelo://app?vid=cfcc63e5-33ec-4229-a7bf-4d1c7311a7b9","ios":"levelo://app?vid=cfcc63e5-33ec-4229-a7bf-4d1c7311a7b9"},"vehicle_type_id":"4","last_reported":1750428638,"current_range_meters":12400,"station_id":"ce4bhpp2rcd13ifvqhfg","pricing_plan_id":"cebpf4jnsgd1na2vs0mg"},{"bike_id":"cd9c78dd-d14c-47f3-995f-d143b237d6e8","system_id":"levelo_inurba_marseille","lat":43.21745,"lon":5.34599,"is_reserved":false,"is_disabled":false,"rental_uris":{"android":"levelo://app?vid=cd9c78dd-d14c-47f3-995f-d143b237d6e8","ios":"levelo://app?vid=cd9c78dd-d14c-47f3-995f-d143b237d6e8"},"vehicle_type_id":"4","last_reported":1750428638,"current_range_meters":12400,"station_id":"st_cvj6r9ubvosntc0bgbag","pricing_plan_id":"cebpf4jnsgd1na2vs0mg"},{"bike_id":"199c2831-e081-4bc0-9b94-19503817091d","system_id":"levelo_inurba_marseille","lat":43.24929,"lon":5.40666,"is_reserved":false,"is_disabled":false,"rental_uris":{"android":"levelo://app?vid=199c2831-e081-4bc0-9b94-19503817091d","ios":"levelo://app?vid=199c2831-e081-4bc0-9b94-19503817091d"},"vehicle_type_id":"4","last_reported":1750428638,"current_range_meters":12800,"station_id":"","pricing_plan_id":"cebpf4jnsgd1na2vs0mg"},{"bike_id":"496f3967-646c-4b11-b018-4b2db8cbc554","system_id":"levelo_inurba_marseille","lat":43.28262,"lon":5.35077,"is_reserved":false,"is_disabled":false,"rental_uris":{"android":"levelo://app?vid=496f3967-646c-4b11-b018-4b2db8cbc554","ios":"levelo://app?vid=496f3967-646c-4b11-b018-4b2db8cbc554"},"vehicle_type_id":"4","last_reported":1750428638,"current_range_meters":12800,"station_id":"ce4bhbp2rcd13ifvqerg","pricing_plan_id":"cebpf4jnsgd1na2vs0mg"},{"bike_id":"bd2b55ea-0140-4966-ab1b-feb5d5d4bc93","system_id":"levelo_inurba_marseille","lat":43.24812,"lon":5.37446,"is_reserved":false,"is_disabled":false,"rental_uris":{"android":"levelo://app?vid=bd2b55ea-0140-4966-ab1b-feb5d5d4bc93","ios":"levelo://app?vid=bd2b55ea-0140-4966-ab1b-feb5d5d4bc93"},"vehicle_type_id":"4","last_reported":1750428638,"current_range_meters":12800,"station_id":"ce4bhgh2rcd13ifvqfb0","pricing_plan_id":"cebpf4jnsgd1na2vs0mg"},{"bike_id":"46f0562c-2217-40c1-93f1-37831caa6783","system_id":"levelo_inurba_marseille","lat":43.33016,"lon":5.39061,"is_reserved":false,"is_disabled":false,"rental_uris":{"android":"levelo://app?vid=46f0562c-2217-40c1-93f1-37831caa6783","ios":"levelo://app?vid=46f0562c-2217-40c1-93f1-37831caa6783"},"vehicle_type_id":"4","last_reported":1750428638,"current_range_meters":12800,"station_id":"ce4bhr92rcd13ifvqhrg","pricing_plan_id":"cebpf4jnsgd1na2vs0mg"},{"bike_id":"3f257d51-9c63-40b2-b5cc-7b08add54320","system_id":"levelo_inurba_marseille","lat":43.23069,"lon":5.35488,"is_reserved":false,"is_disabled":false,"rental_uris":{"android":"levelo://app?vid=3f257d51-9c63-40b2-b5cc-7b08add54320","ios":"levelo://app?vid=3f257d51-9c63-40b2-b5cc-7b08add54320"},"vehicle_type_id":"4","last_reported":1750428638,"current_range_meters":12800,"station_id":"cpo3342slgdg3j2ifvpg","pricing_plan_id":"cebpf4jnsgd1na2vs0mg"},{"bike_id":"8fd94bfe-b0a3-4509-a3c9-0f6e3f8eed78","system_id":"levelo_inurba_marseille","lat":43.24165,"lon":5.364,"is_reserved":false,"is_disabled":false,"rental_uris":{"android":"levelo://app?vid=8fd94bfe-b0a3-4509-a3c9-0f6e3f8eed78","ios":"levelo://app?vid=8fd94bfe-b0a3-4509-a3c9-0f6e3f8eed78"},"vehicle_type_id":"4","last_reported":1750428638,"current_range_meters":12800,"station_id":"cpo36qri1sfpv3e86is0","pricing_plan_id":"cebpf4jnsgd1na2vs0mg"},{"bike_id":"13ef7d1f-42ab-45c6-8760-bd0b9207222f","system_id":"levelo_inurba_marseille","lat":43.21191,"lon":5.35064,"is_reserved":false,"is_disabled":false,"rental_uris":{"android":"levelo://app?vid=13ef7d1f-42ab-45c6-8760-bd0b9207222f","ios":"levelo://app?vid=13ef7d1f-42ab-45c6-8760-bd0b9207222f"},"vehicle_type_id":"4","last_reported":1750428638,"current_range_meters":12800,"station_id":"st_cvj6sg6p6f1abm77japg","pricing_plan_id":"cebpf4jnsgd1na2vs0mg"},{"bike_id":"f30123e7-96d3-442d-9d01-6c98dc61e7c8","system_id":"levelo_inurba_marseille","lat":43.298046,"lon":5.368456,"is_reserved":false,"is_disabled":false,"rental_uris":{"android":"levelo://app?vid=f30123e7-96d3-442d-9d01-6c98dc61e7c8","ios":"levelo://app?vid=f30123e7-96d3-442d-9d01-6c98dc61e7c8"},"vehicle_type_id":"4","last_reported":1750428638,"current_range_meters":13600,"station_id":"","pricing_plan_id":"cebpf4jnsgd1na2vs0mg"},{"bike_id":"8de9ed04-d211-4c47-8498-96068c1da62a","system_id":"levelo_inurba_marseille","lat":43.24995,"lon":5.3892,"is_reserved":false,"is_disabled":false,"rental_uris":{"android":"levelo://app?vid=8de9ed04-d211-4c47-8498-96068c1da62a","ios":"levelo://app?vid=8de9ed04-d211-4c47-8498-96068c1da62a"},"vehicle_type_id":"4","last_reported":1750428638,"current_range_meters":13600,"station_id":"ce4bhgp2rcd13ifvqfd0","pricing_plan_id":"cebpf4jnsgd1na2vs0mg"},{"bike_id":"8300812b-c3f4-4460-a462-0c10590e5460","system_id":"levelo_inurba_marseille","lat":43.32907,"lon":5.40551,"is_reserved":false,"is_disabled":false,"rental_uris":{"android":"levelo://app?vid=8300812b-c3f4-4460-a462-0c10590e5460","ios":"levelo://app?vid=8300812b-c3f4-4460-a462-0c10590e5460"},"vehicle_type_id":"4","last_reported":1750428638,"current_range_meters":14000,"station_id":"","pricing_plan_id":"cebpf4jnsgd1na2vs0mg"},{"bike_id":"50c5ff10-5e85-45f6-b489-e62777fa41a5","system_id":"levelo_inurba_marseille","lat":43.298888,"lon":5.37472,"is_reserved":false,"is_disabled":false,"rental_uris":{"android":"levelo://app?vid=50c5ff10-5e85-45f6-b489-e62777fa41a5","ios":"levelo://app?vid=50c5ff10-5e85-45f6-b489-e62777fa41a5"},"vehicle_type_id":"4","last_reported":1750428638,"current_range_meters":14000,"station_id":"ce4bgjh2rcd13ifvqbg0","pricing_plan_id":"cebpf4jnsgd1na2vs0mg"},{"bike_id":"ba64e5a9-7221-439d-b38c-b4d33b3e7cfd","system_id":"levelo_inurba_marseille","lat":43.312684,"lon":5.401751,"is_reserved":false,"is_disabled":false,"rental_uris":{"android":"levelo://app?vid=ba64e5a9-7221-439d-b38c-b4d33b3e7cfd","ios":"levelo://app?vid=ba64e5a9-7221-439d-b38c-b4d33b3e7cfd"},"vehicle_type_id":"4","last_reported":1750428638,"current_range_meters":14000,"station_id":"ce4bh092rcd13ifvqd30","pricing_plan_id":"cebpf4jnsgd1na2vs0mg"},{"bike_id":"510b1add-e212-408d-95f0-109a5e2ca67a","system_id":"levelo_inurba_marseille","lat":43.28415,"lon":5.34981,"is_reserved":false,"is_disabled":false,"rental_uris":{"android":"levelo://app?vid=510b1add-e212-408d-95f0-109a5e2ca67a","ios":"levelo://app?vid=510b1add-e212-408d-95f0-109a5e2ca67a"},"vehicle_type_id":"4","last_reported":1750428638,"current_range_meters":14000,"station_id":"ce4bhbh2rcd13ifvqepg","pricing_plan_id":"cebpf4jnsgd1na2vs0mg"},{"bike_id":"e77f7304-85a5-4484-9da8-a3ccb2fcad22","system_id":"levelo_inurba_marseille","lat":43.230533,"lon":5.35499,"is_reserved":false,"is_disabled":false,"rental_uris":{"android":"levelo://app?vid=e77f7304-85a5-4484-9da8-a3ccb2fcad22","ios":"levelo://app?vid=e77f7304-85a5-4484-9da8-a3ccb2fcad22"},"vehicle_type_id":"4","last_reported":1750428638,"current_range_meters":14000,"station_id":"cpo3342slgdg3j2ifvpg","pricing_plan_id":"cebpf4jnsgd1na2vs0mg"},{"bike_id":"b8336496-052c-4f23-a0ce-6fc39236dfd5","system_id":"levelo_inurba_marseille","lat":43.27375,"lon":5.36241,"is_reserved":false,"is_disabled":false,"rental_uris":{"android":"levelo://app?vid=b8336496-052c-4f23-a0ce-6fc39236dfd5","ios":"levelo://app?vid=b8336496-052c-4f23-a0ce-6fc39236dfd5"},"vehicle_type_id":"4","last_reported":1750428638,"current_range_meters":14400,"station_id":"ce4bhbh2rcd13ifvqeo0","pricing_plan_id":"cebpf4jnsgd1na2vs0mg"},{"bike_id":"04d972d4-625c-41a2-93b6-5337e9ca8ff0","system_id":"levelo_inurba_marseille","lat":43.321,"lon":5.36823,"is_reserved":false,"is_disabled":false,"rental_uris":{"android":"levelo://app?vid=04d972d4-625c-41a2-93b6-5337e9ca8ff0","ios":"levelo://app?vid=04d972d4-625c-41a2-93b6-5337e9ca8ff0"},"vehicle_type_id":"4","last_reported":1750428638,"current_range_meters":14400,"station_id":"ce4bhrh2rcd13ifvqhug","pricing_plan_id":"cebpf4jnsgd1na2vs0mg"},{"bike_id":"9765131a-3ace-43fa-bca8-8a29ccceccbb","system_id":"levelo_inurba_marseille","lat":43.289356,"lon":5.366262,"is_reserved":false,"is_disabled":false,"rental_uris":{"android":"levelo://app?vid=9765131a-3ace-43fa-bca8-8a29ccceccbb","ios":"levelo://app?vid=9765131a-3ace-43fa-bca8-8a29ccceccbb"},"vehicle_type_id":"4","last_reported":1750428638,"current_range_meters":14800,"station_id":"ce4bhap2rcd13ifvqek0","pricing_plan_id":"cebpf4jnsgd1na2vs0mg"},{"bike_id":"cb68595e-bb70-4d18-a2c7-cbb66c66e5a1","system_id":"levelo_inurba_marseille","lat":43.26056,"lon":5.39395,"is_reserved":false,"is_disabled":false,"rental_uris":{"android":"levelo://app?vid=cb68595e-bb70-4d18-a2c7-cbb66c66e5a1","ios":"levelo://app?vid=cb68595e-bb70-4d18-a2c7-cbb66c66e5a1"},"vehicle_type_id":"4","last_reported":1750428638,"current_range_meters":14800,"station_id":"ce4bhh92rcd13ifvqfj0","pricing_plan_id":"cebpf4jnsgd1na2vs0mg"},{"bike_id":"1b65fcb1-c3e2-4999-ac48-5ea96537a472","system_id":"levelo_inurba_marseille","lat":43.23163,"lon":5.4372,"is_reserved":false,"is_disabled":false,"rental_uris":{"android":"levelo://app?vid=1b65fcb1-c3e2-4999-ac48-5ea96537a472","ios":"levelo://app?vid=1b65fcb1-c3e2-4999-ac48-5ea96537a472"},"vehicle_type_id":"4","last_reported":1750428638,"current_range_meters":14800,"station_id":"ce4bhmp2rcd13ifvqgog","pricing_plan_id":"cebpf4jnsgd1na2vs0mg"},{"bike_id":"9a696f33-f78b-4690-b1bd-990ba79b63c3","system_id":"levelo_inurba_marseille","lat":43.28079,"lon":5.39656,"is_reserved":false,"is_disabled":false,"rental_uris":{"android":"levelo://app?vid=9a696f33-f78b-4690-b1bd-990ba79b63c3","ios":"levelo://app?vid=9a696f33-f78b-4690-b1bd-990ba79b63c3"},"vehicle_type_id":"4","last_reported":1750428638,"current_range_meters":14800,"station_id":"ce4bho12rcd13ifvqh2g","pricing_plan_id":"cebpf4jnsgd1na2vs0mg"},{"bike_id":"8be46d3a-e871-4120-8118-c2bab79399a0","system_id":"levelo_inurba_marseille","lat":43.28704,"lon":5.39992,"is_reserved":false,"is_disabled":false,"rental_uris":{"android":"levelo://app?vid=8be46d3a-e871-4120-8118-c2bab79399a0","ios":"levelo://app?vid=8be46d3a-e871-4120-8118-c2bab79399a0"},"vehicle_type_id":"4","last_reported":1750428638,"current_range_meters":14800,"station_id":"ce4bho92rcd13ifvqh3g","pricing_plan_id":"cebpf4jnsgd1na2vs0mg"},{"bike_id":"56735059-a511-4f75-9fa1-1f0e9a363234","system_id":"levelo_inurba_marseille","lat":43.23195,"lon":5.355505,"is_reserved":false,"is_disabled":false,"rental_uris":{"android":"levelo://app?vid=56735059-a511-4f75-9fa1-1f0e9a363234","ios":"levelo://app?vid=56735059-a511-4f75-9fa1-1f0e9a363234"},"vehicle_type_id":"4","last_reported":1750428638,"current_range_meters":14800,"station_id":"ce4bhu92rcd13ifvqi70","pricing_plan_id":"cebpf4jnsgd1na2vs0mg"},{"bike_id":"a967df90-5ad0-494f-8416-b3ebfb1ac116","system_id":"levelo_inurba_marseille","lat":43.29906,"lon":5.37472,"is_reserved":false,"is_disabled":false,"rental_uris":{"android":"levelo://app?vid=a967df90-5ad0-494f-8416-b3ebfb1ac116","ios":"levelo://app?vid=a967df90-5ad0-494f-8416-b3ebfb1ac116"},"vehicle_type_id":"4","last_reported":1750428638,"current_range_meters":15200,"station_id":"ce4bgjh2rcd13ifvqbg0","pricing_plan_id":"cebpf4jnsgd1na2vs0mg"},{"bike_id":"d786a338-324c-4f35-b83e-ab32e51e1ebf","system_id":"levelo_inurba_marseille","lat":43.29621,"lon":5.40597,"is_reserved":false,"is_disabled":false,"rental_uris":{"android":"levelo://app?vid=d786a338-324c-4f35-b83e-ab32e51e1ebf","ios":"levelo://app?vid=d786a338-324c-4f35-b83e-ab32e51e1ebf"},"vehicle_type_id":"4","last_reported":1750428638,"current_range_meters":15200,"station_id":"ce4bh0h2rcd13ifvqd60","pricing_plan_id":"cebpf4jnsgd1na2vs0mg"},{"bike_id":"de00ea8b-b5af-439b-8cc5-68db20776c29","system_id":"levelo_inurba_marseille","lat":43.30679,"lon":5.40075,"is_reserved":false,"is_disabled":false,"rental_uris":{"android":"levelo://app?vid=de00ea8b-b5af-439b-8cc5-68db20776c29","ios":"levelo://app?vid=de00ea8b-b5af-439b-8cc5-68db20776c29"},"vehicle_type_id":"4","last_reported":1750428638,"current_range_meters":15200,"station_id":"ce4bh112rcd13ifvqda0","pricing_plan_id":"cebpf4jnsgd1na2vs0mg"},{"bike_id":"08ba7c79-fe85-42a9-8b8b-d2f6323de6e0","system_id":"levelo_inurba_marseille","lat":43.29201,"lon":5.39314,"is_reserved":false,"is_disabled":false,"rental_uris":{"android":"levelo://app?vid=08ba7c79-fe85-42a9-8b8b-d2f6323de6e0","ios":"levelo://app?vid=08ba7c79-fe85-42a9-8b8b-d2f6323de6e0"},"vehicle_type_id":"4","last_reported":1750428638,"current_range_meters":15200,"station_id":"ce4bh192rcd13ifvqdd0","pricing_plan_id":"cebpf4jnsgd1na2vs0mg"},{"bike_id":"f65505f7-bdc9-40cf-a641-25b38f2e8d77","system_id":"levelo_inurba_marseille","lat":43.27392,"lon":5.36261,"is_reserved":false,"is_disabled":false,"rental_uris":{"android":"levelo://app?vid=f65505f7-bdc9-40cf-a641-25b38f2e8d77","ios":"levelo://app?vid=f65505f7-bdc9-40cf-a641-25b38f2e8d77"},"vehicle_type_id":"4","last_reported":1750428638,"current_range_meters":15200,"station_id":"ce4bhbh2rcd13ifvqeo0","pricing_plan_id":"cebpf4jnsgd1na2vs0mg"},{"bike_id":"32b33686-79a4-4215-98ad-2c73dfa0a2ab","system_id":"levelo_inurba_marseille","lat":43.28655,"lon":5.35092,"is_reserved":false,"is_disabled":false,"rental_uris":{"android":"levelo://app?vid=32b33686-79a4-4215-98ad-2c73dfa0a2ab","ios":"levelo://app?vid=32b33686-79a4-4215-98ad-2c73dfa0a2ab"},"vehicle_type_id":"4","last_reported":1750428638,"current_range_meters":15200,"station_id":"ce4bhch2rcd13ifvqeug","pricing_plan_id":"cebpf4jnsgd1na2vs0mg"},{"bike_id":"dd45b830-666c-4c76-b06e-9938bffa2cad","system_id":"levelo_inurba_marseille","lat":43.28917,"lon":5.35958,"is_reserved":false,"is_disabled":false,"rental_uris":{"android":"levelo://app?vid=dd45b830-666c-4c76-b06e-9938bffa2cad","ios":"levelo://app?vid=dd45b830-666c-4c76-b06e-9938bffa2cad"},"vehicle_type_id":"4","last_reported":1750428638,"current_range_meters":16000,"station_id":"","pricing_plan_id":"cebpf4jnsgd1na2vs0mg"},{"bike_id":"86ed09c4-181c-4a21-a053-2e4aed142f44","system_id":"levelo_inurba_marseille","lat":43.29298,"lon":5.37459,"is_reserved":false,"is_disabled":false,"rental_uris":{"android":"levelo://app?vid=86ed09c4-181c-4a21-a053-2e4aed142f44","ios":"levelo://app?vid=86ed09c4-181c-4a21-a053-2e4aed142f44"},"vehicle_type_id":"4","last_reported":1750428638,"current_range_meters":16000,"station_id":"ce4bgi12rcd13ifvqb70","pricing_plan_id":"cebpf4jnsgd1na2vs0mg"},{"bike_id":"78b58bcf-bd63-4a26-b04f-2e09a0c37d0d","system_id":"levelo_inurba_marseille","lat":43.29848,"lon":5.3626,"is_reserved":false,"is_disabled":false,"rental_uris":{"android":"levelo://app?vid=78b58bcf-bd63-4a26-b04f-2e09a0c37d0d","ios":"levelo://app?vid=78b58bcf-bd63-4a26-b04f-2e09a0c37d0d"},"vehicle_type_id":"4","last_reported":1750428638,"current_range_meters":16000,"station_id":"ce4bgpp2rcd13ifvqc3g","pricing_plan_id":"cebpf4jnsgd1na2vs0mg"},{"bike_id":"8f063f00-f9a0-444b-a2a3-5de8850d4b96","system_id":"levelo_inurba_marseille","lat":43.28267,"lon":5.35068,"is_reserved":false,"is_disabled":false,"rental_uris":{"android":"levelo://app?vid=8f063f00-f9a0-444b-a2a3-5de8850d4b96","ios":"levelo://app?vid=8f063f00-f9a0-444b-a2a3-5de8850d4b96"},"vehicle_type_id":"4","last_reported":1750428638,"current_range_meters":16000,"station_id":"ce4bhbp2rcd13ifvqerg","pricing_plan_id":"cebpf4jnsgd1na2vs0mg"},{"bike_id":"c3507ecf-350a-4f40-a3ec-c054291d999e","system_id":"levelo_inurba_marseille","lat":43.28275,"lon":5.35094,"is_reserved":false,"is_disabled":false,"rental_uris":{"android":"levelo://app?vid=c3507ecf-350a-4f40-a3ec-c054291d999e","ios":"levelo://app?vid=c3507ecf-350a-4f40-a3ec-c054291d999e"},"vehicle_type_id":"4","last_reported":1750428638,"current_range_meters":16000,"station_id":"ce4bhbp2rcd13ifvqerg","pricing_plan_id":"cebpf4jnsgd1na2vs0mg"},{"bike_id":"c362ff2f-b6fe-415b-8f5c-ebbe2e00934c","system_id":"levelo_inurba_marseille","lat":43.26196,"lon":5.37451,"is_reserved":false,"is_disabled":false,"rental_uris":{"android":"levelo://app?vid=c362ff2f-b6fe-415b-8f5c-ebbe2e00934c","ios":"levelo://app?vid=c362ff2f-b6fe-415b-8f5c-ebbe2e00934c"},"vehicle_type_id":"4","last_reported":1750428638,"current_range_meters":16000,"station_id":"ce4bhgp2rcd13ifvqfc0","pricing_plan_id":"cebpf4jnsgd1na2vs0mg"},{"bike_id":"9c9432f2-200a-4685-a0d1-4fe23879268a","system_id":"levelo_inurba_marseille","lat":43.24097,"lon":5.37773,"is_reserved":false,"is_disabled":false,"rental_uris":{"android":"levelo://app?vid=9c9432f2-200a-4685-a0d1-4fe23879268a","ios":"levelo://app?vid=9c9432f2-200a-4685-a0d1-4fe23879268a"},"vehicle_type_id":"4","last_reported":1750428638,"current_range_meters":16000,"station_id":"ce4bhnp2rcd13ifvqgvg","pricing_plan_id":"cebpf4jnsgd1na2vs0mg"},{"bike_id":"8e92feac-7d18-4ddd-8b47-3e77cf9b9c34","system_id":"levelo_inurba_marseille","lat":43.23194,"lon":5.35577,"is_reserved":false,"is_disabled":false,"rental_uris":{"android":"levelo://app?vid=8e92feac-7d18-4ddd-8b47-3e77cf9b9c34","ios":"levelo://app?vid=8e92feac-7d18-4ddd-8b47-3e77cf9b9c34"},"vehicle_type_id":"4","last_reported":1750428638,"current_range_meters":16000,"station_id":"ce4bhu92rcd13ifvqi70","pricing_plan_id":"cebpf4jnsgd1na2vs0mg"},{"bike_id":"c38216e2-5eae-4c28-8eaa-4c91f6880c1d","system_id":"levelo_inurba_marseille","lat":43.22505,"lon":5.347877,"is_reserved":false,"is_disabled":false,"rental_uris":{"android":"levelo://app?vid=c38216e2-5eae-4c28-8eaa-4c91f6880c1d","ios":"levelo://app?vid=c38216e2-5eae-4c28-8eaa-4c91f6880c1d"},"vehicle_type_id":"4","last_reported":1750428638,"current_range_meters":16000,"station_id":"st_cvj5dfep6f1abm77gieg","pricing_plan_id":"cebpf4jnsgd1na2vs0mg"},{"bike_id":"dc540ba2-fb63-45eb-b83a-1826fb3d30b7","system_id":"levelo_inurba_marseille","lat":43.246097,"lon":5.392607,"is_reserved":false,"is_disabled":false,"rental_uris":{"android":"levelo://app?vid=dc540ba2-fb63-45eb-b83a-1826fb3d30b7","ios":"levelo://app?vid=dc540ba2-fb63-45eb-b83a-1826fb3d30b7"},"vehicle_type_id":"4","last_reported":1750428638,"current_range_meters":16400,"station_id":"","pricing_plan_id":"cebpf4jnsgd1na2vs0mg"},{"bike_id":"d40af265-11b5-43a6-9bb6-f910f57901ba","system_id":"levelo_inurba_marseille","lat":43.32926,"lon":5.38034,"is_reserved":false,"is_disabled":false,"rental_uris":{"android":"levelo://app?vid=d40af265-11b5-43a6-9bb6-f910f57901ba","ios":"levelo://app?vid=d40af265-11b5-43a6-9bb6-f910f57901ba"},"vehicle_type_id":"4","last_reported":1750428638,"current_range_meters":16400,"station_id":"","pricing_plan_id":"cebpf4jnsgd1na2vs0mg"},{"bike_id":"bd27fe72-6fbc-453f-8b77-bee10ab3b13c","system_id":"levelo_inurba_marseille","lat":43.29523,"lon":5.42376,"is_reserved":false,"is_disabled":false,"rental_uris":{"android":"levelo://app?vid=bd27fe72-6fbc-453f-8b77-bee10ab3b13c","ios":"levelo://app?vid=bd27fe72-6fbc-453f-8b77-bee10ab3b13c"},"vehicle_type_id":"4","last_reported":1750428638,"current_range_meters":16400,"station_id":"","pricing_plan_id":"cebpf4jnsgd1na2vs0mg"},{"bike_id":"8ef11a45-504d-45b0-a2b5-97fef9594218","system_id":"levelo_inurba_marseille","lat":43.295563,"lon":5.381461,"is_reserved":false,"is_disabled":false,"rental_uris":{"android":"levelo://app?vid=8ef11a45-504d-45b0-a2b5-97fef9594218","ios":"levelo://app?vid=8ef11a45-504d-45b0-a2b5-97fef9594218"},"vehicle_type_id":"4","last_reported":1750428638,"current_range_meters":16400,"station_id":"","pricing_plan_id":"cebpf4jnsgd1na2vs0mg"},{"bike_id":"e45e4260-0c3c-494b-93d7-f5f3cbb71e97","system_id":"levelo_inurba_marseille","lat":43.27618,"lon":5.36105,"is_reserved":false,"is_disabled":false,"rental_uris":{"android":"levelo://app?vid=e45e4260-0c3c-494b-93d7-f5f3cbb71e97","ios":"levelo://app?vid=e45e4260-0c3c-494b-93d7-f5f3cbb71e97"},"vehicle_type_id":"4","last_reported":1750428638,"current_range_meters":16400,"station_id":"ce4bgj92rcd13ifvqbe0","pricing_plan_id":"cebpf4jnsgd1na2vs0mg"},{"bike_id":"7977d4f0-faed-4505-b100-18dcd3bfa9b5","system_id":"levelo_inurba_marseille","lat":43.29868,"lon":5.36234,"is_reserved":false,"is_disabled":false,"rental_uris":{"android":"levelo://app?vid=7977d4f0-faed-4505-b100-18dcd3bfa9b5","ios":"levelo://app?vid=7977d4f0-faed-4505-b100-18dcd3bfa9b5"},"vehicle_type_id":"4","last_reported":1750428638,"current_range_meters":16400,"station_id":"ce4bgpp2rcd13ifvqc3g","pricing_plan_id":"cebpf4jnsgd1na2vs0mg"},{"bike_id":"01f82335-1be4-49f0-bb9c-76bf3d817d2f","system_id":"levelo_inurba_marseille","lat":43.28947,"lon":5.3664,"is_reserved":false,"is_disabled":false,"rental_uris":{"android":"levelo://app?vid=01f82335-1be4-49f0-bb9c-76bf3d817d2f","ios":"levelo://app?vid=01f82335-1be4-49f0-bb9c-76bf3d817d2f"},"vehicle_type_id":"4","last_reported":1750428638,"current_range_meters":16400,"station_id":"ce4bhap2rcd13ifvqek0","pricing_plan_id":"cebpf4jnsgd1na2vs0mg"},{"bike_id":"587715e5-c22e-4cbf-b38d-4e1f09c9f157","system_id":"levelo_inurba_marseille","lat":43.28415,"lon":5.34976,"is_reserved":false,"is_disabled":false,"rental_uris":{"android":"levelo://app?vid=587715e5-c22e-4cbf-b38d-4e1f09c9f157","ios":"levelo://app?vid=587715e5-c22e-4cbf-b38d-4e1f09c9f157"},"vehicle_type_id":"4","last_reported":1750428638,"current_range_meters":16400,"station_id":"ce4bhbh2rcd13ifvqepg","pricing_plan_id":"cebpf4jnsgd1na2vs0mg"},{"bike_id":"5566f35b-f397-4533-8604-456a16563535","system_id":"levelo_inurba_marseille","lat":43.25578,"lon":5.38225,"is_reserved":false,"is_disabled":false,"rental_uris":{"android":"levelo://app?vid=5566f35b-f397-4533-8604-456a16563535","ios":"levelo://app?vid=5566f35b-f397-4533-8604-456a16563535"},"vehicle_type_id":"4","last_reported":1750428638,"current_range_meters":16400,"station_id":"ce4bhih2rcd13ifvqfs0","pricing_plan_id":"cebpf4jnsgd1na2vs0mg"},{"bike_id":"318ef4d3-a783-4402-9b35-776556f88091","system_id":"levelo_inurba_marseille","lat":43.29918,"lon":5.4366,"is_reserved":false,"is_disabled":false,"rental_uris":{"android":"levelo://app?vid=318ef4d3-a783-4402-9b35-776556f88091","ios":"levelo://app?vid=318ef4d3-a783-4402-9b35-776556f88091"},"vehicle_type_id":"4","last_reported":1750428638,"current_range_meters":16400,"station_id":"ce4bhpp2rcd13ifvqhfg","pricing_plan_id":"cebpf4jnsgd1na2vs0mg"},{"bike_id":"dcce8261-10fb-448c-bb8e-3459da92ceca","system_id":"levelo_inurba_marseille","lat":43.24162,"lon":5.36402,"is_reserved":false,"is_disabled":false,"rental_uris":{"android":"levelo://app?vid=dcce8261-10fb-448c-bb8e-3459da92ceca","ios":"levelo://app?vid=dcce8261-10fb-448c-bb8e-3459da92ceca"},"vehicle_type_id":"4","last_reported":1750428638,"current_range_meters":16400,"station_id":"cpo36qri1sfpv3e86is0","pricing_plan_id":"cebpf4jnsgd1na2vs0mg"},{"bike_id":"e904481c-c075-4235-ab4b-c7d3ddbe3194","system_id":"levelo_inurba_marseille","lat":43.293304,"lon":5.370808,"is_reserved":false,"is_disabled":false,"rental_uris":{"android":"levelo://app?vid=e904481c-c075-4235-ab4b-c7d3ddbe3194","ios":"levelo://app?vid=e904481c-c075-4235-ab4b-c7d3ddbe3194"},"vehicle_type_id":"4","last_reported":1750428638,"current_range_meters":16800,"station_id":"","pricing_plan_id":"cebpf4jnsgd1na2vs0mg"},{"bike_id":"4598062e-a810-4e05-ad43-ae7756886de8","system_id":"levelo_inurba_marseille","lat":43.296257,"lon":5.371873,"is_reserved":false,"is_disabled":false,"rental_uris":{"android":"levelo://app?vid=4598062e-a810-4e05-ad43-ae7756886de8","ios":"levelo://app?vid=4598062e-a810-4e05-ad43-ae7756886de8"},"vehicle_type_id":"4","last_reported":1750428638,"current_range_meters":16800,"station_id":"ce4bgnh2rcd13ifvqc0g","pricing_plan_id":"cebpf4jnsgd1na2vs0mg"},{"bike_id":"a0a5d4ea-2305-4173-a862-7f6d8338f84b","system_id":"levelo_inurba_marseille","lat":43.30458,"lon":5.37904,"is_reserved":false,"is_disabled":false,"rental_uris":{"android":"levelo://app?vid=a0a5d4ea-2305-4173-a862-7f6d8338f84b","ios":"levelo://app?vid=a0a5d4ea-2305-4173-a862-7f6d8338f84b"},"vehicle_type_id":"4","last_reported":1750428638,"current_range_meters":16800,"station_id":"ce4bgup2rcd13ifvqcn0","pricing_plan_id":"cebpf4jnsgd1na2vs0mg"},{"bike_id":"367922b5-42cb-42f4-aad2-93d24b9cba6f","system_id":"levelo_inurba_marseille","lat":43.28408,"lon":5.3498,"is_reserved":false,"is_disabled":false,"rental_uris":{"android":"levelo://app?vid=367922b5-42cb-42f4-aad2-93d24b9cba6f","ios":"levelo://app?vid=367922b5-42cb-42f4-aad2-93d24b9cba6f"},"vehicle_type_id":"4","last_reported":1750428638,"current_range_meters":16800,"station_id":"ce4bhbh2rcd13ifvqepg","pricing_plan_id":"cebpf4jnsgd1na2vs0mg"},{"bike_id":"e1690202-debe-40f0-9048-b0165425ea40","system_id":"levelo_inurba_marseille","lat":43.28264,"lon":5.35076,"is_reserved":false,"is_disabled":false,"rental_uris":{"android":"levelo://app?vid=e1690202-debe-40f0-9048-b0165425ea40","ios":"levelo://app?vid=e1690202-debe-40f0-9048-b0165425ea40"},"vehicle_type_id":"4","last_reported":1750428638,"current_range_meters":16800,"station_id":"ce4bhbp2rcd13ifvqerg","pricing_plan_id":"cebpf4jnsgd1na2vs0mg"},{"bike_id":"4a2faf62-6ae5-4e90-9829-8d6d481a89f4","system_id":"levelo_inurba_marseille","lat":43.27974,"lon":5.3873,"is_reserved":false,"is_disabled":false,"rental_uris":{"android":"levelo://app?vid=4a2faf62-6ae5-4e90-9829-8d6d481a89f4","ios":"levelo://app?vid=4a2faf62-6ae5-4e90-9829-8d6d481a89f4"},"vehicle_type_id":"4","last_reported":1750428638,"current_range_meters":16800,"station_id":"ce4bhg12rcd13ifvqf80","pricing_plan_id":"cebpf4jnsgd1na2vs0mg"},{"bike_id":"4643bc90-1bac-4c4b-98b1-e2d500830573","system_id":"levelo_inurba_marseille","lat":43.31371,"lon":5.37704,"is_reserved":false,"is_disabled":false,"rental_uris":{"android":"levelo://app?vid=4643bc90-1bac-4c4b-98b1-e2d500830573","ios":"levelo://app?vid=4643bc90-1bac-4c4b-98b1-e2d500830573"},"vehicle_type_id":"4","last_reported":1750428638,"current_range_meters":17200,"station_id":"","pricing_plan_id":"cebpf4jnsgd1na2vs0mg"},{"bike_id":"a22aa312-0025-4f42-88e2-b1e95e79340f","system_id":"levelo_inurba_marseille","lat":43.31698,"lon":5.38387,"is_reserved":false,"is_disabled":false,"rental_uris":{"android":"levelo://app?vid=a22aa312-0025-4f42-88e2-b1e95e79340f","ios":"levelo://app?vid=a22aa312-0025-4f42-88e2-b1e95e79340f"},"vehicle_type_id":"4","last_reported":1750428638,"current_range_meters":17200,"station_id":"","pricing_plan_id":"cebpf4jnsgd1na2vs0mg"},{"bike_id":"a9f7e5b6-c3b9-477a-9dd1-4ff223f734c0","system_id":"levelo_inurba_marseille","lat":43.2992,"lon":5.43666,"is_reserved":false,"is_disabled":false,"rental_uris":{"android":"levelo://app?vid=a9f7e5b6-c3b9-477a-9dd1-4ff223f734c0","ios":"levelo://app?vid=a9f7e5b6-c3b9-477a-9dd1-4ff223f734c0"},"vehicle_type_id":"4","last_reported":1750428638,"current_range_meters":17200,"station_id":"","pricing_plan_id":"cebpf4jnsgd1na2vs0mg"},{"bike_id":"990596bf-f7ed-4931-b239-10b588f9c7ed","system_id":"levelo_inurba_marseille","lat":43.28421,"lon":5.349873,"is_reserved":false,"is_disabled":false,"rental_uris":{"android":"levelo://app?vid=990596bf-f7ed-4931-b239-10b588f9c7ed","ios":"levelo://app?vid=990596bf-f7ed-4931-b239-10b588f9c7ed"},"vehicle_type_id":"4","last_reported":1750428638,"current_range_meters":17200,"station_id":"ce4bhbh2rcd13ifvqepg","pricing_plan_id":"cebpf4jnsgd1na2vs0mg"},{"bike_id":"eee77d17-53bc-4ba5-b76e-054a4d3dcceb","system_id":"levelo_inurba_marseille","lat":43.28411,"lon":5.3499,"is_reserved":false,"is_disabled":false,"rental_uris":{"android":"levelo://app?vid=eee77d17-53bc-4ba5-b76e-054a4d3dcceb","ios":"levelo://app?vid=eee77d17-53bc-4ba5-b76e-054a4d3dcceb"},"vehicle_type_id":"4","last_reported":1750428638,"current_range_meters":17200,"station_id":"ce4bhbh2rcd13ifvqepg","pricing_plan_id":"cebpf4jnsgd1na2vs0mg"},{"bike_id":"8789fae4-719a-4491-ab04-6ab3fa071721","system_id":"levelo_inurba_marseille","lat":43.28262,"lon":5.35058,"is_reserved":false,"is_disabled":false,"rental_uris":{"android":"levelo://app?vid=8789fae4-719a-4491-ab04-6ab3fa071721","ios":"levelo://app?vid=8789fae4-719a-4491-ab04-6ab3fa071721"},"vehicle_type_id":"4","last_reported":1750428638,"current_range_meters":17200,"station_id":"ce4bhbp2rcd13ifvqerg","pricing_plan_id":"cebpf4jnsgd1na2vs0mg"},{"bike_id":"6a127880-0742-494d-a56a-094c67bb7bad","system_id":"levelo_inurba_marseille","lat":43.26562,"lon":5.37286,"is_reserved":false,"is_disabled":false,"rental_uris":{"android":"levelo://app?vid=6a127880-0742-494d-a56a-094c67bb7bad","ios":"levelo://app?vid=6a127880-0742-494d-a56a-094c67bb7bad"},"vehicle_type_id":"4","last_reported":1750428638,"current_range_meters":17200,"station_id":"ce4bhg12rcd13ifvqf70","pricing_plan_id":"cebpf4jnsgd1na2vs0mg"},{"bike_id":"ccf4ab64-4a82-42e6-a3c9-8579eb4adb05","system_id":"levelo_inurba_marseille","lat":43.26216,"lon":5.3745,"is_reserved":false,"is_disabled":false,"rental_uris":{"android":"levelo://app?vid=ccf4ab64-4a82-42e6-a3c9-8579eb4adb05","ios":"levelo://app?vid=ccf4ab64-4a82-42e6-a3c9-8579eb4adb05"},"vehicle_type_id":"4","last_reported":1750428638,"current_range_meters":17200,"station_id":"ce4bhgp2rcd13ifvqfc0","pricing_plan_id":"cebpf4jnsgd1na2vs0mg"},{"bike_id":"27726e2f-dfd5-4e01-9ff8-631122aa5f1b","system_id":"levelo_inurba_marseille","lat":43.255646,"lon":5.382294,"is_reserved":false,"is_disabled":false,"rental_uris":{"android":"levelo://app?vid=27726e2f-dfd5-4e01-9ff8-631122aa5f1b","ios":"levelo://app?vid=27726e2f-dfd5-4e01-9ff8-631122aa5f1b"},"vehicle_type_id":"4","last_reported":1750428638,"current_range_meters":17200,"station_id":"ce4bhih2rcd13ifvqfs0","pricing_plan_id":"cebpf4jnsgd1na2vs0mg"},{"bike_id":"90c109b5-5cee-495e-8f11-f318c0f086b6","system_id":"levelo_inurba_marseille","lat":43.32488,"lon":5.4347,"is_reserved":false,"is_disabled":false,"rental_uris":{"android":"levelo://app?vid=90c109b5-5cee-495e-8f11-f318c0f086b6","ios":"levelo://app?vid=90c109b5-5cee-495e-8f11-f318c0f086b6"},"vehicle_type_id":"4","last_reported":1750428638,"current_range_meters":17600,"station_id":"","pricing_plan_id":"cebpf4jnsgd1na2vs0mg"},{"bike_id":"ef89ca8a-8162-4bb0-a865-4300d1ea1593","system_id":"levelo_inurba_marseille","lat":43.31195,"lon":5.36872,"is_reserved":false,"is_disabled":false,"rental_uris":{"android":"levelo://app?vid=ef89ca8a-8162-4bb0-a865-4300d1ea1593","ios":"levelo://app?vid=ef89ca8a-8162-4bb0-a865-4300d1ea1593"},"vehicle_type_id":"4","last_reported":1750428638,"current_range_meters":17600,"station_id":"ce4bgl92rcd13ifvqbq0","pricing_plan_id":"cebpf4jnsgd1na2vs0mg"},{"bike_id":"297cd0f3-605e-4bf3-9c4d-40ecc220c58d","system_id":"levelo_inurba_marseille","lat":43.29933,"lon":5.36546,"is_reserved":false,"is_disabled":false,"rental_uris":{"android":"levelo://app?vid=297cd0f3-605e-4bf3-9c4d-40ecc220c58d","ios":"levelo://app?vid=297cd0f3-605e-4bf3-9c4d-40ecc220c58d"},"vehicle_type_id":"4","last_reported":1750428638,"current_range_meters":17600,"station_id":"ce4bgm92rcd13ifvqbr0","pricing_plan_id":"cebpf4jnsgd1na2vs0mg"},{"bike_id":"a27dfe13-84f1-4a5a-95b6-055954b50ba0","system_id":"levelo_inurba_marseille","lat":43.27372,"lon":5.36261,"is_reserved":false,"is_disabled":false,"rental_uris":{"android":"levelo://app?vid=a27dfe13-84f1-4a5a-95b6-055954b50ba0","ios":"levelo://app?vid=a27dfe13-84f1-4a5a-95b6-055954b50ba0"},"vehicle_type_id":"4","last_reported":1750428638,"current_range_meters":17600,"station_id":"ce4bhbh2rcd13ifvqeo0","pricing_plan_id":"cebpf4jnsgd1na2vs0mg"},{"bike_id":"7292142d-a01f-49a7-8bbe-828e8933a3de","system_id":"levelo_inurba_marseille","lat":43.265473,"lon":5.373207,"is_reserved":false,"is_disabled":false,"rental_uris":{"android":"levelo://app?vid=7292142d-a01f-49a7-8bbe-828e8933a3de","ios":"levelo://app?vid=7292142d-a01f-49a7-8bbe-828e8933a3de"},"vehicle_type_id":"4","last_reported":1750428638,"current_range_meters":17600,"station_id":"ce4bhg12rcd13ifvqf70","pricing_plan_id":"cebpf4jnsgd1na2vs0mg"},{"bike_id":"204afd8f-d13a-468d-a59c-e2db9671fff1","system_id":"levelo_inurba_marseille","lat":43.244078,"lon":5.371036,"is_reserved":false,"is_disabled":false,"rental_uris":{"android":"levelo://app?vid=204afd8f-d13a-468d-a59c-e2db9671fff1","ios":"levelo://app?vid=204afd8f-d13a-468d-a59c-e2db9671fff1"},"vehicle_type_id":"4","last_reported":1750428638,"current_range_meters":17600,"station_id":"ce4bhhh2rcd13ifvqfk0","pricing_plan_id":"cebpf4jnsgd1na2vs0mg"},{"bike_id":"3dc1a2f8-8b98-4a65-980d-b42a647d0080","system_id":"levelo_inurba_marseille","lat":43.23962,"lon":5.366358,"is_reserved":false,"is_disabled":false,"rental_uris":{"android":"levelo://app?vid=3dc1a2f8-8b98-4a65-980d-b42a647d0080","ios":"levelo://app?vid=3dc1a2f8-8b98-4a65-980d-b42a647d0080"},"vehicle_type_id":"4","last_reported":1750428638,"current_range_meters":17600,"station_id":"ce4bhi12rcd13ifvqfp0","pricing_plan_id":"cebpf4jnsgd1na2vs0mg"},{"bike_id":"01c0ac0f-b40f-4f7c-a9fe-4fc3ed3169fe","system_id":"levelo_inurba_marseille","lat":43.25979,"lon":5.37576,"is_reserved":false,"is_disabled":false,"rental_uris":{"android":"levelo://app?vid=01c0ac0f-b40f-4f7c-a9fe-4fc3ed3169fe","ios":"levelo://app?vid=01c0ac0f-b40f-4f7c-a9fe-4fc3ed3169fe"},"vehicle_type_id":"4","last_reported":1750428638,"current_range_meters":18000,"station_id":"","pricing_plan_id":"cebpf4jnsgd1na2vs0mg"},{"bike_id":"ffbb0c22-3f4e-4cdb-a0e5-79e3b9f3e1a2","system_id":"levelo_inurba_marseille","lat":43.337588,"lon":5.374484,"is_reserved":false,"is_disabled":false,"rental_uris":{"android":"levelo://app?vid=ffbb0c22-3f4e-4cdb-a0e5-79e3b9f3e1a2","ios":"levelo://app?vid=ffbb0c22-3f4e-4cdb-a0e5-79e3b9f3e1a2"},"vehicle_type_id":"4","last_reported":1750428638,"current_range_meters":18000,"station_id":"","pricing_plan_id":"cebpf4jnsgd1na2vs0mg"},{"bike_id":"ef19b1e7-dc28-4ad4-b94b-1c1b715c8506","system_id":"levelo_inurba_marseille","lat":43.2957,"lon":5.37525,"is_reserved":false,"is_disabled":false,"rental_uris":{"android":"levelo://app?vid=ef19b1e7-dc28-4ad4-b94b-1c1b715c8506","ios":"levelo://app?vid=ef19b1e7-dc28-4ad4-b94b-1c1b715c8506"},"vehicle_type_id":"4","last_reported":1750428638,"current_range_meters":18000,"station_id":"ce4bgh92rcd13ifvqb50","pricing_plan_id":"cebpf4jnsgd1na2vs0mg"},{"bike_id":"84e099c6-023f-4756-9021-3cce4b2466ca","system_id":"levelo_inurba_marseille","lat":43.2997,"lon":5.37185,"is_reserved":false,"is_disabled":false,"rental_uris":{"android":"levelo://app?vid=84e099c6-023f-4756-9021-3cce4b2466ca","ios":"levelo://app?vid=84e099c6-023f-4756-9021-3cce4b2466ca"},"vehicle_type_id":"4","last_reported":1750428638,"current_range_meters":18000,"station_id":"ce4bgr92rcd13ifvqc7g","pricing_plan_id":"cebpf4jnsgd1na2vs0mg"},{"bike_id":"54e6762e-7179-491e-a415-8a06dd02c73b","system_id":"levelo_inurba_marseille","lat":43.28613,"lon":5.35103,"is_reserved":false,"is_disabled":false,"rental_uris":{"android":"levelo://app?vid=54e6762e-7179-491e-a415-8a06dd02c73b","ios":"levelo://app?vid=54e6762e-7179-491e-a415-8a06dd02c73b"},"vehicle_type_id":"4","last_reported":1750428638,"current_range_meters":18000,"station_id":"ce4bhch2rcd13ifvqeug","pricing_plan_id":"cebpf4jnsgd1na2vs0mg"},{"bike_id":"a9fe177d-6cf7-41a6-b924-383cb8edf7ce","system_id":"levelo_inurba_marseille","lat":43.28606,"lon":5.35086,"is_reserved":false,"is_disabled":false,"rental_uris":{"android":"levelo://app?vid=a9fe177d-6cf7-41a6-b924-383cb8edf7ce","ios":"levelo://app?vid=a9fe177d-6cf7-41a6-b924-383cb8edf7ce"},"vehicle_type_id":"4","last_reported":1750428638,"current_range_meters":18000,"station_id":"ce4bhch2rcd13ifvqeug","pricing_plan_id":"cebpf4jnsgd1na2vs0mg"},{"bike_id":"504860e5-46cb-45e5-9abc-9ccc278bcdda","system_id":"levelo_inurba_marseille","lat":43.250068,"lon":5.389408,"is_reserved":false,"is_disabled":false,"rental_uris":{"android":"levelo://app?vid=504860e5-46cb-45e5-9abc-9ccc278bcdda","ios":"levelo://app?vid=504860e5-46cb-45e5-9abc-9ccc278bcdda"},"vehicle_type_id":"4","last_reported":1750428638,"current_range_meters":18000,"station_id":"ce4bhgp2rcd13ifvqfd0","pricing_plan_id":"cebpf4jnsgd1na2vs0mg"},{"bike_id":"27806104-c442-4ba8-945e-ab2e88ac663b","system_id":"levelo_inurba_marseille","lat":43.25487,"lon":5.376346,"is_reserved":false,"is_disabled":false,"rental_uris":{"android":"levelo://app?vid=27806104-c442-4ba8-945e-ab2e88ac663b","ios":"levelo://app?vid=27806104-c442-4ba8-945e-ab2e88ac663b"},"vehicle_type_id":"4","last_reported":1750428638,"current_range_meters":18000,"station_id":"ce4bhh12rcd13ifvqff0","pricing_plan_id":"cebpf4jnsgd1na2vs0mg"},{"bike_id":"904d9165-8a4c-4d2c-8705-df7457f3b83b","system_id":"levelo_inurba_marseille","lat":43.299,"lon":5.43658,"is_reserved":false,"is_disabled":false,"rental_uris":{"android":"levelo://app?vid=904d9165-8a4c-4d2c-8705-df7457f3b83b","ios":"levelo://app?vid=904d9165-8a4c-4d2c-8705-df7457f3b83b"},"vehicle_type_id":"4","last_reported":1750428638,"current_range_meters":18000,"station_id":"ce4bhpp2rcd13ifvqhfg","pricing_plan_id":"cebpf4jnsgd1na2vs0mg"},{"bike_id":"078faafc-f215-4177-bf4a-4a6ee6b57668","system_id":"levelo_inurba_marseille","lat":43.30534,"lon":5.38428,"is_reserved":false,"is_disabled":false,"rental_uris":{"android":"levelo://app?vid=078faafc-f215-4177-bf4a-4a6ee6b57668","ios":"levelo://app?vid=078faafc-f215-4177-bf4a-4a6ee6b57668"},"vehicle_type_id":"4","last_reported":1750428638,"current_range_meters":18800,"station_id":"ce4bgg92rcd13ifvqb30","pricing_plan_id":"cebpf4jnsgd1na2vs0mg"},{"bike_id":"2e1b1158-0a75-437b-9021-c593e215634a","system_id":"levelo_inurba_marseille","lat":43.30556,"lon":5.36538,"is_reserved":false,"is_disabled":false,"rental_uris":{"android":"levelo://app?vid=2e1b1158-0a75-437b-9021-c593e215634a","ios":"levelo://app?vid=2e1b1158-0a75-437b-9021-c593e215634a"},"vehicle_type_id":"4","last_reported":1750428638,"current_range_meters":18800,"station_id":"ce4bgs12rcd13ifvqcag","pricing_plan_id":"cebpf4jnsgd1na2vs0mg"},{"bike_id":"76b85b2c-e188-47f7-bc30-fc089da05cd7","system_id":"levelo_inurba_marseille","lat":43.30882,"lon":5.37222,"is_reserved":false,"is_disabled":false,"rental_uris":{"android":"levelo://app?vid=76b85b2c-e188-47f7-bc30-fc089da05cd7","ios":"levelo://app?vid=76b85b2c-e188-47f7-bc30-fc089da05cd7"},"vehicle_type_id":"4","last_reported":1750428638,"current_range_meters":18800,"station_id":"ce4bguh2rcd13ifvqckg","pricing_plan_id":"cebpf4jnsgd1na2vs0mg"},{"bike_id":"4f566e17-ff24-4089-9aa8-a8bb8822a902","system_id":"levelo_inurba_marseille","lat":43.282673,"lon":5.350528,"is_reserved":false,"is_disabled":false,"rental_uris":{"android":"levelo://app?vid=4f566e17-ff24-4089-9aa8-a8bb8822a902","ios":"levelo://app?vid=4f566e17-ff24-4089-9aa8-a8bb8822a902"},"vehicle_type_id":"4","last_reported":1750428638,"current_range_meters":18800,"station_id":"ce4bhbp2rcd13ifvqerg","pricing_plan_id":"cebpf4jnsgd1na2vs0mg"},{"bike_id":"d753de82-c1b7-4e59-ab8a-67984c2160b2","system_id":"levelo_inurba_marseille","lat":43.26483,"lon":5.39547,"is_reserved":false,"is_disabled":false,"rental_uris":{"android":"levelo://app?vid=d753de82-c1b7-4e59-ab8a-67984c2160b2","ios":"levelo://app?vid=d753de82-c1b7-4e59-ab8a-67984c2160b2"},"vehicle_type_id":"4","last_reported":1750428638,"current_range_meters":18800,"station_id":"ce4bhi12rcd13ifvqfq0","pricing_plan_id":"cebpf4jnsgd1na2vs0mg"},{"bike_id":"73a224ff-f6a3-4c18-9279-d392a3f86d72","system_id":"levelo_inurba_marseille","lat":43.217468,"lon":5.345957,"is_reserved":false,"is_disabled":false,"rental_uris":{"android":"levelo://app?vid=73a224ff-f6a3-4c18-9279-d392a3f86d72","ios":"levelo://app?vid=73a224ff-f6a3-4c18-9279-d392a3f86d72"},"vehicle_type_id":"4","last_reported":1750428638,"current_range_meters":18800,"station_id":"st_cvj6r9ubvosntc0bgbag","pricing_plan_id":"cebpf4jnsgd1na2vs0mg"},{"bike_id":"be6fd7cf-4148-482c-9efb-84c28a4bc4fa","system_id":"levelo_inurba_marseille","lat":43.28926,"lon":5.36629,"is_reserved":false,"is_disabled":false,"rental_uris":{"android":"levelo://app?vid=be6fd7cf-4148-482c-9efb-84c28a4bc4fa","ios":"levelo://app?vid=be6fd7cf-4148-482c-9efb-84c28a4bc4fa"},"vehicle_type_id":"4","last_reported":1750428638,"current_range_meters":19200,"station_id":"ce4bhap2rcd13ifvqek0","pricing_plan_id":"cebpf4jnsgd1na2vs0mg"},{"bike_id":"4d8f1c6d-1589-4a64-8073-085a25ccd7e0","system_id":"levelo_inurba_marseille","lat":43.26672,"lon":5.38263,"is_reserved":false,"is_disabled":false,"rental_uris":{"android":"levelo://app?vid=4d8f1c6d-1589-4a64-8073-085a25ccd7e0","ios":"levelo://app?vid=4d8f1c6d-1589-4a64-8073-085a25ccd7e0"},"vehicle_type_id":"4","last_reported":1750428638,"current_range_meters":19200,"station_id":"ce4bhg92rcd13ifvqf90","pricing_plan_id":"cebpf4jnsgd1na2vs0mg"},{"bike_id":"64198631-29f4-47e4-896a-e3675e77b2a1","system_id":"levelo_inurba_marseille","lat":43.211925,"lon":5.350696,"is_reserved":false,"is_disabled":false,"rental_uris":{"android":"levelo://app?vid=64198631-29f4-47e4-896a-e3675e77b2a1","ios":"levelo://app?vid=64198631-29f4-47e4-896a-e3675e77b2a1"},"vehicle_type_id":"4","last_reported":1750428638,"current_range_meters":19200,"station_id":"st_cvj6sg6p6f1abm77japg","pricing_plan_id":"cebpf4jnsgd1na2vs0mg"},{"bike_id":"5187990f-0e38-4183-960c-3c6c679fb2e8","system_id":"levelo_inurba_marseille","lat":43.21226,"lon":5.35103,"is_reserved":false,"is_disabled":false,"rental_uris":{"android":"levelo://app?vid=5187990f-0e38-4183-960c-3c6c679fb2e8","ios":"levelo://app?vid=5187990f-0e38-4183-960c-3c6c679fb2e8"},"vehicle_type_id":"4","last_reported":1750428638,"current_range_meters":19600,"station_id":"","pricing_plan_id":"cebpf4jnsgd1na2vs0mg"},{"bike_id":"2d50ff45-3046-40df-b784-ee274c648ea0","system_id":"levelo_inurba_marseille","lat":43.3203,"lon":5.40817,"is_reserved":false,"is_disabled":false,"rental_uris":{"android":"levelo://app?vid=2d50ff45-3046-40df-b784-ee274c648ea0","ios":"levelo://app?vid=2d50ff45-3046-40df-b784-ee274c648ea0"},"vehicle_type_id":"4","last_reported":1750428638,"current_range_meters":19600,"station_id":"","pricing_plan_id":"cebpf4jnsgd1na2vs0mg"},{"bike_id":"f775844d-a1f9-459b-b0b6-2e5da8159103","system_id":"levelo_inurba_marseille","lat":43.30294,"lon":5.39216,"is_reserved":false,"is_disabled":false,"rental_uris":{"android":"levelo://app?vid=f775844d-a1f9-459b-b0b6-2e5da8159103","ios":"levelo://app?vid=f775844d-a1f9-459b-b0b6-2e5da8159103"},"vehicle_type_id":"4","last_reported":1750428638,"current_range_meters":19600,"station_id":"ce4bgkh2rcd13ifvqbk0","pricing_plan_id":"cebpf4jnsgd1na2vs0mg"},{"bike_id":"6c543eb1-92f1-4738-b01a-c5c28c3a3f58","system_id":"levelo_inurba_marseille","lat":43.30565,"lon":5.36696,"is_reserved":false,"is_disabled":false,"rental_uris":{"android":"levelo://app?vid=6c543eb1-92f1-4738-b01a-c5c28c3a3f58","ios":"levelo://app?vid=6c543eb1-92f1-4738-b01a-c5c28c3a3f58"},"vehicle_type_id":"4","last_reported":1750428638,"current_range_meters":19600,"station_id":"ce4bgrp2rcd13ifvqc9g","pricing_plan_id":"cebpf4jnsgd1na2vs0mg"},{"bike_id":"9853c69b-447d-4e87-98d2-9456178bcde1","system_id":"levelo_inurba_marseille","lat":43.289316,"lon":5.366398,"is_reserved":false,"is_disabled":false,"rental_uris":{"android":"levelo://app?vid=9853c69b-447d-4e87-98d2-9456178bcde1","ios":"levelo://app?vid=9853c69b-447d-4e87-98d2-9456178bcde1"},"vehicle_type_id":"4","last_reported":1750428638,"current_range_meters":19600,"station_id":"ce4bhap2rcd13ifvqek0","pricing_plan_id":"cebpf4jnsgd1na2vs0mg"},{"bike_id":"b9172f31-534e-4fc3-8a03-ac375b34d181","system_id":"levelo_inurba_marseille","lat":43.27371,"lon":5.36259,"is_reserved":false,"is_disabled":false,"rental_uris":{"android":"levelo://app?vid=b9172f31-534e-4fc3-8a03-ac375b34d181","ios":"levelo://app?vid=b9172f31-534e-4fc3-8a03-ac375b34d181"},"vehicle_type_id":"4","last_reported":1750428638,"current_range_meters":19600,"station_id":"ce4bhbh2rcd13ifvqeo0","pricing_plan_id":"cebpf4jnsgd1na2vs0mg"},{"bike_id":"e631847c-453c-4b61-8697-eacfe67a8a5f","system_id":"levelo_inurba_marseille","lat":43.28404,"lon":5.34978,"is_reserved":false,"is_disabled":false,"rental_uris":{"android":"levelo://app?vid=e631847c-453c-4b61-8697-eacfe67a8a5f","ios":"levelo://app?vid=e631847c-453c-4b61-8697-eacfe67a8a5f"},"vehicle_type_id":"4","last_reported":1750428638,"current_range_meters":19600,"station_id":"ce4bhbh2rcd13ifvqepg","pricing_plan_id":"cebpf4jnsgd1na2vs0mg"},{"bike_id":"7fdd42d9-1c0f-48ff-aba0-9c37e3050e67","system_id":"levelo_inurba_marseille","lat":43.28258,"lon":5.35087,"is_reserved":false,"is_disabled":false,"rental_uris":{"android":"levelo://app?vid=7fdd42d9-1c0f-48ff-aba0-9c37e3050e67","ios":"levelo://app?vid=7fdd42d9-1c0f-48ff-aba0-9c37e3050e67"},"vehicle_type_id":"4","last_reported":1750428638,"current_range_meters":19600,"station_id":"ce4bhbp2rcd13ifvqerg","pricing_plan_id":"cebpf4jnsgd1na2vs0mg"},{"bike_id":"39b45180-2e07-4840-8ac0-32dc6c045028","system_id":"levelo_inurba_marseille","lat":43.27549,"lon":5.38427,"is_reserved":false,"is_disabled":false,"rental_uris":{"android":"levelo://app?vid=39b45180-2e07-4840-8ac0-32dc6c045028","ios":"levelo://app?vid=39b45180-2e07-4840-8ac0-32dc6c045028"},"vehicle_type_id":"4","last_reported":1750428638,"current_range_meters":19600,"station_id":"ce4bhh92rcd13ifvqfi0","pricing_plan_id":"cebpf4jnsgd1na2vs0mg"},{"bike_id":"9dad43a7-3eba-43a9-a870-bfcef2dd43ad","system_id":"levelo_inurba_marseille","lat":43.26492,"lon":5.39534,"is_reserved":false,"is_disabled":false,"rental_uris":{"android":"levelo://app?vid=9dad43a7-3eba-43a9-a870-bfcef2dd43ad","ios":"levelo://app?vid=9dad43a7-3eba-43a9-a870-bfcef2dd43ad"},"vehicle_type_id":"4","last_reported":1750428638,"current_range_meters":19600,"station_id":"ce4bhi12rcd13ifvqfq0","pricing_plan_id":"cebpf4jnsgd1na2vs0mg"},{"bike_id":"fc3496b4-4613-4f95-aa30-6c80d3ce652a","system_id":"levelo_inurba_marseille","lat":43.25076,"lon":5.3951,"is_reserved":false,"is_disabled":false,"rental_uris":{"android":"levelo://app?vid=fc3496b4-4613-4f95-aa30-6c80d3ce652a","ios":"levelo://app?vid=fc3496b4-4613-4f95-aa30-6c80d3ce652a"},"vehicle_type_id":"4","last_reported":1750428638,"current_range_meters":19600,"station_id":"ce4bhm12rcd13ifvqgkg","pricing_plan_id":"cebpf4jnsgd1na2vs0mg"},{"bike_id":"4580f6a6-88d8-4aa8-a1b0-20d150e4c111","system_id":"levelo_inurba_marseille","lat":43.22932,"lon":5.35386,"is_reserved":false,"is_disabled":false,"rental_uris":{"android":"levelo://app?vid=4580f6a6-88d8-4aa8-a1b0-20d150e4c111","ios":"levelo://app?vid=4580f6a6-88d8-4aa8-a1b0-20d150e4c111"},"vehicle_type_id":"4","last_reported":1750428638,"current_range_meters":19600,"station_id":"cpo3532slgdg3j2ikp40","pricing_plan_id":"cebpf4jnsgd1na2vs0mg"},{"bike_id":"65490dbb-fb26-48b3-b1b6-17abf527e385","system_id":"levelo_inurba_marseille","lat":43.24178,"lon":5.36436,"is_reserved":false,"is_disabled":false,"rental_uris":{"android":"levelo://app?vid=65490dbb-fb26-48b3-b1b6-17abf527e385","ios":"levelo://app?vid=65490dbb-fb26-48b3-b1b6-17abf527e385"},"vehicle_type_id":"4","last_reported":1750428638,"current_range_meters":19600,"station_id":"cpo36qri1sfpv3e86is0","pricing_plan_id":"cebpf4jnsgd1na2vs0mg"},{"bike_id":"f40b14e2-3a68-45fd-9433-444c784b4081","system_id":"levelo_inurba_marseille","lat":43.21767,"lon":5.34614,"is_reserved":false,"is_disabled":false,"rental_uris":{"android":"levelo://app?vid=f40b14e2-3a68-45fd-9433-444c784b4081","ios":"levelo://app?vid=f40b14e2-3a68-45fd-9433-444c784b4081"},"vehicle_type_id":"4","last_reported":1750428638,"current_range_meters":19600,"station_id":"st_cvj6r9ubvosntc0bgbag","pricing_plan_id":"cebpf4jnsgd1na2vs0mg"},