{"last_updated":1734927130,"ttl":60,"version":"2.2","data":{"bikes":[{"bike_id":"0ca06402-545a-48a5-a281-1a1490dbf1e6","system_id":"levelo_inurba_marseille","lat":43.306015,"lon":5.372231,"is_reserved":false,"is_disabled":false,"rental_uris":{"android":"levelo://app?vid=0ca06402-545a-48a5-a281-1a1490dbf1e6","ios":"levelo://app?vid=0ca06402-545a-48a5-a281-1a1490dbf1e6"},"vehicle_type_id":"4","last_reported":1734927130,"current_range_meters":39200,"station_id":"ce4bgqh2rcd13ifvqc4g","pricing_plan_id":"cebpf4jnsgd1na2vs0mg"},{"bike_id":"00589bd1-5afa-4efc-bc72-e3a2c4be1a3e","system_id":"levelo_inurba_marseille","lat":43.294282,"lon":5.397532,"is_reserved":false,"is_disabled":false,"rental_uris":{"android":"levelo://app?vid=00589bd1-5afa-4efc-bc72-e3a2c4be1a3e","ios":"levelo://app?vid=00589bd1-5afa-4efc-bc72-e3a2c4be1a3e"},"vehicle_type_id":"4","last_reported":1734927130,"current_range_meters":38000,"station_id":"ce4bh3h2rcd13ifvqdo0","pricing_plan_id":"cebpf4jnsgd1na2vs0mg"},{"bike_id":"1029d415-2922-44a9-9380-f46bc513625c","system_id":"levelo_inurba_marseille","lat":43.30544,"lon":5.38431,"is_reserved":false,"is_disabled":false,"rental_uris":{"android":"levelo://app?vid=1029d415-2922-44a9-9380-f46bc513625c","ios":"levelo://app?vid=1029d415-2922-44a9-9380-f46bc513625c"},"vehicle_type_id":"4","last_reported":1734927130,"current_range_meters":38800,"station_id":"ce4bgg92rcd13ifvqb30","pricing_plan_id":"cebpf4jnsgd1na2vs0mg"},{"bike_id":"b5251cd0-66bc-4e10-9cd1-311b5de694fa","system_id":"levelo_inurba_marseille","lat":43.27606,"lon":5.36116,"is_reserved":false,"is_disabled":false,"rental_uris":{"android":"levelo://app?vid=b5251cd0-66bc-4e10-9cd1-311b5de694fa","ios":"levelo://app?vid=b5251cd0-66bc-4e10-9cd1-311b5de694fa"},"vehicle_type_id":"4","last_reported":1734927130,"current_range_meters":14400,"station_id":"ce4bgj92rcd13ifvqbe0","pricing_plan_id":"cebpf4jnsgd1na2vs0mg"},{"bike_id":"44d65f0a-5d9f-447d-9380-50b79290d0af","system_id":"levelo_inurba_marseille","lat":43.288465,"lon":5.393165,"is_reserved":false,"is_disabled":false,"rental_uris":{"android":"levelo://app?vid=44d65f0a-5d9f-447d-9380-50b79290d0af","ios":"levelo://app?vid=44d65f0a-5d9f-447d-9380-50b79290d0af"},"vehicle_type_id":"4","last_reported":1734927130,"current_range_meters":38800,"station_id":"ce4bh2p2rcd13ifvqdi0","pricing_plan_id":"cebpf4jnsgd1na2vs0mg"},{"bike_id":"7c9d8541-9cc9-46cb-bb46-58db15fb582a","system_id":"levelo_inurba_marseille","lat":43.29729,"lon":5.37721,"is_reserved":false,"is_disabled":false,"rental_uris":{"android":"levelo://app?vid=7c9d8541-9cc9-46cb-bb46-58db15fb582a","ios":"levelo://app?vid=7c9d8541-9cc9-46cb-bb46-58db15fb582a"},"vehicle_type_id":"4","last_reported":1734927130,"current_range_meters":38000,"station_id":"ce4bgkh2rcd13ifvqbl0","pricing_plan_id":"cebpf4jnsgd1na2vs0mg"},{"bike_id":"f94b78ab-2580-40bd-9153-2c75f69f90f4","system_id":"levelo_inurba_marseille","lat":43.28939,"lon":5.36637,"is_reserved":false,"is_disabled":false,"rental_uris":{"android":"levelo://app?vid=f94b78ab-2580-40bd-9153-2c75f69f90f4","ios":"levelo://app?vid=f94b78ab-2580-40bd-9153-2c75f69f90f4"},"vehicle_type_id":"4","last_reported":1734927130,"current_range_meters":38400,"station_id":"ce4bhap2rcd13ifvqek0","pricing_plan_id":"cebpf4jnsgd1na2vs0mg"},{"bike_id":"523b429f-b571-4008-b6d4-de088c670be1","system_id":"levelo_inurba_marseille","lat":43.31339,"lon":5.38491,"is_reserved":false,"is_disabled":true,"rental_uris":{"android":"levelo://app?vid=523b429f-b571-4008-b6d4-de088c670be1","ios":"levelo://app?vid=523b429f-b571-4008-b6d4-de088c670be1"},"vehicle_type_id":"4","last_reported":1734927130,"current_range_meters":27600,"station_id":"ce4bgt92rcd13ifvqcf0","pricing_plan_id":"cebpf4jnsgd1na2vs0mg"},{"bike_id":"67034a8e-5efd-4774-9ebc-c28a00434396","system_id":"levelo_inurba_marseille","lat":43.27814,"lon":5.40713,"is_reserved":false,"is_disabled":false,"rental_uris":{"android":"levelo://app?vid=67034a8e-5efd-4774-9ebc-c28a00434396","ios":"levelo://app?vid=67034a8e-5efd-4774-9ebc-c28a00434396"},"vehicle_type_id":"4","last_reported":1734927130,"current_range_meters":38000,"station_id":"ce4bhnh2rcd13ifvqgtg","pricing_plan_id":"cebpf4jnsgd1na2vs0mg"},{"bike_id":"4702cfac-12d8-49a4-ad02-b3722dafb052","system_id":"levelo_inurba_marseille","lat":43.27534,"lon":5.38437,"is_reserved":false,"is_disabled":false,"rental_uris":{"android":"levelo://app?vid=4702cfac-12d8-49a4-ad02-b3722dafb052","ios":"levelo://app?vid=4702cfac-12d8-49a4-ad02-b3722dafb052"},"vehicle_type_id":"4","last_reported":1734927130,"current_range_meters":32400,"station_id":"ce4bhh92rcd13ifvqfi0","pricing_plan_id":"cebpf4jnsgd1na2vs0mg"},{"bike_id":"31389d71-7dbf-49f1-b789-8b313b9821e9","system_id":"levelo_inurba_marseille","lat":43.27565,"lon":5.38426,"is_reserved":false,"is_disabled":false,"rental_uris":{"android":"levelo://app?vid=31389d71-7dbf-49f1-b789-8b313b9821e9","ios":"levelo://app?vid=31389d71-7dbf-49f1-b789-8b313b9821e9"},"vehicle_type_id":"4","last_reported":1734927130,"current_range_meters":38800,"station_id":"ce4bhh92rcd13ifvqfi0","pricing_plan_id":"cebpf4jnsgd1na2vs0mg"},{"bike_id":"96f67906-c94f-4a78-ae6e-fdff28a17019","system_id":"levelo_inurba_marseille","lat":43.337444,"lon":5.374475,"is_reserved":false,"is_disabled":false,"rental_uris":{"android":"levelo://app?vid=96f67906-c94f-4a78-ae6e-fdff28a17019","ios":"levelo://app?vid=96f67906-c94f-4a78-ae6e-fdff28a17019"},"vehicle_type_id":"4","last_reported":1734927130,"current_range_meters":31200,"station_id":"","pricing_plan_id":"cebpf4jnsgd1na2vs0mg"},{"bike_id":"4ae04926-163e-4ffb-be62-88da4a5836ca","system_id":"levelo_inurba_marseille","lat":43.29235,"lon":5.36059,"is_reserved":false,"is_disabled":false,"rental_uris":{"android":"levelo://app?vid=4ae04926-163e-4ffb-be62-88da4a5836ca","ios":"levelo://app?vid=4ae04926-163e-4ffb-be62-88da4a5836ca"},"vehicle_type_id":"4","last_reported":1734927130,"current_range_meters":15200,"station_id":"ce4bhbh2rcd13ifvqeqg","pricing_plan_id":"cebpf4jnsgd1na2vs0mg"},{"bike_id":"11eac3cc-912a-4f92-9c02-04048b64d973","system_id":"levelo_inurba_marseille","lat":43.31648,"lon":5.43716,"is_reserved":false,"is_disabled":false,"rental_uris":{"android":"levelo://app?vid=11eac3cc-912a-4f92-9c02-04048b64d973","ios":"levelo://app?vid=11eac3cc-912a-4f92-9c02-04048b64d973"},"vehicle_type_id":"4","last_reported":1734927130,"current_range_meters":24000,"station_id":"ce4bhp92rcd13ifvqhcg","pricing_plan_id":"cebpf4jnsgd1na2vs0mg"},{"bike_id":"876ed8a6-2c4d-4810-a7c8-88c81271cd29","system_id":"levelo_inurba_marseille","lat":43.27989,"lon":5.40009,"is_reserved":false,"is_disabled":false,"rental_uris":{"android":"levelo://app?vid=876ed8a6-2c4d-4810-a7c8-88c81271cd29","ios":"levelo://app?vid=876ed8a6-2c4d-4810-a7c8-88c81271cd29"},"vehicle_type_id":"4","last_reported":1734927130,"current_range_meters":36000,"station_id":"ce4bho92rcd13ifvqh4g","pricing_plan_id":"cebpf4jnsgd1na2vs0mg"},{"bike_id":"7fecf7cd-57c8-4918-98c5-481fc257cd30","system_id":"levelo_inurba_marseille","lat":43.307909,"lon":5.376522,"is_reserved":false,"is_disabled":false,"rental_uris":{"android":"levelo://app?vid=7fecf7cd-57c8-4918-98c5-481fc257cd30","ios":"levelo://app?vid=7fecf7cd-57c8-4918-98c5-481fc257cd30"},"vehicle_type_id":"4","last_reported":1734927130,"current_range_meters":19200,"station_id":"ce4bgv92rcd13ifvqcq0","pricing_plan_id":"cebpf4jnsgd1na2vs0mg"},{"bike_id":"f1551351-ddfb-4202-ae68-729caaf3deaf","system_id":"levelo_inurba_marseille","lat":43.30786,"lon":5.38175,"is_reserved":false,"is_disabled":false,"rental_uris":{"android":"levelo://app?vid=f1551351-ddfb-4202-ae68-729caaf3deaf","ios":"levelo://app?vid=f1551351-ddfb-4202-ae68-729caaf3deaf"},"vehicle_type_id":"4","last_reported":1734927130,"current_range_meters":27200,"station_id":"ce4bgt12rcd13ifvqce0","pricing_plan_id":"cebpf4jnsgd1na2vs0mg"},{"bike_id":"1aebc178-10f9-4256-9ac1-cc354bf3cb6e","system_id":"levelo_inurba_marseille","lat":43.23185,"lon":5.39982,"is_reserved":false,"is_disabled":false,"rental_uris":{"android":"levelo://app?vid=1aebc178-10f9-4256-9ac1-cc354bf3cb6e","ios":"levelo://app?vid=1aebc178-10f9-4256-9ac1-cc354bf3cb6e"},"vehicle_type_id":"4","last_reported":1734927130,"current_range_meters":30000,"station_id":"ce4bhn12rcd13ifvqgqg","pricing_plan_id":"cebpf4jnsgd1na2vs0mg"},{"bike_id":"7d8f03ed-84f3-4a6f-ad0a-812ad45a9876","system_id":"levelo_inurba_marseille","lat":43.30435,"lon":5.38896,"is_reserved":false,"is_disabled":false,"rental_uris":{"android":"levelo://app?vid=7d8f03ed-84f3-4a6f-ad0a-812ad45a9876","ios":"levelo://app?vid=7d8f03ed-84f3-4a6f-ad0a-812ad45a9876"},"vehicle_type_id":"4","last_reported":1734927130,"current_range_meters":31200,"station_id":"ce4bgk12rcd13ifvqbi0","pricing_plan_id":"cebpf4jnsgd1na2vs0mg"},{"bike_id":"513f5ce3-64a1-4718-b5dd-7599d3f0b2b2","system_id":"levelo_inurba_marseille","lat":43.28195,"lon":5.40297,"is_reserved":false,"is_disabled":false,"rental_uris":{"android":"levelo://app?vid=513f5ce3-64a1-4718-b5dd-7599d3f0b2b2","ios":"levelo://app?vid=513f5ce3-64a1-4718-b5dd-7599d3f0b2b2"},"vehicle_type_id":"4","last_reported":1734927130,"current_range_meters":12800,"station_id":"","pricing_plan_id":"cebpf4jnsgd1na2vs0mg"},{"bike_id":"483c1a88-3d76-4ce2-b8a0-18ab3d6306de","system_id":"levelo_inurba_marseille","lat":43.29934,"lon":5.3654,"is_reserved":false,"is_disabled":false,"rental_uris":{"android":"levelo://app?vid=483c1a88-3d76-4ce2-b8a0-18ab3d6306de","ios":"levelo://app?vid=483c1a88-3d76-4ce2-b8a0-18ab3d6306de"},"vehicle_type_id":"4","last_reported":1734927130,"current_range_meters":12400,"station_id":"ce4bgm92rcd13ifvqbr0","pricing_plan_id":"cebpf4jnsgd1na2vs0mg"},{"bike_id":"05cda9d8-7535-42e2-a4bd-853aa475f1f4","system_id":"levelo_inurba_marseille","lat":43.28465,"lon":5.3589,"is_reserved":false,"is_disabled":false,"rental_uris":{"android":"levelo://app?vid=05cda9d8-7535-42e2-a4bd-853aa475f1f4","ios":"levelo://app?vid=05cda9d8-7535-42e2-a4bd-853aa475f1f4"},"vehicle_type_id":"4","last_reported":1734927130,"current_range_meters":17600,"station_id":"ce4bhah2rcd13ifvqei0","pricing_plan_id":"cebpf4jnsgd1na2vs0mg"},{"bike_id":"843c6878-0e3f-4b01-b1b7-bbb9a0523c31","system_id":"levelo_inurba_marseille","lat":43.32663,"lon":5.40986,"is_reserved":false,"is_disabled":true,"rental_uris":{"android":"levelo://app?vid=843c6878-0e3f-4b01-b1b7-bbb9a0523c31","ios":"levelo://app?vid=843c6878-0e3f-4b01-b1b7-bbb9a0523c31"},"vehicle_type_id":"4","last_reported":1734927130,"current_range_meters":27200,"station_id":"ce4bhpp2rcd13ifvqhgg","pricing_plan_id":"cebpf4jnsgd1na2vs0mg"},{"bike_id":"1e5de7ac-7200-40ae-b566-061958bf5c9a","system_id":"levelo_inurba_marseille","lat":43.25086,"lon":5.39512,"is_reserved":false,"is_disabled":false,"rental_uris":{"android":"levelo://app?vid=1e5de7ac-7200-40ae-b566-061958bf5c9a","ios":"levelo://app?vid=1e5de7ac-7200-40ae-b566-061958bf5c9a"},"vehicle_type_id":"4","last_reported":1734927130,"current_range_meters":26800,"station_id":"ce4bhm12rcd13ifvqgkg","pricing_plan_id":"cebpf4jnsgd1na2vs0mg"},{"bike_id":"db6d4cd6-324d-40d9-b2a7-d53d9856d610","system_id":"levelo_inurba_marseille","lat":43.29338,"lon":5.42823,"is_reserved":false,"is_disabled":true,"rental_uris":{"android":"levelo://app?vid=db6d4cd6-324d-40d9-b2a7-d53d9856d610","ios":"levelo://app?vid=db6d4cd6-324d-40d9-b2a7-d53d9856d610"},"vehicle_type_id":"4","last_reported":1734927130,"current_range_meters":0,"station_id":"","pricing_plan_id":"cebpf4jnsgd1na2vs0mg"},{"bike_id":"60488041-72af-4cd2-8e31-d232fcc73192","system_id":"levelo_inurba_marseille","lat":43.281057,"lon":5.378368,"is_reserved":false,"is_disabled":false,"rental_uris":{"android":"levelo://app?vid=60488041-72af-4cd2-8e31-d232fcc73192","ios":"levelo://app?vid=60488041-72af-4cd2-8e31-d232fcc73192"},"vehicle_type_id":"4","last_reported":1734927130,"current_range_meters":38400,"station_id":"ce4bha12rcd13ifvqee0","pricing_plan_id":"cebpf4jnsgd1na2vs0mg"},{"bike_id":"4e2e6240-5440-4ed7-ace9-4c9e6bd778e5","system_id":"levelo_inurba_marseille","lat":43.24076,"lon":5.37757,"is_reserved":false,"is_disabled":false,"rental_uris":{"android":"levelo://app?vid=4e2e6240-5440-4ed7-ace9-4c9e6bd778e5","ios":"levelo://app?vid=4e2e6240-5440-4ed7-ace9-4c9e6bd778e5"},"vehicle_type_id":"4","last_reported":1734927130,"current_range_meters":29600,"station_id":"ce4bhnp2rcd13ifvqgvg","pricing_plan_id":"cebpf4jnsgd1na2vs0mg"},{"bike_id":"df357b14-4c6a-4905-8927-9863400f5dca","system_id":"levelo_inurba_marseille","lat":43.258674,"lon":5.399037,"is_reserved":false,"is_disabled":false,"rental_uris":{"android":"levelo://app?vid=df357b14-4c6a-4905-8927-9863400f5dca","ios":"levelo://app?vid=df357b14-4c6a-4905-8927-9863400f5dca"},"vehicle_type_id":"4","last_reported":1734927130,"current_range_meters":30000,"station_id":"ce4bhl92rcd13ifvqghg","pricing_plan_id":"cebpf4jnsgd1na2vs0mg"},{"bike_id":"b76cea7e-5025-4e14-a8c7-eebf31292c4c","system_id":"levelo_inurba_marseille","lat":43.2607,"lon":5.39394,"is_reserved":false,"is_disabled":true,"rental_uris":{"android":"levelo://app?vid=b76cea7e-5025-4e14-a8c7-eebf31292c4c","ios":"levelo://app?vid=b76cea7e-5025-4e14-a8c7-eebf31292c4c"},"vehicle_type_id":"4","last_reported":1734927130,"current_range_meters":30400,"station_id":"ce4bhh92rcd13ifvqfj0","pricing_plan_id":"cebpf4jnsgd1na2vs0mg"},{"bike_id":"61d31d0f-b8a0-41e9-a988-1a5e04ea1bd5","system_id":"levelo_inurba_marseille","lat":43.31227,"lon":5.36875,"is_reserved":false,"is_disabled":false,"rental_uris":{"android":"levelo://app?vid=61d31d0f-b8a0-41e9-a988-1a5e04ea1bd5","ios":"levelo://app?vid=61d31d0f-b8a0-41e9-a988-1a5e04ea1bd5"},"vehicle_type_id":"4","last_reported":1734927130,"current_range_meters":28800,"station_id":"ce4bgl92rcd13ifvqbq0","pricing_plan_id":"cebpf4jnsgd1na2vs0mg"},{"bike_id":"61d8749c-767a-4ec7-8eb6-7121beaadce8","system_id":"levelo_inurba_marseille","lat":43.27809,"lon":5.40708,"is_reserved":false,"is_disabled":false,"rental_uris":{"android":"levelo://app?vid=61d8749c-767a-4ec7-8eb6-7121beaadce8","ios":"levelo://app?vid=61d8749c-767a-4ec7-8eb6-7121beaadce8"},"vehicle_type_id":"4","last_reported":1734927130,"current_range_meters":38800,"station_id":"ce4bhnh2rcd13ifvqgtg","pricing_plan_id":"cebpf4jnsgd1na2vs0mg"},{"bike_id":"24fa1a3b-278d-4dd9-a42d-ad0d1b0a7b28","system_id":"levelo_inurba_marseille","lat":43.28405,"lon":5.37555,"is_reserved":false,"is_disabled":false,"rental_uris":{"android":"levelo://app?vid=24fa1a3b-278d-4dd9-a42d-ad0d1b0a7b28","ios":"levelo://app?vid=24fa1a3b-278d-4dd9-a42d-ad0d1b0a7b28"},"vehicle_type_id":"4","last_reported":1734927130,"current_range_meters":38400,"station_id":"ce4bh412rcd13ifvqds0","pricing_plan_id":"cebpf4jnsgd1na2vs0mg"},{"bike_id":"ab65e053-63df-4278-8282-bff7fc66de9e","system_id":"levelo_inurba_marseille","lat":43.26777,"lon":5.39413,"is_reserved":false,"is_disabled":false,"rental_uris":{"android":"levelo://app?vid=ab65e053-63df-4278-8282-bff7fc66de9e","ios":"levelo://app?vid=ab65e053-63df-4278-8282-bff7fc66de9e"},"vehicle_type_id":"4","last_reported":1734927130,"current_range_meters":38000,"station_id":"ce4bhh12rcd13ifvqfg0","pricing_plan_id":"cebpf4jnsgd1na2vs0mg"},{"bike_id":"651844bd-4f3d-4f9f-9e62-99695174b835","system_id":"levelo_inurba_marseille","lat":43.30556,"lon":5.365384,"is_reserved":false,"is_disabled":false,"rental_uris":{"android":"levelo://app?vid=651844bd-4f3d-4f9f-9e62-99695174b835","ios":"levelo://app?vid=651844bd-4f3d-4f9f-9e62-99695174b835"},"vehicle_type_id":"4","last_reported":1734927130,"current_range_meters":28000,"station_id":"ce4bgs12rcd13ifvqcag","pricing_plan_id":"cebpf4jnsgd1na2vs0mg"},{"bike_id":"5d29fc56-dbb2-4006-96bc-27e181f8d4f5","system_id":"levelo_inurba_marseille","lat":43.2984,"lon":5.36286,"is_reserved":false,"is_disabled":false,"rental_uris":{"android":"levelo://app?vid=5d29fc56-dbb2-4006-96bc-27e181f8d4f5","ios":"levelo://app?vid=5d29fc56-dbb2-4006-96bc-27e181f8d4f5"},"vehicle_type_id":"4","last_reported":1734927130,"current_range_meters":30400,"station_id":"ce4bgpp2rcd13ifvqc3g","pricing_plan_id":"cebpf4jnsgd1na2vs0mg"},{"bike_id":"1a2c601a-9a6f-42f3-81d3-dadd0aff24a8","system_id":"levelo_inurba_marseille","lat":43.31038,"lon":5.38359,"is_reserved":false,"is_disabled":false,"rental_uris":{"android":"levelo://app?vid=1a2c601a-9a6f-42f3-81d3-dadd0aff24a8","ios":"levelo://app?vid=1a2c601a-9a6f-42f3-81d3-dadd0aff24a8"},"vehicle_type_id":"4","last_reported":1734927130,"current_range_meters":32400,"station_id":"ce4bgv92rcd13ifvqcr0","pricing_plan_id":"cebpf4jnsgd1na2vs0mg"},{"bike_id":"b7c6dbd5-17a8-4fda-a45a-10a78784087b","system_id":"levelo_inurba_marseille","lat":43.311218,"lon":5.377656,"is_reserved":false,"is_disabled":false,"rental_uris":{"android":"levelo://app?vid=b7c6dbd5-17a8-4fda-a45a-10a78784087b","ios":"levelo://app?vid=b7c6dbd5-17a8-4fda-a45a-10a78784087b"},"vehicle_type_id":"4","last_reported":1734927130,"current_range_meters":36400,"station_id":"ce4bgt92rcd13ifvqcg0","pricing_plan_id":"cebpf4jnsgd1na2vs0mg"},{"bike_id":"56a48d1c-3449-430a-869f-7ffe206319bb","system_id":"levelo_inurba_marseille","lat":43.303036,"lon":5.392069,"is_reserved":false,"is_disabled":false,"rental_uris":{"android":"levelo://app?vid=56a48d1c-3449-430a-869f-7ffe206319bb","ios":"levelo://app?vid=56a48d1c-3449-430a-869f-7ffe206319bb"},"vehicle_type_id":"4","last_reported":1734927130,"current_range_meters":30400,"station_id":"ce4bgkh2rcd13ifvqbk0","pricing_plan_id":"cebpf4jnsgd1na2vs0mg"},{"bike_id":"a2a89b5f-eba3-4b29-a356-3a28a2b973d5","system_id":"levelo_inurba_marseille","lat":43.30615,"lon":5.37226,"is_reserved":false,"is_disabled":false,"rental_uris":{"android":"levelo://app?vid=a2a89b5f-eba3-4b29-a356-3a28a2b973d5","ios":"levelo://app?vid=a2a89b5f-eba3-4b29-a356-3a28a2b973d5"},"vehicle_type_id":"4","last_reported":1734927130,"current_range_meters":24800,"station_id":"ce4bgqh2rcd13ifvqc4g","pricing_plan_id":"cebpf4jnsgd1na2vs0mg"},{"bike_id":"a6aedf24-15e6-4e1b-b0e6-986b9bf6d4a9","system_id":"levelo_inurba_marseille","lat":43.306,"lon":5.39331,"is_reserved":false,"is_disabled":false,"rental_uris":{"android":"levelo://app?vid=a6aedf24-15e6-4e1b-b0e6-986b9bf6d4a9","ios":"levelo://app?vid=a6aedf24-15e6-4e1b-b0e6-986b9bf6d4a9"},"vehicle_type_id":"4","last_reported":1734927130,"current_range_meters":37600,"station_id":"ce4bh0p2rcd13ifvqd80","pricing_plan_id":"cebpf4jnsgd1na2vs0mg"},{"bike_id":"1de67f59-22aa-4099-abb5-58832d90cd65","system_id":"levelo_inurba_marseille","lat":43.301452,"lon":5.380917,"is_reserved":false,"is_disabled":false,"rental_uris":{"android":"levelo://app?vid=1de67f59-22aa-4099-abb5-58832d90cd65","ios":"levelo://app?vid=1de67f59-22aa-4099-abb5-58832d90cd65"},"vehicle_type_id":"4","last_reported":1734927130,"current_range_meters":38000,"station_id":"ce4bgjp2rcd13ifvqbh0","pricing_plan_id":"cebpf4jnsgd1na2vs0mg"},{"bike_id":"41d0d9f5-bb31-41f6-8358-898df39bf21c","system_id":"levelo_inurba_marseille","lat":43.258709,"lon":5.39901,"is_reserved":false,"is_disabled":false,"rental_uris":{"android":"levelo://app?vid=41d0d9f5-bb31-41f6-8358-898df39bf21c","ios":"levelo://app?vid=41d0d9f5-bb31-41f6-8358-898df39bf21c"},"vehicle_type_id":"4","last_reported":1734927130,"current_range_meters":38800,"station_id":"ce4bhl92rcd13ifvqghg","pricing_plan_id":"cebpf4jnsgd1na2vs0mg"},{"bike_id":"7e211114-fd49-4399-8a81-09d040af8d46","system_id":"levelo_inurba_marseille","lat":43.24801,"lon":5.37453,"is_reserved":false,"is_disabled":false,"rental_uris":{"android":"levelo://app?vid=7e211114-fd49-4399-8a81-09d040af8d46","ios":"levelo://app?vid=7e211114-fd49-4399-8a81-09d040af8d46"},"vehicle_type_id":"4","last_reported":1734927130,"current_range_meters":13600,"station_id":"ce4bhgh2rcd13ifvqfb0","pricing_plan_id":"cebpf4jnsgd1na2vs0mg"},{"bike_id":"3c074c94-63da-48f6-987f-923d46375b41","system_id":"levelo_inurba_marseille","lat":43.336112,"lon":5.410198,"is_reserved":false,"is_disabled":false,"rental_uris":{"android":"levelo://app?vid=3c074c94-63da-48f6-987f-923d46375b41","ios":"levelo://app?vid=3c074c94-63da-48f6-987f-923d46375b41"},"vehicle_type_id":"4","last_reported":1734927130,"current_range_meters":38000,"station_id":"ce4bhqh2rcd13ifvqhmg","pricing_plan_id":"cebpf4jnsgd1na2vs0mg"},{"bike_id":"55493f02-3ae5-4a23-8946-9252d63bbe7a","system_id":"levelo_inurba_marseille","lat":43.289257,"lon":5.384025,"is_reserved":false,"is_disabled":true,"rental_uris":{"android":"levelo://app?vid=55493f02-3ae5-4a23-8946-9252d63bbe7a","ios":"levelo://app?vid=55493f02-3ae5-4a23-8946-9252d63bbe7a"},"vehicle_type_id":"4","last_reported":1734927130,"current_range_meters":33600,"station_id":"ce4bh612rcd13ifvqe6g","pricing_plan_id":"cebpf4jnsgd1na2vs0mg"},{"bike_id":"e724f4e5-0922-4e36-91f4-8a4c9d514ff5","system_id":"levelo_inurba_marseille","lat":43.29837,"lon":5.36263,"is_reserved":false,"is_disabled":false,"rental_uris":{"android":"levelo://app?vid=e724f4e5-0922-4e36-91f4-8a4c9d514ff5","ios":"levelo://app?vid=e724f4e5-0922-4e36-91f4-8a4c9d514ff5"},"vehicle_type_id":"4","last_reported":1734927130,"current_range_meters":38000,"station_id":"ce4bgpp2rcd13ifvqc3g","pricing_plan_id":"cebpf4jnsgd1na2vs0mg"},{"bike_id":"e758d540-a49b-4c63-beac-9556d1c03d6f","system_id":"levelo_inurba_marseille","lat":43.31712,"lon":5.4241,"is_reserved":false,"is_disabled":false,"rental_uris":{"android":"levelo://app?vid=e758d540-a49b-4c63-beac-9556d1c03d6f","ios":"levelo://app?vid=e758d540-a49b-4c63-beac-9556d1c03d6f"},"vehicle_type_id":"4","last_reported":1734927130,"current_range_meters":38000,"station_id":"ce4bhp92rcd13ifvqhbg","pricing_plan_id":"cebpf4jnsgd1na2vs0mg"},{"bike_id":"b567452d-1653-4b1e-8f57-3d9ff57e59c9","system_id":"levelo_inurba_marseille","lat":43.29576,"lon":5.37499,"is_reserved":false,"is_disabled":false,"rental_uris":{"android":"levelo://app?vid=b567452d-1653-4b1e-8f57-3d9ff57e59c9","ios":"levelo://app?vid=b567452d-1653-4b1e-8f57-3d9ff57e59c9"},"vehicle_type_id":"4","last_reported":1734927130,"current_range_meters":18800,"station_id":"ce4bgh92rcd13ifvqb50","pricing_plan_id":"cebpf4jnsgd1na2vs0mg"},{"bike_id":"d98f0b8a-1ef4-43b4-85a1-12b00b5f4de1","system_id":"levelo_inurba_marseille","lat":43.28428,"lon":5.34972,"is_reserved":false,"is_disabled":false,"rental_uris":{"android":"levelo://app?vid=d98f0b8a-1ef4-43b4-85a1-12b00b5f4de1","ios":"levelo://app?vid=d98f0b8a-1ef4-43b4-85a1-12b00b5f4de1"},"vehicle_type_id":"4","last_reported":1734927130,"current_range_meters":32800,"station_id":"ce4bhbh2rcd13ifvqepg","pricing_plan_id":"cebpf4jnsgd1na2vs0mg"},{"bike_id":"6fd5e9ee-77ca-4a0d-bf73-4182b3cb9305","system_id":"levelo_inurba_marseille","lat":43.33651,"lon":5.40982,"is_reserved":false,"is_disabled":false,"rental_uris":{"android":"levelo://app?vid=6fd5e9ee-77ca-4a0d-bf73-4182b3cb9305","ios":"levelo://app?vid=6fd5e9ee-77ca-4a0d-bf73-4182b3cb9305"},"vehicle_type_id":"4","last_reported":1734927130,"current_range_meters":15200,"station_id":"","pricing_plan_id":"cebpf4jnsgd1na2vs0mg"},{"bike_id":"73269598-e058-48d7-a70d-4eb341f0501a","system_id":"levelo_inurba_marseille","lat":43.299669,"lon":5.413171,"is_reserved":false,"is_disabled":false,"rental_uris":{"android":"levelo://app?vid=73269598-e058-48d7-a70d-4eb341f0501a","ios":"levelo://app?vid=73269598-e058-48d7-a70d-4eb341f0501a"},"vehicle_type_id":"4","last_reported":1734927130,"current_range_meters":38800,"station_id":"ce4bhp12rcd13ifvqh9g","pricing_plan_id":"cebpf4jnsgd1na2vs0mg"},{"bike_id":"71bbaaf0-30fa-412b-9088-f880a672af88","system_id":"levelo_inurba_marseille","lat":43.26025,"lon":5.37555,"is_reserved":false,"is_disabled":false,"rental_uris":{"android":"levelo://app?vid=71bbaaf0-30fa-412b-9088-f880a672af88","ios":"levelo://app?vid=71bbaaf0-30fa-412b-9088-f880a672af88"},"vehicle_type_id":"4","last_reported":1734927130,"current_range_meters":34000,"station_id":"ce4bhgh2rcd13ifvqfa0","pricing_plan_id":"cebpf4jnsgd1na2vs0mg"},{"bike_id":"efec4761-ced6-4aec-afd8-890699f22542","system_id":"levelo_inurba_marseille","lat":43.31367,"lon":5.38546,"is_reserved":false,"is_disabled":false,"rental_uris":{"android":"levelo://app?vid=efec4761-ced6-4aec-afd8-890699f22542","ios":"levelo://app?vid=efec4761-ced6-4aec-afd8-890699f22542"},"vehicle_type_id":"4","last_reported":1734927130,"current_range_meters":26800,"station_id":"","pricing_plan_id":"cebpf4jnsgd1na2vs0mg"},{"bike_id":"9cb58fb2-fe1e-494e-8368-34a9730a59fb","system_id":"levelo_inurba_marseille","lat":43.28051,"lon":5.36945,"is_reserved":false,"is_disabled":false,"rental_uris":{"android":"levelo://app?vid=9cb58fb2-fe1e-494e-8368-34a9730a59fb","ios":"levelo://app?vid=9cb58fb2-fe1e-494e-8368-34a9730a59fb"},"vehicle_type_id":"4","last_reported":1734927130,"current_range_meters":32800,"station_id":"ce4bha12rcd13ifvqef0","pricing_plan_id":"cebpf4jnsgd1na2vs0mg"},{"bike_id":"d1aed847-98af-41ac-a611-c35d33b973ea","system_id":"levelo_inurba_marseille","lat":43.27925,"lon":5.39571,"is_reserved":false,"is_disabled":true,"rental_uris":{"android":"levelo://app?vid=d1aed847-98af-41ac-a611-c35d33b973ea","ios":"levelo://app?vid=d1aed847-98af-41ac-a611-c35d33b973ea"},"vehicle_type_id":"4","last_reported":1734927130,"current_range_meters":0,"station_id":"ce4bhf92rcd13ifvqf40","pricing_plan_id":"cebpf4jnsgd1na2vs0mg"},{"bike_id":"a45d7bd1-4293-495f-bfde-11f55f0dec91","system_id":"levelo_inurba_marseille","lat":43.25106,"lon":5.403,"is_reserved":false,"is_disabled":false,"rental_uris":{"android":"levelo://app?vid=a45d7bd1-4293-495f-bfde-11f55f0dec91","ios":"levelo://app?vid=a45d7bd1-4293-495f-bfde-11f55f0dec91"},"vehicle_type_id":"4","last_reported":1734927130,"current_range_meters":33200,"station_id":"ce4bhlh2rcd13ifvqgig","pricing_plan_id":"cebpf4jnsgd1na2vs0mg"},{"bike_id":"252b4c9e-12c7-4a8a-8059-ec130627e2f7","system_id":"levelo_inurba_marseille","lat":43.25875,"lon":5.39915,"is_reserved":false,"is_disabled":false,"rental_uris":{"android":"levelo://app?vid=252b4c9e-12c7-4a8a-8059-ec130627e2f7","ios":"levelo://app?vid=252b4c9e-12c7-4a8a-8059-ec130627e2f7"},"vehicle_type_id":"4","last_reported":1734927130,"current_range_meters":23200,"station_id":"ce4bhl92rcd13ifvqghg","pricing_plan_id":"cebpf4jnsgd1na2vs0mg"},{"bike_id":"ede16cbb-850f-47ad-82f6-5d8be41499b7","system_id":"levelo_inurba_marseille","lat":43.30797,"lon":5.43516,"is_reserved":false,"is_disabled":false,"rental_uris":{"android":"levelo://app?vid=ede16cbb-850f-47ad-82f6-5d8be41499b7","ios":"levelo://app?vid=ede16cbb-850f-47ad-82f6-5d8be41499b7"},"vehicle_type_id":"4","last_reported":1734927130,"current_range_meters":38400,"station_id":"ce4bhph2rcd13ifvqheg","pricing_plan_id":"cebpf4jnsgd1na2vs0mg"},{"bike_id":"ab05b55d-29ca-4806-9017-a5f86f5538b7","system_id":"levelo_inurba_marseille","lat":43.27424,"lon":5.39412,"is_reserved":false,"is_disabled":false,"rental_uris":{"android":"levelo://app?vid=ab05b55d-29ca-4806-9017-a5f86f5538b7","ios":"levelo://app?vid=ab05b55d-29ca-4806-9017-a5f86f5538b7"},"vehicle_type_id":"4","last_reported":1734927130,"current_range_meters":39200,"station_id":"ce4bhdp2rcd13ifvqf20","pricing_plan_id":"cebpf4jnsgd1na2vs0mg"},{"bike_id":"cf0ed14a-0bb3-42d8-8cd2-db845291786a","system_id":"levelo_inurba_marseille","lat":43.29773,"lon":5.3936,"is_reserved":false,"is_disabled":false,"rental_uris":{"android":"levelo://app?vid=cf0ed14a-0bb3-42d8-8cd2-db845291786a","ios":"levelo://app?vid=cf0ed14a-0bb3-42d8-8cd2-db845291786a"},"vehicle_type_id":"4","last_reported":1734927130,"current_range_meters":38800,"station_id":"chh1huq6cuj3fo74tm60","pricing_plan_id":"cebpf4jnsgd1na2vs0mg"},{"bike_id":"374d2f6e-4652-4dff-9cb1-eade57150af7","system_id":"levelo_inurba_marseille","lat":43.24069,"lon":5.37754,"is_reserved":false,"is_disabled":false,"rental_uris":{"android":"levelo://app?vid=374d2f6e-4652-4dff-9cb1-eade57150af7","ios":"levelo://app?vid=374d2f6e-4652-4dff-9cb1-eade57150af7"},"vehicle_type_id":"4","last_reported":1734927130,"current_range_meters":22000,"station_id":"ce4bhnp2rcd13ifvqgvg","pricing_plan_id":"cebpf4jnsgd1na2vs0mg"},{"bike_id":"f1ce263c-85e0-45c5-92f6-1727fa9a3ba5","system_id":"levelo_inurba_marseille","lat":43.30114,"lon":5.38819,"is_reserved":false,"is_disabled":false,"rental_uris":{"android":"levelo://app?vid=f1ce263c-85e0-45c5-92f6-1727fa9a3ba5","ios":"levelo://app?vid=f1ce263c-85e0-45c5-92f6-1727fa9a3ba5"},"vehicle_type_id":"4","last_reported":1734927130,"current_range_meters":25200,"station_id":"ce4bghh2rcd13ifvqb60","pricing_plan_id":"cebpf4jnsgd1na2vs0mg"},{"bike_id":"5de55ec3-b446-45b5-9e6a-b67b9996a2b3","system_id":"levelo_inurba_marseille","lat":43.27256,"lon":5.39137,"is_reserved":false,"is_disabled":true,"rental_uris":{"android":"levelo://app?vid=5de55ec3-b446-45b5-9e6a-b67b9996a2b3","ios":"levelo://app?vid=5de55ec3-b446-45b5-9e6a-b67b9996a2b3"},"vehicle_type_id":"4","last_reported":1734927130,"current_range_meters":28800,"station_id":"","pricing_plan_id":"cebpf4jnsgd1na2vs0mg"},{"bike_id":"5a5c04a8-ac3e-41aa-8b09-fe959ffa35cb","system_id":"levelo_inurba_marseille","lat":43.311205,"lon":5.377664,"is_reserved":false,"is_disabled":false,"rental_uris":{"android":"levelo://app?vid=5a5c04a8-ac3e-41aa-8b09-fe959ffa35cb","ios":"levelo://app?vid=5a5c04a8-ac3e-41aa-8b09-fe959ffa35cb"},"vehicle_type_id":"4","last_reported":1734927130,"current_range_meters":38400,"station_id":"ce4bgt92rcd13ifvqcg0","pricing_plan_id":"cebpf4jnsgd1na2vs0mg"},{"bike_id":"afd88562-6d4f-4033-b9d3-3fd8fb966437","system_id":"levelo_inurba_marseille","lat":43.31122,"lon":5.3776,"is_reserved":false,"is_disabled":false,"rental_uris":{"android":"levelo://app?vid=afd88562-6d4f-4033-b9d3-3fd8fb966437","ios":"levelo://app?vid=afd88562-6d4f-4033-b9d3-3fd8fb966437"},"vehicle_type_id":"4","last_reported":1734927130,"current_range_meters":13600,"station_id":"ce4bgt92rcd13ifvqcg0","pricing_plan_id":"cebpf4jnsgd1na2vs0mg"},{"bike_id":"fa27ee24-baf1-4edf-912c-c35c66d5d9f9","system_id":"levelo_inurba_marseille","lat":43.305296,"lon":5.365428,"is_reserved":false,"is_disabled":false,"rental_uris":{"android":"levelo://app?vid=fa27ee24-baf1-4edf-912c-c35c66d5d9f9","ios":"levelo://app?vid=fa27ee24-baf1-4edf-912c-c35c66d5d9f9"},"vehicle_type_id":"4","last_reported":1734927130,"current_range_meters":39200,"station_id":"ce4bgs12rcd13ifvqcag","pricing_plan_id":"cebpf4jnsgd1na2vs0mg"},{"bike_id":"26e54652-e9b9-485b-b812-31277fa1b57a","system_id":"levelo_inurba_marseille","lat":43.292725,"lon":5.401239,"is_reserved":false,"is_disabled":true,"rental_uris":{"android":"levelo://app?vid=26e54652-e9b9-485b-b812-31277fa1b57a","ios":"levelo://app?vid=26e54652-e9b9-485b-b812-31277fa1b57a"},"vehicle_type_id":"4","last_reported":1734927130,"current_range_meters":18800,"station_id":"ce4bh312rcd13ifvqdk0","pricing_plan_id":"cebpf4jnsgd1na2vs0mg"},{"bike_id":"5e0de73a-a847-44f2-bcf4-7954cb16cb7a","system_id":"levelo_inurba_marseille","lat":43.29228,"lon":5.36068,"is_reserved":false,"is_disabled":false,"rental_uris":{"android":"levelo://app?vid=5e0de73a-a847-44f2-bcf4-7954cb16cb7a","ios":"levelo://app?vid=5e0de73a-a847-44f2-bcf4-7954cb16cb7a"},"vehicle_type_id":"4","last_reported":1734927130,"current_range_meters":14400,"station_id":"ce4bhbh2rcd13ifvqeqg","pricing_plan_id":"cebpf4jnsgd1na2vs0mg"},{"bike_id":"6c43cd76-1806-4286-a6e9-ddc4428ed433","system_id":"levelo_inurba_marseille","lat":43.29527,"lon":5.37507,"is_reserved":false,"is_disabled":false,"rental_uris":{"android":"levelo://app?vid=6c43cd76-1806-4286-a6e9-ddc4428ed433","ios":"levelo://app?vid=6c43cd76-1806-4286-a6e9-ddc4428ed433"},"vehicle_type_id":"4","last_reported":1734927130,"current_range_meters":38400,"station_id":"ce4bgkp2rcd13ifvqbmg","pricing_plan_id":"cebpf4jnsgd1na2vs0mg"},{"bike_id":"7859e67b-2d5b-4b77-af18-e80006a9570a","system_id":"levelo_inurba_marseille","lat":43.31445,"lon":5.37297,"is_reserved":false,"is_disabled":false,"rental_uris":{"android":"levelo://app?vid=7859e67b-2d5b-4b77-af18-e80006a9570a","ios":"levelo://app?vid=7859e67b-2d5b-4b77-af18-e80006a9570a"},"vehicle_type_id":"4","last_reported":1734927130,"current_range_meters":38800,"station_id":"ce4bgt12rcd13ifvqcd0","pricing_plan_id":"cebpf4jnsgd1na2vs0mg"},{"bike_id":"c9a1c28a-5529-40f2-8300-568706b98789","system_id":"levelo_inurba_marseille","lat":43.311178,"lon":5.377546,"is_reserved":false,"is_disabled":false,"rental_uris":{"android":"levelo://app?vid=c9a1c28a-5529-40f2-8300-568706b98789","ios":"levelo://app?vid=c9a1c28a-5529-40f2-8300-568706b98789"},"vehicle_type_id":"4","last_reported":1734927130,"current_range_meters":38000,"station_id":"ce4bgt92rcd13ifvqcg0","pricing_plan_id":"cebpf4jnsgd1na2vs0mg"},{"bike_id":"a3f20b06-fbbc-488d-ab74-510676955d57","system_id":"levelo_inurba_marseille","lat":43.31888,"lon":5.40747,"is_reserved":false,"is_disabled":false,"rental_uris":{"android":"levelo://app?vid=a3f20b06-fbbc-488d-ab74-510676955d57","ios":"levelo://app?vid=a3f20b06-fbbc-488d-ab74-510676955d57"},"vehicle_type_id":"4","last_reported":1734927130,"current_range_meters":32400,"station_id":"ce4bhq12rcd13ifvqhig","pricing_plan_id":"cebpf4jnsgd1na2vs0mg"},{"bike_id":"e1c31745-97f0-49bc-aff9-498bd588a03b","system_id":"levelo_inurba_marseille","lat":43.26808,"lon":5.4026,"is_reserved":false,"is_disabled":false,"rental_uris":{"android":"levelo://app?vid=e1c31745-97f0-49bc-aff9-498bd588a03b","ios":"levelo://app?vid=e1c31745-97f0-49bc-aff9-498bd588a03b"},"vehicle_type_id":"4","last_reported":1734927130,"current_range_meters":38800,"station_id":"ce501612rcd8frsf0b60","pricing_plan_id":"cebpf4jnsgd1na2vs0mg"},{"bike_id":"37657e3e-2cab-40a0-8213-0fea5c905c93","system_id":"levelo_inurba_marseille","lat":43.29032,"lon":5.35922,"is_reserved":false,"is_disabled":false,"rental_uris":{"android":"levelo://app?vid=37657e3e-2cab-40a0-8213-0fea5c905c93","ios":"levelo://app?vid=37657e3e-2cab-40a0-8213-0fea5c905c93"},"vehicle_type_id":"4","last_reported":1734927130,"current_range_meters":38800,"station_id":"ce4bha92rcd13ifvqeg0","pricing_plan_id":"cebpf4jnsgd1na2vs0mg"},{"bike_id":"4602f08c-ccf5-4982-92bf-c4dd40d6772d","system_id":"levelo_inurba_marseille","lat":43.291951,"lon":5.358015,"is_reserved":false,"is_disabled":false,"rental_uris":{"android":"levelo://app?vid=4602f08c-ccf5-4982-92bf-c4dd40d6772d","ios":"levelo://app?vid=4602f08c-ccf5-4982-92bf-c4dd40d6772d"},"vehicle_type_id":"4","last_reported":1734927130,"current_range_meters":38800,"station_id":"ce4bhb12rcd13ifvqel0","pricing_plan_id":"cebpf4jnsgd1na2vs0mg"},{"bike_id":"e73e6057-e6e9-407b-a17e-f4e119a96aba","system_id":"levelo_inurba_marseille","lat":43.32106,"lon":5.36772,"is_reserved":false,"is_disabled":false,"rental_uris":{"android":"levelo://app?vid=e73e6057-e6e9-407b-a17e-f4e119a96aba","ios":"levelo://app?vid=e73e6057-e6e9-407b-a17e-f4e119a96aba"},"vehicle_type_id":"4","last_reported":1734927130,"current_range_meters":8800,"station_id":"ce4bhrh2rcd13ifvqhug","pricing_plan_id":"cebpf4jnsgd1na2vs0mg"},{"bike_id":"8c23ca40-0769-4ca8-b1f0-68e8fb86c54b","system_id":"levelo_inurba_marseille","lat":43.25003,"lon":5.38927,"is_reserved":false,"is_disabled":false,"rental_uris":{"android":"levelo://app?vid=8c23ca40-0769-4ca8-b1f0-68e8fb86c54b","ios":"levelo://app?vid=8c23ca40-0769-4ca8-b1f0-68e8fb86c54b"},"vehicle_type_id":"4","last_reported":1734927130,"current_range_meters":10800,"station_id":"ce4bhgp2rcd13ifvqfd0","pricing_plan_id":"cebpf4jnsgd1na2vs0mg"},{"bike_id":"ff19ce84-10b6-4ffc-b9fc-1625914b166c","system_id":"levelo_inurba_marseille","lat":43.29706,"lon":5.36615,"is_reserved":false,"is_disabled":false,"rental_uris":{"android":"levelo://app?vid=ff19ce84-10b6-4ffc-b9fc-1625914b166c","ios":"levelo://app?vid=ff19ce84-10b6-4ffc-b9fc-1625914b166c"},"vehicle_type_id":"4","last_reported":1734927130,"current_range_meters":30800,"station_id":"ce4bgn12rcd13ifvqbt0","pricing_plan_id":"cebpf4jnsgd1na2vs0mg"},{"bike_id":"e41b0b0a-7fc1-4d2c-99e6-38d294487f67","system_id":"levelo_inurba_marseille","lat":43.28664,"lon":5.36359,"is_reserved":false,"is_disabled":false,"rental_uris":{"android":"levelo://app?vid=e41b0b0a-7fc1-4d2c-99e6-38d294487f67","ios":"levelo://app?vid=e41b0b0a-7fc1-4d2c-99e6-38d294487f67"},"vehicle_type_id":"4","last_reported":1734927130,"current_range_meters":38800,"station_id":"ce4bhah2rcd13ifvqej0","pricing_plan_id":"cebpf4jnsgd1na2vs0mg"},{"bike_id":"6a08560b-0a43-454b-9264-e23eff30c55e","system_id":"levelo_inurba_marseille","lat":43.31274,"lon":5.40163,"is_reserved":false,"is_disabled":false,"rental_uris":{"android":"levelo://app?vid=6a08560b-0a43-454b-9264-e23eff30c55e","ios":"levelo://app?vid=6a08560b-0a43-454b-9264-e23eff30c55e"},"vehicle_type_id":"4","last_reported":1734927130,"current_range_meters":38800,"station_id":"ce4bh092rcd13ifvqd30","pricing_plan_id":"cebpf4jnsgd1na2vs0mg"},{"bike_id":"2ecd7a5c-6b03-4906-a193-c1bc16b7668c","system_id":"levelo_inurba_marseille","lat":43.3023,"lon":5.40077,"is_reserved":false,"is_disabled":true,"rental_uris":{"android":"levelo://app?vid=2ecd7a5c-6b03-4906-a193-c1bc16b7668c","ios":"levelo://app?vid=2ecd7a5c-6b03-4906-a193-c1bc16b7668c"},"vehicle_type_id":"4","last_reported":1734927130,"current_range_meters":34800,"station_id":"ce4bgvh2rcd13ifvqcs0","pricing_plan_id":"cebpf4jnsgd1na2vs0mg"},{"bike_id":"4bcb37c0-9249-499d-890c-0bbf93d29f8b","system_id":"levelo_inurba_marseille","lat":43.23188,"lon":5.35554,"is_reserved":false,"is_disabled":true,"rental_uris":{"android":"levelo://app?vid=4bcb37c0-9249-499d-890c-0bbf93d29f8b","ios":"levelo://app?vid=4bcb37c0-9249-499d-890c-0bbf93d29f8b"},"vehicle_type_id":"4","last_reported":1734927130,"current_range_meters":24400,"station_id":"ce4bhu92rcd13ifvqi70","pricing_plan_id":"cebpf4jnsgd1na2vs0mg"},{"bike_id":"57263b19-bd39-4f7b-b29d-fb59d05995ff","system_id":"levelo_inurba_marseille","lat":43.246655,"lon":5.376961,"is_reserved":false,"is_disabled":false,"rental_uris":{"android":"levelo://app?vid=57263b19-bd39-4f7b-b29d-fb59d05995ff","ios":"levelo://app?vid=57263b19-bd39-4f7b-b29d-fb59d05995ff"},"vehicle_type_id":"4","last_reported":1734927130,"current_range_meters":10800,"station_id":"","pricing_plan_id":"cebpf4jnsgd1na2vs0mg"},{"bike_id":"5b22937c-462e-4f52-b2bb-868d31258da1","system_id":"levelo_inurba_marseille","lat":43.31354,"lon":5.3849,"is_reserved":false,"is_disabled":true,"rental_uris":{"android":"levelo://app?vid=5b22937c-462e-4f52-b2bb-868d31258da1","ios":"levelo://app?vid=5b22937c-462e-4f52-b2bb-868d31258da1"},"vehicle_type_id":"4","last_reported":1734927130,"current_range_meters":0,"station_id":"ce4bgt92rcd13ifvqcf0","pricing_plan_id":"cebpf4jnsgd1na2vs0mg"},{"bike_id":"ebd4c9c9-c1c9-4753-be58-a8d7cfdadcd2","system_id":"levelo_inurba_marseille","lat":43.299738,"lon":5.38489,"is_reserved":false,"is_disabled":false,"rental_uris":{"android":"levelo://app?vid=ebd4c9c9-c1c9-4753-be58-a8d7cfdadcd2","ios":"levelo://app?vid=ebd4c9c9-c1c9-4753-be58-a8d7cfdadcd2"},"vehicle_type_id":"4","last_reported":1734927130,"current_range_meters":37600,"station_id":"ce4bgj92rcd13ifvqbd0","pricing_plan_id":"cebpf4jnsgd1na2vs0mg"},{"bike_id":"8b9d5d43-e1e5-4987-a650-78e7d5f537cc","system_id":"levelo_inurba_marseille","lat":43.29705,"lon":5.366,"is_reserved":false,"is_disabled":false,"rental_uris":{"android":"levelo://app?vid=8b9d5d43-e1e5-4987-a650-78e7d5f537cc","ios":"levelo://app?vid=8b9d5d43-e1e5-4987-a650-78e7d5f537cc"},"vehicle_type_id":"4","last_reported":1734927130,"current_range_meters":38000,"station_id":"ce4bgn12rcd13ifvqbt0","pricing_plan_id":"cebpf4jnsgd1na2vs0mg"},{"bike_id":"258fd392-6732-4d6f-9191-a4ceeb268477","system_id":"levelo_inurba_marseille","lat":43.289414,"lon":5.363951,"is_reserved":false,"is_disabled":false,"rental_uris":{"android":"levelo://app?vid=258fd392-6732-4d6f-9191-a4ceeb268477","ios":"levelo://app?vid=258fd392-6732-4d6f-9191-a4ceeb268477"},"vehicle_type_id":"4","last_reported":1734927130,"current_range_meters":33200,"station_id":"ce4bhc92rcd13ifvqetg","pricing_plan_id":"cebpf4jnsgd1na2vs0mg"},{"bike_id":"343bc065-3555-49ac-90b9-9f9335d87211","system_id":"levelo_inurba_marseille","lat":43.25813,"lon":5.39441,"is_reserved":false,"is_disabled":false,"rental_uris":{"android":"levelo://app?vid=343bc065-3555-49ac-90b9-9f9335d87211","ios":"levelo://app?vid=343bc065-3555-49ac-90b9-9f9335d87211"},"vehicle_type_id":"4","last_reported":1734927130,"current_range_meters":35200,"station_id":"ce4bhip2rcd13ifvqft0","pricing_plan_id":"cebpf4jnsgd1na2vs0mg"},{"bike_id":"01a9a6a2-4647-4232-b349-711b3638ffcf","system_id":"levelo_inurba_marseille","lat":43.30141,"lon":5.38076,"is_reserved":false,"is_disabled":false,"rental_uris":{"android":"levelo://app?vid=01a9a6a2-4647-4232-b349-711b3638ffcf","ios":"levelo://app?vid=01a9a6a2-4647-4232-b349-711b3638ffcf"},"vehicle_type_id":"4","last_reported":1734927130,"current_range_meters":32000,"station_id":"ce4bgjp2rcd13ifvqbh0","pricing_plan_id":"cebpf4jnsgd1na2vs0mg"},{"bike_id":"ddbfce67-cbf8-4481-9917-3eaa981e7b2e","system_id":"levelo_inurba_marseille","lat":43.22928,"lon":5.35384,"is_reserved":false,"is_disabled":false,"rental_uris":{"android":"levelo://app?vid=ddbfce67-cbf8-4481-9917-3eaa981e7b2e","ios":"levelo://app?vid=ddbfce67-cbf8-4481-9917-3eaa981e7b2e"},"vehicle_type_id":"4","last_reported":1734927130,"current_range_meters":29600,"station_id":"cpo3532slgdg3j2ikp40","pricing_plan_id":"cebpf4jnsgd1na2vs0mg"},{"bike_id":"f05c7e32-ee1f-4822-9688-1d8bdc5b4813","system_id":"levelo_inurba_marseille","lat":43.26681,"lon":5.38269,"is_reserved":false,"is_disabled":false,"rental_uris":{"android":"levelo://app?vid=f05c7e32-ee1f-4822-9688-1d8bdc5b4813","ios":"levelo://app?vid=f05c7e32-ee1f-4822-9688-1d8bdc5b4813"},"vehicle_type_id":"4","last_reported":1734927130,"current_range_meters":10800,"station_id":"ce4bhg92rcd13ifvqf90","pricing_plan_id":"cebpf4jnsgd1na2vs0mg"},{"bike_id":"0a349881-46d8-4ec0-9688-78a828092ccc","system_id":"levelo_inurba_marseille","lat":43.27554,"lon":5.38423,"is_reserved":false,"is_disabled":false,"rental_uris":{"android":"levelo://app?vid=0a349881-46d8-4ec0-9688-78a828092ccc","ios":"levelo://app?vid=0a349881-46d8-4ec0-9688-78a828092ccc"},"vehicle_type_id":"4","last_reported":1734927130,"current_range_meters":38800,"station_id":"ce4bhh92rcd13ifvqfi0","pricing_plan_id":"cebpf4jnsgd1na2vs0mg"},{"bike_id":"dad6db58-f5bc-4da2-b0b4-3d5d1002166b","system_id":"levelo_inurba_marseille","lat":43.321,"lon":5.36774,"is_reserved":false,"is_disabled":false,"rental_uris":{"android":"levelo://app?vid=dad6db58-f5bc-4da2-b0b4-3d5d1002166b","ios":"levelo://app?vid=dad6db58-f5bc-4da2-b0b4-3d5d1002166b"},"vehicle_type_id":"4","last_reported":1734927130,"current_range_meters":37600,"station_id":"ce4bhrh2rcd13ifvqhug","pricing_plan_id":"cebpf4jnsgd1na2vs0mg"},{"bike_id":"9b379081-9400-478a-a0c1-7fdb9eae259e","system_id":"levelo_inurba_marseille","lat":43.23184,"lon":5.39989,"is_reserved":false,"is_disabled":true,"rental_uris":{"android":"levelo://app?vid=9b379081-9400-478a-a0c1-7fdb9eae259e","ios":"levelo://app?vid=9b379081-9400-478a-a0c1-7fdb9eae259e"},"vehicle_type_id":"4","last_reported":1734927130,"current_range_meters":17600,"station_id":"ce4bhn12rcd13ifvqgqg","pricing_plan_id":"cebpf4jnsgd1na2vs0mg"},{"bike_id":"60770c9f-5288-402e-a2f3-9eefe1cc354e","system_id":"levelo_inurba_marseille","lat":43.29565,"lon":5.375,"is_reserved":false,"is_disabled":false,"rental_uris":{"android":"levelo://app?vid=60770c9f-5288-402e-a2f3-9eefe1cc354e","ios":"levelo://app?vid=60770c9f-5288-402e-a2f3-9eefe1cc354e"},"vehicle_type_id":"4","last_reported":1734927130,"current_range_meters":19200,"station_id":"ce4bgh92rcd13ifvqb50","pricing_plan_id":"cebpf4jnsgd1na2vs0mg"},{"bike_id":"d3686b5b-a829-479e-a14a-439694ed183e","system_id":"levelo_inurba_marseille","lat":43.270662,"lon":5.422767,"is_reserved":false,"is_disabled":false,"rental_uris":{"android":"levelo://app?vid=d3686b5b-a829-479e-a14a-439694ed183e","ios":"levelo://app?vid=d3686b5b-a829-479e-a14a-439694ed183e"},"vehicle_type_id":"4","last_reported":1734927130,"current_range_meters":26000,"station_id":"ce4bhk92rcd13ifvqgb0","pricing_plan_id":"cebpf4jnsgd1na2vs0mg"},{"bike_id":"4413ecaa-a62d-4d62-acc7-513b6d9b231d","system_id":"levelo_inurba_marseille","lat":43.31277,"lon":5.40167,"is_reserved":false,"is_disabled":false,"rental_uris":{"android":"levelo://app?vid=4413ecaa-a62d-4d62-acc7-513b6d9b231d","ios":"levelo://app?vid=4413ecaa-a62d-4d62-acc7-513b6d9b231d"},"vehicle_type_id":"4","last_reported":1734927130,"current_range_meters":30400,"station_id":"ce4bh092rcd13ifvqd30","pricing_plan_id":"cebpf4jnsgd1na2vs0mg"},{"bike_id":"6507bce1-e9b4-4aad-bbab-13ef4b5297a4","system_id":"levelo_inurba_marseille","lat":43.31725,"lon":5.42409,"is_reserved":false,"is_disabled":false,"rental_uris":{"android":"levelo://app?vid=6507bce1-e9b4-4aad-bbab-13ef4b5297a4","ios":"levelo://app?vid=6507bce1-e9b4-4aad-bbab-13ef4b5297a4"},"vehicle_type_id":"4","last_reported":1734927130,"current_range_meters":39200,"station_id":"ce4bhp92rcd13ifvqhbg","pricing_plan_id":"cebpf4jnsgd1na2vs0mg"},{"bike_id":"44127e4e-8e84-4a38-89f7-8f4efb63f7a5","system_id":"levelo_inurba_marseille","lat":43.31172,"lon":5.3676,"is_reserved":false,"is_disabled":true,"rental_uris":{"android":"levelo://app?vid=44127e4e-8e84-4a38-89f7-8f4efb63f7a5","ios":"levelo://app?vid=44127e4e-8e84-4a38-89f7-8f4efb63f7a5"},"vehicle_type_id":"4","last_reported":1734927130,"current_range_meters":0,"station_id":"","pricing_plan_id":"cebpf4jnsgd1na2vs0mg"},{"bike_id":"eae506a3-9f78-4227-a9ba-e37197863c70","system_id":"levelo_inurba_marseille","lat":43.30905,"lon":5.36858,"is_reserved":false,"is_disabled":false,"rental_uris":{"android":"levelo://app?vid=eae506a3-9f78-4227-a9ba-e37197863c70","ios":"levelo://app?vid=eae506a3-9f78-4227-a9ba-e37197863c70"},"vehicle_type_id":"4","last_reported":1734927130,"current_range_meters":38800,"station_id":"ce4bgn92rcd13ifvqbvg","pricing_plan_id":"cebpf4jnsgd1na2vs0mg"},{"bike_id":"1eef5757-2a74-4727-868d-9821df78eaa2","system_id":"levelo_inurba_marseille","lat":43.25877,"lon":5.39916,"is_reserved":false,"is_disabled":false,"rental_uris":{"android":"levelo://app?vid=1eef5757-2a74-4727-868d-9821df78eaa2","ios":"levelo://app?vid=1eef5757-2a74-4727-868d-9821df78eaa2"},"vehicle_type_id":"4","last_reported":1734927130,"current_range_meters":38800,"station_id":"ce4bhl92rcd13ifvqghg","pricing_plan_id":"cebpf4jnsgd1na2vs0mg"},{"bike_id":"ab786567-8bd4-45bd-b8e6-badf38aee9ee","system_id":"levelo_inurba_marseille","lat":43.31279,"lon":5.36743,"is_reserved":false,"is_disabled":false,"rental_uris":{"android":"levelo://app?vid=ab786567-8bd4-45bd-b8e6-badf38aee9ee","ios":"levelo://app?vid=ab786567-8bd4-45bd-b8e6-badf38aee9ee"},"vehicle_type_id":"4","last_reported":1734927130,"current_range_meters":38800,"station_id":"ce4bgr92rcd13ifvqc6g","pricing_plan_id":"cebpf4jnsgd1na2vs0mg"},{"bike_id":"fc89cbac-5c72-48df-b1dd-d331761b39da","system_id":"levelo_inurba_marseille","lat":43.32447,"lon":5.36614,"is_reserved":false,"is_disabled":false,"rental_uris":{"android":"levelo://app?vid=fc89cbac-5c72-48df-b1dd-d331761b39da","ios":"levelo://app?vid=fc89cbac-5c72-48df-b1dd-d331761b39da"},"vehicle_type_id":"4","last_reported":1734927130,"current_range_meters":14800,"station_id":"ce4bhs12rcd13ifvqhvg","pricing_plan_id":"cebpf4jnsgd1na2vs0mg"},{"bike_id":"7d51f556-7ada-4233-9b93-03f8f492aa76","system_id":"levelo_inurba_marseille","lat":43.24533,"lon":5.39527,"is_reserved":false,"is_disabled":true,"rental_uris":{"android":"levelo://app?vid=7d51f556-7ada-4233-9b93-03f8f492aa76","ios":"levelo://app?vid=7d51f556-7ada-4233-9b93-03f8f492aa76"},"vehicle_type_id":"4","last_reported":1734927130,"current_range_meters":14000,"station_id":"ce4bhlp2rcd13ifvqgjg","pricing_plan_id":"cebpf4jnsgd1na2vs0mg"},{"bike_id":"3bdd61d6-e4c3-4336-a2b3-6f388d794652","system_id":"levelo_inurba_marseille","lat":43.27069,"lon":5.42281,"is_reserved":false,"is_disabled":false,"rental_uris":{"android":"levelo://app?vid=3bdd61d6-e4c3-4336-a2b3-6f388d794652","ios":"levelo://app?vid=3bdd61d6-e4c3-4336-a2b3-6f388d794652"},"vehicle_type_id":"4","last_reported":1734927130,"current_range_meters":37600,"station_id":"ce4bhk92rcd13ifvqgb0","pricing_plan_id":"cebpf4jnsgd1na2vs0mg"},{"bike_id":"50ed8d09-e307-4804-8048-b331687ea0e6","system_id":"levelo_inurba_marseille","lat":43.24673,"lon":5.38161,"is_reserved":false,"is_disabled":false,"rental_uris":{"android":"levelo://app?vid=50ed8d09-e307-4804-8048-b331687ea0e6","ios":"levelo://app?vid=50ed8d09-e307-4804-8048-b331687ea0e6"},"vehicle_type_id":"4","last_reported":1734927130,"current_range_meters":25600,"station_id":"ce4bhih2rcd13ifvqfr0","pricing_plan_id":"cebpf4jnsgd1na2vs0mg"},{"bike_id":"7689441e-d9c7-408d-bb49-7889c89dca1d","system_id":"levelo_inurba_marseille","lat":43.29401,"lon":5.42761,"is_reserved":false,"is_disabled":true,"rental_uris":{"android":"levelo://app?vid=7689441e-d9c7-408d-bb49-7889c89dca1d","ios":"levelo://app?vid=7689441e-d9c7-408d-bb49-7889c89dca1d"},"vehicle_type_id":"4","last_reported":1734927130,"current_range_meters":0,"station_id":"","pricing_plan_id":"cebpf4jnsgd1na2vs0mg"},{"bike_id":"3399bddd-a24a-41fd-b331-ea2d2b635021","system_id":"levelo_inurba_marseille","lat":43.29896,"lon":5.43657,"is_reserved":false,"is_disabled":false,"rental_uris":{"android":"levelo://app?vid=3399bddd-a24a-41fd-b331-ea2d2b635021","ios":"levelo://app?vid=3399bddd-a24a-41fd-b331-ea2d2b635021"},"vehicle_type_id":"4","last_reported":1734927130,"current_range_meters":6800,"station_id":"ce4bhpp2rcd13ifvqhfg","pricing_plan_id":"cebpf4jnsgd1na2vs0mg"},{"bike_id":"71365203-264c-4804-af64-6a13e7e9827b","system_id":"levelo_inurba_marseille","lat":43.303146,"lon":5.368914,"is_reserved":false,"is_disabled":false,"rental_uris":{"android":"levelo://app?vid=71365203-264c-4804-af64-6a13e7e9827b","ios":"levelo://app?vid=71365203-264c-4804-af64-6a13e7e9827b"},"vehicle_type_id":"4","last_reported":1734927130,"current_range_meters":28800,"station_id":"ce4bgqh2rcd13ifvqc5g","pricing_plan_id":"cebpf4jnsgd1na2vs0mg"},{"bike_id":"a59b4cb8-90c9-45c9-b1be-98d2502dd8e7","system_id":"levelo_inurba_marseille","lat":43.24654,"lon":5.38153,"is_reserved":false,"is_disabled":false,"rental_uris":{"android":"levelo://app?vid=a59b4cb8-90c9-45c9-b1be-98d2502dd8e7","ios":"levelo://app?vid=a59b4cb8-90c9-45c9-b1be-98d2502dd8e7"},"vehicle_type_id":"4","last_reported":1734927130,"current_range_meters":28000,"station_id":"ce4bhih2rcd13ifvqfr0","pricing_plan_id":"cebpf4jnsgd1na2vs0mg"},{"bike_id":"4c4857d7-70f5-4e5f-9880-b0ffae53456c","system_id":"levelo_inurba_marseille","lat":43.31365,"lon":5.36802,"is_reserved":false,"is_disabled":false,"rental_uris":{"android":"levelo://app?vid=4c4857d7-70f5-4e5f-9880-b0ffae53456c","ios":"levelo://app?vid=4c4857d7-70f5-4e5f-9880-b0ffae53456c"},"vehicle_type_id":"4","last_reported":1734927130,"current_range_meters":31200,"station_id":"","pricing_plan_id":"cebpf4jnsgd1na2vs0mg"},{"bike_id":"59f0f6e8-2688-4e86-9f95-f4d5ae2cc8fe","system_id":"levelo_inurba_marseille","lat":43.302959,"lon":5.392166,"is_reserved":false,"is_disabled":false,"rental_uris":{"android":"levelo://app?vid=59f0f6e8-2688-4e86-9f95-f4d5ae2cc8fe","ios":"levelo://app?vid=59f0f6e8-2688-4e86-9f95-f4d5ae2cc8fe"},"vehicle_type_id":"4","last_reported":1734927130,"current_range_meters":30000,"station_id":"ce4bgkh2rcd13ifvqbk0","pricing_plan_id":"cebpf4jnsgd1na2vs0mg"},{"bike_id":"da429427-7a9a-4c67-9798-8c4930d4e36c","system_id":"levelo_inurba_marseille","lat":43.240723,"lon":5.377623,"is_reserved":false,"is_disabled":false,"rental_uris":{"android":"levelo://app?vid=da429427-7a9a-4c67-9798-8c4930d4e36c","ios":"levelo://app?vid=da429427-7a9a-4c67-9798-8c4930d4e36c"},"vehicle_type_id":"4","last_reported":1734927130,"current_range_meters":33600,"station_id":"ce4bhnp2rcd13ifvqgvg","pricing_plan_id":"cebpf4jnsgd1na2vs0mg"},{"bike_id":"cc446d23-cb7e-4851-8a26-a4d035e7ca9b","system_id":"levelo_inurba_marseille","lat":43.30531,"lon":5.3843,"is_reserved":false,"is_disabled":false,"rental_uris":{"android":"levelo://app?vid=cc446d23-cb7e-4851-8a26-a4d035e7ca9b","ios":"levelo://app?vid=cc446d23-cb7e-4851-8a26-a4d035e7ca9b"},"vehicle_type_id":"4","last_reported":1734927130,"current_range_meters":36400,"station_id":"ce4bgg92rcd13ifvqb30","pricing_plan_id":"cebpf4jnsgd1na2vs0mg"},{"bike_id":"e49c0908-b584-44dc-a33b-91192daad42a","system_id":"levelo_inurba_marseille","lat":43.2958,"lon":5.36779,"is_reserved":false,"is_disabled":false,"rental_uris":{"android":"levelo://app?vid=e49c0908-b584-44dc-a33b-91192daad42a","ios":"levelo://app?vid=e49c0908-b584-44dc-a33b-91192daad42a"},"vehicle_type_id":"4","last_reported":1734927130,"current_range_meters":30000,"station_id":"ce4bgph2rcd13ifvqc2g","pricing_plan_id":"cebpf4jnsgd1na2vs0mg"},{"bike_id":"84e09380-e07c-4182-a487-97ea66008fd0","system_id":"levelo_inurba_marseille","lat":43.29808,"lon":5.38099,"is_reserved":false,"is_disabled":true,"rental_uris":{"android":"levelo://app?vid=84e09380-e07c-4182-a487-97ea66008fd0","ios":"levelo://app?vid=84e09380-e07c-4182-a487-97ea66008fd0"},"vehicle_type_id":"4","last_reported":1734927130,"current_range_meters":24400,"station_id":"ce4bgip2rcd13ifvqbb0","pricing_plan_id":"cebpf4jnsgd1na2vs0mg"},{"bike_id":"9c7eeb5b-f97e-4fc2-ab19-aaf7531bd9e2","system_id":"levelo_inurba_marseille","lat":43.3015,"lon":5.38102,"is_reserved":false,"is_disabled":false,"rental_uris":{"android":"levelo://app?vid=9c7eeb5b-f97e-4fc2-ab19-aaf7531bd9e2","ios":"levelo://app?vid=9c7eeb5b-f97e-4fc2-ab19-aaf7531bd9e2"},"vehicle_type_id":"4","last_reported":1734927130,"current_range_meters":32000,"station_id":"ce4bgjp2rcd13ifvqbh0","pricing_plan_id":"cebpf4jnsgd1na2vs0mg"},{"bike_id":"a31949fc-c827-4916-bb70-27c79fe0607b","system_id":"levelo_inurba_marseille","lat":43.29713,"lon":5.37681,"is_reserved":false,"is_disabled":false,"rental_uris":{"android":"levelo://app?vid=a31949fc-c827-4916-bb70-27c79fe0607b","ios":"levelo://app?vid=a31949fc-c827-4916-bb70-27c79fe0607b"},"vehicle_type_id":"4","last_reported":1734927130,"current_range_meters":39200,"station_id":"ce4bgkh2rcd13ifvqbl0","pricing_plan_id":"cebpf4jnsgd1na2vs0mg"},{"bike_id":"85d62086-a3d1-49e3-9f87-bf67844518de","system_id":"levelo_inurba_marseille","lat":43.29007,"lon":5.3561,"is_reserved":false,"is_disabled":false,"rental_uris":{"android":"levelo://app?vid=85d62086-a3d1-49e3-9f87-bf67844518de","ios":"levelo://app?vid=85d62086-a3d1-49e3-9f87-bf67844518de"},"vehicle_type_id":"4","last_reported":1734927130,"current_range_meters":38000,"station_id":"ce4bhb92rcd13ifvqen0","pricing_plan_id":"cebpf4jnsgd1na2vs0mg"},{"bike_id":"29df60dd-8a8e-4a7f-a093-280b0e2d987d","system_id":"levelo_inurba_marseille","lat":43.25112,"lon":5.40325,"is_reserved":false,"is_disabled":false,"rental_uris":{"android":"levelo://app?vid=29df60dd-8a8e-4a7f-a093-280b0e2d987d","ios":"levelo://app?vid=29df60dd-8a8e-4a7f-a093-280b0e2d987d"},"vehicle_type_id":"4","last_reported":1734927130,"current_range_meters":19200,"station_id":"ce4bhlh2rcd13ifvqgig","pricing_plan_id":"cebpf4jnsgd1na2vs0mg"},{"bike_id":"ef745170-ca6c-4dea-b23c-ef37960438a9","system_id":"levelo_inurba_marseille","lat":43.31132,"lon":5.37746,"is_reserved":false,"is_disabled":false,"rental_uris":{"android":"levelo://app?vid=ef745170-ca6c-4dea-b23c-ef37960438a9","ios":"levelo://app?vid=ef745170-ca6c-4dea-b23c-ef37960438a9"},"vehicle_type_id":"4","last_reported":1734927130,"current_range_meters":8400,"station_id":"ce4bgt92rcd13ifvqcg0","pricing_plan_id":"cebpf4jnsgd1na2vs0mg"},{"bike_id":"ded90c74-f6b9-417a-a609-2eb91947766e","system_id":"levelo_inurba_marseille","lat":43.23196,"lon":5.39973,"is_reserved":false,"is_disabled":false,"rental_uris":{"android":"levelo://app?vid=ded90c74-f6b9-417a-a609-2eb91947766e","ios":"levelo://app?vid=ded90c74-f6b9-417a-a609-2eb91947766e"},"vehicle_type_id":"4","last_reported":1734927130,"current_range_meters":30000,"station_id":"ce4bhn12rcd13ifvqgqg","pricing_plan_id":"cebpf4jnsgd1na2vs0mg"},{"bike_id":"b90b88ca-29ac-4ef1-b1c2-b462caae62b3","system_id":"levelo_inurba_marseille","lat":43.28034,"lon":5.3694,"is_reserved":false,"is_disabled":false,"rental_uris":{"android":"levelo://app?vid=b90b88ca-29ac-4ef1-b1c2-b462caae62b3","ios":"levelo://app?vid=b90b88ca-29ac-4ef1-b1c2-b462caae62b3"},"vehicle_type_id":"4","last_reported":1734927130,"current_range_meters":38800,"station_id":"ce4bha12rcd13ifvqef0","pricing_plan_id":"cebpf4jnsgd1na2vs0mg"},{"bike_id":"07acb95c-0c3e-4a81-aeef-45489d6d94c3","system_id":"levelo_inurba_marseille","lat":43.29554,"lon":5.39972,"is_reserved":false,"is_disabled":false,"rental_uris":{"android":"levelo://app?vid=07acb95c-0c3e-4a81-aeef-45489d6d94c3","ios":"levelo://app?vid=07acb95c-0c3e-4a81-aeef-45489d6d94c3"},"vehicle_type_id":"4","last_reported":1734927130,"current_range_meters":38800,"station_id":"ce4bh312rcd13ifvqdj0","pricing_plan_id":"cebpf4jnsgd1na2vs0mg"},{"bike_id":"54c315b6-ce30-4d23-99a7-a112ef2b7153","system_id":"levelo_inurba_marseille","lat":43.266855,"lon":5.382697,"is_reserved":false,"is_disabled":false,"rental_uris":{"android":"levelo://app?vid=54c315b6-ce30-4d23-99a7-a112ef2b7153","ios":"levelo://app?vid=54c315b6-ce30-4d23-99a7-a112ef2b7153"},"vehicle_type_id":"4","last_reported":1734927130,"current_range_meters":11200,"station_id":"ce4bhg92rcd13ifvqf90","pricing_plan_id":"cebpf4jnsgd1na2vs0mg"},{"bike_id":"7e8975c6-da2c-404e-97b8-cabbfa211dd8","system_id":"levelo_inurba_marseille","lat":43.28935,"lon":5.39648,"is_reserved":false,"is_disabled":true,"rental_uris":{"android":"levelo://app?vid=7e8975c6-da2c-404e-97b8-cabbfa211dd8","ios":"levelo://app?vid=7e8975c6-da2c-404e-97b8-cabbfa211dd8"},"vehicle_type_id":"4","last_reported":1734927130,"current_range_meters":18000,"station_id":"ce4bh3h2rcd13ifvqdn0","pricing_plan_id":"cebpf4jnsgd1na2vs0mg"},{"bike_id":"7774f490-e47f-49c7-81a5-d4ee90122754","system_id":"levelo_inurba_marseille","lat":43.2815,"lon":5.42639,"is_reserved":false,"is_disabled":false,"rental_uris":{"android":"levelo://app?vid=7774f490-e47f-49c7-81a5-d4ee90122754","ios":"levelo://app?vid=7774f490-e47f-49c7-81a5-d4ee90122754"},"vehicle_type_id":"4","last_reported":1734927130,"current_range_meters":18800,"station_id":"ce4bhnh2rcd13ifvqgug","pricing_plan_id":"cebpf4jnsgd1na2vs0mg"},{"bike_id":"fa46f150-8345-4c47-89dc-dd714e8f2794","system_id":"levelo_inurba_marseille","lat":43.296905,"lon":5.36595,"is_reserved":false,"is_disabled":false,"rental_uris":{"android":"levelo://app?vid=fa46f150-8345-4c47-89dc-dd714e8f2794","ios":"levelo://app?vid=fa46f150-8345-4c47-89dc-dd714e8f2794"},"vehicle_type_id":"4","last_reported":1734927130,"current_range_meters":38800,"station_id":"ce4bgn12rcd13ifvqbt0","pricing_plan_id":"cebpf4jnsgd1na2vs0mg"},{"bike_id":"d67e77fe-33d0-4f2c-9baa-01a12ea64716","system_id":"levelo_inurba_marseille","lat":43.255813,"lon":5.382457,"is_reserved":false,"is_disabled":false,"rental_uris":{"android":"levelo://app?vid=d67e77fe-33d0-4f2c-9baa-01a12ea64716","ios":"levelo://app?vid=d67e77fe-33d0-4f2c-9baa-01a12ea64716"},"vehicle_type_id":"4","last_reported":1734927130,"current_range_meters":39200,"station_id":"ce4bhih2rcd13ifvqfs0","pricing_plan_id":"cebpf4jnsgd1na2vs0mg"},{"bike_id":"1f9f0188-3181-4844-ac85-01533254bf9e","system_id":"levelo_inurba_marseille","lat":43.31129,"lon":5.377678,"is_reserved":false,"is_disabled":false,"rental_uris":{"android":"levelo://app?vid=1f9f0188-3181-4844-ac85-01533254bf9e","ios":"levelo://app?vid=1f9f0188-3181-4844-ac85-01533254bf9e"},"vehicle_type_id":"4","last_reported":1734927130,"current_range_meters":35200,"station_id":"ce4bgt92rcd13ifvqcg0","pricing_plan_id":"cebpf4jnsgd1na2vs0mg"},{"bike_id":"3174c70f-58ab-444d-925c-f2800db09601","system_id":"levelo_inurba_marseille","lat":43.2953,"lon":5.37495,"is_reserved":false,"is_disabled":false,"rental_uris":{"android":"levelo://app?vid=3174c70f-58ab-444d-925c-f2800db09601","ios":"levelo://app?vid=3174c70f-58ab-444d-925c-f2800db09601"},"vehicle_type_id":"4","last_reported":1734927130,"current_range_meters":35200,"station_id":"ce4bgkp2rcd13ifvqbmg","pricing_plan_id":"cebpf4jnsgd1na2vs0mg"},{"bike_id":"06e2db5c-9e5a-4b1d-903e-b410b67c016d","system_id":"levelo_inurba_marseille","lat":43.251204,"lon":5.403159,"is_reserved":false,"is_disabled":false,"rental_uris":{"android":"levelo://app?vid=06e2db5c-9e5a-4b1d-903e-b410b67c016d","ios":"levelo://app?vid=06e2db5c-9e5a-4b1d-903e-b410b67c016d"},"vehicle_type_id":"4","last_reported":1734927130,"current_range_meters":38000,"station_id":"ce4bhlh2rcd13ifvqgig","pricing_plan_id":"cebpf4jnsgd1na2vs0mg"},{"bike_id":"ff56034c-dd12-401a-8a88-7523c2f1a1ed","system_id":"levelo_inurba_marseille","lat":43.26085,"lon":5.39371,"is_reserved":false,"is_disabled":false,"rental_uris":{"android":"levelo://app?vid=ff56034c-dd12-401a-8a88-7523c2f1a1ed","ios":"levelo://app?vid=ff56034c-dd12-401a-8a88-7523c2f1a1ed"},"vehicle_type_id":"4","last_reported":1734927130,"current_range_meters":34000,"station_id":"ce4bhh92rcd13ifvqfj0","pricing_plan_id":"cebpf4jnsgd1na2vs0mg"},{"bike_id":"b57b0842-5fbc-444e-99f7-26665524b05d","system_id":"levelo_inurba_marseille","lat":43.30812,"lon":5.43524,"is_reserved":false,"is_disabled":false,"rental_uris":{"android":"levelo://app?vid=b57b0842-5fbc-444e-99f7-26665524b05d","ios":"levelo://app?vid=b57b0842-5fbc-444e-99f7-26665524b05d"},"vehicle_type_id":"4","last_reported":1734927130,"current_range_meters":38800,"station_id":"ce4bhph2rcd13ifvqheg","pricing_plan_id":"cebpf4jnsgd1na2vs0mg"},{"bike_id":"77dc8de3-d16b-4cbd-8cdb-78895ada76c7","system_id":"levelo_inurba_marseille","lat":43.29412,"lon":5.38626,"is_reserved":false,"is_disabled":false,"rental_uris":{"android":"levelo://app?vid=77dc8de3-d16b-4cbd-8cdb-78895ada76c7","ios":"levelo://app?vid=77dc8de3-d16b-4cbd-8cdb-78895ada76c7"},"vehicle_type_id":"4","last_reported":1734927130,"current_range_meters":38800,"station_id":"ce4bh2h2rcd13ifvqdh0","pricing_plan_id":"cebpf4jnsgd1na2vs0mg"},{"bike_id":"591e56d3-570f-4000-8104-235340497ab2","system_id":"levelo_inurba_marseille","lat":43.2803,"lon":5.36938,"is_reserved":false,"is_disabled":false,"rental_uris":{"android":"levelo://app?vid=591e56d3-570f-4000-8104-235340497ab2","ios":"levelo://app?vid=591e56d3-570f-4000-8104-235340497ab2"},"vehicle_type_id":"4","last_reported":1734927130,"current_range_meters":38800,"station_id":"ce4bha12rcd13ifvqef0","pricing_plan_id":"cebpf4jnsgd1na2vs0mg"},{"bike_id":"880e30c9-d3a2-4e0f-be91-aa2115d79248","system_id":"levelo_inurba_marseille","lat":43.23187,"lon":5.39984,"is_reserved":false,"is_disabled":false,"rental_uris":{"android":"levelo://app?vid=880e30c9-d3a2-4e0f-be91-aa2115d79248","ios":"levelo://app?vid=880e30c9-d3a2-4e0f-be91-aa2115d79248"},"vehicle_type_id":"4","last_reported":1734927130,"current_range_meters":39200,"station_id":"ce4bhn12rcd13ifvqgqg","pricing_plan_id":"cebpf4jnsgd1na2vs0mg"},{"bike_id":"17c8ca44-2370-40ed-a2ff-3881fd21ee02","system_id":"levelo_inurba_marseille","lat":43.231878,"lon":5.399823,"is_reserved":false,"is_disabled":false,"rental_uris":{"android":"levelo://app?vid=17c8ca44-2370-40ed-a2ff-3881fd21ee02","ios":"levelo://app?vid=17c8ca44-2370-40ed-a2ff-3881fd21ee02"},"vehicle_type_id":"4","last_reported":1734927130,"current_range_meters":38800,"station_id":"ce4bhn12rcd13ifvqgqg","pricing_plan_id":"cebpf4jnsgd1na2vs0mg"},{"bike_id":"61f2f69e-7b73-48a1-b346-6a5c1ca568d5","system_id":"levelo_inurba_marseille","lat":43.28,"lon":5.38701,"is_reserved":false,"is_disabled":false,"rental_uris":{"android":"levelo://app?vid=61f2f69e-7b73-48a1-b346-6a5c1ca568d5","ios":"levelo://app?vid=61f2f69e-7b73-48a1-b346-6a5c1ca568d5"},"vehicle_type_id":"4","last_reported":1734927130,"current_range_meters":24000,"station_id":"ce4bhg12rcd13ifvqf80","pricing_plan_id":"cebpf4jnsgd1na2vs0mg"},{"bike_id":"5c5b1e97-9798-43d9-92c1-016deefe50ec","system_id":"levelo_inurba_marseille","lat":43.25103,"lon":5.40324,"is_reserved":false,"is_disabled":false,"rental_uris":{"android":"levelo://app?vid=5c5b1e97-9798-43d9-92c1-016deefe50ec","ios":"levelo://app?vid=5c5b1e97-9798-43d9-92c1-016deefe50ec"},"vehicle_type_id":"4","last_reported":1734927130,"current_range_meters":12400,"station_id":"ce4bhlh2rcd13ifvqgig","pricing_plan_id":"cebpf4jnsgd1na2vs0mg"},{"bike_id":"39e3c689-23f1-439a-9277-97bd1a4600ec","system_id":"levelo_inurba_marseille","lat":43.32284,"lon":5.38275,"is_reserved":false,"is_disabled":false,"rental_uris":{"android":"levelo://app?vid=39e3c689-23f1-439a-9277-97bd1a4600ec","ios":"levelo://app?vid=39e3c689-23f1-439a-9277-97bd1a4600ec"},"vehicle_type_id":"4","last_reported":1734927130,"current_range_meters":38800,"station_id":"ce4bhr12rcd13ifvqhqg","pricing_plan_id":"cebpf4jnsgd1na2vs0mg"},{"bike_id":"46611bb0-2fc9-4dc9-9dfe-ebe29c8484c7","system_id":"levelo_inurba_marseille","lat":43.32643,"lon":5.40994,"is_reserved":false,"is_disabled":false,"rental_uris":{"android":"levelo://app?vid=46611bb0-2fc9-4dc9-9dfe-ebe29c8484c7","ios":"levelo://app?vid=46611bb0-2fc9-4dc9-9dfe-ebe29c8484c7"},"vehicle_type_id":"4","last_reported":1734927130,"current_range_meters":37600,"station_id":"ce4bhpp2rcd13ifvqhgg","pricing_plan_id":"cebpf4jnsgd1na2vs0mg"},{"bike_id":"1bfb59b3-5d70-4c84-8077-a6771e996a2b","system_id":"levelo_inurba_marseille","lat":43.29933,"lon":5.36534,"is_reserved":false,"is_disabled":false,"rental_uris":{"android":"levelo://app?vid=1bfb59b3-5d70-4c84-8077-a6771e996a2b","ios":"levelo://app?vid=1bfb59b3-5d70-4c84-8077-a6771e996a2b"},"vehicle_type_id":"4","last_reported":1734927130,"current_range_meters":38800,"station_id":"ce4bgm92rcd13ifvqbr0","pricing_plan_id":"cebpf4jnsgd1na2vs0mg"},{"bike_id":"b9a2a5db-4e4f-4472-9221-981416be1b6c","system_id":"levelo_inurba_marseille","lat":43.30136,"lon":5.39872,"is_reserved":false,"is_disabled":true,"rental_uris":{"android":"levelo://app?vid=b9a2a5db-4e4f-4472-9221-981416be1b6c","ios":"levelo://app?vid=b9a2a5db-4e4f-4472-9221-981416be1b6c"},"vehicle_type_id":"4","last_reported":1734927130,"current_range_meters":31200,"station_id":"ce4bh0h2rcd13ifvqd40","pricing_plan_id":"cebpf4jnsgd1na2vs0mg"},{"bike_id":"68db534e-0067-497a-971b-c0ac21bdd722","system_id":"levelo_inurba_marseille","lat":43.261969,"lon":5.379265,"is_reserved":false,"is_disabled":false,"rental_uris":{"android":"levelo://app?vid=68db534e-0067-497a-971b-c0ac21bdd722","ios":"levelo://app?vid=68db534e-0067-497a-971b-c0ac21bdd722"},"vehicle_type_id":"4","last_reported":1734927130,"current_range_meters":38800,"station_id":"ce4bhjp2rcd13ifvqg90","pricing_plan_id":"cebpf4jnsgd1na2vs0mg"},{"bike_id":"17179ca1-3801-4efc-955a-b6fb719c4d07","system_id":"levelo_inurba_marseille","lat":43.29371,"lon":5.37842,"is_reserved":false,"is_disabled":false,"rental_uris":{"android":"levelo://app?vid=17179ca1-3801-4efc-955a-b6fb719c4d07","ios":"levelo://app?vid=17179ca1-3801-4efc-955a-b6fb719c4d07"},"vehicle_type_id":"4","last_reported":1734927130,"current_range_meters":38800,"station_id":"ce4bgjh2rcd13ifvqbf0","pricing_plan_id":"cebpf4jnsgd1na2vs0mg"},{"bike_id":"0c5de0f9-0c1b-4d60-8fb2-53c22faee0bb","system_id":"levelo_inurba_marseille","lat":43.28473,"lon":5.38433,"is_reserved":false,"is_disabled":true,"rental_uris":{"android":"levelo://app?vid=0c5de0f9-0c1b-4d60-8fb2-53c22faee0bb","ios":"levelo://app?vid=0c5de0f9-0c1b-4d60-8fb2-53c22faee0bb"},"vehicle_type_id":"4","last_reported":1734927130,"current_range_meters":9600,"station_id":"ce4bh512rcd13ifvqe3g","pricing_plan_id":"cebpf4jnsgd1na2vs0mg"},{"bike_id":"6ecdd0cc-c92e-450b-b9f4-dc4b3c7a7060","system_id":"levelo_inurba_marseille","lat":43.30167,"lon":5.38115,"is_reserved":false,"is_disabled":false,"rental_uris":{"android":"levelo://app?vid=6ecdd0cc-c92e-450b-b9f4-dc4b3c7a7060","ios":"levelo://app?vid=6ecdd0cc-c92e-450b-b9f4-dc4b3c7a7060"},"vehicle_type_id":"4","last_reported":1734927130,"current_range_meters":38000,"station_id":"ce4bgjp2rcd13ifvqbh0","pricing_plan_id":"cebpf4jnsgd1na2vs0mg"},{"bike_id":"18bc712f-05f8-4bfe-a81a-9b0f3911a5b1","system_id":"levelo_inurba_marseille","lat":43.2756,"lon":5.38432,"is_reserved":false,"is_disabled":false,"rental_uris":{"android":"levelo://app?vid=18bc712f-05f8-4bfe-a81a-9b0f3911a5b1","ios":"levelo://app?vid=18bc712f-05f8-4bfe-a81a-9b0f3911a5b1"},"vehicle_type_id":"4","last_reported":1734927130,"current_range_meters":38800,"station_id":"ce4bhh92rcd13ifvqfi0","pricing_plan_id":"cebpf4jnsgd1na2vs0mg"},{"bike_id":"ea17cfdb-c345-440f-8386-310685aac5f3","system_id":"levelo_inurba_marseille","lat":43.284646,"lon":5.358911,"is_reserved":false,"is_disabled":false,"rental_uris":{"android":"levelo://app?vid=ea17cfdb-c345-440f-8386-310685aac5f3","ios":"levelo://app?vid=ea17cfdb-c345-440f-8386-310685aac5f3"},"vehicle_type_id":"4","last_reported":1734927130,"current_range_meters":25600,"station_id":"ce4bhah2rcd13ifvqei0","pricing_plan_id":"cebpf4jnsgd1na2vs0mg"},{"bike_id":"2d995820-d040-480b-a897-bf9d5f03891e","system_id":"levelo_inurba_marseille","lat":43.29386,"lon":5.37863,"is_reserved":false,"is_disabled":true,"rental_uris":{"android":"levelo://app?vid=2d995820-d040-480b-a897-bf9d5f03891e","ios":"levelo://app?vid=2d995820-d040-480b-a897-bf9d5f03891e"},"vehicle_type_id":"4","last_reported":1734927130,"current_range_meters":32400,"station_id":"ce4bgjh2rcd13ifvqbf0","pricing_plan_id":"cebpf4jnsgd1na2vs0mg"},{"bike_id":"343bdba5-56cf-4dfd-9495-0464c409cdad","system_id":"levelo_inurba_marseille","lat":43.24061,"lon":5.37754,"is_reserved":false,"is_disabled":false,"rental_uris":{"android":"levelo://app?vid=343bdba5-56cf-4dfd-9495-0464c409cdad","ios":"levelo://app?vid=343bdba5-56cf-4dfd-9495-0464c409cdad"},"vehicle_type_id":"4","last_reported":1734927130,"current_range_meters":30800,"station_id":"ce4bhnp2rcd13ifvqgvg","pricing_plan_id":"cebpf4jnsgd1na2vs0mg"},{"bike_id":"13b86537-f90d-4e73-8d81-e42239efbc6c","system_id":"levelo_inurba_marseille","lat":43.29697,"lon":5.37702,"is_reserved":false,"is_disabled":false,"rental_uris":{"android":"levelo://app?vid=13b86537-f90d-4e73-8d81-e42239efbc6c","ios":"levelo://app?vid=13b86537-f90d-4e73-8d81-e42239efbc6c"},"vehicle_type_id":"4","last_reported":1734927130,"current_range_meters":16400,"station_id":"ce4bgkh2rcd13ifvqbl0","pricing_plan_id":"cebpf4jnsgd1na2vs0mg"},{"bike_id":"b59444f2-fe48-4bbc-b787-87f5eb72124a","system_id":"levelo_inurba_marseille","lat":43.274718,"lon":5.409192,"is_reserved":false,"is_disabled":false,"rental_uris":{"android":"levelo://app?vid=b59444f2-fe48-4bbc-b787-87f5eb72124a","ios":"levelo://app?vid=b59444f2-fe48-4bbc-b787-87f5eb72124a"},"vehicle_type_id":"4","last_reported":1734927130,"current_range_meters":23200,"station_id":"","pricing_plan_id":"cebpf4jnsgd1na2vs0mg"},{"bike_id":"aa7ac496-9c7e-42a6-bf7b-8944e5ebf97a","system_id":"levelo_inurba_marseille","lat":43.302154,"lon":5.394605,"is_reserved":false,"is_disabled":false,"rental_uris":{"android":"levelo://app?vid=aa7ac496-9c7e-42a6-bf7b-8944e5ebf97a","ios":"levelo://app?vid=aa7ac496-9c7e-42a6-bf7b-8944e5ebf97a"},"vehicle_type_id":"4","last_reported":1734927130,"current_range_meters":37600,"station_id":"ce4bh0p2rcd13ifvqd70","pricing_plan_id":"cebpf4jnsgd1na2vs0mg"},{"bike_id":"dfcdb34a-6d91-4bd5-83b3-df14955564a1","system_id":"levelo_inurba_marseille","lat":43.278338,"lon":5.392128,"is_reserved":false,"is_disabled":true,"rental_uris":{"android":"levelo://app?vid=dfcdb34a-6d91-4bd5-83b3-df14955564a1","ios":"levelo://app?vid=dfcdb34a-6d91-4bd5-83b3-df14955564a1"},"vehicle_type_id":"4","last_reported":1734927130,"current_range_meters":38400,"station_id":"ce4bhjp2rcd13ifvqga0","pricing_plan_id":"cebpf4jnsgd1na2vs0mg"},{"bike_id":"4f188835-24c2-4591-b181-38380001a4af","system_id":"levelo_inurba_marseille","lat":43.24658,"lon":5.38159,"is_reserved":false,"is_disabled":false,"rental_uris":{"android":"levelo://app?vid=4f188835-24c2-4591-b181-38380001a4af","ios":"levelo://app?vid=4f188835-24c2-4591-b181-38380001a4af"},"vehicle_type_id":"4","last_reported":1734927130,"current_range_meters":38000,"station_id":"ce4bhih2rcd13ifvqfr0","pricing_plan_id":"cebpf4jnsgd1na2vs0mg"},{"bike_id":"febaeda0-8a66-4946-b7c1-56104d3c578a","system_id":"levelo_inurba_marseille","lat":43.30795,"lon":5.38161,"is_reserved":false,"is_disabled":true,"rental_uris":{"android":"levelo://app?vid=febaeda0-8a66-4946-b7c1-56104d3c578a","ios":"levelo://app?vid=febaeda0-8a66-4946-b7c1-56104d3c578a"},"vehicle_type_id":"4","last_reported":1734927130,"current_range_meters":27200,"station_id":"ce4bgt12rcd13ifvqce0","pricing_plan_id":"cebpf4jnsgd1na2vs0mg"},{"bike_id":"7fd6c627-d0f3-4029-b690-a65e960a06d3","system_id":"levelo_inurba_marseille","lat":43.3153,"lon":5.38031,"is_reserved":false,"is_disabled":false,"rental_uris":{"android":"levelo://app?vid=7fd6c627-d0f3-4029-b690-a65e960a06d3","ios":"levelo://app?vid=7fd6c627-d0f3-4029-b690-a65e960a06d3"},"vehicle_type_id":"4","last_reported":1734927130,"current_range_meters":38800,"station_id":"ce4bhsp2rcd13ifvqi50","pricing_plan_id":"cebpf4jnsgd1na2vs0mg"},{"bike_id":"a2555a23-cd88-48a7-beec-818e94b1f4ae","system_id":"levelo_inurba_marseille","lat":43.26529,"lon":5.39054,"is_reserved":false,"is_disabled":false,"rental_uris":{"android":"levelo://app?vid=a2555a23-cd88-48a7-beec-818e94b1f4ae","ios":"levelo://app?vid=a2555a23-cd88-48a7-beec-818e94b1f4ae"},"vehicle_type_id":"4","last_reported":1734927130,"current_range_meters":17200,"station_id":"","pricing_plan_id":"cebpf4jnsgd1na2vs0mg"},{"bike_id":"60be88e0-aac5-4d1f-ba4c-6897dd4ea8d3","system_id":"levelo_inurba_marseille","lat":43.28885,"lon":5.35828,"is_reserved":false,"is_disabled":false,"rental_uris":{"android":"levelo://app?vid=60be88e0-aac5-4d1f-ba4c-6897dd4ea8d3","ios":"levelo://app?vid=60be88e0-aac5-4d1f-ba4c-6897dd4ea8d3"},"vehicle_type_id":"4","last_reported":1734927130,"current_range_meters":37600,"station_id":"ce4bhb12rcd13ifvqem0","pricing_plan_id":"cebpf4jnsgd1na2vs0mg"},{"bike_id":"49580bca-7fdd-4980-ba9d-b58e16ff3054","system_id":"levelo_inurba_marseille","lat":43.29838,"lon":5.36271,"is_reserved":false,"is_disabled":false,"rental_uris":{"android":"levelo://app?vid=49580bca-7fdd-4980-ba9d-b58e16ff3054","ios":"levelo://app?vid=49580bca-7fdd-4980-ba9d-b58e16ff3054"},"vehicle_type_id":"4","last_reported":1734927130,"current_range_meters":29600,"station_id":"ce4bgpp2rcd13ifvqc3g","pricing_plan_id":"cebpf4jnsgd1na2vs0mg"},{"bike_id":"37651857-4ea3-40a5-8e9f-7a46451c9547","system_id":"levelo_inurba_marseille","lat":43.30412,"lon":5.41281,"is_reserved":false,"is_disabled":false,"rental_uris":{"android":"levelo://app?vid=37651857-4ea3-40a5-8e9f-7a46451c9547","ios":"levelo://app?vid=37651857-4ea3-40a5-8e9f-7a46451c9547"},"vehicle_type_id":"4","last_reported":1734927130,"current_range_meters":28000,"station_id":"ce4bhop2rcd13ifvqh8g","pricing_plan_id":"cebpf4jnsgd1na2vs0mg"},{"bike_id":"24a28824-23fe-4a40-97b0-c8ce73315934","system_id":"levelo_inurba_marseille","lat":43.25821,"lon":5.39436,"is_reserved":false,"is_disabled":false,"rental_uris":{"android":"levelo://app?vid=24a28824-23fe-4a40-97b0-c8ce73315934","ios":"levelo://app?vid=24a28824-23fe-4a40-97b0-c8ce73315934"},"vehicle_type_id":"4","last_reported":1734927130,"current_range_meters":26000,"station_id":"ce4bhip2rcd13ifvqft0","pricing_plan_id":"cebpf4jnsgd1na2vs0mg"},{"bike_id":"ef79c047-6c72-4916-ad9a-fd9a3dd38f21","system_id":"levelo_inurba_marseille","lat":43.274961,"lon":5.424551,"is_reserved":false,"is_disabled":false,"rental_uris":{"android":"levelo://app?vid=ef79c047-6c72-4916-ad9a-fd9a3dd38f21","ios":"levelo://app?vid=ef79c047-6c72-4916-ad9a-fd9a3dd38f21"},"vehicle_type_id":"4","last_reported":1734927130,"current_range_meters":37600,"station_id":"ce4bhn92rcd13ifvqgrg","pricing_plan_id":"cebpf4jnsgd1na2vs0mg"},{"bike_id":"e6a44413-0c88-440e-b9c4-50eeb9439fb1","system_id":"levelo_inurba_marseille","lat":43.25858,"lon":5.39907,"is_reserved":false,"is_disabled":false,"rental_uris":{"android":"levelo://app?vid=e6a44413-0c88-440e-b9c4-50eeb9439fb1","ios":"levelo://app?vid=e6a44413-0c88-440e-b9c4-50eeb9439fb1"},"vehicle_type_id":"4","last_reported":1734927130,"current_range_meters":24800,"station_id":"ce4bhl92rcd13ifvqghg","pricing_plan_id":"cebpf4jnsgd1na2vs0mg"},{"bike_id":"a8241d4a-6511-4c13-8389-e037a362bfcf","system_id":"levelo_inurba_marseille","lat":43.284681,"lon":5.358909,"is_reserved":false,"is_disabled":true,"rental_uris":{"android":"levelo://app?vid=a8241d4a-6511-4c13-8389-e037a362bfcf","ios":"levelo://app?vid=a8241d4a-6511-4c13-8389-e037a362bfcf"},"vehicle_type_id":"4","last_reported":1734927130,"current_range_meters":35600,"station_id":"ce4bhah2rcd13ifvqei0","pricing_plan_id":"cebpf4jnsgd1na2vs0mg"},{"bike_id":"69225cf1-9dc6-4294-9c9e-592b4658a09f","system_id":"levelo_inurba_marseille","lat":43.31274,"lon":5.40167,"is_reserved":false,"is_disabled":false,"rental_uris":{"android":"levelo://app?vid=69225cf1-9dc6-4294-9c9e-592b4658a09f","ios":"levelo://app?vid=69225cf1-9dc6-4294-9c9e-592b4658a09f"},"vehicle_type_id":"4","last_reported":1734927130,"current_range_meters":30800,"station_id":"ce4bh092rcd13ifvqd30","pricing_plan_id":"cebpf4jnsgd1na2vs0mg"},{"bike_id":"468dad8d-87ff-488a-ad62-d401d4e8c5db","system_id":"levelo_inurba_marseille","lat":43.287021,"lon":5.399814,"is_reserved":false,"is_disabled":false,"rental_uris":{"android":"levelo://app?vid=468dad8d-87ff-488a-ad62-d401d4e8c5db","ios":"levelo://app?vid=468dad8d-87ff-488a-ad62-d401d4e8c5db"},"vehicle_type_id":"4","last_reported":1734927130,"current_range_meters":39200,"station_id":"ce4bho92rcd13ifvqh3g","pricing_plan_id":"cebpf4jnsgd1na2vs0mg"},{"bike_id":"537ef1bf-3a78-45af-b334-3a2c52a599a8","system_id":"levelo_inurba_marseille","lat":43.341383,"lon":5.408998,"is_reserved":false,"is_disabled":false,"rental_uris":{"android":"levelo://app?vid=537ef1bf-3a78-45af-b334-3a2c52a599a8","ios":"levelo://app?vid=537ef1bf-3a78-45af-b334-3a2c52a599a8"},"vehicle_type_id":"4","last_reported":1734927130,"current_range_meters":37600,"station_id":"ce4bhqh2rcd13ifvqhlg","pricing_plan_id":"cebpf4jnsgd1na2vs0mg"},{"bike_id":"b3961213-ac8d-4e61-b1b3-c5d9fdca1a75","system_id":"levelo_inurba_marseille","lat":43.2475,"lon":5.37515,"is_reserved":false,"is_disabled":false,"rental_uris":{"android":"levelo://app?vid=b3961213-ac8d-4e61-b1b3-c5d9fdca1a75","ios":"levelo://app?vid=b3961213-ac8d-4e61-b1b3-c5d9fdca1a75"},"vehicle_type_id":"4","last_reported":1734927130,"current_range_meters":9600,"station_id":"","pricing_plan_id":"cebpf4jnsgd1na2vs0mg"},{"bike_id":"7cfa7914-a6fa-49c8-b1ec-dbe48b7366ea","system_id":"levelo_inurba_marseille","lat":43.24383,"lon":5.37055,"is_reserved":false,"is_disabled":false,"rental_uris":{"android":"levelo://app?vid=7cfa7914-a6fa-49c8-b1ec-dbe48b7366ea","ios":"levelo://app?vid=7cfa7914-a6fa-49c8-b1ec-dbe48b7366ea"},"vehicle_type_id":"4","last_reported":1734927130,"current_range_meters":38800,"station_id":"ce4bhhh2rcd13ifvqfk0","pricing_plan_id":"cebpf4jnsgd1na2vs0mg"},{"bike_id":"90f19238-5c8a-460b-96a7-7fc5e8fe2240","system_id":"levelo_inurba_marseille","lat":43.29298,"lon":5.37436,"is_reserved":false,"is_disabled":true,"rental_uris":{"android":"levelo://app?vid=90f19238-5c8a-460b-96a7-7fc5e8fe2240","ios":"levelo://app?vid=90f19238-5c8a-460b-96a7-7fc5e8fe2240"},"vehicle_type_id":"4","last_reported":1734927130,"current_range_meters":38800,"station_id":"ce4bgi12rcd13ifvqb70","pricing_plan_id":"cebpf4jnsgd1na2vs0mg"},{"bike_id":"b07e0204-2c57-49d1-a1f7-320de8610e25","system_id":"levelo_inurba_marseille","lat":43.29402,"lon":5.37344,"is_reserved":false,"is_disabled":false,"rental_uris":{"android":"levelo://app?vid=b07e0204-2c57-49d1-a1f7-320de8610e25","ios":"levelo://app?vid=b07e0204-2c57-49d1-a1f7-320de8610e25"},"vehicle_type_id":"4","last_reported":1734927130,"current_range_meters":25600,"station_id":"","pricing_plan_id":"cebpf4jnsgd1na2vs0mg"},{"bike_id":"ea004471-b609-40bf-876b-0bd08916cde3","system_id":"levelo_inurba_marseille","lat":43.32651,"lon":5.40993,"is_reserved":false,"is_disabled":false,"rental_uris":{"android":"levelo://app?vid=ea004471-b609-40bf-876b-0bd08916cde3","ios":"levelo://app?vid=ea004471-b609-40bf-876b-0bd08916cde3"},"vehicle_type_id":"4","last_reported":1734927130,"current_range_meters":23200,"station_id":"ce4bhpp2rcd13ifvqhgg","pricing_plan_id":"cebpf4jnsgd1na2vs0mg"},{"bike_id":"f97162d8-ac35-4106-9dab-07f272349842","system_id":"levelo_inurba_marseille","lat":43.25802,"lon":5.39444,"is_reserved":false,"is_disabled":false,"rental_uris":{"android":"levelo://app?vid=f97162d8-ac35-4106-9dab-07f272349842","ios":"levelo://app?vid=f97162d8-ac35-4106-9dab-07f272349842"},"vehicle_type_id":"4","last_reported":1734927130,"current_range_meters":12000,"station_id":"ce4bhip2rcd13ifvqft0","pricing_plan_id":"cebpf4jnsgd1na2vs0mg"},{"bike_id":"ceccf482-4fd9-440f-96a4-0b998bc80d9d","system_id":"levelo_inurba_marseille","lat":43.2826,"lon":5.35073,"is_reserved":false,"is_disabled":false,"rental_uris":{"android":"levelo://app?vid=ceccf482-4fd9-440f-96a4-0b998bc80d9d","ios":"levelo://app?vid=ceccf482-4fd9-440f-96a4-0b998bc80d9d"},"vehicle_type_id":"4","last_reported":1734927130,"current_range_meters":35600,"station_id":"ce4bhbp2rcd13ifvqerg","pricing_plan_id":"cebpf4jnsgd1na2vs0mg"},{"bike_id":"7befd885-7fc8-4dc1-b970-da31c9e46ce6","system_id":"levelo_inurba_marseille","lat":43.26033,"lon":5.37543,"is_reserved":false,"is_disabled":false,"rental_uris":{"android":"levelo://app?vid=7befd885-7fc8-4dc1-b970-da31c9e46ce6","ios":"levelo://app?vid=7befd885-7fc8-4dc1-b970-da31c9e46ce6"},"vehicle_type_id":"4","last_reported":1734927130,"current_range_meters":34000,"station_id":"ce4bhgh2rcd13ifvqfa0","pricing_plan_id":"cebpf4jnsgd1na2vs0mg"},{"bike_id":"0ba6d847-b04d-4662-8e74-a4fd8409ab96","system_id":"levelo_inurba_marseille","lat":43.26746,"lon":5.3943,"is_reserved":false,"is_disabled":true,"rental_uris":{"android":"levelo://app?vid=0ba6d847-b04d-4662-8e74-a4fd8409ab96","ios":"levelo://app?vid=0ba6d847-b04d-4662-8e74-a4fd8409ab96"},"vehicle_type_id":"4","last_reported":1734927130,"current_range_meters":18000,"station_id":"ce4bhh12rcd13ifvqfg0","pricing_plan_id":"cebpf4jnsgd1na2vs0mg"},{"bike_id":"f0bcbb45-555d-4c5b-8534-084b0fafc4e9","system_id":"levelo_inurba_marseille","lat":43.29156,"lon":5.37148,"is_reserved":false,"is_disabled":true,"rental_uris":{"android":"levelo://app?vid=f0bcbb45-555d-4c5b-8534-084b0fafc4e9","ios":"levelo://app?vid=f0bcbb45-555d-4c5b-8534-084b0fafc4e9"},"vehicle_type_id":"4","last_reported":1734927130,"current_range_meters":32000,"station_id":"ce4bha92rcd13ifvqeh0","pricing_plan_id":"cebpf4jnsgd1na2vs0mg"},{"bike_id":"a6cdc187-c8a8-46bd-94fc-c241052810e0","system_id":"levelo_inurba_marseille","lat":43.27972,"lon":5.38721,"is_reserved":false,"is_disabled":false,"rental_uris":{"android":"levelo://app?vid=a6cdc187-c8a8-46bd-94fc-c241052810e0","ios":"levelo://app?vid=a6cdc187-c8a8-46bd-94fc-c241052810e0"},"vehicle_type_id":"4","last_reported":1734927130,"current_range_meters":28000,"station_id":"ce4bhg12rcd13ifvqf80","pricing_plan_id":"cebpf4jnsgd1na2vs0mg"},{"bike_id":"7b4d282c-a7d9-4676-b525-fa109a59185c","system_id":"levelo_inurba_marseille","lat":43.269466,"lon":5.386395,"is_reserved":false,"is_disabled":false,"rental_uris":{"android":"levelo://app?vid=7b4d282c-a7d9-4676-b525-fa109a59185c","ios":"levelo://app?vid=7b4d282c-a7d9-4676-b525-fa109a59185c"},"vehicle_type_id":"4","last_reported":1734927130,"current_range_meters":38400,"station_id":"ce4bhh92rcd13ifvqfh0","pricing_plan_id":"cebpf4jnsgd1na2vs0mg"},{"bike_id":"d8e19718-03bc-417c-998d-d1b1d907c453","system_id":"levelo_inurba_marseille","lat":43.266796,"lon":5.382702,"is_reserved":false,"is_disabled":false,"rental_uris":{"android":"levelo://app?vid=d8e19718-03bc-417c-998d-d1b1d907c453","ios":"levelo://app?vid=d8e19718-03bc-417c-998d-d1b1d907c453"},"vehicle_type_id":"4","last_reported":1734927130,"current_range_meters":20400,"station_id":"ce4bhg92rcd13ifvqf90","pricing_plan_id":"cebpf4jnsgd1na2vs0mg"},{"bike_id":"ab21fb1f-4b04-41d8-89f4-782645e16192","system_id":"levelo_inurba_marseille","lat":43.26939,"lon":5.40251,"is_reserved":false,"is_disabled":false,"rental_uris":{"android":"levelo://app?vid=ab21fb1f-4b04-41d8-89f4-782645e16192","ios":"levelo://app?vid=ab21fb1f-4b04-41d8-89f4-782645e16192"},"vehicle_type_id":"4","last_reported":1734927130,"current_range_meters":10000,"station_id":"cjm6bp8fraef2m0cb0m0","pricing_plan_id":"cebpf4jnsgd1na2vs0mg"},{"bike_id":"725f2ba4-42ee-480b-a31f-097189b1c2cf","system_id":"levelo_inurba_marseille","lat":43.29183,"lon":5.35783,"is_reserved":false,"is_disabled":true,"rental_uris":{"android":"levelo://app?vid=725f2ba4-42ee-480b-a31f-097189b1c2cf","ios":"levelo://app?vid=725f2ba4-42ee-480b-a31f-097189b1c2cf"},"vehicle_type_id":"4","last_reported":1734927130,"current_range_meters":36400,"station_id":"ce4bhb12rcd13ifvqel0","pricing_plan_id":"cebpf4jnsgd1na2vs0mg"},{"bike_id":"2c8d577f-234b-4ac7-8ee8-ac2ad27ce86d","system_id":"levelo_inurba_marseille","lat":43.269595,"lon":5.386544,"is_reserved":false,"is_disabled":true,"rental_uris":{"android":"levelo://app?vid=2c8d577f-234b-4ac7-8ee8-ac2ad27ce86d","ios":"levelo://app?vid=2c8d577f-234b-4ac7-8ee8-ac2ad27ce86d"},"vehicle_type_id":"4","last_reported":1734927130,"current_range_meters":14400,"station_id":"ce4bhh92rcd13ifvqfh0","pricing_plan_id":"cebpf4jnsgd1na2vs0mg"},{"bike_id":"611af7a6-bc77-4393-bb36-1871203bf0bb","system_id":"levelo_inurba_marseille","lat":43.28423,"lon":5.35868,"is_reserved":false,"is_disabled":false,"rental_uris":{"android":"levelo://app?vid=611af7a6-bc77-4393-bb36-1871203bf0bb","ios":"levelo://app?vid=611af7a6-bc77-4393-bb36-1871203bf0bb"},"vehicle_type_id":"4","last_reported":1734927130,"current_range_meters":28400,"station_id":"ce4bhah2rcd13ifvqei0","pricing_plan_id":"cebpf4jnsgd1na2vs0mg"},{"bike_id":"d0d918a4-8ae9-4abd-b34c-444575b56e5b","system_id":"levelo_inurba_marseille","lat":43.29274,"lon":5.36854,"is_reserved":false,"is_disabled":false,"rental_uris":{"android":"levelo://app?vid=d0d918a4-8ae9-4abd-b34c-444575b56e5b","ios":"levelo://app?vid=d0d918a4-8ae9-4abd-b34c-444575b56e5b"},"vehicle_type_id":"4","last_reported":1734927130,"current_range_meters":15200,"station_id":"ce4bhbp2rcd13ifvqesg","pricing_plan_id":"cebpf4jnsgd1na2vs0mg"},{"bike_id":"c4ce525d-967d-4663-838d-692388f3fdc6","system_id":"levelo_inurba_marseille","lat":43.292744,"lon":5.401225,"is_reserved":false,"is_disabled":true,"rental_uris":{"android":"levelo://app?vid=c4ce525d-967d-4663-838d-692388f3fdc6","ios":"levelo://app?vid=c4ce525d-967d-4663-838d-692388f3fdc6"},"vehicle_type_id":"4","last_reported":1734927130,"current_range_meters":0,"station_id":"ce4bh312rcd13ifvqdk0","pricing_plan_id":"cebpf4jnsgd1na2vs0mg"},{"bike_id":"4094ac40-fe97-4483-91f4-bc4b6a97b4f3","system_id":"levelo_inurba_marseille","lat":43.258246,"lon":5.394319,"is_reserved":false,"is_disabled":true,"rental_uris":{"android":"levelo://app?vid=4094ac40-fe97-4483-91f4-bc4b6a97b4f3","ios":"levelo://app?vid=4094ac40-fe97-4483-91f4-bc4b6a97b4f3"},"vehicle_type_id":"4","last_reported":1734927130,"current_range_meters":0,"station_id":"ce4bhip2rcd13ifvqft0","pricing_plan_id":"cebpf4jnsgd1na2vs0mg"},{"bike_id":"ed495aba-f9b6-4311-b39c-649f2202b23f","system_id":"levelo_inurba_marseille","lat":43.27556,"lon":5.3842,"is_reserved":false,"is_disabled":false,"rental_uris":{"android":"levelo://app?vid=ed495aba-f9b6-4311-b39c-649f2202b23f","ios":"levelo://app?vid=ed495aba-f9b6-4311-b39c-649f2202b23f"},"vehicle_type_id":"4","last_reported":1734927130,"current_range_meters":38800,"station_id":"ce4bhh92rcd13ifvqfi0","pricing_plan_id":"cebpf4jnsgd1na2vs0mg"},{"bike_id":"f953c87c-4ea7-4e78-9490-68e955a0946d","system_id":"levelo_inurba_marseille","lat":43.25488,"lon":5.37647,"is_reserved":false,"is_disabled":true,"rental_uris":{"android":"levelo://app?vid=f953c87c-4ea7-4e78-9490-68e955a0946d","ios":"levelo://app?vid=f953c87c-4ea7-4e78-9490-68e955a0946d"},"vehicle_type_id":"4","last_reported":1734927130,"current_range_meters":10000,"station_id":"ce4bhh12rcd13ifvqff0","pricing_plan_id":"cebpf4jnsgd1na2vs0mg"},{"bike_id":"a68a6aee-0a1a-4734-8f31-960ad75a1f0a","system_id":"levelo_inurba_marseille","lat":43.31163,"lon":5.38718,"is_reserved":false,"is_disabled":false,"rental_uris":{"android":"levelo://app?vid=a68a6aee-0a1a-4734-8f31-960ad75a1f0a","ios":"levelo://app?vid=a68a6aee-0a1a-4734-8f31-960ad75a1f0a"},"vehicle_type_id":"4","last_reported":1734927130,"current_range_meters":19200,"station_id":"ce4bgv12rcd13ifvqcp0","pricing_plan_id":"cebpf4jnsgd1na2vs0mg"},{"bike_id":"6b186745-2091-424b-a646-ec954a3aff8a","system_id":"levelo_inurba_marseille","lat":43.24664,"lon":5.38155,"is_reserved":false,"is_disabled":false,"rental_uris":{"android":"levelo://app?vid=6b186745-2091-424b-a646-ec954a3aff8a","ios":"levelo://app?vid=6b186745-2091-424b-a646-ec954a3aff8a"},"vehicle_type_id":"4","last_reported":1734927130,"current_range_meters":19200,"station_id":"ce4bhih2rcd13ifvqfr0","pricing_plan_id":"cebpf4jnsgd1na2vs0mg"},{"bike_id":"c91da701-8020-4c63-924e-c2588244a161","system_id":"levelo_inurba_marseille","lat":43.311694,"lon":5.38714,"is_reserved":false,"is_disabled":true,"rental_uris":{"android":"levelo://app?vid=c91da701-8020-4c63-924e-c2588244a161","ios":"levelo://app?vid=c91da701-8020-4c63-924e-c2588244a161"},"vehicle_type_id":"4","last_reported":1734927130,"current_range_meters":0,"station_id":"ce4bgv12rcd13ifvqcp0","pricing_plan_id":"cebpf4jnsgd1na2vs0mg"},{"bike_id":"b73b3cc8-26fa-4032-8e99-f74b6ff40c2a","system_id":"levelo_inurba_marseille","lat":43.27006,"lon":5.40204,"is_reserved":false,"is_disabled":false,"rental_uris":{"android":"levelo://app?vid=b73b3cc8-26fa-4032-8e99-f74b6ff40c2a","ios":"levelo://app?vid=b73b3cc8-26fa-4032-8e99-f74b6ff40c2a"},"vehicle_type_id":"4","last_reported":1734927130,"current_range_meters":9600,"station_id":"","pricing_plan_id":"cebpf4jnsgd1na2vs0mg"},{"bike_id":"0fa4fd6a-c920-470e-9628-342bc95af557","system_id":"levelo_inurba_marseille","lat":43.24678,"lon":5.38136,"is_reserved":false,"is_disabled":false,"rental_uris":{"android":"levelo://app?vid=0fa4fd6a-c920-470e-9628-342bc95af557","ios":"levelo://app?vid=0fa4fd6a-c920-470e-9628-342bc95af557"},"vehicle_type_id":"4","last_reported":1734927130,"current_range_meters":30800,"station_id":"ce4bhih2rcd13ifvqfr0","pricing_plan_id":"cebpf4jnsgd1na2vs0mg"},{"bike_id":"32ebf098-e002-4aa6-88f7-5b365ee05e11","system_id":"levelo_inurba_marseille","lat":43.24079,"lon":5.37743,"is_reserved":false,"is_disabled":true,"rental_uris":{"android":"levelo://app?vid=32ebf098-e002-4aa6-88f7-5b365ee05e11","ios":"levelo://app?vid=32ebf098-e002-4aa6-88f7-5b365ee05e11"},"vehicle_type_id":"4","last_reported":1734927130,"current_range_meters":0,"station_id":"ce4bhnp2rcd13ifvqgvg","pricing_plan_id":"cebpf4jnsgd1na2vs0mg"},{"bike_id":"51092a0b-c258-4d4f-8fbf-b61d8d751561","system_id":"levelo_inurba_marseille","lat":43.28403,"lon":5.34993,"is_reserved":false,"is_disabled":false,"rental_uris":{"android":"levelo://app?vid=51092a0b-c258-4d4f-8fbf-b61d8d751561","ios":"levelo://app?vid=51092a0b-c258-4d4f-8fbf-b61d8d751561"},"vehicle_type_id":"4","last_reported":1734927130,"current_range_meters":17200,"station_id":"ce4bhbh2rcd13ifvqepg","pricing_plan_id":"cebpf4jnsgd1na2vs0mg"},{"bike_id":"aea1fce2-2ac2-4214-9613-fa3aae7cc4b7","system_id":"levelo_inurba_marseille","lat":43.295708,"lon":5.375066,"is_reserved":false,"is_disabled":false,"rental_uris":{"android":"levelo://app?vid=aea1fce2-2ac2-4214-9613-fa3aae7cc4b7","ios":"levelo://app?vid=aea1fce2-2ac2-4214-9613-fa3aae7cc4b7"},"vehicle_type_id":"4","last_reported":1734927130,"current_range_meters":27600,"station_id":"ce4bgh92rcd13ifvqb50","pricing_plan_id":"cebpf4jnsgd1na2vs0mg"},{"bike_id":"ebeea6b8-bb61-416d-9c2a-f9e48849a763","system_id":"levelo_inurba_marseille","lat":43.30636,"lon":5.40084,"is_reserved":false,"is_disabled":false,"rental_uris":{"android":"levelo://app?vid=ebeea6b8-bb61-416d-9c2a-f9e48849a763","ios":"levelo://app?vid=ebeea6b8-bb61-416d-9c2a-f9e48849a763"},"vehicle_type_id":"4","last_reported":1734927130,"current_range_meters":30400,"station_id":"ce4bh112rcd13ifvqda0","pricing_plan_id":"cebpf4jnsgd1na2vs0mg"},{"bike_id":"c71b6c55-aa7b-437b-a540-8c383a22f437","system_id":"levelo_inurba_marseille","lat":43.2839,"lon":5.37513,"is_reserved":false,"is_disabled":false,"rental_uris":{"android":"levelo://app?vid=c71b6c55-aa7b-437b-a540-8c383a22f437","ios":"levelo://app?vid=c71b6c55-aa7b-437b-a540-8c383a22f437"},"vehicle_type_id":"4","last_reported":1734927130,"current_range_meters":19200,"station_id":"ce4bh412rcd13ifvqds0","pricing_plan_id":"cebpf4jnsgd1na2vs0mg"},{"bike_id":"506e2ff2-6023-4cb2-ae0b-9b5cd80c441a","system_id":"levelo_inurba_marseille","lat":43.306023,"lon":5.372292,"is_reserved":false,"is_disabled":false,"rental_uris":{"android":"levelo://app?vid=506e2ff2-6023-4cb2-ae0b-9b5cd80c441a","ios":"levelo://app?vid=506e2ff2-6023-4cb2-ae0b-9b5cd80c441a"},"vehicle_type_id":"4","last_reported":1734927130,"current_range_meters":38800,"station_id":"ce4bgqh2rcd13ifvqc4g","pricing_plan_id":"cebpf4jnsgd1na2vs0mg"},{"bike_id":"7a419876-0610-4cdc-97e0-4af273f6d571","system_id":"levelo_inurba_marseille","lat":43.30415,"lon":5.39747,"is_reserved":false,"is_disabled":false,"rental_uris":{"android":"levelo://app?vid=7a419876-0610-4cdc-97e0-4af273f6d571","ios":"levelo://app?vid=7a419876-0610-4cdc-97e0-4af273f6d571"},"vehicle_type_id":"4","last_reported":1734927130,"current_range_meters":36000,"station_id":"ce4bh092rcd13ifvqd20","pricing_plan_id":"cebpf4jnsgd1na2vs0mg"},{"bike_id":"ba623d7f-de4d-43e6-9a39-be19938e75fb","system_id":"levelo_inurba_marseille","lat":43.29369,"lon":5.37856,"is_reserved":false,"is_disabled":true,"rental_uris":{"android":"levelo://app?vid=ba623d7f-de4d-43e6-9a39-be19938e75fb","ios":"levelo://app?vid=ba623d7f-de4d-43e6-9a39-be19938e75fb"},"vehicle_type_id":"4","last_reported":1734927130,"current_range_meters":34000,"station_id":"","pricing_plan_id":"cebpf4jnsgd1na2vs0mg"},{"bike_id":"4df0341b-90bc-40c1-93b7-95220216f310","system_id":"levelo_inurba_marseille","lat":43.29873,"lon":5.38912,"is_reserved":false,"is_disabled":false,"rental_uris":{"android":"levelo://app?vid=4df0341b-90bc-40c1-93b7-95220216f310","ios":"levelo://app?vid=4df0341b-90bc-40c1-93b7-95220216f310"},"vehicle_type_id":"4","last_reported":1734927130,"current_range_meters":37600,"station_id":"ce4bh392rcd13ifvqdl0","pricing_plan_id":"cebpf4jnsgd1na2vs0mg"},{"bike_id":"5e1ef48a-8f1f-4cfa-b2b3-a4053e96881b","system_id":"levelo_inurba_marseille","lat":43.27987,"lon":5.40008,"is_reserved":false,"is_disabled":false,"rental_uris":{"android":"levelo://app?vid=5e1ef48a-8f1f-4cfa-b2b3-a4053e96881b","ios":"levelo://app?vid=5e1ef48a-8f1f-4cfa-b2b3-a4053e96881b"},"vehicle_type_id":"4","last_reported":1734927130,"current_range_meters":16800,"station_id":"ce4bho92rcd13ifvqh4g","pricing_plan_id":"cebpf4jnsgd1na2vs0mg"},{"bike_id":"f6c5d7d8-070f-43c6-8fe7-a91620c2d235","system_id":"levelo_inurba_marseille","lat":43.29575,"lon":5.36734,"is_reserved":false,"is_disabled":false,"rental_uris":{"android":"levelo://app?vid=f6c5d7d8-070f-43c6-8fe7-a91620c2d235","ios":"levelo://app?vid=f6c5d7d8-070f-43c6-8fe7-a91620c2d235"},"vehicle_type_id":"4","last_reported":1734927130,"current_range_meters":34000,"station_id":"ce4bgph2rcd13ifvqc2g","pricing_plan_id":"cebpf4jnsgd1na2vs0mg"},{"bike_id":"10d16ca8-28c0-405d-8543-1a0f299451c6","system_id":"levelo_inurba_marseille","lat":43.278096,"lon":5.40712,"is_reserved":false,"is_disabled":false,"rental_uris":{"android":"levelo://app?vid=10d16ca8-28c0-405d-8543-1a0f299451c6","ios":"levelo://app?vid=10d16ca8-28c0-405d-8543-1a0f299451c6"},"vehicle_type_id":"4","last_reported":1734927130,"current_range_meters":38800,"station_id":"ce4bhnh2rcd13ifvqgtg","pricing_plan_id":"cebpf4jnsgd1na2vs0mg"},{"bike_id":"d7a9a039-2919-4498-94bc-85df69bbf9b4","system_id":"levelo_inurba_marseille","lat":43.2509,"lon":5.39514,"is_reserved":false,"is_disabled":true,"rental_uris":{"android":"levelo://app?vid=d7a9a039-2919-4498-94bc-85df69bbf9b4","ios":"levelo://app?vid=d7a9a039-2919-4498-94bc-85df69bbf9b4"},"vehicle_type_id":"4","last_reported":1734927130,"current_range_meters":0,"station_id":"ce4bhm12rcd13ifvqgkg","pricing_plan_id":"cebpf4jnsgd1na2vs0mg"},{"bike_id":"f6e00a83-cc1f-4aaf-83bb-77e9d3b9e809","system_id":"levelo_inurba_marseille","lat":43.337444,"lon":5.374475,"is_reserved":false,"is_disabled":false,"rental_uris":{"android":"levelo://app?vid=f6e00a83-cc1f-4aaf-83bb-77e9d3b9e809","ios":"levelo://app?vid=f6e00a83-cc1f-4aaf-83bb-77e9d3b9e809"},"vehicle_type_id":"4","last_reported":1734927130,"current_range_meters":21600,"station_id":"","pricing_plan_id":"cebpf4jnsgd1na2vs0mg"},{"bike_id":"4557c5fc-60ed-4c34-9596-70c70138f451","system_id":"levelo_inurba_marseille","lat":43.29621,"lon":5.37152,"is_reserved":false,"is_disabled":true,"rental_uris":{"android":"levelo://app?vid=4557c5fc-60ed-4c34-9596-70c70138f451","ios":"levelo://app?vid=4557c5fc-60ed-4c34-9596-70c70138f451"},"vehicle_type_id":"4","last_reported":1734927130,"current_range_meters":0,"station_id":"","pricing_plan_id":"cebpf4jnsgd1na2vs0mg"},{"bike_id":"a5487a7e-218d-425e-901b-5c24184b11c1","system_id":"levelo_inurba_marseille","lat":43.26922,"lon":5.40238,"is_reserved":false,"is_disabled":false,"rental_uris":{"android":"levelo://app?vid=a5487a7e-218d-425e-901b-5c24184b11c1","ios":"levelo://app?vid=a5487a7e-218d-425e-901b-5c24184b11c1"},"vehicle_type_id":"4","last_reported":1734927130,"current_range_meters":38400,"station_id":"cjm6bp8fraef2m0cb0m0","pricing_plan_id":"cebpf4jnsgd1na2vs0mg"},{"bike_id":"ab1d9560-5d45-411e-b2b4-b02c4d566e0b","system_id":"levelo_inurba_marseille","lat":43.25985,"lon":5.37566,"is_reserved":false,"is_disabled":false,"rental_uris":{"android":"levelo://app?vid=ab1d9560-5d45-411e-b2b4-b02c4d566e0b","ios":"levelo://app?vid=ab1d9560-5d45-411e-b2b4-b02c4d566e0b"},"vehicle_type_id":"4","last_reported":1734927130,"current_range_meters":38000,"station_id":"ce4bhgh2rcd13ifvqfa0","pricing_plan_id":"cebpf4jnsgd1na2vs0mg"},{"bike_id":"3130f2ff-13bb-4623-bb3c-c786fe5610ae","system_id":"levelo_inurba_marseille","lat":43.30132,"lon":5.38772,"is_reserved":false,"is_disabled":false,"rental_uris":{"android":"levelo://app?vid=3130f2ff-13bb-4623-bb3c-c786fe5610ae","ios":"levelo://app?vid=3130f2ff-13bb-4623-bb3c-c786fe5610ae"},"vehicle_type_id":"4","last_reported":1734927130,"current_range_meters":36800,"station_id":"ce4bghh2rcd13ifvqb60","pricing_plan_id":"cebpf4jnsgd1na2vs0mg"},{"bike_id":"c8875d6b-8a22-4454-99ec-4e4ef59cbf9f","system_id":"levelo_inurba_marseille","lat":43.258698,"lon":5.399022,"is_reserved":false,"is_disabled":false,"rental_uris":{"android":"levelo://app?vid=c8875d6b-8a22-4454-99ec-4e4ef59cbf9f","ios":"levelo://app?vid=c8875d6b-8a22-4454-99ec-4e4ef59cbf9f"},"vehicle_type_id":"4","last_reported":1734927130,"current_range_meters":38400,"station_id":"ce4bhl92rcd13ifvqghg","pricing_plan_id":"cebpf4jnsgd1na2vs0mg"},{"bike_id":"962ea5b9-702b-4e82-9f9f-23c78648909c","system_id":"levelo_inurba_marseille","lat":43.27966,"lon":5.37966,"is_reserved":false,"is_disabled":false,"rental_uris":{"android":"levelo://app?vid=962ea5b9-702b-4e82-9f9f-23c78648909c","ios":"levelo://app?vid=962ea5b9-702b-4e82-9f9f-23c78648909c"},"vehicle_type_id":"4","last_reported":1734927130,"current_range_meters":38800,"station_id":"ce4bhf92rcd13ifvqf50","pricing_plan_id":"cebpf4jnsgd1na2vs0mg"},{"bike_id":"e8463cdd-22bc-49a6-9d92-e3d542fb6ee8","system_id":"levelo_inurba_marseille","lat":43.27075,"lon":5.42268,"is_reserved":false,"is_disabled":false,"rental_uris":{"android":"levelo://app?vid=e8463cdd-22bc-49a6-9d92-e3d542fb6ee8","ios":"levelo://app?vid=e8463cdd-22bc-49a6-9d92-e3d542fb6ee8"},"vehicle_type_id":"4","last_reported":1734927130,"current_range_meters":36800,"station_id":"ce4bhk92rcd13ifvqgb0","pricing_plan_id":"cebpf4jnsgd1na2vs0mg"},{"bike_id":"b639fb0b-b566-4537-b78f-bfb85a878521","system_id":"levelo_inurba_marseille","lat":43.28461,"lon":5.35879,"is_reserved":false,"is_disabled":false,"rental_uris":{"android":"levelo://app?vid=b639fb0b-b566-4537-b78f-bfb85a878521","ios":"levelo://app?vid=b639fb0b-b566-4537-b78f-bfb85a878521"},"vehicle_type_id":"4","last_reported":1734927130,"current_range_meters":28400,"station_id":"ce4bhah2rcd13ifvqei0","pricing_plan_id":"cebpf4jnsgd1na2vs0mg"},