{"last_updated":1751523435,"ttl":60,"version":"2.2","data":{"bikes":[{"bike_id":"3da29fb8-fc97-44c6-b9ac-31dd456b2fd4","system_id":"levelo_inurba_marseille","lat":43.33771,"lon":5.37424,"is_reserved":false,"is_disabled":true,"rental_uris":{"android":"levelo://app?vid=3da29fb8-fc97-44c6-b9ac-31dd456b2fd4","ios":"levelo://app?vid=3da29fb8-fc97-44c6-b9ac-31dd456b2fd4"},"vehicle_type_id":"4","last_reported":1751523435,"current_range_meters":0,"station_id":"","pricing_plan_id":"cebpf4jnsgd1na2vs0mg"},{"bike_id":"01861ad8-a8d7-4be6-816e-651927c87584","system_id":"levelo_inurba_marseille","lat":43.33751,"lon":5.37456,"is_reserved":false,"is_disabled":true,"rental_uris":{"android":"levelo://app?vid=01861ad8-a8d7-4be6-816e-651927c87584","ios":"levelo://app?vid=01861ad8-a8d7-4be6-816e-651927c87584"},"vehicle_type_id":"4","last_reported":1751523435,"current_range_meters":0,"station_id":"","pricing_plan_id":"cebpf4jnsgd1na2vs0mg"},{"bike_id":"942c1066-b367-4e59-b0ad-f0a160b51d6f","system_id":"levelo_inurba_marseille","lat":43.26558,"lon":5.39486,"is_reserved":false,"is_disabled":true,"rental_uris":{"android":"levelo://app?vid=942c1066-b367-4e59-b0ad-f0a160b51d6f","ios":"levelo://app?vid=942c1066-b367-4e59-b0ad-f0a160b51d6f"},"vehicle_type_id":"4","last_reported":1751523435,"current_range_meters":0,"station_id":"","pricing_plan_id":"cebpf4jnsgd1na2vs0mg"},{"bike_id":"6e5b5a4d-1ee5-4068-9613-fb44ab4d8a9a","system_id":"levelo_inurba_marseille","lat":43.34859,"lon":5.34683,"is_reserved":false,"is_disabled":true,"rental_uris":{"android":"levelo://app?vid=6e5b5a4d-1ee5-4068-9613-fb44ab4d8a9a","ios":"levelo://app?vid=6e5b5a4d-1ee5-4068-9613-fb44ab4d8a9a"},"vehicle_type_id":"4","last_reported":1751523435,"current_range_meters":0,"station_id":"","pricing_plan_id":"cebpf4jnsgd1na2vs0mg"},{"bike_id":"88ba2eb8-6abc-42f0-a2b7-fafab863863b","system_id":"levelo_inurba_marseille","lat":43.26097,"lon":5.3734,"is_reserved":false,"is_disabled":true,"rental_uris":{"android":"levelo://app?vid=88ba2eb8-6abc-42f0-a2b7-fafab863863b","ios":"levelo://app?vid=88ba2eb8-6abc-42f0-a2b7-fafab863863b"},"vehicle_type_id":"4","last_reported":1751523435,"current_range_meters":0,"station_id":"","pricing_plan_id":"cebpf4jnsgd1na2vs0mg"},{"bike_id":"cbab8e8e-76d8-4b25-9f75-190c476c076a","system_id":"levelo_inurba_marseille","lat":43.33608,"lon":5.4096,"is_reserved":false,"is_disabled":true,"rental_uris":{"android":"levelo://app?vid=cbab8e8e-76d8-4b25-9f75-190c476c076a","ios":"levelo://app?vid=cbab8e8e-76d8-4b25-9f75-190c476c076a"},"vehicle_type_id":"4","last_reported":1751523435,"current_range_meters":0,"station_id":"","pricing_plan_id":"cebpf4jnsgd1na2vs0mg"},{"bike_id":"7fa950a6-984c-4b85-8f6a-5b2c265205ee","system_id":"levelo_inurba_marseille","lat":43.27375,"lon":5.36256,"is_reserved":false,"is_disabled":true,"rental_uris":{"android":"levelo://app?vid=7fa950a6-984c-4b85-8f6a-5b2c265205ee","ios":"levelo://app?vid=7fa950a6-984c-4b85-8f6a-5b2c265205ee"},"vehicle_type_id":"4","last_reported":1751523435,"current_range_meters":0,"station_id":"ce4bhbh2rcd13ifvqeo0","pricing_plan_id":"cebpf4jnsgd1na2vs0mg"},{"bike_id":"2ad041ce-fc89-4a23-96be-905a4262f81e","system_id":"levelo_inurba_marseille","lat":43.25504,"lon":5.376532,"is_reserved":false,"is_disabled":true,"rental_uris":{"android":"levelo://app?vid=2ad041ce-fc89-4a23-96be-905a4262f81e","ios":"levelo://app?vid=2ad041ce-fc89-4a23-96be-905a4262f81e"},"vehicle_type_id":"4","last_reported":1751523435,"current_range_meters":0,"station_id":"ce4bhh12rcd13ifvqff0","pricing_plan_id":"cebpf4jnsgd1na2vs0mg"},{"bike_id":"7c71205f-34b3-42ef-9e88-37c58496c071","system_id":"levelo_inurba_marseille","lat":43.26944,"lon":5.386217,"is_reserved":false,"is_disabled":true,"rental_uris":{"android":"levelo://app?vid=7c71205f-34b3-42ef-9e88-37c58496c071","ios":"levelo://app?vid=7c71205f-34b3-42ef-9e88-37c58496c071"},"vehicle_type_id":"4","last_reported":1751523435,"current_range_meters":0,"station_id":"ce4bhh92rcd13ifvqfh0","pricing_plan_id":"cebpf4jnsgd1na2vs0mg"},{"bike_id":"539ed013-9e80-448a-999f-a7819f54786a","system_id":"levelo_inurba_marseille","lat":43.26205,"lon":5.37928,"is_reserved":false,"is_disabled":true,"rental_uris":{"android":"levelo://app?vid=539ed013-9e80-448a-999f-a7819f54786a","ios":"levelo://app?vid=539ed013-9e80-448a-999f-a7819f54786a"},"vehicle_type_id":"4","last_reported":1751523435,"current_range_meters":0,"station_id":"ce4bhjp2rcd13ifvqg90","pricing_plan_id":"cebpf4jnsgd1na2vs0mg"},{"bike_id":"45a36d42-3f75-4451-929c-2980bab85fb7","system_id":"levelo_inurba_marseille","lat":43.2315,"lon":5.43724,"is_reserved":false,"is_disabled":true,"rental_uris":{"android":"levelo://app?vid=45a36d42-3f75-4451-929c-2980bab85fb7","ios":"levelo://app?vid=45a36d42-3f75-4451-929c-2980bab85fb7"},"vehicle_type_id":"4","last_reported":1751523435,"current_range_meters":0,"station_id":"ce4bhmp2rcd13ifvqgog","pricing_plan_id":"cebpf4jnsgd1na2vs0mg"},{"bike_id":"be4771a0-f822-40f0-a95c-2aaca1d3fb3c","system_id":"levelo_inurba_marseille","lat":43.21759,"lon":5.34594,"is_reserved":false,"is_disabled":true,"rental_uris":{"android":"levelo://app?vid=be4771a0-f822-40f0-a95c-2aaca1d3fb3c","ios":"levelo://app?vid=be4771a0-f822-40f0-a95c-2aaca1d3fb3c"},"vehicle_type_id":"4","last_reported":1751523435,"current_range_meters":0,"station_id":"st_cvj6r9ubvosntc0bgbag","pricing_plan_id":"cebpf4jnsgd1na2vs0mg"},{"bike_id":"10be7a19-7bb3-4be8-8e03-f074498ccbe9","system_id":"levelo_inurba_marseille","lat":43.21769,"lon":5.34593,"is_reserved":false,"is_disabled":true,"rental_uris":{"android":"levelo://app?vid=10be7a19-7bb3-4be8-8e03-f074498ccbe9","ios":"levelo://app?vid=10be7a19-7bb3-4be8-8e03-f074498ccbe9"},"vehicle_type_id":"4","last_reported":1751523435,"current_range_meters":0,"station_id":"st_cvj6r9ubvosntc0bgbag","pricing_plan_id":"cebpf4jnsgd1na2vs0mg"},{"bike_id":"c56317b0-af3c-425f-96b7-0eae8849f5e0","system_id":"levelo_inurba_marseille","lat":43.29571,"lon":5.37525,"is_reserved":false,"is_disabled":true,"rental_uris":{"android":"levelo://app?vid=c56317b0-af3c-425f-96b7-0eae8849f5e0","ios":"levelo://app?vid=c56317b0-af3c-425f-96b7-0eae8849f5e0"},"vehicle_type_id":"4","last_reported":1751523435,"current_range_meters":800,"station_id":"ce4bgh92rcd13ifvqb50","pricing_plan_id":"cebpf4jnsgd1na2vs0mg"},{"bike_id":"8e365e3c-559a-4ba6-a6c5-4c159e2434fc","system_id":"levelo_inurba_marseille","lat":43.2175,"lon":5.34607,"is_reserved":false,"is_disabled":true,"rental_uris":{"android":"levelo://app?vid=8e365e3c-559a-4ba6-a6c5-4c159e2434fc","ios":"levelo://app?vid=8e365e3c-559a-4ba6-a6c5-4c159e2434fc"},"vehicle_type_id":"4","last_reported":1751523435,"current_range_meters":1200,"station_id":"","pricing_plan_id":"cebpf4jnsgd1na2vs0mg"},{"bike_id":"4e0ceeee-cc6c-4d5b-9838-93c57bc1c3b0","system_id":"levelo_inurba_marseille","lat":43.31269,"lon":5.36813,"is_reserved":false,"is_disabled":true,"rental_uris":{"android":"levelo://app?vid=4e0ceeee-cc6c-4d5b-9838-93c57bc1c3b0","ios":"levelo://app?vid=4e0ceeee-cc6c-4d5b-9838-93c57bc1c3b0"},"vehicle_type_id":"4","last_reported":1751523435,"current_range_meters":1600,"station_id":"","pricing_plan_id":"cebpf4jnsgd1na2vs0mg"},{"bike_id":"eb6298f3-da23-4583-904d-84a7d9251bb0","system_id":"levelo_inurba_marseille","lat":43.296331,"lon":5.40602,"is_reserved":false,"is_disabled":true,"rental_uris":{"android":"levelo://app?vid=eb6298f3-da23-4583-904d-84a7d9251bb0","ios":"levelo://app?vid=eb6298f3-da23-4583-904d-84a7d9251bb0"},"vehicle_type_id":"4","last_reported":1751523435,"current_range_meters":1600,"station_id":"ce4bh0h2rcd13ifvqd60","pricing_plan_id":"cebpf4jnsgd1na2vs0mg"},{"bike_id":"c077b828-a2a6-46af-afee-b8f1e5503f43","system_id":"levelo_inurba_marseille","lat":43.23188,"lon":5.35549,"is_reserved":false,"is_disabled":true,"rental_uris":{"android":"levelo://app?vid=c077b828-a2a6-46af-afee-b8f1e5503f43","ios":"levelo://app?vid=c077b828-a2a6-46af-afee-b8f1e5503f43"},"vehicle_type_id":"4","last_reported":1751523435,"current_range_meters":1600,"station_id":"ce4bhu92rcd13ifvqi70","pricing_plan_id":"cebpf4jnsgd1na2vs0mg"},{"bike_id":"75d0a17c-d0c5-45e5-9632-3722a87e82d5","system_id":"levelo_inurba_marseille","lat":43.32111,"lon":5.36774,"is_reserved":false,"is_disabled":true,"rental_uris":{"android":"levelo://app?vid=75d0a17c-d0c5-45e5-9632-3722a87e82d5","ios":"levelo://app?vid=75d0a17c-d0c5-45e5-9632-3722a87e82d5"},"vehicle_type_id":"4","last_reported":1751523435,"current_range_meters":2000,"station_id":"ce4bhrh2rcd13ifvqhug","pricing_plan_id":"cebpf4jnsgd1na2vs0mg"},{"bike_id":"c3ad5189-d652-438e-b937-26ef8f65dfd8","system_id":"levelo_inurba_marseille","lat":43.24176,"lon":5.39707,"is_reserved":false,"is_disabled":false,"rental_uris":{"android":"levelo://app?vid=c3ad5189-d652-438e-b937-26ef8f65dfd8","ios":"levelo://app?vid=c3ad5189-d652-438e-b937-26ef8f65dfd8"},"vehicle_type_id":"4","last_reported":1751523435,"current_range_meters":2800,"station_id":"ce4bhn12rcd13ifvqgpg","pricing_plan_id":"cebpf4jnsgd1na2vs0mg"},{"bike_id":"7b6c54fa-9513-4f96-8c39-2e4b6bdc706a","system_id":"levelo_inurba_marseille","lat":43.26222,"lon":5.3743,"is_reserved":false,"is_disabled":false,"rental_uris":{"android":"levelo://app?vid=7b6c54fa-9513-4f96-8c39-2e4b6bdc706a","ios":"levelo://app?vid=7b6c54fa-9513-4f96-8c39-2e4b6bdc706a"},"vehicle_type_id":"4","last_reported":1751523435,"current_range_meters":4000,"station_id":"","pricing_plan_id":"cebpf4jnsgd1na2vs0mg"},{"bike_id":"f3003d40-23bd-4295-92a3-a7032d138735","system_id":"levelo_inurba_marseille","lat":43.29284,"lon":5.40124,"is_reserved":false,"is_disabled":false,"rental_uris":{"android":"levelo://app?vid=f3003d40-23bd-4295-92a3-a7032d138735","ios":"levelo://app?vid=f3003d40-23bd-4295-92a3-a7032d138735"},"vehicle_type_id":"4","last_reported":1751523435,"current_range_meters":4400,"station_id":"ce4bh312rcd13ifvqdk0","pricing_plan_id":"cebpf4jnsgd1na2vs0mg"},{"bike_id":"f0a65eba-5176-4f6d-90ab-e42680a979ae","system_id":"levelo_inurba_marseille","lat":43.33606,"lon":5.41027,"is_reserved":false,"is_disabled":false,"rental_uris":{"android":"levelo://app?vid=f0a65eba-5176-4f6d-90ab-e42680a979ae","ios":"levelo://app?vid=f0a65eba-5176-4f6d-90ab-e42680a979ae"},"vehicle_type_id":"4","last_reported":1751523435,"current_range_meters":4400,"station_id":"ce4bhqh2rcd13ifvqhmg","pricing_plan_id":"cebpf4jnsgd1na2vs0mg"},{"bike_id":"cf118203-dfba-4a72-8f47-668c562e2473","system_id":"levelo_inurba_marseille","lat":43.31341,"lon":5.36717,"is_reserved":false,"is_disabled":false,"rental_uris":{"android":"levelo://app?vid=cf118203-dfba-4a72-8f47-668c562e2473","ios":"levelo://app?vid=cf118203-dfba-4a72-8f47-668c562e2473"},"vehicle_type_id":"4","last_reported":1751523435,"current_range_meters":4800,"station_id":"ce4bgr92rcd13ifvqc6g","pricing_plan_id":"cebpf4jnsgd1na2vs0mg"},{"bike_id":"b5346cdf-6b3a-477e-be8f-0e32dec69b7c","system_id":"levelo_inurba_marseille","lat":43.27896,"lon":5.3799,"is_reserved":false,"is_disabled":false,"rental_uris":{"android":"levelo://app?vid=b5346cdf-6b3a-477e-be8f-0e32dec69b7c","ios":"levelo://app?vid=b5346cdf-6b3a-477e-be8f-0e32dec69b7c"},"vehicle_type_id":"4","last_reported":1751523435,"current_range_meters":4800,"station_id":"ce4bhf92rcd13ifvqf50","pricing_plan_id":"cebpf4jnsgd1na2vs0mg"},{"bike_id":"3171c720-c684-4a95-8c6a-ab128f5d1044","system_id":"levelo_inurba_marseille","lat":43.31346,"lon":5.36713,"is_reserved":false,"is_disabled":false,"rental_uris":{"android":"levelo://app?vid=3171c720-c684-4a95-8c6a-ab128f5d1044","ios":"levelo://app?vid=3171c720-c684-4a95-8c6a-ab128f5d1044"},"vehicle_type_id":"4","last_reported":1751523435,"current_range_meters":5600,"station_id":"ce4bgr92rcd13ifvqc6g","pricing_plan_id":"cebpf4jnsgd1na2vs0mg"},{"bike_id":"4b5a3d63-7a0d-46c6-80b6-35b6a381ae07","system_id":"levelo_inurba_marseille","lat":43.3117,"lon":5.38707,"is_reserved":false,"is_disabled":false,"rental_uris":{"android":"levelo://app?vid=4b5a3d63-7a0d-46c6-80b6-35b6a381ae07","ios":"levelo://app?vid=4b5a3d63-7a0d-46c6-80b6-35b6a381ae07"},"vehicle_type_id":"4","last_reported":1751523435,"current_range_meters":5600,"station_id":"ce4bgv12rcd13ifvqcp0","pricing_plan_id":"cebpf4jnsgd1na2vs0mg"},{"bike_id":"f01bc8f1-adbd-4ce7-b1a0-7a0fa10b7efb","system_id":"levelo_inurba_marseille","lat":43.330314,"lon":5.390638,"is_reserved":false,"is_disabled":false,"rental_uris":{"android":"levelo://app?vid=f01bc8f1-adbd-4ce7-b1a0-7a0fa10b7efb","ios":"levelo://app?vid=f01bc8f1-adbd-4ce7-b1a0-7a0fa10b7efb"},"vehicle_type_id":"4","last_reported":1751523435,"current_range_meters":5600,"station_id":"ce4bhr92rcd13ifvqhrg","pricing_plan_id":"cebpf4jnsgd1na2vs0mg"},{"bike_id":"67eac50a-b8f2-4996-9685-42cf162dfccf","system_id":"levelo_inurba_marseille","lat":43.23191,"lon":5.39992,"is_reserved":false,"is_disabled":false,"rental_uris":{"android":"levelo://app?vid=67eac50a-b8f2-4996-9685-42cf162dfccf","ios":"levelo://app?vid=67eac50a-b8f2-4996-9685-42cf162dfccf"},"vehicle_type_id":"4","last_reported":1751523435,"current_range_meters":6400,"station_id":"ce4bhn12rcd13ifvqgqg","pricing_plan_id":"cebpf4jnsgd1na2vs0mg"},{"bike_id":"fb6d56c1-1a5b-4621-966b-146b174fc47b","system_id":"levelo_inurba_marseille","lat":43.30415,"lon":5.41271,"is_reserved":false,"is_disabled":false,"rental_uris":{"android":"levelo://app?vid=fb6d56c1-1a5b-4621-966b-146b174fc47b","ios":"levelo://app?vid=fb6d56c1-1a5b-4621-966b-146b174fc47b"},"vehicle_type_id":"4","last_reported":1751523435,"current_range_meters":6400,"station_id":"ce4bhop2rcd13ifvqh8g","pricing_plan_id":"cebpf4jnsgd1na2vs0mg"},{"bike_id":"b25c8b39-c55c-4bd9-b992-2070939086f2","system_id":"levelo_inurba_marseille","lat":43.323371,"lon":5.406193,"is_reserved":false,"is_disabled":false,"rental_uris":{"android":"levelo://app?vid=b25c8b39-c55c-4bd9-b992-2070939086f2","ios":"levelo://app?vid=b25c8b39-c55c-4bd9-b992-2070939086f2"},"vehicle_type_id":"4","last_reported":1751523435,"current_range_meters":6400,"station_id":"ce4bhq92rcd13ifvqhjg","pricing_plan_id":"cebpf4jnsgd1na2vs0mg"},{"bike_id":"9610e57b-e24c-4c16-838c-092b893b30dc","system_id":"levelo_inurba_marseille","lat":43.21747,"lon":5.34598,"is_reserved":false,"is_disabled":false,"rental_uris":{"android":"levelo://app?vid=9610e57b-e24c-4c16-838c-092b893b30dc","ios":"levelo://app?vid=9610e57b-e24c-4c16-838c-092b893b30dc"},"vehicle_type_id":"4","last_reported":1751523435,"current_range_meters":6400,"station_id":"st_cvj6r9ubvosntc0bgbag","pricing_plan_id":"cebpf4jnsgd1na2vs0mg"},{"bike_id":"8becf1b9-b72c-4763-a062-bbd587ae45bf","system_id":"levelo_inurba_marseille","lat":43.326012,"lon":5.425376,"is_reserved":false,"is_disabled":false,"rental_uris":{"android":"levelo://app?vid=8becf1b9-b72c-4763-a062-bbd587ae45bf","ios":"levelo://app?vid=8becf1b9-b72c-4763-a062-bbd587ae45bf"},"vehicle_type_id":"4","last_reported":1751523435,"current_range_meters":6800,"station_id":"","pricing_plan_id":"cebpf4jnsgd1na2vs0mg"},{"bike_id":"cba5b54b-79c5-4b17-abe0-2f4e94c57b41","system_id":"levelo_inurba_marseille","lat":43.28071,"lon":5.34762,"is_reserved":false,"is_disabled":false,"rental_uris":{"android":"levelo://app?vid=cba5b54b-79c5-4b17-abe0-2f4e94c57b41","ios":"levelo://app?vid=cba5b54b-79c5-4b17-abe0-2f4e94c57b41"},"vehicle_type_id":"4","last_reported":1751523435,"current_range_meters":7200,"station_id":"","pricing_plan_id":"cebpf4jnsgd1na2vs0mg"},{"bike_id":"9dd19cef-2068-44d7-b56c-b27ca151e9a6","system_id":"levelo_inurba_marseille","lat":43.24173,"lon":5.39729,"is_reserved":false,"is_disabled":false,"rental_uris":{"android":"levelo://app?vid=9dd19cef-2068-44d7-b56c-b27ca151e9a6","ios":"levelo://app?vid=9dd19cef-2068-44d7-b56c-b27ca151e9a6"},"vehicle_type_id":"4","last_reported":1751523435,"current_range_meters":7200,"station_id":"ce4bhn12rcd13ifvqgpg","pricing_plan_id":"cebpf4jnsgd1na2vs0mg"},{"bike_id":"88f0d88a-1dec-4977-a19a-71293da7fba4","system_id":"levelo_inurba_marseille","lat":43.32375,"lon":5.36753,"is_reserved":false,"is_disabled":false,"rental_uris":{"android":"levelo://app?vid=88f0d88a-1dec-4977-a19a-71293da7fba4","ios":"levelo://app?vid=88f0d88a-1dec-4977-a19a-71293da7fba4"},"vehicle_type_id":"4","last_reported":1751523435,"current_range_meters":7200,"station_id":"ce4bhsh2rcd13ifvqi2g","pricing_plan_id":"cebpf4jnsgd1na2vs0mg"},{"bike_id":"3fbceb20-d877-411e-a90d-f13a05e02fc6","system_id":"levelo_inurba_marseille","lat":43.30387,"lon":5.37958,"is_reserved":false,"is_disabled":false,"rental_uris":{"android":"levelo://app?vid=3fbceb20-d877-411e-a90d-f13a05e02fc6","ios":"levelo://app?vid=3fbceb20-d877-411e-a90d-f13a05e02fc6"},"vehicle_type_id":"4","last_reported":1751523435,"current_range_meters":8000,"station_id":"","pricing_plan_id":"cebpf4jnsgd1na2vs0mg"},{"bike_id":"7aba89ea-671c-4dbf-9636-e0c0e7f6c366","system_id":"levelo_inurba_marseille","lat":43.30905,"lon":5.36843,"is_reserved":false,"is_disabled":false,"rental_uris":{"android":"levelo://app?vid=7aba89ea-671c-4dbf-9636-e0c0e7f6c366","ios":"levelo://app?vid=7aba89ea-671c-4dbf-9636-e0c0e7f6c366"},"vehicle_type_id":"4","last_reported":1751523435,"current_range_meters":8000,"station_id":"ce4bgn92rcd13ifvqbvg","pricing_plan_id":"cebpf4jnsgd1na2vs0mg"},{"bike_id":"c5684f71-cc39-41b7-b2fc-39ba77bf3f52","system_id":"levelo_inurba_marseille","lat":43.28342,"lon":5.38106,"is_reserved":false,"is_disabled":false,"rental_uris":{"android":"levelo://app?vid=c5684f71-cc39-41b7-b2fc-39ba77bf3f52","ios":"levelo://app?vid=c5684f71-cc39-41b7-b2fc-39ba77bf3f52"},"vehicle_type_id":"4","last_reported":1751523435,"current_range_meters":8000,"station_id":"ce4bh412rcd13ifvqdr0","pricing_plan_id":"cebpf4jnsgd1na2vs0mg"},{"bike_id":"3e430b63-9d80-4499-b6d5-73548ea39eee","system_id":"levelo_inurba_marseille","lat":43.290948,"lon":5.380835,"is_reserved":false,"is_disabled":false,"rental_uris":{"android":"levelo://app?vid=3e430b63-9d80-4499-b6d5-73548ea39eee","ios":"levelo://app?vid=3e430b63-9d80-4499-b6d5-73548ea39eee"},"vehicle_type_id":"4","last_reported":1751523435,"current_range_meters":8000,"station_id":"ce4bh512rcd13ifvqe2g","pricing_plan_id":"cebpf4jnsgd1na2vs0mg"},{"bike_id":"f9740d17-7b8b-428a-8ab9-181c58c513b7","system_id":"levelo_inurba_marseille","lat":43.2594,"lon":5.40895,"is_reserved":false,"is_disabled":false,"rental_uris":{"android":"levelo://app?vid=f9740d17-7b8b-428a-8ab9-181c58c513b7","ios":"levelo://app?vid=f9740d17-7b8b-428a-8ab9-181c58c513b7"},"vehicle_type_id":"4","last_reported":1751523435,"current_range_meters":8000,"station_id":"ce4bhm92rcd13ifvqglg","pricing_plan_id":"cebpf4jnsgd1na2vs0mg"},{"bike_id":"56202d73-6c3a-42ab-b202-983682520d27","system_id":"levelo_inurba_marseille","lat":43.295544,"lon":5.422899,"is_reserved":false,"is_disabled":false,"rental_uris":{"android":"levelo://app?vid=56202d73-6c3a-42ab-b202-983682520d27","ios":"levelo://app?vid=56202d73-6c3a-42ab-b202-983682520d27"},"vehicle_type_id":"4","last_reported":1751523435,"current_range_meters":8400,"station_id":"ce4bhph2rcd13ifvqhdg","pricing_plan_id":"cebpf4jnsgd1na2vs0mg"},{"bike_id":"6f06414e-66e4-4c4f-bc61-5cd6e3c63f70","system_id":"levelo_inurba_marseille","lat":43.31173,"lon":5.38716,"is_reserved":false,"is_disabled":false,"rental_uris":{"android":"levelo://app?vid=6f06414e-66e4-4c4f-bc61-5cd6e3c63f70","ios":"levelo://app?vid=6f06414e-66e4-4c4f-bc61-5cd6e3c63f70"},"vehicle_type_id":"4","last_reported":1751523435,"current_range_meters":8800,"station_id":"ce4bgv12rcd13ifvqcp0","pricing_plan_id":"cebpf4jnsgd1na2vs0mg"},{"bike_id":"7204e01e-85a1-4d6f-bcaa-0095368ffbb8","system_id":"levelo_inurba_marseille","lat":43.24177,"lon":5.39717,"is_reserved":false,"is_disabled":false,"rental_uris":{"android":"levelo://app?vid=7204e01e-85a1-4d6f-bcaa-0095368ffbb8","ios":"levelo://app?vid=7204e01e-85a1-4d6f-bcaa-0095368ffbb8"},"vehicle_type_id":"4","last_reported":1751523435,"current_range_meters":8800,"station_id":"ce4bhn12rcd13ifvqgpg","pricing_plan_id":"cebpf4jnsgd1na2vs0mg"},{"bike_id":"8ad00ccc-3ccb-493b-a2b4-49cd4dd94c33","system_id":"levelo_inurba_marseille","lat":43.21762,"lon":5.34593,"is_reserved":false,"is_disabled":false,"rental_uris":{"android":"levelo://app?vid=8ad00ccc-3ccb-493b-a2b4-49cd4dd94c33","ios":"levelo://app?vid=8ad00ccc-3ccb-493b-a2b4-49cd4dd94c33"},"vehicle_type_id":"4","last_reported":1751523435,"current_range_meters":8800,"station_id":"st_cvj6r9ubvosntc0bgbag","pricing_plan_id":"cebpf4jnsgd1na2vs0mg"},{"bike_id":"eb6f172f-68c2-4fbc-b984-276818caa76a","system_id":"levelo_inurba_marseille","lat":43.29323,"lon":5.439008,"is_reserved":false,"is_disabled":false,"rental_uris":{"android":"levelo://app?vid=eb6f172f-68c2-4fbc-b984-276818caa76a","ios":"levelo://app?vid=eb6f172f-68c2-4fbc-b984-276818caa76a"},"vehicle_type_id":"4","last_reported":1751523435,"current_range_meters":9200,"station_id":"","pricing_plan_id":"cebpf4jnsgd1na2vs0mg"},{"bike_id":"506ccada-1d06-4e71-a897-62b69fcf8970","system_id":"levelo_inurba_marseille","lat":43.30472,"lon":5.37909,"is_reserved":false,"is_disabled":false,"rental_uris":{"android":"levelo://app?vid=506ccada-1d06-4e71-a897-62b69fcf8970","ios":"levelo://app?vid=506ccada-1d06-4e71-a897-62b69fcf8970"},"vehicle_type_id":"4","last_reported":1751523435,"current_range_meters":9200,"station_id":"ce4bgup2rcd13ifvqcn0","pricing_plan_id":"cebpf4jnsgd1na2vs0mg"},{"bike_id":"82fcae9e-869d-45b5-8a2f-d3b303661ff8","system_id":"levelo_inurba_marseille","lat":43.292574,"lon":5.409184,"is_reserved":false,"is_disabled":false,"rental_uris":{"android":"levelo://app?vid=82fcae9e-869d-45b5-8a2f-d3b303661ff8","ios":"levelo://app?vid=82fcae9e-869d-45b5-8a2f-d3b303661ff8"},"vehicle_type_id":"4","last_reported":1751523435,"current_range_meters":9200,"station_id":"ce4bh192rcd13ifvqdc0","pricing_plan_id":"cebpf4jnsgd1na2vs0mg"},{"bike_id":"98b217ab-6252-4b8e-8ae4-c4d0763a906c","system_id":"levelo_inurba_marseille","lat":43.2873,"lon":5.37936,"is_reserved":false,"is_disabled":false,"rental_uris":{"android":"levelo://app?vid=98b217ab-6252-4b8e-8ae4-c4d0763a906c","ios":"levelo://app?vid=98b217ab-6252-4b8e-8ae4-c4d0763a906c"},"vehicle_type_id":"4","last_reported":1751523435,"current_range_meters":9200,"station_id":"ce4bh9p2rcd13ifvqec0","pricing_plan_id":"cebpf4jnsgd1na2vs0mg"},{"bike_id":"a62a0ef6-babe-44d3-9278-a9bccd58a7db","system_id":"levelo_inurba_marseille","lat":43.29547,"lon":5.42269,"is_reserved":false,"is_disabled":false,"rental_uris":{"android":"levelo://app?vid=a62a0ef6-babe-44d3-9278-a9bccd58a7db","ios":"levelo://app?vid=a62a0ef6-babe-44d3-9278-a9bccd58a7db"},"vehicle_type_id":"4","last_reported":1751523435,"current_range_meters":9200,"station_id":"ce4bhph2rcd13ifvqhdg","pricing_plan_id":"cebpf4jnsgd1na2vs0mg"},{"bike_id":"e8bb200b-4634-45f4-b13d-40f9a05c25a3","system_id":"levelo_inurba_marseille","lat":43.31703,"lon":5.37731,"is_reserved":false,"is_disabled":false,"rental_uris":{"android":"levelo://app?vid=e8bb200b-4634-45f4-b13d-40f9a05c25a3","ios":"levelo://app?vid=e8bb200b-4634-45f4-b13d-40f9a05c25a3"},"vehicle_type_id":"4","last_reported":1751523435,"current_range_meters":9600,"station_id":"ce4bgth2rcd13ifvqch0","pricing_plan_id":"cebpf4jnsgd1na2vs0mg"},{"bike_id":"5627cb2b-1db7-400e-bc00-baa4bafc8086","system_id":"levelo_inurba_marseille","lat":43.292794,"lon":5.401202,"is_reserved":false,"is_disabled":false,"rental_uris":{"android":"levelo://app?vid=5627cb2b-1db7-400e-bc00-baa4bafc8086","ios":"levelo://app?vid=5627cb2b-1db7-400e-bc00-baa4bafc8086"},"vehicle_type_id":"4","last_reported":1751523435,"current_range_meters":9600,"station_id":"ce4bh312rcd13ifvqdk0","pricing_plan_id":"cebpf4jnsgd1na2vs0mg"},{"bike_id":"e9c02218-8788-4fea-a5b6-656a80265d86","system_id":"levelo_inurba_marseille","lat":43.25725,"lon":5.41104,"is_reserved":false,"is_disabled":false,"rental_uris":{"android":"levelo://app?vid=e9c02218-8788-4fea-a5b6-656a80265d86","ios":"levelo://app?vid=e9c02218-8788-4fea-a5b6-656a80265d86"},"vehicle_type_id":"4","last_reported":1751523435,"current_range_meters":9600,"station_id":"ce4bhkp2rcd13ifvqgd0","pricing_plan_id":"cebpf4jnsgd1na2vs0mg"},{"bike_id":"9d06beda-1bc5-4b5e-a97e-4c40320ce321","system_id":"levelo_inurba_marseille","lat":43.33598,"lon":5.41021,"is_reserved":false,"is_disabled":false,"rental_uris":{"android":"levelo://app?vid=9d06beda-1bc5-4b5e-a97e-4c40320ce321","ios":"levelo://app?vid=9d06beda-1bc5-4b5e-a97e-4c40320ce321"},"vehicle_type_id":"4","last_reported":1751523435,"current_range_meters":9600,"station_id":"ce4bhqh2rcd13ifvqhmg","pricing_plan_id":"cebpf4jnsgd1na2vs0mg"},{"bike_id":"b28aa0a0-791c-4a08-9a16-c7bf6ea0ed5a","system_id":"levelo_inurba_marseille","lat":43.22509,"lon":5.34779,"is_reserved":false,"is_disabled":false,"rental_uris":{"android":"levelo://app?vid=b28aa0a0-791c-4a08-9a16-c7bf6ea0ed5a","ios":"levelo://app?vid=b28aa0a0-791c-4a08-9a16-c7bf6ea0ed5a"},"vehicle_type_id":"4","last_reported":1751523435,"current_range_meters":9600,"station_id":"st_cvj5dfep6f1abm77gieg","pricing_plan_id":"cebpf4jnsgd1na2vs0mg"},{"bike_id":"8691a2e8-a318-485a-953e-580281635125","system_id":"levelo_inurba_marseille","lat":43.286628,"lon":5.386752,"is_reserved":false,"is_disabled":false,"rental_uris":{"android":"levelo://app?vid=8691a2e8-a318-485a-953e-580281635125","ios":"levelo://app?vid=8691a2e8-a318-485a-953e-580281635125"},"vehicle_type_id":"4","last_reported":1751523435,"current_range_meters":10000,"station_id":"ce4bh492rcd13ifvqdug","pricing_plan_id":"cebpf4jnsgd1na2vs0mg"},{"bike_id":"c2cc3873-3136-4ba7-984d-6514f2a6bcc2","system_id":"levelo_inurba_marseille","lat":43.26692,"lon":5.3827,"is_reserved":false,"is_disabled":false,"rental_uris":{"android":"levelo://app?vid=c2cc3873-3136-4ba7-984d-6514f2a6bcc2","ios":"levelo://app?vid=c2cc3873-3136-4ba7-984d-6514f2a6bcc2"},"vehicle_type_id":"4","last_reported":1751523435,"current_range_meters":10000,"station_id":"ce4bhg92rcd13ifvqf90","pricing_plan_id":"cebpf4jnsgd1na2vs0mg"},{"bike_id":"f5469626-344e-4334-9049-486e9f34a090","system_id":"levelo_inurba_marseille","lat":43.32129,"lon":5.36756,"is_reserved":false,"is_disabled":false,"rental_uris":{"android":"levelo://app?vid=f5469626-344e-4334-9049-486e9f34a090","ios":"levelo://app?vid=f5469626-344e-4334-9049-486e9f34a090"},"vehicle_type_id":"4","last_reported":1751523435,"current_range_meters":10000,"station_id":"ce4bhrh2rcd13ifvqhug","pricing_plan_id":"cebpf4jnsgd1na2vs0mg"},{"bike_id":"22c65f34-5b9a-4ce8-b3b0-5a1a52b259a2","system_id":"levelo_inurba_marseille","lat":43.29703,"lon":5.4021,"is_reserved":false,"is_disabled":false,"rental_uris":{"android":"levelo://app?vid=22c65f34-5b9a-4ce8-b3b0-5a1a52b259a2","ios":"levelo://app?vid=22c65f34-5b9a-4ce8-b3b0-5a1a52b259a2"},"vehicle_type_id":"4","last_reported":1751523435,"current_range_meters":10800,"station_id":"","pricing_plan_id":"cebpf4jnsgd1na2vs0mg"},{"bike_id":"7e62b058-a7ed-4634-80f1-04d3de596de7","system_id":"levelo_inurba_marseille","lat":43.298446,"lon":5.368104,"is_reserved":false,"is_disabled":false,"rental_uris":{"android":"levelo://app?vid=7e62b058-a7ed-4634-80f1-04d3de596de7","ios":"levelo://app?vid=7e62b058-a7ed-4634-80f1-04d3de596de7"},"vehicle_type_id":"4","last_reported":1751523435,"current_range_meters":10800,"station_id":"","pricing_plan_id":"cebpf4jnsgd1na2vs0mg"},{"bike_id":"bf00a211-3496-4df0-8e4e-99767047ca09","system_id":"levelo_inurba_marseille","lat":43.29971,"lon":5.37603,"is_reserved":false,"is_disabled":false,"rental_uris":{"android":"levelo://app?vid=bf00a211-3496-4df0-8e4e-99767047ca09","ios":"levelo://app?vid=bf00a211-3496-4df0-8e4e-99767047ca09"},"vehicle_type_id":"4","last_reported":1751523435,"current_range_meters":10800,"station_id":"","pricing_plan_id":"cebpf4jnsgd1na2vs0mg"},{"bike_id":"e26ba497-efc7-4420-b8c5-9fa5e27f2ce4","system_id":"levelo_inurba_marseille","lat":43.31358,"lon":5.37065,"is_reserved":false,"is_disabled":false,"rental_uris":{"android":"levelo://app?vid=e26ba497-efc7-4420-b8c5-9fa5e27f2ce4","ios":"levelo://app?vid=e26ba497-efc7-4420-b8c5-9fa5e27f2ce4"},"vehicle_type_id":"4","last_reported":1751523435,"current_range_meters":10800,"station_id":"","pricing_plan_id":"cebpf4jnsgd1na2vs0mg"},{"bike_id":"0e59e262-017b-4259-ab7f-da5d34baea30","system_id":"levelo_inurba_marseille","lat":43.29876,"lon":5.39738,"is_reserved":false,"is_disabled":false,"rental_uris":{"android":"levelo://app?vid=0e59e262-017b-4259-ab7f-da5d34baea30","ios":"levelo://app?vid=0e59e262-017b-4259-ab7f-da5d34baea30"},"vehicle_type_id":"4","last_reported":1751523435,"current_range_meters":10800,"station_id":"ce4bh0h2rcd13ifvqd50","pricing_plan_id":"cebpf4jnsgd1na2vs0mg"},{"bike_id":"9b95cd64-909b-4116-aa7b-fde3d46b8bec","system_id":"levelo_inurba_marseille","lat":43.28571,"lon":5.39481,"is_reserved":false,"is_disabled":false,"rental_uris":{"android":"levelo://app?vid=9b95cd64-909b-4116-aa7b-fde3d46b8bec","ios":"levelo://app?vid=9b95cd64-909b-4116-aa7b-fde3d46b8bec"},"vehicle_type_id":"4","last_reported":1751523435,"current_range_meters":10800,"station_id":"ce4bh292rcd13ifvqdg0","pricing_plan_id":"cebpf4jnsgd1na2vs0mg"},{"bike_id":"f189ccfe-0801-4cb8-826f-747e5958a962","system_id":"levelo_inurba_marseille","lat":43.28889,"lon":5.3933,"is_reserved":false,"is_disabled":false,"rental_uris":{"android":"levelo://app?vid=f189ccfe-0801-4cb8-826f-747e5958a962","ios":"levelo://app?vid=f189ccfe-0801-4cb8-826f-747e5958a962"},"vehicle_type_id":"4","last_reported":1751523435,"current_range_meters":10800,"station_id":"ce4bh2p2rcd13ifvqdi0","pricing_plan_id":"cebpf4jnsgd1na2vs0mg"},{"bike_id":"ddee4dc5-8dbd-43b7-8432-cb29531f6c22","system_id":"levelo_inurba_marseille","lat":43.260223,"lon":5.375457,"is_reserved":false,"is_disabled":false,"rental_uris":{"android":"levelo://app?vid=ddee4dc5-8dbd-43b7-8432-cb29531f6c22","ios":"levelo://app?vid=ddee4dc5-8dbd-43b7-8432-cb29531f6c22"},"vehicle_type_id":"4","last_reported":1751523435,"current_range_meters":10800,"station_id":"ce4bhgh2rcd13ifvqfa0","pricing_plan_id":"cebpf4jnsgd1na2vs0mg"},{"bike_id":"ae698825-2b59-4495-8ad5-6cc2b8bb90e6","system_id":"levelo_inurba_marseille","lat":43.27168,"lon":5.40995,"is_reserved":false,"is_disabled":false,"rental_uris":{"android":"levelo://app?vid=ae698825-2b59-4495-8ad5-6cc2b8bb90e6","ios":"levelo://app?vid=ae698825-2b59-4495-8ad5-6cc2b8bb90e6"},"vehicle_type_id":"4","last_reported":1751523435,"current_range_meters":10800,"station_id":"ce4bhl12rcd13ifvqgf0","pricing_plan_id":"cebpf4jnsgd1na2vs0mg"},{"bike_id":"89494d6e-e11a-438f-8875-5fc51e937fc2","system_id":"levelo_inurba_marseille","lat":43.303561,"lon":5.418899,"is_reserved":false,"is_disabled":false,"rental_uris":{"android":"levelo://app?vid=89494d6e-e11a-438f-8875-5fc51e937fc2","ios":"levelo://app?vid=89494d6e-e11a-438f-8875-5fc51e937fc2"},"vehicle_type_id":"4","last_reported":1751523435,"current_range_meters":10800,"station_id":"ce4bhop2rcd13ifvqh7g","pricing_plan_id":"cebpf4jnsgd1na2vs0mg"},{"bike_id":"9a7d342a-ff8e-46c4-af1e-6e0519bd67dc","system_id":"levelo_inurba_marseille","lat":43.291433,"lon":5.355899,"is_reserved":false,"is_disabled":false,"rental_uris":{"android":"levelo://app?vid=9a7d342a-ff8e-46c4-af1e-6e0519bd67dc","ios":"levelo://app?vid=9a7d342a-ff8e-46c4-af1e-6e0519bd67dc"},"vehicle_type_id":"4","last_reported":1751523435,"current_range_meters":11200,"station_id":"","pricing_plan_id":"cebpf4jnsgd1na2vs0mg"},{"bike_id":"c8a9925e-2d13-4600-a9fa-0b1ee6b6f27d","system_id":"levelo_inurba_marseille","lat":43.29575,"lon":5.40616,"is_reserved":false,"is_disabled":false,"rental_uris":{"android":"levelo://app?vid=c8a9925e-2d13-4600-a9fa-0b1ee6b6f27d","ios":"levelo://app?vid=c8a9925e-2d13-4600-a9fa-0b1ee6b6f27d"},"vehicle_type_id":"4","last_reported":1751523435,"current_range_meters":11200,"station_id":"","pricing_plan_id":"cebpf4jnsgd1na2vs0mg"},{"bike_id":"683054c3-91b0-4749-8c96-8a8ff46f1167","system_id":"levelo_inurba_marseille","lat":43.25927,"lon":5.40884,"is_reserved":false,"is_disabled":false,"rental_uris":{"android":"levelo://app?vid=683054c3-91b0-4749-8c96-8a8ff46f1167","ios":"levelo://app?vid=683054c3-91b0-4749-8c96-8a8ff46f1167"},"vehicle_type_id":"4","last_reported":1751523435,"current_range_meters":11200,"station_id":"ce4bhm92rcd13ifvqglg","pricing_plan_id":"cebpf4jnsgd1na2vs0mg"},{"bike_id":"56eb3fdf-ea87-4fcf-85df-3680fa66363e","system_id":"levelo_inurba_marseille","lat":43.22495,"lon":5.34785,"is_reserved":false,"is_disabled":false,"rental_uris":{"android":"levelo://app?vid=56eb3fdf-ea87-4fcf-85df-3680fa66363e","ios":"levelo://app?vid=56eb3fdf-ea87-4fcf-85df-3680fa66363e"},"vehicle_type_id":"4","last_reported":1751523435,"current_range_meters":11200,"station_id":"st_cvj5dfep6f1abm77gieg","pricing_plan_id":"cebpf4jnsgd1na2vs0mg"},{"bike_id":"767f3a03-f614-47d6-8dfd-e678ff4648f7","system_id":"levelo_inurba_marseille","lat":43.225018,"lon":5.347795,"is_reserved":false,"is_disabled":false,"rental_uris":{"android":"levelo://app?vid=767f3a03-f614-47d6-8dfd-e678ff4648f7","ios":"levelo://app?vid=767f3a03-f614-47d6-8dfd-e678ff4648f7"},"vehicle_type_id":"4","last_reported":1751523435,"current_range_meters":11200,"station_id":"st_cvj5dfep6f1abm77gieg","pricing_plan_id":"cebpf4jnsgd1na2vs0mg"},{"bike_id":"bcfd0eda-b9ab-4bec-9ca3-3f2b86617415","system_id":"levelo_inurba_marseille","lat":43.21188,"lon":5.35066,"is_reserved":false,"is_disabled":false,"rental_uris":{"android":"levelo://app?vid=bcfd0eda-b9ab-4bec-9ca3-3f2b86617415","ios":"levelo://app?vid=bcfd0eda-b9ab-4bec-9ca3-3f2b86617415"},"vehicle_type_id":"4","last_reported":1751523435,"current_range_meters":11200,"station_id":"st_cvj6sg6p6f1abm77japg","pricing_plan_id":"cebpf4jnsgd1na2vs0mg"},{"bike_id":"cc68a03e-1e28-49a5-bd8c-8b62b3d785a7","system_id":"levelo_inurba_marseille","lat":43.296298,"lon":5.406075,"is_reserved":false,"is_disabled":false,"rental_uris":{"android":"levelo://app?vid=cc68a03e-1e28-49a5-bd8c-8b62b3d785a7","ios":"levelo://app?vid=cc68a03e-1e28-49a5-bd8c-8b62b3d785a7"},"vehicle_type_id":"4","last_reported":1751523435,"current_range_meters":11600,"station_id":"ce4bh0h2rcd13ifvqd60","pricing_plan_id":"cebpf4jnsgd1na2vs0mg"},{"bike_id":"594912f5-f5c1-437e-bae9-d56d3cecb8cb","system_id":"levelo_inurba_marseille","lat":43.251071,"lon":5.403249,"is_reserved":false,"is_disabled":false,"rental_uris":{"android":"levelo://app?vid=594912f5-f5c1-437e-bae9-d56d3cecb8cb","ios":"levelo://app?vid=594912f5-f5c1-437e-bae9-d56d3cecb8cb"},"vehicle_type_id":"4","last_reported":1751523435,"current_range_meters":11600,"station_id":"ce4bhlh2rcd13ifvqgig","pricing_plan_id":"cebpf4jnsgd1na2vs0mg"},{"bike_id":"38bac79f-e35b-4649-a124-62df32b2dd19","system_id":"levelo_inurba_marseille","lat":43.311684,"lon":5.387178,"is_reserved":false,"is_disabled":false,"rental_uris":{"android":"levelo://app?vid=38bac79f-e35b-4649-a124-62df32b2dd19","ios":"levelo://app?vid=38bac79f-e35b-4649-a124-62df32b2dd19"},"vehicle_type_id":"4","last_reported":1751523435,"current_range_meters":12000,"station_id":"ce4bgv12rcd13ifvqcp0","pricing_plan_id":"cebpf4jnsgd1na2vs0mg"},{"bike_id":"a16e6612-b83f-469b-8bde-03d978ed6159","system_id":"levelo_inurba_marseille","lat":43.28422,"lon":5.34995,"is_reserved":false,"is_disabled":false,"rental_uris":{"android":"levelo://app?vid=a16e6612-b83f-469b-8bde-03d978ed6159","ios":"levelo://app?vid=a16e6612-b83f-469b-8bde-03d978ed6159"},"vehicle_type_id":"4","last_reported":1751523435,"current_range_meters":12000,"station_id":"ce4bhbh2rcd13ifvqepg","pricing_plan_id":"cebpf4jnsgd1na2vs0mg"},{"bike_id":"17ad145c-f881-4017-969d-c8638a36a818","system_id":"levelo_inurba_marseille","lat":43.26543,"lon":5.39017,"is_reserved":false,"is_disabled":false,"rental_uris":{"android":"levelo://app?vid=17ad145c-f881-4017-969d-c8638a36a818","ios":"levelo://app?vid=17ad145c-f881-4017-969d-c8638a36a818"},"vehicle_type_id":"4","last_reported":1751523435,"current_range_meters":12000,"station_id":"ce4bhe12rcd13ifvqf30","pricing_plan_id":"cebpf4jnsgd1na2vs0mg"},{"bike_id":"110be0f7-19b6-4419-935c-8afdb1f29359","system_id":"levelo_inurba_marseille","lat":43.21194,"lon":5.35074,"is_reserved":false,"is_disabled":false,"rental_uris":{"android":"levelo://app?vid=110be0f7-19b6-4419-935c-8afdb1f29359","ios":"levelo://app?vid=110be0f7-19b6-4419-935c-8afdb1f29359"},"vehicle_type_id":"4","last_reported":1751523435,"current_range_meters":12000,"station_id":"st_cvj6sg6p6f1abm77japg","pricing_plan_id":"cebpf4jnsgd1na2vs0mg"},{"bike_id":"106b20ef-731c-43cb-899f-9e74669bd63d","system_id":"levelo_inurba_marseille","lat":43.30546,"lon":5.36542,"is_reserved":false,"is_disabled":false,"rental_uris":{"android":"levelo://app?vid=106b20ef-731c-43cb-899f-9e74669bd63d","ios":"levelo://app?vid=106b20ef-731c-43cb-899f-9e74669bd63d"},"vehicle_type_id":"4","last_reported":1751523435,"current_range_meters":12400,"station_id":"ce4bgs12rcd13ifvqcag","pricing_plan_id":"cebpf4jnsgd1na2vs0mg"},{"bike_id":"6094de9f-e8e7-46c1-8acb-eac97613ee21","system_id":"levelo_inurba_marseille","lat":43.28705,"lon":5.39987,"is_reserved":false,"is_disabled":false,"rental_uris":{"android":"levelo://app?vid=6094de9f-e8e7-46c1-8acb-eac97613ee21","ios":"levelo://app?vid=6094de9f-e8e7-46c1-8acb-eac97613ee21"},"vehicle_type_id":"4","last_reported":1751523435,"current_range_meters":12400,"station_id":"ce4bho92rcd13ifvqh3g","pricing_plan_id":"cebpf4jnsgd1na2vs0mg"},{"bike_id":"e36eeb04-35cc-4a52-97d7-6ba58bfe555b","system_id":"levelo_inurba_marseille","lat":43.295497,"lon":5.422856,"is_reserved":false,"is_disabled":false,"rental_uris":{"android":"levelo://app?vid=e36eeb04-35cc-4a52-97d7-6ba58bfe555b","ios":"levelo://app?vid=e36eeb04-35cc-4a52-97d7-6ba58bfe555b"},"vehicle_type_id":"4","last_reported":1751523435,"current_range_meters":12400,"station_id":"ce4bhph2rcd13ifvqhdg","pricing_plan_id":"cebpf4jnsgd1na2vs0mg"},{"bike_id":"7b82ce06-9a81-436b-bdf4-db08cf7b33d1","system_id":"levelo_inurba_marseille","lat":43.241735,"lon":5.3641,"is_reserved":false,"is_disabled":false,"rental_uris":{"android":"levelo://app?vid=7b82ce06-9a81-436b-bdf4-db08cf7b33d1","ios":"levelo://app?vid=7b82ce06-9a81-436b-bdf4-db08cf7b33d1"},"vehicle_type_id":"4","last_reported":1751523435,"current_range_meters":12400,"station_id":"cpo36qri1sfpv3e86is0","pricing_plan_id":"cebpf4jnsgd1na2vs0mg"},{"bike_id":"959e6f20-8ed0-4d36-bc1d-3efb82d6190b","system_id":"levelo_inurba_marseille","lat":43.2119,"lon":5.350725,"is_reserved":false,"is_disabled":false,"rental_uris":{"android":"levelo://app?vid=959e6f20-8ed0-4d36-bc1d-3efb82d6190b","ios":"levelo://app?vid=959e6f20-8ed0-4d36-bc1d-3efb82d6190b"},"vehicle_type_id":"4","last_reported":1751523435,"current_range_meters":12400,"station_id":"st_cvj6sg6p6f1abm77japg","pricing_plan_id":"cebpf4jnsgd1na2vs0mg"},{"bike_id":"16a8afe6-e43e-4d1b-a7bd-ed83d113735a","system_id":"levelo_inurba_marseille","lat":43.32436,"lon":5.41185,"is_reserved":false,"is_disabled":false,"rental_uris":{"android":"levelo://app?vid=16a8afe6-e43e-4d1b-a7bd-ed83d113735a","ios":"levelo://app?vid=16a8afe6-e43e-4d1b-a7bd-ed83d113735a"},"vehicle_type_id":"4","last_reported":1751523435,"current_range_meters":12800,"station_id":"","pricing_plan_id":"cebpf4jnsgd1na2vs0mg"},{"bike_id":"fe16e5d6-c086-4644-bea1-4f57a2866519","system_id":"levelo_inurba_marseille","lat":43.28564,"lon":5.35064,"is_reserved":false,"is_disabled":false,"rental_uris":{"android":"levelo://app?vid=fe16e5d6-c086-4644-bea1-4f57a2866519","ios":"levelo://app?vid=fe16e5d6-c086-4644-bea1-4f57a2866519"},"vehicle_type_id":"4","last_reported":1751523435,"current_range_meters":12800,"station_id":"","pricing_plan_id":"cebpf4jnsgd1na2vs0mg"},{"bike_id":"641cdc7c-e0fb-444b-bee2-45c93f8264c1","system_id":"levelo_inurba_marseille","lat":43.29964,"lon":5.38496,"is_reserved":false,"is_disabled":false,"rental_uris":{"android":"levelo://app?vid=641cdc7c-e0fb-444b-bee2-45c93f8264c1","ios":"levelo://app?vid=641cdc7c-e0fb-444b-bee2-45c93f8264c1"},"vehicle_type_id":"4","last_reported":1751523435,"current_range_meters":12800,"station_id":"ce4bgj92rcd13ifvqbd0","pricing_plan_id":"cebpf4jnsgd1na2vs0mg"},{"bike_id":"6a785a02-909e-4d8a-8794-668155cdebef","system_id":"levelo_inurba_marseille","lat":43.30646,"lon":5.40111,"is_reserved":false,"is_disabled":false,"rental_uris":{"android":"levelo://app?vid=6a785a02-909e-4d8a-8794-668155cdebef","ios":"levelo://app?vid=6a785a02-909e-4d8a-8794-668155cdebef"},"vehicle_type_id":"4","last_reported":1751523435,"current_range_meters":12800,"station_id":"ce4bh112rcd13ifvqda0","pricing_plan_id":"cebpf4jnsgd1na2vs0mg"},{"bike_id":"816433b4-d745-472b-b63e-d2b2fbff4853","system_id":"levelo_inurba_marseille","lat":43.29202,"lon":5.35814,"is_reserved":false,"is_disabled":false,"rental_uris":{"android":"levelo://app?vid=816433b4-d745-472b-b63e-d2b2fbff4853","ios":"levelo://app?vid=816433b4-d745-472b-b63e-d2b2fbff4853"},"vehicle_type_id":"4","last_reported":1751523435,"current_range_meters":12800,"station_id":"ce4bhb12rcd13ifvqel0","pricing_plan_id":"cebpf4jnsgd1na2vs0mg"},{"bike_id":"cddb755d-9d08-4d89-99d2-63d130e463ab","system_id":"levelo_inurba_marseille","lat":43.27205,"lon":5.41011,"is_reserved":false,"is_disabled":false,"rental_uris":{"android":"levelo://app?vid=cddb755d-9d08-4d89-99d2-63d130e463ab","ios":"levelo://app?vid=cddb755d-9d08-4d89-99d2-63d130e463ab"},"vehicle_type_id":"4","last_reported":1751523435,"current_range_meters":12800,"station_id":"ce4bhl12rcd13ifvqgf0","pricing_plan_id":"cebpf4jnsgd1na2vs0mg"},{"bike_id":"3d62f533-18ea-4518-9d31-0db7a145e9d9","system_id":"levelo_inurba_marseille","lat":43.271814,"lon":5.409744,"is_reserved":false,"is_disabled":false,"rental_uris":{"android":"levelo://app?vid=3d62f533-18ea-4518-9d31-0db7a145e9d9","ios":"levelo://app?vid=3d62f533-18ea-4518-9d31-0db7a145e9d9"},"vehicle_type_id":"4","last_reported":1751523435,"current_range_meters":12800,"station_id":"ce4bhl12rcd13ifvqgf0","pricing_plan_id":"cebpf4jnsgd1na2vs0mg"},{"bike_id":"64bb485e-0856-48ce-befe-bde5a394f93d","system_id":"levelo_inurba_marseille","lat":43.27626,"lon":5.3888,"is_reserved":false,"is_disabled":false,"rental_uris":{"android":"levelo://app?vid=64bb485e-0856-48ce-befe-bde5a394f93d","ios":"levelo://app?vid=64bb485e-0856-48ce-befe-bde5a394f93d"},"vehicle_type_id":"4","last_reported":1751523435,"current_range_meters":13600,"station_id":"","pricing_plan_id":"cebpf4jnsgd1na2vs0mg"},{"bike_id":"c14e34f9-40a0-4880-898c-cf8c6b06d167","system_id":"levelo_inurba_marseille","lat":43.2997,"lon":5.37166,"is_reserved":false,"is_disabled":false,"rental_uris":{"android":"levelo://app?vid=c14e34f9-40a0-4880-898c-cf8c6b06d167","ios":"levelo://app?vid=c14e34f9-40a0-4880-898c-cf8c6b06d167"},"vehicle_type_id":"4","last_reported":1751523435,"current_range_meters":13600,"station_id":"ce4bgr92rcd13ifvqc7g","pricing_plan_id":"cebpf4jnsgd1na2vs0mg"},{"bike_id":"4dec0804-581a-4fdb-b0e3-8352b3b5cd89","system_id":"levelo_inurba_marseille","lat":43.30373,"lon":5.42488,"is_reserved":false,"is_disabled":false,"rental_uris":{"android":"levelo://app?vid=4dec0804-581a-4fdb-b0e3-8352b3b5cd89","ios":"levelo://app?vid=4dec0804-581a-4fdb-b0e3-8352b3b5cd89"},"vehicle_type_id":"4","last_reported":1751523435,"current_range_meters":13600,"station_id":"ce4bhoh2rcd13ifvqh6g","pricing_plan_id":"cebpf4jnsgd1na2vs0mg"},{"bike_id":"09a94feb-8911-4d3d-9f22-a7f611710ea1","system_id":"levelo_inurba_marseille","lat":43.21191,"lon":5.35077,"is_reserved":false,"is_disabled":false,"rental_uris":{"android":"levelo://app?vid=09a94feb-8911-4d3d-9f22-a7f611710ea1","ios":"levelo://app?vid=09a94feb-8911-4d3d-9f22-a7f611710ea1"},"vehicle_type_id":"4","last_reported":1751523435,"current_range_meters":13600,"station_id":"st_cvj6sg6p6f1abm77japg","pricing_plan_id":"cebpf4jnsgd1na2vs0mg"},{"bike_id":"a011bf6f-5b73-42df-b628-b2dcf5029277","system_id":"levelo_inurba_marseille","lat":43.241731,"lon":5.384961,"is_reserved":false,"is_disabled":false,"rental_uris":{"android":"levelo://app?vid=a011bf6f-5b73-42df-b628-b2dcf5029277","ios":"levelo://app?vid=a011bf6f-5b73-42df-b628-b2dcf5029277"},"vehicle_type_id":"4","last_reported":1751523435,"current_range_meters":14000,"station_id":"","pricing_plan_id":"cebpf4jnsgd1na2vs0mg"},{"bike_id":"f7978a69-60a9-47ef-bd2e-cfca9e6b648e","system_id":"levelo_inurba_marseille","lat":43.30152,"lon":5.3809,"is_reserved":false,"is_disabled":false,"rental_uris":{"android":"levelo://app?vid=f7978a69-60a9-47ef-bd2e-cfca9e6b648e","ios":"levelo://app?vid=f7978a69-60a9-47ef-bd2e-cfca9e6b648e"},"vehicle_type_id":"4","last_reported":1751523435,"current_range_meters":14000,"station_id":"ce4bgjp2rcd13ifvqbh0","pricing_plan_id":"cebpf4jnsgd1na2vs0mg"},{"bike_id":"6f8e1e4e-1ac7-41d9-b6ff-c10f69946511","system_id":"levelo_inurba_marseille","lat":43.311654,"lon":5.38718,"is_reserved":false,"is_disabled":false,"rental_uris":{"android":"levelo://app?vid=6f8e1e4e-1ac7-41d9-b6ff-c10f69946511","ios":"levelo://app?vid=6f8e1e4e-1ac7-41d9-b6ff-c10f69946511"},"vehicle_type_id":"4","last_reported":1751523435,"current_range_meters":14000,"station_id":"ce4bgv12rcd13ifvqcp0","pricing_plan_id":"cebpf4jnsgd1na2vs0mg"},{"bike_id":"9dbea238-2ef6-46e4-acce-4271b0047517","system_id":"levelo_inurba_marseille","lat":43.3107,"lon":5.38355,"is_reserved":false,"is_disabled":false,"rental_uris":{"android":"levelo://app?vid=9dbea238-2ef6-46e4-acce-4271b0047517","ios":"levelo://app?vid=9dbea238-2ef6-46e4-acce-4271b0047517"},"vehicle_type_id":"4","last_reported":1751523435,"current_range_meters":14000,"station_id":"ce4bgv92rcd13ifvqcr0","pricing_plan_id":"cebpf4jnsgd1na2vs0mg"},{"bike_id":"1c68776e-b459-4130-a68d-b80e3e133622","system_id":"levelo_inurba_marseille","lat":43.31068,"lon":5.38338,"is_reserved":false,"is_disabled":false,"rental_uris":{"android":"levelo://app?vid=1c68776e-b459-4130-a68d-b80e3e133622","ios":"levelo://app?vid=1c68776e-b459-4130-a68d-b80e3e133622"},"vehicle_type_id":"4","last_reported":1751523435,"current_range_meters":14000,"station_id":"ce4bgv92rcd13ifvqcr0","pricing_plan_id":"cebpf4jnsgd1na2vs0mg"},{"bike_id":"0e030323-4386-4e72-9a0d-0f6a2ff539de","system_id":"levelo_inurba_marseille","lat":43.296123,"lon":5.40559,"is_reserved":false,"is_disabled":false,"rental_uris":{"android":"levelo://app?vid=0e030323-4386-4e72-9a0d-0f6a2ff539de","ios":"levelo://app?vid=0e030323-4386-4e72-9a0d-0f6a2ff539de"},"vehicle_type_id":"4","last_reported":1751523435,"current_range_meters":14000,"station_id":"ce4bh0h2rcd13ifvqd60","pricing_plan_id":"cebpf4jnsgd1na2vs0mg"},{"bike_id":"727a6581-2cb9-4bdc-a97b-393d560eb464","system_id":"levelo_inurba_marseille","lat":43.29287,"lon":5.40125,"is_reserved":false,"is_disabled":false,"rental_uris":{"android":"levelo://app?vid=727a6581-2cb9-4bdc-a97b-393d560eb464","ios":"levelo://app?vid=727a6581-2cb9-4bdc-a97b-393d560eb464"},"vehicle_type_id":"4","last_reported":1751523435,"current_range_meters":14000,"station_id":"ce4bh312rcd13ifvqdk0","pricing_plan_id":"cebpf4jnsgd1na2vs0mg"},{"bike_id":"7bab1ae9-9e76-4bc4-8397-502ce0d2fefc","system_id":"levelo_inurba_marseille","lat":43.29036,"lon":5.39967,"is_reserved":false,"is_disabled":false,"rental_uris":{"android":"levelo://app?vid=7bab1ae9-9e76-4bc4-8397-502ce0d2fefc","ios":"levelo://app?vid=7bab1ae9-9e76-4bc4-8397-502ce0d2fefc"},"vehicle_type_id":"4","last_reported":1751523435,"current_range_meters":14000,"station_id":"ce4bh392rcd13ifvqdm0","pricing_plan_id":"cebpf4jnsgd1na2vs0mg"},{"bike_id":"8a74f5cd-9efa-4362-bea7-a32db4dcc85c","system_id":"levelo_inurba_marseille","lat":43.211889,"lon":5.350744,"is_reserved":false,"is_disabled":false,"rental_uris":{"android":"levelo://app?vid=8a74f5cd-9efa-4362-bea7-a32db4dcc85c","ios":"levelo://app?vid=8a74f5cd-9efa-4362-bea7-a32db4dcc85c"},"vehicle_type_id":"4","last_reported":1751523435,"current_range_meters":14000,"station_id":"st_cvj6sg6p6f1abm77japg","pricing_plan_id":"cebpf4jnsgd1na2vs0mg"},{"bike_id":"63072e0c-9f69-4913-be48-96789ec98037","system_id":"levelo_inurba_marseille","lat":43.33422,"lon":5.40071,"is_reserved":false,"is_disabled":false,"rental_uris":{"android":"levelo://app?vid=63072e0c-9f69-4913-be48-96789ec98037","ios":"levelo://app?vid=63072e0c-9f69-4913-be48-96789ec98037"},"vehicle_type_id":"4","last_reported":1751523435,"current_range_meters":14400,"station_id":"","pricing_plan_id":"cebpf4jnsgd1na2vs0mg"},{"bike_id":"74bbc0c0-00d7-4cff-ad8f-5c21e54e94ba","system_id":"levelo_inurba_marseille","lat":43.2926,"lon":5.40912,"is_reserved":false,"is_disabled":false,"rental_uris":{"android":"levelo://app?vid=74bbc0c0-00d7-4cff-ad8f-5c21e54e94ba","ios":"levelo://app?vid=74bbc0c0-00d7-4cff-ad8f-5c21e54e94ba"},"vehicle_type_id":"4","last_reported":1751523435,"current_range_meters":14400,"station_id":"ce4bh192rcd13ifvqdc0","pricing_plan_id":"cebpf4jnsgd1na2vs0mg"},{"bike_id":"8b784f28-b0e0-4960-8cfe-7e3d0de16521","system_id":"levelo_inurba_marseille","lat":43.23143,"lon":5.4372,"is_reserved":false,"is_disabled":false,"rental_uris":{"android":"levelo://app?vid=8b784f28-b0e0-4960-8cfe-7e3d0de16521","ios":"levelo://app?vid=8b784f28-b0e0-4960-8cfe-7e3d0de16521"},"vehicle_type_id":"4","last_reported":1751523435,"current_range_meters":14400,"station_id":"ce4bhmp2rcd13ifvqgog","pricing_plan_id":"cebpf4jnsgd1na2vs0mg"},{"bike_id":"9671bc7e-cfc8-43b8-910b-34586791d9e1","system_id":"levelo_inurba_marseille","lat":43.28437,"lon":5.39181,"is_reserved":false,"is_disabled":false,"rental_uris":{"android":"levelo://app?vid=9671bc7e-cfc8-43b8-910b-34586791d9e1","ios":"levelo://app?vid=9671bc7e-cfc8-43b8-910b-34586791d9e1"},"vehicle_type_id":"4","last_reported":1751523435,"current_range_meters":14400,"station_id":"ce4bhoh2rcd13ifvqh5g","pricing_plan_id":"cebpf4jnsgd1na2vs0mg"},{"bike_id":"b50da02d-1fb5-4383-a93d-332785610080","system_id":"levelo_inurba_marseille","lat":43.21755,"lon":5.34607,"is_reserved":false,"is_disabled":false,"rental_uris":{"android":"levelo://app?vid=b50da02d-1fb5-4383-a93d-332785610080","ios":"levelo://app?vid=b50da02d-1fb5-4383-a93d-332785610080"},"vehicle_type_id":"4","last_reported":1751523435,"current_range_meters":14400,"station_id":"st_cvj6r9ubvosntc0bgbag","pricing_plan_id":"cebpf4jnsgd1na2vs0mg"},{"bike_id":"a588469b-12ca-41c6-8c6f-3f3bda5b7f15","system_id":"levelo_inurba_marseille","lat":43.31551,"lon":5.38456,"is_reserved":false,"is_disabled":false,"rental_uris":{"android":"levelo://app?vid=a588469b-12ca-41c6-8c6f-3f3bda5b7f15","ios":"levelo://app?vid=a588469b-12ca-41c6-8c6f-3f3bda5b7f15"},"vehicle_type_id":"4","last_reported":1751523435,"current_range_meters":14800,"station_id":"","pricing_plan_id":"cebpf4jnsgd1na2vs0mg"},{"bike_id":"ff42c446-544b-4974-b21b-72ce5c234e88","system_id":"levelo_inurba_marseille","lat":43.29282,"lon":5.40145,"is_reserved":false,"is_disabled":false,"rental_uris":{"android":"levelo://app?vid=ff42c446-544b-4974-b21b-72ce5c234e88","ios":"levelo://app?vid=ff42c446-544b-4974-b21b-72ce5c234e88"},"vehicle_type_id":"4","last_reported":1751523435,"current_range_meters":14800,"station_id":"ce4bh312rcd13ifvqdk0","pricing_plan_id":"cebpf4jnsgd1na2vs0mg"},{"bike_id":"8bf0d992-d2a0-428e-940a-091ee9b7c2a4","system_id":"levelo_inurba_marseille","lat":43.21195,"lon":5.35065,"is_reserved":false,"is_disabled":false,"rental_uris":{"android":"levelo://app?vid=8bf0d992-d2a0-428e-940a-091ee9b7c2a4","ios":"levelo://app?vid=8bf0d992-d2a0-428e-940a-091ee9b7c2a4"},"vehicle_type_id":"4","last_reported":1751523435,"current_range_meters":14800,"station_id":"st_cvj6sg6p6f1abm77japg","pricing_plan_id":"cebpf4jnsgd1na2vs0mg"},{"bike_id":"c10a4283-320d-4e64-8d75-ff83e94026ba","system_id":"levelo_inurba_marseille","lat":43.211901,"lon":5.350729,"is_reserved":false,"is_disabled":false,"rental_uris":{"android":"levelo://app?vid=c10a4283-320d-4e64-8d75-ff83e94026ba","ios":"levelo://app?vid=c10a4283-320d-4e64-8d75-ff83e94026ba"},"vehicle_type_id":"4","last_reported":1751523435,"current_range_meters":14800,"station_id":"st_cvj6sg6p6f1abm77japg","pricing_plan_id":"cebpf4jnsgd1na2vs0mg"},{"bike_id":"7a4b0b6e-f668-4ef1-b9d6-fc5849b7c70d","system_id":"levelo_inurba_marseille","lat":43.30637,"lon":5.40097,"is_reserved":false,"is_disabled":false,"rental_uris":{"android":"levelo://app?vid=7a4b0b6e-f668-4ef1-b9d6-fc5849b7c70d","ios":"levelo://app?vid=7a4b0b6e-f668-4ef1-b9d6-fc5849b7c70d"},"vehicle_type_id":"4","last_reported":1751523435,"current_range_meters":15200,"station_id":"ce4bh112rcd13ifvqda0","pricing_plan_id":"cebpf4jnsgd1na2vs0mg"},{"bike_id":"2b6d702b-9329-4d7c-9e59-cd996dec878f","system_id":"levelo_inurba_marseille","lat":43.29043,"lon":5.39985,"is_reserved":false,"is_disabled":false,"rental_uris":{"android":"levelo://app?vid=2b6d702b-9329-4d7c-9e59-cd996dec878f","ios":"levelo://app?vid=2b6d702b-9329-4d7c-9e59-cd996dec878f"},"vehicle_type_id":"4","last_reported":1751523435,"current_range_meters":15200,"station_id":"ce4bh392rcd13ifvqdm0","pricing_plan_id":"cebpf4jnsgd1na2vs0mg"},{"bike_id":"a3464a6a-d07f-49ba-a0a3-2051bbcfe7a3","system_id":"levelo_inurba_marseille","lat":43.27676,"lon":5.38879,"is_reserved":false,"is_disabled":false,"rental_uris":{"android":"levelo://app?vid=a3464a6a-d07f-49ba-a0a3-2051bbcfe7a3","ios":"levelo://app?vid=a3464a6a-d07f-49ba-a0a3-2051bbcfe7a3"},"vehicle_type_id":"4","last_reported":1751523435,"current_range_meters":15200,"station_id":"ce4bhi12rcd13ifvqfo0","pricing_plan_id":"cebpf4jnsgd1na2vs0mg"},{"bike_id":"eac33aec-008d-40f4-b2c0-90d4f8729473","system_id":"levelo_inurba_marseille","lat":43.24176,"lon":5.39721,"is_reserved":false,"is_disabled":false,"rental_uris":{"android":"levelo://app?vid=eac33aec-008d-40f4-b2c0-90d4f8729473","ios":"levelo://app?vid=eac33aec-008d-40f4-b2c0-90d4f8729473"},"vehicle_type_id":"4","last_reported":1751523435,"current_range_meters":15200,"station_id":"ce4bhn12rcd13ifvqgpg","pricing_plan_id":"cebpf4jnsgd1na2vs0mg"},{"bike_id":"912d67f3-78e7-48fd-8929-37f0572cfee4","system_id":"levelo_inurba_marseille","lat":43.26376,"lon":5.37381,"is_reserved":false,"is_disabled":false,"rental_uris":{"android":"levelo://app?vid=912d67f3-78e7-48fd-8929-37f0572cfee4","ios":"levelo://app?vid=912d67f3-78e7-48fd-8929-37f0572cfee4"},"vehicle_type_id":"4","last_reported":1751523435,"current_range_meters":16000,"station_id":"","pricing_plan_id":"cebpf4jnsgd1na2vs0mg"},{"bike_id":"190cfeed-d109-41bf-961c-0dc2409d0ad3","system_id":"levelo_inurba_marseille","lat":43.33146,"lon":5.38159,"is_reserved":false,"is_disabled":false,"rental_uris":{"android":"levelo://app?vid=190cfeed-d109-41bf-961c-0dc2409d0ad3","ios":"levelo://app?vid=190cfeed-d109-41bf-961c-0dc2409d0ad3"},"vehicle_type_id":"4","last_reported":1751523435,"current_range_meters":16000,"station_id":"","pricing_plan_id":"cebpf4jnsgd1na2vs0mg"},{"bike_id":"ffc4ee84-d1be-4ebc-8ebf-1a1ca37b8401","system_id":"levelo_inurba_marseille","lat":43.30806,"lon":5.37361,"is_reserved":false,"is_disabled":false,"rental_uris":{"android":"levelo://app?vid=ffc4ee84-d1be-4ebc-8ebf-1a1ca37b8401","ios":"levelo://app?vid=ffc4ee84-d1be-4ebc-8ebf-1a1ca37b8401"},"vehicle_type_id":"4","last_reported":1751523435,"current_range_meters":16000,"station_id":"","pricing_plan_id":"cebpf4jnsgd1na2vs0mg"},{"bike_id":"629b443c-0cb5-42aa-9800-6d574d04223d","system_id":"levelo_inurba_marseille","lat":43.3056,"lon":5.36555,"is_reserved":false,"is_disabled":false,"rental_uris":{"android":"levelo://app?vid=629b443c-0cb5-42aa-9800-6d574d04223d","ios":"levelo://app?vid=629b443c-0cb5-42aa-9800-6d574d04223d"},"vehicle_type_id":"4","last_reported":1751523435,"current_range_meters":16000,"station_id":"ce4bgs12rcd13ifvqcag","pricing_plan_id":"cebpf4jnsgd1na2vs0mg"},{"bike_id":"09fae636-3f69-4553-b897-e1c9a05f7a07","system_id":"levelo_inurba_marseille","lat":43.31172,"lon":5.38721,"is_reserved":false,"is_disabled":false,"rental_uris":{"android":"levelo://app?vid=09fae636-3f69-4553-b897-e1c9a05f7a07","ios":"levelo://app?vid=09fae636-3f69-4553-b897-e1c9a05f7a07"},"vehicle_type_id":"4","last_reported":1751523435,"current_range_meters":16000,"station_id":"ce4bgv12rcd13ifvqcp0","pricing_plan_id":"cebpf4jnsgd1na2vs0mg"},{"bike_id":"05b7a220-436b-43cf-bede-6b8b30e68edc","system_id":"levelo_inurba_marseille","lat":43.29229,"lon":5.40105,"is_reserved":false,"is_disabled":false,"rental_uris":{"android":"levelo://app?vid=05b7a220-436b-43cf-bede-6b8b30e68edc","ios":"levelo://app?vid=05b7a220-436b-43cf-bede-6b8b30e68edc"},"vehicle_type_id":"4","last_reported":1751523435,"current_range_meters":16000,"station_id":"ce4bh312rcd13ifvqdk0","pricing_plan_id":"cebpf4jnsgd1na2vs0mg"},{"bike_id":"6b96aafc-4d1c-4083-a331-1dad0b719a8a","system_id":"levelo_inurba_marseille","lat":43.29228,"lon":5.36066,"is_reserved":false,"is_disabled":false,"rental_uris":{"android":"levelo://app?vid=6b96aafc-4d1c-4083-a331-1dad0b719a8a","ios":"levelo://app?vid=6b96aafc-4d1c-4083-a331-1dad0b719a8a"},"vehicle_type_id":"4","last_reported":1751523435,"current_range_meters":16000,"station_id":"ce4bhbh2rcd13ifvqeqg","pricing_plan_id":"cebpf4jnsgd1na2vs0mg"},{"bike_id":"f1d574fe-b8fe-4c96-8b6e-6b6371138207","system_id":"levelo_inurba_marseille","lat":43.32363,"lon":5.38882,"is_reserved":false,"is_disabled":false,"rental_uris":{"android":"levelo://app?vid=f1d574fe-b8fe-4c96-8b6e-6b6371138207","ios":"levelo://app?vid=f1d574fe-b8fe-4c96-8b6e-6b6371138207"},"vehicle_type_id":"4","last_reported":1751523435,"current_range_meters":16000,"station_id":"ce4bhqp2rcd13ifvqhog","pricing_plan_id":"cebpf4jnsgd1na2vs0mg"},{"bike_id":"89a5cb6d-f10c-43c8-9b4b-2c281958767d","system_id":"levelo_inurba_marseille","lat":43.30153,"lon":5.38083,"is_reserved":false,"is_disabled":false,"rental_uris":{"android":"levelo://app?vid=89a5cb6d-f10c-43c8-9b4b-2c281958767d","ios":"levelo://app?vid=89a5cb6d-f10c-43c8-9b4b-2c281958767d"},"vehicle_type_id":"4","last_reported":1751523435,"current_range_meters":16400,"station_id":"ce4bgjp2rcd13ifvqbh0","pricing_plan_id":"cebpf4jnsgd1na2vs0mg"},{"bike_id":"5a560981-b865-497c-9517-87721e4e4e02","system_id":"levelo_inurba_marseille","lat":43.30533,"lon":5.36537,"is_reserved":false,"is_disabled":false,"rental_uris":{"android":"levelo://app?vid=5a560981-b865-497c-9517-87721e4e4e02","ios":"levelo://app?vid=5a560981-b865-497c-9517-87721e4e4e02"},"vehicle_type_id":"4","last_reported":1751523435,"current_range_meters":16400,"station_id":"ce4bgs12rcd13ifvqcag","pricing_plan_id":"cebpf4jnsgd1na2vs0mg"},{"bike_id":"ad4becc0-0281-4fb5-833b-dab4ce81a333","system_id":"levelo_inurba_marseille","lat":43.317023,"lon":5.404368,"is_reserved":false,"is_disabled":false,"rental_uris":{"android":"levelo://app?vid=ad4becc0-0281-4fb5-833b-dab4ce81a333","ios":"levelo://app?vid=ad4becc0-0281-4fb5-833b-dab4ce81a333"},"vehicle_type_id":"4","last_reported":1751523435,"current_range_meters":16400,"station_id":"ce4bh012rcd13ifvqd00","pricing_plan_id":"cebpf4jnsgd1na2vs0mg"},{"bike_id":"46a8c521-6456-40d5-9393-a641c0527b1f","system_id":"levelo_inurba_marseille","lat":43.29265,"lon":5.36847,"is_reserved":false,"is_disabled":false,"rental_uris":{"android":"levelo://app?vid=46a8c521-6456-40d5-9393-a641c0527b1f","ios":"levelo://app?vid=46a8c521-6456-40d5-9393-a641c0527b1f"},"vehicle_type_id":"4","last_reported":1751523435,"current_range_meters":16400,"station_id":"ce4bhbp2rcd13ifvqesg","pricing_plan_id":"cebpf4jnsgd1na2vs0mg"},{"bike_id":"0f590c2a-c81e-469d-a7d1-2741de3642a2","system_id":"levelo_inurba_marseille","lat":43.211894,"lon":5.350663,"is_reserved":false,"is_disabled":false,"rental_uris":{"android":"levelo://app?vid=0f590c2a-c81e-469d-a7d1-2741de3642a2","ios":"levelo://app?vid=0f590c2a-c81e-469d-a7d1-2741de3642a2"},"vehicle_type_id":"4","last_reported":1751523435,"current_range_meters":16400,"station_id":"st_cvj6sg6p6f1abm77japg","pricing_plan_id":"cebpf4jnsgd1na2vs0mg"},{"bike_id":"ba154a12-11bd-42a5-958a-5992f5d043d1","system_id":"levelo_inurba_marseille","lat":43.30453,"lon":5.37022,"is_reserved":false,"is_disabled":false,"rental_uris":{"android":"levelo://app?vid=ba154a12-11bd-42a5-958a-5992f5d043d1","ios":"levelo://app?vid=ba154a12-11bd-42a5-958a-5992f5d043d1"},"vehicle_type_id":"4","last_reported":1751523435,"current_range_meters":16800,"station_id":"","pricing_plan_id":"cebpf4jnsgd1na2vs0mg"},{"bike_id":"b07fad8c-ce8c-40b7-8c9c-96c9583ea3b1","system_id":"levelo_inurba_marseille","lat":43.30466,"lon":5.37905,"is_reserved":false,"is_disabled":false,"rental_uris":{"android":"levelo://app?vid=b07fad8c-ce8c-40b7-8c9c-96c9583ea3b1","ios":"levelo://app?vid=b07fad8c-ce8c-40b7-8c9c-96c9583ea3b1"},"vehicle_type_id":"4","last_reported":1751523435,"current_range_meters":16800,"station_id":"ce4bgup2rcd13ifvqcn0","pricing_plan_id":"cebpf4jnsgd1na2vs0mg"},{"bike_id":"9d05dafc-58ef-42ec-bb66-db39c9b73877","system_id":"levelo_inurba_marseille","lat":43.29053,"lon":5.39971,"is_reserved":false,"is_disabled":false,"rental_uris":{"android":"levelo://app?vid=9d05dafc-58ef-42ec-bb66-db39c9b73877","ios":"levelo://app?vid=9d05dafc-58ef-42ec-bb66-db39c9b73877"},"vehicle_type_id":"4","last_reported":1751523435,"current_range_meters":16800,"station_id":"ce4bh392rcd13ifvqdm0","pricing_plan_id":"cebpf4jnsgd1na2vs0mg"},{"bike_id":"fca7ca02-a8ea-4e0a-91dc-98735779d461","system_id":"levelo_inurba_marseille","lat":43.27066,"lon":5.42264,"is_reserved":false,"is_disabled":false,"rental_uris":{"android":"levelo://app?vid=fca7ca02-a8ea-4e0a-91dc-98735779d461","ios":"levelo://app?vid=fca7ca02-a8ea-4e0a-91dc-98735779d461"},"vehicle_type_id":"4","last_reported":1751523435,"current_range_meters":16800,"station_id":"ce4bhk92rcd13ifvqgb0","pricing_plan_id":"cebpf4jnsgd1na2vs0mg"},{"bike_id":"37b84a38-055a-4a6e-a56a-8ff3d0c1b2ec","system_id":"levelo_inurba_marseille","lat":43.211966,"lon":5.350737,"is_reserved":false,"is_disabled":false,"rental_uris":{"android":"levelo://app?vid=37b84a38-055a-4a6e-a56a-8ff3d0c1b2ec","ios":"levelo://app?vid=37b84a38-055a-4a6e-a56a-8ff3d0c1b2ec"},"vehicle_type_id":"4","last_reported":1751523435,"current_range_meters":16800,"station_id":"st_cvj6sg6p6f1abm77japg","pricing_plan_id":"cebpf4jnsgd1na2vs0mg"},{"bike_id":"2f9f249a-8433-4d90-824b-66f2265efc06","system_id":"levelo_inurba_marseille","lat":43.28963,"lon":5.39215,"is_reserved":false,"is_disabled":false,"rental_uris":{"android":"levelo://app?vid=2f9f249a-8433-4d90-824b-66f2265efc06","ios":"levelo://app?vid=2f9f249a-8433-4d90-824b-66f2265efc06"},"vehicle_type_id":"4","last_reported":1751523435,"current_range_meters":17200,"station_id":"","pricing_plan_id":"cebpf4jnsgd1na2vs0mg"},{"bike_id":"46e8bf14-a777-4b43-8f49-74de82678f01","system_id":"levelo_inurba_marseille","lat":43.29621,"lon":5.37149,"is_reserved":false,"is_disabled":false,"rental_uris":{"android":"levelo://app?vid=46e8bf14-a777-4b43-8f49-74de82678f01","ios":"levelo://app?vid=46e8bf14-a777-4b43-8f49-74de82678f01"},"vehicle_type_id":"4","last_reported":1751523435,"current_range_meters":17200,"station_id":"ce4bgnh2rcd13ifvqc0g","pricing_plan_id":"cebpf4jnsgd1na2vs0mg"},{"bike_id":"b114c7d7-5812-4f16-aaa4-1d26988844ab","system_id":"levelo_inurba_marseille","lat":43.27168,"lon":5.4099,"is_reserved":false,"is_disabled":false,"rental_uris":{"android":"levelo://app?vid=b114c7d7-5812-4f16-aaa4-1d26988844ab","ios":"levelo://app?vid=b114c7d7-5812-4f16-aaa4-1d26988844ab"},"vehicle_type_id":"4","last_reported":1751523435,"current_range_meters":17200,"station_id":"ce4bhl12rcd13ifvqgf0","pricing_plan_id":"cebpf4jnsgd1na2vs0mg"},{"bike_id":"6ef98c67-642b-46d0-a7d1-076be6429d5c","system_id":"levelo_inurba_marseille","lat":43.30465,"lon":5.37907,"is_reserved":false,"is_disabled":false,"rental_uris":{"android":"levelo://app?vid=6ef98c67-642b-46d0-a7d1-076be6429d5c","ios":"levelo://app?vid=6ef98c67-642b-46d0-a7d1-076be6429d5c"},"vehicle_type_id":"4","last_reported":1751523435,"current_range_meters":17600,"station_id":"ce4bgup2rcd13ifvqcn0","pricing_plan_id":"cebpf4jnsgd1na2vs0mg"},{"bike_id":"d7545ebe-ac1b-4bf2-8a7e-4db4f68ecf3d","system_id":"levelo_inurba_marseille","lat":43.311683,"lon":5.387156,"is_reserved":false,"is_disabled":false,"rental_uris":{"android":"levelo://app?vid=d7545ebe-ac1b-4bf2-8a7e-4db4f68ecf3d","ios":"levelo://app?vid=d7545ebe-ac1b-4bf2-8a7e-4db4f68ecf3d"},"vehicle_type_id":"4","last_reported":1751523435,"current_range_meters":17600,"station_id":"ce4bgv12rcd13ifvqcp0","pricing_plan_id":"cebpf4jnsgd1na2vs0mg"},{"bike_id":"723ce655-3305-4456-bcf3-317a44e39960","system_id":"levelo_inurba_marseille","lat":43.306494,"lon":5.400707,"is_reserved":false,"is_disabled":false,"rental_uris":{"android":"levelo://app?vid=723ce655-3305-4456-bcf3-317a44e39960","ios":"levelo://app?vid=723ce655-3305-4456-bcf3-317a44e39960"},"vehicle_type_id":"4","last_reported":1751523435,"current_range_meters":17600,"station_id":"ce4bh112rcd13ifvqda0","pricing_plan_id":"cebpf4jnsgd1na2vs0mg"},{"bike_id":"5d7d9f41-fc6e-479c-aedf-bf8be8f2e49d","system_id":"levelo_inurba_marseille","lat":43.29039,"lon":5.35907,"is_reserved":false,"is_disabled":false,"rental_uris":{"android":"levelo://app?vid=5d7d9f41-fc6e-479c-aedf-bf8be8f2e49d","ios":"levelo://app?vid=5d7d9f41-fc6e-479c-aedf-bf8be8f2e49d"},"vehicle_type_id":"4","last_reported":1751523435,"current_range_meters":17600,"station_id":"ce4bha92rcd13ifvqeg0","pricing_plan_id":"cebpf4jnsgd1na2vs0mg"},{"bike_id":"17a11611-c074-42f1-8e8f-34ee72b28756","system_id":"levelo_inurba_marseille","lat":43.27829,"lon":5.39215,"is_reserved":false,"is_disabled":false,"rental_uris":{"android":"levelo://app?vid=17a11611-c074-42f1-8e8f-34ee72b28756","ios":"levelo://app?vid=17a11611-c074-42f1-8e8f-34ee72b28756"},"vehicle_type_id":"4","last_reported":1751523435,"current_range_meters":17600,"station_id":"ce4bhjp2rcd13ifvqga0","pricing_plan_id":"cebpf4jnsgd1na2vs0mg"},{"bike_id":"a6715104-7492-4ec6-a996-23050baf8551","system_id":"levelo_inurba_marseille","lat":43.22509,"lon":5.34779,"is_reserved":false,"is_disabled":false,"rental_uris":{"android":"levelo://app?vid=a6715104-7492-4ec6-a996-23050baf8551","ios":"levelo://app?vid=a6715104-7492-4ec6-a996-23050baf8551"},"vehicle_type_id":"4","last_reported":1751523435,"current_range_meters":17600,"station_id":"st_cvj5dfep6f1abm77gieg","pricing_plan_id":"cebpf4jnsgd1na2vs0mg"},{"bike_id":"4d4995e7-0bba-4ac2-a238-afd84a5e99b5","system_id":"levelo_inurba_marseille","lat":43.304848,"lon":5.398345,"is_reserved":false,"is_disabled":false,"rental_uris":{"android":"levelo://app?vid=4d4995e7-0bba-4ac2-a238-afd84a5e99b5","ios":"levelo://app?vid=4d4995e7-0bba-4ac2-a238-afd84a5e99b5"},"vehicle_type_id":"4","last_reported":1751523435,"current_range_meters":18000,"station_id":"","pricing_plan_id":"cebpf4jnsgd1na2vs0mg"},{"bike_id":"0c5e46df-9adb-4aa5-842c-17a1961c0106","system_id":"levelo_inurba_marseille","lat":43.2799,"lon":5.40722,"is_reserved":false,"is_disabled":false,"rental_uris":{"android":"levelo://app?vid=0c5e46df-9adb-4aa5-842c-17a1961c0106","ios":"levelo://app?vid=0c5e46df-9adb-4aa5-842c-17a1961c0106"},"vehicle_type_id":"4","last_reported":1751523435,"current_range_meters":18000,"station_id":"","pricing_plan_id":"cebpf4jnsgd1na2vs0mg"},{"bike_id":"0c4b7fdb-b39e-49b3-a2b0-ae3d0f43e89d","system_id":"levelo_inurba_marseille","lat":43.32881,"lon":5.40629,"is_reserved":false,"is_disabled":false,"rental_uris":{"android":"levelo://app?vid=0c4b7fdb-b39e-49b3-a2b0-ae3d0f43e89d","ios":"levelo://app?vid=0c4b7fdb-b39e-49b3-a2b0-ae3d0f43e89d"},"vehicle_type_id":"4","last_reported":1751523435,"current_range_meters":18000,"station_id":"","pricing_plan_id":"cebpf4jnsgd1na2vs0mg"},{"bike_id":"50bb0fdb-2cc1-4d8d-af26-b7febba54985","system_id":"levelo_inurba_marseille","lat":43.274139,"lon":5.39007,"is_reserved":false,"is_disabled":false,"rental_uris":{"android":"levelo://app?vid=50bb0fdb-2cc1-4d8d-af26-b7febba54985","ios":"levelo://app?vid=50bb0fdb-2cc1-4d8d-af26-b7febba54985"},"vehicle_type_id":"4","last_reported":1751523435,"current_range_meters":18000,"station_id":"","pricing_plan_id":"cebpf4jnsgd1na2vs0mg"},{"bike_id":"7ca6ab30-bfb9-40e5-b91e-fb6a805f197c","system_id":"levelo_inurba_marseille","lat":43.30149,"lon":5.38093,"is_reserved":false,"is_disabled":false,"rental_uris":{"android":"levelo://app?vid=7ca6ab30-bfb9-40e5-b91e-fb6a805f197c","ios":"levelo://app?vid=7ca6ab30-bfb9-40e5-b91e-fb6a805f197c"},"vehicle_type_id":"4","last_reported":1751523435,"current_range_meters":18000,"station_id":"ce4bgjp2rcd13ifvqbh0","pricing_plan_id":"cebpf4jnsgd1na2vs0mg"},{"bike_id":"3f591852-ce23-4a61-a250-d6c35138bef4","system_id":"levelo_inurba_marseille","lat":43.314899,"lon":5.372988,"is_reserved":false,"is_disabled":false,"rental_uris":{"android":"levelo://app?vid=3f591852-ce23-4a61-a250-d6c35138bef4","ios":"levelo://app?vid=3f591852-ce23-4a61-a250-d6c35138bef4"},"vehicle_type_id":"4","last_reported":1751523435,"current_range_meters":18000,"station_id":"ce4bgt12rcd13ifvqcd0","pricing_plan_id":"cebpf4jnsgd1na2vs0mg"},{"bike_id":"7e21e8f2-09c8-4cc5-8113-278ebd23888d","system_id":"levelo_inurba_marseille","lat":43.211957,"lon":5.350654,"is_reserved":false,"is_disabled":false,"rental_uris":{"android":"levelo://app?vid=7e21e8f2-09c8-4cc5-8113-278ebd23888d","ios":"levelo://app?vid=7e21e8f2-09c8-4cc5-8113-278ebd23888d"},"vehicle_type_id":"4","last_reported":1751523435,"current_range_meters":18000,"station_id":"st_cvj6sg6p6f1abm77japg","pricing_plan_id":"cebpf4jnsgd1na2vs0mg"},{"bike_id":"b2ce53ca-166b-417e-9d70-9bee393f75bb","system_id":"levelo_inurba_marseille","lat":43.2119,"lon":5.350759,"is_reserved":false,"is_disabled":false,"rental_uris":{"android":"levelo://app?vid=b2ce53ca-166b-417e-9d70-9bee393f75bb","ios":"levelo://app?vid=b2ce53ca-166b-417e-9d70-9bee393f75bb"},"vehicle_type_id":"4","last_reported":1751523435,"current_range_meters":18000,"station_id":"st_cvj6sg6p6f1abm77japg","pricing_plan_id":"cebpf4jnsgd1na2vs0mg"},{"bike_id":"cc04118e-9312-4bf8-9106-d64e829afbaa","system_id":"levelo_inurba_marseille","lat":43.21233,"lon":5.3503,"is_reserved":false,"is_disabled":false,"rental_uris":{"android":"levelo://app?vid=cc04118e-9312-4bf8-9106-d64e829afbaa","ios":"levelo://app?vid=cc04118e-9312-4bf8-9106-d64e829afbaa"},"vehicle_type_id":"4","last_reported":1751523435,"current_range_meters":18800,"station_id":"","pricing_plan_id":"cebpf4jnsgd1na2vs0mg"},{"bike_id":"f10d6634-8e0e-404b-a2d1-83daa4ce0042","system_id":"levelo_inurba_marseille","lat":43.28852,"lon":5.39331,"is_reserved":false,"is_disabled":false,"rental_uris":{"android":"levelo://app?vid=f10d6634-8e0e-404b-a2d1-83daa4ce0042","ios":"levelo://app?vid=f10d6634-8e0e-404b-a2d1-83daa4ce0042"},"vehicle_type_id":"4","last_reported":1751523435,"current_range_meters":18800,"station_id":"ce4bh2p2rcd13ifvqdi0","pricing_plan_id":"cebpf4jnsgd1na2vs0mg"},{"bike_id":"db469d08-c5c4-48b5-b750-bed73970a16f","system_id":"levelo_inurba_marseille","lat":43.28947,"lon":5.3963,"is_reserved":false,"is_disabled":false,"rental_uris":{"android":"levelo://app?vid=db469d08-c5c4-48b5-b750-bed73970a16f","ios":"levelo://app?vid=db469d08-c5c4-48b5-b750-bed73970a16f"},"vehicle_type_id":"4","last_reported":1751523435,"current_range_meters":18800,"station_id":"ce4bh3h2rcd13ifvqdn0","pricing_plan_id":"cebpf4jnsgd1na2vs0mg"},{"bike_id":"06950814-4cfb-4081-881b-07e6a9be4736","system_id":"levelo_inurba_marseille","lat":43.29435,"lon":5.39758,"is_reserved":false,"is_disabled":false,"rental_uris":{"android":"levelo://app?vid=06950814-4cfb-4081-881b-07e6a9be4736","ios":"levelo://app?vid=06950814-4cfb-4081-881b-07e6a9be4736"},"vehicle_type_id":"4","last_reported":1751523435,"current_range_meters":18800,"station_id":"ce4bh3h2rcd13ifvqdo0","pricing_plan_id":"cebpf4jnsgd1na2vs0mg"},{"bike_id":"51028876-31ee-4e14-9aaf-eac088c567df","system_id":"levelo_inurba_marseille","lat":43.25937,"lon":5.40901,"is_reserved":false,"is_disabled":false,"rental_uris":{"android":"levelo://app?vid=51028876-31ee-4e14-9aaf-eac088c567df","ios":"levelo://app?vid=51028876-31ee-4e14-9aaf-eac088c567df"},"vehicle_type_id":"4","last_reported":1751523435,"current_range_meters":18800,"station_id":"ce4bhm92rcd13ifvqglg","pricing_plan_id":"cebpf4jnsgd1na2vs0mg"},{"bike_id":"1c8ab180-05fd-405f-9922-b2b2c2d5142f","system_id":"levelo_inurba_marseille","lat":43.337914,"lon":5.381174,"is_reserved":false,"is_disabled":false,"rental_uris":{"android":"levelo://app?vid=1c8ab180-05fd-405f-9922-b2b2c2d5142f","ios":"levelo://app?vid=1c8ab180-05fd-405f-9922-b2b2c2d5142f"},"vehicle_type_id":"4","last_reported":1751523435,"current_range_meters":19200,"station_id":"","pricing_plan_id":"cebpf4jnsgd1na2vs0mg"},{"bike_id":"48ffdc54-c480-4575-8979-f1d72ccbbf04","system_id":"levelo_inurba_marseille","lat":43.276122,"lon":5.36112,"is_reserved":false,"is_disabled":false,"rental_uris":{"android":"levelo://app?vid=48ffdc54-c480-4575-8979-f1d72ccbbf04","ios":"levelo://app?vid=48ffdc54-c480-4575-8979-f1d72ccbbf04"},"vehicle_type_id":"4","last_reported":1751523435,"current_range_meters":19200,"station_id":"ce4bgj92rcd13ifvqbe0","pricing_plan_id":"cebpf4jnsgd1na2vs0mg"},{"bike_id":"fb401784-680b-48cd-a68f-d56fd85f448a","system_id":"levelo_inurba_marseille","lat":43.30948,"lon":5.39043,"is_reserved":false,"is_disabled":false,"rental_uris":{"android":"levelo://app?vid=fb401784-680b-48cd-a68f-d56fd85f448a","ios":"levelo://app?vid=fb401784-680b-48cd-a68f-d56fd85f448a"},"vehicle_type_id":"4","last_reported":1751523435,"current_range_meters":19200,"station_id":"ce4bgup2rcd13ifvqco0","pricing_plan_id":"cebpf4jnsgd1na2vs0mg"},{"bike_id":"97e03616-4ac3-4344-b5a4-2ca3827a86e1","system_id":"levelo_inurba_marseille","lat":43.26951,"lon":5.38625,"is_reserved":false,"is_disabled":false,"rental_uris":{"android":"levelo://app?vid=97e03616-4ac3-4344-b5a4-2ca3827a86e1","ios":"levelo://app?vid=97e03616-4ac3-4344-b5a4-2ca3827a86e1"},"vehicle_type_id":"4","last_reported":1751523435,"current_range_meters":19200,"station_id":"ce4bhh92rcd13ifvqfh0","pricing_plan_id":"cebpf4jnsgd1na2vs0mg"},{"bike_id":"0dbbfd7c-5e93-4301-aea8-6d89ce7ed33b","system_id":"levelo_inurba_marseille","lat":43.217547,"lon":5.346055,"is_reserved":false,"is_disabled":false,"rental_uris":{"android":"levelo://app?vid=0dbbfd7c-5e93-4301-aea8-6d89ce7ed33b","ios":"levelo://app?vid=0dbbfd7c-5e93-4301-aea8-6d89ce7ed33b"},"vehicle_type_id":"4","last_reported":1751523435,"current_range_meters":19200,"station_id":"st_cvj6r9ubvosntc0bgbag","pricing_plan_id":"cebpf4jnsgd1na2vs0mg"},{"bike_id":"8efd6d75-c4ae-499b-9331-5ea7c2d46d89","system_id":"levelo_inurba_marseille","lat":43.288384,"lon":5.393299,"is_reserved":false,"is_disabled":false,"rental_uris":{"android":"levelo://app?vid=8efd6d75-c4ae-499b-9331-5ea7c2d46d89","ios":"levelo://app?vid=8efd6d75-c4ae-499b-9331-5ea7c2d46d89"},"vehicle_type_id":"4","last_reported":1751523435,"current_range_meters":19600,"station_id":"ce4bh2p2rcd13ifvqdi0","pricing_plan_id":"cebpf4jnsgd1na2vs0mg"},{"bike_id":"5f1e5526-9ff8-4075-8194-48a897f058b4","system_id":"levelo_inurba_marseille","lat":43.21222,"lon":5.3508,"is_reserved":false,"is_disabled":false,"rental_uris":{"android":"levelo://app?vid=5f1e5526-9ff8-4075-8194-48a897f058b4","ios":"levelo://app?vid=5f1e5526-9ff8-4075-8194-48a897f058b4"},"vehicle_type_id":"4","last_reported":1751523435,"current_range_meters":19600,"station_id":"st_cvj6sg6p6f1abm77japg","pricing_plan_id":"cebpf4jnsgd1na2vs0mg"},{"bike_id":"0842b60a-2aa4-435e-9c3c-52a922da68f4","system_id":"levelo_inurba_marseille","lat":43.31166,"lon":5.38718,"is_reserved":false,"is_disabled":false,"rental_uris":{"android":"levelo://app?vid=0842b60a-2aa4-435e-9c3c-52a922da68f4","ios":"levelo://app?vid=0842b60a-2aa4-435e-9c3c-52a922da68f4"},"vehicle_type_id":"4","last_reported":1751523435,"current_range_meters":20000,"station_id":"","pricing_plan_id":"cebpf4jnsgd1na2vs0mg"},{"bike_id":"6a2a91ee-1cc9-4663-96ba-20a8ecb9607d","system_id":"levelo_inurba_marseille","lat":43.30534,"lon":5.36514,"is_reserved":false,"is_disabled":false,"rental_uris":{"android":"levelo://app?vid=6a2a91ee-1cc9-4663-96ba-20a8ecb9607d","ios":"levelo://app?vid=6a2a91ee-1cc9-4663-96ba-20a8ecb9607d"},"vehicle_type_id":"4","last_reported":1751523435,"current_range_meters":20000,"station_id":"ce4bgs12rcd13ifvqcag","pricing_plan_id":"cebpf4jnsgd1na2vs0mg"},{"bike_id":"93e902d2-f27a-47f4-88b6-a0ce487dfdc7","system_id":"levelo_inurba_marseille","lat":43.28856,"lon":5.39314,"is_reserved":false,"is_disabled":false,"rental_uris":{"android":"levelo://app?vid=93e902d2-f27a-47f4-88b6-a0ce487dfdc7","ios":"levelo://app?vid=93e902d2-f27a-47f4-88b6-a0ce487dfdc7"},"vehicle_type_id":"4","last_reported":1751523435,"current_range_meters":20000,"station_id":"ce4bh2p2rcd13ifvqdi0","pricing_plan_id":"cebpf4jnsgd1na2vs0mg"},{"bike_id":"1fec5f32-8b87-4aea-b22d-0f614d28af36","system_id":"levelo_inurba_marseille","lat":43.280263,"lon":5.36956,"is_reserved":false,"is_disabled":false,"rental_uris":{"android":"levelo://app?vid=1fec5f32-8b87-4aea-b22d-0f614d28af36","ios":"levelo://app?vid=1fec5f32-8b87-4aea-b22d-0f614d28af36"},"vehicle_type_id":"4","last_reported":1751523435,"current_range_meters":20000,"station_id":"ce4bha12rcd13ifvqef0","pricing_plan_id":"cebpf4jnsgd1na2vs0mg"},{"bike_id":"8d60398f-157b-403e-afe4-5a0864dff191","system_id":"levelo_inurba_marseille","lat":43.270601,"lon":5.402506,"is_reserved":false,"is_disabled":false,"rental_uris":{"android":"levelo://app?vid=8d60398f-157b-403e-afe4-5a0864dff191","ios":"levelo://app?vid=8d60398f-157b-403e-afe4-5a0864dff191"},"vehicle_type_id":"4","last_reported":1751523435,"current_range_meters":20000,"station_id":"ce4bhk92rcd13ifvqgc0","pricing_plan_id":"cebpf4jnsgd1na2vs0mg"},{"bike_id":"08e81811-c9ab-430d-a98b-a4424b37dd49","system_id":"levelo_inurba_marseille","lat":43.29561,"lon":5.42294,"is_reserved":false,"is_disabled":false,"rental_uris":{"android":"levelo://app?vid=08e81811-c9ab-430d-a98b-a4424b37dd49","ios":"levelo://app?vid=08e81811-c9ab-430d-a98b-a4424b37dd49"},"vehicle_type_id":"4","last_reported":1751523435,"current_range_meters":20000,"station_id":"ce4bhph2rcd13ifvqhdg","pricing_plan_id":"cebpf4jnsgd1na2vs0mg"},{"bike_id":"5ecbe7d9-b835-47e3-87d6-0fd67017673c","system_id":"levelo_inurba_marseille","lat":43.321085,"lon":5.367696,"is_reserved":false,"is_disabled":false,"rental_uris":{"android":"levelo://app?vid=5ecbe7d9-b835-47e3-87d6-0fd67017673c","ios":"levelo://app?vid=5ecbe7d9-b835-47e3-87d6-0fd67017673c"},"vehicle_type_id":"4","last_reported":1751523435,"current_range_meters":20000,"station_id":"ce4bhrh2rcd13ifvqhug","pricing_plan_id":"cebpf4jnsgd1na2vs0mg"},{"bike_id":"32c0fc37-6823-41d0-9497-8d1eea24742c","system_id":"levelo_inurba_marseille","lat":43.241682,"lon":5.363984,"is_reserved":false,"is_disabled":false,"rental_uris":{"android":"levelo://app?vid=32c0fc37-6823-41d0-9497-8d1eea24742c","ios":"levelo://app?vid=32c0fc37-6823-41d0-9497-8d1eea24742c"},"vehicle_type_id":"4","last_reported":1751523435,"current_range_meters":20000,"station_id":"cpo36qri1sfpv3e86is0","pricing_plan_id":"cebpf4jnsgd1na2vs0mg"},{"bike_id":"e9d26c79-d78f-4002-bc79-c4aa63e66364","system_id":"levelo_inurba_marseille","lat":43.311639,"lon":5.387428,"is_reserved":false,"is_disabled":false,"rental_uris":{"android":"levelo://app?vid=e9d26c79-d78f-4002-bc79-c4aa63e66364","ios":"levelo://app?vid=e9d26c79-d78f-4002-bc79-c4aa63e66364"},"vehicle_type_id":"4","last_reported":1751523435,"current_range_meters":20400,"station_id":"ce4bgv12rcd13ifvqcp0","pricing_plan_id":"cebpf4jnsgd1na2vs0mg"},{"bike_id":"89da5e73-11ab-48f2-8281-2178bbf7fe7b","system_id":"levelo_inurba_marseille","lat":43.257204,"lon":5.411095,"is_reserved":false,"is_disabled":false,"rental_uris":{"android":"levelo://app?vid=89da5e73-11ab-48f2-8281-2178bbf7fe7b","ios":"levelo://app?vid=89da5e73-11ab-48f2-8281-2178bbf7fe7b"},"vehicle_type_id":"4","last_reported":1751523435,"current_range_meters":20400,"station_id":"ce4bhkp2rcd13ifvqgd0","pricing_plan_id":"cebpf4jnsgd1na2vs0mg"},{"bike_id":"3eabe1e2-f9f5-41cb-a4ed-73ca7f909c5c","system_id":"levelo_inurba_marseille","lat":43.211898,"lon":5.350638,"is_reserved":false,"is_disabled":false,"rental_uris":{"android":"levelo://app?vid=3eabe1e2-f9f5-41cb-a4ed-73ca7f909c5c","ios":"levelo://app?vid=3eabe1e2-f9f5-41cb-a4ed-73ca7f909c5c"},"vehicle_type_id":"4","last_reported":1751523435,"current_range_meters":20400,"station_id":"st_cvj6sg6p6f1abm77japg","pricing_plan_id":"cebpf4jnsgd1na2vs0mg"},{"bike_id":"ba926bfc-9632-4680-b0ed-32a040d6fb83","system_id":"levelo_inurba_marseille","lat":43.21199,"lon":5.35064,"is_reserved":false,"is_disabled":false,"rental_uris":{"android":"levelo://app?vid=ba926bfc-9632-4680-b0ed-32a040d6fb83","ios":"levelo://app?vid=ba926bfc-9632-4680-b0ed-32a040d6fb83"},"vehicle_type_id":"4","last_reported":1751523435,"current_range_meters":20400,"station_id":"st_cvj6sg6p6f1abm77japg","pricing_plan_id":"cebpf4jnsgd1na2vs0mg"},{"bike_id":"b13877a6-4825-4d82-b46b-67fa8ad66c5d","system_id":"levelo_inurba_marseille","lat":43.21205,"lon":5.35053,"is_reserved":false,"is_disabled":false,"rental_uris":{"android":"levelo://app?vid=b13877a6-4825-4d82-b46b-67fa8ad66c5d","ios":"levelo://app?vid=b13877a6-4825-4d82-b46b-67fa8ad66c5d"},"vehicle_type_id":"4","last_reported":1751523435,"current_range_meters":20400,"station_id":"st_cvj6sg6p6f1abm77japg","pricing_plan_id":"cebpf4jnsgd1na2vs0mg"},{"bike_id":"7712491c-e18b-4b09-bb79-30880b357c07","system_id":"levelo_inurba_marseille","lat":43.21193,"lon":5.35065,"is_reserved":false,"is_disabled":false,"rental_uris":{"android":"levelo://app?vid=7712491c-e18b-4b09-bb79-30880b357c07","ios":"levelo://app?vid=7712491c-e18b-4b09-bb79-30880b357c07"},"vehicle_type_id":"4","last_reported":1751523435,"current_range_meters":20400,"station_id":"st_cvj6sg6p6f1abm77japg","pricing_plan_id":"cebpf4jnsgd1na2vs0mg"},{"bike_id":"63acad33-6ce0-4879-bb8b-7b4910bd10f3","system_id":"levelo_inurba_marseille","lat":43.24721,"lon":5.41266,"is_reserved":false,"is_disabled":false,"rental_uris":{"android":"levelo://app?vid=63acad33-6ce0-4879-bb8b-7b4910bd10f3","ios":"levelo://app?vid=63acad33-6ce0-4879-bb8b-7b4910bd10f3"},"vehicle_type_id":"4","last_reported":1751523435,"current_range_meters":20800,"station_id":"","pricing_plan_id":"cebpf4jnsgd1na2vs0mg"},{"bike_id":"05458421-2b1c-4efc-afc5-69e950097c67","system_id":"levelo_inurba_marseille","lat":43.30189,"lon":5.36624,"is_reserved":false,"is_disabled":false,"rental_uris":{"android":"levelo://app?vid=05458421-2b1c-4efc-afc5-69e950097c67","ios":"levelo://app?vid=05458421-2b1c-4efc-afc5-69e950097c67"},"vehicle_type_id":"4","last_reported":1751523435,"current_range_meters":20800,"station_id":"ce4bgrh2rcd13ifvqc8g","pricing_plan_id":"cebpf4jnsgd1na2vs0mg"},{"bike_id":"62faf2ff-17d9-48ef-b764-d2eb9b80a3b6","system_id":"levelo_inurba_marseille","lat":43.28849,"lon":5.3932,"is_reserved":false,"is_disabled":false,"rental_uris":{"android":"levelo://app?vid=62faf2ff-17d9-48ef-b764-d2eb9b80a3b6","ios":"levelo://app?vid=62faf2ff-17d9-48ef-b764-d2eb9b80a3b6"},"vehicle_type_id":"4","last_reported":1751523435,"current_range_meters":20800,"station_id":"ce4bh2p2rcd13ifvqdi0","pricing_plan_id":"cebpf4jnsgd1na2vs0mg"},{"bike_id":"258ea8ed-c46f-4254-a37b-87936167847b","system_id":"levelo_inurba_marseille","lat":43.2919,"lon":5.35797,"is_reserved":false,"is_disabled":false,"rental_uris":{"android":"levelo://app?vid=258ea8ed-c46f-4254-a37b-87936167847b","ios":"levelo://app?vid=258ea8ed-c46f-4254-a37b-87936167847b"},"vehicle_type_id":"4","last_reported":1751523435,"current_range_meters":20800,"station_id":"ce4bhb12rcd13ifvqel0","pricing_plan_id":"cebpf4jnsgd1na2vs0mg"},{"bike_id":"b3d7a6ac-4ad8-404e-91ae-53d96dbbd9fb","system_id":"levelo_inurba_marseille","lat":43.211945,"lon":5.35066,"is_reserved":false,"is_disabled":false,"rental_uris":{"android":"levelo://app?vid=b3d7a6ac-4ad8-404e-91ae-53d96dbbd9fb","ios":"levelo://app?vid=b3d7a6ac-4ad8-404e-91ae-53d96dbbd9fb"},"vehicle_type_id":"4","last_reported":1751523435,"current_range_meters":20800,"station_id":"st_cvj6sg6p6f1abm77japg","pricing_plan_id":"cebpf4jnsgd1na2vs0mg"},{"bike_id":"39fa5f31-4afa-4271-a36e-400e3970d6f0","system_id":"levelo_inurba_marseille","lat":43.30395,"lon":5.37606,"is_reserved":false,"is_disabled":false,"rental_uris":{"android":"levelo://app?vid=39fa5f31-4afa-4271-a36e-400e3970d6f0","ios":"levelo://app?vid=39fa5f31-4afa-4271-a36e-400e3970d6f0"},"vehicle_type_id":"4","last_reported":1751523435,"current_range_meters":21600,"station_id":"","pricing_plan_id":"cebpf4jnsgd1na2vs0mg"},{"bike_id":"8734bc42-361e-4c72-9212-27e99f10c61f","system_id":"levelo_inurba_marseille","lat":43.27414,"lon":5.42739,"is_reserved":false,"is_disabled":false,"rental_uris":{"android":"levelo://app?vid=8734bc42-361e-4c72-9212-27e99f10c61f","ios":"levelo://app?vid=8734bc42-361e-4c72-9212-27e99f10c61f"},"vehicle_type_id":"4","last_reported":1751523435,"current_range_meters":21600,"station_id":"","pricing_plan_id":"cebpf4jnsgd1na2vs0mg"},{"bike_id":"d0b2fe9f-e2ae-4c2a-ab91-25a7df475e99","system_id":"levelo_inurba_marseille","lat":43.29282,"lon":5.40122,"is_reserved":false,"is_disabled":false,"rental_uris":{"android":"levelo://app?vid=d0b2fe9f-e2ae-4c2a-ab91-25a7df475e99","ios":"levelo://app?vid=d0b2fe9f-e2ae-4c2a-ab91-25a7df475e99"},"vehicle_type_id":"4","last_reported":1751523435,"current_range_meters":21600,"station_id":"ce4bh312rcd13ifvqdk0","pricing_plan_id":"cebpf4jnsgd1na2vs0mg"},{"bike_id":"162fecea-2700-472a-8108-a13f18eca71b","system_id":"levelo_inurba_marseille","lat":43.2895,"lon":5.3963,"is_reserved":false,"is_disabled":false,"rental_uris":{"android":"levelo://app?vid=162fecea-2700-472a-8108-a13f18eca71b","ios":"levelo://app?vid=162fecea-2700-472a-8108-a13f18eca71b"},"vehicle_type_id":"4","last_reported":1751523435,"current_range_meters":21600,"station_id":"ce4bh3h2rcd13ifvqdn0","pricing_plan_id":"cebpf4jnsgd1na2vs0mg"},{"bike_id":"04a34ace-cd77-41ce-8ec9-56fd009c6452","system_id":"levelo_inurba_marseille","lat":43.27432,"lon":5.39424,"is_reserved":false,"is_disabled":false,"rental_uris":{"android":"levelo://app?vid=04a34ace-cd77-41ce-8ec9-56fd009c6452","ios":"levelo://app?vid=04a34ace-cd77-41ce-8ec9-56fd009c6452"},"vehicle_type_id":"4","last_reported":1751523435,"current_range_meters":21600,"station_id":"ce4bhdp2rcd13ifvqf20","pricing_plan_id":"cebpf4jnsgd1na2vs0mg"},{"bike_id":"bd5a8135-f113-4003-83fb-7b7440317192","system_id":"levelo_inurba_marseille","lat":43.27212,"lon":5.39184,"is_reserved":false,"is_disabled":false,"rental_uris":{"android":"levelo://app?vid=bd5a8135-f113-4003-83fb-7b7440317192","ios":"levelo://app?vid=bd5a8135-f113-4003-83fb-7b7440317192"},"vehicle_type_id":"4","last_reported":1751523435,"current_range_meters":21600,"station_id":"ce4bhhp2rcd13ifvqfm0","pricing_plan_id":"cebpf4jnsgd1na2vs0mg"},{"bike_id":"94e61743-878c-4527-a4ec-86f3c043c63d","system_id":"levelo_inurba_marseille","lat":43.25119,"lon":5.403262,"is_reserved":false,"is_disabled":false,"rental_uris":{"android":"levelo://app?vid=94e61743-878c-4527-a4ec-86f3c043c63d","ios":"levelo://app?vid=94e61743-878c-4527-a4ec-86f3c043c63d"},"vehicle_type_id":"4","last_reported":1751523435,"current_range_meters":21600,"station_id":"ce4bhlh2rcd13ifvqgig","pricing_plan_id":"cebpf4jnsgd1na2vs0mg"},{"bike_id":"f915e77b-9553-49d5-8659-7bbddd61e86c","system_id":"levelo_inurba_marseille","lat":43.341493,"lon":5.409193,"is_reserved":false,"is_disabled":false,"rental_uris":{"android":"levelo://app?vid=f915e77b-9553-49d5-8659-7bbddd61e86c","ios":"levelo://app?vid=f915e77b-9553-49d5-8659-7bbddd61e86c"},"vehicle_type_id":"4","last_reported":1751523435,"current_range_meters":21600,"station_id":"ce4bhqh2rcd13ifvqhlg","pricing_plan_id":"cebpf4jnsgd1na2vs0mg"},{"bike_id":"524a357d-c330-4847-bbe3-4336c0bd34b5","system_id":"levelo_inurba_marseille","lat":43.30536,"lon":5.36715,"is_reserved":false,"is_disabled":false,"rental_uris":{"android":"levelo://app?vid=524a357d-c330-4847-bbe3-4336c0bd34b5","ios":"levelo://app?vid=524a357d-c330-4847-bbe3-4336c0bd34b5"},"vehicle_type_id":"4","last_reported":1751523435,"current_range_meters":22000,"station_id":"ce4bgrp2rcd13ifvqc9g","pricing_plan_id":"cebpf4jnsgd1na2vs0mg"},{"bike_id":"1487ee88-1940-4024-a0e4-7858777d50f4","system_id":"levelo_inurba_marseille","lat":43.31326,"lon":5.39677,"is_reserved":false,"is_disabled":false,"rental_uris":{"android":"levelo://app?vid=1487ee88-1940-4024-a0e4-7858777d50f4","ios":"levelo://app?vid=1487ee88-1940-4024-a0e4-7858777d50f4"},"vehicle_type_id":"4","last_reported":1751523435,"current_range_meters":22000,"station_id":"ce4bgvp2rcd13ifvqcu0","pricing_plan_id":"cebpf4jnsgd1na2vs0mg"},{"bike_id":"980c4a6b-b0df-48ea-830a-1bc80342dca3","system_id":"levelo_inurba_marseille","lat":43.289433,"lon":5.396249,"is_reserved":false,"is_disabled":false,"rental_uris":{"android":"levelo://app?vid=980c4a6b-b0df-48ea-830a-1bc80342dca3","ios":"levelo://app?vid=980c4a6b-b0df-48ea-830a-1bc80342dca3"},"vehicle_type_id":"4","last_reported":1751523435,"current_range_meters":22000,"station_id":"ce4bh3h2rcd13ifvqdn0","pricing_plan_id":"cebpf4jnsgd1na2vs0mg"},{"bike_id":"1d1cb008-a34a-41e4-8c6b-63abbd1f4feb","system_id":"levelo_inurba_marseille","lat":43.2849,"lon":5.38558,"is_reserved":false,"is_disabled":false,"rental_uris":{"android":"levelo://app?vid=1d1cb008-a34a-41e4-8c6b-63abbd1f4feb","ios":"levelo://app?vid=1d1cb008-a34a-41e4-8c6b-63abbd1f4feb"},"vehicle_type_id":"4","last_reported":1751523435,"current_range_meters":22000,"station_id":"ce4bh8p2rcd13ifvqeb0","pricing_plan_id":"cebpf4jnsgd1na2vs0mg"},{"bike_id":"2c870ad5-a8ed-42ab-a203-910e7520293d","system_id":"levelo_inurba_marseille","lat":43.26685,"lon":5.38272,"is_reserved":false,"is_disabled":false,"rental_uris":{"android":"levelo://app?vid=2c870ad5-a8ed-42ab-a203-910e7520293d","ios":"levelo://app?vid=2c870ad5-a8ed-42ab-a203-910e7520293d"},"vehicle_type_id":"4","last_reported":1751523435,"current_range_meters":22000,"station_id":"ce4bhg92rcd13ifvqf90","pricing_plan_id":"cebpf4jnsgd1na2vs0mg"},{"bike_id":"a3a7ab7c-34fc-463f-a859-4cb6cad2422b","system_id":"levelo_inurba_marseille","lat":43.27203,"lon":5.39176,"is_reserved":false,"is_disabled":false,"rental_uris":{"android":"levelo://app?vid=a3a7ab7c-34fc-463f-a859-4cb6cad2422b","ios":"levelo://app?vid=a3a7ab7c-34fc-463f-a859-4cb6cad2422b"},"vehicle_type_id":"4","last_reported":1751523435,"current_range_meters":22000,"station_id":"ce4bhhp2rcd13ifvqfm0","pricing_plan_id":"cebpf4jnsgd1na2vs0mg"},{"bike_id":"d77cb04e-951c-4647-a663-bf254c5970aa","system_id":"levelo_inurba_marseille","lat":43.21749,"lon":5.34619,"is_reserved":false,"is_disabled":false,"rental_uris":{"android":"levelo://app?vid=d77cb04e-951c-4647-a663-bf254c5970aa","ios":"levelo://app?vid=d77cb04e-951c-4647-a663-bf254c5970aa"},"vehicle_type_id":"4","last_reported":1751523435,"current_range_meters":22400,"station_id":"","pricing_plan_id":"cebpf4jnsgd1na2vs0mg"},{"bike_id":"7be93d05-2405-4cfe-a0c4-c6f3670e10c7","system_id":"levelo_inurba_marseille","lat":43.21236,"lon":5.35068,"is_reserved":false,"is_disabled":false,"rental_uris":{"android":"levelo://app?vid=7be93d05-2405-4cfe-a0c4-c6f3670e10c7","ios":"levelo://app?vid=7be93d05-2405-4cfe-a0c4-c6f3670e10c7"},"vehicle_type_id":"4","last_reported":1751523435,"current_range_meters":22400,"station_id":"","pricing_plan_id":"cebpf4jnsgd1na2vs0mg"},{"bike_id":"036157b0-7abe-438f-8fad-6a06f634ee2d","system_id":"levelo_inurba_marseille","lat":43.30157,"lon":5.38075,"is_reserved":false,"is_disabled":false,"rental_uris":{"android":"levelo://app?vid=036157b0-7abe-438f-8fad-6a06f634ee2d","ios":"levelo://app?vid=036157b0-7abe-438f-8fad-6a06f634ee2d"},"vehicle_type_id":"4","last_reported":1751523435,"current_range_meters":22400,"station_id":"ce4bgjp2rcd13ifvqbh0","pricing_plan_id":"cebpf4jnsgd1na2vs0mg"},{"bike_id":"1699afd7-088f-457b-87f0-c1744fe08fea","system_id":"levelo_inurba_marseille","lat":43.30902,"lon":5.3684,"is_reserved":false,"is_disabled":false,"rental_uris":{"android":"levelo://app?vid=1699afd7-088f-457b-87f0-c1744fe08fea","ios":"levelo://app?vid=1699afd7-088f-457b-87f0-c1744fe08fea"},"vehicle_type_id":"4","last_reported":1751523435,"current_range_meters":22400,"station_id":"ce4bgn92rcd13ifvqbvg","pricing_plan_id":"cebpf4jnsgd1na2vs0mg"},{"bike_id":"34d11b6b-4287-4277-a2f0-6e4a5ad0d44f","system_id":"levelo_inurba_marseille","lat":43.29649,"lon":5.37148,"is_reserved":false,"is_disabled":false,"rental_uris":{"android":"levelo://app?vid=34d11b6b-4287-4277-a2f0-6e4a5ad0d44f","ios":"levelo://app?vid=34d11b6b-4287-4277-a2f0-6e4a5ad0d44f"},"vehicle_type_id":"4","last_reported":1751523435,"current_range_meters":22400,"station_id":"ce4bgnh2rcd13ifvqc0g","pricing_plan_id":"cebpf4jnsgd1na2vs0mg"},{"bike_id":"25ee5877-8265-4c76-aaef-7bdfaa39aec5","system_id":"levelo_inurba_marseille","lat":43.297805,"lon":5.371149,"is_reserved":false,"is_disabled":false,"rental_uris":{"android":"levelo://app?vid=25ee5877-8265-4c76-aaef-7bdfaa39aec5","ios":"levelo://app?vid=25ee5877-8265-4c76-aaef-7bdfaa39aec5"},"vehicle_type_id":"4","last_reported":1751523435,"current_range_meters":22400,"station_id":"ce4bgop2rcd13ifvqc1g","pricing_plan_id":"cebpf4jnsgd1na2vs0mg"},{"bike_id":"205ecc0b-9432-4620-98d2-864e84b14e39","system_id":"levelo_inurba_marseille","lat":43.3234,"lon":5.40616,"is_reserved":false,"is_disabled":false,"rental_uris":{"android":"levelo://app?vid=205ecc0b-9432-4620-98d2-864e84b14e39","ios":"levelo://app?vid=205ecc0b-9432-4620-98d2-864e84b14e39"},"vehicle_type_id":"4","last_reported":1751523435,"current_range_meters":22400,"station_id":"ce4bhq92rcd13ifvqhjg","pricing_plan_id":"cebpf4jnsgd1na2vs0mg"},{"bike_id":"833bb9ff-7b15-4a8e-91f3-ff216ef28553","system_id":"levelo_inurba_marseille","lat":43.31705,"lon":5.37472,"is_reserved":false,"is_disabled":false,"rental_uris":{"android":"levelo://app?vid=833bb9ff-7b15-4a8e-91f3-ff216ef28553","ios":"levelo://app?vid=833bb9ff-7b15-4a8e-91f3-ff216ef28553"},"vehicle_type_id":"4","last_reported":1751523435,"current_range_meters":22800,"station_id":"","pricing_plan_id":"cebpf4jnsgd1na2vs0mg"},{"bike_id":"4b8da722-ee9e-48a4-a5e5-3a8a10364708","system_id":"levelo_inurba_marseille","lat":43.312293,"lon":5.3782,"is_reserved":false,"is_disabled":false,"rental_uris":{"android":"levelo://app?vid=4b8da722-ee9e-48a4-a5e5-3a8a10364708","ios":"levelo://app?vid=4b8da722-ee9e-48a4-a5e5-3a8a10364708"},"vehicle_type_id":"4","last_reported":1751523435,"current_range_meters":22800,"station_id":"","pricing_plan_id":"cebpf4jnsgd1na2vs0mg"},{"bike_id":"9ebc7e2a-260b-4f94-9c35-949ed6094171","system_id":"levelo_inurba_marseille","lat":43.21751,"lon":5.34599,"is_reserved":false,"is_disabled":false,"rental_uris":{"android":"levelo://app?vid=9ebc7e2a-260b-4f94-9c35-949ed6094171","ios":"levelo://app?vid=9ebc7e2a-260b-4f94-9c35-949ed6094171"},"vehicle_type_id":"4","last_reported":1751523435,"current_range_meters":22800,"station_id":"","pricing_plan_id":"cebpf4jnsgd1na2vs0mg"},{"bike_id":"9a5e3cc1-7023-4629-a997-e7e44cbbec14","system_id":"levelo_inurba_marseille","lat":43.30147,"lon":5.38084,"is_reserved":false,"is_disabled":false,"rental_uris":{"android":"levelo://app?vid=9a5e3cc1-7023-4629-a997-e7e44cbbec14","ios":"levelo://app?vid=9a5e3cc1-7023-4629-a997-e7e44cbbec14"},"vehicle_type_id":"4","last_reported":1751523435,"current_range_meters":22800,"station_id":"ce4bgjp2rcd13ifvqbh0","pricing_plan_id":"cebpf4jnsgd1na2vs0mg"},{"bike_id":"eb5ad4eb-699b-4f25-93f1-dade8c1b25cc","system_id":"levelo_inurba_marseille","lat":43.30949,"lon":5.39034,"is_reserved":false,"is_disabled":false,"rental_uris":{"android":"levelo://app?vid=eb5ad4eb-699b-4f25-93f1-dade8c1b25cc","ios":"levelo://app?vid=eb5ad4eb-699b-4f25-93f1-dade8c1b25cc"},"vehicle_type_id":"4","last_reported":1751523435,"current_range_meters":22800,"station_id":"ce4bgup2rcd13ifvqco0","pricing_plan_id":"cebpf4jnsgd1na2vs0mg"},{"bike_id":"9645919e-8b1b-46a1-9308-95c8967896a5","system_id":"levelo_inurba_marseille","lat":43.271806,"lon":5.409991,"is_reserved":false,"is_disabled":false,"rental_uris":{"android":"levelo://app?vid=9645919e-8b1b-46a1-9308-95c8967896a5","ios":"levelo://app?vid=9645919e-8b1b-46a1-9308-95c8967896a5"},"vehicle_type_id":"4","last_reported":1751523435,"current_range_meters":22800,"station_id":"ce4bhl12rcd13ifvqgf0","pricing_plan_id":"cebpf4jnsgd1na2vs0mg"},{"bike_id":"3c01f326-583d-4bca-a964-76c6faa32ae2","system_id":"levelo_inurba_marseille","lat":43.30537,"lon":5.38426,"is_reserved":false,"is_disabled":false,"rental_uris":{"android":"levelo://app?vid=3c01f326-583d-4bca-a964-76c6faa32ae2","ios":"levelo://app?vid=3c01f326-583d-4bca-a964-76c6faa32ae2"},"vehicle_type_id":"4","last_reported":1751523435,"current_range_meters":23200,"station_id":"ce4bgg92rcd13ifvqb30","pricing_plan_id":"cebpf4jnsgd1na2vs0mg"},{"bike_id":"b0c13522-9114-428f-ae8f-de4537f91f7b","system_id":"levelo_inurba_marseille","lat":43.30527,"lon":5.38455,"is_reserved":false,"is_disabled":false,"rental_uris":{"android":"levelo://app?vid=b0c13522-9114-428f-ae8f-de4537f91f7b","ios":"levelo://app?vid=b0c13522-9114-428f-ae8f-de4537f91f7b"},"vehicle_type_id":"4","last_reported":1751523435,"current_range_meters":23200,"station_id":"ce4bgg92rcd13ifvqb30","pricing_plan_id":"cebpf4jnsgd1na2vs0mg"},{"bike_id":"47ce3d5b-dc91-4f8b-b961-045ed5e05c76","system_id":"levelo_inurba_marseille","lat":43.28361,"lon":5.38103,"is_reserved":false,"is_disabled":false,"rental_uris":{"android":"levelo://app?vid=47ce3d5b-dc91-4f8b-b961-045ed5e05c76","ios":"levelo://app?vid=47ce3d5b-dc91-4f8b-b961-045ed5e05c76"},"vehicle_type_id":"4","last_reported":1751523435,"current_range_meters":23200,"station_id":"ce4bh412rcd13ifvqdr0","pricing_plan_id":"cebpf4jnsgd1na2vs0mg"},{"bike_id":"390a291e-e8cd-4674-b52d-bba1eade14e3","system_id":"levelo_inurba_marseille","lat":43.251068,"lon":5.403298,"is_reserved":false,"is_disabled":false,"rental_uris":{"android":"levelo://app?vid=390a291e-e8cd-4674-b52d-bba1eade14e3","ios":"levelo://app?vid=390a291e-e8cd-4674-b52d-bba1eade14e3"},"vehicle_type_id":"4","last_reported":1751523435,"current_range_meters":23200,"station_id":"ce4bhlh2rcd13ifvqgig","pricing_plan_id":"cebpf4jnsgd1na2vs0mg"},{"bike_id":"473d57e1-da7c-48d3-8f92-6f4f1eecd4f6","system_id":"levelo_inurba_marseille","lat":43.276891,"lon":5.393793,"is_reserved":false,"is_disabled":false,"rental_uris":{"android":"levelo://app?vid=473d57e1-da7c-48d3-8f92-6f4f1eecd4f6","ios":"levelo://app?vid=473d57e1-da7c-48d3-8f92-6f4f1eecd4f6"},"vehicle_type_id":"4","last_reported":1751523435,"current_range_meters":23200,"station_id":"ce4bhm92rcd13ifvqglg","pricing_plan_id":"cebpf4jnsgd1na2vs0mg"},{"bike_id":"acaea3d4-89fe-49f6-a119-3f6302ae77b1","system_id":"levelo_inurba_marseille","lat":43.29557,"lon":5.42293,"is_reserved":false,"is_disabled":false,"rental_uris":{"android":"levelo://app?vid=acaea3d4-89fe-49f6-a119-3f6302ae77b1","ios":"levelo://app?vid=acaea3d4-89fe-49f6-a119-3f6302ae77b1"},"vehicle_type_id":"4","last_reported":1751523435,"current_range_meters":23200,"station_id":"ce4bhph2rcd13ifvqhdg","pricing_plan_id":"cebpf4jnsgd1na2vs0mg"},{"bike_id":"fbf38b6c-6a92-404d-9038-01fd2a7fbf21","system_id":"levelo_inurba_marseille","lat":43.26956,"lon":5.40247,"is_reserved":false,"is_disabled":false,"rental_uris":{"android":"levelo://app?vid=fbf38b6c-6a92-404d-9038-01fd2a7fbf21","ios":"levelo://app?vid=fbf38b6c-6a92-404d-9038-01fd2a7fbf21"},"vehicle_type_id":"4","last_reported":1751523435,"current_range_meters":23200,"station_id":"cjm6bp8fraef2m0cb0m0","pricing_plan_id":"cebpf4jnsgd1na2vs0mg"},{"bike_id":"c13c93ac-6b62-443c-9e36-caf61b27325a","system_id":"levelo_inurba_marseille","lat":43.21192,"lon":5.350671,"is_reserved":false,"is_disabled":false,"rental_uris":{"android":"levelo://app?vid=c13c93ac-6b62-443c-9e36-caf61b27325a","ios":"levelo://app?vid=c13c93ac-6b62-443c-9e36-caf61b27325a"},"vehicle_type_id":"4","last_reported":1751523435,"current_range_meters":23200,"station_id":"st_cvj6sg6p6f1abm77japg","pricing_plan_id":"cebpf4jnsgd1na2vs0mg"},{"bike_id":"44cae3e7-1055-4c9b-9709-924aefa19e2f","system_id":"levelo_inurba_marseille","lat":43.29299,"lon":5.37441,"is_reserved":false,"is_disabled":false,"rental_uris":{"android":"levelo://app?vid=44cae3e7-1055-4c9b-9709-924aefa19e2f","ios":"levelo://app?vid=44cae3e7-1055-4c9b-9709-924aefa19e2f"},"vehicle_type_id":"4","last_reported":1751523435,"current_range_meters":24000,"station_id":"ce4bgi12rcd13ifvqb70","pricing_plan_id":"cebpf4jnsgd1na2vs0mg"},