{"last_updated":1700590198,"ttl":30,"version":"2.2","data":{"bikes":[{"bike_id":"eeef4dbc-7602-4f26-b2c1-c3771c9b5dae","system_id":"levelo_inurba_marseille","lat":43.3115,"lon":5.36889,"is_reserved":false,"is_disabled":false,"rental_uris":{"android":"levelo://app?vid=eeef4dbc-7602-4f26-b2c1-c3771c9b5dae","ios":"levelo://app?vid=eeef4dbc-7602-4f26-b2c1-c3771c9b5dae"},"vehicle_type_id":"4","last_reported":1700590198,"current_range_meters":0,"station_id":"","pricing_plan_id":"free"},{"bike_id":"14ead429-c547-47ed-a35b-85841b61ca40","system_id":"levelo_inurba_marseille","lat":43.308477,"lon":5.368783,"is_reserved":false,"is_disabled":false,"rental_uris":{"android":"levelo://app?vid=14ead429-c547-47ed-a35b-85841b61ca40","ios":"levelo://app?vid=14ead429-c547-47ed-a35b-85841b61ca40"},"vehicle_type_id":"4","last_reported":1700590198,"current_range_meters":15600,"station_id":"","pricing_plan_id":"free"},{"bike_id":"2bc311dc-da0b-403e-8cae-84f8764bc67c","system_id":"levelo_inurba_marseille","lat":43.30679,"lon":5.3679,"is_reserved":false,"is_disabled":false,"rental_uris":{"android":"levelo://app?vid=2bc311dc-da0b-403e-8cae-84f8764bc67c","ios":"levelo://app?vid=2bc311dc-da0b-403e-8cae-84f8764bc67c"},"vehicle_type_id":"4","last_reported":1700590198,"current_range_meters":2400,"station_id":"","pricing_plan_id":"free"},{"bike_id":"6d2568df-3638-426d-9209-33a0bea47e7e","system_id":"levelo_inurba_marseille","lat":43.30555,"lon":5.36563,"is_reserved":false,"is_disabled":false,"rental_uris":{"android":"levelo://app?vid=6d2568df-3638-426d-9209-33a0bea47e7e","ios":"levelo://app?vid=6d2568df-3638-426d-9209-33a0bea47e7e"},"vehicle_type_id":"4","last_reported":1700590198,"current_range_meters":0,"station_id":"","pricing_plan_id":"free"},{"bike_id":"97bc45c9-2173-4570-9680-6f141b7c1819","system_id":"levelo_inurba_marseille","lat":43.305706,"lon":5.365654,"is_reserved":false,"is_disabled":false,"rental_uris":{"android":"levelo://app?vid=97bc45c9-2173-4570-9680-6f141b7c1819","ios":"levelo://app?vid=97bc45c9-2173-4570-9680-6f141b7c1819"},"vehicle_type_id":"4","last_reported":1700590198,"current_range_meters":19600,"station_id":"ce4bgs12rcd13ifvqcag","pricing_plan_id":"free"},{"bike_id":"790d8068-0ca3-4ee2-ac94-5b1995eb78d3","system_id":"levelo_inurba_marseille","lat":43.31971,"lon":5.370992,"is_reserved":false,"is_disabled":false,"rental_uris":{"android":"levelo://app?vid=790d8068-0ca3-4ee2-ac94-5b1995eb78d3","ios":"levelo://app?vid=790d8068-0ca3-4ee2-ac94-5b1995eb78d3"},"vehicle_type_id":"4","last_reported":1700590198,"current_range_meters":0,"station_id":"","pricing_plan_id":"free"},{"bike_id":"3d48a422-f225-48ff-afa1-5d6a5b89ce1b","system_id":"levelo_inurba_marseille","lat":43.305989,"lon":5.37225,"is_reserved":false,"is_disabled":false,"rental_uris":{"android":"levelo://app?vid=3d48a422-f225-48ff-afa1-5d6a5b89ce1b","ios":"levelo://app?vid=3d48a422-f225-48ff-afa1-5d6a5b89ce1b"},"vehicle_type_id":"4","last_reported":1700590198,"current_range_meters":1600,"station_id":"ce4bgqh2rcd13ifvqc4g","pricing_plan_id":"free"},{"bike_id":"f2c21b01-ef2d-47a2-9034-b384fc662d5f","system_id":"levelo_inurba_marseille","lat":43.305989,"lon":5.37225,"is_reserved":false,"is_disabled":false,"rental_uris":{"android":"levelo://app?vid=f2c21b01-ef2d-47a2-9034-b384fc662d5f","ios":"levelo://app?vid=f2c21b01-ef2d-47a2-9034-b384fc662d5f"},"vehicle_type_id":"4","last_reported":1700590198,"current_range_meters":4400,"station_id":"ce4bgqh2rcd13ifvqc4g","pricing_plan_id":"free"},{"bike_id":"4bf7ad44-0b6c-4a49-b091-38a27fbbe62b","system_id":"levelo_inurba_marseille","lat":43.305989,"lon":5.37225,"is_reserved":false,"is_disabled":false,"rental_uris":{"android":"levelo://app?vid=4bf7ad44-0b6c-4a49-b091-38a27fbbe62b","ios":"levelo://app?vid=4bf7ad44-0b6c-4a49-b091-38a27fbbe62b"},"vehicle_type_id":"4","last_reported":1700590198,"current_range_meters":6000,"station_id":"ce4bgqh2rcd13ifvqc4g","pricing_plan_id":"free"},{"bike_id":"06284047-1e80-4933-bc3c-a8606f20a4a9","system_id":"levelo_inurba_marseille","lat":43.30821,"lon":5.37654,"is_reserved":false,"is_disabled":false,"rental_uris":{"android":"levelo://app?vid=06284047-1e80-4933-bc3c-a8606f20a4a9","ios":"levelo://app?vid=06284047-1e80-4933-bc3c-a8606f20a4a9"},"vehicle_type_id":"4","last_reported":1700590198,"current_range_meters":19200,"station_id":"ce4bgv92rcd13ifvqcq0","pricing_plan_id":"free"},{"bike_id":"1e6a44ed-1e48-4442-b4d6-de44a703ed67","system_id":"levelo_inurba_marseille","lat":43.317097,"lon":5.377233,"is_reserved":false,"is_disabled":false,"rental_uris":{"android":"levelo://app?vid=1e6a44ed-1e48-4442-b4d6-de44a703ed67","ios":"levelo://app?vid=1e6a44ed-1e48-4442-b4d6-de44a703ed67"},"vehicle_type_id":"4","last_reported":1700590198,"current_range_meters":26800,"station_id":"ce4bgth2rcd13ifvqch0","pricing_plan_id":"free"},{"bike_id":"9b9ee4cd-4677-40c5-8afc-a110839814eb","system_id":"levelo_inurba_marseille","lat":43.31524,"lon":5.38036,"is_reserved":false,"is_disabled":false,"rental_uris":{"android":"levelo://app?vid=9b9ee4cd-4677-40c5-8afc-a110839814eb","ios":"levelo://app?vid=9b9ee4cd-4677-40c5-8afc-a110839814eb"},"vehicle_type_id":"4","last_reported":1700590198,"current_range_meters":15200,"station_id":"ce4bhsp2rcd13ifvqi50","pricing_plan_id":"free"},{"bike_id":"65d0661a-1a1b-4639-bb28-4807f1680ce8","system_id":"levelo_inurba_marseille","lat":43.301811,"lon":5.366198,"is_reserved":false,"is_disabled":false,"rental_uris":{"android":"levelo://app?vid=65d0661a-1a1b-4639-bb28-4807f1680ce8","ios":"levelo://app?vid=65d0661a-1a1b-4639-bb28-4807f1680ce8"},"vehicle_type_id":"4","last_reported":1700590198,"current_range_meters":0,"station_id":"ce4bgt12rcd13ifvqce0","pricing_plan_id":"free"},{"bike_id":"8c159315-fcc2-41cb-b401-a64c3cc268e4","system_id":"levelo_inurba_marseille","lat":43.301939,"lon":5.366286,"is_reserved":false,"is_disabled":false,"rental_uris":{"android":"levelo://app?vid=8c159315-fcc2-41cb-b401-a64c3cc268e4","ios":"levelo://app?vid=8c159315-fcc2-41cb-b401-a64c3cc268e4"},"vehicle_type_id":"4","last_reported":1700590198,"current_range_meters":15600,"station_id":"ce4bgrh2rcd13ifvqc8g","pricing_plan_id":"free"},{"bike_id":"0327687b-f51e-4077-bf49-2ec73a6de092","system_id":"levelo_inurba_marseille","lat":43.32231,"lon":5.3757,"is_reserved":false,"is_disabled":false,"rental_uris":{"android":"levelo://app?vid=0327687b-f51e-4077-bf49-2ec73a6de092","ios":"levelo://app?vid=0327687b-f51e-4077-bf49-2ec73a6de092"},"vehicle_type_id":"4","last_reported":1700590198,"current_range_meters":19600,"station_id":"","pricing_plan_id":"free"},{"bike_id":"7b21315a-0e81-4e76-af9c-550952ed162c","system_id":"levelo_inurba_marseille","lat":43.308104,"lon":5.381532,"is_reserved":false,"is_disabled":false,"rental_uris":{"android":"levelo://app?vid=7b21315a-0e81-4e76-af9c-550952ed162c","ios":"levelo://app?vid=7b21315a-0e81-4e76-af9c-550952ed162c"},"vehicle_type_id":"4","last_reported":1700590198,"current_range_meters":0,"station_id":"ce4bgt12rcd13ifvqce0","pricing_plan_id":"free"},{"bike_id":"a0c175c7-8763-48b2-96c0-ee3535174374","system_id":"levelo_inurba_marseille","lat":43.324771,"lon":5.36557,"is_reserved":false,"is_disabled":false,"rental_uris":{"android":"levelo://app?vid=a0c175c7-8763-48b2-96c0-ee3535174374","ios":"levelo://app?vid=a0c175c7-8763-48b2-96c0-ee3535174374"},"vehicle_type_id":"4","last_reported":1700590198,"current_range_meters":29200,"station_id":"ce4bhs12rcd13ifvqhvg","pricing_plan_id":"free"},{"bike_id":"23804b00-b733-49be-8067-5722c57978d6","system_id":"levelo_inurba_marseille","lat":43.32475,"lon":5.365754,"is_reserved":false,"is_disabled":false,"rental_uris":{"android":"levelo://app?vid=23804b00-b733-49be-8067-5722c57978d6","ios":"levelo://app?vid=23804b00-b733-49be-8067-5722c57978d6"},"vehicle_type_id":"4","last_reported":1700590198,"current_range_meters":30800,"station_id":"ce4bhs12rcd13ifvqhvg","pricing_plan_id":"free"},{"bike_id":"a037806c-504f-410e-8380-5102d23eea79","system_id":"levelo_inurba_marseille","lat":43.324775,"lon":5.365684,"is_reserved":false,"is_disabled":false,"rental_uris":{"android":"levelo://app?vid=a037806c-504f-410e-8380-5102d23eea79","ios":"levelo://app?vid=a037806c-504f-410e-8380-5102d23eea79"},"vehicle_type_id":"4","last_reported":1700590198,"current_range_meters":30000,"station_id":"ce4bhs12rcd13ifvqhvg","pricing_plan_id":"free"},{"bike_id":"6ae17ab5-e1e8-4115-a6d5-de855a8905f3","system_id":"levelo_inurba_marseille","lat":43.32486,"lon":5.36576,"is_reserved":false,"is_disabled":false,"rental_uris":{"android":"levelo://app?vid=6ae17ab5-e1e8-4115-a6d5-de855a8905f3","ios":"levelo://app?vid=6ae17ab5-e1e8-4115-a6d5-de855a8905f3"},"vehicle_type_id":"4","last_reported":1700590198,"current_range_meters":23200,"station_id":"ce4bhs12rcd13ifvqhvg","pricing_plan_id":"free"},{"bike_id":"0868882f-6dbc-47a8-a59f-d58ad1a51c0d","system_id":"levelo_inurba_marseille","lat":43.301429,"lon":5.37413,"is_reserved":false,"is_disabled":false,"rental_uris":{"android":"levelo://app?vid=0868882f-6dbc-47a8-a59f-d58ad1a51c0d","ios":"levelo://app?vid=0868882f-6dbc-47a8-a59f-d58ad1a51c0d"},"vehicle_type_id":"4","last_reported":1700590198,"current_range_meters":6400,"station_id":"ce4bgs92rcd13ifvqcc0","pricing_plan_id":"free"},{"bike_id":"510d0105-b866-48bb-8bdb-59b0079c0d7a","system_id":"levelo_inurba_marseille","lat":43.319935,"lon":5.381699,"is_reserved":false,"is_disabled":false,"rental_uris":{"android":"levelo://app?vid=510d0105-b866-48bb-8bdb-59b0079c0d7a","ios":"levelo://app?vid=510d0105-b866-48bb-8bdb-59b0079c0d7a"},"vehicle_type_id":"4","last_reported":1700590198,"current_range_meters":26000,"station_id":"ce4bhr12rcd13ifvqhpg","pricing_plan_id":"free"},{"bike_id":"4b4fe3d7-722a-45a1-81fc-9a019167f268","system_id":"levelo_inurba_marseille","lat":43.31998,"lon":5.38157,"is_reserved":false,"is_disabled":false,"rental_uris":{"android":"levelo://app?vid=4b4fe3d7-722a-45a1-81fc-9a019167f268","ios":"levelo://app?vid=4b4fe3d7-722a-45a1-81fc-9a019167f268"},"vehicle_type_id":"4","last_reported":1700590198,"current_range_meters":25600,"station_id":"ce4bhr12rcd13ifvqhpg","pricing_plan_id":"free"},{"bike_id":"b6bef19b-9ba8-4d51-8b70-c38bf53a3315","system_id":"levelo_inurba_marseille","lat":43.31999,"lon":5.38157,"is_reserved":false,"is_disabled":false,"rental_uris":{"android":"levelo://app?vid=b6bef19b-9ba8-4d51-8b70-c38bf53a3315","ios":"levelo://app?vid=b6bef19b-9ba8-4d51-8b70-c38bf53a3315"},"vehicle_type_id":"4","last_reported":1700590198,"current_range_meters":11600,"station_id":"ce4bhr12rcd13ifvqhpg","pricing_plan_id":"free"},{"bike_id":"f41ac886-7a99-4211-b82f-ea7629e0b56d","system_id":"levelo_inurba_marseille","lat":43.313571,"lon":5.384829,"is_reserved":false,"is_disabled":false,"rental_uris":{"android":"levelo://app?vid=f41ac886-7a99-4211-b82f-ea7629e0b56d","ios":"levelo://app?vid=f41ac886-7a99-4211-b82f-ea7629e0b56d"},"vehicle_type_id":"4","last_reported":1700590198,"current_range_meters":18000,"station_id":"ce4bgt92rcd13ifvqcf0","pricing_plan_id":"free"},{"bike_id":"69d3eb58-0ec4-4ad1-977d-270faad12016","system_id":"levelo_inurba_marseille","lat":43.313571,"lon":5.384829,"is_reserved":false,"is_disabled":false,"rental_uris":{"android":"levelo://app?vid=69d3eb58-0ec4-4ad1-977d-270faad12016","ios":"levelo://app?vid=69d3eb58-0ec4-4ad1-977d-270faad12016"},"vehicle_type_id":"4","last_reported":1700590198,"current_range_meters":20800,"station_id":"ce4bgt92rcd13ifvqcf0","pricing_plan_id":"free"},{"bike_id":"03e131a6-291a-4e5a-aad6-cf6bd771bc2e","system_id":"levelo_inurba_marseille","lat":43.313571,"lon":5.384829,"is_reserved":false,"is_disabled":false,"rental_uris":{"android":"levelo://app?vid=03e131a6-291a-4e5a-aad6-cf6bd771bc2e","ios":"levelo://app?vid=03e131a6-291a-4e5a-aad6-cf6bd771bc2e"},"vehicle_type_id":"4","last_reported":1700590198,"current_range_meters":0,"station_id":"ce4bgt92rcd13ifvqcf0","pricing_plan_id":"free"},{"bike_id":"3862aa04-bd4f-425d-9a67-2c62e680cb10","system_id":"levelo_inurba_marseille","lat":43.313571,"lon":5.384829,"is_reserved":false,"is_disabled":false,"rental_uris":{"android":"levelo://app?vid=3862aa04-bd4f-425d-9a67-2c62e680cb10","ios":"levelo://app?vid=3862aa04-bd4f-425d-9a67-2c62e680cb10"},"vehicle_type_id":"4","last_reported":1700590198,"current_range_meters":25600,"station_id":"ce4bgt92rcd13ifvqcf0","pricing_plan_id":"free"},{"bike_id":"3e590e94-c47e-4891-aca0-4485181148dd","system_id":"levelo_inurba_marseille","lat":43.313571,"lon":5.384829,"is_reserved":false,"is_disabled":false,"rental_uris":{"android":"levelo://app?vid=3e590e94-c47e-4891-aca0-4485181148dd","ios":"levelo://app?vid=3e590e94-c47e-4891-aca0-4485181148dd"},"vehicle_type_id":"4","last_reported":1700590198,"current_range_meters":20000,"station_id":"ce4bgt92rcd13ifvqcf0","pricing_plan_id":"free"},{"bike_id":"4c574cd7-8c25-4245-94ec-524effcb4c96","system_id":"levelo_inurba_marseille","lat":43.299222,"lon":5.365554,"is_reserved":false,"is_disabled":false,"rental_uris":{"android":"levelo://app?vid=4c574cd7-8c25-4245-94ec-524effcb4c96","ios":"levelo://app?vid=4c574cd7-8c25-4245-94ec-524effcb4c96"},"vehicle_type_id":"4","last_reported":1700590198,"current_range_meters":1200,"station_id":"ce4bgm92rcd13ifvqbr0","pricing_plan_id":"free"},{"bike_id":"0045b0ce-7b0e-41b0-bbaf-443572242097","system_id":"levelo_inurba_marseille","lat":43.311722,"lon":5.387247,"is_reserved":false,"is_disabled":false,"rental_uris":{"android":"levelo://app?vid=0045b0ce-7b0e-41b0-bbaf-443572242097","ios":"levelo://app?vid=0045b0ce-7b0e-41b0-bbaf-443572242097"},"vehicle_type_id":"4","last_reported":1700590198,"current_range_meters":26800,"station_id":"ce4bgv12rcd13ifvqcp0","pricing_plan_id":"free"},{"bike_id":"973a4e6e-a552-40bc-ac57-6639662419e5","system_id":"levelo_inurba_marseille","lat":43.31168,"lon":5.38719,"is_reserved":false,"is_disabled":false,"rental_uris":{"android":"levelo://app?vid=973a4e6e-a552-40bc-ac57-6639662419e5","ios":"levelo://app?vid=973a4e6e-a552-40bc-ac57-6639662419e5"},"vehicle_type_id":"4","last_reported":1700590198,"current_range_meters":3200,"station_id":"ce4bgv12rcd13ifvqcp0","pricing_plan_id":"free"},{"bike_id":"e6e6d7d8-d37a-4d0f-afb1-d9b7d0e04609","system_id":"levelo_inurba_marseille","lat":43.311722,"lon":5.387247,"is_reserved":false,"is_disabled":false,"rental_uris":{"android":"levelo://app?vid=e6e6d7d8-d37a-4d0f-afb1-d9b7d0e04609","ios":"levelo://app?vid=e6e6d7d8-d37a-4d0f-afb1-d9b7d0e04609"},"vehicle_type_id":"4","last_reported":1700590198,"current_range_meters":10800,"station_id":"ce4bgv12rcd13ifvqcp0","pricing_plan_id":"free"},{"bike_id":"d9a95eb2-3ca7-4d5c-ae71-fae5be7a5a02","system_id":"levelo_inurba_marseille","lat":43.29811,"lon":5.37099,"is_reserved":false,"is_disabled":false,"rental_uris":{"android":"levelo://app?vid=d9a95eb2-3ca7-4d5c-ae71-fae5be7a5a02","ios":"levelo://app?vid=d9a95eb2-3ca7-4d5c-ae71-fae5be7a5a02"},"vehicle_type_id":"4","last_reported":1700590198,"current_range_meters":15600,"station_id":"ce4bgop2rcd13ifvqc1g","pricing_plan_id":"free"},{"bike_id":"24256210-dd9b-4e06-8284-ac9b4520be6f","system_id":"levelo_inurba_marseille","lat":43.32835,"lon":5.36684,"is_reserved":false,"is_disabled":false,"rental_uris":{"android":"levelo://app?vid=24256210-dd9b-4e06-8284-ac9b4520be6f","ios":"levelo://app?vid=24256210-dd9b-4e06-8284-ac9b4520be6f"},"vehicle_type_id":"4","last_reported":1700590198,"current_range_meters":0,"station_id":"ce4bhs92rcd13ifvqi0g","pricing_plan_id":"free"},{"bike_id":"a226a5d0-d7fb-42a9-bd47-3c0344196bf1","system_id":"levelo_inurba_marseille","lat":43.297163,"lon":5.365866,"is_reserved":false,"is_disabled":false,"rental_uris":{"android":"levelo://app?vid=a226a5d0-d7fb-42a9-bd47-3c0344196bf1","ios":"levelo://app?vid=a226a5d0-d7fb-42a9-bd47-3c0344196bf1"},"vehicle_type_id":"4","last_reported":1700590198,"current_range_meters":19600,"station_id":"ce4bgn12rcd13ifvqbt0","pricing_plan_id":"free"},{"bike_id":"2206c9a4-714b-4a8a-b771-8a1845ca1139","system_id":"levelo_inurba_marseille","lat":43.2968,"lon":5.37291,"is_reserved":false,"is_disabled":false,"rental_uris":{"android":"levelo://app?vid=2206c9a4-714b-4a8a-b771-8a1845ca1139","ios":"levelo://app?vid=2206c9a4-714b-4a8a-b771-8a1845ca1139"},"vehicle_type_id":"4","last_reported":1700590198,"current_range_meters":22000,"station_id":"ce4bgk12rcd13ifvqbj0","pricing_plan_id":"free"},{"bike_id":"9fb402a7-7a41-4473-81d2-1fec663a6035","system_id":"levelo_inurba_marseille","lat":43.30554,"lon":5.38883,"is_reserved":false,"is_disabled":false,"rental_uris":{"android":"levelo://app?vid=9fb402a7-7a41-4473-81d2-1fec663a6035","ios":"levelo://app?vid=9fb402a7-7a41-4473-81d2-1fec663a6035"},"vehicle_type_id":"4","last_reported":1700590198,"current_range_meters":28400,"station_id":"","pricing_plan_id":"free"},{"bike_id":"72456b4d-fe61-43a9-b9f5-e6576bcceaaa","system_id":"levelo_inurba_marseille","lat":43.317557,"lon":5.390173,"is_reserved":false,"is_disabled":false,"rental_uris":{"android":"levelo://app?vid=72456b4d-fe61-43a9-b9f5-e6576bcceaaa","ios":"levelo://app?vid=72456b4d-fe61-43a9-b9f5-e6576bcceaaa"},"vehicle_type_id":"4","last_reported":1700590198,"current_range_meters":15200,"station_id":"ce4bhqp2rcd13ifvqhng","pricing_plan_id":"free"},{"bike_id":"3059d4c1-3d42-4321-a339-0fea9a03ef82","system_id":"levelo_inurba_marseille","lat":43.328154,"lon":5.380034,"is_reserved":false,"is_disabled":false,"rental_uris":{"android":"levelo://app?vid=3059d4c1-3d42-4321-a339-0fea9a03ef82","ios":"levelo://app?vid=3059d4c1-3d42-4321-a339-0fea9a03ef82"},"vehicle_type_id":"4","last_reported":1700590198,"current_range_meters":0,"station_id":"","pricing_plan_id":"free"},{"bike_id":"b654c140-a586-43d4-9725-c78ee85e0033","system_id":"levelo_inurba_marseille","lat":43.304274,"lon":5.388873,"is_reserved":false,"is_disabled":false,"rental_uris":{"android":"levelo://app?vid=b654c140-a586-43d4-9725-c78ee85e0033","ios":"levelo://app?vid=b654c140-a586-43d4-9725-c78ee85e0033"},"vehicle_type_id":"4","last_reported":1700590198,"current_range_meters":4000,"station_id":"ce4bgk12rcd13ifvqbi0","pricing_plan_id":"free"},{"bike_id":"c9346bf9-9742-4986-b573-63f52d23352b","system_id":"levelo_inurba_marseille","lat":43.304278,"lon":5.388868,"is_reserved":false,"is_disabled":false,"rental_uris":{"android":"levelo://app?vid=c9346bf9-9742-4986-b573-63f52d23352b","ios":"levelo://app?vid=c9346bf9-9742-4986-b573-63f52d23352b"},"vehicle_type_id":"4","last_reported":1700590198,"current_range_meters":26800,"station_id":"ce4bgk12rcd13ifvqbi0","pricing_plan_id":"free"},{"bike_id":"740734f0-9713-4b8a-8810-5364172e83f2","system_id":"levelo_inurba_marseille","lat":43.297523,"lon":5.380977,"is_reserved":false,"is_disabled":false,"rental_uris":{"android":"levelo://app?vid=740734f0-9713-4b8a-8810-5364172e83f2","ios":"levelo://app?vid=740734f0-9713-4b8a-8810-5364172e83f2"},"vehicle_type_id":"4","last_reported":1700590198,"current_range_meters":0,"station_id":"","pricing_plan_id":"free"},{"bike_id":"6b621983-5e9e-42f7-990d-ad5a093820d2","system_id":"levelo_inurba_marseille","lat":43.293801,"lon":5.363066,"is_reserved":false,"is_disabled":false,"rental_uris":{"android":"levelo://app?vid=6b621983-5e9e-42f7-990d-ad5a093820d2","ios":"levelo://app?vid=6b621983-5e9e-42f7-990d-ad5a093820d2"},"vehicle_type_id":"4","last_reported":1700590198,"current_range_meters":15200,"station_id":"","pricing_plan_id":"free"},{"bike_id":"9848a84a-e002-4f14-90ee-18e4e6536af8","system_id":"levelo_inurba_marseille","lat":43.32366,"lon":5.38887,"is_reserved":false,"is_disabled":false,"rental_uris":{"android":"levelo://app?vid=9848a84a-e002-4f14-90ee-18e4e6536af8","ios":"levelo://app?vid=9848a84a-e002-4f14-90ee-18e4e6536af8"},"vehicle_type_id":"4","last_reported":1700590198,"current_range_meters":0,"station_id":"ce4bhqp2rcd13ifvqhog","pricing_plan_id":"free"},{"bike_id":"18d12119-6832-40e8-a839-85af965c5a22","system_id":"levelo_inurba_marseille","lat":43.32367,"lon":5.388836,"is_reserved":false,"is_disabled":false,"rental_uris":{"android":"levelo://app?vid=18d12119-6832-40e8-a839-85af965c5a22","ios":"levelo://app?vid=18d12119-6832-40e8-a839-85af965c5a22"},"vehicle_type_id":"4","last_reported":1700590198,"current_range_meters":0,"station_id":"ce4bhqp2rcd13ifvqhog","pricing_plan_id":"free"},{"bike_id":"c9438d5c-b150-4e6d-a877-be8730330e07","system_id":"levelo_inurba_marseille","lat":43.29601,"lon":5.381084,"is_reserved":false,"is_disabled":false,"rental_uris":{"android":"levelo://app?vid=c9438d5c-b150-4e6d-a877-be8730330e07","ios":"levelo://app?vid=c9438d5c-b150-4e6d-a877-be8730330e07"},"vehicle_type_id":"4","last_reported":1700590198,"current_range_meters":7600,"station_id":"ce4bgl12rcd13ifvqbo0","pricing_plan_id":"free"},{"bike_id":"d08f04bf-d1cb-49fb-9aa7-04e7f7676b3c","system_id":"levelo_inurba_marseille","lat":43.32337,"lon":5.38974,"is_reserved":false,"is_disabled":false,"rental_uris":{"android":"levelo://app?vid=d08f04bf-d1cb-49fb-9aa7-04e7f7676b3c","ios":"levelo://app?vid=d08f04bf-d1cb-49fb-9aa7-04e7f7676b3c"},"vehicle_type_id":"4","last_reported":1700590198,"current_range_meters":0,"station_id":"","pricing_plan_id":"free"},{"bike_id":"56976b36-0d06-4b7b-9507-582ab8ce8f96","system_id":"levelo_inurba_marseille","lat":43.292982,"lon":5.374694,"is_reserved":false,"is_disabled":false,"rental_uris":{"android":"levelo://app?vid=56976b36-0d06-4b7b-9507-582ab8ce8f96","ios":"levelo://app?vid=56976b36-0d06-4b7b-9507-582ab8ce8f96"},"vehicle_type_id":"4","last_reported":1700590198,"current_range_meters":13200,"station_id":"ce4bgi12rcd13ifvqb70","pricing_plan_id":"free"},{"bike_id":"d65c9915-a6e4-4438-9557-43c80ed89a01","system_id":"levelo_inurba_marseille","lat":43.2936,"lon":5.37835,"is_reserved":false,"is_disabled":false,"rental_uris":{"android":"levelo://app?vid=d65c9915-a6e4-4438-9557-43c80ed89a01","ios":"levelo://app?vid=d65c9915-a6e4-4438-9557-43c80ed89a01"},"vehicle_type_id":"4","last_reported":1700590198,"current_range_meters":8800,"station_id":"ce4bgjh2rcd13ifvqbf0","pricing_plan_id":"free"},{"bike_id":"31057e62-2fd1-4153-8236-57ffbf16d247","system_id":"levelo_inurba_marseille","lat":43.2936,"lon":5.37835,"is_reserved":false,"is_disabled":false,"rental_uris":{"android":"levelo://app?vid=31057e62-2fd1-4153-8236-57ffbf16d247","ios":"levelo://app?vid=31057e62-2fd1-4153-8236-57ffbf16d247"},"vehicle_type_id":"4","last_reported":1700590198,"current_range_meters":0,"station_id":"ce4bgjh2rcd13ifvqbf0","pricing_plan_id":"free"},{"bike_id":"6257513b-a5d0-4cba-ae35-bcd3708311be","system_id":"levelo_inurba_marseille","lat":43.291671,"lon":5.371575,"is_reserved":false,"is_disabled":false,"rental_uris":{"android":"levelo://app?vid=6257513b-a5d0-4cba-ae35-bcd3708311be","ios":"levelo://app?vid=6257513b-a5d0-4cba-ae35-bcd3708311be"},"vehicle_type_id":"4","last_reported":1700590198,"current_range_meters":8000,"station_id":"ce4bha92rcd13ifvqeh0","pricing_plan_id":"free"},{"bike_id":"1fc49b62-820a-4e7b-9cb5-b9d255ddcfa0","system_id":"levelo_inurba_marseille","lat":43.3088,"lon":5.396327,"is_reserved":false,"is_disabled":false,"rental_uris":{"android":"levelo://app?vid=1fc49b62-820a-4e7b-9cb5-b9d255ddcfa0","ios":"levelo://app?vid=1fc49b62-820a-4e7b-9cb5-b9d255ddcfa0"},"vehicle_type_id":"4","last_reported":1700590198,"current_range_meters":29600,"station_id":"ce4bh012rcd13ifvqcv0","pricing_plan_id":"free"},{"bike_id":"aeee18a0-f188-4f3b-ad06-3fcc3d0652b7","system_id":"levelo_inurba_marseille","lat":43.29194,"lon":5.35806,"is_reserved":false,"is_disabled":false,"rental_uris":{"android":"levelo://app?vid=aeee18a0-f188-4f3b-ad06-3fcc3d0652b7","ios":"levelo://app?vid=aeee18a0-f188-4f3b-ad06-3fcc3d0652b7"},"vehicle_type_id":"4","last_reported":1700590198,"current_range_meters":0,"station_id":"ce4bhb12rcd13ifvqel0","pricing_plan_id":"free"},{"bike_id":"3b3ae3b3-66e7-48b7-aee8-e0eba4b10343","system_id":"levelo_inurba_marseille","lat":43.30875,"lon":5.396403,"is_reserved":false,"is_disabled":false,"rental_uris":{"android":"levelo://app?vid=3b3ae3b3-66e7-48b7-aee8-e0eba4b10343","ios":"levelo://app?vid=3b3ae3b3-66e7-48b7-aee8-e0eba4b10343"},"vehicle_type_id":"4","last_reported":1700590198,"current_range_meters":3600,"station_id":"ce4bh012rcd13ifvqcv0","pricing_plan_id":"free"},{"bike_id":"cdfd4d0a-14e5-4e93-b6b8-0b2e2f85621f","system_id":"levelo_inurba_marseille","lat":43.31325,"lon":5.39693,"is_reserved":false,"is_disabled":false,"rental_uris":{"android":"levelo://app?vid=cdfd4d0a-14e5-4e93-b6b8-0b2e2f85621f","ios":"levelo://app?vid=cdfd4d0a-14e5-4e93-b6b8-0b2e2f85621f"},"vehicle_type_id":"4","last_reported":1700590198,"current_range_meters":2400,"station_id":"ce4bgvp2rcd13ifvqcu0","pricing_plan_id":"free"},{"bike_id":"1592a241-f8f0-4177-8ed8-3bddd43c6599","system_id":"levelo_inurba_marseille","lat":43.29191,"lon":5.35791,"is_reserved":false,"is_disabled":false,"rental_uris":{"android":"levelo://app?vid=1592a241-f8f0-4177-8ed8-3bddd43c6599","ios":"levelo://app?vid=1592a241-f8f0-4177-8ed8-3bddd43c6599"},"vehicle_type_id":"4","last_reported":1700590198,"current_range_meters":0,"station_id":"ce4bhb12rcd13ifvqel0","pricing_plan_id":"free"},{"bike_id":"dcb1aa45-6710-4c2f-a636-ef38bc26bb65","system_id":"levelo_inurba_marseille","lat":43.313291,"lon":5.396838,"is_reserved":false,"is_disabled":false,"rental_uris":{"android":"levelo://app?vid=dcb1aa45-6710-4c2f-a636-ef38bc26bb65","ios":"levelo://app?vid=dcb1aa45-6710-4c2f-a636-ef38bc26bb65"},"vehicle_type_id":"4","last_reported":1700590198,"current_range_meters":24000,"station_id":"ce4bgvp2rcd13ifvqcu0","pricing_plan_id":"free"},{"bike_id":"c97c518b-be57-4af7-849e-2bbc2e971522","system_id":"levelo_inurba_marseille","lat":43.31332,"lon":5.39699,"is_reserved":false,"is_disabled":false,"rental_uris":{"android":"levelo://app?vid=c97c518b-be57-4af7-849e-2bbc2e971522","ios":"levelo://app?vid=c97c518b-be57-4af7-849e-2bbc2e971522"},"vehicle_type_id":"4","last_reported":1700590198,"current_range_meters":0,"station_id":"ce4bgvp2rcd13ifvqcu0","pricing_plan_id":"free"},{"bike_id":"d5ebde8e-fa43-428b-b2b3-5b65ed525107","system_id":"levelo_inurba_marseille","lat":43.309038,"lon":5.396546,"is_reserved":false,"is_disabled":false,"rental_uris":{"android":"levelo://app?vid=d5ebde8e-fa43-428b-b2b3-5b65ed525107","ios":"levelo://app?vid=d5ebde8e-fa43-428b-b2b3-5b65ed525107"},"vehicle_type_id":"4","last_reported":1700590198,"current_range_meters":20800,"station_id":"ce4bh012rcd13ifvqcv0","pricing_plan_id":"free"},{"bike_id":"1d10a1b1-d55f-4279-928a-9c6858f32ca9","system_id":"levelo_inurba_marseille","lat":43.33231,"lon":5.380687,"is_reserved":false,"is_disabled":false,"rental_uris":{"android":"levelo://app?vid=1d10a1b1-d55f-4279-928a-9c6858f32ca9","ios":"levelo://app?vid=1d10a1b1-d55f-4279-928a-9c6858f32ca9"},"vehicle_type_id":"4","last_reported":1700590198,"current_range_meters":2800,"station_id":"","pricing_plan_id":"free"},{"bike_id":"f896c85b-e7e4-4558-87a2-535f05a9b3ad","system_id":"levelo_inurba_marseille","lat":43.309038,"lon":5.396546,"is_reserved":false,"is_disabled":false,"rental_uris":{"android":"levelo://app?vid=f896c85b-e7e4-4558-87a2-535f05a9b3ad","ios":"levelo://app?vid=f896c85b-e7e4-4558-87a2-535f05a9b3ad"},"vehicle_type_id":"4","last_reported":1700590198,"current_range_meters":3600,"station_id":"ce4bh012rcd13ifvqcv0","pricing_plan_id":"free"},{"bike_id":"cc92e53c-d11a-437c-9bae-329d0212d740","system_id":"levelo_inurba_marseille","lat":43.29524,"lon":5.38544,"is_reserved":false,"is_disabled":false,"rental_uris":{"android":"levelo://app?vid=cc92e53c-d11a-437c-9bae-329d0212d740","ios":"levelo://app?vid=cc92e53c-d11a-437c-9bae-329d0212d740"},"vehicle_type_id":"4","last_reported":1700590198,"current_range_meters":0,"station_id":"ce4bgih2rcd13ifvqba0","pricing_plan_id":"free"},{"bike_id":"fe69bbe9-edc4-45e6-8625-71aff1534f82","system_id":"levelo_inurba_marseille","lat":43.290327,"lon":5.375711,"is_reserved":false,"is_disabled":false,"rental_uris":{"android":"levelo://app?vid=fe69bbe9-edc4-45e6-8625-71aff1534f82","ios":"levelo://app?vid=fe69bbe9-edc4-45e6-8625-71aff1534f82"},"vehicle_type_id":"4","last_reported":1700590198,"current_range_meters":0,"station_id":"ce4bh692rcd13ifvqe90","pricing_plan_id":"free"},{"bike_id":"b35277d1-86a7-4e42-b5ca-ee5c8499742f","system_id":"levelo_inurba_marseille","lat":43.294162,"lon":5.386292,"is_reserved":false,"is_disabled":false,"rental_uris":{"android":"levelo://app?vid=b35277d1-86a7-4e42-b5ca-ee5c8499742f","ios":"levelo://app?vid=b35277d1-86a7-4e42-b5ca-ee5c8499742f"},"vehicle_type_id":"4","last_reported":1700590198,"current_range_meters":14000,"station_id":"ce4bh2h2rcd13ifvqdh0","pricing_plan_id":"free"},{"bike_id":"2128e2b5-c12f-484c-b947-ede307b95d5b","system_id":"levelo_inurba_marseille","lat":43.290327,"lon":5.375711,"is_reserved":false,"is_disabled":false,"rental_uris":{"android":"levelo://app?vid=2128e2b5-c12f-484c-b947-ede307b95d5b","ios":"levelo://app?vid=2128e2b5-c12f-484c-b947-ede307b95d5b"},"vehicle_type_id":"4","last_reported":1700590198,"current_range_meters":11200,"station_id":"ce4bh692rcd13ifvqe90","pricing_plan_id":"free"},{"bike_id":"4f39850b-636c-4dc6-916f-96f08be9cf93","system_id":"levelo_inurba_marseille","lat":43.289468,"lon":5.363719,"is_reserved":false,"is_disabled":false,"rental_uris":{"android":"levelo://app?vid=4f39850b-636c-4dc6-916f-96f08be9cf93","ios":"levelo://app?vid=4f39850b-636c-4dc6-916f-96f08be9cf93"},"vehicle_type_id":"4","last_reported":1700590198,"current_range_meters":0,"station_id":"ce4bhc92rcd13ifvqetg","pricing_plan_id":"free"},{"bike_id":"c0691913-4d43-42af-9fa5-975aa1a8621b","system_id":"levelo_inurba_marseille","lat":43.29087,"lon":5.3816,"is_reserved":false,"is_disabled":false,"rental_uris":{"android":"levelo://app?vid=c0691913-4d43-42af-9fa5-975aa1a8621b","ios":"levelo://app?vid=c0691913-4d43-42af-9fa5-975aa1a8621b"},"vehicle_type_id":"4","last_reported":1700590198,"current_range_meters":0,"station_id":"ce4bh512rcd13ifvqe2g","pricing_plan_id":"free"},{"bike_id":"8c457578-327c-4d0e-aaa0-35ff6ef61bba","system_id":"levelo_inurba_marseille","lat":43.295169,"lon":5.390426,"is_reserved":false,"is_disabled":false,"rental_uris":{"android":"levelo://app?vid=8c457578-327c-4d0e-aaa0-35ff6ef61bba","ios":"levelo://app?vid=8c457578-327c-4d0e-aaa0-35ff6ef61bba"},"vehicle_type_id":"4","last_reported":1700590198,"current_range_meters":0,"station_id":"ce4bh3p2rcd13ifvqdp0","pricing_plan_id":"free"},{"bike_id":"42760fed-b624-4a1d-b569-9a9858bc8362","system_id":"levelo_inurba_marseille","lat":43.28856,"lon":5.358371,"is_reserved":false,"is_disabled":false,"rental_uris":{"android":"levelo://app?vid=42760fed-b624-4a1d-b569-9a9858bc8362","ios":"levelo://app?vid=42760fed-b624-4a1d-b569-9a9858bc8362"},"vehicle_type_id":"4","last_reported":1700590198,"current_range_meters":3200,"station_id":"ce4bhb12rcd13ifvqem0","pricing_plan_id":"free"},{"bike_id":"aad9a792-6976-4183-919a-aef819ff2e25","system_id":"levelo_inurba_marseille","lat":43.31251,"lon":5.40162,"is_reserved":false,"is_disabled":false,"rental_uris":{"android":"levelo://app?vid=aad9a792-6976-4183-919a-aef819ff2e25","ios":"levelo://app?vid=aad9a792-6976-4183-919a-aef819ff2e25"},"vehicle_type_id":"4","last_reported":1700590198,"current_range_meters":2400,"station_id":"","pricing_plan_id":"free"},{"bike_id":"dd4a5c04-d4fe-4299-8ed6-d16e50ecee2c","system_id":"levelo_inurba_marseille","lat":43.33743,"lon":5.37453,"is_reserved":false,"is_disabled":false,"rental_uris":{"android":"levelo://app?vid=dd4a5c04-d4fe-4299-8ed6-d16e50ecee2c","ios":"levelo://app?vid=dd4a5c04-d4fe-4299-8ed6-d16e50ecee2c"},"vehicle_type_id":"4","last_reported":1700590198,"current_range_meters":30800,"station_id":"","pricing_plan_id":"free"},{"bike_id":"1084a966-46b9-42c3-a111-fb41cf1801cf","system_id":"levelo_inurba_marseille","lat":43.309371,"lon":5.401449,"is_reserved":false,"is_disabled":false,"rental_uris":{"android":"levelo://app?vid=1084a966-46b9-42c3-a111-fb41cf1801cf","ios":"levelo://app?vid=1084a966-46b9-42c3-a111-fb41cf1801cf"},"vehicle_type_id":"4","last_reported":1700590198,"current_range_meters":800,"station_id":"ce4bgvp2rcd13ifvqct0","pricing_plan_id":"free"},{"bike_id":"8251cbdf-6fc9-4ed4-bf87-0d2448849ada","system_id":"levelo_inurba_marseille","lat":43.33754,"lon":5.37446,"is_reserved":false,"is_disabled":false,"rental_uris":{"android":"levelo://app?vid=8251cbdf-6fc9-4ed4-bf87-0d2448849ada","ios":"levelo://app?vid=8251cbdf-6fc9-4ed4-bf87-0d2448849ada"},"vehicle_type_id":"4","last_reported":1700590198,"current_range_meters":30400,"station_id":"","pricing_plan_id":"free"},{"bike_id":"b7021fb5-7e75-4436-add5-24bdc7f497ea","system_id":"levelo_inurba_marseille","lat":43.30674,"lon":5.401,"is_reserved":false,"is_disabled":false,"rental_uris":{"android":"levelo://app?vid=b7021fb5-7e75-4436-add5-24bdc7f497ea","ios":"levelo://app?vid=b7021fb5-7e75-4436-add5-24bdc7f497ea"},"vehicle_type_id":"4","last_reported":1700590198,"current_range_meters":19600,"station_id":"ce4bh112rcd13ifvqda0","pricing_plan_id":"free"},{"bike_id":"366b6ff8-f3a9-4fd1-b597-d0a5ecd43827","system_id":"levelo_inurba_marseille","lat":43.30642,"lon":5.401031,"is_reserved":false,"is_disabled":false,"rental_uris":{"android":"levelo://app?vid=366b6ff8-f3a9-4fd1-b597-d0a5ecd43827","ios":"levelo://app?vid=366b6ff8-f3a9-4fd1-b597-d0a5ecd43827"},"vehicle_type_id":"4","last_reported":1700590198,"current_range_meters":18000,"station_id":"ce4bh112rcd13ifvqda0","pricing_plan_id":"free"},{"bike_id":"dedd3e4f-e4e1-4fe0-afd5-fc320bdd5588","system_id":"levelo_inurba_marseille","lat":43.337707,"lon":5.374852,"is_reserved":false,"is_disabled":false,"rental_uris":{"android":"levelo://app?vid=dedd3e4f-e4e1-4fe0-afd5-fc320bdd5588","ios":"levelo://app?vid=dedd3e4f-e4e1-4fe0-afd5-fc320bdd5588"},"vehicle_type_id":"4","last_reported":1700590198,"current_range_meters":26800,"station_id":"","pricing_plan_id":"free"},{"bike_id":"2b3f4cef-d88a-414c-b2cc-9d2a98e793f1","system_id":"levelo_inurba_marseille","lat":43.3377,"lon":5.3749,"is_reserved":false,"is_disabled":false,"rental_uris":{"android":"levelo://app?vid=2b3f4cef-d88a-414c-b2cc-9d2a98e793f1","ios":"levelo://app?vid=2b3f4cef-d88a-414c-b2cc-9d2a98e793f1"},"vehicle_type_id":"4","last_reported":1700590198,"current_range_meters":10400,"station_id":"","pricing_plan_id":"free"},{"bike_id":"c23a038d-8fe5-437f-bbe5-513359d786e1","system_id":"levelo_inurba_marseille","lat":43.33771,"lon":5.37487,"is_reserved":false,"is_disabled":false,"rental_uris":{"android":"levelo://app?vid=c23a038d-8fe5-437f-bbe5-513359d786e1","ios":"levelo://app?vid=c23a038d-8fe5-437f-bbe5-513359d786e1"},"vehicle_type_id":"4","last_reported":1700590198,"current_range_meters":29600,"station_id":"","pricing_plan_id":"free"},{"bike_id":"644f12cd-ec31-4e89-ab7c-ed45c73de27b","system_id":"levelo_inurba_marseille","lat":43.301117,"lon":5.398795,"is_reserved":false,"is_disabled":false,"rental_uris":{"android":"levelo://app?vid=644f12cd-ec31-4e89-ab7c-ed45c73de27b","ios":"levelo://app?vid=644f12cd-ec31-4e89-ab7c-ed45c73de27b"},"vehicle_type_id":"4","last_reported":1700590198,"current_range_meters":15200,"station_id":"ce4bh0h2rcd13ifvqd40","pricing_plan_id":"free"},{"bike_id":"32bcaa2e-ae93-4735-b9f7-c37bffd75d9a","system_id":"levelo_inurba_marseille","lat":43.298681,"lon":5.397225,"is_reserved":false,"is_disabled":false,"rental_uris":{"android":"levelo://app?vid=32bcaa2e-ae93-4735-b9f7-c37bffd75d9a","ios":"levelo://app?vid=32bcaa2e-ae93-4735-b9f7-c37bffd75d9a"},"vehicle_type_id":"4","last_reported":1700590198,"current_range_meters":8000,"station_id":"ce4bh0h2rcd13ifvqd50","pricing_plan_id":"free"},{"bike_id":"9a427a90-c7eb-49a8-9dff-48a80f0f2ebb","system_id":"levelo_inurba_marseille","lat":43.298681,"lon":5.397225,"is_reserved":false,"is_disabled":false,"rental_uris":{"android":"levelo://app?vid=9a427a90-c7eb-49a8-9dff-48a80f0f2ebb","ios":"levelo://app?vid=9a427a90-c7eb-49a8-9dff-48a80f0f2ebb"},"vehicle_type_id":"4","last_reported":1700590198,"current_range_meters":13600,"station_id":"ce4bh0h2rcd13ifvqd50","pricing_plan_id":"free"},{"bike_id":"45afdf19-08f4-4966-812f-f3514ef36e09","system_id":"levelo_inurba_marseille","lat":43.286591,"lon":5.363346,"is_reserved":false,"is_disabled":false,"rental_uris":{"android":"levelo://app?vid=45afdf19-08f4-4966-812f-f3514ef36e09","ios":"levelo://app?vid=45afdf19-08f4-4966-812f-f3514ef36e09"},"vehicle_type_id":"4","last_reported":1700590198,"current_range_meters":7200,"station_id":"ce4bhah2rcd13ifvqej0","pricing_plan_id":"free"},{"bike_id":"b863e321-f076-4886-aef1-9d79143f63df","system_id":"levelo_inurba_marseille","lat":43.29868,"lon":5.39733,"is_reserved":false,"is_disabled":false,"rental_uris":{"android":"levelo://app?vid=b863e321-f076-4886-aef1-9d79143f63df","ios":"levelo://app?vid=b863e321-f076-4886-aef1-9d79143f63df"},"vehicle_type_id":"4","last_reported":1700590198,"current_range_meters":0,"station_id":"ce4bh0h2rcd13ifvqd50","pricing_plan_id":"free"},{"bike_id":"22ea8213-4d84-400c-aece-3f6fd6226cb1","system_id":"levelo_inurba_marseille","lat":43.286591,"lon":5.363346,"is_reserved":false,"is_disabled":false,"rental_uris":{"android":"levelo://app?vid=22ea8213-4d84-400c-aece-3f6fd6226cb1","ios":"levelo://app?vid=22ea8213-4d84-400c-aece-3f6fd6226cb1"},"vehicle_type_id":"4","last_reported":1700590198,"current_range_meters":3600,"station_id":"ce4bhah2rcd13ifvqej0","pricing_plan_id":"free"},{"bike_id":"6f2f2d10-6d86-422d-b6f6-bc37a6a43cbb","system_id":"levelo_inurba_marseille","lat":43.295196,"lon":5.39397,"is_reserved":false,"is_disabled":false,"rental_uris":{"android":"levelo://app?vid=6f2f2d10-6d86-422d-b6f6-bc37a6a43cbb","ios":"levelo://app?vid=6f2f2d10-6d86-422d-b6f6-bc37a6a43cbb"},"vehicle_type_id":"4","last_reported":1700590198,"current_range_meters":14800,"station_id":"ce4bh292rcd13ifvqdf0","pricing_plan_id":"free"},{"bike_id":"4d138e58-b474-4842-92ad-8be8b6e0c20e","system_id":"levelo_inurba_marseille","lat":43.290343,"lon":5.386447,"is_reserved":false,"is_disabled":false,"rental_uris":{"android":"levelo://app?vid=4d138e58-b474-4842-92ad-8be8b6e0c20e","ios":"levelo://app?vid=4d138e58-b474-4842-92ad-8be8b6e0c20e"},"vehicle_type_id":"4","last_reported":1700590198,"current_range_meters":6800,"station_id":"ce4bh4p2rcd13ifvqe0g","pricing_plan_id":"free"},{"bike_id":"5b5f56a5-a60a-407e-9516-b2be8bec5187","system_id":"levelo_inurba_marseille","lat":43.29032,"lon":5.38649,"is_reserved":false,"is_disabled":false,"rental_uris":{"android":"levelo://app?vid=5b5f56a5-a60a-407e-9516-b2be8bec5187","ios":"levelo://app?vid=5b5f56a5-a60a-407e-9516-b2be8bec5187"},"vehicle_type_id":"4","last_reported":1700590198,"current_range_meters":4400,"station_id":"ce4bh4p2rcd13ifvqe0g","pricing_plan_id":"free"},{"bike_id":"529037fd-92a7-4459-9605-20bb4d693516","system_id":"levelo_inurba_marseille","lat":43.302759,"lon":5.400793,"is_reserved":false,"is_disabled":false,"rental_uris":{"android":"levelo://app?vid=529037fd-92a7-4459-9605-20bb4d693516","ios":"levelo://app?vid=529037fd-92a7-4459-9605-20bb4d693516"},"vehicle_type_id":"4","last_reported":1700590198,"current_range_meters":14400,"station_id":"ce4bgvh2rcd13ifvqcs0","pricing_plan_id":"free"},{"bike_id":"587797ad-7dfe-49a2-9404-a32255c8619a","system_id":"levelo_inurba_marseille","lat":43.286152,"lon":5.370623,"is_reserved":false,"is_disabled":false,"rental_uris":{"android":"levelo://app?vid=587797ad-7dfe-49a2-9404-a32255c8619a","ios":"levelo://app?vid=587797ad-7dfe-49a2-9404-a32255c8619a"},"vehicle_type_id":"4","last_reported":1700590198,"current_range_meters":23200,"station_id":"ce4bht12rcd13ifvqi60","pricing_plan_id":"free"},{"bike_id":"103037f0-b8c2-4b7e-bb4e-0c3ed55d65e6","system_id":"levelo_inurba_marseille","lat":43.28612,"lon":5.37072,"is_reserved":false,"is_disabled":false,"rental_uris":{"android":"levelo://app?vid=103037f0-b8c2-4b7e-bb4e-0c3ed55d65e6","ios":"levelo://app?vid=103037f0-b8c2-4b7e-bb4e-0c3ed55d65e6"},"vehicle_type_id":"4","last_reported":1700590198,"current_range_meters":18000,"station_id":"ce4bht12rcd13ifvqi60","pricing_plan_id":"free"},{"bike_id":"e20842cd-8eea-4741-8c73-0475dbb8d81a","system_id":"levelo_inurba_marseille","lat":43.286039,"lon":5.370679,"is_reserved":false,"is_disabled":false,"rental_uris":{"android":"levelo://app?vid=e20842cd-8eea-4741-8c73-0475dbb8d81a","ios":"levelo://app?vid=e20842cd-8eea-4741-8c73-0475dbb8d81a"},"vehicle_type_id":"4","last_reported":1700590198,"current_range_meters":31200,"station_id":"ce4bht12rcd13ifvqi60","pricing_plan_id":"free"},{"bike_id":"83c0c801-ddb0-4011-a067-e9bb464f0d78","system_id":"levelo_inurba_marseille","lat":43.287184,"lon":5.37937,"is_reserved":false,"is_disabled":false,"rental_uris":{"android":"levelo://app?vid=83c0c801-ddb0-4011-a067-e9bb464f0d78","ios":"levelo://app?vid=83c0c801-ddb0-4011-a067-e9bb464f0d78"},"vehicle_type_id":"4","last_reported":1700590198,"current_range_meters":0,"station_id":"ce4bh9p2rcd13ifvqec0","pricing_plan_id":"free"},{"bike_id":"6330ae62-b664-4e6f-b2b3-0c89ac44e1b5","system_id":"levelo_inurba_marseille","lat":43.316447,"lon":5.40437,"is_reserved":false,"is_disabled":false,"rental_uris":{"android":"levelo://app?vid=6330ae62-b664-4e6f-b2b3-0c89ac44e1b5","ios":"levelo://app?vid=6330ae62-b664-4e6f-b2b3-0c89ac44e1b5"},"vehicle_type_id":"4","last_reported":1700590198,"current_range_meters":24400,"station_id":"","pricing_plan_id":"free"},{"bike_id":"a23c57ea-021f-4199-8b91-a2921f0050d0","system_id":"levelo_inurba_marseille","lat":43.316523,"lon":5.404367,"is_reserved":false,"is_disabled":false,"rental_uris":{"android":"levelo://app?vid=a23c57ea-021f-4199-8b91-a2921f0050d0","ios":"levelo://app?vid=a23c57ea-021f-4199-8b91-a2921f0050d0"},"vehicle_type_id":"4","last_reported":1700590198,"current_range_meters":14000,"station_id":"ce4bh012rcd13ifvqd00","pricing_plan_id":"free"},{"bike_id":"e8980e1f-7887-4fa0-9a54-a41af1b6cd5b","system_id":"levelo_inurba_marseille","lat":43.29209,"lon":5.3933,"is_reserved":false,"is_disabled":false,"rental_uris":{"android":"levelo://app?vid=e8980e1f-7887-4fa0-9a54-a41af1b6cd5b","ios":"levelo://app?vid=e8980e1f-7887-4fa0-9a54-a41af1b6cd5b"},"vehicle_type_id":"4","last_reported":1700590198,"current_range_meters":0,"station_id":"ce4bh192rcd13ifvqdd0","pricing_plan_id":"free"},{"bike_id":"b8b7a3f8-1d07-447b-9573-d092026c54e6","system_id":"levelo_inurba_marseille","lat":43.291983,"lon":5.39316,"is_reserved":false,"is_disabled":false,"rental_uris":{"android":"levelo://app?vid=b8b7a3f8-1d07-447b-9573-d092026c54e6","ios":"levelo://app?vid=b8b7a3f8-1d07-447b-9573-d092026c54e6"},"vehicle_type_id":"4","last_reported":1700590198,"current_range_meters":0,"station_id":"ce4bh192rcd13ifvqdd0","pricing_plan_id":"free"},{"bike_id":"c4899c4c-8199-4647-bf2c-fc8c8282ade6","system_id":"levelo_inurba_marseille","lat":43.284538,"lon":5.358657,"is_reserved":false,"is_disabled":false,"rental_uris":{"android":"levelo://app?vid=c4899c4c-8199-4647-bf2c-fc8c8282ade6","ios":"levelo://app?vid=c4899c4c-8199-4647-bf2c-fc8c8282ade6"},"vehicle_type_id":"4","last_reported":1700590198,"current_range_meters":17600,"station_id":"ce4bhah2rcd13ifvqei0","pricing_plan_id":"free"},{"bike_id":"c657ac86-030e-435d-9dcb-b0f1c15fc09d","system_id":"levelo_inurba_marseille","lat":43.284538,"lon":5.358657,"is_reserved":false,"is_disabled":false,"rental_uris":{"android":"levelo://app?vid=c657ac86-030e-435d-9dcb-b0f1c15fc09d","ios":"levelo://app?vid=c657ac86-030e-435d-9dcb-b0f1c15fc09d"},"vehicle_type_id":"4","last_reported":1700590198,"current_range_meters":2000,"station_id":"ce4bhah2rcd13ifvqei0","pricing_plan_id":"free"},{"bike_id":"3c7792f7-7e92-4b8f-bd4a-9b98fdfc5346","system_id":"levelo_inurba_marseille","lat":43.284538,"lon":5.358657,"is_reserved":false,"is_disabled":false,"rental_uris":{"android":"levelo://app?vid=3c7792f7-7e92-4b8f-bd4a-9b98fdfc5346","ios":"levelo://app?vid=3c7792f7-7e92-4b8f-bd4a-9b98fdfc5346"},"vehicle_type_id":"4","last_reported":1700590198,"current_range_meters":12400,"station_id":"ce4bhah2rcd13ifvqei0","pricing_plan_id":"free"},{"bike_id":"a347da8f-70ad-4425-ad6f-903fb940622e","system_id":"levelo_inurba_marseille","lat":43.2846,"lon":5.35883,"is_reserved":false,"is_disabled":false,"rental_uris":{"android":"levelo://app?vid=a347da8f-70ad-4425-ad6f-903fb940622e","ios":"levelo://app?vid=a347da8f-70ad-4425-ad6f-903fb940622e"},"vehicle_type_id":"4","last_reported":1700590198,"current_range_meters":14800,"station_id":"ce4bhah2rcd13ifvqei0","pricing_plan_id":"free"},{"bike_id":"278e215b-8d4d-4543-a0fb-76752307b930","system_id":"levelo_inurba_marseille","lat":43.28458,"lon":5.35884,"is_reserved":false,"is_disabled":false,"rental_uris":{"android":"levelo://app?vid=278e215b-8d4d-4543-a0fb-76752307b930","ios":"levelo://app?vid=278e215b-8d4d-4543-a0fb-76752307b930"},"vehicle_type_id":"4","last_reported":1700590198,"current_range_meters":11200,"station_id":"ce4bhah2rcd13ifvqei0","pricing_plan_id":"free"},{"bike_id":"14fee370-c779-42a1-8157-d1960c06109f","system_id":"levelo_inurba_marseille","lat":43.284534,"lon":5.358662,"is_reserved":false,"is_disabled":false,"rental_uris":{"android":"levelo://app?vid=14fee370-c779-42a1-8157-d1960c06109f","ios":"levelo://app?vid=14fee370-c779-42a1-8157-d1960c06109f"},"vehicle_type_id":"4","last_reported":1700590198,"current_range_meters":21600,"station_id":"ce4bhah2rcd13ifvqei0","pricing_plan_id":"free"},{"bike_id":"08e321f7-bbe4-4d44-b6fa-74440dc5a35e","system_id":"levelo_inurba_marseille","lat":43.294314,"lon":5.397498,"is_reserved":false,"is_disabled":false,"rental_uris":{"android":"levelo://app?vid=08e321f7-bbe4-4d44-b6fa-74440dc5a35e","ios":"levelo://app?vid=08e321f7-bbe4-4d44-b6fa-74440dc5a35e"},"vehicle_type_id":"4","last_reported":1700590198,"current_range_meters":18400,"station_id":"ce4bh3h2rcd13ifvqdo0","pricing_plan_id":"free"},{"bike_id":"9acca36c-4acb-4156-83d3-7f45f0d150b0","system_id":"levelo_inurba_marseille","lat":43.294314,"lon":5.397498,"is_reserved":false,"is_disabled":false,"rental_uris":{"android":"levelo://app?vid=9acca36c-4acb-4156-83d3-7f45f0d150b0","ios":"levelo://app?vid=9acca36c-4acb-4156-83d3-7f45f0d150b0"},"vehicle_type_id":"4","last_reported":1700590198,"current_range_meters":0,"station_id":"ce4bh3h2rcd13ifvqdo0","pricing_plan_id":"free"},{"bike_id":"9ad725ba-8857-4107-98f3-7efac68c7d1d","system_id":"levelo_inurba_marseille","lat":43.285856,"lon":5.350771,"is_reserved":false,"is_disabled":false,"rental_uris":{"android":"levelo://app?vid=9ad725ba-8857-4107-98f3-7efac68c7d1d","ios":"levelo://app?vid=9ad725ba-8857-4107-98f3-7efac68c7d1d"},"vehicle_type_id":"4","last_reported":1700590198,"current_range_meters":16000,"station_id":"ce4bhch2rcd13ifvqeug","pricing_plan_id":"free"},{"bike_id":"ce6948d1-e0ba-432a-8972-6a74ab291470","system_id":"levelo_inurba_marseille","lat":43.28617,"lon":5.35108,"is_reserved":false,"is_disabled":false,"rental_uris":{"android":"levelo://app?vid=ce6948d1-e0ba-432a-8972-6a74ab291470","ios":"levelo://app?vid=ce6948d1-e0ba-432a-8972-6a74ab291470"},"vehicle_type_id":"4","last_reported":1700590198,"current_range_meters":31200,"station_id":"ce4bhch2rcd13ifvqeug","pricing_plan_id":"free"},{"bike_id":"36043778-724e-41cd-9ad0-4790e36fb65d","system_id":"levelo_inurba_marseille","lat":43.28615,"lon":5.35114,"is_reserved":false,"is_disabled":false,"rental_uris":{"android":"levelo://app?vid=36043778-724e-41cd-9ad0-4790e36fb65d","ios":"levelo://app?vid=36043778-724e-41cd-9ad0-4790e36fb65d"},"vehicle_type_id":"4","last_reported":1700590198,"current_range_meters":800,"station_id":"ce4bhch2rcd13ifvqeug","pricing_plan_id":"free"},{"bike_id":"7754355b-46aa-47c2-8444-ad6d06bda7d9","system_id":"levelo_inurba_marseille","lat":43.28617,"lon":5.35105,"is_reserved":false,"is_disabled":false,"rental_uris":{"android":"levelo://app?vid=7754355b-46aa-47c2-8444-ad6d06bda7d9","ios":"levelo://app?vid=7754355b-46aa-47c2-8444-ad6d06bda7d9"},"vehicle_type_id":"4","last_reported":1700590198,"current_range_meters":1600,"station_id":"ce4bhch2rcd13ifvqeug","pricing_plan_id":"free"},{"bike_id":"47d82943-55b7-4d5f-81f3-ba919299497b","system_id":"levelo_inurba_marseille","lat":43.28616,"lon":5.35104,"is_reserved":false,"is_disabled":false,"rental_uris":{"android":"levelo://app?vid=47d82943-55b7-4d5f-81f3-ba919299497b","ios":"levelo://app?vid=47d82943-55b7-4d5f-81f3-ba919299497b"},"vehicle_type_id":"4","last_reported":1700590198,"current_range_meters":2400,"station_id":"ce4bhch2rcd13ifvqeug","pricing_plan_id":"free"},{"bike_id":"93591452-78a8-4deb-aa6d-58319e661151","system_id":"levelo_inurba_marseille","lat":43.286086,"lon":5.351127,"is_reserved":false,"is_disabled":false,"rental_uris":{"android":"levelo://app?vid=93591452-78a8-4deb-aa6d-58319e661151","ios":"levelo://app?vid=93591452-78a8-4deb-aa6d-58319e661151"},"vehicle_type_id":"4","last_reported":1700590198,"current_range_meters":26000,"station_id":"ce4bhch2rcd13ifvqeug","pricing_plan_id":"free"},{"bike_id":"aff2656e-031b-4237-9b06-ed811b24d835","system_id":"levelo_inurba_marseille","lat":43.28611,"lon":5.35103,"is_reserved":false,"is_disabled":false,"rental_uris":{"android":"levelo://app?vid=aff2656e-031b-4237-9b06-ed811b24d835","ios":"levelo://app?vid=aff2656e-031b-4237-9b06-ed811b24d835"},"vehicle_type_id":"4","last_reported":1700590198,"current_range_meters":2000,"station_id":"ce4bhch2rcd13ifvqeug","pricing_plan_id":"free"},{"bike_id":"048c235f-0c9d-48d0-a580-8c9e0281cf7a","system_id":"levelo_inurba_marseille","lat":43.285848,"lon":5.350787,"is_reserved":false,"is_disabled":false,"rental_uris":{"android":"levelo://app?vid=048c235f-0c9d-48d0-a580-8c9e0281cf7a","ios":"levelo://app?vid=048c235f-0c9d-48d0-a580-8c9e0281cf7a"},"vehicle_type_id":"4","last_reported":1700590198,"current_range_meters":8400,"station_id":"ce4bhch2rcd13ifvqeug","pricing_plan_id":"free"},{"bike_id":"b70a713d-7935-402b-ae9b-c2cf3b6d312c","system_id":"levelo_inurba_marseille","lat":43.283998,"lon":5.375062,"is_reserved":false,"is_disabled":false,"rental_uris":{"android":"levelo://app?vid=b70a713d-7935-402b-ae9b-c2cf3b6d312c","ios":"levelo://app?vid=b70a713d-7935-402b-ae9b-c2cf3b6d312c"},"vehicle_type_id":"4","last_reported":1700590198,"current_range_meters":0,"station_id":"ce4bh412rcd13ifvqds0","pricing_plan_id":"free"},{"bike_id":"f60fd27d-7478-46ae-afd8-eea3bfef8f21","system_id":"levelo_inurba_marseille","lat":43.284125,"lon":5.375142,"is_reserved":false,"is_disabled":false,"rental_uris":{"android":"levelo://app?vid=f60fd27d-7478-46ae-afd8-eea3bfef8f21","ios":"levelo://app?vid=f60fd27d-7478-46ae-afd8-eea3bfef8f21"},"vehicle_type_id":"4","last_reported":1700590198,"current_range_meters":30800,"station_id":"","pricing_plan_id":"free"},{"bike_id":"be2e9053-6a07-4690-b43a-c38c714fe3c5","system_id":"levelo_inurba_marseille","lat":43.31894,"lon":5.40739,"is_reserved":false,"is_disabled":false,"rental_uris":{"android":"levelo://app?vid=be2e9053-6a07-4690-b43a-c38c714fe3c5","ios":"levelo://app?vid=be2e9053-6a07-4690-b43a-c38c714fe3c5"},"vehicle_type_id":"4","last_reported":1700590198,"current_range_meters":7200,"station_id":"ce4bhq12rcd13ifvqhig","pricing_plan_id":"free"},{"bike_id":"28377e92-7d0c-4b68-823e-f15e05fe38c6","system_id":"levelo_inurba_marseille","lat":43.28521,"lon":5.38393,"is_reserved":false,"is_disabled":false,"rental_uris":{"android":"levelo://app?vid=28377e92-7d0c-4b68-823e-f15e05fe38c6","ios":"levelo://app?vid=28377e92-7d0c-4b68-823e-f15e05fe38c6"},"vehicle_type_id":"4","last_reported":1700590198,"current_range_meters":26000,"station_id":"","pricing_plan_id":"free"},{"bike_id":"35b19955-8c3e-4374-b999-0b151664b0e8","system_id":"levelo_inurba_marseille","lat":43.33237,"lon":5.3985,"is_reserved":false,"is_disabled":false,"rental_uris":{"android":"levelo://app?vid=35b19955-8c3e-4374-b999-0b151664b0e8","ios":"levelo://app?vid=35b19955-8c3e-4374-b999-0b151664b0e8"},"vehicle_type_id":"4","last_reported":1700590198,"current_range_meters":0,"station_id":"","pricing_plan_id":"free"},{"bike_id":"b4319b18-5548-4691-90e2-2eac47989fae","system_id":"levelo_inurba_marseille","lat":43.323464,"lon":5.406297,"is_reserved":false,"is_disabled":false,"rental_uris":{"android":"levelo://app?vid=b4319b18-5548-4691-90e2-2eac47989fae","ios":"levelo://app?vid=b4319b18-5548-4691-90e2-2eac47989fae"},"vehicle_type_id":"4","last_reported":1700590198,"current_range_meters":28800,"station_id":"ce4bhq92rcd13ifvqhjg","pricing_plan_id":"free"},{"bike_id":"518f8349-77de-4086-a57b-fc5a8d9348e2","system_id":"levelo_inurba_marseille","lat":43.33717,"lon":5.391857,"is_reserved":false,"is_disabled":false,"rental_uris":{"android":"levelo://app?vid=518f8349-77de-4086-a57b-fc5a8d9348e2","ios":"levelo://app?vid=518f8349-77de-4086-a57b-fc5a8d9348e2"},"vehicle_type_id":"4","last_reported":1700590198,"current_range_meters":15200,"station_id":"ce4bhr92rcd13ifvqhsg","pricing_plan_id":"free"},{"bike_id":"04c3deea-b9d8-4de9-bed9-a8e7c63f9f99","system_id":"levelo_inurba_marseille","lat":43.284787,"lon":5.384116,"is_reserved":false,"is_disabled":false,"rental_uris":{"android":"levelo://app?vid=04c3deea-b9d8-4de9-bed9-a8e7c63f9f99","ios":"levelo://app?vid=04c3deea-b9d8-4de9-bed9-a8e7c63f9f99"},"vehicle_type_id":"4","last_reported":1700590198,"current_range_meters":800,"station_id":"ce4bh512rcd13ifvqe3g","pricing_plan_id":"free"},{"bike_id":"e57c9540-512f-4490-8f63-010ef0e8c825","system_id":"levelo_inurba_marseille","lat":43.284219,"lon":5.3497,"is_reserved":false,"is_disabled":false,"rental_uris":{"android":"levelo://app?vid=e57c9540-512f-4490-8f63-010ef0e8c825","ios":"levelo://app?vid=e57c9540-512f-4490-8f63-010ef0e8c825"},"vehicle_type_id":"4","last_reported":1700590198,"current_range_meters":27600,"station_id":"ce4bhbh2rcd13ifvqepg","pricing_plan_id":"free"},{"bike_id":"c8cfd9ab-d3bf-4c62-a1f3-f8793f300892","system_id":"levelo_inurba_marseille","lat":43.284198,"lon":5.34995,"is_reserved":false,"is_disabled":false,"rental_uris":{"android":"levelo://app?vid=c8cfd9ab-d3bf-4c62-a1f3-f8793f300892","ios":"levelo://app?vid=c8cfd9ab-d3bf-4c62-a1f3-f8793f300892"},"vehicle_type_id":"4","last_reported":1700590198,"current_range_meters":29600,"station_id":"ce4bhbh2rcd13ifvqepg","pricing_plan_id":"free"},{"bike_id":"a915fd1c-9128-4c2f-bc4f-b0c446622785","system_id":"levelo_inurba_marseille","lat":43.284217,"lon":5.349697,"is_reserved":false,"is_disabled":false,"rental_uris":{"android":"levelo://app?vid=a915fd1c-9128-4c2f-bc4f-b0c446622785","ios":"levelo://app?vid=a915fd1c-9128-4c2f-bc4f-b0c446622785"},"vehicle_type_id":"4","last_reported":1700590198,"current_range_meters":25600,"station_id":"ce4bhbh2rcd13ifvqepg","pricing_plan_id":"free"},{"bike_id":"5b7cdd23-73b0-4cf3-9475-fd6bd7a5ae01","system_id":"levelo_inurba_marseille","lat":43.283502,"lon":5.386471,"is_reserved":false,"is_disabled":false,"rental_uris":{"android":"levelo://app?vid=5b7cdd23-73b0-4cf3-9475-fd6bd7a5ae01","ios":"levelo://app?vid=5b7cdd23-73b0-4cf3-9475-fd6bd7a5ae01"},"vehicle_type_id":"4","last_reported":1700590198,"current_range_meters":11600,"station_id":"ce4bh492rcd13ifvqdvg","pricing_plan_id":"free"},{"bike_id":"74e481aa-25b5-4f5b-b8cd-79b4a634f242","system_id":"levelo_inurba_marseille","lat":43.282721,"lon":5.350663,"is_reserved":false,"is_disabled":false,"rental_uris":{"android":"levelo://app?vid=74e481aa-25b5-4f5b-b8cd-79b4a634f242","ios":"levelo://app?vid=74e481aa-25b5-4f5b-b8cd-79b4a634f242"},"vehicle_type_id":"4","last_reported":1700590198,"current_range_meters":31200,"station_id":"ce4bhbp2rcd13ifvqerg","pricing_plan_id":"free"},{"bike_id":"749eeb71-b867-46c8-948f-2014966a0a9a","system_id":"levelo_inurba_marseille","lat":43.28039,"lon":5.369297,"is_reserved":false,"is_disabled":false,"rental_uris":{"android":"levelo://app?vid=749eeb71-b867-46c8-948f-2014966a0a9a","ios":"levelo://app?vid=749eeb71-b867-46c8-948f-2014966a0a9a"},"vehicle_type_id":"4","last_reported":1700590198,"current_range_meters":29600,"station_id":"ce4bha12rcd13ifvqef0","pricing_plan_id":"free"},{"bike_id":"5e4ef7db-4482-4feb-8b0a-cd6d841e2690","system_id":"levelo_inurba_marseille","lat":43.28038,"lon":5.36941,"is_reserved":false,"is_disabled":false,"rental_uris":{"android":"levelo://app?vid=5e4ef7db-4482-4feb-8b0a-cd6d841e2690","ios":"levelo://app?vid=5e4ef7db-4482-4feb-8b0a-cd6d841e2690"},"vehicle_type_id":"4","last_reported":1700590198,"current_range_meters":31200,"station_id":"ce4bha12rcd13ifvqef0","pricing_plan_id":"free"},{"bike_id":"aa4139f5-27aa-49e1-a8f1-fc54a1da2de8","system_id":"levelo_inurba_marseille","lat":43.280382,"lon":5.369291,"is_reserved":false,"is_disabled":false,"rental_uris":{"android":"levelo://app?vid=aa4139f5-27aa-49e1-a8f1-fc54a1da2de8","ios":"levelo://app?vid=aa4139f5-27aa-49e1-a8f1-fc54a1da2de8"},"vehicle_type_id":"4","last_reported":1700590198,"current_range_meters":15600,"station_id":"ce4bha12rcd13ifvqef0","pricing_plan_id":"free"},{"bike_id":"eace2be8-2781-4338-ba7d-44b9df37bcb4","system_id":"levelo_inurba_marseille","lat":43.280382,"lon":5.369291,"is_reserved":false,"is_disabled":false,"rental_uris":{"android":"levelo://app?vid=eace2be8-2781-4338-ba7d-44b9df37bcb4","ios":"levelo://app?vid=eace2be8-2781-4338-ba7d-44b9df37bcb4"},"vehicle_type_id":"4","last_reported":1700590198,"current_range_meters":31200,"station_id":"ce4bha12rcd13ifvqef0","pricing_plan_id":"free"},{"bike_id":"951ddd70-982b-4034-b967-38ec419c9aff","system_id":"levelo_inurba_marseille","lat":43.28195,"lon":5.38631,"is_reserved":false,"is_disabled":false,"rental_uris":{"android":"levelo://app?vid=951ddd70-982b-4034-b967-38ec419c9aff","ios":"levelo://app?vid=951ddd70-982b-4034-b967-38ec419c9aff"},"vehicle_type_id":"4","last_reported":1700590198,"current_range_meters":0,"station_id":"","pricing_plan_id":"free"},{"bike_id":"2e5937eb-3afc-4a10-9969-008e2724c397","system_id":"levelo_inurba_marseille","lat":43.304188,"lon":5.412904,"is_reserved":false,"is_disabled":false,"rental_uris":{"android":"levelo://app?vid=2e5937eb-3afc-4a10-9969-008e2724c397","ios":"levelo://app?vid=2e5937eb-3afc-4a10-9969-008e2724c397"},"vehicle_type_id":"4","last_reported":1700590198,"current_range_meters":3600,"station_id":"ce4bhop2rcd13ifvqh8g","pricing_plan_id":"free"},{"bike_id":"3727cb34-759e-44bd-b596-9545a84c188e","system_id":"levelo_inurba_marseille","lat":43.304188,"lon":5.412904,"is_reserved":false,"is_disabled":false,"rental_uris":{"android":"levelo://app?vid=3727cb34-759e-44bd-b596-9545a84c188e","ios":"levelo://app?vid=3727cb34-759e-44bd-b596-9545a84c188e"},"vehicle_type_id":"4","last_reported":1700590198,"current_range_meters":17200,"station_id":"ce4bhop2rcd13ifvqh8g","pricing_plan_id":"free"},{"bike_id":"279dad33-5fb4-4c49-a779-5af15ca87e04","system_id":"levelo_inurba_marseille","lat":43.320045,"lon":5.415046,"is_reserved":false,"is_disabled":false,"rental_uris":{"android":"levelo://app?vid=279dad33-5fb4-4c49-a779-5af15ca87e04","ios":"levelo://app?vid=279dad33-5fb4-4c49-a779-5af15ca87e04"},"vehicle_type_id":"4","last_reported":1700590198,"current_range_meters":24800,"station_id":"ce4bhq92rcd13ifvqhkg","pricing_plan_id":"free"},{"bike_id":"e46e23a9-3617-4d70-b54f-31f6ba3e0fb3","system_id":"levelo_inurba_marseille","lat":43.279742,"lon":5.38744,"is_reserved":false,"is_disabled":false,"rental_uris":{"android":"levelo://app?vid=e46e23a9-3617-4d70-b54f-31f6ba3e0fb3","ios":"levelo://app?vid=e46e23a9-3617-4d70-b54f-31f6ba3e0fb3"},"vehicle_type_id":"4","last_reported":1700590198,"current_range_meters":19600,"station_id":"ce4bhg12rcd13ifvqf80","pricing_plan_id":"free"},{"bike_id":"cf7c6503-d761-4e4a-b826-f55f74848caf","system_id":"levelo_inurba_marseille","lat":43.34879,"lon":5.37515,"is_reserved":false,"is_disabled":false,"rental_uris":{"android":"levelo://app?vid=cf7c6503-d761-4e4a-b826-f55f74848caf","ios":"levelo://app?vid=cf7c6503-d761-4e4a-b826-f55f74848caf"},"vehicle_type_id":"4","last_reported":1700590198,"current_range_meters":8400,"station_id":"","pricing_plan_id":"free"},{"bike_id":"c0a8bed7-94f8-44ad-9d80-02c6c6e2cc5c","system_id":"levelo_inurba_marseille","lat":43.292571,"lon":5.409107,"is_reserved":false,"is_disabled":false,"rental_uris":{"android":"levelo://app?vid=c0a8bed7-94f8-44ad-9d80-02c6c6e2cc5c","ios":"levelo://app?vid=c0a8bed7-94f8-44ad-9d80-02c6c6e2cc5c"},"vehicle_type_id":"4","last_reported":1700590198,"current_range_meters":1200,"station_id":"ce4bh192rcd13ifvqdc0","pricing_plan_id":"free"},{"bike_id":"c34af549-ec51-4e5a-9de7-564822afbc77","system_id":"levelo_inurba_marseille","lat":43.292569,"lon":5.409107,"is_reserved":false,"is_disabled":false,"rental_uris":{"android":"levelo://app?vid=c34af549-ec51-4e5a-9de7-564822afbc77","ios":"levelo://app?vid=c34af549-ec51-4e5a-9de7-564822afbc77"},"vehicle_type_id":"4","last_reported":1700590198,"current_range_meters":2000,"station_id":"ce4bh192rcd13ifvqdc0","pricing_plan_id":"free"},{"bike_id":"f678cdc0-392e-4fc2-a2f8-3a65f659145b","system_id":"levelo_inurba_marseille","lat":43.325233,"lon":5.414318,"is_reserved":false,"is_disabled":false,"rental_uris":{"android":"levelo://app?vid=f678cdc0-392e-4fc2-a2f8-3a65f659145b","ios":"levelo://app?vid=f678cdc0-392e-4fc2-a2f8-3a65f659145b"},"vehicle_type_id":"4","last_reported":1700590198,"current_range_meters":30000,"station_id":"ce4bhq12rcd13ifvqhhg","pricing_plan_id":"free"},{"bike_id":"d3e9b55e-a2d6-4c76-b819-d87fb9bd45d4","system_id":"levelo_inurba_marseille","lat":43.292569,"lon":5.409107,"is_reserved":false,"is_disabled":false,"rental_uris":{"android":"levelo://app?vid=d3e9b55e-a2d6-4c76-b819-d87fb9bd45d4","ios":"levelo://app?vid=d3e9b55e-a2d6-4c76-b819-d87fb9bd45d4"},"vehicle_type_id":"4","last_reported":1700590198,"current_range_meters":3600,"station_id":"ce4bh192rcd13ifvqdc0","pricing_plan_id":"free"},{"bike_id":"86d884c0-a3a8-4700-9847-4071ac481886","system_id":"levelo_inurba_marseille","lat":43.292571,"lon":5.409107,"is_reserved":false,"is_disabled":false,"rental_uris":{"android":"levelo://app?vid=86d884c0-a3a8-4700-9847-4071ac481886","ios":"levelo://app?vid=86d884c0-a3a8-4700-9847-4071ac481886"},"vehicle_type_id":"4","last_reported":1700590198,"current_range_meters":8800,"station_id":"ce4bh192rcd13ifvqdc0","pricing_plan_id":"free"},{"bike_id":"7b89c6fa-adec-4e03-98ee-028560c8de63","system_id":"levelo_inurba_marseille","lat":43.292569,"lon":5.409107,"is_reserved":false,"is_disabled":false,"rental_uris":{"android":"levelo://app?vid=7b89c6fa-adec-4e03-98ee-028560c8de63","ios":"levelo://app?vid=7b89c6fa-adec-4e03-98ee-028560c8de63"},"vehicle_type_id":"4","last_reported":1700590198,"current_range_meters":5600,"station_id":"ce4bh192rcd13ifvqdc0","pricing_plan_id":"free"},{"bike_id":"49024806-c06d-4463-851b-ad62cca233b9","system_id":"levelo_inurba_marseille","lat":43.292569,"lon":5.409107,"is_reserved":false,"is_disabled":false,"rental_uris":{"android":"levelo://app?vid=49024806-c06d-4463-851b-ad62cca233b9","ios":"levelo://app?vid=49024806-c06d-4463-851b-ad62cca233b9"},"vehicle_type_id":"4","last_reported":1700590198,"current_range_meters":2800,"station_id":"ce4bh192rcd13ifvqdc0","pricing_plan_id":"free"},{"bike_id":"18feebc6-e661-4e49-8424-6eddad3fea38","system_id":"levelo_inurba_marseille","lat":43.292569,"lon":5.409107,"is_reserved":false,"is_disabled":false,"rental_uris":{"android":"levelo://app?vid=18feebc6-e661-4e49-8424-6eddad3fea38","ios":"levelo://app?vid=18feebc6-e661-4e49-8424-6eddad3fea38"},"vehicle_type_id":"4","last_reported":1700590198,"current_range_meters":0,"station_id":"ce4bh192rcd13ifvqdc0","pricing_plan_id":"free"},{"bike_id":"ee2e4374-605a-4479-900f-be85cd367db6","system_id":"levelo_inurba_marseille","lat":43.292571,"lon":5.409107,"is_reserved":false,"is_disabled":false,"rental_uris":{"android":"levelo://app?vid=ee2e4374-605a-4479-900f-be85cd367db6","ios":"levelo://app?vid=ee2e4374-605a-4479-900f-be85cd367db6"},"vehicle_type_id":"4","last_reported":1700590198,"current_range_meters":2000,"station_id":"ce4bh192rcd13ifvqdc0","pricing_plan_id":"free"},{"bike_id":"fc59d73e-08c5-4314-8a50-83953dfb7866","system_id":"levelo_inurba_marseille","lat":43.27618,"lon":5.361009,"is_reserved":false,"is_disabled":false,"rental_uris":{"android":"levelo://app?vid=fc59d73e-08c5-4314-8a50-83953dfb7866","ios":"levelo://app?vid=fc59d73e-08c5-4314-8a50-83953dfb7866"},"vehicle_type_id":"4","last_reported":1700590198,"current_range_meters":0,"station_id":"ce4bgj92rcd13ifvqbe0","pricing_plan_id":"free"},{"bike_id":"575f6183-a44c-45c0-afbc-43a682629a50","system_id":"levelo_inurba_marseille","lat":43.280784,"lon":5.396622,"is_reserved":false,"is_disabled":false,"rental_uris":{"android":"levelo://app?vid=575f6183-a44c-45c0-afbc-43a682629a50","ios":"levelo://app?vid=575f6183-a44c-45c0-afbc-43a682629a50"},"vehicle_type_id":"4","last_reported":1700590198,"current_range_meters":14000,"station_id":"ce4bho12rcd13ifvqh2g","pricing_plan_id":"free"},{"bike_id":"9ba92199-ca58-41ea-93d8-68487ad5b0ab","system_id":"levelo_inurba_marseille","lat":43.303837,"lon":5.418724,"is_reserved":false,"is_disabled":false,"rental_uris":{"android":"levelo://app?vid=9ba92199-ca58-41ea-93d8-68487ad5b0ab","ios":"levelo://app?vid=9ba92199-ca58-41ea-93d8-68487ad5b0ab"},"vehicle_type_id":"4","last_reported":1700590198,"current_range_meters":7200,"station_id":"ce4bhop2rcd13ifvqh7g","pricing_plan_id":"free"},{"bike_id":"29b7fa43-d9a4-4df2-84cc-af4f7c0dece7","system_id":"levelo_inurba_marseille","lat":43.278401,"lon":5.392152,"is_reserved":false,"is_disabled":false,"rental_uris":{"android":"levelo://app?vid=29b7fa43-d9a4-4df2-84cc-af4f7c0dece7","ios":"levelo://app?vid=29b7fa43-d9a4-4df2-84cc-af4f7c0dece7"},"vehicle_type_id":"4","last_reported":1700590198,"current_range_meters":14400,"station_id":"ce4bhjp2rcd13ifvqga0","pricing_plan_id":"free"},{"bike_id":"c8c07ed7-f98d-4fcf-a60c-91e50b8ae939","system_id":"levelo_inurba_marseille","lat":43.278401,"lon":5.392152,"is_reserved":false,"is_disabled":false,"rental_uris":{"android":"levelo://app?vid=c8c07ed7-f98d-4fcf-a60c-91e50b8ae939","ios":"levelo://app?vid=c8c07ed7-f98d-4fcf-a60c-91e50b8ae939"},"vehicle_type_id":"4","last_reported":1700590198,"current_range_meters":2400,"station_id":"ce4bhjp2rcd13ifvqga0","pricing_plan_id":"free"},{"bike_id":"359f3563-e593-4dde-8dc3-113cd9f828b9","system_id":"levelo_inurba_marseille","lat":43.276769,"lon":5.388787,"is_reserved":false,"is_disabled":false,"rental_uris":{"android":"levelo://app?vid=359f3563-e593-4dde-8dc3-113cd9f828b9","ios":"levelo://app?vid=359f3563-e593-4dde-8dc3-113cd9f828b9"},"vehicle_type_id":"4","last_reported":1700590198,"current_range_meters":13600,"station_id":"ce4bhi12rcd13ifvqfo0","pricing_plan_id":"free"},{"bike_id":"57c3f3f4-0cd5-4104-9546-deca7ce974c9","system_id":"levelo_inurba_marseille","lat":43.28007,"lon":5.4001,"is_reserved":false,"is_disabled":false,"rental_uris":{"android":"levelo://app?vid=57c3f3f4-0cd5-4104-9546-deca7ce974c9","ios":"levelo://app?vid=57c3f3f4-0cd5-4104-9546-deca7ce974c9"},"vehicle_type_id":"4","last_reported":1700590198,"current_range_meters":11200,"station_id":"ce4bho92rcd13ifvqh4g","pricing_plan_id":"free"},{"bike_id":"9f0c418d-62e7-45d4-87d2-6c8423eebd87","system_id":"levelo_inurba_marseille","lat":43.28001,"lon":5.40022,"is_reserved":false,"is_disabled":false,"rental_uris":{"android":"levelo://app?vid=9f0c418d-62e7-45d4-87d2-6c8423eebd87","ios":"levelo://app?vid=9f0c418d-62e7-45d4-87d2-6c8423eebd87"},"vehicle_type_id":"4","last_reported":1700590198,"current_range_meters":7200,"station_id":"ce4bho92rcd13ifvqh4g","pricing_plan_id":"free"},{"bike_id":"114187af-32af-4dba-9a5b-7cf8db15d20c","system_id":"levelo_inurba_marseille","lat":43.31083,"lon":5.42431,"is_reserved":false,"is_disabled":false,"rental_uris":{"android":"levelo://app?vid=114187af-32af-4dba-9a5b-7cf8db15d20c","ios":"levelo://app?vid=114187af-32af-4dba-9a5b-7cf8db15d20c"},"vehicle_type_id":"4","last_reported":1700590198,"current_range_meters":26400,"station_id":"ce4bhp92rcd13ifvqhag","pricing_plan_id":"free"},{"bike_id":"ac9bf6a1-c96f-4133-87a6-52d4b07e03ea","system_id":"levelo_inurba_marseille","lat":43.317121,"lon":5.423936,"is_reserved":false,"is_disabled":false,"rental_uris":{"android":"levelo://app?vid=ac9bf6a1-c96f-4133-87a6-52d4b07e03ea","ios":"levelo://app?vid=ac9bf6a1-c96f-4133-87a6-52d4b07e03ea"},"vehicle_type_id":"4","last_reported":1700590198,"current_range_meters":5600,"station_id":"ce4bhp92rcd13ifvqhbg","pricing_plan_id":"free"},{"bike_id":"80558438-7626-4712-a279-7b8c71db9e90","system_id":"levelo_inurba_marseille","lat":43.273129,"lon":5.390725,"is_reserved":false,"is_disabled":false,"rental_uris":{"android":"levelo://app?vid=80558438-7626-4712-a279-7b8c71db9e90","ios":"levelo://app?vid=80558438-7626-4712-a279-7b8c71db9e90"},"vehicle_type_id":"4","last_reported":1700590198,"current_range_meters":9200,"station_id":"ce4bhgp2rcd13ifvqfe0","pricing_plan_id":"free"},{"bike_id":"2e782566-b68d-457e-a61b-0e85a264cbc4","system_id":"levelo_inurba_marseille","lat":43.30414,"lon":5.42539,"is_reserved":false,"is_disabled":false,"rental_uris":{"android":"levelo://app?vid=2e782566-b68d-457e-a61b-0e85a264cbc4","ios":"levelo://app?vid=2e782566-b68d-457e-a61b-0e85a264cbc4"},"vehicle_type_id":"4","last_reported":1700590198,"current_range_meters":0,"station_id":"ce4bhoh2rcd13ifvqh6g","pricing_plan_id":"free"},{"bike_id":"d63f0213-db4d-4ade-9fb5-b0161bcbc51a","system_id":"levelo_inurba_marseille","lat":43.272863,"lon":5.391858,"is_reserved":false,"is_disabled":false,"rental_uris":{"android":"levelo://app?vid=d63f0213-db4d-4ade-9fb5-b0161bcbc51a","ios":"levelo://app?vid=d63f0213-db4d-4ade-9fb5-b0161bcbc51a"},"vehicle_type_id":"4","last_reported":1700590198,"current_range_meters":0,"station_id":"","pricing_plan_id":"free"},{"bike_id":"657308f0-eca1-415d-bef3-f99f42ab96d1","system_id":"levelo_inurba_marseille","lat":43.295523,"lon":5.422926,"is_reserved":false,"is_disabled":false,"rental_uris":{"android":"levelo://app?vid=657308f0-eca1-415d-bef3-f99f42ab96d1","ios":"levelo://app?vid=657308f0-eca1-415d-bef3-f99f42ab96d1"},"vehicle_type_id":"4","last_reported":1700590198,"current_range_meters":6000,"station_id":"ce4bhph2rcd13ifvqhdg","pricing_plan_id":"free"},{"bike_id":"a8f27f35-4adb-4c21-92aa-4cf3b65c36f9","system_id":"levelo_inurba_marseille","lat":43.295511,"lon":5.422926,"is_reserved":false,"is_disabled":false,"rental_uris":{"android":"levelo://app?vid=a8f27f35-4adb-4c21-92aa-4cf3b65c36f9","ios":"levelo://app?vid=a8f27f35-4adb-4c21-92aa-4cf3b65c36f9"},"vehicle_type_id":"4","last_reported":1700590198,"current_range_meters":25200,"station_id":"ce4bhph2rcd13ifvqhdg","pricing_plan_id":"free"},{"bike_id":"64a501a1-0f50-4dd6-b043-6e9c80d52d41","system_id":"levelo_inurba_marseille","lat":43.272116,"lon":5.391747,"is_reserved":false,"is_disabled":false,"rental_uris":{"android":"levelo://app?vid=64a501a1-0f50-4dd6-b043-6e9c80d52d41","ios":"levelo://app?vid=64a501a1-0f50-4dd6-b043-6e9c80d52d41"},"vehicle_type_id":"4","last_reported":1700590198,"current_range_meters":0,"station_id":"ce4bhhp2rcd13ifvqfm0","pricing_plan_id":"free"},{"bike_id":"d0bb53f7-f1b8-4609-a668-27efdac67f66","system_id":"levelo_inurba_marseille","lat":43.27198,"lon":5.3925,"is_reserved":false,"is_disabled":false,"rental_uris":{"android":"levelo://app?vid=d0bb53f7-f1b8-4609-a668-27efdac67f66","ios":"levelo://app?vid=d0bb53f7-f1b8-4609-a668-27efdac67f66"},"vehicle_type_id":"4","last_reported":1700590198,"current_range_meters":0,"station_id":"","pricing_plan_id":"free"},{"bike_id":"cbc2fb9f-e1d7-438a-87af-611b36f7eeb3","system_id":"levelo_inurba_marseille","lat":43.271891,"lon":5.392412,"is_reserved":false,"is_disabled":false,"rental_uris":{"android":"levelo://app?vid=cbc2fb9f-e1d7-438a-87af-611b36f7eeb3","ios":"levelo://app?vid=cbc2fb9f-e1d7-438a-87af-611b36f7eeb3"},"vehicle_type_id":"4","last_reported":1700590198,"current_range_meters":0,"station_id":"","pricing_plan_id":"free"},{"bike_id":"40ea8d20-e1e8-4699-9b63-d1b183b7bf9f","system_id":"levelo_inurba_marseille","lat":43.269467,"lon":5.386439,"is_reserved":false,"is_disabled":false,"rental_uris":{"android":"levelo://app?vid=40ea8d20-e1e8-4699-9b63-d1b183b7bf9f","ios":"levelo://app?vid=40ea8d20-e1e8-4699-9b63-d1b183b7bf9f"},"vehicle_type_id":"4","last_reported":1700590198,"current_range_meters":18800,"station_id":"ce4bhh92rcd13ifvqfh0","pricing_plan_id":"free"},{"bike_id":"a60b77c7-3f81-4588-9dfb-3afe59879bd7","system_id":"levelo_inurba_marseille","lat":43.27945,"lon":5.41045,"is_reserved":false,"is_disabled":false,"rental_uris":{"android":"levelo://app?vid=a60b77c7-3f81-4588-9dfb-3afe59879bd7","ios":"levelo://app?vid=a60b77c7-3f81-4588-9dfb-3afe59879bd7"},"vehicle_type_id":"4","last_reported":1700590198,"current_range_meters":1600,"station_id":"ce4bhnp2rcd13ifvqh0g","pricing_plan_id":"free"},{"bike_id":"a142b472-e6e4-4e84-8d67-6af2b6160ddc","system_id":"levelo_inurba_marseille","lat":43.269319,"lon":5.389397,"is_reserved":false,"is_disabled":false,"rental_uris":{"android":"levelo://app?vid=a142b472-e6e4-4e84-8d67-6af2b6160ddc","ios":"levelo://app?vid=a142b472-e6e4-4e84-8d67-6af2b6160ddc"},"vehicle_type_id":"4","last_reported":1700590198,"current_range_meters":4800,"station_id":"ce4bhhh2rcd13ifvqfl0","pricing_plan_id":"free"},{"bike_id":"be19b6bc-3f21-490e-92b7-2ed7d476706b","system_id":"levelo_inurba_marseille","lat":43.26565,"lon":5.37287,"is_reserved":false,"is_disabled":false,"rental_uris":{"android":"levelo://app?vid=be19b6bc-3f21-490e-92b7-2ed7d476706b","ios":"levelo://app?vid=be19b6bc-3f21-490e-92b7-2ed7d476706b"},"vehicle_type_id":"4","last_reported":1700590198,"current_range_meters":23200,"station_id":"ce4bhg12rcd13ifvqf70","pricing_plan_id":"free"},{"bike_id":"a6f1d0fe-57ac-4cb4-b1f3-6d4a6a8ed399","system_id":"levelo_inurba_marseille","lat":43.26556,"lon":5.37289,"is_reserved":false,"is_disabled":false,"rental_uris":{"android":"levelo://app?vid=a6f1d0fe-57ac-4cb4-b1f3-6d4a6a8ed399","ios":"levelo://app?vid=a6f1d0fe-57ac-4cb4-b1f3-6d4a6a8ed399"},"vehicle_type_id":"4","last_reported":1700590198,"current_range_meters":24800,"station_id":"ce4bhg12rcd13ifvqf70","pricing_plan_id":"free"},{"bike_id":"26f58e22-b859-4a1b-9d04-c1d78467a686","system_id":"levelo_inurba_marseille","lat":43.265714,"lon":5.372891,"is_reserved":false,"is_disabled":false,"rental_uris":{"android":"levelo://app?vid=26f58e22-b859-4a1b-9d04-c1d78467a686","ios":"levelo://app?vid=26f58e22-b859-4a1b-9d04-c1d78467a686"},"vehicle_type_id":"4","last_reported":1700590198,"current_range_meters":0,"station_id":"ce4bhg12rcd13ifvqf70","pricing_plan_id":"free"},{"bike_id":"28e8ce00-6b21-4e06-9930-c7c4408cc650","system_id":"levelo_inurba_marseille","lat":43.326174,"lon":5.430584,"is_reserved":false,"is_disabled":false,"rental_uris":{"android":"levelo://app?vid=28e8ce00-6b21-4e06-9930-c7c4408cc650","ios":"levelo://app?vid=28e8ce00-6b21-4e06-9930-c7c4408cc650"},"vehicle_type_id":"4","last_reported":1700590198,"current_range_meters":9600,"station_id":"","pricing_plan_id":"free"},{"bike_id":"6e8b6b42-7a90-488e-a979-5fdede71a9f7","system_id":"levelo_inurba_marseille","lat":43.27996,"lon":5.416624,"is_reserved":false,"is_disabled":false,"rental_uris":{"android":"levelo://app?vid=6e8b6b42-7a90-488e-a979-5fdede71a9f7","ios":"levelo://app?vid=6e8b6b42-7a90-488e-a979-5fdede71a9f7"},"vehicle_type_id":"4","last_reported":1700590198,"current_range_meters":6800,"station_id":"ce4bho12rcd13ifvqh1g","pricing_plan_id":"free"},{"bike_id":"46d77f67-0e3b-4d8d-8f6f-944fed8ff5d2","system_id":"levelo_inurba_marseille","lat":43.267966,"lon":5.393976,"is_reserved":false,"is_disabled":false,"rental_uris":{"android":"levelo://app?vid=46d77f67-0e3b-4d8d-8f6f-944fed8ff5d2","ios":"levelo://app?vid=46d77f67-0e3b-4d8d-8f6f-944fed8ff5d2"},"vehicle_type_id":"4","last_reported":1700590198,"current_range_meters":0,"station_id":"ce4bhh12rcd13ifvqfg0","pricing_plan_id":"free"},{"bike_id":"b917c19a-863c-40d8-aae1-dce47c94bffa","system_id":"levelo_inurba_marseille","lat":43.27013,"lon":5.40152,"is_reserved":false,"is_disabled":false,"rental_uris":{"android":"levelo://app?vid=b917c19a-863c-40d8-aae1-dce47c94bffa","ios":"levelo://app?vid=b917c19a-863c-40d8-aae1-dce47c94bffa"},"vehicle_type_id":"4","last_reported":1700590198,"current_range_meters":20000,"station_id":"","pricing_plan_id":"free"},{"bike_id":"52c40919-08ef-450d-8358-31df6bc23d2e","system_id":"levelo_inurba_marseille","lat":43.26729,"lon":5.3942,"is_reserved":false,"is_disabled":false,"rental_uris":{"android":"levelo://app?vid=52c40919-08ef-450d-8358-31df6bc23d2e","ios":"levelo://app?vid=52c40919-08ef-450d-8358-31df6bc23d2e"},"vehicle_type_id":"4","last_reported":1700590198,"current_range_meters":6400,"station_id":"","pricing_plan_id":"free"},{"bike_id":"04bcb6df-bb21-45d0-b2a0-827a6c5e8f55","system_id":"levelo_inurba_marseille","lat":43.26577,"lon":5.39011,"is_reserved":false,"is_disabled":false,"rental_uris":{"android":"levelo://app?vid=04bcb6df-bb21-45d0-b2a0-827a6c5e8f55","ios":"levelo://app?vid=04bcb6df-bb21-45d0-b2a0-827a6c5e8f55"},"vehicle_type_id":"4","last_reported":1700590198,"current_range_meters":23200,"station_id":"ce4bhe12rcd13ifvqf30","pricing_plan_id":"free"},{"bike_id":"b43af751-b90e-4f3d-a38e-1cb48838cfbf","system_id":"levelo_inurba_marseille","lat":43.265569,"lon":5.390047,"is_reserved":false,"is_disabled":false,"rental_uris":{"android":"levelo://app?vid=b43af751-b90e-4f3d-a38e-1cb48838cfbf","ios":"levelo://app?vid=b43af751-b90e-4f3d-a38e-1cb48838cfbf"},"vehicle_type_id":"4","last_reported":1700590198,"current_range_meters":23200,"station_id":"ce4bhe12rcd13ifvqf30","pricing_plan_id":"free"},{"bike_id":"316df316-a65c-4b23-899b-25e0fd4f2213","system_id":"levelo_inurba_marseille","lat":43.308051,"lon":5.43527,"is_reserved":false,"is_disabled":false,"rental_uris":{"android":"levelo://app?vid=316df316-a65c-4b23-899b-25e0fd4f2213","ios":"levelo://app?vid=316df316-a65c-4b23-899b-25e0fd4f2213"},"vehicle_type_id":"4","last_reported":1700590198,"current_range_meters":23200,"station_id":"ce4bhph2rcd13ifvqheg","pricing_plan_id":"free"},{"bike_id":"1f6b953e-5841-4f5b-9a7b-9e601ebef2cc","system_id":"levelo_inurba_marseille","lat":43.30798,"lon":5.4353,"is_reserved":false,"is_disabled":false,"rental_uris":{"android":"levelo://app?vid=1f6b953e-5841-4f5b-9a7b-9e601ebef2cc","ios":"levelo://app?vid=1f6b953e-5841-4f5b-9a7b-9e601ebef2cc"},"vehicle_type_id":"4","last_reported":1700590198,"current_range_meters":24400,"station_id":"ce4bhph2rcd13ifvqheg","pricing_plan_id":"free"},{"bike_id":"219abeb8-d7d5-4fe0-ba05-6b678f7b2ea9","system_id":"levelo_inurba_marseille","lat":43.26566,"lon":5.39011,"is_reserved":false,"is_disabled":false,"rental_uris":{"android":"levelo://app?vid=219abeb8-d7d5-4fe0-ba05-6b678f7b2ea9","ios":"levelo://app?vid=219abeb8-d7d5-4fe0-ba05-6b678f7b2ea9"},"vehicle_type_id":"4","last_reported":1700590198,"current_range_meters":1600,"station_id":"ce4bhe12rcd13ifvqf30","pricing_plan_id":"free"},{"bike_id":"a6111f98-58fd-46c4-bf52-f72df172ff51","system_id":"levelo_inurba_marseille","lat":43.26565,"lon":5.39018,"is_reserved":false,"is_disabled":false,"rental_uris":{"android":"levelo://app?vid=a6111f98-58fd-46c4-bf52-f72df172ff51","ios":"levelo://app?vid=a6111f98-58fd-46c4-bf52-f72df172ff51"},"vehicle_type_id":"4","last_reported":1700590198,"current_range_meters":21200,"station_id":"ce4bhe12rcd13ifvqf30","pricing_plan_id":"free"},{"bike_id":"49854118-5235-44c4-a940-6bfdc7c147ce","system_id":"levelo_inurba_marseille","lat":43.26561,"lon":5.39019,"is_reserved":false,"is_disabled":false,"rental_uris":{"android":"levelo://app?vid=49854118-5235-44c4-a940-6bfdc7c147ce","ios":"levelo://app?vid=49854118-5235-44c4-a940-6bfdc7c147ce"},"vehicle_type_id":"4","last_reported":1700590198,"current_range_meters":9600,"station_id":"ce4bhe12rcd13ifvqf30","pricing_plan_id":"free"},{"bike_id":"983d65d0-c9e3-4975-8162-8fdc70048bd3","system_id":"levelo_inurba_marseille","lat":43.26942,"lon":5.40244,"is_reserved":false,"is_disabled":false,"rental_uris":{"android":"levelo://app?vid=983d65d0-c9e3-4975-8162-8fdc70048bd3","ios":"levelo://app?vid=983d65d0-c9e3-4975-8162-8fdc70048bd3"},"vehicle_type_id":"4","last_reported":1700590198,"current_range_meters":27200,"station_id":"cjm6bp8fraef2m0cb0m0","pricing_plan_id":"free"},{"bike_id":"ff47fc42-b2f7-4bbf-b4da-871091bb0edc","system_id":"levelo_inurba_marseille","lat":43.26941,"lon":5.4025,"is_reserved":false,"is_disabled":false,"rental_uris":{"android":"levelo://app?vid=ff47fc42-b2f7-4bbf-b4da-871091bb0edc","ios":"levelo://app?vid=ff47fc42-b2f7-4bbf-b4da-871091bb0edc"},"vehicle_type_id":"4","last_reported":1700590198,"current_range_meters":20400,"station_id":"cjm6bp8fraef2m0cb0m0","pricing_plan_id":"free"},{"bike_id":"d5d21d9f-534b-4ecf-b092-ea0f0a9db776","system_id":"levelo_inurba_marseille","lat":43.317104,"lon":5.436818,"is_reserved":false,"is_disabled":false,"rental_uris":{"android":"levelo://app?vid=d5d21d9f-534b-4ecf-b092-ea0f0a9db776","ios":"levelo://app?vid=d5d21d9f-534b-4ecf-b092-ea0f0a9db776"},"vehicle_type_id":"4","last_reported":1700590198,"current_range_meters":13600,"station_id":"ce4bhp92rcd13ifvqhcg","pricing_plan_id":"free"},{"bike_id":"fd5dd9e8-cfd0-4ce6-854a-4ac8c1de818e","system_id":"levelo_inurba_marseille","lat":43.268075,"lon":5.402785,"is_reserved":false,"is_disabled":false,"rental_uris":{"android":"levelo://app?vid=fd5dd9e8-cfd0-4ce6-854a-4ac8c1de818e","ios":"levelo://app?vid=fd5dd9e8-cfd0-4ce6-854a-4ac8c1de818e"},"vehicle_type_id":"4","last_reported":1700590198,"current_range_meters":9200,"station_id":"ce501612rcd8frsf0b60","pricing_plan_id":"free"},{"bike_id":"abe0b61a-45b1-46bb-bdec-1b72bb7265cd","system_id":"levelo_inurba_marseille","lat":43.267959,"lon":5.402685,"is_reserved":false,"is_disabled":false,"rental_uris":{"android":"levelo://app?vid=abe0b61a-45b1-46bb-bdec-1b72bb7265cd","ios":"levelo://app?vid=abe0b61a-45b1-46bb-bdec-1b72bb7265cd"},"vehicle_type_id":"4","last_reported":1700590198,"current_range_meters":5200,"station_id":"ce501612rcd8frsf0b60","pricing_plan_id":"free"},{"bike_id":"cb16d7ee-4d8d-44c4-bc7a-142b1234ab63","system_id":"levelo_inurba_marseille","lat":43.31725,"lon":5.43786,"is_reserved":false,"is_disabled":false,"rental_uris":{"android":"levelo://app?vid=cb16d7ee-4d8d-44c4-bc7a-142b1234ab63","ios":"levelo://app?vid=cb16d7ee-4d8d-44c4-bc7a-142b1234ab63"},"vehicle_type_id":"4","last_reported":1700590198,"current_range_meters":6000,"station_id":"","pricing_plan_id":"free"},{"bike_id":"49a31422-5d81-4e67-953b-55705c98f239","system_id":"levelo_inurba_marseille","lat":43.279707,"lon":5.422413,"is_reserved":false,"is_disabled":false,"rental_uris":{"android":"levelo://app?vid=49a31422-5d81-4e67-953b-55705c98f239","ios":"levelo://app?vid=49a31422-5d81-4e67-953b-55705c98f239"},"vehicle_type_id":"4","last_reported":1700590198,"current_range_meters":28400,"station_id":"","pricing_plan_id":"free"},{"bike_id":"08fe1057-f796-44fc-8436-36a631179caa","system_id":"levelo_inurba_marseille","lat":43.298768,"lon":5.43643,"is_reserved":false,"is_disabled":false,"rental_uris":{"android":"levelo://app?vid=08fe1057-f796-44fc-8436-36a631179caa","ios":"levelo://app?vid=08fe1057-f796-44fc-8436-36a631179caa"},"vehicle_type_id":"4","last_reported":1700590198,"current_range_meters":31200,"station_id":"ce4bhpp2rcd13ifvqhfg","pricing_plan_id":"free"},{"bike_id":"301a69a6-6c81-400d-a329-74c05904f5b5","system_id":"levelo_inurba_marseille","lat":43.298768,"lon":5.43643,"is_reserved":false,"is_disabled":false,"rental_uris":{"android":"levelo://app?vid=301a69a6-6c81-400d-a329-74c05904f5b5","ios":"levelo://app?vid=301a69a6-6c81-400d-a329-74c05904f5b5"},"vehicle_type_id":"4","last_reported":1700590198,"current_range_meters":24000,"station_id":"ce4bhpp2rcd13ifvqhfg","pricing_plan_id":"free"},{"bike_id":"6b8cd555-dbb1-421d-b9b4-a57dcb241750","system_id":"levelo_inurba_marseille","lat":43.26032,"lon":5.37549,"is_reserved":false,"is_disabled":false,"rental_uris":{"android":"levelo://app?vid=6b8cd555-dbb1-421d-b9b4-a57dcb241750","ios":"levelo://app?vid=6b8cd555-dbb1-421d-b9b4-a57dcb241750"},"vehicle_type_id":"4","last_reported":1700590198,"current_range_meters":0,"station_id":"ce4bhgh2rcd13ifvqfa0","pricing_plan_id":"free"},{"bike_id":"ca016d2d-652d-42a1-9d16-7e2e62444d33","system_id":"levelo_inurba_marseille","lat":43.260219,"lon":5.37546,"is_reserved":false,"is_disabled":false,"rental_uris":{"android":"levelo://app?vid=ca016d2d-652d-42a1-9d16-7e2e62444d33","ios":"levelo://app?vid=ca016d2d-652d-42a1-9d16-7e2e62444d33"},"vehicle_type_id":"4","last_reported":1700590198,"current_range_meters":3600,"station_id":"ce4bhgh2rcd13ifvqfa0","pricing_plan_id":"free"},{"bike_id":"90ad1b5d-7b4c-434f-a94f-cd6d93ac449c","system_id":"levelo_inurba_marseille","lat":43.281548,"lon":5.42643,"is_reserved":false,"is_disabled":false,"rental_uris":{"android":"levelo://app?vid=90ad1b5d-7b4c-434f-a94f-cd6d93ac449c","ios":"levelo://app?vid=90ad1b5d-7b4c-434f-a94f-cd6d93ac449c"},"vehicle_type_id":"4","last_reported":1700590198,"current_range_meters":4000,"station_id":"ce4bhnh2rcd13ifvqgug","pricing_plan_id":"free"},{"bike_id":"25cb3544-0c3b-413e-ab1c-6d94fb1ac8ba","system_id":"levelo_inurba_marseille","lat":43.281548,"lon":5.42643,"is_reserved":false,"is_disabled":false,"rental_uris":{"android":"levelo://app?vid=25cb3544-0c3b-413e-ab1c-6d94fb1ac8ba","ios":"levelo://app?vid=25cb3544-0c3b-413e-ab1c-6d94fb1ac8ba"},"vehicle_type_id":"4","last_reported":1700590198,"current_range_meters":6800,"station_id":"ce4bhnh2rcd13ifvqgug","pricing_plan_id":"free"},{"bike_id":"452759b4-c286-4483-84d0-0b2a4447ae8b","system_id":"levelo_inurba_marseille","lat":43.28157,"lon":5.42644,"is_reserved":false,"is_disabled":false,"rental_uris":{"android":"levelo://app?vid=452759b4-c286-4483-84d0-0b2a4447ae8b","ios":"levelo://app?vid=452759b4-c286-4483-84d0-0b2a4447ae8b"},"vehicle_type_id":"4","last_reported":1700590198,"current_range_meters":7600,"station_id":"ce4bhnh2rcd13ifvqgug","pricing_plan_id":"free"},{"bike_id":"5acbf7cb-ea00-464e-8128-9afe6083c939","system_id":"levelo_inurba_marseille","lat":43.281548,"lon":5.42643,"is_reserved":false,"is_disabled":false,"rental_uris":{"android":"levelo://app?vid=5acbf7cb-ea00-464e-8128-9afe6083c939","ios":"levelo://app?vid=5acbf7cb-ea00-464e-8128-9afe6083c939"},"vehicle_type_id":"4","last_reported":1700590198,"current_range_meters":31200,"station_id":"ce4bhnh2rcd13ifvqgug","pricing_plan_id":"free"},{"bike_id":"3433aa0f-c99e-436e-93fc-85f2c883c7d2","system_id":"levelo_inurba_marseille","lat":43.281548,"lon":5.42643,"is_reserved":false,"is_disabled":false,"rental_uris":{"android":"levelo://app?vid=3433aa0f-c99e-436e-93fc-85f2c883c7d2","ios":"levelo://app?vid=3433aa0f-c99e-436e-93fc-85f2c883c7d2"},"vehicle_type_id":"4","last_reported":1700590198,"current_range_meters":400,"station_id":"ce4bhnh2rcd13ifvqgug","pricing_plan_id":"free"},{"bike_id":"02bbf19d-887b-43af-9389-f5c941bbea34","system_id":"levelo_inurba_marseille","lat":43.281548,"lon":5.42643,"is_reserved":false,"is_disabled":false,"rental_uris":{"android":"levelo://app?vid=02bbf19d-887b-43af-9389-f5c941bbea34","ios":"levelo://app?vid=02bbf19d-887b-43af-9389-f5c941bbea34"},"vehicle_type_id":"4","last_reported":1700590198,"current_range_meters":15600,"station_id":"ce4bhnh2rcd13ifvqgug","pricing_plan_id":"free"},{"bike_id":"b1ccfe73-bda0-410b-aae1-71333c557e0c","system_id":"levelo_inurba_marseille","lat":43.260225,"lon":5.375455,"is_reserved":false,"is_disabled":false,"rental_uris":{"android":"levelo://app?vid=b1ccfe73-bda0-410b-aae1-71333c557e0c","ios":"levelo://app?vid=b1ccfe73-bda0-410b-aae1-71333c557e0c"},"vehicle_type_id":"4","last_reported":1700590198,"current_range_meters":2400,"station_id":"ce4bhgh2rcd13ifvqfa0","pricing_plan_id":"free"},{"bike_id":"852f279e-fc4a-44c5-81d1-301450d2845f","system_id":"levelo_inurba_marseille","lat":43.2607,"lon":5.393983,"is_reserved":false,"is_disabled":false,"rental_uris":{"android":"levelo://app?vid=852f279e-fc4a-44c5-81d1-301450d2845f","ios":"levelo://app?vid=852f279e-fc4a-44c5-81d1-301450d2845f"},"vehicle_type_id":"4","last_reported":1700590198,"current_range_meters":30000,"station_id":"ce4bhh92rcd13ifvqfj0","pricing_plan_id":"free"},{"bike_id":"6556250c-cbc9-480b-9850-f58687691026","system_id":"levelo_inurba_marseille","lat":43.2607,"lon":5.393983,"is_reserved":false,"is_disabled":false,"rental_uris":{"android":"levelo://app?vid=6556250c-cbc9-480b-9850-f58687691026","ios":"levelo://app?vid=6556250c-cbc9-480b-9850-f58687691026"},"vehicle_type_id":"4","last_reported":1700590198,"current_range_meters":25600,"station_id":"ce4bhh92rcd13ifvqfj0","pricing_plan_id":"free"},{"bike_id":"97920773-5280-4204-a22f-713ac82f3ed3","system_id":"levelo_inurba_marseille","lat":43.275028,"lon":5.424534,"is_reserved":false,"is_disabled":false,"rental_uris":{"android":"levelo://app?vid=97920773-5280-4204-a22f-713ac82f3ed3","ios":"levelo://app?vid=97920773-5280-4204-a22f-713ac82f3ed3"},"vehicle_type_id":"4","last_reported":1700590198,"current_range_meters":6800,"station_id":"ce4bhn92rcd13ifvqgrg","pricing_plan_id":"free"},{"bike_id":"6b188708-9907-4cc6-a7fa-bcdecbd5a74b","system_id":"levelo_inurba_marseille","lat":43.27495,"lon":5.42454,"is_reserved":false,"is_disabled":false,"rental_uris":{"android":"levelo://app?vid=6b188708-9907-4cc6-a7fa-bcdecbd5a74b","ios":"levelo://app?vid=6b188708-9907-4cc6-a7fa-bcdecbd5a74b"},"vehicle_type_id":"4","last_reported":1700590198,"current_range_meters":4800,"station_id":"ce4bhn92rcd13ifvqgrg","pricing_plan_id":"free"},{"bike_id":"95101c20-e4ab-45b6-ad05-40b3d1e87165","system_id":"levelo_inurba_marseille","lat":43.26083,"lon":5.39767,"is_reserved":false,"is_disabled":false,"rental_uris":{"android":"levelo://app?vid=95101c20-e4ab-45b6-ad05-40b3d1e87165","ios":"levelo://app?vid=95101c20-e4ab-45b6-ad05-40b3d1e87165"},"vehicle_type_id":"4","last_reported":1700590198,"current_range_meters":0,"station_id":"ce4bhi12rcd13ifvqfq0","pricing_plan_id":"free"},{"bike_id":"9fb33827-24d6-460c-83e1-62ba6447884a","system_id":"levelo_inurba_marseille","lat":43.25827,"lon":5.39436,"is_reserved":false,"is_disabled":false,"rental_uris":{"android":"levelo://app?vid=9fb33827-24d6-460c-83e1-62ba6447884a","ios":"levelo://app?vid=9fb33827-24d6-460c-83e1-62ba6447884a"},"vehicle_type_id":"4","last_reported":1700590198,"current_range_meters":24400,"station_id":"ce4bhip2rcd13ifvqft0","pricing_plan_id":"free"},{"bike_id":"9285388a-945f-454f-9a16-7d04ca86359d","system_id":"levelo_inurba_marseille","lat":43.2558,"lon":5.38229,"is_reserved":false,"is_disabled":false,"rental_uris":{"android":"levelo://app?vid=9285388a-945f-454f-9a16-7d04ca86359d","ios":"levelo://app?vid=9285388a-945f-454f-9a16-7d04ca86359d"},"vehicle_type_id":"4","last_reported":1700590198,"current_range_meters":15200,"station_id":"ce4bhih2rcd13ifvqfs0","pricing_plan_id":"free"},{"bike_id":"83f83ba7-1db3-4b0b-a523-87f8cd4b49c1","system_id":"levelo_inurba_marseille","lat":43.2558,"lon":5.38235,"is_reserved":false,"is_disabled":false,"rental_uris":{"android":"levelo://app?vid=83f83ba7-1db3-4b0b-a523-87f8cd4b49c1","ios":"levelo://app?vid=83f83ba7-1db3-4b0b-a523-87f8cd4b49c1"},"vehicle_type_id":"4","last_reported":1700590198,"current_range_meters":15200,"station_id":"ce4bhih2rcd13ifvqfs0","pricing_plan_id":"free"},{"bike_id":"9648f353-bf58-4aaf-859a-6e0479e4429f","system_id":"levelo_inurba_marseille","lat":43.25581,"lon":5.38242,"is_reserved":false,"is_disabled":false,"rental_uris":{"android":"levelo://app?vid=9648f353-bf58-4aaf-859a-6e0479e4429f","ios":"levelo://app?vid=9648f353-bf58-4aaf-859a-6e0479e4429f"},"vehicle_type_id":"4","last_reported":1700590198,"current_range_meters":9200,"station_id":"ce4bhih2rcd13ifvqfs0","pricing_plan_id":"free"},{"bike_id":"ede0d696-29b0-4c2d-b553-117fcb07dcf0","system_id":"levelo_inurba_marseille","lat":43.25579,"lon":5.3823,"is_reserved":false,"is_disabled":false,"rental_uris":{"android":"levelo://app?vid=ede0d696-29b0-4c2d-b553-117fcb07dcf0","ios":"levelo://app?vid=ede0d696-29b0-4c2d-b553-117fcb07dcf0"},"vehicle_type_id":"4","last_reported":1700590198,"current_range_meters":8400,"station_id":"ce4bhih2rcd13ifvqfs0","pricing_plan_id":"free"},{"bike_id":"a9783685-e005-4056-bf1f-e3fd5b786fc4","system_id":"levelo_inurba_marseille","lat":43.258224,"lon":5.394369,"is_reserved":false,"is_disabled":false,"rental_uris":{"android":"levelo://app?vid=a9783685-e005-4056-bf1f-e3fd5b786fc4","ios":"levelo://app?vid=a9783685-e005-4056-bf1f-e3fd5b786fc4"},"vehicle_type_id":"4","last_reported":1700590198,"current_range_meters":12800,"station_id":"ce4bhip2rcd13ifvqft0","pricing_plan_id":"free"},{"bike_id":"1b4dd9ba-0d6d-4fb0-8a0d-76bcc3c6a51a","system_id":"levelo_inurba_marseille","lat":43.25578,"lon":5.38243,"is_reserved":false,"is_disabled":false,"rental_uris":{"android":"levelo://app?vid=1b4dd9ba-0d6d-4fb0-8a0d-76bcc3c6a51a","ios":"levelo://app?vid=1b4dd9ba-0d6d-4fb0-8a0d-76bcc3c6a51a"},"vehicle_type_id":"4","last_reported":1700590198,"current_range_meters":22400,"station_id":"ce4bhih2rcd13ifvqfs0","pricing_plan_id":"free"},{"bike_id":"6eab341d-91d4-4d61-9ba7-852e641561a0","system_id":"levelo_inurba_marseille","lat":43.258224,"lon":5.394369,"is_reserved":false,"is_disabled":false,"rental_uris":{"android":"levelo://app?vid=6eab341d-91d4-4d61-9ba7-852e641561a0","ios":"levelo://app?vid=6eab341d-91d4-4d61-9ba7-852e641561a0"},"vehicle_type_id":"4","last_reported":1700590198,"current_range_meters":26000,"station_id":"ce4bhip2rcd13ifvqft0","pricing_plan_id":"free"},{"bike_id":"04bb3993-7df0-4611-b671-63861d1ec3cc","system_id":"levelo_inurba_marseille","lat":43.25574,"lon":5.38242,"is_reserved":false,"is_disabled":false,"rental_uris":{"android":"levelo://app?vid=04bb3993-7df0-4611-b671-63861d1ec3cc","ios":"levelo://app?vid=04bb3993-7df0-4611-b671-63861d1ec3cc"},"vehicle_type_id":"4","last_reported":1700590198,"current_range_meters":26800,"station_id":"ce4bhih2rcd13ifvqfs0","pricing_plan_id":"free"},{"bike_id":"72fee5f0-f3dd-4ab9-b919-6c8b76837eb4","system_id":"levelo_inurba_marseille","lat":43.255539,"lon":5.382148,"is_reserved":false,"is_disabled":false,"rental_uris":{"android":"levelo://app?vid=72fee5f0-f3dd-4ab9-b919-6c8b76837eb4","ios":"levelo://app?vid=72fee5f0-f3dd-4ab9-b919-6c8b76837eb4"},"vehicle_type_id":"4","last_reported":1700590198,"current_range_meters":24000,"station_id":"ce4bhih2rcd13ifvqfs0","pricing_plan_id":"free"},{"bike_id":"0b1864fd-bb54-4e71-a69a-988e0a4658d9","system_id":"levelo_inurba_marseille","lat":43.2707,"lon":5.42284,"is_reserved":false,"is_disabled":false,"rental_uris":{"android":"levelo://app?vid=0b1864fd-bb54-4e71-a69a-988e0a4658d9","ios":"levelo://app?vid=0b1864fd-bb54-4e71-a69a-988e0a4658d9"},"vehicle_type_id":"4","last_reported":1700590198,"current_range_meters":400,"station_id":"ce4bhk92rcd13ifvqgb0","pricing_plan_id":"free"},{"bike_id":"cfdc423c-18ac-4b18-badc-13e244b42e4a","system_id":"levelo_inurba_marseille","lat":43.269668,"lon":5.42152,"is_reserved":false,"is_disabled":false,"rental_uris":{"android":"levelo://app?vid=cfdc423c-18ac-4b18-badc-13e244b42e4a","ios":"levelo://app?vid=cfdc423c-18ac-4b18-badc-13e244b42e4a"},"vehicle_type_id":"4","last_reported":1700590198,"current_range_meters":14800,"station_id":"","pricing_plan_id":"free"},{"bike_id":"2b082f02-bd7b-45f7-a402-0ea0e3d029d4","system_id":"levelo_inurba_marseille","lat":43.25918,"lon":5.4088,"is_reserved":false,"is_disabled":false,"rental_uris":{"android":"levelo://app?vid=2b082f02-bd7b-45f7-a402-0ea0e3d029d4","ios":"levelo://app?vid=2b082f02-bd7b-45f7-a402-0ea0e3d029d4"},"vehicle_type_id":"4","last_reported":1700590198,"current_range_meters":0,"station_id":"ce4bhm92rcd13ifvqglg","pricing_plan_id":"free"},{"bike_id":"cda37543-5bfe-4410-b36c-9d02479baefd","system_id":"levelo_inurba_marseille","lat":43.250966,"lon":5.395186,"is_reserved":false,"is_disabled":false,"rental_uris":{"android":"levelo://app?vid=cda37543-5bfe-4410-b36c-9d02479baefd","ios":"levelo://app?vid=cda37543-5bfe-4410-b36c-9d02479baefd"},"vehicle_type_id":"4","last_reported":1700590198,"current_range_meters":17200,"station_id":"ce4bhm12rcd13ifvqgkg","pricing_plan_id":"free"},{"bike_id":"cd3b204d-6773-4aa6-91b4-d0cfb0d8a37b","system_id":"levelo_inurba_marseille","lat":43.279815,"lon":5.442085,"is_reserved":false,"is_disabled":false,"rental_uris":{"android":"levelo://app?vid=cd3b204d-6773-4aa6-91b4-d0cfb0d8a37b","ios":"levelo://app?vid=cd3b204d-6773-4aa6-91b4-d0cfb0d8a37b"},"vehicle_type_id":"4","last_reported":1700590198,"current_range_meters":10000,"station_id":"","pricing_plan_id":"free"},{"bike_id":"eedf2e51-beb6-448c-9be8-f02e29717301","system_id":"levelo_inurba_marseille","lat":43.257079,"lon":5.411051,"is_reserved":false,"is_disabled":false,"rental_uris":{"android":"levelo://app?vid=eedf2e51-beb6-448c-9be8-f02e29717301","ios":"levelo://app?vid=eedf2e51-beb6-448c-9be8-f02e29717301"},"vehicle_type_id":"4","last_reported":1700590198,"current_range_meters":31600,"station_id":"ce4bhkp2rcd13ifvqgd0","pricing_plan_id":"free"},{"bike_id":"e0f0120a-ca66-4df9-91cd-0c7193cc61a0","system_id":"levelo_inurba_marseille","lat":43.257079,"lon":5.411051,"is_reserved":false,"is_disabled":false,"rental_uris":{"android":"levelo://app?vid=e0f0120a-ca66-4df9-91cd-0c7193cc61a0","ios":"levelo://app?vid=e0f0120a-ca66-4df9-91cd-0c7193cc61a0"},"vehicle_type_id":"4","last_reported":1700590198,"current_range_meters":19600,"station_id":"ce4bhkp2rcd13ifvqgd0","pricing_plan_id":"free"},{"bike_id":"9f401b83-68f2-4a9e-a3a4-d1b1d9afc71d","system_id":"levelo_inurba_marseille","lat":43.250009,"lon":5.389195,"is_reserved":false,"is_disabled":false,"rental_uris":{"android":"levelo://app?vid=9f401b83-68f2-4a9e-a3a4-d1b1d9afc71d","ios":"levelo://app?vid=9f401b83-68f2-4a9e-a3a4-d1b1d9afc71d"},"vehicle_type_id":"4","last_reported":1700590198,"current_range_meters":26000,"station_id":"ce4bhgp2rcd13ifvqfd0","pricing_plan_id":"free"},{"bike_id":"faa454c0-0e66-4f7a-8387-5165bdee6d7c","system_id":"levelo_inurba_marseille","lat":43.250966,"lon":5.395186,"is_reserved":false,"is_disabled":false,"rental_uris":{"android":"levelo://app?vid=faa454c0-0e66-4f7a-8387-5165bdee6d7c","ios":"levelo://app?vid=faa454c0-0e66-4f7a-8387-5165bdee6d7c"},"vehicle_type_id":"4","last_reported":1700590198,"current_range_meters":25200,"station_id":"ce4bhm12rcd13ifvqgkg","pricing_plan_id":"free"},{"bike_id":"8bd8326a-b058-4a44-afb8-c8c5c47517ea","system_id":"levelo_inurba_marseille","lat":43.250966,"lon":5.395186,"is_reserved":false,"is_disabled":false,"rental_uris":{"android":"levelo://app?vid=8bd8326a-b058-4a44-afb8-c8c5c47517ea","ios":"levelo://app?vid=8bd8326a-b058-4a44-afb8-c8c5c47517ea"},"vehicle_type_id":"4","last_reported":1700590198,"current_range_meters":8000,"station_id":"ce4bhm12rcd13ifvqgkg","pricing_plan_id":"free"},{"bike_id":"ae26723e-dd95-47c4-8721-cff1e2905484","system_id":"levelo_inurba_marseille","lat":43.24693,"lon":5.382096,"is_reserved":false,"is_disabled":false,"rental_uris":{"android":"levelo://app?vid=ae26723e-dd95-47c4-8721-cff1e2905484","ios":"levelo://app?vid=ae26723e-dd95-47c4-8721-cff1e2905484"},"vehicle_type_id":"4","last_reported":1700590198,"current_range_meters":22400,"station_id":"ce4bhih2rcd13ifvqfr0","pricing_plan_id":"free"},{"bike_id":"254d216a-dbb7-44dd-84c9-873b84a28db6","system_id":"levelo_inurba_marseille","lat":43.24693,"lon":5.382096,"is_reserved":false,"is_disabled":false,"rental_uris":{"android":"levelo://app?vid=254d216a-dbb7-44dd-84c9-873b84a28db6","ios":"levelo://app?vid=254d216a-dbb7-44dd-84c9-873b84a28db6"},"vehicle_type_id":"4","last_reported":1700590198,"current_range_meters":18000,"station_id":"ce4bhih2rcd13ifvqfr0","pricing_plan_id":"free"},{"bike_id":"c544ca46-4947-4037-9b6f-cfa31de91dcc","system_id":"levelo_inurba_marseille","lat":43.25102,"lon":5.403214,"is_reserved":false,"is_disabled":false,"rental_uris":{"android":"levelo://app?vid=c544ca46-4947-4037-9b6f-cfa31de91dcc","ios":"levelo://app?vid=c544ca46-4947-4037-9b6f-cfa31de91dcc"},"vehicle_type_id":"4","last_reported":1700590198,"current_range_meters":10000,"station_id":"ce4bhlh2rcd13ifvqgig","pricing_plan_id":"free"},{"bike_id":"4ac0eaa9-a13c-404f-969e-10b5fcd50edf","system_id":"levelo_inurba_marseille","lat":43.246467,"lon":5.388984,"is_reserved":false,"is_disabled":false,"rental_uris":{"android":"levelo://app?vid=4ac0eaa9-a13c-404f-969e-10b5fcd50edf","ios":"levelo://app?vid=4ac0eaa9-a13c-404f-969e-10b5fcd50edf"},"vehicle_type_id":"4","last_reported":1700590198,"current_range_meters":4800,"station_id":"ce4bhg12rcd13ifvqf60","pricing_plan_id":"free"},