{"last_updated":1737116177,"ttl":60,"version":"2.2","data":{"bikes":[{"bike_id":"d8b449ff-b691-4af0-b4ce-ddc4c62187c4","system_id":"levelo_inurba_marseille","lat":43.30545,"lon":5.3655,"is_reserved":false,"is_disabled":false,"rental_uris":{"android":"levelo://app?vid=d8b449ff-b691-4af0-b4ce-ddc4c62187c4","ios":"levelo://app?vid=d8b449ff-b691-4af0-b4ce-ddc4c62187c4"},"vehicle_type_id":"4","last_reported":1737116177,"current_range_meters":14400,"station_id":"ce4bgs12rcd13ifvqcag","pricing_plan_id":"cebpf4jnsgd1na2vs0mg"},{"bike_id":"753ccb49-949e-4f76-bbe4-861c2515eec4","system_id":"levelo_inurba_marseille","lat":43.29958,"lon":5.37452,"is_reserved":false,"is_disabled":false,"rental_uris":{"android":"levelo://app?vid=753ccb49-949e-4f76-bbe4-861c2515eec4","ios":"levelo://app?vid=753ccb49-949e-4f76-bbe4-861c2515eec4"},"vehicle_type_id":"4","last_reported":1737116177,"current_range_meters":38800,"station_id":"ce4bgjh2rcd13ifvqbg0","pricing_plan_id":"cebpf4jnsgd1na2vs0mg"},{"bike_id":"0b3db7fa-f56f-431e-9413-b99a7fab1950","system_id":"levelo_inurba_marseille","lat":43.29272,"lon":5.36851,"is_reserved":false,"is_disabled":false,"rental_uris":{"android":"levelo://app?vid=0b3db7fa-f56f-431e-9413-b99a7fab1950","ios":"levelo://app?vid=0b3db7fa-f56f-431e-9413-b99a7fab1950"},"vehicle_type_id":"4","last_reported":1737116177,"current_range_meters":34000,"station_id":"ce4bhbp2rcd13ifvqesg","pricing_plan_id":"cebpf4jnsgd1na2vs0mg"},{"bike_id":"438afbce-9ab5-4cb0-b529-b39accf5f642","system_id":"levelo_inurba_marseille","lat":43.28936,"lon":5.38402,"is_reserved":false,"is_disabled":false,"rental_uris":{"android":"levelo://app?vid=438afbce-9ab5-4cb0-b529-b39accf5f642","ios":"levelo://app?vid=438afbce-9ab5-4cb0-b529-b39accf5f642"},"vehicle_type_id":"4","last_reported":1737116177,"current_range_meters":28800,"station_id":"ce4bh612rcd13ifvqe6g","pricing_plan_id":"cebpf4jnsgd1na2vs0mg"},{"bike_id":"8c070e48-daaf-4ce9-902f-d07826ac065c","system_id":"levelo_inurba_marseille","lat":43.23967,"lon":5.36649,"is_reserved":false,"is_disabled":false,"rental_uris":{"android":"levelo://app?vid=8c070e48-daaf-4ce9-902f-d07826ac065c","ios":"levelo://app?vid=8c070e48-daaf-4ce9-902f-d07826ac065c"},"vehicle_type_id":"4","last_reported":1737116177,"current_range_meters":24800,"station_id":"ce4bhi12rcd13ifvqfp0","pricing_plan_id":"cebpf4jnsgd1na2vs0mg"},{"bike_id":"352789ba-5de3-4f6e-84a8-32c41d59996f","system_id":"levelo_inurba_marseille","lat":43.30265,"lon":5.37707,"is_reserved":false,"is_disabled":false,"rental_uris":{"android":"levelo://app?vid=352789ba-5de3-4f6e-84a8-32c41d59996f","ios":"levelo://app?vid=352789ba-5de3-4f6e-84a8-32c41d59996f"},"vehicle_type_id":"4","last_reported":1737116177,"current_range_meters":38800,"station_id":"ce4bguh2rcd13ifvqcj0","pricing_plan_id":"cebpf4jnsgd1na2vs0mg"},{"bike_id":"736aa54d-b902-4630-8a90-71e7dee03587","system_id":"levelo_inurba_marseille","lat":43.26073,"lon":5.39408,"is_reserved":false,"is_disabled":false,"rental_uris":{"android":"levelo://app?vid=736aa54d-b902-4630-8a90-71e7dee03587","ios":"levelo://app?vid=736aa54d-b902-4630-8a90-71e7dee03587"},"vehicle_type_id":"4","last_reported":1737116177,"current_range_meters":38400,"station_id":"ce4bhh92rcd13ifvqfj0","pricing_plan_id":"cebpf4jnsgd1na2vs0mg"},{"bike_id":"0cb7b226-4a06-4a91-a603-bb92af314e31","system_id":"levelo_inurba_marseille","lat":43.23186,"lon":5.39992,"is_reserved":false,"is_disabled":false,"rental_uris":{"android":"levelo://app?vid=0cb7b226-4a06-4a91-a603-bb92af314e31","ios":"levelo://app?vid=0cb7b226-4a06-4a91-a603-bb92af314e31"},"vehicle_type_id":"4","last_reported":1737116177,"current_range_meters":800,"station_id":"ce4bhn12rcd13ifvqgqg","pricing_plan_id":"cebpf4jnsgd1na2vs0mg"},{"bike_id":"2639b42c-ffb4-4688-ab74-37ab803cbe1a","system_id":"levelo_inurba_marseille","lat":43.29638,"lon":5.37178,"is_reserved":false,"is_disabled":false,"rental_uris":{"android":"levelo://app?vid=2639b42c-ffb4-4688-ab74-37ab803cbe1a","ios":"levelo://app?vid=2639b42c-ffb4-4688-ab74-37ab803cbe1a"},"vehicle_type_id":"4","last_reported":1737116177,"current_range_meters":12800,"station_id":"ce4bgnh2rcd13ifvqc0g","pricing_plan_id":"cebpf4jnsgd1na2vs0mg"},{"bike_id":"9564712b-78a3-4ed3-8291-2e2ae6c0de18","system_id":"levelo_inurba_marseille","lat":43.30519,"lon":5.36492,"is_reserved":false,"is_disabled":false,"rental_uris":{"android":"levelo://app?vid=9564712b-78a3-4ed3-8291-2e2ae6c0de18","ios":"levelo://app?vid=9564712b-78a3-4ed3-8291-2e2ae6c0de18"},"vehicle_type_id":"4","last_reported":1737116177,"current_range_meters":38800,"station_id":"ce4bgs12rcd13ifvqcag","pricing_plan_id":"cebpf4jnsgd1na2vs0mg"},{"bike_id":"3a6e8e90-9f89-4f72-bb31-1eca61ff14f0","system_id":"levelo_inurba_marseille","lat":43.27433,"lon":5.3942,"is_reserved":false,"is_disabled":false,"rental_uris":{"android":"levelo://app?vid=3a6e8e90-9f89-4f72-bb31-1eca61ff14f0","ios":"levelo://app?vid=3a6e8e90-9f89-4f72-bb31-1eca61ff14f0"},"vehicle_type_id":"4","last_reported":1737116177,"current_range_meters":25600,"station_id":"ce4bhdp2rcd13ifvqf20","pricing_plan_id":"cebpf4jnsgd1na2vs0mg"},{"bike_id":"0ccc6656-e6de-4a38-a3f3-687fc4fa0484","system_id":"levelo_inurba_marseille","lat":43.29616,"lon":5.37716,"is_reserved":false,"is_disabled":false,"rental_uris":{"android":"levelo://app?vid=0ccc6656-e6de-4a38-a3f3-687fc4fa0484","ios":"levelo://app?vid=0ccc6656-e6de-4a38-a3f3-687fc4fa0484"},"vehicle_type_id":"4","last_reported":1737116177,"current_range_meters":32400,"station_id":"ce4bgi92rcd13ifvqb90","pricing_plan_id":"cebpf4jnsgd1na2vs0mg"},{"bike_id":"ab67834a-26d7-4518-8349-5d073114b8c1","system_id":"levelo_inurba_marseille","lat":43.30279,"lon":5.37712,"is_reserved":false,"is_disabled":false,"rental_uris":{"android":"levelo://app?vid=ab67834a-26d7-4518-8349-5d073114b8c1","ios":"levelo://app?vid=ab67834a-26d7-4518-8349-5d073114b8c1"},"vehicle_type_id":"4","last_reported":1737116177,"current_range_meters":36400,"station_id":"ce4bguh2rcd13ifvqcj0","pricing_plan_id":"cebpf4jnsgd1na2vs0mg"},{"bike_id":"18eb9e23-26c6-47e9-9776-ee13f62963a4","system_id":"levelo_inurba_marseille","lat":43.30268,"lon":5.40093,"is_reserved":false,"is_disabled":true,"rental_uris":{"android":"levelo://app?vid=18eb9e23-26c6-47e9-9776-ee13f62963a4","ios":"levelo://app?vid=18eb9e23-26c6-47e9-9776-ee13f62963a4"},"vehicle_type_id":"4","last_reported":1737116177,"current_range_meters":3200,"station_id":"ce4bgvh2rcd13ifvqcs0","pricing_plan_id":"cebpf4jnsgd1na2vs0mg"},{"bike_id":"d0790979-642c-4578-9799-6dcaf9a868a4","system_id":"levelo_inurba_marseille","lat":43.30535,"lon":5.36556,"is_reserved":false,"is_disabled":false,"rental_uris":{"android":"levelo://app?vid=d0790979-642c-4578-9799-6dcaf9a868a4","ios":"levelo://app?vid=d0790979-642c-4578-9799-6dcaf9a868a4"},"vehicle_type_id":"4","last_reported":1737116177,"current_range_meters":39200,"station_id":"ce4bgs12rcd13ifvqcag","pricing_plan_id":"cebpf4jnsgd1na2vs0mg"},{"bike_id":"e173ad86-c1af-446f-b053-2c886638ed46","system_id":"levelo_inurba_marseille","lat":43.29588,"lon":5.37543,"is_reserved":false,"is_disabled":false,"rental_uris":{"android":"levelo://app?vid=e173ad86-c1af-446f-b053-2c886638ed46","ios":"levelo://app?vid=e173ad86-c1af-446f-b053-2c886638ed46"},"vehicle_type_id":"4","last_reported":1737116177,"current_range_meters":38800,"station_id":"ce4bgh92rcd13ifvqb50","pricing_plan_id":"cebpf4jnsgd1na2vs0mg"},{"bike_id":"3400bc5d-e982-4bd1-aa7c-d4a0504b5538","system_id":"levelo_inurba_marseille","lat":43.30601,"lon":5.37231,"is_reserved":false,"is_disabled":false,"rental_uris":{"android":"levelo://app?vid=3400bc5d-e982-4bd1-aa7c-d4a0504b5538","ios":"levelo://app?vid=3400bc5d-e982-4bd1-aa7c-d4a0504b5538"},"vehicle_type_id":"4","last_reported":1737116177,"current_range_meters":26000,"station_id":"ce4bgqh2rcd13ifvqc4g","pricing_plan_id":"cebpf4jnsgd1na2vs0mg"},{"bike_id":"daf6ea65-a540-47d0-ba87-acdd4fd84511","system_id":"levelo_inurba_marseille","lat":43.30466,"lon":5.37918,"is_reserved":false,"is_disabled":false,"rental_uris":{"android":"levelo://app?vid=daf6ea65-a540-47d0-ba87-acdd4fd84511","ios":"levelo://app?vid=daf6ea65-a540-47d0-ba87-acdd4fd84511"},"vehicle_type_id":"4","last_reported":1737116177,"current_range_meters":35200,"station_id":"ce4bgup2rcd13ifvqcn0","pricing_plan_id":"cebpf4jnsgd1na2vs0mg"},{"bike_id":"99ed9aa0-745d-45dd-b3e8-f8ee1e4a9f47","system_id":"levelo_inurba_marseille","lat":43.26947,"lon":5.38634,"is_reserved":false,"is_disabled":false,"rental_uris":{"android":"levelo://app?vid=99ed9aa0-745d-45dd-b3e8-f8ee1e4a9f47","ios":"levelo://app?vid=99ed9aa0-745d-45dd-b3e8-f8ee1e4a9f47"},"vehicle_type_id":"4","last_reported":1737116177,"current_range_meters":38000,"station_id":"ce4bhh92rcd13ifvqfh0","pricing_plan_id":"cebpf4jnsgd1na2vs0mg"},{"bike_id":"c4fc9679-1008-473b-9e9b-26f1ed62312e","system_id":"levelo_inurba_marseille","lat":43.229324,"lon":5.353824,"is_reserved":false,"is_disabled":false,"rental_uris":{"android":"levelo://app?vid=c4fc9679-1008-473b-9e9b-26f1ed62312e","ios":"levelo://app?vid=c4fc9679-1008-473b-9e9b-26f1ed62312e"},"vehicle_type_id":"4","last_reported":1737116177,"current_range_meters":18800,"station_id":"cpo3532slgdg3j2ikp40","pricing_plan_id":"cebpf4jnsgd1na2vs0mg"},{"bike_id":"21066e24-fd5e-40c0-a82a-a1da89fbd9ff","system_id":"levelo_inurba_marseille","lat":43.3016,"lon":5.38092,"is_reserved":false,"is_disabled":false,"rental_uris":{"android":"levelo://app?vid=21066e24-fd5e-40c0-a82a-a1da89fbd9ff","ios":"levelo://app?vid=21066e24-fd5e-40c0-a82a-a1da89fbd9ff"},"vehicle_type_id":"4","last_reported":1737116177,"current_range_meters":24400,"station_id":"ce4bgjp2rcd13ifvqbh0","pricing_plan_id":"cebpf4jnsgd1na2vs0mg"},{"bike_id":"ef45737c-063f-47d0-af9e-636b156d4a9e","system_id":"levelo_inurba_marseille","lat":43.3017,"lon":5.3809,"is_reserved":false,"is_disabled":false,"rental_uris":{"android":"levelo://app?vid=ef45737c-063f-47d0-af9e-636b156d4a9e","ios":"levelo://app?vid=ef45737c-063f-47d0-af9e-636b156d4a9e"},"vehicle_type_id":"4","last_reported":1737116177,"current_range_meters":36400,"station_id":"ce4bgjp2rcd13ifvqbh0","pricing_plan_id":"cebpf4jnsgd1na2vs0mg"},{"bike_id":"467dc20a-b0b2-4aad-bb3c-509d1e949710","system_id":"levelo_inurba_marseille","lat":43.24833,"lon":5.37476,"is_reserved":false,"is_disabled":false,"rental_uris":{"android":"levelo://app?vid=467dc20a-b0b2-4aad-bb3c-509d1e949710","ios":"levelo://app?vid=467dc20a-b0b2-4aad-bb3c-509d1e949710"},"vehicle_type_id":"4","last_reported":1737116177,"current_range_meters":38400,"station_id":"","pricing_plan_id":"cebpf4jnsgd1na2vs0mg"},{"bike_id":"53f038ef-cfac-44f1-8959-86ace3e111f2","system_id":"levelo_inurba_marseille","lat":43.29283,"lon":5.40163,"is_reserved":false,"is_disabled":false,"rental_uris":{"android":"levelo://app?vid=53f038ef-cfac-44f1-8959-86ace3e111f2","ios":"levelo://app?vid=53f038ef-cfac-44f1-8959-86ace3e111f2"},"vehicle_type_id":"4","last_reported":1737116177,"current_range_meters":30800,"station_id":"ce4bh312rcd13ifvqdk0","pricing_plan_id":"cebpf4jnsgd1na2vs0mg"},{"bike_id":"dd5fe0f5-8291-4bc6-a8bc-9cbde147dec2","system_id":"levelo_inurba_marseille","lat":43.27621,"lon":5.36109,"is_reserved":false,"is_disabled":false,"rental_uris":{"android":"levelo://app?vid=dd5fe0f5-8291-4bc6-a8bc-9cbde147dec2","ios":"levelo://app?vid=dd5fe0f5-8291-4bc6-a8bc-9cbde147dec2"},"vehicle_type_id":"4","last_reported":1737116177,"current_range_meters":25200,"station_id":"ce4bgj92rcd13ifvqbe0","pricing_plan_id":"cebpf4jnsgd1na2vs0mg"},{"bike_id":"3af6fc5d-8ac4-46c6-974d-4c29e290506e","system_id":"levelo_inurba_marseille","lat":43.30463,"lon":5.37905,"is_reserved":false,"is_disabled":false,"rental_uris":{"android":"levelo://app?vid=3af6fc5d-8ac4-46c6-974d-4c29e290506e","ios":"levelo://app?vid=3af6fc5d-8ac4-46c6-974d-4c29e290506e"},"vehicle_type_id":"4","last_reported":1737116177,"current_range_meters":29600,"station_id":"ce4bgup2rcd13ifvqcn0","pricing_plan_id":"cebpf4jnsgd1na2vs0mg"},{"bike_id":"66065961-8f66-46c8-be70-f9092a8345b6","system_id":"levelo_inurba_marseille","lat":43.29112,"lon":5.38205,"is_reserved":false,"is_disabled":false,"rental_uris":{"android":"levelo://app?vid=66065961-8f66-46c8-be70-f9092a8345b6","ios":"levelo://app?vid=66065961-8f66-46c8-be70-f9092a8345b6"},"vehicle_type_id":"4","last_reported":1737116177,"current_range_meters":36400,"station_id":"ce4bh512rcd13ifvqe2g","pricing_plan_id":"cebpf4jnsgd1na2vs0mg"},{"bike_id":"dcff9f91-1e7c-4a39-9b46-2e878c5e1c72","system_id":"levelo_inurba_marseille","lat":43.31487,"lon":5.37336,"is_reserved":false,"is_disabled":false,"rental_uris":{"android":"levelo://app?vid=dcff9f91-1e7c-4a39-9b46-2e878c5e1c72","ios":"levelo://app?vid=dcff9f91-1e7c-4a39-9b46-2e878c5e1c72"},"vehicle_type_id":"4","last_reported":1737116177,"current_range_meters":28800,"station_id":"ce4bgt12rcd13ifvqcd0","pricing_plan_id":"cebpf4jnsgd1na2vs0mg"},{"bike_id":"541d4738-3831-4ac5-b5f8-4c807f387afc","system_id":"levelo_inurba_marseille","lat":43.27972,"lon":5.38735,"is_reserved":false,"is_disabled":false,"rental_uris":{"android":"levelo://app?vid=541d4738-3831-4ac5-b5f8-4c807f387afc","ios":"levelo://app?vid=541d4738-3831-4ac5-b5f8-4c807f387afc"},"vehicle_type_id":"4","last_reported":1737116177,"current_range_meters":37600,"station_id":"ce4bhg12rcd13ifvqf80","pricing_plan_id":"cebpf4jnsgd1na2vs0mg"},{"bike_id":"1edc7cf7-dc2f-4b0c-ae88-b42e70a3b8d7","system_id":"levelo_inurba_marseille","lat":43.29031,"lon":5.38656,"is_reserved":false,"is_disabled":true,"rental_uris":{"android":"levelo://app?vid=1edc7cf7-dc2f-4b0c-ae88-b42e70a3b8d7","ios":"levelo://app?vid=1edc7cf7-dc2f-4b0c-ae88-b42e70a3b8d7"},"vehicle_type_id":"4","last_reported":1737116177,"current_range_meters":1600,"station_id":"ce4bh4p2rcd13ifvqe0g","pricing_plan_id":"cebpf4jnsgd1na2vs0mg"},{"bike_id":"66ec8711-3dbc-48f7-b091-25773ac6b77c","system_id":"levelo_inurba_marseille","lat":43.28138,"lon":5.44214,"is_reserved":false,"is_disabled":true,"rental_uris":{"android":"levelo://app?vid=66ec8711-3dbc-48f7-b091-25773ac6b77c","ios":"levelo://app?vid=66ec8711-3dbc-48f7-b091-25773ac6b77c"},"vehicle_type_id":"4","last_reported":1737116177,"current_range_meters":0,"station_id":"","pricing_plan_id":"cebpf4jnsgd1na2vs0mg"},{"bike_id":"e193c5af-3d73-4e67-a12e-f0ae60709963","system_id":"levelo_inurba_marseille","lat":43.29037,"lon":5.38647,"is_reserved":false,"is_disabled":false,"rental_uris":{"android":"levelo://app?vid=e193c5af-3d73-4e67-a12e-f0ae60709963","ios":"levelo://app?vid=e193c5af-3d73-4e67-a12e-f0ae60709963"},"vehicle_type_id":"4","last_reported":1737116177,"current_range_meters":30000,"station_id":"ce4bh4p2rcd13ifvqe0g","pricing_plan_id":"cebpf4jnsgd1na2vs0mg"},{"bike_id":"0a709f11-4e6a-4d8f-a0b0-f11eab95141b","system_id":"levelo_inurba_marseille","lat":43.29202,"lon":5.39335,"is_reserved":false,"is_disabled":false,"rental_uris":{"android":"levelo://app?vid=0a709f11-4e6a-4d8f-a0b0-f11eab95141b","ios":"levelo://app?vid=0a709f11-4e6a-4d8f-a0b0-f11eab95141b"},"vehicle_type_id":"4","last_reported":1737116177,"current_range_meters":36000,"station_id":"ce4bh192rcd13ifvqdd0","pricing_plan_id":"cebpf4jnsgd1na2vs0mg"},{"bike_id":"d9b02568-c704-46ab-90b9-382579a42acb","system_id":"levelo_inurba_marseille","lat":43.29366,"lon":5.37841,"is_reserved":false,"is_disabled":false,"rental_uris":{"android":"levelo://app?vid=d9b02568-c704-46ab-90b9-382579a42acb","ios":"levelo://app?vid=d9b02568-c704-46ab-90b9-382579a42acb"},"vehicle_type_id":"4","last_reported":1737116177,"current_range_meters":27600,"station_id":"ce4bgjh2rcd13ifvqbf0","pricing_plan_id":"cebpf4jnsgd1na2vs0mg"},{"bike_id":"b5426a40-c9d8-4360-8038-e9e8274bb153","system_id":"levelo_inurba_marseille","lat":43.25121,"lon":5.40323,"is_reserved":false,"is_disabled":false,"rental_uris":{"android":"levelo://app?vid=b5426a40-c9d8-4360-8038-e9e8274bb153","ios":"levelo://app?vid=b5426a40-c9d8-4360-8038-e9e8274bb153"},"vehicle_type_id":"4","last_reported":1737116177,"current_range_meters":30400,"station_id":"ce4bhlh2rcd13ifvqgig","pricing_plan_id":"cebpf4jnsgd1na2vs0mg"},{"bike_id":"e94f5751-3760-4f03-84d5-5ceb919334c8","system_id":"levelo_inurba_marseille","lat":43.25122,"lon":5.40321,"is_reserved":false,"is_disabled":false,"rental_uris":{"android":"levelo://app?vid=e94f5751-3760-4f03-84d5-5ceb919334c8","ios":"levelo://app?vid=e94f5751-3760-4f03-84d5-5ceb919334c8"},"vehicle_type_id":"4","last_reported":1737116177,"current_range_meters":14800,"station_id":"ce4bhlh2rcd13ifvqgig","pricing_plan_id":"cebpf4jnsgd1na2vs0mg"},{"bike_id":"954b17d3-0d50-4d1d-9755-857bdc284020","system_id":"levelo_inurba_marseille","lat":43.28165,"lon":5.42653,"is_reserved":false,"is_disabled":false,"rental_uris":{"android":"levelo://app?vid=954b17d3-0d50-4d1d-9755-857bdc284020","ios":"levelo://app?vid=954b17d3-0d50-4d1d-9755-857bdc284020"},"vehicle_type_id":"4","last_reported":1737116177,"current_range_meters":28000,"station_id":"ce4bhnh2rcd13ifvqgug","pricing_plan_id":"cebpf4jnsgd1na2vs0mg"},{"bike_id":"c04d1df8-32ee-4244-979e-fee8b1c6e347","system_id":"levelo_inurba_marseille","lat":43.28467,"lon":5.38445,"is_reserved":false,"is_disabled":false,"rental_uris":{"android":"levelo://app?vid=c04d1df8-32ee-4244-979e-fee8b1c6e347","ios":"levelo://app?vid=c04d1df8-32ee-4244-979e-fee8b1c6e347"},"vehicle_type_id":"4","last_reported":1737116177,"current_range_meters":28800,"station_id":"ce4bh512rcd13ifvqe3g","pricing_plan_id":"cebpf4jnsgd1na2vs0mg"},{"bike_id":"2c93fb70-70a0-4714-a32d-1354cfc34231","system_id":"levelo_inurba_marseille","lat":43.30303,"lon":5.36905,"is_reserved":false,"is_disabled":false,"rental_uris":{"android":"levelo://app?vid=2c93fb70-70a0-4714-a32d-1354cfc34231","ios":"levelo://app?vid=2c93fb70-70a0-4714-a32d-1354cfc34231"},"vehicle_type_id":"4","last_reported":1737116177,"current_range_meters":30800,"station_id":"ce4bgqh2rcd13ifvqc5g","pricing_plan_id":"cebpf4jnsgd1na2vs0mg"},{"bike_id":"0321cd6b-aaff-46d7-aacd-a1fa403e5c50","system_id":"levelo_inurba_marseille","lat":43.331099,"lon":5.38216,"is_reserved":false,"is_disabled":true,"rental_uris":{"android":"levelo://app?vid=0321cd6b-aaff-46d7-aacd-a1fa403e5c50","ios":"levelo://app?vid=0321cd6b-aaff-46d7-aacd-a1fa403e5c50"},"vehicle_type_id":"4","last_reported":1737116177,"current_range_meters":1600,"station_id":"","pricing_plan_id":"cebpf4jnsgd1na2vs0mg"},{"bike_id":"91900ac4-47c8-4400-a455-eba2ccf2e7e7","system_id":"levelo_inurba_marseille","lat":43.296217,"lon":5.371548,"is_reserved":false,"is_disabled":false,"rental_uris":{"android":"levelo://app?vid=91900ac4-47c8-4400-a455-eba2ccf2e7e7","ios":"levelo://app?vid=91900ac4-47c8-4400-a455-eba2ccf2e7e7"},"vehicle_type_id":"4","last_reported":1737116177,"current_range_meters":38800,"station_id":"ce4bgnh2rcd13ifvqc0g","pricing_plan_id":"cebpf4jnsgd1na2vs0mg"},{"bike_id":"98209367-6a92-46d1-b980-9e484d1970b7","system_id":"levelo_inurba_marseille","lat":43.31326,"lon":5.39696,"is_reserved":false,"is_disabled":false,"rental_uris":{"android":"levelo://app?vid=98209367-6a92-46d1-b980-9e484d1970b7","ios":"levelo://app?vid=98209367-6a92-46d1-b980-9e484d1970b7"},"vehicle_type_id":"4","last_reported":1737116177,"current_range_meters":2800,"station_id":"ce4bgvp2rcd13ifvqcu0","pricing_plan_id":"cebpf4jnsgd1na2vs0mg"},{"bike_id":"569f3824-2521-4c24-85a1-4ab6d6b08add","system_id":"levelo_inurba_marseille","lat":43.29549,"lon":5.37506,"is_reserved":false,"is_disabled":false,"rental_uris":{"android":"levelo://app?vid=569f3824-2521-4c24-85a1-4ab6d6b08add","ios":"levelo://app?vid=569f3824-2521-4c24-85a1-4ab6d6b08add"},"vehicle_type_id":"4","last_reported":1737116177,"current_range_meters":38800,"station_id":"ce4bgkp2rcd13ifvqbmg","pricing_plan_id":"cebpf4jnsgd1na2vs0mg"},{"bike_id":"bcb50c01-278f-4f0e-9b82-e20b1bfaf6f5","system_id":"levelo_inurba_marseille","lat":43.25074,"lon":5.39523,"is_reserved":false,"is_disabled":false,"rental_uris":{"android":"levelo://app?vid=bcb50c01-278f-4f0e-9b82-e20b1bfaf6f5","ios":"levelo://app?vid=bcb50c01-278f-4f0e-9b82-e20b1bfaf6f5"},"vehicle_type_id":"4","last_reported":1737116177,"current_range_meters":10800,"station_id":"ce4bhm12rcd13ifvqgkg","pricing_plan_id":"cebpf4jnsgd1na2vs0mg"},{"bike_id":"4d21a537-3816-432c-8aec-6acfffac2e27","system_id":"levelo_inurba_marseille","lat":43.31896,"lon":5.40726,"is_reserved":false,"is_disabled":false,"rental_uris":{"android":"levelo://app?vid=4d21a537-3816-432c-8aec-6acfffac2e27","ios":"levelo://app?vid=4d21a537-3816-432c-8aec-6acfffac2e27"},"vehicle_type_id":"4","last_reported":1737116177,"current_range_meters":36400,"station_id":"ce4bhq12rcd13ifvqhig","pricing_plan_id":"cebpf4jnsgd1na2vs0mg"},{"bike_id":"fa53afd0-c3c0-46c2-be7e-d056eb14f6b8","system_id":"levelo_inurba_marseille","lat":43.26088,"lon":5.39401,"is_reserved":false,"is_disabled":false,"rental_uris":{"android":"levelo://app?vid=fa53afd0-c3c0-46c2-be7e-d056eb14f6b8","ios":"levelo://app?vid=fa53afd0-c3c0-46c2-be7e-d056eb14f6b8"},"vehicle_type_id":"4","last_reported":1737116177,"current_range_meters":36400,"station_id":"ce4bhh92rcd13ifvqfj0","pricing_plan_id":"cebpf4jnsgd1na2vs0mg"},{"bike_id":"ae8ba11b-30c9-4dd1-8025-3e410396edba","system_id":"levelo_inurba_marseille","lat":43.33023,"lon":5.39041,"is_reserved":false,"is_disabled":false,"rental_uris":{"android":"levelo://app?vid=ae8ba11b-30c9-4dd1-8025-3e410396edba","ios":"levelo://app?vid=ae8ba11b-30c9-4dd1-8025-3e410396edba"},"vehicle_type_id":"4","last_reported":1737116177,"current_range_meters":10000,"station_id":"ce4bhr92rcd13ifvqhrg","pricing_plan_id":"cebpf4jnsgd1na2vs0mg"},{"bike_id":"e081f161-9f24-4db5-a6f2-20ae941a0795","system_id":"levelo_inurba_marseille","lat":43.29371,"lon":5.37857,"is_reserved":false,"is_disabled":false,"rental_uris":{"android":"levelo://app?vid=e081f161-9f24-4db5-a6f2-20ae941a0795","ios":"levelo://app?vid=e081f161-9f24-4db5-a6f2-20ae941a0795"},"vehicle_type_id":"4","last_reported":1737116177,"current_range_meters":39200,"station_id":"ce4bgjh2rcd13ifvqbf0","pricing_plan_id":"cebpf4jnsgd1na2vs0mg"},{"bike_id":"7cfe6434-bc40-416b-a67c-6b987e262b97","system_id":"levelo_inurba_marseille","lat":43.29576,"lon":5.37516,"is_reserved":false,"is_disabled":false,"rental_uris":{"android":"levelo://app?vid=7cfe6434-bc40-416b-a67c-6b987e262b97","ios":"levelo://app?vid=7cfe6434-bc40-416b-a67c-6b987e262b97"},"vehicle_type_id":"4","last_reported":1737116177,"current_range_meters":38800,"station_id":"ce4bgh92rcd13ifvqb50","pricing_plan_id":"cebpf4jnsgd1na2vs0mg"},{"bike_id":"0aa09f67-eefc-45de-83cf-46587dbc0656","system_id":"levelo_inurba_marseille","lat":43.23179,"lon":5.39989,"is_reserved":false,"is_disabled":false,"rental_uris":{"android":"levelo://app?vid=0aa09f67-eefc-45de-83cf-46587dbc0656","ios":"levelo://app?vid=0aa09f67-eefc-45de-83cf-46587dbc0656"},"vehicle_type_id":"4","last_reported":1737116177,"current_range_meters":13600,"station_id":"ce4bhn12rcd13ifvqgqg","pricing_plan_id":"cebpf4jnsgd1na2vs0mg"},{"bike_id":"328833eb-57f6-480d-8a5f-20043340df2e","system_id":"levelo_inurba_marseille","lat":43.30148,"lon":5.37423,"is_reserved":false,"is_disabled":false,"rental_uris":{"android":"levelo://app?vid=328833eb-57f6-480d-8a5f-20043340df2e","ios":"levelo://app?vid=328833eb-57f6-480d-8a5f-20043340df2e"},"vehicle_type_id":"4","last_reported":1737116177,"current_range_meters":16000,"station_id":"ce4bgs92rcd13ifvqcc0","pricing_plan_id":"cebpf4jnsgd1na2vs0mg"},{"bike_id":"94339a91-1380-4ff2-8f0e-ccc0d08795da","system_id":"levelo_inurba_marseille","lat":43.27381,"lon":5.36294,"is_reserved":false,"is_disabled":false,"rental_uris":{"android":"levelo://app?vid=94339a91-1380-4ff2-8f0e-ccc0d08795da","ios":"levelo://app?vid=94339a91-1380-4ff2-8f0e-ccc0d08795da"},"vehicle_type_id":"4","last_reported":1737116177,"current_range_meters":22800,"station_id":"ce4bhbh2rcd13ifvqeo0","pricing_plan_id":"cebpf4jnsgd1na2vs0mg"},{"bike_id":"e155dc60-5198-4d48-b1b3-0c54d5e1b4ad","system_id":"levelo_inurba_marseille","lat":43.29973,"lon":5.4132,"is_reserved":false,"is_disabled":false,"rental_uris":{"android":"levelo://app?vid=e155dc60-5198-4d48-b1b3-0c54d5e1b4ad","ios":"levelo://app?vid=e155dc60-5198-4d48-b1b3-0c54d5e1b4ad"},"vehicle_type_id":"4","last_reported":1737116177,"current_range_meters":31200,"station_id":"ce4bhp12rcd13ifvqh9g","pricing_plan_id":"cebpf4jnsgd1na2vs0mg"},{"bike_id":"329b9334-6365-4b2b-9474-77fcac2432ee","system_id":"levelo_inurba_marseille","lat":43.23965,"lon":5.36662,"is_reserved":false,"is_disabled":false,"rental_uris":{"android":"levelo://app?vid=329b9334-6365-4b2b-9474-77fcac2432ee","ios":"levelo://app?vid=329b9334-6365-4b2b-9474-77fcac2432ee"},"vehicle_type_id":"4","last_reported":1737116177,"current_range_meters":38800,"station_id":"ce4bhi12rcd13ifvqfp0","pricing_plan_id":"cebpf4jnsgd1na2vs0mg"},{"bike_id":"1830f3d1-7612-4783-8c78-d817c5ae22bc","system_id":"levelo_inurba_marseille","lat":43.301007,"lon":5.390867,"is_reserved":false,"is_disabled":true,"rental_uris":{"android":"levelo://app?vid=1830f3d1-7612-4783-8c78-d817c5ae22bc","ios":"levelo://app?vid=1830f3d1-7612-4783-8c78-d817c5ae22bc"},"vehicle_type_id":"4","last_reported":1737116177,"current_range_meters":35200,"station_id":"ce4bh192rcd13ifvqdb0","pricing_plan_id":"cebpf4jnsgd1na2vs0mg"},{"bike_id":"77b24c8b-9524-4fa0-a81a-3c973ec0503c","system_id":"levelo_inurba_marseille","lat":43.30584,"lon":5.37227,"is_reserved":false,"is_disabled":false,"rental_uris":{"android":"levelo://app?vid=77b24c8b-9524-4fa0-a81a-3c973ec0503c","ios":"levelo://app?vid=77b24c8b-9524-4fa0-a81a-3c973ec0503c"},"vehicle_type_id":"4","last_reported":1737116177,"current_range_meters":28800,"station_id":"ce4bgqh2rcd13ifvqc4g","pricing_plan_id":"cebpf4jnsgd1na2vs0mg"},{"bike_id":"b48c49f1-9ada-4cbd-9e46-cdd0bbe2cc90","system_id":"levelo_inurba_marseille","lat":43.29333,"lon":5.37167,"is_reserved":false,"is_disabled":false,"rental_uris":{"android":"levelo://app?vid=b48c49f1-9ada-4cbd-9e46-cdd0bbe2cc90","ios":"levelo://app?vid=b48c49f1-9ada-4cbd-9e46-cdd0bbe2cc90"},"vehicle_type_id":"4","last_reported":1737116177,"current_range_meters":38800,"station_id":"ce4bgh92rcd13ifvqb40","pricing_plan_id":"cebpf4jnsgd1na2vs0mg"},{"bike_id":"6ea4d259-06b8-4e0f-9494-4eae2040b46d","system_id":"levelo_inurba_marseille","lat":43.24032,"lon":5.39672,"is_reserved":false,"is_disabled":false,"rental_uris":{"android":"levelo://app?vid=6ea4d259-06b8-4e0f-9494-4eae2040b46d","ios":"levelo://app?vid=6ea4d259-06b8-4e0f-9494-4eae2040b46d"},"vehicle_type_id":"4","last_reported":1737116177,"current_range_meters":28400,"station_id":"ce4bhn12rcd13ifvqgpg","pricing_plan_id":"cebpf4jnsgd1na2vs0mg"},{"bike_id":"156e8bd2-8d17-4068-85de-669f3af6ff3b","system_id":"levelo_inurba_marseille","lat":43.29916,"lon":5.37477,"is_reserved":false,"is_disabled":false,"rental_uris":{"android":"levelo://app?vid=156e8bd2-8d17-4068-85de-669f3af6ff3b","ios":"levelo://app?vid=156e8bd2-8d17-4068-85de-669f3af6ff3b"},"vehicle_type_id":"4","last_reported":1737116177,"current_range_meters":16800,"station_id":"ce4bgjh2rcd13ifvqbg0","pricing_plan_id":"cebpf4jnsgd1na2vs0mg"},{"bike_id":"23736063-3d35-4d8d-8671-5ac8421b09a2","system_id":"levelo_inurba_marseille","lat":43.2842,"lon":5.37509,"is_reserved":false,"is_disabled":false,"rental_uris":{"android":"levelo://app?vid=23736063-3d35-4d8d-8671-5ac8421b09a2","ios":"levelo://app?vid=23736063-3d35-4d8d-8671-5ac8421b09a2"},"vehicle_type_id":"4","last_reported":1737116177,"current_range_meters":16000,"station_id":"ce4bh412rcd13ifvqds0","pricing_plan_id":"cebpf4jnsgd1na2vs0mg"},{"bike_id":"3272d129-d6ad-4f2c-b91a-e1d1edf9e2d1","system_id":"levelo_inurba_marseille","lat":43.30545,"lon":5.38434,"is_reserved":false,"is_disabled":false,"rental_uris":{"android":"levelo://app?vid=3272d129-d6ad-4f2c-b91a-e1d1edf9e2d1","ios":"levelo://app?vid=3272d129-d6ad-4f2c-b91a-e1d1edf9e2d1"},"vehicle_type_id":"4","last_reported":1737116177,"current_range_meters":34800,"station_id":"ce4bgg92rcd13ifvqb30","pricing_plan_id":"cebpf4jnsgd1na2vs0mg"},{"bike_id":"811a1ec0-366e-4fd8-8f3c-3e594a31f929","system_id":"levelo_inurba_marseille","lat":43.25581,"lon":5.38243,"is_reserved":false,"is_disabled":false,"rental_uris":{"android":"levelo://app?vid=811a1ec0-366e-4fd8-8f3c-3e594a31f929","ios":"levelo://app?vid=811a1ec0-366e-4fd8-8f3c-3e594a31f929"},"vehicle_type_id":"4","last_reported":1737116177,"current_range_meters":34000,"station_id":"ce4bhih2rcd13ifvqfs0","pricing_plan_id":"cebpf4jnsgd1na2vs0mg"},{"bike_id":"cb72cf41-6af3-4b45-a4e9-1c7a7f95efa1","system_id":"levelo_inurba_marseille","lat":43.31988,"lon":5.38119,"is_reserved":false,"is_disabled":false,"rental_uris":{"android":"levelo://app?vid=cb72cf41-6af3-4b45-a4e9-1c7a7f95efa1","ios":"levelo://app?vid=cb72cf41-6af3-4b45-a4e9-1c7a7f95efa1"},"vehicle_type_id":"4","last_reported":1737116177,"current_range_meters":14800,"station_id":"ce4bhr12rcd13ifvqhpg","pricing_plan_id":"cebpf4jnsgd1na2vs0mg"},{"bike_id":"30c0a8cd-2aaf-4774-b17a-8d81b6b1b4b5","system_id":"levelo_inurba_marseille","lat":43.2957,"lon":5.37523,"is_reserved":false,"is_disabled":false,"rental_uris":{"android":"levelo://app?vid=30c0a8cd-2aaf-4774-b17a-8d81b6b1b4b5","ios":"levelo://app?vid=30c0a8cd-2aaf-4774-b17a-8d81b6b1b4b5"},"vehicle_type_id":"4","last_reported":1737116177,"current_range_meters":7200,"station_id":"ce4bgh92rcd13ifvqb50","pricing_plan_id":"cebpf4jnsgd1na2vs0mg"},{"bike_id":"2df9646c-a1db-4c59-9bfc-c151cf664b7e","system_id":"levelo_inurba_marseille","lat":43.24077,"lon":5.37757,"is_reserved":false,"is_disabled":true,"rental_uris":{"android":"levelo://app?vid=2df9646c-a1db-4c59-9bfc-c151cf664b7e","ios":"levelo://app?vid=2df9646c-a1db-4c59-9bfc-c151cf664b7e"},"vehicle_type_id":"4","last_reported":1737116177,"current_range_meters":2000,"station_id":"ce4bhnp2rcd13ifvqgvg","pricing_plan_id":"cebpf4jnsgd1na2vs0mg"},{"bike_id":"12262e51-19bb-4897-ab6c-02d967989cde","system_id":"levelo_inurba_marseille","lat":43.290055,"lon":5.381325,"is_reserved":false,"is_disabled":false,"rental_uris":{"android":"levelo://app?vid=12262e51-19bb-4897-ab6c-02d967989cde","ios":"levelo://app?vid=12262e51-19bb-4897-ab6c-02d967989cde"},"vehicle_type_id":"4","last_reported":1737116177,"current_range_meters":11600,"station_id":"ce4bh4p2rcd13ifvqe1g","pricing_plan_id":"cebpf4jnsgd1na2vs0mg"},{"bike_id":"357eaeda-fef2-41f2-9ad0-621ae2cc5c09","system_id":"levelo_inurba_marseille","lat":43.33768,"lon":5.37496,"is_reserved":false,"is_disabled":false,"rental_uris":{"android":"levelo://app?vid=357eaeda-fef2-41f2-9ad0-621ae2cc5c09","ios":"levelo://app?vid=357eaeda-fef2-41f2-9ad0-621ae2cc5c09"},"vehicle_type_id":"4","last_reported":1737116177,"current_range_meters":36000,"station_id":"","pricing_plan_id":"cebpf4jnsgd1na2vs0mg"},{"bike_id":"6d87274a-c28f-4ffd-a6b7-27865a460fe2","system_id":"levelo_inurba_marseille","lat":43.26078,"lon":5.39385,"is_reserved":false,"is_disabled":false,"rental_uris":{"android":"levelo://app?vid=6d87274a-c28f-4ffd-a6b7-27865a460fe2","ios":"levelo://app?vid=6d87274a-c28f-4ffd-a6b7-27865a460fe2"},"vehicle_type_id":"4","last_reported":1737116177,"current_range_meters":20800,"station_id":"ce4bhh92rcd13ifvqfj0","pricing_plan_id":"cebpf4jnsgd1na2vs0mg"},{"bike_id":"395ea8d6-62bf-4bcb-a333-53a6fb8928a8","system_id":"levelo_inurba_marseille","lat":43.27812,"lon":5.40712,"is_reserved":false,"is_disabled":false,"rental_uris":{"android":"levelo://app?vid=395ea8d6-62bf-4bcb-a333-53a6fb8928a8","ios":"levelo://app?vid=395ea8d6-62bf-4bcb-a333-53a6fb8928a8"},"vehicle_type_id":"4","last_reported":1737116177,"current_range_meters":14000,"station_id":"ce4bhnh2rcd13ifvqgtg","pricing_plan_id":"cebpf4jnsgd1na2vs0mg"},{"bike_id":"c218da46-0471-4a98-94fa-baf0e5ceded0","system_id":"levelo_inurba_marseille","lat":43.26558,"lon":5.37286,"is_reserved":false,"is_disabled":false,"rental_uris":{"android":"levelo://app?vid=c218da46-0471-4a98-94fa-baf0e5ceded0","ios":"levelo://app?vid=c218da46-0471-4a98-94fa-baf0e5ceded0"},"vehicle_type_id":"4","last_reported":1737116177,"current_range_meters":28000,"station_id":"ce4bhg12rcd13ifvqf70","pricing_plan_id":"cebpf4jnsgd1na2vs0mg"},{"bike_id":"b2fcc365-1922-4826-b239-17af81223754","system_id":"levelo_inurba_marseille","lat":43.29205,"lon":5.39325,"is_reserved":false,"is_disabled":false,"rental_uris":{"android":"levelo://app?vid=b2fcc365-1922-4826-b239-17af81223754","ios":"levelo://app?vid=b2fcc365-1922-4826-b239-17af81223754"},"vehicle_type_id":"4","last_reported":1737116177,"current_range_meters":26000,"station_id":"ce4bh192rcd13ifvqdd0","pricing_plan_id":"cebpf4jnsgd1na2vs0mg"},{"bike_id":"969b34ef-fc66-4cd2-8a69-ccbc7043a726","system_id":"levelo_inurba_marseille","lat":43.29871,"lon":5.38901,"is_reserved":false,"is_disabled":false,"rental_uris":{"android":"levelo://app?vid=969b34ef-fc66-4cd2-8a69-ccbc7043a726","ios":"levelo://app?vid=969b34ef-fc66-4cd2-8a69-ccbc7043a726"},"vehicle_type_id":"4","last_reported":1737116177,"current_range_meters":17600,"station_id":"ce4bh392rcd13ifvqdl0","pricing_plan_id":"cebpf4jnsgd1na2vs0mg"},{"bike_id":"beb934a8-669e-45c0-a57b-432659c27ac4","system_id":"levelo_inurba_marseille","lat":43.33726,"lon":5.3919,"is_reserved":false,"is_disabled":false,"rental_uris":{"android":"levelo://app?vid=beb934a8-669e-45c0-a57b-432659c27ac4","ios":"levelo://app?vid=beb934a8-669e-45c0-a57b-432659c27ac4"},"vehicle_type_id":"4","last_reported":1737116177,"current_range_meters":9600,"station_id":"ce4bhr92rcd13ifvqhsg","pricing_plan_id":"cebpf4jnsgd1na2vs0mg"},{"bike_id":"0f736ebc-b87e-42e4-bd96-a6e49d99dc0b","system_id":"levelo_inurba_marseille","lat":43.30696,"lon":5.39258,"is_reserved":false,"is_disabled":false,"rental_uris":{"android":"levelo://app?vid=0f736ebc-b87e-42e4-bd96-a6e49d99dc0b","ios":"levelo://app?vid=0f736ebc-b87e-42e4-bd96-a6e49d99dc0b"},"vehicle_type_id":"4","last_reported":1737116177,"current_range_meters":32400,"station_id":"","pricing_plan_id":"cebpf4jnsgd1na2vs0mg"},{"bike_id":"68066475-101f-414f-a8f6-a3b485821aad","system_id":"levelo_inurba_marseille","lat":43.30145,"lon":5.38769,"is_reserved":false,"is_disabled":false,"rental_uris":{"android":"levelo://app?vid=68066475-101f-414f-a8f6-a3b485821aad","ios":"levelo://app?vid=68066475-101f-414f-a8f6-a3b485821aad"},"vehicle_type_id":"4","last_reported":1737116177,"current_range_meters":37600,"station_id":"ce4bghh2rcd13ifvqb60","pricing_plan_id":"cebpf4jnsgd1na2vs0mg"},{"bike_id":"af7fc293-6c60-4ad0-a992-c6ff8a23d367","system_id":"levelo_inurba_marseille","lat":43.28975,"lon":5.37833,"is_reserved":false,"is_disabled":false,"rental_uris":{"android":"levelo://app?vid=af7fc293-6c60-4ad0-a992-c6ff8a23d367","ios":"levelo://app?vid=af7fc293-6c60-4ad0-a992-c6ff8a23d367"},"vehicle_type_id":"4","last_reported":1737116177,"current_range_meters":22800,"station_id":"ce4bh9p2rcd13ifvqed0","pricing_plan_id":"cebpf4jnsgd1na2vs0mg"},{"bike_id":"56d903d3-545c-41d1-a518-f818e560d9df","system_id":"levelo_inurba_marseille","lat":43.25093,"lon":5.39502,"is_reserved":false,"is_disabled":false,"rental_uris":{"android":"levelo://app?vid=56d903d3-545c-41d1-a518-f818e560d9df","ios":"levelo://app?vid=56d903d3-545c-41d1-a518-f818e560d9df"},"vehicle_type_id":"4","last_reported":1737116177,"current_range_meters":38800,"station_id":"ce4bhm12rcd13ifvqgkg","pricing_plan_id":"cebpf4jnsgd1na2vs0mg"},{"bike_id":"94688445-fffa-45d6-a9e0-7a288617c48e","system_id":"levelo_inurba_marseille","lat":43.30142,"lon":5.3742,"is_reserved":false,"is_disabled":false,"rental_uris":{"android":"levelo://app?vid=94688445-fffa-45d6-a9e0-7a288617c48e","ios":"levelo://app?vid=94688445-fffa-45d6-a9e0-7a288617c48e"},"vehicle_type_id":"4","last_reported":1737116177,"current_range_meters":38000,"station_id":"ce4bgs92rcd13ifvqcc0","pricing_plan_id":"cebpf4jnsgd1na2vs0mg"},{"bike_id":"9be957d2-26d1-49a4-9f85-b06ee3432064","system_id":"levelo_inurba_marseille","lat":43.33735,"lon":5.39205,"is_reserved":false,"is_disabled":false,"rental_uris":{"android":"levelo://app?vid=9be957d2-26d1-49a4-9f85-b06ee3432064","ios":"levelo://app?vid=9be957d2-26d1-49a4-9f85-b06ee3432064"},"vehicle_type_id":"4","last_reported":1737116177,"current_range_meters":30400,"station_id":"ce4bhr92rcd13ifvqhsg","pricing_plan_id":"cebpf4jnsgd1na2vs0mg"},{"bike_id":"38be1b2a-968d-40a2-a170-de6b0175bb31","system_id":"levelo_inurba_marseille","lat":43.30556,"lon":5.36548,"is_reserved":false,"is_disabled":false,"rental_uris":{"android":"levelo://app?vid=38be1b2a-968d-40a2-a170-de6b0175bb31","ios":"levelo://app?vid=38be1b2a-968d-40a2-a170-de6b0175bb31"},"vehicle_type_id":"4","last_reported":1737116177,"current_range_meters":36800,"station_id":"ce4bgs12rcd13ifvqcag","pricing_plan_id":"cebpf4jnsgd1na2vs0mg"},{"bike_id":"0bc50a5d-edd0-454d-a57b-77e24db6799f","system_id":"levelo_inurba_marseille","lat":43.299,"lon":5.38145,"is_reserved":false,"is_disabled":false,"rental_uris":{"android":"levelo://app?vid=0bc50a5d-edd0-454d-a57b-77e24db6799f","ios":"levelo://app?vid=0bc50a5d-edd0-454d-a57b-77e24db6799f"},"vehicle_type_id":"4","last_reported":1737116177,"current_range_meters":25200,"station_id":"ce4bgj12rcd13ifvqbc0","pricing_plan_id":"cebpf4jnsgd1na2vs0mg"},{"bike_id":"45f48456-66f8-4544-8c8c-d7f1792f2a8a","system_id":"levelo_inurba_marseille","lat":43.32631,"lon":5.40981,"is_reserved":false,"is_disabled":false,"rental_uris":{"android":"levelo://app?vid=45f48456-66f8-4544-8c8c-d7f1792f2a8a","ios":"levelo://app?vid=45f48456-66f8-4544-8c8c-d7f1792f2a8a"},"vehicle_type_id":"4","last_reported":1737116177,"current_range_meters":38800,"station_id":"ce4bhpp2rcd13ifvqhgg","pricing_plan_id":"cebpf4jnsgd1na2vs0mg"},{"bike_id":"0776c627-b8cd-402f-b327-b285d16dcb08","system_id":"levelo_inurba_marseille","lat":43.29529,"lon":5.39053,"is_reserved":false,"is_disabled":false,"rental_uris":{"android":"levelo://app?vid=0776c627-b8cd-402f-b327-b285d16dcb08","ios":"levelo://app?vid=0776c627-b8cd-402f-b327-b285d16dcb08"},"vehicle_type_id":"4","last_reported":1737116177,"current_range_meters":9200,"station_id":"ce4bh3p2rcd13ifvqdp0","pricing_plan_id":"cebpf4jnsgd1na2vs0mg"},{"bike_id":"4a4bdb5d-7f2d-4b22-a0dd-b6ee22b2db6e","system_id":"levelo_inurba_marseille","lat":43.2509,"lon":5.39539,"is_reserved":false,"is_disabled":false,"rental_uris":{"android":"levelo://app?vid=4a4bdb5d-7f2d-4b22-a0dd-b6ee22b2db6e","ios":"levelo://app?vid=4a4bdb5d-7f2d-4b22-a0dd-b6ee22b2db6e"},"vehicle_type_id":"4","last_reported":1737116177,"current_range_meters":38800,"station_id":"ce4bhm12rcd13ifvqgkg","pricing_plan_id":"cebpf4jnsgd1na2vs0mg"},{"bike_id":"58e9702f-1964-4e54-97d7-4593d108e9a2","system_id":"levelo_inurba_marseille","lat":43.2957,"lon":5.37512,"is_reserved":false,"is_disabled":false,"rental_uris":{"android":"levelo://app?vid=58e9702f-1964-4e54-97d7-4593d108e9a2","ios":"levelo://app?vid=58e9702f-1964-4e54-97d7-4593d108e9a2"},"vehicle_type_id":"4","last_reported":1737116177,"current_range_meters":20000,"station_id":"ce4bgh92rcd13ifvqb50","pricing_plan_id":"cebpf4jnsgd1na2vs0mg"},{"bike_id":"71ec3b78-62ee-425f-a11a-d515e872f180","system_id":"levelo_inurba_marseille","lat":43.24662,"lon":5.38166,"is_reserved":false,"is_disabled":false,"rental_uris":{"android":"levelo://app?vid=71ec3b78-62ee-425f-a11a-d515e872f180","ios":"levelo://app?vid=71ec3b78-62ee-425f-a11a-d515e872f180"},"vehicle_type_id":"4","last_reported":1737116177,"current_range_meters":26800,"station_id":"ce4bhih2rcd13ifvqfr0","pricing_plan_id":"cebpf4jnsgd1na2vs0mg"},{"bike_id":"8aec79c4-fdd9-41df-910e-ddd3beedcbcf","system_id":"levelo_inurba_marseille","lat":43.29,"lon":5.35617,"is_reserved":false,"is_disabled":false,"rental_uris":{"android":"levelo://app?vid=8aec79c4-fdd9-41df-910e-ddd3beedcbcf","ios":"levelo://app?vid=8aec79c4-fdd9-41df-910e-ddd3beedcbcf"},"vehicle_type_id":"4","last_reported":1737116177,"current_range_meters":12800,"station_id":"ce4bhb92rcd13ifvqen0","pricing_plan_id":"cebpf4jnsgd1na2vs0mg"},{"bike_id":"f905a655-c7da-4dc2-b178-315b71adf8ef","system_id":"levelo_inurba_marseille","lat":43.29317,"lon":5.37175,"is_reserved":false,"is_disabled":false,"rental_uris":{"android":"levelo://app?vid=f905a655-c7da-4dc2-b178-315b71adf8ef","ios":"levelo://app?vid=f905a655-c7da-4dc2-b178-315b71adf8ef"},"vehicle_type_id":"4","last_reported":1737116177,"current_range_meters":38400,"station_id":"ce4bgh92rcd13ifvqb40","pricing_plan_id":"cebpf4jnsgd1na2vs0mg"},{"bike_id":"1119e8d2-b9d1-415d-b182-b6d8d878b965","system_id":"levelo_inurba_marseille","lat":43.29579,"lon":5.37517,"is_reserved":false,"is_disabled":false,"rental_uris":{"android":"levelo://app?vid=1119e8d2-b9d1-415d-b182-b6d8d878b965","ios":"levelo://app?vid=1119e8d2-b9d1-415d-b182-b6d8d878b965"},"vehicle_type_id":"4","last_reported":1737116177,"current_range_meters":17200,"station_id":"ce4bgh92rcd13ifvqb50","pricing_plan_id":"cebpf4jnsgd1na2vs0mg"},{"bike_id":"ceaa1458-83a9-43c8-aed6-e72ea07fb43a","system_id":"levelo_inurba_marseille","lat":43.31565,"lon":5.38926,"is_reserved":false,"is_disabled":false,"rental_uris":{"android":"levelo://app?vid=ceaa1458-83a9-43c8-aed6-e72ea07fb43a","ios":"levelo://app?vid=ceaa1458-83a9-43c8-aed6-e72ea07fb43a"},"vehicle_type_id":"4","last_reported":1737116177,"current_range_meters":9600,"station_id":"","pricing_plan_id":"cebpf4jnsgd1na2vs0mg"},{"bike_id":"83fce08c-af1c-4c28-9926-5facc31d37af","system_id":"levelo_inurba_marseille","lat":43.29386,"lon":5.37851,"is_reserved":false,"is_disabled":false,"rental_uris":{"android":"levelo://app?vid=83fce08c-af1c-4c28-9926-5facc31d37af","ios":"levelo://app?vid=83fce08c-af1c-4c28-9926-5facc31d37af"},"vehicle_type_id":"4","last_reported":1737116177,"current_range_meters":26000,"station_id":"ce4bgjh2rcd13ifvqbf0","pricing_plan_id":"cebpf4jnsgd1na2vs0mg"},{"bike_id":"fb214692-5473-4045-83a9-9a43f22328e4","system_id":"levelo_inurba_marseille","lat":43.30905,"lon":5.37205,"is_reserved":false,"is_disabled":false,"rental_uris":{"android":"levelo://app?vid=fb214692-5473-4045-83a9-9a43f22328e4","ios":"levelo://app?vid=fb214692-5473-4045-83a9-9a43f22328e4"},"vehicle_type_id":"4","last_reported":1737116177,"current_range_meters":30800,"station_id":"ce4bguh2rcd13ifvqckg","pricing_plan_id":"cebpf4jnsgd1na2vs0mg"},{"bike_id":"06847a7c-81a3-47a7-969a-ce10f7980e65","system_id":"levelo_inurba_marseille","lat":43.23154,"lon":5.43705,"is_reserved":false,"is_disabled":false,"rental_uris":{"android":"levelo://app?vid=06847a7c-81a3-47a7-969a-ce10f7980e65","ios":"levelo://app?vid=06847a7c-81a3-47a7-969a-ce10f7980e65"},"vehicle_type_id":"4","last_reported":1737116177,"current_range_meters":34000,"station_id":"ce4bhmp2rcd13ifvqgog","pricing_plan_id":"cebpf4jnsgd1na2vs0mg"},{"bike_id":"10d4a44b-4ac4-4905-b7ec-86d014e96ec1","system_id":"levelo_inurba_marseille","lat":43.32486,"lon":5.36567,"is_reserved":false,"is_disabled":false,"rental_uris":{"android":"levelo://app?vid=10d4a44b-4ac4-4905-b7ec-86d014e96ec1","ios":"levelo://app?vid=10d4a44b-4ac4-4905-b7ec-86d014e96ec1"},"vehicle_type_id":"4","last_reported":1737116177,"current_range_meters":30000,"station_id":"ce4bhs12rcd13ifvqhvg","pricing_plan_id":"cebpf4jnsgd1na2vs0mg"},{"bike_id":"486b82a3-4b5c-4f03-8752-0eea3399df80","system_id":"levelo_inurba_marseille","lat":43.30138,"lon":5.37409,"is_reserved":false,"is_disabled":false,"rental_uris":{"android":"levelo://app?vid=486b82a3-4b5c-4f03-8752-0eea3399df80","ios":"levelo://app?vid=486b82a3-4b5c-4f03-8752-0eea3399df80"},"vehicle_type_id":"4","last_reported":1737116177,"current_range_meters":21600,"station_id":"ce4bgs92rcd13ifvqcc0","pricing_plan_id":"cebpf4jnsgd1na2vs0mg"},{"bike_id":"2cd0985d-7283-4c92-9a82-adccfa2cd63e","system_id":"levelo_inurba_marseille","lat":43.33026,"lon":5.39046,"is_reserved":false,"is_disabled":false,"rental_uris":{"android":"levelo://app?vid=2cd0985d-7283-4c92-9a82-adccfa2cd63e","ios":"levelo://app?vid=2cd0985d-7283-4c92-9a82-adccfa2cd63e"},"vehicle_type_id":"4","last_reported":1737116177,"current_range_meters":20000,"station_id":"ce4bhr92rcd13ifvqhrg","pricing_plan_id":"cebpf4jnsgd1na2vs0mg"},{"bike_id":"a7ee0ebc-b3d3-4de7-b1d0-8e2ec3a5a978","system_id":"levelo_inurba_marseille","lat":43.27663,"lon":5.3891,"is_reserved":false,"is_disabled":false,"rental_uris":{"android":"levelo://app?vid=a7ee0ebc-b3d3-4de7-b1d0-8e2ec3a5a978","ios":"levelo://app?vid=a7ee0ebc-b3d3-4de7-b1d0-8e2ec3a5a978"},"vehicle_type_id":"4","last_reported":1737116177,"current_range_meters":5600,"station_id":"ce4bhi12rcd13ifvqfo0","pricing_plan_id":"cebpf4jnsgd1na2vs0mg"},{"bike_id":"f0cdcecd-d7fa-49b2-aea1-a122944f7f6a","system_id":"levelo_inurba_marseille","lat":43.31715,"lon":5.37783,"is_reserved":false,"is_disabled":false,"rental_uris":{"android":"levelo://app?vid=f0cdcecd-d7fa-49b2-aea1-a122944f7f6a","ios":"levelo://app?vid=f0cdcecd-d7fa-49b2-aea1-a122944f7f6a"},"vehicle_type_id":"4","last_reported":1737116177,"current_range_meters":38800,"station_id":"ce4bgth2rcd13ifvqch0","pricing_plan_id":"cebpf4jnsgd1na2vs0mg"},{"bike_id":"678e6c21-ae33-4211-9534-682ad57c39c7","system_id":"levelo_inurba_marseille","lat":43.23197,"lon":5.40004,"is_reserved":false,"is_disabled":false,"rental_uris":{"android":"levelo://app?vid=678e6c21-ae33-4211-9534-682ad57c39c7","ios":"levelo://app?vid=678e6c21-ae33-4211-9534-682ad57c39c7"},"vehicle_type_id":"4","last_reported":1737116177,"current_range_meters":14800,"station_id":"ce4bhn12rcd13ifvqgqg","pricing_plan_id":"cebpf4jnsgd1na2vs0mg"},{"bike_id":"67c549d5-ce81-408a-a146-d43915340e7f","system_id":"levelo_inurba_marseille","lat":43.337254,"lon":5.391905,"is_reserved":false,"is_disabled":false,"rental_uris":{"android":"levelo://app?vid=67c549d5-ce81-408a-a146-d43915340e7f","ios":"levelo://app?vid=67c549d5-ce81-408a-a146-d43915340e7f"},"vehicle_type_id":"4","last_reported":1737116177,"current_range_meters":39200,"station_id":"ce4bhr92rcd13ifvqhsg","pricing_plan_id":"cebpf4jnsgd1na2vs0mg"},{"bike_id":"2c5df72a-6c5d-472a-813d-9e8b6ded4aea","system_id":"levelo_inurba_marseille","lat":43.27681,"lon":5.38937,"is_reserved":false,"is_disabled":false,"rental_uris":{"android":"levelo://app?vid=2c5df72a-6c5d-472a-813d-9e8b6ded4aea","ios":"levelo://app?vid=2c5df72a-6c5d-472a-813d-9e8b6ded4aea"},"vehicle_type_id":"4","last_reported":1737116177,"current_range_meters":38800,"station_id":"ce4bhi12rcd13ifvqfo0","pricing_plan_id":"cebpf4jnsgd1na2vs0mg"},{"bike_id":"6a575a28-9122-463d-903d-579803bf0e58","system_id":"levelo_inurba_marseille","lat":43.3016,"lon":5.3808,"is_reserved":false,"is_disabled":false,"rental_uris":{"android":"levelo://app?vid=6a575a28-9122-463d-903d-579803bf0e58","ios":"levelo://app?vid=6a575a28-9122-463d-903d-579803bf0e58"},"vehicle_type_id":"4","last_reported":1737116177,"current_range_meters":39200,"station_id":"ce4bgjp2rcd13ifvqbh0","pricing_plan_id":"cebpf4jnsgd1na2vs0mg"},{"bike_id":"26b2b9d0-0f40-4411-b5b2-7f27a5b691d0","system_id":"levelo_inurba_marseille","lat":43.250015,"lon":5.38943,"is_reserved":false,"is_disabled":false,"rental_uris":{"android":"levelo://app?vid=26b2b9d0-0f40-4411-b5b2-7f27a5b691d0","ios":"levelo://app?vid=26b2b9d0-0f40-4411-b5b2-7f27a5b691d0"},"vehicle_type_id":"4","last_reported":1737116177,"current_range_meters":16400,"station_id":"ce4bhgp2rcd13ifvqfd0","pricing_plan_id":"cebpf4jnsgd1na2vs0mg"},{"bike_id":"0d77fce9-cfcb-4693-962c-890840a65109","system_id":"levelo_inurba_marseille","lat":43.2961,"lon":5.37722,"is_reserved":false,"is_disabled":false,"rental_uris":{"android":"levelo://app?vid=0d77fce9-cfcb-4693-962c-890840a65109","ios":"levelo://app?vid=0d77fce9-cfcb-4693-962c-890840a65109"},"vehicle_type_id":"4","last_reported":1737116177,"current_range_meters":30400,"station_id":"ce4bgi92rcd13ifvqb90","pricing_plan_id":"cebpf4jnsgd1na2vs0mg"},{"bike_id":"f5101d70-b8df-4ea1-8710-7572292c75bb","system_id":"levelo_inurba_marseille","lat":43.2407,"lon":5.37761,"is_reserved":false,"is_disabled":false,"rental_uris":{"android":"levelo://app?vid=f5101d70-b8df-4ea1-8710-7572292c75bb","ios":"levelo://app?vid=f5101d70-b8df-4ea1-8710-7572292c75bb"},"vehicle_type_id":"4","last_reported":1737116177,"current_range_meters":1600,"station_id":"ce4bhnp2rcd13ifvqgvg","pricing_plan_id":"cebpf4jnsgd1na2vs0mg"},{"bike_id":"34709e64-d1c8-4538-88a5-33805792c0a5","system_id":"levelo_inurba_marseille","lat":43.25827,"lon":5.39437,"is_reserved":false,"is_disabled":false,"rental_uris":{"android":"levelo://app?vid=34709e64-d1c8-4538-88a5-33805792c0a5","ios":"levelo://app?vid=34709e64-d1c8-4538-88a5-33805792c0a5"},"vehicle_type_id":"4","last_reported":1737116177,"current_range_meters":38400,"station_id":"ce4bhip2rcd13ifvqft0","pricing_plan_id":"cebpf4jnsgd1na2vs0mg"},{"bike_id":"d4c5158e-511e-4c0e-af6f-6a3bbf5cc0e5","system_id":"levelo_inurba_marseille","lat":43.2706,"lon":5.42276,"is_reserved":false,"is_disabled":true,"rental_uris":{"android":"levelo://app?vid=d4c5158e-511e-4c0e-af6f-6a3bbf5cc0e5","ios":"levelo://app?vid=d4c5158e-511e-4c0e-af6f-6a3bbf5cc0e5"},"vehicle_type_id":"4","last_reported":1737116177,"current_range_meters":0,"station_id":"ce4bhk92rcd13ifvqgb0","pricing_plan_id":"cebpf4jnsgd1na2vs0mg"},{"bike_id":"8067e2c8-91e1-4b01-955b-cb47a104e7dc","system_id":"levelo_inurba_marseille","lat":43.24165,"lon":5.39738,"is_reserved":false,"is_disabled":false,"rental_uris":{"android":"levelo://app?vid=8067e2c8-91e1-4b01-955b-cb47a104e7dc","ios":"levelo://app?vid=8067e2c8-91e1-4b01-955b-cb47a104e7dc"},"vehicle_type_id":"4","last_reported":1737116177,"current_range_meters":27200,"station_id":"ce4bhn12rcd13ifvqgpg","pricing_plan_id":"cebpf4jnsgd1na2vs0mg"},{"bike_id":"e7404248-5784-4818-b34d-eaa468c11fde","system_id":"levelo_inurba_marseille","lat":43.2928,"lon":5.38457,"is_reserved":false,"is_disabled":false,"rental_uris":{"android":"levelo://app?vid=e7404248-5784-4818-b34d-eaa468c11fde","ios":"levelo://app?vid=e7404248-5784-4818-b34d-eaa468c11fde"},"vehicle_type_id":"4","last_reported":1737116177,"current_range_meters":28000,"station_id":"ce4bh692rcd13ifvqea0","pricing_plan_id":"cebpf4jnsgd1na2vs0mg"},{"bike_id":"58059c20-35ab-411a-9814-0374fc5d25fb","system_id":"levelo_inurba_marseille","lat":43.30559,"lon":5.36763,"is_reserved":false,"is_disabled":false,"rental_uris":{"android":"levelo://app?vid=58059c20-35ab-411a-9814-0374fc5d25fb","ios":"levelo://app?vid=58059c20-35ab-411a-9814-0374fc5d25fb"},"vehicle_type_id":"4","last_reported":1737116177,"current_range_meters":38800,"station_id":"ce4bgrp2rcd13ifvqc9g","pricing_plan_id":"cebpf4jnsgd1na2vs0mg"},{"bike_id":"3d0bb5c0-7066-448c-b9c2-0728f3c5eaa1","system_id":"levelo_inurba_marseille","lat":43.32501,"lon":5.36572,"is_reserved":false,"is_disabled":false,"rental_uris":{"android":"levelo://app?vid=3d0bb5c0-7066-448c-b9c2-0728f3c5eaa1","ios":"levelo://app?vid=3d0bb5c0-7066-448c-b9c2-0728f3c5eaa1"},"vehicle_type_id":"4","last_reported":1737116177,"current_range_meters":32000,"station_id":"ce4bhs12rcd13ifvqhvg","pricing_plan_id":"cebpf4jnsgd1na2vs0mg"},{"bike_id":"5bb5f4cf-d6ca-4b13-b823-0695cdc318d4","system_id":"levelo_inurba_marseille","lat":43.27907,"lon":5.3959,"is_reserved":false,"is_disabled":false,"rental_uris":{"android":"levelo://app?vid=5bb5f4cf-d6ca-4b13-b823-0695cdc318d4","ios":"levelo://app?vid=5bb5f4cf-d6ca-4b13-b823-0695cdc318d4"},"vehicle_type_id":"4","last_reported":1737116177,"current_range_meters":22000,"station_id":"ce4bhf92rcd13ifvqf40","pricing_plan_id":"cebpf4jnsgd1na2vs0mg"},{"bike_id":"575187ad-6d10-426e-85b8-4268426275d2","system_id":"levelo_inurba_marseille","lat":43.2799,"lon":5.41671,"is_reserved":false,"is_disabled":false,"rental_uris":{"android":"levelo://app?vid=575187ad-6d10-426e-85b8-4268426275d2","ios":"levelo://app?vid=575187ad-6d10-426e-85b8-4268426275d2"},"vehicle_type_id":"4","last_reported":1737116177,"current_range_meters":16800,"station_id":"ce4bho12rcd13ifvqh1g","pricing_plan_id":"cebpf4jnsgd1na2vs0mg"},{"bike_id":"56b8e9bc-f750-4815-bc98-9098414d16db","system_id":"levelo_inurba_marseille","lat":43.23195,"lon":5.35559,"is_reserved":false,"is_disabled":true,"rental_uris":{"android":"levelo://app?vid=56b8e9bc-f750-4815-bc98-9098414d16db","ios":"levelo://app?vid=56b8e9bc-f750-4815-bc98-9098414d16db"},"vehicle_type_id":"4","last_reported":1737116177,"current_range_meters":0,"station_id":"ce4bhu92rcd13ifvqi70","pricing_plan_id":"cebpf4jnsgd1na2vs0mg"},{"bike_id":"66bcc3ef-7373-4fe7-b0fb-fa2289370b4b","system_id":"levelo_inurba_marseille","lat":43.27879,"lon":5.4159,"is_reserved":false,"is_disabled":false,"rental_uris":{"android":"levelo://app?vid=66bcc3ef-7373-4fe7-b0fb-fa2289370b4b","ios":"levelo://app?vid=66bcc3ef-7373-4fe7-b0fb-fa2289370b4b"},"vehicle_type_id":"4","last_reported":1737116177,"current_range_meters":10000,"station_id":"","pricing_plan_id":"cebpf4jnsgd1na2vs0mg"},{"bike_id":"ecaa0c77-1eec-4faa-8f1a-38089f04868c","system_id":"levelo_inurba_marseille","lat":43.28721,"lon":5.37937,"is_reserved":false,"is_disabled":false,"rental_uris":{"android":"levelo://app?vid=ecaa0c77-1eec-4faa-8f1a-38089f04868c","ios":"levelo://app?vid=ecaa0c77-1eec-4faa-8f1a-38089f04868c"},"vehicle_type_id":"4","last_reported":1737116177,"current_range_meters":33600,"station_id":"ce4bh9p2rcd13ifvqec0","pricing_plan_id":"cebpf4jnsgd1na2vs0mg"},{"bike_id":"fe61bab4-2147-46ac-96bc-5b15a0832ed3","system_id":"levelo_inurba_marseille","lat":43.23152,"lon":5.43713,"is_reserved":false,"is_disabled":true,"rental_uris":{"android":"levelo://app?vid=fe61bab4-2147-46ac-96bc-5b15a0832ed3","ios":"levelo://app?vid=fe61bab4-2147-46ac-96bc-5b15a0832ed3"},"vehicle_type_id":"4","last_reported":1737116177,"current_range_meters":0,"station_id":"ce4bhmp2rcd13ifvqgog","pricing_plan_id":"cebpf4jnsgd1na2vs0mg"},{"bike_id":"80d8eccd-3afc-44d9-a476-939f5718f843","system_id":"levelo_inurba_marseille","lat":43.29593,"lon":5.375227,"is_reserved":false,"is_disabled":false,"rental_uris":{"android":"levelo://app?vid=80d8eccd-3afc-44d9-a476-939f5718f843","ios":"levelo://app?vid=80d8eccd-3afc-44d9-a476-939f5718f843"},"vehicle_type_id":"4","last_reported":1737116177,"current_range_meters":38800,"station_id":"ce4bgh92rcd13ifvqb50","pricing_plan_id":"cebpf4jnsgd1na2vs0mg"},{"bike_id":"52305f01-8ce8-491a-882c-f182c9f8f81d","system_id":"levelo_inurba_marseille","lat":43.28942,"lon":5.36634,"is_reserved":false,"is_disabled":false,"rental_uris":{"android":"levelo://app?vid=52305f01-8ce8-491a-882c-f182c9f8f81d","ios":"levelo://app?vid=52305f01-8ce8-491a-882c-f182c9f8f81d"},"vehicle_type_id":"4","last_reported":1737116177,"current_range_meters":28000,"station_id":"ce4bhap2rcd13ifvqek0","pricing_plan_id":"cebpf4jnsgd1na2vs0mg"},{"bike_id":"67f36592-2720-4fce-8fce-4bec705ef4ac","system_id":"levelo_inurba_marseille","lat":43.28944,"lon":5.39653,"is_reserved":false,"is_disabled":false,"rental_uris":{"android":"levelo://app?vid=67f36592-2720-4fce-8fce-4bec705ef4ac","ios":"levelo://app?vid=67f36592-2720-4fce-8fce-4bec705ef4ac"},"vehicle_type_id":"4","last_reported":1737116177,"current_range_meters":16000,"station_id":"ce4bh3h2rcd13ifvqdn0","pricing_plan_id":"cebpf4jnsgd1na2vs0mg"},{"bike_id":"1b0abdf0-ebc9-477b-9a5c-20d604bc88e3","system_id":"levelo_inurba_marseille","lat":43.25089,"lon":5.39506,"is_reserved":false,"is_disabled":false,"rental_uris":{"android":"levelo://app?vid=1b0abdf0-ebc9-477b-9a5c-20d604bc88e3","ios":"levelo://app?vid=1b0abdf0-ebc9-477b-9a5c-20d604bc88e3"},"vehicle_type_id":"4","last_reported":1737116177,"current_range_meters":38400,"station_id":"ce4bhm12rcd13ifvqgkg","pricing_plan_id":"cebpf4jnsgd1na2vs0mg"},{"bike_id":"0ff95f94-f745-4638-913c-3c90186dbbab","system_id":"levelo_inurba_marseille","lat":43.24644,"lon":5.38903,"is_reserved":false,"is_disabled":true,"rental_uris":{"android":"levelo://app?vid=0ff95f94-f745-4638-913c-3c90186dbbab","ios":"levelo://app?vid=0ff95f94-f745-4638-913c-3c90186dbbab"},"vehicle_type_id":"4","last_reported":1737116177,"current_range_meters":0,"station_id":"ce4bhg12rcd13ifvqf60","pricing_plan_id":"cebpf4jnsgd1na2vs0mg"},{"bike_id":"8b7baea5-881c-4e1d-92a0-3c4089bca648","system_id":"levelo_inurba_marseille","lat":43.27995,"lon":5.38742,"is_reserved":false,"is_disabled":false,"rental_uris":{"android":"levelo://app?vid=8b7baea5-881c-4e1d-92a0-3c4089bca648","ios":"levelo://app?vid=8b7baea5-881c-4e1d-92a0-3c4089bca648"},"vehicle_type_id":"4","last_reported":1737116177,"current_range_meters":11600,"station_id":"ce4bhg12rcd13ifvqf80","pricing_plan_id":"cebpf4jnsgd1na2vs0mg"},{"bike_id":"e7c76594-fea5-4f85-9662-57c0a0d28b3e","system_id":"levelo_inurba_marseille","lat":43.3171,"lon":5.37741,"is_reserved":false,"is_disabled":false,"rental_uris":{"android":"levelo://app?vid=e7c76594-fea5-4f85-9662-57c0a0d28b3e","ios":"levelo://app?vid=e7c76594-fea5-4f85-9662-57c0a0d28b3e"},"vehicle_type_id":"4","last_reported":1737116177,"current_range_meters":3600,"station_id":"ce4bgth2rcd13ifvqch0","pricing_plan_id":"cebpf4jnsgd1na2vs0mg"},{"bike_id":"5d4c23b0-333e-4aba-98f6-c89fb76cfb71","system_id":"levelo_inurba_marseille","lat":43.33742,"lon":5.37463,"is_reserved":false,"is_disabled":false,"rental_uris":{"android":"levelo://app?vid=5d4c23b0-333e-4aba-98f6-c89fb76cfb71","ios":"levelo://app?vid=5d4c23b0-333e-4aba-98f6-c89fb76cfb71"},"vehicle_type_id":"4","last_reported":1737116177,"current_range_meters":38000,"station_id":"","pricing_plan_id":"cebpf4jnsgd1na2vs0mg"},{"bike_id":"22465212-93af-4e0b-b803-6ee82bba56d5","system_id":"levelo_inurba_marseille","lat":43.337625,"lon":5.37477,"is_reserved":false,"is_disabled":false,"rental_uris":{"android":"levelo://app?vid=22465212-93af-4e0b-b803-6ee82bba56d5","ios":"levelo://app?vid=22465212-93af-4e0b-b803-6ee82bba56d5"},"vehicle_type_id":"4","last_reported":1737116177,"current_range_meters":30800,"station_id":"","pricing_plan_id":"cebpf4jnsgd1na2vs0mg"},{"bike_id":"57d28b69-a629-4d00-8952-ad3637220644","system_id":"levelo_inurba_marseille","lat":43.29637,"lon":5.37177,"is_reserved":false,"is_disabled":true,"rental_uris":{"android":"levelo://app?vid=57d28b69-a629-4d00-8952-ad3637220644","ios":"levelo://app?vid=57d28b69-a629-4d00-8952-ad3637220644"},"vehicle_type_id":"4","last_reported":1737116177,"current_range_meters":0,"station_id":"ce4bgnh2rcd13ifvqc0g","pricing_plan_id":"cebpf4jnsgd1na2vs0mg"},{"bike_id":"979d7a5c-00ce-4dcf-a15c-0fc9c9e35c10","system_id":"levelo_inurba_marseille","lat":43.33787,"lon":5.37431,"is_reserved":false,"is_disabled":false,"rental_uris":{"android":"levelo://app?vid=979d7a5c-00ce-4dcf-a15c-0fc9c9e35c10","ios":"levelo://app?vid=979d7a5c-00ce-4dcf-a15c-0fc9c9e35c10"},"vehicle_type_id":"4","last_reported":1737116177,"current_range_meters":37600,"station_id":"","pricing_plan_id":"cebpf4jnsgd1na2vs0mg"},{"bike_id":"65738d62-b35b-4989-a509-3ac269e67ca5","system_id":"levelo_inurba_marseille","lat":43.30548,"lon":5.36708,"is_reserved":false,"is_disabled":false,"rental_uris":{"android":"levelo://app?vid=65738d62-b35b-4989-a509-3ac269e67ca5","ios":"levelo://app?vid=65738d62-b35b-4989-a509-3ac269e67ca5"},"vehicle_type_id":"4","last_reported":1737116177,"current_range_meters":39200,"station_id":"ce4bgrp2rcd13ifvqc9g","pricing_plan_id":"cebpf4jnsgd1na2vs0mg"},{"bike_id":"7513d000-60d4-4b50-b054-5d2e79f7b378","system_id":"levelo_inurba_marseille","lat":43.28972,"lon":5.37838,"is_reserved":false,"is_disabled":false,"rental_uris":{"android":"levelo://app?vid=7513d000-60d4-4b50-b054-5d2e79f7b378","ios":"levelo://app?vid=7513d000-60d4-4b50-b054-5d2e79f7b378"},"vehicle_type_id":"4","last_reported":1737116177,"current_range_meters":22800,"station_id":"ce4bh9p2rcd13ifvqed0","pricing_plan_id":"cebpf4jnsgd1na2vs0mg"},{"bike_id":"775cd297-00ad-410e-aaf2-ea083a350e42","system_id":"levelo_inurba_marseille","lat":43.31763,"lon":5.39014,"is_reserved":false,"is_disabled":false,"rental_uris":{"android":"levelo://app?vid=775cd297-00ad-410e-aaf2-ea083a350e42","ios":"levelo://app?vid=775cd297-00ad-410e-aaf2-ea083a350e42"},"vehicle_type_id":"4","last_reported":1737116177,"current_range_meters":39200,"station_id":"ce4bhqp2rcd13ifvqhng","pricing_plan_id":"cebpf4jnsgd1na2vs0mg"},{"bike_id":"cee10d1e-3be0-43a0-95a1-da6e41b8d317","system_id":"levelo_inurba_marseille","lat":43.29266,"lon":5.38444,"is_reserved":false,"is_disabled":true,"rental_uris":{"android":"levelo://app?vid=cee10d1e-3be0-43a0-95a1-da6e41b8d317","ios":"levelo://app?vid=cee10d1e-3be0-43a0-95a1-da6e41b8d317"},"vehicle_type_id":"4","last_reported":1737116177,"current_range_meters":18000,"station_id":"ce4bh692rcd13ifvqea0","pricing_plan_id":"cebpf4jnsgd1na2vs0mg"},{"bike_id":"f19b17bb-a036-43ca-8fe9-60a1d88142bc","system_id":"levelo_inurba_marseille","lat":43.29018,"lon":5.35934,"is_reserved":false,"is_disabled":false,"rental_uris":{"android":"levelo://app?vid=f19b17bb-a036-43ca-8fe9-60a1d88142bc","ios":"levelo://app?vid=f19b17bb-a036-43ca-8fe9-60a1d88142bc"},"vehicle_type_id":"4","last_reported":1737116177,"current_range_meters":39200,"station_id":"ce4bha92rcd13ifvqeg0","pricing_plan_id":"cebpf4jnsgd1na2vs0mg"},{"bike_id":"ba3f556c-cf6a-4039-a072-0e6118db4c47","system_id":"levelo_inurba_marseille","lat":43.23168,"lon":5.43722,"is_reserved":false,"is_disabled":false,"rental_uris":{"android":"levelo://app?vid=ba3f556c-cf6a-4039-a072-0e6118db4c47","ios":"levelo://app?vid=ba3f556c-cf6a-4039-a072-0e6118db4c47"},"vehicle_type_id":"4","last_reported":1737116177,"current_range_meters":8800,"station_id":"ce4bhmp2rcd13ifvqgog","pricing_plan_id":"cebpf4jnsgd1na2vs0mg"},{"bike_id":"6bd174dd-2b0f-478e-9b88-fd653a0167da","system_id":"levelo_inurba_marseille","lat":43.22951,"lon":5.35384,"is_reserved":false,"is_disabled":false,"rental_uris":{"android":"levelo://app?vid=6bd174dd-2b0f-478e-9b88-fd653a0167da","ios":"levelo://app?vid=6bd174dd-2b0f-478e-9b88-fd653a0167da"},"vehicle_type_id":"4","last_reported":1737116177,"current_range_meters":34800,"station_id":"cpo3532slgdg3j2ikp40","pricing_plan_id":"cebpf4jnsgd1na2vs0mg"},{"bike_id":"16764f9e-b1b9-4d6f-9dca-0161489fba20","system_id":"levelo_inurba_marseille","lat":43.30165,"lon":5.38088,"is_reserved":false,"is_disabled":false,"rental_uris":{"android":"levelo://app?vid=16764f9e-b1b9-4d6f-9dca-0161489fba20","ios":"levelo://app?vid=16764f9e-b1b9-4d6f-9dca-0161489fba20"},"vehicle_type_id":"4","last_reported":1737116177,"current_range_meters":28400,"station_id":"ce4bgjp2rcd13ifvqbh0","pricing_plan_id":"cebpf4jnsgd1na2vs0mg"},{"bike_id":"e63d162a-1fd9-4a3b-a424-33a0101d8f22","system_id":"levelo_inurba_marseille","lat":43.33615,"lon":5.40986,"is_reserved":false,"is_disabled":false,"rental_uris":{"android":"levelo://app?vid=e63d162a-1fd9-4a3b-a424-33a0101d8f22","ios":"levelo://app?vid=e63d162a-1fd9-4a3b-a424-33a0101d8f22"},"vehicle_type_id":"4","last_reported":1737116177,"current_range_meters":38000,"station_id":"ce4bhqh2rcd13ifvqhmg","pricing_plan_id":"cebpf4jnsgd1na2vs0mg"},{"bike_id":"cefc250c-1baa-4a78-8fed-eb20c7fbb95c","system_id":"levelo_inurba_marseille","lat":43.23189,"lon":5.35553,"is_reserved":false,"is_disabled":true,"rental_uris":{"android":"levelo://app?vid=cefc250c-1baa-4a78-8fed-eb20c7fbb95c","ios":"levelo://app?vid=cefc250c-1baa-4a78-8fed-eb20c7fbb95c"},"vehicle_type_id":"4","last_reported":1737116177,"current_range_meters":0,"station_id":"ce4bhu92rcd13ifvqi70","pricing_plan_id":"cebpf4jnsgd1na2vs0mg"},{"bike_id":"6a7366d7-ed8c-4629-bf0c-70c2abcda36d","system_id":"levelo_inurba_marseille","lat":43.23192,"lon":5.35552,"is_reserved":false,"is_disabled":false,"rental_uris":{"android":"levelo://app?vid=6a7366d7-ed8c-4629-bf0c-70c2abcda36d","ios":"levelo://app?vid=6a7366d7-ed8c-4629-bf0c-70c2abcda36d"},"vehicle_type_id":"4","last_reported":1737116177,"current_range_meters":8000,"station_id":"ce4bhu92rcd13ifvqi70","pricing_plan_id":"cebpf4jnsgd1na2vs0mg"},{"bike_id":"aa2bc57d-af71-448d-a652-978c1eff8bdc","system_id":"levelo_inurba_marseille","lat":43.29198,"lon":5.35797,"is_reserved":false,"is_disabled":false,"rental_uris":{"android":"levelo://app?vid=aa2bc57d-af71-448d-a652-978c1eff8bdc","ios":"levelo://app?vid=aa2bc57d-af71-448d-a652-978c1eff8bdc"},"vehicle_type_id":"4","last_reported":1737116177,"current_range_meters":22000,"station_id":"ce4bhb12rcd13ifvqel0","pricing_plan_id":"cebpf4jnsgd1na2vs0mg"},{"bike_id":"2d7f3353-743b-41e1-85f2-e32181d4ae48","system_id":"levelo_inurba_marseille","lat":43.319996,"lon":5.381518,"is_reserved":false,"is_disabled":false,"rental_uris":{"android":"levelo://app?vid=2d7f3353-743b-41e1-85f2-e32181d4ae48","ios":"levelo://app?vid=2d7f3353-743b-41e1-85f2-e32181d4ae48"},"vehicle_type_id":"4","last_reported":1737116177,"current_range_meters":28400,"station_id":"ce4bhr12rcd13ifvqhpg","pricing_plan_id":"cebpf4jnsgd1na2vs0mg"},{"bike_id":"573076c8-1172-47e5-b129-cb987286e5ee","system_id":"levelo_inurba_marseille","lat":43.278178,"lon":5.407072,"is_reserved":false,"is_disabled":false,"rental_uris":{"android":"levelo://app?vid=573076c8-1172-47e5-b129-cb987286e5ee","ios":"levelo://app?vid=573076c8-1172-47e5-b129-cb987286e5ee"},"vehicle_type_id":"4","last_reported":1737116177,"current_range_meters":38000,"station_id":"ce4bhnh2rcd13ifvqgtg","pricing_plan_id":"cebpf4jnsgd1na2vs0mg"},{"bike_id":"34e3057f-5248-4f53-bfb8-674be11b0229","system_id":"levelo_inurba_marseille","lat":43.30141,"lon":5.38797,"is_reserved":false,"is_disabled":false,"rental_uris":{"android":"levelo://app?vid=34e3057f-5248-4f53-bfb8-674be11b0229","ios":"levelo://app?vid=34e3057f-5248-4f53-bfb8-674be11b0229"},"vehicle_type_id":"4","last_reported":1737116177,"current_range_meters":18800,"station_id":"ce4bghh2rcd13ifvqb60","pricing_plan_id":"cebpf4jnsgd1na2vs0mg"},{"bike_id":"35deb437-7ef2-4ee7-9ea5-27ce0001ca7b","system_id":"levelo_inurba_marseille","lat":43.26071,"lon":5.39415,"is_reserved":false,"is_disabled":false,"rental_uris":{"android":"levelo://app?vid=35deb437-7ef2-4ee7-9ea5-27ce0001ca7b","ios":"levelo://app?vid=35deb437-7ef2-4ee7-9ea5-27ce0001ca7b"},"vehicle_type_id":"4","last_reported":1737116177,"current_range_meters":38800,"station_id":"ce4bhh92rcd13ifvqfj0","pricing_plan_id":"cebpf4jnsgd1na2vs0mg"},{"bike_id":"401864e0-5a18-47f8-946b-0a4d3027b5a4","system_id":"levelo_inurba_marseille","lat":43.229329,"lon":5.353824,"is_reserved":false,"is_disabled":false,"rental_uris":{"android":"levelo://app?vid=401864e0-5a18-47f8-946b-0a4d3027b5a4","ios":"levelo://app?vid=401864e0-5a18-47f8-946b-0a4d3027b5a4"},"vehicle_type_id":"4","last_reported":1737116177,"current_range_meters":27600,"station_id":"cpo3532slgdg3j2ikp40","pricing_plan_id":"cebpf4jnsgd1na2vs0mg"},{"bike_id":"fab4a65c-3b06-4de4-b802-8620ccc29de9","system_id":"levelo_inurba_marseille","lat":43.26069,"lon":5.39397,"is_reserved":false,"is_disabled":false,"rental_uris":{"android":"levelo://app?vid=fab4a65c-3b06-4de4-b802-8620ccc29de9","ios":"levelo://app?vid=fab4a65c-3b06-4de4-b802-8620ccc29de9"},"vehicle_type_id":"4","last_reported":1737116177,"current_range_meters":28800,"station_id":"ce4bhh92rcd13ifvqfj0","pricing_plan_id":"cebpf4jnsgd1na2vs0mg"},{"bike_id":"6bdea331-32f7-46ff-a178-aa3ec9a6cbb8","system_id":"levelo_inurba_marseille","lat":43.31896,"lon":5.40731,"is_reserved":false,"is_disabled":false,"rental_uris":{"android":"levelo://app?vid=6bdea331-32f7-46ff-a178-aa3ec9a6cbb8","ios":"levelo://app?vid=6bdea331-32f7-46ff-a178-aa3ec9a6cbb8"},"vehicle_type_id":"4","last_reported":1737116177,"current_range_meters":14000,"station_id":"ce4bhq12rcd13ifvqhig","pricing_plan_id":"cebpf4jnsgd1na2vs0mg"},{"bike_id":"d40bbada-8f78-42ec-8488-172e29eafe36","system_id":"levelo_inurba_marseille","lat":43.3065,"lon":5.40101,"is_reserved":false,"is_disabled":false,"rental_uris":{"android":"levelo://app?vid=d40bbada-8f78-42ec-8488-172e29eafe36","ios":"levelo://app?vid=d40bbada-8f78-42ec-8488-172e29eafe36"},"vehicle_type_id":"4","last_reported":1737116177,"current_range_meters":19200,"station_id":"ce4bh112rcd13ifvqda0","pricing_plan_id":"cebpf4jnsgd1na2vs0mg"},{"bike_id":"d9a0f924-c960-4b40-990e-491418899ef5","system_id":"levelo_inurba_marseille","lat":43.29956,"lon":5.37193,"is_reserved":false,"is_disabled":false,"rental_uris":{"android":"levelo://app?vid=d9a0f924-c960-4b40-990e-491418899ef5","ios":"levelo://app?vid=d9a0f924-c960-4b40-990e-491418899ef5"},"vehicle_type_id":"4","last_reported":1737116177,"current_range_meters":19600,"station_id":"ce4bgr92rcd13ifvqc7g","pricing_plan_id":"cebpf4jnsgd1na2vs0mg"},{"bike_id":"89bec8e7-9046-40e0-9b37-560e72ffa0ca","system_id":"levelo_inurba_marseille","lat":43.28509,"lon":5.38421,"is_reserved":false,"is_disabled":false,"rental_uris":{"android":"levelo://app?vid=89bec8e7-9046-40e0-9b37-560e72ffa0ca","ios":"levelo://app?vid=89bec8e7-9046-40e0-9b37-560e72ffa0ca"},"vehicle_type_id":"4","last_reported":1737116177,"current_range_meters":17200,"station_id":"ce4bh512rcd13ifvqe3g","pricing_plan_id":"cebpf4jnsgd1na2vs0mg"},{"bike_id":"82cdbf67-359d-4569-aca1-9411576a3ec0","system_id":"levelo_inurba_marseille","lat":43.24178,"lon":5.39739,"is_reserved":false,"is_disabled":false,"rental_uris":{"android":"levelo://app?vid=82cdbf67-359d-4569-aca1-9411576a3ec0","ios":"levelo://app?vid=82cdbf67-359d-4569-aca1-9411576a3ec0"},"vehicle_type_id":"4","last_reported":1737116177,"current_range_meters":24400,"station_id":"ce4bhn12rcd13ifvqgpg","pricing_plan_id":"cebpf4jnsgd1na2vs0mg"},{"bike_id":"cb57e870-80e8-4bfb-abb9-09fd840616bc","system_id":"levelo_inurba_marseille","lat":43.30554,"lon":5.38417,"is_reserved":false,"is_disabled":false,"rental_uris":{"android":"levelo://app?vid=cb57e870-80e8-4bfb-abb9-09fd840616bc","ios":"levelo://app?vid=cb57e870-80e8-4bfb-abb9-09fd840616bc"},"vehicle_type_id":"4","last_reported":1737116177,"current_range_meters":38800,"station_id":"ce4bgg92rcd13ifvqb30","pricing_plan_id":"cebpf4jnsgd1na2vs0mg"},{"bike_id":"93ecd312-8777-497a-b895-69e3a47cb2a1","system_id":"levelo_inurba_marseille","lat":43.25851,"lon":5.39917,"is_reserved":false,"is_disabled":false,"rental_uris":{"android":"levelo://app?vid=93ecd312-8777-497a-b895-69e3a47cb2a1","ios":"levelo://app?vid=93ecd312-8777-497a-b895-69e3a47cb2a1"},"vehicle_type_id":"4","last_reported":1737116177,"current_range_meters":38800,"station_id":"ce4bhl92rcd13ifvqghg","pricing_plan_id":"cebpf4jnsgd1na2vs0mg"},{"bike_id":"de5712d3-5278-4cde-b73f-408d1337817b","system_id":"levelo_inurba_marseille","lat":43.27818,"lon":5.40723,"is_reserved":false,"is_disabled":false,"rental_uris":{"android":"levelo://app?vid=de5712d3-5278-4cde-b73f-408d1337817b","ios":"levelo://app?vid=de5712d3-5278-4cde-b73f-408d1337817b"},"vehicle_type_id":"4","last_reported":1737116177,"current_range_meters":24400,"station_id":"ce4bhnh2rcd13ifvqgtg","pricing_plan_id":"cebpf4jnsgd1na2vs0mg"},{"bike_id":"f3382856-0d13-4c66-91ca-7e31a4b39f21","system_id":"levelo_inurba_marseille","lat":43.29793,"lon":5.39349,"is_reserved":false,"is_disabled":false,"rental_uris":{"android":"levelo://app?vid=f3382856-0d13-4c66-91ca-7e31a4b39f21","ios":"levelo://app?vid=f3382856-0d13-4c66-91ca-7e31a4b39f21"},"vehicle_type_id":"4","last_reported":1737116177,"current_range_meters":20400,"station_id":"chh1huq6cuj3fo74tm60","pricing_plan_id":"cebpf4jnsgd1na2vs0mg"},{"bike_id":"6ea33ddc-5d35-4b55-a79b-f4ea2822e36f","system_id":"levelo_inurba_marseille","lat":43.32041,"lon":5.4155,"is_reserved":false,"is_disabled":false,"rental_uris":{"android":"levelo://app?vid=6ea33ddc-5d35-4b55-a79b-f4ea2822e36f","ios":"levelo://app?vid=6ea33ddc-5d35-4b55-a79b-f4ea2822e36f"},"vehicle_type_id":"4","last_reported":1737116177,"current_range_meters":36000,"station_id":"ce4bhq92rcd13ifvqhkg","pricing_plan_id":"cebpf4jnsgd1na2vs0mg"},{"bike_id":"591edb32-936b-48db-935b-4f7fa6df0f68","system_id":"levelo_inurba_marseille","lat":43.30551,"lon":5.36564,"is_reserved":false,"is_disabled":false,"rental_uris":{"android":"levelo://app?vid=591edb32-936b-48db-935b-4f7fa6df0f68","ios":"levelo://app?vid=591edb32-936b-48db-935b-4f7fa6df0f68"},"vehicle_type_id":"4","last_reported":1737116177,"current_range_meters":18000,"station_id":"ce4bgs12rcd13ifvqcag","pricing_plan_id":"cebpf4jnsgd1na2vs0mg"},{"bike_id":"c900a35e-adb0-4181-8b02-4ef655f399fb","system_id":"levelo_inurba_marseille","lat":43.33723,"lon":5.39181,"is_reserved":false,"is_disabled":false,"rental_uris":{"android":"levelo://app?vid=c900a35e-adb0-4181-8b02-4ef655f399fb","ios":"levelo://app?vid=c900a35e-adb0-4181-8b02-4ef655f399fb"},"vehicle_type_id":"4","last_reported":1737116177,"current_range_meters":21600,"station_id":"ce4bhr92rcd13ifvqhsg","pricing_plan_id":"cebpf4jnsgd1na2vs0mg"},{"bike_id":"a46ca539-a7aa-4178-b673-268342d45dbd","system_id":"levelo_inurba_marseille","lat":43.29879,"lon":5.39743,"is_reserved":false,"is_disabled":false,"rental_uris":{"android":"levelo://app?vid=a46ca539-a7aa-4178-b673-268342d45dbd","ios":"levelo://app?vid=a46ca539-a7aa-4178-b673-268342d45dbd"},"vehicle_type_id":"4","last_reported":1737116177,"current_range_meters":36800,"station_id":"ce4bh0h2rcd13ifvqd50","pricing_plan_id":"cebpf4jnsgd1na2vs0mg"},{"bike_id":"72ca0742-1df6-4026-87cc-098e9e8db1ab","system_id":"levelo_inurba_marseille","lat":43.23964,"lon":5.36632,"is_reserved":false,"is_disabled":false,"rental_uris":{"android":"levelo://app?vid=72ca0742-1df6-4026-87cc-098e9e8db1ab","ios":"levelo://app?vid=72ca0742-1df6-4026-87cc-098e9e8db1ab"},"vehicle_type_id":"4","last_reported":1737116177,"current_range_meters":28000,"station_id":"ce4bhi12rcd13ifvqfp0","pricing_plan_id":"cebpf4jnsgd1na2vs0mg"},{"bike_id":"9370995a-0faf-41aa-bfba-e8f18c48b388","system_id":"levelo_inurba_marseille","lat":43.27381,"lon":5.36262,"is_reserved":false,"is_disabled":false,"rental_uris":{"android":"levelo://app?vid=9370995a-0faf-41aa-bfba-e8f18c48b388","ios":"levelo://app?vid=9370995a-0faf-41aa-bfba-e8f18c48b388"},"vehicle_type_id":"4","last_reported":1737116177,"current_range_meters":30800,"station_id":"ce4bhbh2rcd13ifvqeo0","pricing_plan_id":"cebpf4jnsgd1na2vs0mg"},{"bike_id":"82423441-2649-429f-b659-336bad319757","system_id":"levelo_inurba_marseille","lat":43.25724,"lon":5.41107,"is_reserved":false,"is_disabled":false,"rental_uris":{"android":"levelo://app?vid=82423441-2649-429f-b659-336bad319757","ios":"levelo://app?vid=82423441-2649-429f-b659-336bad319757"},"vehicle_type_id":"4","last_reported":1737116177,"current_range_meters":9200,"station_id":"ce4bhkp2rcd13ifvqgd0","pricing_plan_id":"cebpf4jnsgd1na2vs0mg"},{"bike_id":"2c2c2ef2-e5fc-42ab-b28f-9135a3a43ca0","system_id":"levelo_inurba_marseille","lat":43.29564,"lon":5.39969,"is_reserved":false,"is_disabled":false,"rental_uris":{"android":"levelo://app?vid=2c2c2ef2-e5fc-42ab-b28f-9135a3a43ca0","ios":"levelo://app?vid=2c2c2ef2-e5fc-42ab-b28f-9135a3a43ca0"},"vehicle_type_id":"4","last_reported":1737116177,"current_range_meters":34000,"station_id":"ce4bh312rcd13ifvqdj0","pricing_plan_id":"cebpf4jnsgd1na2vs0mg"},{"bike_id":"7383474c-b45a-4438-837c-99d7ae866fe7","system_id":"levelo_inurba_marseille","lat":43.2605,"lon":5.39404,"is_reserved":false,"is_disabled":false,"rental_uris":{"android":"levelo://app?vid=7383474c-b45a-4438-837c-99d7ae866fe7","ios":"levelo://app?vid=7383474c-b45a-4438-837c-99d7ae866fe7"},"vehicle_type_id":"4","last_reported":1737116177,"current_range_meters":38800,"station_id":"ce4bhh92rcd13ifvqfj0","pricing_plan_id":"cebpf4jnsgd1na2vs0mg"},{"bike_id":"838e650d-b1fd-4bb8-bef4-41804edef6d6","system_id":"levelo_inurba_marseille","lat":43.31754,"lon":5.39016,"is_reserved":false,"is_disabled":false,"rental_uris":{"android":"levelo://app?vid=838e650d-b1fd-4bb8-bef4-41804edef6d6","ios":"levelo://app?vid=838e650d-b1fd-4bb8-bef4-41804edef6d6"},"vehicle_type_id":"4","last_reported":1737116177,"current_range_meters":26000,"station_id":"ce4bhqp2rcd13ifvqhng","pricing_plan_id":"cebpf4jnsgd1na2vs0mg"},{"bike_id":"dc88b6b1-eb03-4885-9794-761910451a48","system_id":"levelo_inurba_marseille","lat":43.23133,"lon":5.43732,"is_reserved":false,"is_disabled":false,"rental_uris":{"android":"levelo://app?vid=dc88b6b1-eb03-4885-9794-761910451a48","ios":"levelo://app?vid=dc88b6b1-eb03-4885-9794-761910451a48"},"vehicle_type_id":"4","last_reported":1737116177,"current_range_meters":38000,"station_id":"ce4bhmp2rcd13ifvqgog","pricing_plan_id":"cebpf4jnsgd1na2vs0mg"},{"bike_id":"411a3486-e7ec-459b-b89c-b54d20bc02f3","system_id":"levelo_inurba_marseille","lat":43.31267,"lon":5.40179,"is_reserved":false,"is_disabled":false,"rental_uris":{"android":"levelo://app?vid=411a3486-e7ec-459b-b89c-b54d20bc02f3","ios":"levelo://app?vid=411a3486-e7ec-459b-b89c-b54d20bc02f3"},"vehicle_type_id":"4","last_reported":1737116177,"current_range_meters":19200,"station_id":"ce4bh092rcd13ifvqd30","pricing_plan_id":"cebpf4jnsgd1na2vs0mg"},{"bike_id":"8dc4bafa-c9bb-418a-b39d-925b47ae4c83","system_id":"levelo_inurba_marseille","lat":43.25943,"lon":5.40931,"is_reserved":false,"is_disabled":false,"rental_uris":{"android":"levelo://app?vid=8dc4bafa-c9bb-418a-b39d-925b47ae4c83","ios":"levelo://app?vid=8dc4bafa-c9bb-418a-b39d-925b47ae4c83"},"vehicle_type_id":"4","last_reported":1737116177,"current_range_meters":38400,"station_id":"ce4bhm92rcd13ifvqglg","pricing_plan_id":"cebpf4jnsgd1na2vs0mg"},{"bike_id":"1703e729-7ec6-4f2b-9b20-806853c53bf6","system_id":"levelo_inurba_marseille","lat":43.29167,"lon":5.37159,"is_reserved":false,"is_disabled":false,"rental_uris":{"android":"levelo://app?vid=1703e729-7ec6-4f2b-9b20-806853c53bf6","ios":"levelo://app?vid=1703e729-7ec6-4f2b-9b20-806853c53bf6"},"vehicle_type_id":"4","last_reported":1737116177,"current_range_meters":38800,"station_id":"ce4bha92rcd13ifvqeh0","pricing_plan_id":"cebpf4jnsgd1na2vs0mg"},{"bike_id":"0dd19019-f68e-4196-b969-e64a3d920187","system_id":"levelo_inurba_marseille","lat":43.30528,"lon":5.36704,"is_reserved":false,"is_disabled":false,"rental_uris":{"android":"levelo://app?vid=0dd19019-f68e-4196-b969-e64a3d920187","ios":"levelo://app?vid=0dd19019-f68e-4196-b969-e64a3d920187"},"vehicle_type_id":"4","last_reported":1737116177,"current_range_meters":30800,"station_id":"ce4bgrp2rcd13ifvqc9g","pricing_plan_id":"cebpf4jnsgd1na2vs0mg"},{"bike_id":"4258b077-8968-405f-bea9-4a33cb8ce6ab","system_id":"levelo_inurba_marseille","lat":43.29192,"lon":5.39316,"is_reserved":false,"is_disabled":false,"rental_uris":{"android":"levelo://app?vid=4258b077-8968-405f-bea9-4a33cb8ce6ab","ios":"levelo://app?vid=4258b077-8968-405f-bea9-4a33cb8ce6ab"},"vehicle_type_id":"4","last_reported":1737116177,"current_range_meters":30800,"station_id":"ce4bh192rcd13ifvqdd0","pricing_plan_id":"cebpf4jnsgd1na2vs0mg"},{"bike_id":"22ccf45d-452d-45b0-ab56-995b2e477ec6","system_id":"levelo_inurba_marseille","lat":43.314973,"lon":5.3728,"is_reserved":false,"is_disabled":false,"rental_uris":{"android":"levelo://app?vid=22ccf45d-452d-45b0-ab56-995b2e477ec6","ios":"levelo://app?vid=22ccf45d-452d-45b0-ab56-995b2e477ec6"},"vehicle_type_id":"4","last_reported":1737116177,"current_range_meters":8400,"station_id":"ce4bgt12rcd13ifvqcd0","pricing_plan_id":"cebpf4jnsgd1na2vs0mg"},{"bike_id":"44721705-52d0-4eba-b0b2-b41ea9586411","system_id":"levelo_inurba_marseille","lat":43.231971,"lon":5.355583,"is_reserved":false,"is_disabled":false,"rental_uris":{"android":"levelo://app?vid=44721705-52d0-4eba-b0b2-b41ea9586411","ios":"levelo://app?vid=44721705-52d0-4eba-b0b2-b41ea9586411"},"vehicle_type_id":"4","last_reported":1737116177,"current_range_meters":30400,"station_id":"ce4bhu92rcd13ifvqi70","pricing_plan_id":"cebpf4jnsgd1na2vs0mg"},{"bike_id":"abf08944-2093-4312-996f-c91e8577ba47","system_id":"levelo_inurba_marseille","lat":43.28563,"lon":5.39495,"is_reserved":false,"is_disabled":false,"rental_uris":{"android":"levelo://app?vid=abf08944-2093-4312-996f-c91e8577ba47","ios":"levelo://app?vid=abf08944-2093-4312-996f-c91e8577ba47"},"vehicle_type_id":"4","last_reported":1737116177,"current_range_meters":38400,"station_id":"ce4bh292rcd13ifvqdg0","pricing_plan_id":"cebpf4jnsgd1na2vs0mg"},{"bike_id":"fe4ca2de-39b1-4c54-a18c-5b9311dc9a5e","system_id":"levelo_inurba_marseille","lat":43.30528,"lon":5.36534,"is_reserved":false,"is_disabled":false,"rental_uris":{"android":"levelo://app?vid=fe4ca2de-39b1-4c54-a18c-5b9311dc9a5e","ios":"levelo://app?vid=fe4ca2de-39b1-4c54-a18c-5b9311dc9a5e"},"vehicle_type_id":"4","last_reported":1737116177,"current_range_meters":39200,"station_id":"ce4bgs12rcd13ifvqcag","pricing_plan_id":"cebpf4jnsgd1na2vs0mg"},{"bike_id":"8aad6766-1654-42f0-a6d7-4f33c0984a9e","system_id":"levelo_inurba_marseille","lat":43.27973,"lon":5.3873,"is_reserved":false,"is_disabled":false,"rental_uris":{"android":"levelo://app?vid=8aad6766-1654-42f0-a6d7-4f33c0984a9e","ios":"levelo://app?vid=8aad6766-1654-42f0-a6d7-4f33c0984a9e"},"vehicle_type_id":"4","last_reported":1737116177,"current_range_meters":32800,"station_id":"ce4bhg12rcd13ifvqf80","pricing_plan_id":"cebpf4jnsgd1na2vs0mg"},{"bike_id":"ae393767-459e-4cc0-8f8b-ccc6a2453c1e","system_id":"levelo_inurba_marseille","lat":43.28348,"lon":5.38114,"is_reserved":false,"is_disabled":false,"rental_uris":{"android":"levelo://app?vid=ae393767-459e-4cc0-8f8b-ccc6a2453c1e","ios":"levelo://app?vid=ae393767-459e-4cc0-8f8b-ccc6a2453c1e"},"vehicle_type_id":"4","last_reported":1737116177,"current_range_meters":19200,"station_id":"ce4bh412rcd13ifvqdr0","pricing_plan_id":"cebpf4jnsgd1na2vs0mg"},{"bike_id":"e1f9a0b5-1419-4e67-ab24-a72ee45dfd85","system_id":"levelo_inurba_marseille","lat":43.241659,"lon":5.363984,"is_reserved":false,"is_disabled":false,"rental_uris":{"android":"levelo://app?vid=e1f9a0b5-1419-4e67-ab24-a72ee45dfd85","ios":"levelo://app?vid=e1f9a0b5-1419-4e67-ab24-a72ee45dfd85"},"vehicle_type_id":"4","last_reported":1737116177,"current_range_meters":16400,"station_id":"cpo36qri1sfpv3e86is0","pricing_plan_id":"cebpf4jnsgd1na2vs0mg"},{"bike_id":"ebaff725-ca95-47a3-9db5-6686cd2b19fb","system_id":"levelo_inurba_marseille","lat":43.30532,"lon":5.36696,"is_reserved":false,"is_disabled":false,"rental_uris":{"android":"levelo://app?vid=ebaff725-ca95-47a3-9db5-6686cd2b19fb","ios":"levelo://app?vid=ebaff725-ca95-47a3-9db5-6686cd2b19fb"},"vehicle_type_id":"4","last_reported":1737116177,"current_range_meters":27200,"station_id":"ce4bgrp2rcd13ifvqc9g","pricing_plan_id":"cebpf4jnsgd1na2vs0mg"},{"bike_id":"882e3c20-dd13-45c9-b2cc-b9e0e7c63a64","system_id":"levelo_inurba_marseille","lat":43.30543,"lon":5.36538,"is_reserved":false,"is_disabled":false,"rental_uris":{"android":"levelo://app?vid=882e3c20-dd13-45c9-b2cc-b9e0e7c63a64","ios":"levelo://app?vid=882e3c20-dd13-45c9-b2cc-b9e0e7c63a64"},"vehicle_type_id":"4","last_reported":1737116177,"current_range_meters":39200,"station_id":"ce4bgs12rcd13ifvqcag","pricing_plan_id":"cebpf4jnsgd1na2vs0mg"},{"bike_id":"c3de6877-1f6c-46f2-8ace-6b8834abcbb4","system_id":"levelo_inurba_marseille","lat":43.29072,"lon":5.37147,"is_reserved":false,"is_disabled":true,"rental_uris":{"android":"levelo://app?vid=c3de6877-1f6c-46f2-8ace-6b8834abcbb4","ios":"levelo://app?vid=c3de6877-1f6c-46f2-8ace-6b8834abcbb4"},"vehicle_type_id":"4","last_reported":1737116177,"current_range_meters":26800,"station_id":"ce4bh5p2rcd13ifvqe4g","pricing_plan_id":"cebpf4jnsgd1na2vs0mg"},{"bike_id":"c2304ced-bf00-48b6-8385-db52601b7ccc","system_id":"levelo_inurba_marseille","lat":43.24396,"lon":5.37067,"is_reserved":false,"is_disabled":false,"rental_uris":{"android":"levelo://app?vid=c2304ced-bf00-48b6-8385-db52601b7ccc","ios":"levelo://app?vid=c2304ced-bf00-48b6-8385-db52601b7ccc"},"vehicle_type_id":"4","last_reported":1737116177,"current_range_meters":38000,"station_id":"ce4bhhh2rcd13ifvqfk0","pricing_plan_id":"cebpf4jnsgd1na2vs0mg"},{"bike_id":"2aa98a8e-265a-4dfa-baae-3da013df4e11","system_id":"levelo_inurba_marseille","lat":43.27387,"lon":5.36261,"is_reserved":false,"is_disabled":false,"rental_uris":{"android":"levelo://app?vid=2aa98a8e-265a-4dfa-baae-3da013df4e11","ios":"levelo://app?vid=2aa98a8e-265a-4dfa-baae-3da013df4e11"},"vehicle_type_id":"4","last_reported":1737116177,"current_range_meters":12000,"station_id":"ce4bhbh2rcd13ifvqeo0","pricing_plan_id":"cebpf4jnsgd1na2vs0mg"},{"bike_id":"18324d97-c6b3-4f22-9bf9-8df3270339e8","system_id":"levelo_inurba_marseille","lat":43.27817,"lon":5.40715,"is_reserved":false,"is_disabled":false,"rental_uris":{"android":"levelo://app?vid=18324d97-c6b3-4f22-9bf9-8df3270339e8","ios":"levelo://app?vid=18324d97-c6b3-4f22-9bf9-8df3270339e8"},"vehicle_type_id":"4","last_reported":1737116177,"current_range_meters":30000,"station_id":"ce4bhnh2rcd13ifvqgtg","pricing_plan_id":"cebpf4jnsgd1na2vs0mg"},{"bike_id":"53d0db46-3b8c-4298-96d7-03a0d6fafab4","system_id":"levelo_inurba_marseille","lat":43.30568,"lon":5.36591,"is_reserved":false,"is_disabled":false,"rental_uris":{"android":"levelo://app?vid=53d0db46-3b8c-4298-96d7-03a0d6fafab4","ios":"levelo://app?vid=53d0db46-3b8c-4298-96d7-03a0d6fafab4"},"vehicle_type_id":"4","last_reported":1737116177,"current_range_meters":39200,"station_id":"ce4bgs12rcd13ifvqcag","pricing_plan_id":"cebpf4jnsgd1na2vs0mg"},{"bike_id":"9fd67735-0e42-4ea3-ba49-b3e72ffcfb28","system_id":"levelo_inurba_marseille","lat":43.30555,"lon":5.36721,"is_reserved":false,"is_disabled":false,"rental_uris":{"android":"levelo://app?vid=9fd67735-0e42-4ea3-ba49-b3e72ffcfb28","ios":"levelo://app?vid=9fd67735-0e42-4ea3-ba49-b3e72ffcfb28"},"vehicle_type_id":"4","last_reported":1737116177,"current_range_meters":38800,"station_id":"ce4bgrp2rcd13ifvqc9g","pricing_plan_id":"cebpf4jnsgd1na2vs0mg"},{"bike_id":"7d3c749d-4eb6-4ace-b278-8c043ec9d8f5","system_id":"levelo_inurba_marseille","lat":43.26566,"lon":5.37288,"is_reserved":false,"is_disabled":false,"rental_uris":{"android":"levelo://app?vid=7d3c749d-4eb6-4ace-b278-8c043ec9d8f5","ios":"levelo://app?vid=7d3c749d-4eb6-4ace-b278-8c043ec9d8f5"},"vehicle_type_id":"4","last_reported":1737116177,"current_range_meters":28400,"station_id":"ce4bhg12rcd13ifvqf70","pricing_plan_id":"cebpf4jnsgd1na2vs0mg"},{"bike_id":"f5863b18-13a1-4c6e-92de-5668ea912ad3","system_id":"levelo_inurba_marseille","lat":43.26224,"lon":5.4046,"is_reserved":false,"is_disabled":true,"rental_uris":{"android":"levelo://app?vid=f5863b18-13a1-4c6e-92de-5668ea912ad3","ios":"levelo://app?vid=f5863b18-13a1-4c6e-92de-5668ea912ad3"},"vehicle_type_id":"4","last_reported":1737116177,"current_range_meters":0,"station_id":"","pricing_plan_id":"cebpf4jnsgd1na2vs0mg"},{"bike_id":"633c61d4-43b5-407e-821a-950590f7f4d7","system_id":"levelo_inurba_marseille","lat":43.274262,"lon":5.394171,"is_reserved":false,"is_disabled":false,"rental_uris":{"android":"levelo://app?vid=633c61d4-43b5-407e-821a-950590f7f4d7","ios":"levelo://app?vid=633c61d4-43b5-407e-821a-950590f7f4d7"},"vehicle_type_id":"4","last_reported":1737116177,"current_range_meters":38800,"station_id":"ce4bhdp2rcd13ifvqf20","pricing_plan_id":"cebpf4jnsgd1na2vs0mg"},{"bike_id":"a8fad254-19bb-48fe-801d-9e93d4767cef","system_id":"levelo_inurba_marseille","lat":43.31436,"lon":5.37401,"is_reserved":false,"is_disabled":true,"rental_uris":{"android":"levelo://app?vid=a8fad254-19bb-48fe-801d-9e93d4767cef","ios":"levelo://app?vid=a8fad254-19bb-48fe-801d-9e93d4767cef"},"vehicle_type_id":"4","last_reported":1737116177,"current_range_meters":0,"station_id":"","pricing_plan_id":"cebpf4jnsgd1na2vs0mg"},{"bike_id":"c42437bf-de29-4048-9a39-60702db53fa0","system_id":"levelo_inurba_marseille","lat":43.27816,"lon":5.40707,"is_reserved":false,"is_disabled":false,"rental_uris":{"android":"levelo://app?vid=c42437bf-de29-4048-9a39-60702db53fa0","ios":"levelo://app?vid=c42437bf-de29-4048-9a39-60702db53fa0"},"vehicle_type_id":"4","last_reported":1737116177,"current_range_meters":3600,"station_id":"ce4bhnh2rcd13ifvqgtg","pricing_plan_id":"cebpf4jnsgd1na2vs0mg"},{"bike_id":"d0335aa9-5096-4d0b-bab9-ff3e00a4b234","system_id":"levelo_inurba_marseille","lat":43.30545,"lon":5.36529,"is_reserved":false,"is_disabled":false,"rental_uris":{"android":"levelo://app?vid=d0335aa9-5096-4d0b-bab9-ff3e00a4b234","ios":"levelo://app?vid=d0335aa9-5096-4d0b-bab9-ff3e00a4b234"},"vehicle_type_id":"4","last_reported":1737116177,"current_range_meters":28000,"station_id":"ce4bgs12rcd13ifvqcag","pricing_plan_id":"cebpf4jnsgd1na2vs0mg"},{"bike_id":"e5f71037-c3e2-4a5c-b185-51bcddd625d8","system_id":"levelo_inurba_marseille","lat":43.230641,"lon":5.35488,"is_reserved":false,"is_disabled":false,"rental_uris":{"android":"levelo://app?vid=e5f71037-c3e2-4a5c-b185-51bcddd625d8","ios":"levelo://app?vid=e5f71037-c3e2-4a5c-b185-51bcddd625d8"},"vehicle_type_id":"4","last_reported":1737116177,"current_range_meters":4800,"station_id":"cpo3342slgdg3j2ifvpg","pricing_plan_id":"cebpf4jnsgd1na2vs0mg"},{"bike_id":"46686b70-f375-4947-b209-2f4548c2edcf","system_id":"levelo_inurba_marseille","lat":43.28921,"lon":5.3947,"is_reserved":false,"is_disabled":true,"rental_uris":{"android":"levelo://app?vid=46686b70-f375-4947-b209-2f4548c2edcf","ios":"levelo://app?vid=46686b70-f375-4947-b209-2f4548c2edcf"},"vehicle_type_id":"4","last_reported":1737116177,"current_range_meters":0,"station_id":"","pricing_plan_id":"cebpf4jnsgd1na2vs0mg"},{"bike_id":"a6598479-da72-427b-98ef-dbfa1cde27d9","system_id":"levelo_inurba_marseille","lat":43.25078,"lon":5.39519,"is_reserved":false,"is_disabled":false,"rental_uris":{"android":"levelo://app?vid=a6598479-da72-427b-98ef-dbfa1cde27d9","ios":"levelo://app?vid=a6598479-da72-427b-98ef-dbfa1cde27d9"},"vehicle_type_id":"4","last_reported":1737116177,"current_range_meters":19200,"station_id":"ce4bhm12rcd13ifvqgkg","pricing_plan_id":"cebpf4jnsgd1na2vs0mg"},{"bike_id":"1e4067fa-9321-4a2b-8041-2f3326f54dda","system_id":"levelo_inurba_marseille","lat":43.30294,"lon":5.37722,"is_reserved":false,"is_disabled":false,"rental_uris":{"android":"levelo://app?vid=1e4067fa-9321-4a2b-8041-2f3326f54dda","ios":"levelo://app?vid=1e4067fa-9321-4a2b-8041-2f3326f54dda"},"vehicle_type_id":"4","last_reported":1737116177,"current_range_meters":38800,"station_id":"ce4bguh2rcd13ifvqcj0","pricing_plan_id":"cebpf4jnsgd1na2vs0mg"},{"bike_id":"50a4222e-4010-4594-9f5f-75337d04aecd","system_id":"levelo_inurba_marseille","lat":43.29079,"lon":5.37162,"is_reserved":false,"is_disabled":true,"rental_uris":{"android":"levelo://app?vid=50a4222e-4010-4594-9f5f-75337d04aecd","ios":"levelo://app?vid=50a4222e-4010-4594-9f5f-75337d04aecd"},"vehicle_type_id":"4","last_reported":1737116177,"current_range_meters":33200,"station_id":"ce4bh5p2rcd13ifvqe4g","pricing_plan_id":"cebpf4jnsgd1na2vs0mg"},{"bike_id":"e6927dab-4b78-426b-95f8-24ed322c79ef","system_id":"levelo_inurba_marseille","lat":43.28472,"lon":5.38411,"is_reserved":false,"is_disabled":false,"rental_uris":{"android":"levelo://app?vid=e6927dab-4b78-426b-95f8-24ed322c79ef","ios":"levelo://app?vid=e6927dab-4b78-426b-95f8-24ed322c79ef"},"vehicle_type_id":"4","last_reported":1737116177,"current_range_meters":32800,"station_id":"ce4bh512rcd13ifvqe3g","pricing_plan_id":"cebpf4jnsgd1na2vs0mg"},{"bike_id":"162e74e4-7cde-4983-afbf-6133953791de","system_id":"levelo_inurba_marseille","lat":43.27371,"lon":5.36261,"is_reserved":false,"is_disabled":false,"rental_uris":{"android":"levelo://app?vid=162e74e4-7cde-4983-afbf-6133953791de","ios":"levelo://app?vid=162e74e4-7cde-4983-afbf-6133953791de"},"vehicle_type_id":"4","last_reported":1737116177,"current_range_meters":38400,"station_id":"ce4bhbh2rcd13ifvqeo0","pricing_plan_id":"cebpf4jnsgd1na2vs0mg"},{"bike_id":"53c26170-756a-4ffa-a56a-36d0d287c54c","system_id":"levelo_inurba_marseille","lat":43.31094,"lon":5.42451,"is_reserved":false,"is_disabled":false,"rental_uris":{"android":"levelo://app?vid=53c26170-756a-4ffa-a56a-36d0d287c54c","ios":"levelo://app?vid=53c26170-756a-4ffa-a56a-36d0d287c54c"},"vehicle_type_id":"4","last_reported":1737116177,"current_range_meters":38800,"station_id":"ce4bhp92rcd13ifvqhag","pricing_plan_id":"cebpf4jnsgd1na2vs0mg"},{"bike_id":"48031cb9-0f15-46ae-a16f-61070d9c3452","system_id":"levelo_inurba_marseille","lat":43.32335,"lon":5.40626,"is_reserved":false,"is_disabled":false,"rental_uris":{"android":"levelo://app?vid=48031cb9-0f15-46ae-a16f-61070d9c3452","ios":"levelo://app?vid=48031cb9-0f15-46ae-a16f-61070d9c3452"},"vehicle_type_id":"4","last_reported":1737116177,"current_range_meters":38000,"station_id":"ce4bhq92rcd13ifvqhjg","pricing_plan_id":"cebpf4jnsgd1na2vs0mg"},{"bike_id":"6fd6e968-3cda-4943-8532-d4df4d874d56","system_id":"levelo_inurba_marseille","lat":43.262245,"lon":5.404535,"is_reserved":false,"is_disabled":false,"rental_uris":{"android":"levelo://app?vid=6fd6e968-3cda-4943-8532-d4df4d874d56","ios":"levelo://app?vid=6fd6e968-3cda-4943-8532-d4df4d874d56"},"vehicle_type_id":"4","last_reported":1737116177,"current_range_meters":8000,"station_id":"","pricing_plan_id":"cebpf4jnsgd1na2vs0mg"},{"bike_id":"a66d6c58-eb43-4976-925a-213a5b7be83d","system_id":"levelo_inurba_marseille","lat":43.29947,"lon":5.37457,"is_reserved":false,"is_disabled":false,"rental_uris":{"android":"levelo://app?vid=a66d6c58-eb43-4976-925a-213a5b7be83d","ios":"levelo://app?vid=a66d6c58-eb43-4976-925a-213a5b7be83d"},"vehicle_type_id":"4","last_reported":1737116177,"current_range_meters":25200,"station_id":"ce4bgjh2rcd13ifvqbg0","pricing_plan_id":"cebpf4jnsgd1na2vs0mg"},{"bike_id":"a8116cd0-980c-498d-aa22-e6b45cccc882","system_id":"levelo_inurba_marseille","lat":43.28361,"lon":5.38111,"is_reserved":false,"is_disabled":false,"rental_uris":{"android":"levelo://app?vid=a8116cd0-980c-498d-aa22-e6b45cccc882","ios":"levelo://app?vid=a8116cd0-980c-498d-aa22-e6b45cccc882"},"vehicle_type_id":"4","last_reported":1737116177,"current_range_meters":31200,"station_id":"ce4bh412rcd13ifvqdr0","pricing_plan_id":"cebpf4jnsgd1na2vs0mg"},{"bike_id":"f3d2350f-ba34-4a9d-8ccc-de94508495c2","system_id":"levelo_inurba_marseille","lat":43.28362,"lon":5.38109,"is_reserved":false,"is_disabled":false,"rental_uris":{"android":"levelo://app?vid=f3d2350f-ba34-4a9d-8ccc-de94508495c2","ios":"levelo://app?vid=f3d2350f-ba34-4a9d-8ccc-de94508495c2"},"vehicle_type_id":"4","last_reported":1737116177,"current_range_meters":29600,"station_id":"ce4bh412rcd13ifvqdr0","pricing_plan_id":"cebpf4jnsgd1na2vs0mg"},{"bike_id":"e7120db1-cc09-44ac-98ae-a4059feaa7ae","system_id":"levelo_inurba_marseille","lat":43.30531,"lon":5.36743,"is_reserved":false,"is_disabled":false,"rental_uris":{"android":"levelo://app?vid=e7120db1-cc09-44ac-98ae-a4059feaa7ae","ios":"levelo://app?vid=e7120db1-cc09-44ac-98ae-a4059feaa7ae"},"vehicle_type_id":"4","last_reported":1737116177,"current_range_meters":37600,"station_id":"ce4bgrp2rcd13ifvqc9g","pricing_plan_id":"cebpf4jnsgd1na2vs0mg"},{"bike_id":"c545084e-a464-43ad-a0d3-118acf76523b","system_id":"levelo_inurba_marseille","lat":43.25955,"lon":5.40928,"is_reserved":false,"is_disabled":false,"rental_uris":{"android":"levelo://app?vid=c545084e-a464-43ad-a0d3-118acf76523b","ios":"levelo://app?vid=c545084e-a464-43ad-a0d3-118acf76523b"},"vehicle_type_id":"4","last_reported":1737116177,"current_range_meters":36400,"station_id":"ce4bhm92rcd13ifvqglg","pricing_plan_id":"cebpf4jnsgd1na2vs0mg"},{"bike_id":"33218fcd-70b5-4354-99e4-b145e74477a9","system_id":"levelo_inurba_marseille","lat":43.29529,"lon":5.39403,"is_reserved":false,"is_disabled":true,"rental_uris":{"android":"levelo://app?vid=33218fcd-70b5-4354-99e4-b145e74477a9","ios":"levelo://app?vid=33218fcd-70b5-4354-99e4-b145e74477a9"},"vehicle_type_id":"4","last_reported":1737116177,"current_range_meters":37600,"station_id":"ce4bh292rcd13ifvqdf0","pricing_plan_id":"cebpf4jnsgd1na2vs0mg"},{"bike_id":"8d62e35d-0410-47fe-b5ef-abee9dce8713","system_id":"levelo_inurba_marseille","lat":43.29864,"lon":5.39737,"is_reserved":false,"is_disabled":false,"rental_uris":{"android":"levelo://app?vid=8d62e35d-0410-47fe-b5ef-abee9dce8713","ios":"levelo://app?vid=8d62e35d-0410-47fe-b5ef-abee9dce8713"},"vehicle_type_id":"4","last_reported":1737116177,"current_range_meters":4000,"station_id":"ce4bh0h2rcd13ifvqd50","pricing_plan_id":"cebpf4jnsgd1na2vs0mg"},{"bike_id":"a10cdeb4-201e-469c-a0d0-83278f7fe67d","system_id":"levelo_inurba_marseille","lat":43.27819,"lon":5.40735,"is_reserved":false,"is_disabled":false,"rental_uris":{"android":"levelo://app?vid=a10cdeb4-201e-469c-a0d0-83278f7fe67d","ios":"levelo://app?vid=a10cdeb4-201e-469c-a0d0-83278f7fe67d"},"vehicle_type_id":"4","last_reported":1737116177,"current_range_meters":36800,"station_id":"ce4bhnh2rcd13ifvqgtg","pricing_plan_id":"cebpf4jnsgd1na2vs0mg"},{"bike_id":"763cbeaa-3641-4f62-ad77-738af81e48d8","system_id":"levelo_inurba_marseille","lat":43.3246,"lon":5.36565,"is_reserved":false,"is_disabled":false,"rental_uris":{"android":"levelo://app?vid=763cbeaa-3641-4f62-ad77-738af81e48d8","ios":"levelo://app?vid=763cbeaa-3641-4f62-ad77-738af81e48d8"},"vehicle_type_id":"4","last_reported":1737116177,"current_range_meters":24400,"station_id":"ce4bhs12rcd13ifvqhvg","pricing_plan_id":"cebpf4jnsgd1na2vs0mg"},{"bike_id":"9939058f-d7d3-46fb-9ec4-74df655785e7","system_id":"levelo_inurba_marseille","lat":43.30537,"lon":5.36552,"is_reserved":false,"is_disabled":false,"rental_uris":{"android":"levelo://app?vid=9939058f-d7d3-46fb-9ec4-74df655785e7","ios":"levelo://app?vid=9939058f-d7d3-46fb-9ec4-74df655785e7"},"vehicle_type_id":"4","last_reported":1737116177,"current_range_meters":38800,"station_id":"ce4bgs12rcd13ifvqcag","pricing_plan_id":"cebpf4jnsgd1na2vs0mg"},{"bike_id":"e0465de2-1648-4504-9618-59b63e2acad8","system_id":"levelo_inurba_marseille","lat":43.32101,"lon":5.36782,"is_reserved":false,"is_disabled":false,"rental_uris":{"android":"levelo://app?vid=e0465de2-1648-4504-9618-59b63e2acad8","ios":"levelo://app?vid=e0465de2-1648-4504-9618-59b63e2acad8"},"vehicle_type_id":"4","last_reported":1737116177,"current_range_meters":36000,"station_id":"ce4bhrh2rcd13ifvqhug","pricing_plan_id":"cebpf4jnsgd1na2vs0mg"},{"bike_id":"61f6d027-7bbe-4f2a-8da9-204164873693","system_id":"levelo_inurba_marseille","lat":43.25581,"lon":5.38234,"is_reserved":false,"is_disabled":false,"rental_uris":{"android":"levelo://app?vid=61f6d027-7bbe-4f2a-8da9-204164873693","ios":"levelo://app?vid=61f6d027-7bbe-4f2a-8da9-204164873693"},"vehicle_type_id":"4","last_reported":1737116177,"current_range_meters":38000,"station_id":"ce4bhih2rcd13ifvqfs0","pricing_plan_id":"cebpf4jnsgd1na2vs0mg"},{"bike_id":"dfaa04f2-effd-4b73-b57f-7518ee93e68b","system_id":"levelo_inurba_marseille","lat":43.3248,"lon":5.36588,"is_reserved":false,"is_disabled":false,"rental_uris":{"android":"levelo://app?vid=dfaa04f2-effd-4b73-b57f-7518ee93e68b","ios":"levelo://app?vid=dfaa04f2-effd-4b73-b57f-7518ee93e68b"},"vehicle_type_id":"4","last_reported":1737116177,"current_range_meters":10800,"station_id":"ce4bhs12rcd13ifvqhvg","pricing_plan_id":"cebpf4jnsgd1na2vs0mg"},{"bike_id":"d799b256-18c3-45d6-ab6e-4c3efad0b5b2","system_id":"levelo_inurba_marseille","lat":43.28982,"lon":5.37836,"is_reserved":false,"is_disabled":false,"rental_uris":{"android":"levelo://app?vid=d799b256-18c3-45d6-ab6e-4c3efad0b5b2","ios":"levelo://app?vid=d799b256-18c3-45d6-ab6e-4c3efad0b5b2"},"vehicle_type_id":"4","last_reported":1737116177,"current_range_meters":30400,"station_id":"ce4bh9p2rcd13ifvqed0","pricing_plan_id":"cebpf4jnsgd1na2vs0mg"},{"bike_id":"0d8b0f5f-63d2-4929-a13b-235423438ee7","system_id":"levelo_inurba_marseille","lat":43.25035,"lon":5.38963,"is_reserved":false,"is_disabled":false,"rental_uris":{"android":"levelo://app?vid=0d8b0f5f-63d2-4929-a13b-235423438ee7","ios":"levelo://app?vid=0d8b0f5f-63d2-4929-a13b-235423438ee7"},"vehicle_type_id":"4","last_reported":1737116177,"current_range_meters":30000,"station_id":"ce4bhgp2rcd13ifvqfd0","pricing_plan_id":"cebpf4jnsgd1na2vs0mg"},{"bike_id":"d56c9101-5834-4595-9dbc-4861d059ffd9","system_id":"levelo_inurba_marseille","lat":43.25929,"lon":5.40895,"is_reserved":false,"is_disabled":false,"rental_uris":{"android":"levelo://app?vid=d56c9101-5834-4595-9dbc-4861d059ffd9","ios":"levelo://app?vid=d56c9101-5834-4595-9dbc-4861d059ffd9"},"vehicle_type_id":"4","last_reported":1737116177,"current_range_meters":24400,"station_id":"ce4bhm92rcd13ifvqglg","pricing_plan_id":"cebpf4jnsgd1na2vs0mg"},{"bike_id":"a04119e7-f867-4b51-94d2-c8e7c3fb7d2d","system_id":"levelo_inurba_marseille","lat":43.26943,"lon":5.38648,"is_reserved":false,"is_disabled":false,"rental_uris":{"android":"levelo://app?vid=a04119e7-f867-4b51-94d2-c8e7c3fb7d2d","ios":"levelo://app?vid=a04119e7-f867-4b51-94d2-c8e7c3fb7d2d"},"vehicle_type_id":"4","last_reported":1737116177,"current_range_meters":5600,"station_id":"ce4bhh92rcd13ifvqfh0","pricing_plan_id":"cebpf4jnsgd1na2vs0mg"},