{"last_updated":1771579839,"ttl":60,"version":"2.2","data":{"bikes":[{"bike_id":"99327eba-2c72-48ee-a78b-9b9a5e0f558b","system_id":"levelo_inurba_marseille","lat":43.337444,"lon":5.374475,"is_reserved":false,"is_disabled":true,"rental_uris":{"android":"levelo://app?vid=99327eba-2c72-48ee-a78b-9b9a5e0f558b","ios":"levelo://app?vid=99327eba-2c72-48ee-a78b-9b9a5e0f558b"},"vehicle_type_id":"4","last_reported":1771579840,"current_range_meters":22000,"station_id":"","pricing_plan_id":"cebpf4jnsgd1na2vs0mg"},{"bike_id":"43b98b5f-6dbd-4ec4-a093-cfba8e608803","system_id":"levelo_inurba_marseille","lat":43.33029,"lon":5.39047,"is_reserved":false,"is_disabled":false,"rental_uris":{"android":"levelo://app?vid=43b98b5f-6dbd-4ec4-a093-cfba8e608803","ios":"levelo://app?vid=43b98b5f-6dbd-4ec4-a093-cfba8e608803"},"vehicle_type_id":"4","last_reported":1771579840,"current_range_meters":38800,"station_id":"ce4bhr92rcd13ifvqhrg","pricing_plan_id":"cebpf4jnsgd1na2vs0mg"},{"bike_id":"7a1cdecb-11bb-4f70-bf50-b6f3456f03c6","system_id":"levelo_inurba_marseille","lat":43.33016,"lon":5.39027,"is_reserved":false,"is_disabled":false,"rental_uris":{"android":"levelo://app?vid=7a1cdecb-11bb-4f70-bf50-b6f3456f03c6","ios":"levelo://app?vid=7a1cdecb-11bb-4f70-bf50-b6f3456f03c6"},"vehicle_type_id":"4","last_reported":1771579840,"current_range_meters":38800,"station_id":"ce4bhr92rcd13ifvqhrg","pricing_plan_id":"cebpf4jnsgd1na2vs0mg"},{"bike_id":"4d144231-2289-496a-bc7a-fa4fa5d7e2d8","system_id":"levelo_inurba_marseille","lat":43.33008,"lon":5.39051,"is_reserved":false,"is_disabled":false,"rental_uris":{"android":"levelo://app?vid=4d144231-2289-496a-bc7a-fa4fa5d7e2d8","ios":"levelo://app?vid=4d144231-2289-496a-bc7a-fa4fa5d7e2d8"},"vehicle_type_id":"4","last_reported":1771579840,"current_range_meters":38800,"station_id":"ce4bhr92rcd13ifvqhrg","pricing_plan_id":"cebpf4jnsgd1na2vs0mg"},{"bike_id":"0516ad23-91ca-413d-b8b4-23658eb358e0","system_id":"levelo_inurba_marseille","lat":43.33025,"lon":5.39036,"is_reserved":false,"is_disabled":false,"rental_uris":{"android":"levelo://app?vid=0516ad23-91ca-413d-b8b4-23658eb358e0","ios":"levelo://app?vid=0516ad23-91ca-413d-b8b4-23658eb358e0"},"vehicle_type_id":"4","last_reported":1771579840,"current_range_meters":38800,"station_id":"ce4bhr92rcd13ifvqhrg","pricing_plan_id":"cebpf4jnsgd1na2vs0mg"},{"bike_id":"ccfa2006-ef9a-478a-a704-426a2376a419","system_id":"levelo_inurba_marseille","lat":43.33002,"lon":5.39033,"is_reserved":false,"is_disabled":false,"rental_uris":{"android":"levelo://app?vid=ccfa2006-ef9a-478a-a704-426a2376a419","ios":"levelo://app?vid=ccfa2006-ef9a-478a-a704-426a2376a419"},"vehicle_type_id":"4","last_reported":1771579840,"current_range_meters":38800,"station_id":"ce4bhr92rcd13ifvqhrg","pricing_plan_id":"cebpf4jnsgd1na2vs0mg"},{"bike_id":"9cf09c6e-6674-4d88-9be0-f6e909b4f5c4","system_id":"levelo_inurba_marseille","lat":43.32985,"lon":5.39061,"is_reserved":false,"is_disabled":false,"rental_uris":{"android":"levelo://app?vid=9cf09c6e-6674-4d88-9be0-f6e909b4f5c4","ios":"levelo://app?vid=9cf09c6e-6674-4d88-9be0-f6e909b4f5c4"},"vehicle_type_id":"4","last_reported":1771579840,"current_range_meters":38800,"station_id":"ce4bhr92rcd13ifvqhrg","pricing_plan_id":"cebpf4jnsgd1na2vs0mg"},{"bike_id":"67684dd4-9830-4386-8d3b-50a28b8fdff3","system_id":"levelo_inurba_marseille","lat":43.33026,"lon":5.39046,"is_reserved":false,"is_disabled":false,"rental_uris":{"android":"levelo://app?vid=67684dd4-9830-4386-8d3b-50a28b8fdff3","ios":"levelo://app?vid=67684dd4-9830-4386-8d3b-50a28b8fdff3"},"vehicle_type_id":"4","last_reported":1771579840,"current_range_meters":38800,"station_id":"ce4bhr92rcd13ifvqhrg","pricing_plan_id":"cebpf4jnsgd1na2vs0mg"},{"bike_id":"008d72cf-1b93-49c4-8cfc-c47d91e3b989","system_id":"levelo_inurba_marseille","lat":43.29281,"lon":5.36853,"is_reserved":false,"is_disabled":false,"rental_uris":{"android":"levelo://app?vid=008d72cf-1b93-49c4-8cfc-c47d91e3b989","ios":"levelo://app?vid=008d72cf-1b93-49c4-8cfc-c47d91e3b989"},"vehicle_type_id":"4","last_reported":1771579840,"current_range_meters":6800,"station_id":"ce4bhbp2rcd13ifvqesg","pricing_plan_id":"cebpf4jnsgd1na2vs0mg"},{"bike_id":"ccbd50e9-f625-45cd-9d62-546945609220","system_id":"levelo_inurba_marseille","lat":43.290663,"lon":5.40022,"is_reserved":false,"is_disabled":false,"rental_uris":{"android":"levelo://app?vid=ccbd50e9-f625-45cd-9d62-546945609220","ios":"levelo://app?vid=ccbd50e9-f625-45cd-9d62-546945609220"},"vehicle_type_id":"4","last_reported":1771579840,"current_range_meters":8400,"station_id":"ce4bh392rcd13ifvqdm0","pricing_plan_id":"cebpf4jnsgd1na2vs0mg"},{"bike_id":"d8078990-2633-4921-9e81-c73d420fcb12","system_id":"levelo_inurba_marseille","lat":43.28376,"lon":5.37491,"is_reserved":false,"is_disabled":true,"rental_uris":{"android":"levelo://app?vid=d8078990-2633-4921-9e81-c73d420fcb12","ios":"levelo://app?vid=d8078990-2633-4921-9e81-c73d420fcb12"},"vehicle_type_id":"4","last_reported":1771579840,"current_range_meters":16400,"station_id":"ce4bh412rcd13ifvqds0","pricing_plan_id":"cebpf4jnsgd1na2vs0mg"},{"bike_id":"f1b8608e-c371-45f5-a94a-be8266215028","system_id":"levelo_inurba_marseille","lat":43.30314,"lon":5.36924,"is_reserved":false,"is_disabled":false,"rental_uris":{"android":"levelo://app?vid=f1b8608e-c371-45f5-a94a-be8266215028","ios":"levelo://app?vid=f1b8608e-c371-45f5-a94a-be8266215028"},"vehicle_type_id":"4","last_reported":1771579840,"current_range_meters":39200,"station_id":"ce4bgqh2rcd13ifvqc5g","pricing_plan_id":"cebpf4jnsgd1na2vs0mg"},{"bike_id":"21fcee29-1f60-4b15-9570-fdb254aa265c","system_id":"levelo_inurba_marseille","lat":43.30575,"lon":5.36704,"is_reserved":false,"is_disabled":false,"rental_uris":{"android":"levelo://app?vid=21fcee29-1f60-4b15-9570-fdb254aa265c","ios":"levelo://app?vid=21fcee29-1f60-4b15-9570-fdb254aa265c"},"vehicle_type_id":"4","last_reported":1771579840,"current_range_meters":34800,"station_id":"ce4bgrp2rcd13ifvqc9g","pricing_plan_id":"cebpf4jnsgd1na2vs0mg"},{"bike_id":"de52f379-b00e-4e25-8e81-ecdb9b209b8f","system_id":"levelo_inurba_marseille","lat":43.27993,"lon":5.400145,"is_reserved":false,"is_disabled":true,"rental_uris":{"android":"levelo://app?vid=de52f379-b00e-4e25-8e81-ecdb9b209b8f","ios":"levelo://app?vid=de52f379-b00e-4e25-8e81-ecdb9b209b8f"},"vehicle_type_id":"4","last_reported":1771579840,"current_range_meters":23200,"station_id":"ce4bho92rcd13ifvqh4g","pricing_plan_id":"cebpf4jnsgd1na2vs0mg"},{"bike_id":"5a2ea636-c0b3-4ef1-8174-a3363098f3d9","system_id":"levelo_inurba_marseille","lat":43.30424,"lon":5.39752,"is_reserved":false,"is_disabled":false,"rental_uris":{"android":"levelo://app?vid=5a2ea636-c0b3-4ef1-8174-a3363098f3d9","ios":"levelo://app?vid=5a2ea636-c0b3-4ef1-8174-a3363098f3d9"},"vehicle_type_id":"4","last_reported":1771579840,"current_range_meters":28000,"station_id":"ce4bh092rcd13ifvqd20","pricing_plan_id":"cebpf4jnsgd1na2vs0mg"},{"bike_id":"290fa5f4-0ced-4749-90ac-279bca5e7583","system_id":"levelo_inurba_marseille","lat":43.31328,"lon":5.39695,"is_reserved":false,"is_disabled":false,"rental_uris":{"android":"levelo://app?vid=290fa5f4-0ced-4749-90ac-279bca5e7583","ios":"levelo://app?vid=290fa5f4-0ced-4749-90ac-279bca5e7583"},"vehicle_type_id":"4","last_reported":1771579840,"current_range_meters":36800,"station_id":"ce4bgvp2rcd13ifvqcu0","pricing_plan_id":"cebpf4jnsgd1na2vs0mg"},{"bike_id":"37b7e444-9d5d-4c7d-ab45-e9b1c28ae4ed","system_id":"levelo_inurba_marseille","lat":43.26962,"lon":5.38626,"is_reserved":false,"is_disabled":false,"rental_uris":{"android":"levelo://app?vid=37b7e444-9d5d-4c7d-ab45-e9b1c28ae4ed","ios":"levelo://app?vid=37b7e444-9d5d-4c7d-ab45-e9b1c28ae4ed"},"vehicle_type_id":"4","last_reported":1771579840,"current_range_meters":20000,"station_id":"ce4bhh92rcd13ifvqfh0","pricing_plan_id":"cebpf4jnsgd1na2vs0mg"},{"bike_id":"d2bb17c7-6558-4b9c-ae8a-0d2292552853","system_id":"levelo_inurba_marseille","lat":43.28478,"lon":5.48444,"is_reserved":false,"is_disabled":false,"rental_uris":{"android":"levelo://app?vid=d2bb17c7-6558-4b9c-ae8a-0d2292552853","ios":"levelo://app?vid=d2bb17c7-6558-4b9c-ae8a-0d2292552853"},"vehicle_type_id":"4","last_reported":1771579840,"current_range_meters":31200,"station_id":"st_d3svhcjqgbts73a3dn0g","pricing_plan_id":"cebpf4jnsgd1na2vs0mg"},{"bike_id":"9b2e5973-2279-43e6-9726-4b4fee231d0c","system_id":"levelo_inurba_marseille","lat":43.3049,"lon":5.38893,"is_reserved":false,"is_disabled":false,"rental_uris":{"android":"levelo://app?vid=9b2e5973-2279-43e6-9726-4b4fee231d0c","ios":"levelo://app?vid=9b2e5973-2279-43e6-9726-4b4fee231d0c"},"vehicle_type_id":"4","last_reported":1771579840,"current_range_meters":25200,"station_id":"","pricing_plan_id":"cebpf4jnsgd1na2vs0mg"},{"bike_id":"da4093a5-6673-43a8-b7ee-b4859a45cac4","system_id":"levelo_inurba_marseille","lat":43.24394,"lon":5.37082,"is_reserved":false,"is_disabled":false,"rental_uris":{"android":"levelo://app?vid=da4093a5-6673-43a8-b7ee-b4859a45cac4","ios":"levelo://app?vid=da4093a5-6673-43a8-b7ee-b4859a45cac4"},"vehicle_type_id":"4","last_reported":1771579840,"current_range_meters":39200,"station_id":"ce4bhhh2rcd13ifvqfk0","pricing_plan_id":"cebpf4jnsgd1na2vs0mg"},{"bike_id":"8c107500-e6e0-42df-b996-4c6e258f6206","system_id":"levelo_inurba_marseille","lat":43.30484,"lon":5.36769,"is_reserved":false,"is_disabled":false,"rental_uris":{"android":"levelo://app?vid=8c107500-e6e0-42df-b996-4c6e258f6206","ios":"levelo://app?vid=8c107500-e6e0-42df-b996-4c6e258f6206"},"vehicle_type_id":"4","last_reported":1771579840,"current_range_meters":33200,"station_id":"ce4bgrp2rcd13ifvqc9g","pricing_plan_id":"cebpf4jnsgd1na2vs0mg"},{"bike_id":"1fa29bb0-3b6a-42c7-baab-8f6dbe80fb1a","system_id":"levelo_inurba_marseille","lat":43.3009,"lon":5.39074,"is_reserved":false,"is_disabled":false,"rental_uris":{"android":"levelo://app?vid=1fa29bb0-3b6a-42c7-baab-8f6dbe80fb1a","ios":"levelo://app?vid=1fa29bb0-3b6a-42c7-baab-8f6dbe80fb1a"},"vehicle_type_id":"4","last_reported":1771579840,"current_range_meters":32000,"station_id":"ce4bh192rcd13ifvqdb0","pricing_plan_id":"cebpf4jnsgd1na2vs0mg"},{"bike_id":"f1ee9cf6-3343-4644-848f-78278b626c8a","system_id":"levelo_inurba_marseille","lat":43.31712,"lon":5.4045,"is_reserved":false,"is_disabled":false,"rental_uris":{"android":"levelo://app?vid=f1ee9cf6-3343-4644-848f-78278b626c8a","ios":"levelo://app?vid=f1ee9cf6-3343-4644-848f-78278b626c8a"},"vehicle_type_id":"4","last_reported":1771579840,"current_range_meters":18000,"station_id":"ce4bh012rcd13ifvqd00","pricing_plan_id":"cebpf4jnsgd1na2vs0mg"},{"bike_id":"9e1d28bc-db73-4b13-86a9-387759e1564c","system_id":"levelo_inurba_marseille","lat":43.29026,"lon":5.3812,"is_reserved":false,"is_disabled":false,"rental_uris":{"android":"levelo://app?vid=9e1d28bc-db73-4b13-86a9-387759e1564c","ios":"levelo://app?vid=9e1d28bc-db73-4b13-86a9-387759e1564c"},"vehicle_type_id":"4","last_reported":1771579840,"current_range_meters":28400,"station_id":"ce4bh4p2rcd13ifvqe1g","pricing_plan_id":"cebpf4jnsgd1na2vs0mg"},{"bike_id":"f5589284-e22a-4c69-b0cb-a20b86316d6f","system_id":"levelo_inurba_marseille","lat":43.26239,"lon":5.37431,"is_reserved":false,"is_disabled":true,"rental_uris":{"android":"levelo://app?vid=f5589284-e22a-4c69-b0cb-a20b86316d6f","ios":"levelo://app?vid=f5589284-e22a-4c69-b0cb-a20b86316d6f"},"vehicle_type_id":"4","last_reported":1771579840,"current_range_meters":400,"station_id":"","pricing_plan_id":"cebpf4jnsgd1na2vs0mg"},{"bike_id":"7ec59c78-6d91-4f77-aa45-7394900c3990","system_id":"levelo_inurba_marseille","lat":43.23171,"lon":5.43693,"is_reserved":false,"is_disabled":false,"rental_uris":{"android":"levelo://app?vid=7ec59c78-6d91-4f77-aa45-7394900c3990","ios":"levelo://app?vid=7ec59c78-6d91-4f77-aa45-7394900c3990"},"vehicle_type_id":"4","last_reported":1771579840,"current_range_meters":24000,"station_id":"ce4bhmp2rcd13ifvqgog","pricing_plan_id":"cebpf4jnsgd1na2vs0mg"},{"bike_id":"bafb87f3-d63d-42d2-a321-b8fb16f42ae6","system_id":"levelo_inurba_marseille","lat":43.30945,"lon":5.39047,"is_reserved":false,"is_disabled":false,"rental_uris":{"android":"levelo://app?vid=bafb87f3-d63d-42d2-a321-b8fb16f42ae6","ios":"levelo://app?vid=bafb87f3-d63d-42d2-a321-b8fb16f42ae6"},"vehicle_type_id":"4","last_reported":1771579840,"current_range_meters":38800,"station_id":"ce4bgup2rcd13ifvqco0","pricing_plan_id":"cebpf4jnsgd1na2vs0mg"},{"bike_id":"995dd4aa-d943-4547-aee8-c3325bdb05ae","system_id":"levelo_inurba_marseille","lat":43.31229,"lon":5.40165,"is_reserved":false,"is_disabled":true,"rental_uris":{"android":"levelo://app?vid=995dd4aa-d943-4547-aee8-c3325bdb05ae","ios":"levelo://app?vid=995dd4aa-d943-4547-aee8-c3325bdb05ae"},"vehicle_type_id":"4","last_reported":1771579840,"current_range_meters":18000,"station_id":"ce4bh092rcd13ifvqd30","pricing_plan_id":"cebpf4jnsgd1na2vs0mg"},{"bike_id":"8b608560-ca4c-4c76-8b8b-b3ee74a3ae29","system_id":"levelo_inurba_marseille","lat":43.301,"lon":5.39077,"is_reserved":false,"is_disabled":false,"rental_uris":{"android":"levelo://app?vid=8b608560-ca4c-4c76-8b8b-b3ee74a3ae29","ios":"levelo://app?vid=8b608560-ca4c-4c76-8b8b-b3ee74a3ae29"},"vehicle_type_id":"4","last_reported":1771579840,"current_range_meters":39200,"station_id":"ce4bh192rcd13ifvqdb0","pricing_plan_id":"cebpf4jnsgd1na2vs0mg"},{"bike_id":"b22887b7-91c2-4148-bb64-f62f62c924cd","system_id":"levelo_inurba_marseille","lat":43.27899,"lon":5.38003,"is_reserved":false,"is_disabled":false,"rental_uris":{"android":"levelo://app?vid=b22887b7-91c2-4148-bb64-f62f62c924cd","ios":"levelo://app?vid=b22887b7-91c2-4148-bb64-f62f62c924cd"},"vehicle_type_id":"4","last_reported":1771579840,"current_range_meters":38800,"station_id":"ce4bhf92rcd13ifvqf50","pricing_plan_id":"cebpf4jnsgd1na2vs0mg"},{"bike_id":"9fe67ae4-bcbf-455d-92f3-d190fa5ed34b","system_id":"levelo_inurba_marseille","lat":43.28064,"lon":5.38955,"is_reserved":false,"is_disabled":false,"rental_uris":{"android":"levelo://app?vid=9fe67ae4-bcbf-455d-92f3-d190fa5ed34b","ios":"levelo://app?vid=9fe67ae4-bcbf-455d-92f3-d190fa5ed34b"},"vehicle_type_id":"4","last_reported":1771579840,"current_range_meters":9600,"station_id":"","pricing_plan_id":"cebpf4jnsgd1na2vs0mg"},{"bike_id":"fa839dbd-563f-4ccd-82c2-2cb5aae8f33e","system_id":"levelo_inurba_marseille","lat":43.28632,"lon":5.35111,"is_reserved":false,"is_disabled":false,"rental_uris":{"android":"levelo://app?vid=fa839dbd-563f-4ccd-82c2-2cb5aae8f33e","ios":"levelo://app?vid=fa839dbd-563f-4ccd-82c2-2cb5aae8f33e"},"vehicle_type_id":"4","last_reported":1771579840,"current_range_meters":16800,"station_id":"ce4bhch2rcd13ifvqeug","pricing_plan_id":"cebpf4jnsgd1na2vs0mg"},{"bike_id":"0a1f859b-1261-4c19-a098-0a939ef82b91","system_id":"levelo_inurba_marseille","lat":43.29031,"lon":5.35935,"is_reserved":false,"is_disabled":false,"rental_uris":{"android":"levelo://app?vid=0a1f859b-1261-4c19-a098-0a939ef82b91","ios":"levelo://app?vid=0a1f859b-1261-4c19-a098-0a939ef82b91"},"vehicle_type_id":"4","last_reported":1771579840,"current_range_meters":28000,"station_id":"ce4bha92rcd13ifvqeg0","pricing_plan_id":"cebpf4jnsgd1na2vs0mg"},{"bike_id":"e1fbc0bf-07c9-4760-9f52-a405549a069a","system_id":"levelo_inurba_marseille","lat":43.292,"lon":5.3607,"is_reserved":false,"is_disabled":false,"rental_uris":{"android":"levelo://app?vid=e1fbc0bf-07c9-4760-9f52-a405549a069a","ios":"levelo://app?vid=e1fbc0bf-07c9-4760-9f52-a405549a069a"},"vehicle_type_id":"4","last_reported":1771579840,"current_range_meters":27600,"station_id":"ce4bhbh2rcd13ifvqeqg","pricing_plan_id":"cebpf4jnsgd1na2vs0mg"},{"bike_id":"36248042-4b44-477c-9ec0-28b229641e67","system_id":"levelo_inurba_marseille","lat":43.28529,"lon":5.44106,"is_reserved":false,"is_disabled":false,"rental_uris":{"android":"levelo://app?vid=36248042-4b44-477c-9ec0-28b229641e67","ios":"levelo://app?vid=36248042-4b44-477c-9ec0-28b229641e67"},"vehicle_type_id":"4","last_reported":1771579840,"current_range_meters":9600,"station_id":"","pricing_plan_id":"cebpf4jnsgd1na2vs0mg"},{"bike_id":"0db2b5f4-df22-47e4-8a1e-b1dcbf734449","system_id":"levelo_inurba_marseille","lat":43.31795,"lon":5.39016,"is_reserved":false,"is_disabled":false,"rental_uris":{"android":"levelo://app?vid=0db2b5f4-df22-47e4-8a1e-b1dcbf734449","ios":"levelo://app?vid=0db2b5f4-df22-47e4-8a1e-b1dcbf734449"},"vehicle_type_id":"4","last_reported":1771579840,"current_range_meters":40000,"station_id":"ce4bhqp2rcd13ifvqhng","pricing_plan_id":"cebpf4jnsgd1na2vs0mg"},{"bike_id":"396bef18-c8e8-45d9-a95f-e8fe6b390700","system_id":"levelo_inurba_marseille","lat":43.26366,"lon":5.41081,"is_reserved":false,"is_disabled":false,"rental_uris":{"android":"levelo://app?vid=396bef18-c8e8-45d9-a95f-e8fe6b390700","ios":"levelo://app?vid=396bef18-c8e8-45d9-a95f-e8fe6b390700"},"vehicle_type_id":"4","last_reported":1771579840,"current_range_meters":24000,"station_id":"st_d4e5ca6na9uc73bfl5fg","pricing_plan_id":"cebpf4jnsgd1na2vs0mg"},{"bike_id":"470f25a0-e207-4623-80c5-ab30e549b7db","system_id":"levelo_inurba_marseille","lat":43.26199,"lon":5.3746,"is_reserved":false,"is_disabled":false,"rental_uris":{"android":"levelo://app?vid=470f25a0-e207-4623-80c5-ab30e549b7db","ios":"levelo://app?vid=470f25a0-e207-4623-80c5-ab30e549b7db"},"vehicle_type_id":"4","last_reported":1771579840,"current_range_meters":35600,"station_id":"ce4bhgp2rcd13ifvqfc0","pricing_plan_id":"cebpf4jnsgd1na2vs0mg"},{"bike_id":"f2d30de6-4c83-468b-9ea0-b4022ee843f0","system_id":"levelo_inurba_marseille","lat":43.323489,"lon":5.367367,"is_reserved":false,"is_disabled":false,"rental_uris":{"android":"levelo://app?vid=f2d30de6-4c83-468b-9ea0-b4022ee843f0","ios":"levelo://app?vid=f2d30de6-4c83-468b-9ea0-b4022ee843f0"},"vehicle_type_id":"4","last_reported":1771579840,"current_range_meters":23200,"station_id":"ce4bhsh2rcd13ifvqi2g","pricing_plan_id":"cebpf4jnsgd1na2vs0mg"},{"bike_id":"6730bef9-debf-4c9c-b160-fce2d703d18c","system_id":"levelo_inurba_marseille","lat":43.291961,"lon":5.393041,"is_reserved":false,"is_disabled":true,"rental_uris":{"android":"levelo://app?vid=6730bef9-debf-4c9c-b160-fce2d703d18c","ios":"levelo://app?vid=6730bef9-debf-4c9c-b160-fce2d703d18c"},"vehicle_type_id":"4","last_reported":1771579840,"current_range_meters":24800,"station_id":"ce4bh192rcd13ifvqdd0","pricing_plan_id":"cebpf4jnsgd1na2vs0mg"},{"bike_id":"9c2890e9-222e-4840-9a57-38213f2fa5e0","system_id":"levelo_inurba_marseille","lat":43.337129,"lon":5.391973,"is_reserved":false,"is_disabled":false,"rental_uris":{"android":"levelo://app?vid=9c2890e9-222e-4840-9a57-38213f2fa5e0","ios":"levelo://app?vid=9c2890e9-222e-4840-9a57-38213f2fa5e0"},"vehicle_type_id":"4","last_reported":1771579840,"current_range_meters":38400,"station_id":"ce4bhr92rcd13ifvqhsg","pricing_plan_id":"cebpf4jnsgd1na2vs0mg"},{"bike_id":"dc27e2fc-4006-44c9-b0f7-cfad6a91ecdf","system_id":"levelo_inurba_marseille","lat":43.31103,"lon":5.37159,"is_reserved":false,"is_disabled":false,"rental_uris":{"android":"levelo://app?vid=dc27e2fc-4006-44c9-b0f7-cfad6a91ecdf","ios":"levelo://app?vid=dc27e2fc-4006-44c9-b0f7-cfad6a91ecdf"},"vehicle_type_id":"4","last_reported":1771579840,"current_range_meters":26800,"station_id":"st_d4kl2rp97mjs73e7tdfg","pricing_plan_id":"cebpf4jnsgd1na2vs0mg"},{"bike_id":"e071cb6b-00dd-46cc-bbae-0c336769674f","system_id":"levelo_inurba_marseille","lat":43.264861,"lon":5.395544,"is_reserved":false,"is_disabled":false,"rental_uris":{"android":"levelo://app?vid=e071cb6b-00dd-46cc-bbae-0c336769674f","ios":"levelo://app?vid=e071cb6b-00dd-46cc-bbae-0c336769674f"},"vehicle_type_id":"4","last_reported":1771579840,"current_range_meters":27200,"station_id":"ce4bhi12rcd13ifvqfq0","pricing_plan_id":"cebpf4jnsgd1na2vs0mg"},{"bike_id":"faebf9e2-a63f-44b8-ba5e-243905e4c540","system_id":"levelo_inurba_marseille","lat":43.301482,"lon":5.374183,"is_reserved":false,"is_disabled":false,"rental_uris":{"android":"levelo://app?vid=faebf9e2-a63f-44b8-ba5e-243905e4c540","ios":"levelo://app?vid=faebf9e2-a63f-44b8-ba5e-243905e4c540"},"vehicle_type_id":"4","last_reported":1771579840,"current_range_meters":38000,"station_id":"ce4bgs92rcd13ifvqcc0","pricing_plan_id":"cebpf4jnsgd1na2vs0mg"},{"bike_id":"e9c8c195-4938-4494-9005-66aa872cbce1","system_id":"levelo_inurba_marseille","lat":43.312122,"lon":5.368717,"is_reserved":false,"is_disabled":false,"rental_uris":{"android":"levelo://app?vid=e9c8c195-4938-4494-9005-66aa872cbce1","ios":"levelo://app?vid=e9c8c195-4938-4494-9005-66aa872cbce1"},"vehicle_type_id":"4","last_reported":1771579840,"current_range_meters":16400,"station_id":"ce4bgl92rcd13ifvqbq0","pricing_plan_id":"cebpf4jnsgd1na2vs0mg"},{"bike_id":"931770a8-1988-4a03-9204-d403a4b231b4","system_id":"levelo_inurba_marseille","lat":43.29494,"lon":5.43301,"is_reserved":false,"is_disabled":false,"rental_uris":{"android":"levelo://app?vid=931770a8-1988-4a03-9204-d403a4b231b4","ios":"levelo://app?vid=931770a8-1988-4a03-9204-d403a4b231b4"},"vehicle_type_id":"4","last_reported":1771579840,"current_range_meters":34800,"station_id":"st_d3j5ugp08ojc73fj9d10","pricing_plan_id":"cebpf4jnsgd1na2vs0mg"},{"bike_id":"2c518a2d-86b4-47dd-acb5-816b1e03e795","system_id":"levelo_inurba_marseille","lat":43.28543,"lon":5.44108,"is_reserved":false,"is_disabled":false,"rental_uris":{"android":"levelo://app?vid=2c518a2d-86b4-47dd-acb5-816b1e03e795","ios":"levelo://app?vid=2c518a2d-86b4-47dd-acb5-816b1e03e795"},"vehicle_type_id":"4","last_reported":1771579840,"current_range_meters":28800,"station_id":"","pricing_plan_id":"cebpf4jnsgd1na2vs0mg"},{"bike_id":"a2aac6db-ff2a-410f-9224-52b6b4391027","system_id":"levelo_inurba_marseille","lat":43.25108,"lon":5.40325,"is_reserved":false,"is_disabled":false,"rental_uris":{"android":"levelo://app?vid=a2aac6db-ff2a-410f-9224-52b6b4391027","ios":"levelo://app?vid=a2aac6db-ff2a-410f-9224-52b6b4391027"},"vehicle_type_id":"4","last_reported":1771579840,"current_range_meters":21600,"station_id":"ce4bhlh2rcd13ifvqgig","pricing_plan_id":"cebpf4jnsgd1na2vs0mg"},{"bike_id":"cb07e64c-ad16-4d36-af1d-d10f616397c1","system_id":"levelo_inurba_marseille","lat":43.2795,"lon":5.41049,"is_reserved":false,"is_disabled":false,"rental_uris":{"android":"levelo://app?vid=cb07e64c-ad16-4d36-af1d-d10f616397c1","ios":"levelo://app?vid=cb07e64c-ad16-4d36-af1d-d10f616397c1"},"vehicle_type_id":"4","last_reported":1771579840,"current_range_meters":40000,"station_id":"ce4bhnp2rcd13ifvqh0g","pricing_plan_id":"cebpf4jnsgd1na2vs0mg"},{"bike_id":"9cd38c84-219e-4947-9091-2c886889b6a2","system_id":"levelo_inurba_marseille","lat":43.30552,"lon":5.38428,"is_reserved":false,"is_disabled":false,"rental_uris":{"android":"levelo://app?vid=9cd38c84-219e-4947-9091-2c886889b6a2","ios":"levelo://app?vid=9cd38c84-219e-4947-9091-2c886889b6a2"},"vehicle_type_id":"4","last_reported":1771579840,"current_range_meters":38800,"station_id":"ce4bgg92rcd13ifvqb30","pricing_plan_id":"cebpf4jnsgd1na2vs0mg"},{"bike_id":"5eb31601-6dd4-424f-b16b-9e02a606664a","system_id":"levelo_inurba_marseille","lat":43.28003,"lon":5.4002,"is_reserved":false,"is_disabled":false,"rental_uris":{"android":"levelo://app?vid=5eb31601-6dd4-424f-b16b-9e02a606664a","ios":"levelo://app?vid=5eb31601-6dd4-424f-b16b-9e02a606664a"},"vehicle_type_id":"4","last_reported":1771579840,"current_range_meters":40000,"station_id":"ce4bho92rcd13ifvqh4g","pricing_plan_id":"cebpf4jnsgd1na2vs0mg"},{"bike_id":"4d1e7521-4f2a-4cf0-ad7a-7913935e2bb8","system_id":"levelo_inurba_marseille","lat":43.27926,"lon":5.41033,"is_reserved":false,"is_disabled":false,"rental_uris":{"android":"levelo://app?vid=4d1e7521-4f2a-4cf0-ad7a-7913935e2bb8","ios":"levelo://app?vid=4d1e7521-4f2a-4cf0-ad7a-7913935e2bb8"},"vehicle_type_id":"4","last_reported":1771579840,"current_range_meters":12000,"station_id":"ce4bhnp2rcd13ifvqh0g","pricing_plan_id":"cebpf4jnsgd1na2vs0mg"},{"bike_id":"10b4454e-cf3a-4037-8b45-b811ed0c5d91","system_id":"levelo_inurba_marseille","lat":43.22532,"lon":5.34827,"is_reserved":false,"is_disabled":false,"rental_uris":{"android":"levelo://app?vid=10b4454e-cf3a-4037-8b45-b811ed0c5d91","ios":"levelo://app?vid=10b4454e-cf3a-4037-8b45-b811ed0c5d91"},"vehicle_type_id":"4","last_reported":1771579840,"current_range_meters":34800,"station_id":"st_cvj5dfep6f1abm77gieg","pricing_plan_id":"cebpf4jnsgd1na2vs0mg"},{"bike_id":"977b28b5-f94d-4e3e-a1f2-ef11c5522462","system_id":"levelo_inurba_marseille","lat":43.28524,"lon":5.38524,"is_reserved":false,"is_disabled":false,"rental_uris":{"android":"levelo://app?vid=977b28b5-f94d-4e3e-a1f2-ef11c5522462","ios":"levelo://app?vid=977b28b5-f94d-4e3e-a1f2-ef11c5522462"},"vehicle_type_id":"4","last_reported":1771579840,"current_range_meters":39200,"station_id":"","pricing_plan_id":"cebpf4jnsgd1na2vs0mg"},{"bike_id":"85a58be4-1aa6-4473-bece-977758e9c8ae","system_id":"levelo_inurba_marseille","lat":43.24811,"lon":5.3745,"is_reserved":false,"is_disabled":false,"rental_uris":{"android":"levelo://app?vid=85a58be4-1aa6-4473-bece-977758e9c8ae","ios":"levelo://app?vid=85a58be4-1aa6-4473-bece-977758e9c8ae"},"vehicle_type_id":"4","last_reported":1771579840,"current_range_meters":17200,"station_id":"ce4bhgh2rcd13ifvqfb0","pricing_plan_id":"cebpf4jnsgd1na2vs0mg"},{"bike_id":"250fba91-d297-4559-821e-80e73cb41e50","system_id":"levelo_inurba_marseille","lat":43.291022,"lon":5.381556,"is_reserved":false,"is_disabled":false,"rental_uris":{"android":"levelo://app?vid=250fba91-d297-4559-821e-80e73cb41e50","ios":"levelo://app?vid=250fba91-d297-4559-821e-80e73cb41e50"},"vehicle_type_id":"4","last_reported":1771579840,"current_range_meters":24400,"station_id":"ce4bh512rcd13ifvqe2g","pricing_plan_id":"cebpf4jnsgd1na2vs0mg"},{"bike_id":"415a59dd-0aff-41c9-85d3-895296a390d5","system_id":"levelo_inurba_marseille","lat":43.31366,"lon":5.36728,"is_reserved":false,"is_disabled":false,"rental_uris":{"android":"levelo://app?vid=415a59dd-0aff-41c9-85d3-895296a390d5","ios":"levelo://app?vid=415a59dd-0aff-41c9-85d3-895296a390d5"},"vehicle_type_id":"4","last_reported":1771579840,"current_range_meters":24000,"station_id":"ce4bgr92rcd13ifvqc6g","pricing_plan_id":"cebpf4jnsgd1na2vs0mg"},{"bike_id":"19d3787d-1c8e-4249-902d-f5e776447478","system_id":"levelo_inurba_marseille","lat":43.25496,"lon":5.37696,"is_reserved":false,"is_disabled":false,"rental_uris":{"android":"levelo://app?vid=19d3787d-1c8e-4249-902d-f5e776447478","ios":"levelo://app?vid=19d3787d-1c8e-4249-902d-f5e776447478"},"vehicle_type_id":"4","last_reported":1771579840,"current_range_meters":24800,"station_id":"ce4bhh12rcd13ifvqff0","pricing_plan_id":"cebpf4jnsgd1na2vs0mg"},{"bike_id":"5c0952e3-3469-48d1-b0ac-88596b084e30","system_id":"levelo_inurba_marseille","lat":43.33757,"lon":5.37498,"is_reserved":false,"is_disabled":false,"rental_uris":{"android":"levelo://app?vid=5c0952e3-3469-48d1-b0ac-88596b084e30","ios":"levelo://app?vid=5c0952e3-3469-48d1-b0ac-88596b084e30"},"vehicle_type_id":"4","last_reported":1771579840,"current_range_meters":33600,"station_id":"","pricing_plan_id":"cebpf4jnsgd1na2vs0mg"},{"bike_id":"1968ad9b-bdb7-4768-8def-bb9faec54991","system_id":"levelo_inurba_marseille","lat":43.26721,"lon":5.38254,"is_reserved":false,"is_disabled":false,"rental_uris":{"android":"levelo://app?vid=1968ad9b-bdb7-4768-8def-bb9faec54991","ios":"levelo://app?vid=1968ad9b-bdb7-4768-8def-bb9faec54991"},"vehicle_type_id":"4","last_reported":1771579840,"current_range_meters":20000,"station_id":"ce4bhg92rcd13ifvqf90","pricing_plan_id":"cebpf4jnsgd1na2vs0mg"},{"bike_id":"f331a7d6-ac76-4d98-bdef-bffaa4725457","system_id":"levelo_inurba_marseille","lat":43.23155,"lon":5.4372,"is_reserved":false,"is_disabled":false,"rental_uris":{"android":"levelo://app?vid=f331a7d6-ac76-4d98-bdef-bffaa4725457","ios":"levelo://app?vid=f331a7d6-ac76-4d98-bdef-bffaa4725457"},"vehicle_type_id":"4","last_reported":1771579840,"current_range_meters":28000,"station_id":"ce4bhmp2rcd13ifvqgog","pricing_plan_id":"cebpf4jnsgd1na2vs0mg"},{"bike_id":"69655055-d981-4519-82dc-6c959f07c646","system_id":"levelo_inurba_marseille","lat":43.28274,"lon":5.35071,"is_reserved":false,"is_disabled":false,"rental_uris":{"android":"levelo://app?vid=69655055-d981-4519-82dc-6c959f07c646","ios":"levelo://app?vid=69655055-d981-4519-82dc-6c959f07c646"},"vehicle_type_id":"4","last_reported":1771579840,"current_range_meters":39200,"station_id":"ce4bhbp2rcd13ifvqerg","pricing_plan_id":"cebpf4jnsgd1na2vs0mg"},{"bike_id":"93f041f4-e8ff-42bf-9c57-4b88f5b87d58","system_id":"levelo_inurba_marseille","lat":43.30155,"lon":5.37414,"is_reserved":false,"is_disabled":false,"rental_uris":{"android":"levelo://app?vid=93f041f4-e8ff-42bf-9c57-4b88f5b87d58","ios":"levelo://app?vid=93f041f4-e8ff-42bf-9c57-4b88f5b87d58"},"vehicle_type_id":"4","last_reported":1771579840,"current_range_meters":34800,"station_id":"ce4bgs92rcd13ifvqcc0","pricing_plan_id":"cebpf4jnsgd1na2vs0mg"},{"bike_id":"d5887e7a-5c48-4306-a0d7-f13c900fa2f4","system_id":"levelo_inurba_marseille","lat":43.25016,"lon":5.38926,"is_reserved":false,"is_disabled":false,"rental_uris":{"android":"levelo://app?vid=d5887e7a-5c48-4306-a0d7-f13c900fa2f4","ios":"levelo://app?vid=d5887e7a-5c48-4306-a0d7-f13c900fa2f4"},"vehicle_type_id":"4","last_reported":1771579840,"current_range_meters":40000,"station_id":"ce4bhgp2rcd13ifvqfd0","pricing_plan_id":"cebpf4jnsgd1na2vs0mg"},{"bike_id":"20899ea8-b661-46ee-9b36-f72c1ec8e7cd","system_id":"levelo_inurba_marseille","lat":43.27911,"lon":5.38015,"is_reserved":false,"is_disabled":false,"rental_uris":{"android":"levelo://app?vid=20899ea8-b661-46ee-9b36-f72c1ec8e7cd","ios":"levelo://app?vid=20899ea8-b661-46ee-9b36-f72c1ec8e7cd"},"vehicle_type_id":"4","last_reported":1771579840,"current_range_meters":8800,"station_id":"ce4bhf92rcd13ifvqf50","pricing_plan_id":"cebpf4jnsgd1na2vs0mg"},{"bike_id":"166e35c4-ba58-48ae-81a6-945bb5d753ca","system_id":"levelo_inurba_marseille","lat":43.24654,"lon":5.38907,"is_reserved":false,"is_disabled":false,"rental_uris":{"android":"levelo://app?vid=166e35c4-ba58-48ae-81a6-945bb5d753ca","ios":"levelo://app?vid=166e35c4-ba58-48ae-81a6-945bb5d753ca"},"vehicle_type_id":"4","last_reported":1771579840,"current_range_meters":25600,"station_id":"ce4bhg12rcd13ifvqf60","pricing_plan_id":"cebpf4jnsgd1na2vs0mg"},{"bike_id":"b3f3747e-0fbe-4af3-8d32-fbb0e01dd3aa","system_id":"levelo_inurba_marseille","lat":43.25915,"lon":5.40931,"is_reserved":false,"is_disabled":false,"rental_uris":{"android":"levelo://app?vid=b3f3747e-0fbe-4af3-8d32-fbb0e01dd3aa","ios":"levelo://app?vid=b3f3747e-0fbe-4af3-8d32-fbb0e01dd3aa"},"vehicle_type_id":"4","last_reported":1771579840,"current_range_meters":17600,"station_id":"ce4bhm92rcd13ifvqglg","pricing_plan_id":"cebpf4jnsgd1na2vs0mg"},{"bike_id":"8a195f5c-5445-4a14-8324-6f54e63d7430","system_id":"levelo_inurba_marseille","lat":43.30152,"lon":5.38077,"is_reserved":false,"is_disabled":false,"rental_uris":{"android":"levelo://app?vid=8a195f5c-5445-4a14-8324-6f54e63d7430","ios":"levelo://app?vid=8a195f5c-5445-4a14-8324-6f54e63d7430"},"vehicle_type_id":"4","last_reported":1771579840,"current_range_meters":20400,"station_id":"ce4bgjp2rcd13ifvqbh0","pricing_plan_id":"cebpf4jnsgd1na2vs0mg"},{"bike_id":"2cbbc2f5-92a3-4c38-a0e2-181ee10ae410","system_id":"levelo_inurba_marseille","lat":43.2749,"lon":5.42468,"is_reserved":false,"is_disabled":false,"rental_uris":{"android":"levelo://app?vid=2cbbc2f5-92a3-4c38-a0e2-181ee10ae410","ios":"levelo://app?vid=2cbbc2f5-92a3-4c38-a0e2-181ee10ae410"},"vehicle_type_id":"4","last_reported":1771579840,"current_range_meters":32000,"station_id":"ce4bhn92rcd13ifvqgrg","pricing_plan_id":"cebpf4jnsgd1na2vs0mg"},{"bike_id":"77c84e28-a226-4c9d-bcc9-76b7f8c0d11c","system_id":"levelo_inurba_marseille","lat":43.24559,"lon":5.39527,"is_reserved":false,"is_disabled":false,"rental_uris":{"android":"levelo://app?vid=77c84e28-a226-4c9d-bcc9-76b7f8c0d11c","ios":"levelo://app?vid=77c84e28-a226-4c9d-bcc9-76b7f8c0d11c"},"vehicle_type_id":"4","last_reported":1771579840,"current_range_meters":30800,"station_id":"ce4bhlp2rcd13ifvqgjg","pricing_plan_id":"cebpf4jnsgd1na2vs0mg"},{"bike_id":"c6f7f69c-882d-4f14-8d93-2a0b3c5deecb","system_id":"levelo_inurba_marseille","lat":43.26951,"lon":5.38627,"is_reserved":false,"is_disabled":false,"rental_uris":{"android":"levelo://app?vid=c6f7f69c-882d-4f14-8d93-2a0b3c5deecb","ios":"levelo://app?vid=c6f7f69c-882d-4f14-8d93-2a0b3c5deecb"},"vehicle_type_id":"4","last_reported":1771579840,"current_range_meters":28400,"station_id":"ce4bhh92rcd13ifvqfh0","pricing_plan_id":"cebpf4jnsgd1na2vs0mg"},{"bike_id":"1e94ea31-8a14-4d7a-ae68-23879e303e04","system_id":"levelo_inurba_marseille","lat":43.29568,"lon":5.37544,"is_reserved":false,"is_disabled":false,"rental_uris":{"android":"levelo://app?vid=1e94ea31-8a14-4d7a-ae68-23879e303e04","ios":"levelo://app?vid=1e94ea31-8a14-4d7a-ae68-23879e303e04"},"vehicle_type_id":"4","last_reported":1771579840,"current_range_meters":39200,"station_id":"ce4bgh92rcd13ifvqb50","pricing_plan_id":"cebpf4jnsgd1na2vs0mg"},{"bike_id":"f3c5d32f-828d-4a2a-bd02-59bb1b899498","system_id":"levelo_inurba_marseille","lat":43.26508,"lon":5.3954,"is_reserved":false,"is_disabled":false,"rental_uris":{"android":"levelo://app?vid=f3c5d32f-828d-4a2a-bd02-59bb1b899498","ios":"levelo://app?vid=f3c5d32f-828d-4a2a-bd02-59bb1b899498"},"vehicle_type_id":"4","last_reported":1771579840,"current_range_meters":32000,"station_id":"ce4bhi12rcd13ifvqfq0","pricing_plan_id":"cebpf4jnsgd1na2vs0mg"},{"bike_id":"fc1aa6b8-6e5e-467f-92e9-aae02099ae9d","system_id":"levelo_inurba_marseille","lat":43.2463,"lon":5.43139,"is_reserved":false,"is_disabled":false,"rental_uris":{"android":"levelo://app?vid=fc1aa6b8-6e5e-467f-92e9-aae02099ae9d","ios":"levelo://app?vid=fc1aa6b8-6e5e-467f-92e9-aae02099ae9d"},"vehicle_type_id":"4","last_reported":1771579840,"current_range_meters":4000,"station_id":"st_d2m6c4gdas8pm72e190g","pricing_plan_id":"cebpf4jnsgd1na2vs0mg"},{"bike_id":"ace7d19f-1051-4f0e-87fd-e826de4cd33e","system_id":"levelo_inurba_marseille","lat":43.24173,"lon":5.36388,"is_reserved":false,"is_disabled":false,"rental_uris":{"android":"levelo://app?vid=ace7d19f-1051-4f0e-87fd-e826de4cd33e","ios":"levelo://app?vid=ace7d19f-1051-4f0e-87fd-e826de4cd33e"},"vehicle_type_id":"4","last_reported":1771579840,"current_range_meters":27600,"station_id":"cpo36qri1sfpv3e86is0","pricing_plan_id":"cebpf4jnsgd1na2vs0mg"},{"bike_id":"a4e181d3-b9a5-485a-be34-f7763aaf39ba","system_id":"levelo_inurba_marseille","lat":43.24999,"lon":5.38943,"is_reserved":false,"is_disabled":false,"rental_uris":{"android":"levelo://app?vid=a4e181d3-b9a5-485a-be34-f7763aaf39ba","ios":"levelo://app?vid=a4e181d3-b9a5-485a-be34-f7763aaf39ba"},"vehicle_type_id":"4","last_reported":1771579840,"current_range_meters":35600,"station_id":"ce4bhgp2rcd13ifvqfd0","pricing_plan_id":"cebpf4jnsgd1na2vs0mg"},{"bike_id":"1bdf262b-5b53-4108-b666-339efbe4431c","system_id":"levelo_inurba_marseille","lat":43.29038,"lon":5.38144,"is_reserved":false,"is_disabled":true,"rental_uris":{"android":"levelo://app?vid=1bdf262b-5b53-4108-b666-339efbe4431c","ios":"levelo://app?vid=1bdf262b-5b53-4108-b666-339efbe4431c"},"vehicle_type_id":"4","last_reported":1771579840,"current_range_meters":30000,"station_id":"ce4bh4p2rcd13ifvqe1g","pricing_plan_id":"cebpf4jnsgd1na2vs0mg"},{"bike_id":"ea32ee5b-e7d7-42b6-9455-02b82cb4f67b","system_id":"levelo_inurba_marseille","lat":43.31045,"lon":5.37188,"is_reserved":false,"is_disabled":false,"rental_uris":{"android":"levelo://app?vid=ea32ee5b-e7d7-42b6-9455-02b82cb4f67b","ios":"levelo://app?vid=ea32ee5b-e7d7-42b6-9455-02b82cb4f67b"},"vehicle_type_id":"4","last_reported":1771579840,"current_range_meters":28000,"station_id":"st_d4kl2rp97mjs73e7tdfg","pricing_plan_id":"cebpf4jnsgd1na2vs0mg"},{"bike_id":"c1b26ae8-8837-4bd2-b0e2-b890b8516fff","system_id":"levelo_inurba_marseille","lat":43.31193,"lon":5.36842,"is_reserved":false,"is_disabled":false,"rental_uris":{"android":"levelo://app?vid=c1b26ae8-8837-4bd2-b0e2-b890b8516fff","ios":"levelo://app?vid=c1b26ae8-8837-4bd2-b0e2-b890b8516fff"},"vehicle_type_id":"4","last_reported":1771579840,"current_range_meters":33200,"station_id":"ce4bgl92rcd13ifvqbq0","pricing_plan_id":"cebpf4jnsgd1na2vs0mg"},{"bike_id":"3e3b0cb0-5cb3-458c-bb02-9e9535ea59bc","system_id":"levelo_inurba_marseille","lat":43.30542,"lon":5.3646,"is_reserved":false,"is_disabled":false,"rental_uris":{"android":"levelo://app?vid=3e3b0cb0-5cb3-458c-bb02-9e9535ea59bc","ios":"levelo://app?vid=3e3b0cb0-5cb3-458c-bb02-9e9535ea59bc"},"vehicle_type_id":"4","last_reported":1771579840,"current_range_meters":39200,"station_id":"","pricing_plan_id":"cebpf4jnsgd1na2vs0mg"},{"bike_id":"f4b72c32-b078-47bf-bd6e-2a4cf9260d45","system_id":"levelo_inurba_marseille","lat":43.28687,"lon":5.35517,"is_reserved":false,"is_disabled":false,"rental_uris":{"android":"levelo://app?vid=f4b72c32-b078-47bf-bd6e-2a4cf9260d45","ios":"levelo://app?vid=f4b72c32-b078-47bf-bd6e-2a4cf9260d45"},"vehicle_type_id":"4","last_reported":1771579840,"current_range_meters":28800,"station_id":"","pricing_plan_id":"cebpf4jnsgd1na2vs0mg"},{"bike_id":"786db946-01e6-401d-825a-5be2365421b8","system_id":"levelo_inurba_marseille","lat":43.255774,"lon":5.382493,"is_reserved":false,"is_disabled":false,"rental_uris":{"android":"levelo://app?vid=786db946-01e6-401d-825a-5be2365421b8","ios":"levelo://app?vid=786db946-01e6-401d-825a-5be2365421b8"},"vehicle_type_id":"4","last_reported":1771579840,"current_range_meters":14000,"station_id":"ce4bhih2rcd13ifvqfs0","pricing_plan_id":"cebpf4jnsgd1na2vs0mg"},{"bike_id":"7b262ff3-14d7-41dd-bef7-f76da9ae82c6","system_id":"levelo_inurba_marseille","lat":43.28861,"lon":5.42534,"is_reserved":false,"is_disabled":false,"rental_uris":{"android":"levelo://app?vid=7b262ff3-14d7-41dd-bef7-f76da9ae82c6","ios":"levelo://app?vid=7b262ff3-14d7-41dd-bef7-f76da9ae82c6"},"vehicle_type_id":"4","last_reported":1771579840,"current_range_meters":26800,"station_id":"st_d3b462108ojc7389ooeg","pricing_plan_id":"cebpf4jnsgd1na2vs0mg"},{"bike_id":"df99005a-0fd0-4f74-9200-1ff6812c4bd8","system_id":"levelo_inurba_marseille","lat":43.29228,"lon":5.36061,"is_reserved":false,"is_disabled":false,"rental_uris":{"android":"levelo://app?vid=df99005a-0fd0-4f74-9200-1ff6812c4bd8","ios":"levelo://app?vid=df99005a-0fd0-4f74-9200-1ff6812c4bd8"},"vehicle_type_id":"4","last_reported":1771579840,"current_range_meters":30000,"station_id":"ce4bhbh2rcd13ifvqeqg","pricing_plan_id":"cebpf4jnsgd1na2vs0mg"},{"bike_id":"1d9bb259-8527-4309-b02b-3743aaeb436d","system_id":"levelo_inurba_marseille","lat":43.30423,"lon":5.39754,"is_reserved":false,"is_disabled":false,"rental_uris":{"android":"levelo://app?vid=1d9bb259-8527-4309-b02b-3743aaeb436d","ios":"levelo://app?vid=1d9bb259-8527-4309-b02b-3743aaeb436d"},"vehicle_type_id":"4","last_reported":1771579840,"current_range_meters":26000,"station_id":"ce4bh092rcd13ifvqd20","pricing_plan_id":"cebpf4jnsgd1na2vs0mg"},{"bike_id":"a2b17400-8e5c-4ea2-af80-074b6e160bbc","system_id":"levelo_inurba_marseille","lat":43.31493,"lon":5.37304,"is_reserved":false,"is_disabled":false,"rental_uris":{"android":"levelo://app?vid=a2b17400-8e5c-4ea2-af80-074b6e160bbc","ios":"levelo://app?vid=a2b17400-8e5c-4ea2-af80-074b6e160bbc"},"vehicle_type_id":"4","last_reported":1771579840,"current_range_meters":33200,"station_id":"ce4bgt12rcd13ifvqcd0","pricing_plan_id":"cebpf4jnsgd1na2vs0mg"},{"bike_id":"80be1c0c-b805-419f-b364-664db020059b","system_id":"levelo_inurba_marseille","lat":43.30461,"lon":5.37917,"is_reserved":false,"is_disabled":false,"rental_uris":{"android":"levelo://app?vid=80be1c0c-b805-419f-b364-664db020059b","ios":"levelo://app?vid=80be1c0c-b805-419f-b364-664db020059b"},"vehicle_type_id":"4","last_reported":1771579840,"current_range_meters":26800,"station_id":"ce4bgup2rcd13ifvqcn0","pricing_plan_id":"cebpf4jnsgd1na2vs0mg"},{"bike_id":"98ef6a7d-32f2-4972-a7e4-d0e75f178a33","system_id":"levelo_inurba_marseille","lat":43.3015,"lon":5.43111,"is_reserved":false,"is_disabled":false,"rental_uris":{"android":"levelo://app?vid=98ef6a7d-32f2-4972-a7e4-d0e75f178a33","ios":"levelo://app?vid=98ef6a7d-32f2-4972-a7e4-d0e75f178a33"},"vehicle_type_id":"4","last_reported":1771579840,"current_range_meters":30000,"station_id":"st_d3js3co5814s73ftftug","pricing_plan_id":"cebpf4jnsgd1na2vs0mg"},{"bike_id":"cdcd8c42-d26a-4e42-9873-59170e37aa87","system_id":"levelo_inurba_marseille","lat":43.23062,"lon":5.35496,"is_reserved":false,"is_disabled":false,"rental_uris":{"android":"levelo://app?vid=cdcd8c42-d26a-4e42-9873-59170e37aa87","ios":"levelo://app?vid=cdcd8c42-d26a-4e42-9873-59170e37aa87"},"vehicle_type_id":"4","last_reported":1771579840,"current_range_meters":38400,"station_id":"cpo3342slgdg3j2ifvpg","pricing_plan_id":"cebpf4jnsgd1na2vs0mg"},{"bike_id":"74f93e91-fd1e-46a3-af86-8c59b80fc809","system_id":"levelo_inurba_marseille","lat":43.26232,"lon":5.40441,"is_reserved":false,"is_disabled":false,"rental_uris":{"android":"levelo://app?vid=74f93e91-fd1e-46a3-af86-8c59b80fc809","ios":"levelo://app?vid=74f93e91-fd1e-46a3-af86-8c59b80fc809"},"vehicle_type_id":"4","last_reported":1771579840,"current_range_meters":30800,"station_id":"ce4bhmh2rcd13ifvqgmg","pricing_plan_id":"cebpf4jnsgd1na2vs0mg"},{"bike_id":"af5bc71c-a264-4b29-8135-6d16f6a476bd","system_id":"levelo_inurba_marseille","lat":43.31352,"lon":5.36727,"is_reserved":false,"is_disabled":false,"rental_uris":{"android":"levelo://app?vid=af5bc71c-a264-4b29-8135-6d16f6a476bd","ios":"levelo://app?vid=af5bc71c-a264-4b29-8135-6d16f6a476bd"},"vehicle_type_id":"4","last_reported":1771579840,"current_range_meters":8400,"station_id":"ce4bgr92rcd13ifvqc6g","pricing_plan_id":"cebpf4jnsgd1na2vs0mg"},{"bike_id":"84b45072-c36a-42e9-9a48-1383f8f1a0f6","system_id":"levelo_inurba_marseille","lat":43.29745,"lon":5.3769,"is_reserved":false,"is_disabled":false,"rental_uris":{"android":"levelo://app?vid=84b45072-c36a-42e9-9a48-1383f8f1a0f6","ios":"levelo://app?vid=84b45072-c36a-42e9-9a48-1383f8f1a0f6"},"vehicle_type_id":"4","last_reported":1771579840,"current_range_meters":32000,"station_id":"ce4bgkh2rcd13ifvqbl0","pricing_plan_id":"cebpf4jnsgd1na2vs0mg"},{"bike_id":"9ea1b440-99b9-4caf-8392-abb84c9c0c73","system_id":"levelo_inurba_marseille","lat":43.30522,"lon":5.36712,"is_reserved":false,"is_disabled":false,"rental_uris":{"android":"levelo://app?vid=9ea1b440-99b9-4caf-8392-abb84c9c0c73","ios":"levelo://app?vid=9ea1b440-99b9-4caf-8392-abb84c9c0c73"},"vehicle_type_id":"4","last_reported":1771579840,"current_range_meters":23200,"station_id":"ce4bgrp2rcd13ifvqc9g","pricing_plan_id":"cebpf4jnsgd1na2vs0mg"},{"bike_id":"3c3afa2f-7a53-4fb1-93d1-5ca26ae7eb92","system_id":"levelo_inurba_marseille","lat":43.323581,"lon":5.388821,"is_reserved":false,"is_disabled":false,"rental_uris":{"android":"levelo://app?vid=3c3afa2f-7a53-4fb1-93d1-5ca26ae7eb92","ios":"levelo://app?vid=3c3afa2f-7a53-4fb1-93d1-5ca26ae7eb92"},"vehicle_type_id":"4","last_reported":1771579840,"current_range_meters":38800,"station_id":"ce4bhqp2rcd13ifvqhog","pricing_plan_id":"cebpf4jnsgd1na2vs0mg"},{"bike_id":"c9a8c798-39e1-4a0b-a0ca-1eb52c96644f","system_id":"levelo_inurba_marseille","lat":43.30464,"lon":5.37915,"is_reserved":false,"is_disabled":false,"rental_uris":{"android":"levelo://app?vid=c9a8c798-39e1-4a0b-a0ca-1eb52c96644f","ios":"levelo://app?vid=c9a8c798-39e1-4a0b-a0ca-1eb52c96644f"},"vehicle_type_id":"4","last_reported":1771579840,"current_range_meters":35600,"station_id":"ce4bgup2rcd13ifvqcn0","pricing_plan_id":"cebpf4jnsgd1na2vs0mg"},{"bike_id":"aed5bfec-6f6b-4d48-9743-ee9d48821171","system_id":"levelo_inurba_marseille","lat":43.2815,"lon":5.42653,"is_reserved":false,"is_disabled":false,"rental_uris":{"android":"levelo://app?vid=aed5bfec-6f6b-4d48-9743-ee9d48821171","ios":"levelo://app?vid=aed5bfec-6f6b-4d48-9743-ee9d48821171"},"vehicle_type_id":"4","last_reported":1771579840,"current_range_meters":29600,"station_id":"ce4bhnh2rcd13ifvqgug","pricing_plan_id":"cebpf4jnsgd1na2vs0mg"},{"bike_id":"ed62a73a-4bd7-49f5-ba79-79b7cfcd0252","system_id":"levelo_inurba_marseille","lat":43.2842,"lon":5.34996,"is_reserved":false,"is_disabled":true,"rental_uris":{"android":"levelo://app?vid=ed62a73a-4bd7-49f5-ba79-79b7cfcd0252","ios":"levelo://app?vid=ed62a73a-4bd7-49f5-ba79-79b7cfcd0252"},"vehicle_type_id":"4","last_reported":1771579840,"current_range_meters":24400,"station_id":"ce4bhbh2rcd13ifvqepg","pricing_plan_id":"cebpf4jnsgd1na2vs0mg"},{"bike_id":"42b6100a-41f2-4d60-944d-8dd96a15e3d1","system_id":"levelo_inurba_marseille","lat":43.31434,"lon":5.37372,"is_reserved":false,"is_disabled":false,"rental_uris":{"android":"levelo://app?vid=42b6100a-41f2-4d60-944d-8dd96a15e3d1","ios":"levelo://app?vid=42b6100a-41f2-4d60-944d-8dd96a15e3d1"},"vehicle_type_id":"4","last_reported":1771579840,"current_range_meters":7200,"station_id":"","pricing_plan_id":"cebpf4jnsgd1na2vs0mg"},{"bike_id":"a92daa6c-a569-4659-ab51-54908038dae3","system_id":"levelo_inurba_marseille","lat":43.29001,"lon":5.3562,"is_reserved":false,"is_disabled":false,"rental_uris":{"android":"levelo://app?vid=a92daa6c-a569-4659-ab51-54908038dae3","ios":"levelo://app?vid=a92daa6c-a569-4659-ab51-54908038dae3"},"vehicle_type_id":"4","last_reported":1771579840,"current_range_meters":35600,"station_id":"ce4bhb92rcd13ifvqen0","pricing_plan_id":"cebpf4jnsgd1na2vs0mg"},{"bike_id":"7074c830-1f49-440a-aa60-013e310fa522","system_id":"levelo_inurba_marseille","lat":43.27372,"lon":5.36265,"is_reserved":false,"is_disabled":false,"rental_uris":{"android":"levelo://app?vid=7074c830-1f49-440a-aa60-013e310fa522","ios":"levelo://app?vid=7074c830-1f49-440a-aa60-013e310fa522"},"vehicle_type_id":"4","last_reported":1771579840,"current_range_meters":10000,"station_id":"ce4bhbh2rcd13ifvqeo0","pricing_plan_id":"cebpf4jnsgd1na2vs0mg"},{"bike_id":"11c6bfff-c339-43fd-bdd1-865eec75b1f4","system_id":"levelo_inurba_marseille","lat":43.24947,"lon":5.40496,"is_reserved":false,"is_disabled":false,"rental_uris":{"android":"levelo://app?vid=11c6bfff-c339-43fd-bdd1-865eec75b1f4","ios":"levelo://app?vid=11c6bfff-c339-43fd-bdd1-865eec75b1f4"},"vehicle_type_id":"4","last_reported":1771579840,"current_range_meters":26800,"station_id":"st_d2ngiaodas8pm72gd1h0","pricing_plan_id":"cebpf4jnsgd1na2vs0mg"},{"bike_id":"b6d988ed-d4a1-482d-b75a-620a0f62be5b","system_id":"levelo_inurba_marseille","lat":43.2603,"lon":5.37543,"is_reserved":false,"is_disabled":false,"rental_uris":{"android":"levelo://app?vid=b6d988ed-d4a1-482d-b75a-620a0f62be5b","ios":"levelo://app?vid=b6d988ed-d4a1-482d-b75a-620a0f62be5b"},"vehicle_type_id":"4","last_reported":1771579840,"current_range_meters":10000,"station_id":"ce4bhgh2rcd13ifvqfa0","pricing_plan_id":"cebpf4jnsgd1na2vs0mg"},{"bike_id":"ed801aba-6299-4abc-846c-98c2ac128308","system_id":"levelo_inurba_marseille","lat":43.24398,"lon":5.37072,"is_reserved":false,"is_disabled":false,"rental_uris":{"android":"levelo://app?vid=ed801aba-6299-4abc-846c-98c2ac128308","ios":"levelo://app?vid=ed801aba-6299-4abc-846c-98c2ac128308"},"vehicle_type_id":"4","last_reported":1771579840,"current_range_meters":17200,"station_id":"ce4bhhh2rcd13ifvqfk0","pricing_plan_id":"cebpf4jnsgd1na2vs0mg"},{"bike_id":"58e84dd3-2d48-4358-a5f7-694aeddfcbe3","system_id":"levelo_inurba_marseille","lat":43.29229,"lon":5.36095,"is_reserved":false,"is_disabled":false,"rental_uris":{"android":"levelo://app?vid=58e84dd3-2d48-4358-a5f7-694aeddfcbe3","ios":"levelo://app?vid=58e84dd3-2d48-4358-a5f7-694aeddfcbe3"},"vehicle_type_id":"4","last_reported":1771579840,"current_range_meters":30400,"station_id":"ce4bhbh2rcd13ifvqeqg","pricing_plan_id":"cebpf4jnsgd1na2vs0mg"},{"bike_id":"549f289b-9770-4026-802d-a4ffdc207c39","system_id":"levelo_inurba_marseille","lat":43.32303,"lon":5.38911,"is_reserved":false,"is_disabled":false,"rental_uris":{"android":"levelo://app?vid=549f289b-9770-4026-802d-a4ffdc207c39","ios":"levelo://app?vid=549f289b-9770-4026-802d-a4ffdc207c39"},"vehicle_type_id":"4","last_reported":1771579840,"current_range_meters":35600,"station_id":"","pricing_plan_id":"cebpf4jnsgd1na2vs0mg"},{"bike_id":"e8d230b9-0ba2-40c8-bc64-4a07b6f6ced2","system_id":"levelo_inurba_marseille","lat":43.2257,"lon":5.41668,"is_reserved":false,"is_disabled":false,"rental_uris":{"android":"levelo://app?vid=e8d230b9-0ba2-40c8-bc64-4a07b6f6ced2","ios":"levelo://app?vid=e8d230b9-0ba2-40c8-bc64-4a07b6f6ced2"},"vehicle_type_id":"4","last_reported":1771579840,"current_range_meters":3600,"station_id":"st_d2o4gvlbi1j2169b742g","pricing_plan_id":"cebpf4jnsgd1na2vs0mg"},{"bike_id":"e59f665b-ca8e-40ab-a2ed-9455369e7fbf","system_id":"levelo_inurba_marseille","lat":43.284782,"lon":5.483945,"is_reserved":false,"is_disabled":false,"rental_uris":{"android":"levelo://app?vid=e59f665b-ca8e-40ab-a2ed-9455369e7fbf","ios":"levelo://app?vid=e59f665b-ca8e-40ab-a2ed-9455369e7fbf"},"vehicle_type_id":"4","last_reported":1771579840,"current_range_meters":22400,"station_id":"","pricing_plan_id":"cebpf4jnsgd1na2vs0mg"},{"bike_id":"e7556293-d178-4d88-b9b6-c10abc536a45","system_id":"levelo_inurba_marseille","lat":43.28661,"lon":5.36359,"is_reserved":false,"is_disabled":false,"rental_uris":{"android":"levelo://app?vid=e7556293-d178-4d88-b9b6-c10abc536a45","ios":"levelo://app?vid=e7556293-d178-4d88-b9b6-c10abc536a45"},"vehicle_type_id":"4","last_reported":1771579840,"current_range_meters":21600,"station_id":"ce4bhah2rcd13ifvqej0","pricing_plan_id":"cebpf4jnsgd1na2vs0mg"},{"bike_id":"09ca77a6-c70f-4bc8-988d-90d9ddb7c221","system_id":"levelo_inurba_marseille","lat":43.30147,"lon":5.37376,"is_reserved":false,"is_disabled":false,"rental_uris":{"android":"levelo://app?vid=09ca77a6-c70f-4bc8-988d-90d9ddb7c221","ios":"levelo://app?vid=09ca77a6-c70f-4bc8-988d-90d9ddb7c221"},"vehicle_type_id":"4","last_reported":1771579840,"current_range_meters":34000,"station_id":"ce4bgs92rcd13ifvqcc0","pricing_plan_id":"cebpf4jnsgd1na2vs0mg"},{"bike_id":"8c21ace2-0801-4586-8cea-064ccad16c99","system_id":"levelo_inurba_marseille","lat":43.22551,"lon":5.41637,"is_reserved":false,"is_disabled":false,"rental_uris":{"android":"levelo://app?vid=8c21ace2-0801-4586-8cea-064ccad16c99","ios":"levelo://app?vid=8c21ace2-0801-4586-8cea-064ccad16c99"},"vehicle_type_id":"4","last_reported":1771579840,"current_range_meters":38000,"station_id":"st_d2o4gvlbi1j2169b742g","pricing_plan_id":"cebpf4jnsgd1na2vs0mg"},{"bike_id":"ae1526ac-94c0-4471-b06e-92c0bff1ac42","system_id":"levelo_inurba_marseille","lat":43.28086,"lon":5.39669,"is_reserved":false,"is_disabled":false,"rental_uris":{"android":"levelo://app?vid=ae1526ac-94c0-4471-b06e-92c0bff1ac42","ios":"levelo://app?vid=ae1526ac-94c0-4471-b06e-92c0bff1ac42"},"vehicle_type_id":"4","last_reported":1771579840,"current_range_meters":18000,"station_id":"ce4bho12rcd13ifvqh2g","pricing_plan_id":"cebpf4jnsgd1na2vs0mg"},{"bike_id":"9c73f2c7-5b50-4522-9afb-360155e111ca","system_id":"levelo_inurba_marseille","lat":43.25826,"lon":5.39434,"is_reserved":false,"is_disabled":false,"rental_uris":{"android":"levelo://app?vid=9c73f2c7-5b50-4522-9afb-360155e111ca","ios":"levelo://app?vid=9c73f2c7-5b50-4522-9afb-360155e111ca"},"vehicle_type_id":"4","last_reported":1771579840,"current_range_meters":39200,"station_id":"ce4bhip2rcd13ifvqft0","pricing_plan_id":"cebpf4jnsgd1na2vs0mg"},{"bike_id":"6a073e53-b7ba-45d5-a82b-20ab8b7b8e96","system_id":"levelo_inurba_marseille","lat":43.33539,"lon":5.37468,"is_reserved":false,"is_disabled":false,"rental_uris":{"android":"levelo://app?vid=6a073e53-b7ba-45d5-a82b-20ab8b7b8e96","ios":"levelo://app?vid=6a073e53-b7ba-45d5-a82b-20ab8b7b8e96"},"vehicle_type_id":"4","last_reported":1771579840,"current_range_meters":14400,"station_id":"st_d46tts09ee8s73dlu43g","pricing_plan_id":"cebpf4jnsgd1na2vs0mg"},{"bike_id":"cc9731fa-9781-4bae-bd13-190f484487dd","system_id":"levelo_inurba_marseille","lat":43.26251,"lon":5.37468,"is_reserved":false,"is_disabled":false,"rental_uris":{"android":"levelo://app?vid=cc9731fa-9781-4bae-bd13-190f484487dd","ios":"levelo://app?vid=cc9731fa-9781-4bae-bd13-190f484487dd"},"vehicle_type_id":"4","last_reported":1771579840,"current_range_meters":35600,"station_id":"","pricing_plan_id":"cebpf4jnsgd1na2vs0mg"},{"bike_id":"27586e15-78a0-41b9-981d-e5de2751a5b3","system_id":"levelo_inurba_marseille","lat":43.30306,"lon":5.36886,"is_reserved":false,"is_disabled":false,"rental_uris":{"android":"levelo://app?vid=27586e15-78a0-41b9-981d-e5de2751a5b3","ios":"levelo://app?vid=27586e15-78a0-41b9-981d-e5de2751a5b3"},"vehicle_type_id":"4","last_reported":1771579840,"current_range_meters":11200,"station_id":"ce4bgqh2rcd13ifvqc5g","pricing_plan_id":"cebpf4jnsgd1na2vs0mg"},{"bike_id":"4e6ae03e-50eb-4e46-ad3a-b607c4b7ae2f","system_id":"levelo_inurba_marseille","lat":43.26924,"lon":5.4025,"is_reserved":false,"is_disabled":false,"rental_uris":{"android":"levelo://app?vid=4e6ae03e-50eb-4e46-ad3a-b607c4b7ae2f","ios":"levelo://app?vid=4e6ae03e-50eb-4e46-ad3a-b607c4b7ae2f"},"vehicle_type_id":"4","last_reported":1771579840,"current_range_meters":38400,"station_id":"cjm6bp8fraef2m0cb0m0","pricing_plan_id":"cebpf4jnsgd1na2vs0mg"},{"bike_id":"4eb43e64-b78c-4676-baeb-775252590f0a","system_id":"levelo_inurba_marseille","lat":43.31371,"lon":5.36715,"is_reserved":false,"is_disabled":false,"rental_uris":{"android":"levelo://app?vid=4eb43e64-b78c-4676-baeb-775252590f0a","ios":"levelo://app?vid=4eb43e64-b78c-4676-baeb-775252590f0a"},"vehicle_type_id":"4","last_reported":1771579840,"current_range_meters":33600,"station_id":"ce4bgr92rcd13ifvqc6g","pricing_plan_id":"cebpf4jnsgd1na2vs0mg"},{"bike_id":"ffd2350a-d41a-4579-bd02-a72d1956937a","system_id":"levelo_inurba_marseille","lat":43.32497,"lon":5.41476,"is_reserved":false,"is_disabled":false,"rental_uris":{"android":"levelo://app?vid=ffd2350a-d41a-4579-bd02-a72d1956937a","ios":"levelo://app?vid=ffd2350a-d41a-4579-bd02-a72d1956937a"},"vehicle_type_id":"4","last_reported":1771579840,"current_range_meters":39200,"station_id":"ce4bhq12rcd13ifvqhhg","pricing_plan_id":"cebpf4jnsgd1na2vs0mg"},{"bike_id":"e80db191-464e-4604-a0eb-437f20cf9e6f","system_id":"levelo_inurba_marseille","lat":43.30781,"lon":5.37665,"is_reserved":false,"is_disabled":false,"rental_uris":{"android":"levelo://app?vid=e80db191-464e-4604-a0eb-437f20cf9e6f","ios":"levelo://app?vid=e80db191-464e-4604-a0eb-437f20cf9e6f"},"vehicle_type_id":"4","last_reported":1771579840,"current_range_meters":37600,"station_id":"ce4bgv92rcd13ifvqcq0","pricing_plan_id":"cebpf4jnsgd1na2vs0mg"},{"bike_id":"b371c204-add4-4cdd-a012-0563eea32385","system_id":"levelo_inurba_marseille","lat":43.30457,"lon":5.37883,"is_reserved":false,"is_disabled":false,"rental_uris":{"android":"levelo://app?vid=b371c204-add4-4cdd-a012-0563eea32385","ios":"levelo://app?vid=b371c204-add4-4cdd-a012-0563eea32385"},"vehicle_type_id":"4","last_reported":1771579840,"current_range_meters":29600,"station_id":"ce4bgup2rcd13ifvqcn0","pricing_plan_id":"cebpf4jnsgd1na2vs0mg"},{"bike_id":"3336a309-b824-40ed-b52e-035197a7a433","system_id":"levelo_inurba_marseille","lat":43.26697,"lon":5.382863,"is_reserved":false,"is_disabled":false,"rental_uris":{"android":"levelo://app?vid=3336a309-b824-40ed-b52e-035197a7a433","ios":"levelo://app?vid=3336a309-b824-40ed-b52e-035197a7a433"},"vehicle_type_id":"4","last_reported":1771579840,"current_range_meters":22400,"station_id":"ce4bhg92rcd13ifvqf90","pricing_plan_id":"cebpf4jnsgd1na2vs0mg"},{"bike_id":"208d8cf2-b4bc-480a-a4b9-1b101d3be8fd","system_id":"levelo_inurba_marseille","lat":43.2985,"lon":5.36261,"is_reserved":false,"is_disabled":false,"rental_uris":{"android":"levelo://app?vid=208d8cf2-b4bc-480a-a4b9-1b101d3be8fd","ios":"levelo://app?vid=208d8cf2-b4bc-480a-a4b9-1b101d3be8fd"},"vehicle_type_id":"4","last_reported":1771579840,"current_range_meters":10800,"station_id":"ce4bgpp2rcd13ifvqc3g","pricing_plan_id":"cebpf4jnsgd1na2vs0mg"},{"bike_id":"bb0803fd-9df1-4445-90aa-26704edd9381","system_id":"levelo_inurba_marseille","lat":43.28032,"lon":5.36944,"is_reserved":false,"is_disabled":false,"rental_uris":{"android":"levelo://app?vid=bb0803fd-9df1-4445-90aa-26704edd9381","ios":"levelo://app?vid=bb0803fd-9df1-4445-90aa-26704edd9381"},"vehicle_type_id":"4","last_reported":1771579840,"current_range_meters":39200,"station_id":"ce4bha12rcd13ifvqef0","pricing_plan_id":"cebpf4jnsgd1na2vs0mg"},{"bike_id":"839b80b0-42d2-4150-94fb-2e08cb12a38a","system_id":"levelo_inurba_marseille","lat":43.29045,"lon":5.39977,"is_reserved":false,"is_disabled":false,"rental_uris":{"android":"levelo://app?vid=839b80b0-42d2-4150-94fb-2e08cb12a38a","ios":"levelo://app?vid=839b80b0-42d2-4150-94fb-2e08cb12a38a"},"vehicle_type_id":"4","last_reported":1771579840,"current_range_meters":38000,"station_id":"ce4bh392rcd13ifvqdm0","pricing_plan_id":"cebpf4jnsgd1na2vs0mg"},{"bike_id":"093ed882-d0d1-4a36-bddd-24da7616b8b9","system_id":"levelo_inurba_marseille","lat":43.284596,"lon":5.358882,"is_reserved":false,"is_disabled":false,"rental_uris":{"android":"levelo://app?vid=093ed882-d0d1-4a36-bddd-24da7616b8b9","ios":"levelo://app?vid=093ed882-d0d1-4a36-bddd-24da7616b8b9"},"vehicle_type_id":"4","last_reported":1771579840,"current_range_meters":38400,"station_id":"ce4bhah2rcd13ifvqei0","pricing_plan_id":"cebpf4jnsgd1na2vs0mg"},{"bike_id":"201ca36c-c632-433f-8e63-028103426023","system_id":"levelo_inurba_marseille","lat":43.28468,"lon":5.48405,"is_reserved":false,"is_disabled":false,"rental_uris":{"android":"levelo://app?vid=201ca36c-c632-433f-8e63-028103426023","ios":"levelo://app?vid=201ca36c-c632-433f-8e63-028103426023"},"vehicle_type_id":"4","last_reported":1771579840,"current_range_meters":8800,"station_id":"","pricing_plan_id":"cebpf4jnsgd1na2vs0mg"},{"bike_id":"ef70ce12-fd44-42a0-88ed-3b2ca489b7fa","system_id":"levelo_inurba_marseille","lat":43.28855,"lon":5.42517,"is_reserved":false,"is_disabled":false,"rental_uris":{"android":"levelo://app?vid=ef70ce12-fd44-42a0-88ed-3b2ca489b7fa","ios":"levelo://app?vid=ef70ce12-fd44-42a0-88ed-3b2ca489b7fa"},"vehicle_type_id":"4","last_reported":1771579840,"current_range_meters":33600,"station_id":"st_d3b462108ojc7389ooeg","pricing_plan_id":"cebpf4jnsgd1na2vs0mg"},{"bike_id":"1e504fcf-67aa-4f33-a678-83b21b5a50c7","system_id":"levelo_inurba_marseille","lat":43.29898,"lon":5.43651,"is_reserved":false,"is_disabled":false,"rental_uris":{"android":"levelo://app?vid=1e504fcf-67aa-4f33-a678-83b21b5a50c7","ios":"levelo://app?vid=1e504fcf-67aa-4f33-a678-83b21b5a50c7"},"vehicle_type_id":"4","last_reported":1771579840,"current_range_meters":35200,"station_id":"ce4bhpp2rcd13ifvqhfg","pricing_plan_id":"cebpf4jnsgd1na2vs0mg"},{"bike_id":"402fb316-de29-4c6c-b0e2-48c631932a53","system_id":"levelo_inurba_marseille","lat":43.24651,"lon":5.3818,"is_reserved":false,"is_disabled":false,"rental_uris":{"android":"levelo://app?vid=402fb316-de29-4c6c-b0e2-48c631932a53","ios":"levelo://app?vid=402fb316-de29-4c6c-b0e2-48c631932a53"},"vehicle_type_id":"4","last_reported":1771579840,"current_range_meters":14400,"station_id":"ce4bhih2rcd13ifvqfr0","pricing_plan_id":"cebpf4jnsgd1na2vs0mg"},{"bike_id":"0a19b8ea-5646-43e3-9c33-b9ffd92b9fe4","system_id":"levelo_inurba_marseille","lat":43.28473,"lon":5.38461,"is_reserved":false,"is_disabled":true,"rental_uris":{"android":"levelo://app?vid=0a19b8ea-5646-43e3-9c33-b9ffd92b9fe4","ios":"levelo://app?vid=0a19b8ea-5646-43e3-9c33-b9ffd92b9fe4"},"vehicle_type_id":"4","last_reported":1771579840,"current_range_meters":14400,"station_id":"ce4bh512rcd13ifvqe3g","pricing_plan_id":"cebpf4jnsgd1na2vs0mg"},{"bike_id":"fe0b5446-53a7-48de-a684-99bde334e665","system_id":"levelo_inurba_marseille","lat":43.303223,"lon":5.404331,"is_reserved":false,"is_disabled":false,"rental_uris":{"android":"levelo://app?vid=fe0b5446-53a7-48de-a684-99bde334e665","ios":"levelo://app?vid=fe0b5446-53a7-48de-a684-99bde334e665"},"vehicle_type_id":"4","last_reported":1771579840,"current_range_meters":26000,"station_id":"ce4bh012rcd13ifvqd10","pricing_plan_id":"cebpf4jnsgd1na2vs0mg"},{"bike_id":"2869ecff-d536-4cb2-8e34-6173355891f6","system_id":"levelo_inurba_marseille","lat":43.31196,"lon":5.3687,"is_reserved":false,"is_disabled":false,"rental_uris":{"android":"levelo://app?vid=2869ecff-d536-4cb2-8e34-6173355891f6","ios":"levelo://app?vid=2869ecff-d536-4cb2-8e34-6173355891f6"},"vehicle_type_id":"4","last_reported":1771579840,"current_range_meters":13600,"station_id":"ce4bgl92rcd13ifvqbq0","pricing_plan_id":"cebpf4jnsgd1na2vs0mg"},{"bike_id":"260b7af8-1ad1-49f1-9eaf-10e85dd422b3","system_id":"levelo_inurba_marseille","lat":43.29551,"lon":5.39396,"is_reserved":false,"is_disabled":false,"rental_uris":{"android":"levelo://app?vid=260b7af8-1ad1-49f1-9eaf-10e85dd422b3","ios":"levelo://app?vid=260b7af8-1ad1-49f1-9eaf-10e85dd422b3"},"vehicle_type_id":"4","last_reported":1771579840,"current_range_meters":32000,"station_id":"ce4bh292rcd13ifvqdf0","pricing_plan_id":"cebpf4jnsgd1na2vs0mg"},{"bike_id":"90ed51d0-5c4b-4b74-b340-d56dcd2c03bd","system_id":"levelo_inurba_marseille","lat":43.30308,"lon":5.36907,"is_reserved":false,"is_disabled":false,"rental_uris":{"android":"levelo://app?vid=90ed51d0-5c4b-4b74-b340-d56dcd2c03bd","ios":"levelo://app?vid=90ed51d0-5c4b-4b74-b340-d56dcd2c03bd"},"vehicle_type_id":"4","last_reported":1771579840,"current_range_meters":39200,"station_id":"ce4bgqh2rcd13ifvqc5g","pricing_plan_id":"cebpf4jnsgd1na2vs0mg"},{"bike_id":"9b7eb8e6-e75c-4853-83a3-31c7e8290f56","system_id":"levelo_inurba_marseille","lat":43.27815,"lon":5.40708,"is_reserved":false,"is_disabled":false,"rental_uris":{"android":"levelo://app?vid=9b7eb8e6-e75c-4853-83a3-31c7e8290f56","ios":"levelo://app?vid=9b7eb8e6-e75c-4853-83a3-31c7e8290f56"},"vehicle_type_id":"4","last_reported":1771579840,"current_range_meters":31200,"station_id":"ce4bhnh2rcd13ifvqgtg","pricing_plan_id":"cebpf4jnsgd1na2vs0mg"},{"bike_id":"62002b9e-98dc-483b-a906-03797d45c6ed","system_id":"levelo_inurba_marseille","lat":43.27995,"lon":5.41666,"is_reserved":false,"is_disabled":false,"rental_uris":{"android":"levelo://app?vid=62002b9e-98dc-483b-a906-03797d45c6ed","ios":"levelo://app?vid=62002b9e-98dc-483b-a906-03797d45c6ed"},"vehicle_type_id":"4","last_reported":1771579840,"current_range_meters":39200,"station_id":"ce4bho12rcd13ifvqh1g","pricing_plan_id":"cebpf4jnsgd1na2vs0mg"},{"bike_id":"56d744b6-f967-4b5a-92fb-3a145e2d5ba9","system_id":"levelo_inurba_marseille","lat":43.29566,"lon":5.3674,"is_reserved":false,"is_disabled":false,"rental_uris":{"android":"levelo://app?vid=56d744b6-f967-4b5a-92fb-3a145e2d5ba9","ios":"levelo://app?vid=56d744b6-f967-4b5a-92fb-3a145e2d5ba9"},"vehicle_type_id":"4","last_reported":1771579840,"current_range_meters":32400,"station_id":"ce4bgph2rcd13ifvqc2g","pricing_plan_id":"cebpf4jnsgd1na2vs0mg"},{"bike_id":"8cfdc7bf-2865-4ede-9a18-ab4dbc925fcc","system_id":"levelo_inurba_marseille","lat":43.30931,"lon":5.40155,"is_reserved":false,"is_disabled":false,"rental_uris":{"android":"levelo://app?vid=8cfdc7bf-2865-4ede-9a18-ab4dbc925fcc","ios":"levelo://app?vid=8cfdc7bf-2865-4ede-9a18-ab4dbc925fcc"},"vehicle_type_id":"4","last_reported":1771579840,"current_range_meters":39200,"station_id":"ce4bgvp2rcd13ifvqct0","pricing_plan_id":"cebpf4jnsgd1na2vs0mg"},{"bike_id":"c3a5f5ea-55d6-4ed8-bea4-d28498a9da5d","system_id":"levelo_inurba_marseille","lat":43.29046,"lon":5.35605,"is_reserved":false,"is_disabled":false,"rental_uris":{"android":"levelo://app?vid=c3a5f5ea-55d6-4ed8-bea4-d28498a9da5d","ios":"levelo://app?vid=c3a5f5ea-55d6-4ed8-bea4-d28498a9da5d"},"vehicle_type_id":"4","last_reported":1771579840,"current_range_meters":38400,"station_id":"ce4bhb92rcd13ifvqen0","pricing_plan_id":"cebpf4jnsgd1na2vs0mg"},{"bike_id":"96438059-8ec7-4cad-b18f-887d9f3a4374","system_id":"levelo_inurba_marseille","lat":43.31547,"lon":5.37262,"is_reserved":false,"is_disabled":false,"rental_uris":{"android":"levelo://app?vid=96438059-8ec7-4cad-b18f-887d9f3a4374","ios":"levelo://app?vid=96438059-8ec7-4cad-b18f-887d9f3a4374"},"vehicle_type_id":"4","last_reported":1771579840,"current_range_meters":30000,"station_id":"","pricing_plan_id":"cebpf4jnsgd1na2vs0mg"},{"bike_id":"e16c6a23-b2f9-4940-97c7-3d4c6705365b","system_id":"levelo_inurba_marseille","lat":43.27994,"lon":5.4167,"is_reserved":false,"is_disabled":false,"rental_uris":{"android":"levelo://app?vid=e16c6a23-b2f9-4940-97c7-3d4c6705365b","ios":"levelo://app?vid=e16c6a23-b2f9-4940-97c7-3d4c6705365b"},"vehicle_type_id":"4","last_reported":1771579840,"current_range_meters":23200,"station_id":"ce4bho12rcd13ifvqh1g","pricing_plan_id":"cebpf4jnsgd1na2vs0mg"},{"bike_id":"b834d704-604a-4225-9d4b-1f26fe86bf4a","system_id":"levelo_inurba_marseille","lat":43.27209,"lon":5.39184,"is_reserved":false,"is_disabled":false,"rental_uris":{"android":"levelo://app?vid=b834d704-604a-4225-9d4b-1f26fe86bf4a","ios":"levelo://app?vid=b834d704-604a-4225-9d4b-1f26fe86bf4a"},"vehicle_type_id":"4","last_reported":1771579840,"current_range_meters":34000,"station_id":"ce4bhhp2rcd13ifvqfm0","pricing_plan_id":"cebpf4jnsgd1na2vs0mg"},{"bike_id":"ee898327-82a5-4282-b5a8-c1302e157462","system_id":"levelo_inurba_marseille","lat":43.29946,"lon":5.36559,"is_reserved":false,"is_disabled":false,"rental_uris":{"android":"levelo://app?vid=ee898327-82a5-4282-b5a8-c1302e157462","ios":"levelo://app?vid=ee898327-82a5-4282-b5a8-c1302e157462"},"vehicle_type_id":"4","last_reported":1771579840,"current_range_meters":25200,"station_id":"ce4bgm92rcd13ifvqbr0","pricing_plan_id":"cebpf4jnsgd1na2vs0mg"},{"bike_id":"aa537f90-7438-4f6b-8bef-612924a4468d","system_id":"levelo_inurba_marseille","lat":43.29723,"lon":5.3663,"is_reserved":false,"is_disabled":false,"rental_uris":{"android":"levelo://app?vid=aa537f90-7438-4f6b-8bef-612924a4468d","ios":"levelo://app?vid=aa537f90-7438-4f6b-8bef-612924a4468d"},"vehicle_type_id":"4","last_reported":1771579840,"current_range_meters":27200,"station_id":"ce4bgn12rcd13ifvqbt0","pricing_plan_id":"cebpf4jnsgd1na2vs0mg"},{"bike_id":"003afa71-d6af-4f4e-b319-c202c7d4c575","system_id":"levelo_inurba_marseille","lat":43.30402,"lon":5.41278,"is_reserved":false,"is_disabled":false,"rental_uris":{"android":"levelo://app?vid=003afa71-d6af-4f4e-b319-c202c7d4c575","ios":"levelo://app?vid=003afa71-d6af-4f4e-b319-c202c7d4c575"},"vehicle_type_id":"4","last_reported":1771579840,"current_range_meters":32000,"station_id":"ce4bhop2rcd13ifvqh8g","pricing_plan_id":"cebpf4jnsgd1na2vs0mg"},{"bike_id":"f0bca87e-52a8-47f7-b981-cefb99a790a4","system_id":"levelo_inurba_marseille","lat":43.30471,"lon":5.37905,"is_reserved":false,"is_disabled":false,"rental_uris":{"android":"levelo://app?vid=f0bca87e-52a8-47f7-b981-cefb99a790a4","ios":"levelo://app?vid=f0bca87e-52a8-47f7-b981-cefb99a790a4"},"vehicle_type_id":"4","last_reported":1771579840,"current_range_meters":13600,"station_id":"ce4bgup2rcd13ifvqcn0","pricing_plan_id":"cebpf4jnsgd1na2vs0mg"},{"bike_id":"fab1a9ea-c579-4c99-9e61-cc42faad5555","system_id":"levelo_inurba_marseille","lat":43.296738,"lon":5.373137,"is_reserved":false,"is_disabled":false,"rental_uris":{"android":"levelo://app?vid=fab1a9ea-c579-4c99-9e61-cc42faad5555","ios":"levelo://app?vid=fab1a9ea-c579-4c99-9e61-cc42faad5555"},"vehicle_type_id":"4","last_reported":1771579840,"current_range_meters":39200,"station_id":"ce4bgk12rcd13ifvqbj0","pricing_plan_id":"cebpf4jnsgd1na2vs0mg"},{"bike_id":"e0a4b968-713d-4b4c-9a83-3a7796fa6193","system_id":"levelo_inurba_marseille","lat":43.26227,"lon":5.40455,"is_reserved":false,"is_disabled":false,"rental_uris":{"android":"levelo://app?vid=e0a4b968-713d-4b4c-9a83-3a7796fa6193","ios":"levelo://app?vid=e0a4b968-713d-4b4c-9a83-3a7796fa6193"},"vehicle_type_id":"4","last_reported":1771579840,"current_range_meters":30800,"station_id":"ce4bhmh2rcd13ifvqgmg","pricing_plan_id":"cebpf4jnsgd1na2vs0mg"},{"bike_id":"30e71a7f-218d-4ed3-8bce-a8d5d264d9e6","system_id":"levelo_inurba_marseille","lat":43.331509,"lon":5.37691,"is_reserved":false,"is_disabled":false,"rental_uris":{"android":"levelo://app?vid=30e71a7f-218d-4ed3-8bce-a8d5d264d9e6","ios":"levelo://app?vid=30e71a7f-218d-4ed3-8bce-a8d5d264d9e6"},"vehicle_type_id":"4","last_reported":1771579840,"current_range_meters":10800,"station_id":"st_d46cu089ee8s73dldbu0","pricing_plan_id":"cebpf4jnsgd1na2vs0mg"},{"bike_id":"92317546-27c2-4fe0-81fb-236b05e18dba","system_id":"levelo_inurba_marseille","lat":43.30313,"lon":5.39208,"is_reserved":false,"is_disabled":false,"rental_uris":{"android":"levelo://app?vid=92317546-27c2-4fe0-81fb-236b05e18dba","ios":"levelo://app?vid=92317546-27c2-4fe0-81fb-236b05e18dba"},"vehicle_type_id":"4","last_reported":1771579840,"current_range_meters":34800,"station_id":"ce4bgkh2rcd13ifvqbk0","pricing_plan_id":"cebpf4jnsgd1na2vs0mg"},{"bike_id":"f793b274-b441-4ad1-b7af-7b63567f6882","system_id":"levelo_inurba_marseille","lat":43.31995,"lon":5.38145,"is_reserved":false,"is_disabled":false,"rental_uris":{"android":"levelo://app?vid=f793b274-b441-4ad1-b7af-7b63567f6882","ios":"levelo://app?vid=f793b274-b441-4ad1-b7af-7b63567f6882"},"vehicle_type_id":"4","last_reported":1771579840,"current_range_meters":38400,"station_id":"ce4bhr12rcd13ifvqhpg","pricing_plan_id":"cebpf4jnsgd1na2vs0mg"},{"bike_id":"70969f6f-dbc9-4f59-8a8f-7b4119496b8e","system_id":"levelo_inurba_marseille","lat":43.29189,"lon":5.39318,"is_reserved":false,"is_disabled":false,"rental_uris":{"android":"levelo://app?vid=70969f6f-dbc9-4f59-8a8f-7b4119496b8e","ios":"levelo://app?vid=70969f6f-dbc9-4f59-8a8f-7b4119496b8e"},"vehicle_type_id":"4","last_reported":1771579840,"current_range_meters":24400,"station_id":"ce4bh192rcd13ifvqdd0","pricing_plan_id":"cebpf4jnsgd1na2vs0mg"},{"bike_id":"a3243517-7883-42b4-b374-88c3428730c3","system_id":"levelo_inurba_marseille","lat":43.23141,"lon":5.43703,"is_reserved":false,"is_disabled":false,"rental_uris":{"android":"levelo://app?vid=a3243517-7883-42b4-b374-88c3428730c3","ios":"levelo://app?vid=a3243517-7883-42b4-b374-88c3428730c3"},"vehicle_type_id":"4","last_reported":1771579840,"current_range_meters":25200,"station_id":"ce4bhmp2rcd13ifvqgog","pricing_plan_id":"cebpf4jnsgd1na2vs0mg"},{"bike_id":"c7d2b54a-d383-408d-9a81-b600a9105a37","system_id":"levelo_inurba_marseille","lat":43.33547,"lon":5.37468,"is_reserved":false,"is_disabled":false,"rental_uris":{"android":"levelo://app?vid=c7d2b54a-d383-408d-9a81-b600a9105a37","ios":"levelo://app?vid=c7d2b54a-d383-408d-9a81-b600a9105a37"},"vehicle_type_id":"4","last_reported":1771579840,"current_range_meters":16400,"station_id":"st_d46tts09ee8s73dlu43g","pricing_plan_id":"cebpf4jnsgd1na2vs0mg"},{"bike_id":"c135ce5a-ba70-4ffc-9697-7b0a2e31381d","system_id":"levelo_inurba_marseille","lat":43.30129,"lon":5.38779,"is_reserved":false,"is_disabled":true,"rental_uris":{"android":"levelo://app?vid=c135ce5a-ba70-4ffc-9697-7b0a2e31381d","ios":"levelo://app?vid=c135ce5a-ba70-4ffc-9697-7b0a2e31381d"},"vehicle_type_id":"4","last_reported":1771579840,"current_range_meters":34000,"station_id":"ce4bghh2rcd13ifvqb60","pricing_plan_id":"cebpf4jnsgd1na2vs0mg"},{"bike_id":"210fe2d3-b7a4-41ef-b152-1c8cd0c9316e","system_id":"levelo_inurba_marseille","lat":43.27543,"lon":5.38413,"is_reserved":false,"is_disabled":true,"rental_uris":{"android":"levelo://app?vid=210fe2d3-b7a4-41ef-b152-1c8cd0c9316e","ios":"levelo://app?vid=210fe2d3-b7a4-41ef-b152-1c8cd0c9316e"},"vehicle_type_id":"4","last_reported":1771579840,"current_range_meters":0,"station_id":"ce4bhh92rcd13ifvqfi0","pricing_plan_id":"cebpf4jnsgd1na2vs0mg"},{"bike_id":"28587931-d0ea-4fc0-b11c-b2f6124738bf","system_id":"levelo_inurba_marseille","lat":43.29051,"lon":5.40043,"is_reserved":false,"is_disabled":false,"rental_uris":{"android":"levelo://app?vid=28587931-d0ea-4fc0-b11c-b2f6124738bf","ios":"levelo://app?vid=28587931-d0ea-4fc0-b11c-b2f6124738bf"},"vehicle_type_id":"4","last_reported":1771579840,"current_range_meters":24800,"station_id":"","pricing_plan_id":"cebpf4jnsgd1na2vs0mg"},{"bike_id":"8302dbcf-45f4-4892-87d7-459c1f26b04d","system_id":"levelo_inurba_marseille","lat":43.295703,"lon":5.37508,"is_reserved":false,"is_disabled":false,"rental_uris":{"android":"levelo://app?vid=8302dbcf-45f4-4892-87d7-459c1f26b04d","ios":"levelo://app?vid=8302dbcf-45f4-4892-87d7-459c1f26b04d"},"vehicle_type_id":"4","last_reported":1771579840,"current_range_meters":22800,"station_id":"ce4bgh92rcd13ifvqb50","pricing_plan_id":"cebpf4jnsgd1na2vs0mg"},{"bike_id":"2f5a17d1-9820-4c67-8867-34ebbf8c9fc3","system_id":"levelo_inurba_marseille","lat":43.30282,"lon":5.37714,"is_reserved":false,"is_disabled":false,"rental_uris":{"android":"levelo://app?vid=2f5a17d1-9820-4c67-8867-34ebbf8c9fc3","ios":"levelo://app?vid=2f5a17d1-9820-4c67-8867-34ebbf8c9fc3"},"vehicle_type_id":"4","last_reported":1771579840,"current_range_meters":32400,"station_id":"ce4bguh2rcd13ifvqcj0","pricing_plan_id":"cebpf4jnsgd1na2vs0mg"},{"bike_id":"3509f13d-ce5d-4591-b9d8-1fa53fc0398a","system_id":"levelo_inurba_marseille","lat":43.28845,"lon":5.35861,"is_reserved":false,"is_disabled":false,"rental_uris":{"android":"levelo://app?vid=3509f13d-ce5d-4591-b9d8-1fa53fc0398a","ios":"levelo://app?vid=3509f13d-ce5d-4591-b9d8-1fa53fc0398a"},"vehicle_type_id":"4","last_reported":1771579840,"current_range_meters":39200,"station_id":"ce4bhb12rcd13ifvqem0","pricing_plan_id":"cebpf4jnsgd1na2vs0mg"},{"bike_id":"e23a5435-262a-41e9-87f3-1135db2f06a4","system_id":"levelo_inurba_marseille","lat":43.29544,"lon":5.37499,"is_reserved":false,"is_disabled":false,"rental_uris":{"android":"levelo://app?vid=e23a5435-262a-41e9-87f3-1135db2f06a4","ios":"levelo://app?vid=e23a5435-262a-41e9-87f3-1135db2f06a4"},"vehicle_type_id":"4","last_reported":1771579840,"current_range_meters":28800,"station_id":"ce4bgkp2rcd13ifvqbmg","pricing_plan_id":"cebpf4jnsgd1na2vs0mg"},{"bike_id":"e5c37de4-5b20-40fe-851e-2d0c03d75c93","system_id":"levelo_inurba_marseille","lat":43.33125,"lon":5.39271,"is_reserved":false,"is_disabled":false,"rental_uris":{"android":"levelo://app?vid=e5c37de4-5b20-40fe-851e-2d0c03d75c93","ios":"levelo://app?vid=e5c37de4-5b20-40fe-851e-2d0c03d75c93"},"vehicle_type_id":"4","last_reported":1771579840,"current_range_meters":8000,"station_id":"","pricing_plan_id":"cebpf4jnsgd1na2vs0mg"},{"bike_id":"07b0f432-5e82-4f8c-81ee-67d93dfdf4d8","system_id":"levelo_inurba_marseille","lat":43.286156,"lon":5.351073,"is_reserved":false,"is_disabled":false,"rental_uris":{"android":"levelo://app?vid=07b0f432-5e82-4f8c-81ee-67d93dfdf4d8","ios":"levelo://app?vid=07b0f432-5e82-4f8c-81ee-67d93dfdf4d8"},"vehicle_type_id":"4","last_reported":1771579840,"current_range_meters":38800,"station_id":"ce4bhch2rcd13ifvqeug","pricing_plan_id":"cebpf4jnsgd1na2vs0mg"},{"bike_id":"5dc15068-156f-423a-b505-7f859341db9b","system_id":"levelo_inurba_marseille","lat":43.28736,"lon":5.36085,"is_reserved":false,"is_disabled":false,"rental_uris":{"android":"levelo://app?vid=5dc15068-156f-423a-b505-7f859341db9b","ios":"levelo://app?vid=5dc15068-156f-423a-b505-7f859341db9b"},"vehicle_type_id":"4","last_reported":1771579840,"current_range_meters":9600,"station_id":"cki0cbj6b192h4jlfktg","pricing_plan_id":"cebpf4jnsgd1na2vs0mg"},{"bike_id":"4f9c43d5-4d69-46bd-b376-efc67bbd7f93","system_id":"levelo_inurba_marseille","lat":43.29036,"lon":5.39995,"is_reserved":false,"is_disabled":false,"rental_uris":{"android":"levelo://app?vid=4f9c43d5-4d69-46bd-b376-efc67bbd7f93","ios":"levelo://app?vid=4f9c43d5-4d69-46bd-b376-efc67bbd7f93"},"vehicle_type_id":"4","last_reported":1771579840,"current_range_meters":38000,"station_id":"ce4bh392rcd13ifvqdm0","pricing_plan_id":"cebpf4jnsgd1na2vs0mg"},{"bike_id":"be97337e-5d42-4c7d-9f90-cc4a1456b7fa","system_id":"levelo_inurba_marseille","lat":43.31052,"lon":5.37158,"is_reserved":false,"is_disabled":false,"rental_uris":{"android":"levelo://app?vid=be97337e-5d42-4c7d-9f90-cc4a1456b7fa","ios":"levelo://app?vid=be97337e-5d42-4c7d-9f90-cc4a1456b7fa"},"vehicle_type_id":"4","last_reported":1771579840,"current_range_meters":24800,"station_id":"st_d4kl2rp97mjs73e7tdfg","pricing_plan_id":"cebpf4jnsgd1na2vs0mg"},{"bike_id":"47788a9b-3d71-4615-adaa-2c88572889ac","system_id":"levelo_inurba_marseille","lat":43.31492,"lon":5.37318,"is_reserved":false,"is_disabled":false,"rental_uris":{"android":"levelo://app?vid=47788a9b-3d71-4615-adaa-2c88572889ac","ios":"levelo://app?vid=47788a9b-3d71-4615-adaa-2c88572889ac"},"vehicle_type_id":"4","last_reported":1771579840,"current_range_meters":28800,"station_id":"ce4bgt12rcd13ifvqcd0","pricing_plan_id":"cebpf4jnsgd1na2vs0mg"},{"bike_id":"adb645e6-2864-4988-a875-6c217fb86438","system_id":"levelo_inurba_marseille","lat":43.30159,"lon":5.38082,"is_reserved":false,"is_disabled":false,"rental_uris":{"android":"levelo://app?vid=adb645e6-2864-4988-a875-6c217fb86438","ios":"levelo://app?vid=adb645e6-2864-4988-a875-6c217fb86438"},"vehicle_type_id":"4","last_reported":1771579840,"current_range_meters":34800,"station_id":"ce4bgjp2rcd13ifvqbh0","pricing_plan_id":"cebpf4jnsgd1na2vs0mg"},{"bike_id":"fe61620a-8630-4808-bdbe-e17dd1aaecfb","system_id":"levelo_inurba_marseille","lat":43.24401,"lon":5.37075,"is_reserved":false,"is_disabled":false,"rental_uris":{"android":"levelo://app?vid=fe61620a-8630-4808-bdbe-e17dd1aaecfb","ios":"levelo://app?vid=fe61620a-8630-4808-bdbe-e17dd1aaecfb"},"vehicle_type_id":"4","last_reported":1771579840,"current_range_meters":30800,"station_id":"","pricing_plan_id":"cebpf4jnsgd1na2vs0mg"},{"bike_id":"3741e8ea-33bc-4b2e-99b8-7d77857e40d0","system_id":"levelo_inurba_marseille","lat":43.25087,"lon":5.39514,"is_reserved":false,"is_disabled":false,"rental_uris":{"android":"levelo://app?vid=3741e8ea-33bc-4b2e-99b8-7d77857e40d0","ios":"levelo://app?vid=3741e8ea-33bc-4b2e-99b8-7d77857e40d0"},"vehicle_type_id":"4","last_reported":1771579840,"current_range_meters":30400,"station_id":"ce4bhm12rcd13ifvqgkg","pricing_plan_id":"cebpf4jnsgd1na2vs0mg"},{"bike_id":"4ac0498d-a6ba-46b8-b9d3-62b72dc501a7","system_id":"levelo_inurba_marseille","lat":43.28733,"lon":5.3794,"is_reserved":false,"is_disabled":false,"rental_uris":{"android":"levelo://app?vid=4ac0498d-a6ba-46b8-b9d3-62b72dc501a7","ios":"levelo://app?vid=4ac0498d-a6ba-46b8-b9d3-62b72dc501a7"},"vehicle_type_id":"4","last_reported":1771579840,"current_range_meters":32000,"station_id":"ce4bh9p2rcd13ifvqec0","pricing_plan_id":"cebpf4jnsgd1na2vs0mg"},{"bike_id":"feddf533-e694-4295-8a00-2ac5034dd517","system_id":"levelo_inurba_marseille","lat":43.26956,"lon":5.40227,"is_reserved":false,"is_disabled":false,"rental_uris":{"android":"levelo://app?vid=feddf533-e694-4295-8a00-2ac5034dd517","ios":"levelo://app?vid=feddf533-e694-4295-8a00-2ac5034dd517"},"vehicle_type_id":"4","last_reported":1771579840,"current_range_meters":35600,"station_id":"cjm6bp8fraef2m0cb0m0","pricing_plan_id":"cebpf4jnsgd1na2vs0mg"},{"bike_id":"1ea8a2d0-c49c-472c-b5e5-7bdfbfc21b03","system_id":"levelo_inurba_marseille","lat":43.28535,"lon":5.44102,"is_reserved":false,"is_disabled":false,"rental_uris":{"android":"levelo://app?vid=1ea8a2d0-c49c-472c-b5e5-7bdfbfc21b03","ios":"levelo://app?vid=1ea8a2d0-c49c-472c-b5e5-7bdfbfc21b03"},"vehicle_type_id":"4","last_reported":1771579840,"current_range_meters":28800,"station_id":"","pricing_plan_id":"cebpf4jnsgd1na2vs0mg"},{"bike_id":"803c7173-26a3-40de-ade8-39c5bdc6e887","system_id":"levelo_inurba_marseille","lat":43.30142,"lon":5.38101,"is_reserved":false,"is_disabled":false,"rental_uris":{"android":"levelo://app?vid=803c7173-26a3-40de-ade8-39c5bdc6e887","ios":"levelo://app?vid=803c7173-26a3-40de-ade8-39c5bdc6e887"},"vehicle_type_id":"4","last_reported":1771579840,"current_range_meters":32800,"station_id":"ce4bgjp2rcd13ifvqbh0","pricing_plan_id":"cebpf4jnsgd1na2vs0mg"},{"bike_id":"8e2b5240-82cf-4964-9103-cf14b2b8a8b6","system_id":"levelo_inurba_marseille","lat":43.30048,"lon":5.38345,"is_reserved":false,"is_disabled":false,"rental_uris":{"android":"levelo://app?vid=8e2b5240-82cf-4964-9103-cf14b2b8a8b6","ios":"levelo://app?vid=8e2b5240-82cf-4964-9103-cf14b2b8a8b6"},"vehicle_type_id":"4","last_reported":1771579840,"current_range_meters":25200,"station_id":"","pricing_plan_id":"cebpf4jnsgd1na2vs0mg"},{"bike_id":"ec9791c3-47c7-4257-ae24-e153a5b0ed0f","system_id":"levelo_inurba_marseille","lat":43.29862,"lon":5.36286,"is_reserved":false,"is_disabled":false,"rental_uris":{"android":"levelo://app?vid=ec9791c3-47c7-4257-ae24-e153a5b0ed0f","ios":"levelo://app?vid=ec9791c3-47c7-4257-ae24-e153a5b0ed0f"},"vehicle_type_id":"4","last_reported":1771579840,"current_range_meters":38000,"station_id":"ce4bgpp2rcd13ifvqc3g","pricing_plan_id":"cebpf4jnsgd1na2vs0mg"},{"bike_id":"a7d629ae-69dd-4c6a-b799-c35407e67baa","system_id":"levelo_inurba_marseille","lat":43.316894,"lon":5.404761,"is_reserved":false,"is_disabled":false,"rental_uris":{"android":"levelo://app?vid=a7d629ae-69dd-4c6a-b799-c35407e67baa","ios":"levelo://app?vid=a7d629ae-69dd-4c6a-b799-c35407e67baa"},"vehicle_type_id":"4","last_reported":1771579840,"current_range_meters":36000,"station_id":"ce4bh012rcd13ifvqd00","pricing_plan_id":"cebpf4jnsgd1na2vs0mg"},{"bike_id":"a390b538-2807-40e2-95f9-4ed175e72a0b","system_id":"levelo_inurba_marseille","lat":43.2494,"lon":5.40508,"is_reserved":false,"is_disabled":false,"rental_uris":{"android":"levelo://app?vid=a390b538-2807-40e2-95f9-4ed175e72a0b","ios":"levelo://app?vid=a390b538-2807-40e2-95f9-4ed175e72a0b"},"vehicle_type_id":"4","last_reported":1771579840,"current_range_meters":19200,"station_id":"st_d2ngiaodas8pm72gd1h0","pricing_plan_id":"cebpf4jnsgd1na2vs0mg"},{"bike_id":"822a37e9-cc86-4db6-b810-29ef8016af0b","system_id":"levelo_inurba_marseille","lat":43.29816,"lon":5.4406,"is_reserved":false,"is_disabled":false,"rental_uris":{"android":"levelo://app?vid=822a37e9-cc86-4db6-b810-29ef8016af0b","ios":"levelo://app?vid=822a37e9-cc86-4db6-b810-29ef8016af0b"},"vehicle_type_id":"4","last_reported":1771579840,"current_range_meters":17600,"station_id":"st_d3jp68qikq2c7381ktn0","pricing_plan_id":"cebpf4jnsgd1na2vs0mg"},{"bike_id":"f9c0c279-ea1b-4575-ae73-5372f56cf43b","system_id":"levelo_inurba_marseille","lat":43.2989,"lon":5.36233,"is_reserved":false,"is_disabled":true,"rental_uris":{"android":"levelo://app?vid=f9c0c279-ea1b-4575-ae73-5372f56cf43b","ios":"levelo://app?vid=f9c0c279-ea1b-4575-ae73-5372f56cf43b"},"vehicle_type_id":"4","last_reported":1771579840,"current_range_meters":31200,"station_id":"ce4bgpp2rcd13ifvqc3g","pricing_plan_id":"cebpf4jnsgd1na2vs0mg"},{"bike_id":"03aee3db-9f4f-47df-b3ec-8d0bacddcdbc","system_id":"levelo_inurba_marseille","lat":43.27171,"lon":5.40986,"is_reserved":false,"is_disabled":false,"rental_uris":{"android":"levelo://app?vid=03aee3db-9f4f-47df-b3ec-8d0bacddcdbc","ios":"levelo://app?vid=03aee3db-9f4f-47df-b3ec-8d0bacddcdbc"},"vehicle_type_id":"4","last_reported":1771579840,"current_range_meters":30400,"station_id":"ce4bhl12rcd13ifvqgf0","pricing_plan_id":"cebpf4jnsgd1na2vs0mg"},{"bike_id":"55eb0aad-f6b5-4ef8-8c2b-ee220d251165","system_id":"levelo_inurba_marseille","lat":43.26931,"lon":5.40246,"is_reserved":false,"is_disabled":false,"rental_uris":{"android":"levelo://app?vid=55eb0aad-f6b5-4ef8-8c2b-ee220d251165","ios":"levelo://app?vid=55eb0aad-f6b5-4ef8-8c2b-ee220d251165"},"vehicle_type_id":"4","last_reported":1771579840,"current_range_meters":28800,"station_id":"cjm6bp8fraef2m0cb0m0","pricing_plan_id":"cebpf4jnsgd1na2vs0mg"},{"bike_id":"59aabee3-6211-4f8a-9630-29cde1e1b3d7","system_id":"levelo_inurba_marseille","lat":43.29541,"lon":5.37488,"is_reserved":false,"is_disabled":false,"rental_uris":{"android":"levelo://app?vid=59aabee3-6211-4f8a-9630-29cde1e1b3d7","ios":"levelo://app?vid=59aabee3-6211-4f8a-9630-29cde1e1b3d7"},"vehicle_type_id":"4","last_reported":1771579840,"current_range_meters":12000,"station_id":"ce4bgkp2rcd13ifvqbmg","pricing_plan_id":"cebpf4jnsgd1na2vs0mg"},{"bike_id":"89b3e01c-4867-4ddb-b4c3-f53bd946fe77","system_id":"levelo_inurba_marseille","lat":43.29282,"lon":5.36092,"is_reserved":false,"is_disabled":false,"rental_uris":{"android":"levelo://app?vid=89b3e01c-4867-4ddb-b4c3-f53bd946fe77","ios":"levelo://app?vid=89b3e01c-4867-4ddb-b4c3-f53bd946fe77"},"vehicle_type_id":"4","last_reported":1771579840,"current_range_meters":8000,"station_id":"ce4bhbh2rcd13ifvqeqg","pricing_plan_id":"cebpf4jnsgd1na2vs0mg"},{"bike_id":"012436c7-b0d2-44f6-9f1e-20d7a40c23a6","system_id":"levelo_inurba_marseille","lat":43.26209,"lon":5.40444,"is_reserved":false,"is_disabled":false,"rental_uris":{"android":"levelo://app?vid=012436c7-b0d2-44f6-9f1e-20d7a40c23a6","ios":"levelo://app?vid=012436c7-b0d2-44f6-9f1e-20d7a40c23a6"},"vehicle_type_id":"4","last_reported":1771579840,"current_range_meters":28800,"station_id":"ce4bhmh2rcd13ifvqgmg","pricing_plan_id":"cebpf4jnsgd1na2vs0mg"},{"bike_id":"ddb35e99-7580-4184-b1a3-39dee08fd05d","system_id":"levelo_inurba_marseille","lat":43.29552,"lon":5.43955,"is_reserved":false,"is_disabled":true,"rental_uris":{"android":"levelo://app?vid=ddb35e99-7580-4184-b1a3-39dee08fd05d","ios":"levelo://app?vid=ddb35e99-7580-4184-b1a3-39dee08fd05d"},"vehicle_type_id":"4","last_reported":1771579840,"current_range_meters":7200,"station_id":"","pricing_plan_id":"cebpf4jnsgd1na2vs0mg"},{"bike_id":"4d976bf5-f813-4b36-99cd-ae82b3487f1d","system_id":"levelo_inurba_marseille","lat":43.28008,"lon":5.41643,"is_reserved":false,"is_disabled":false,"rental_uris":{"android":"levelo://app?vid=4d976bf5-f813-4b36-99cd-ae82b3487f1d","ios":"levelo://app?vid=4d976bf5-f813-4b36-99cd-ae82b3487f1d"},"vehicle_type_id":"4","last_reported":1771579840,"current_range_meters":3600,"station_id":"ce4bho12rcd13ifvqh1g","pricing_plan_id":"cebpf4jnsgd1na2vs0mg"},{"bike_id":"cf4ac0e3-a880-402a-ba16-3c810e1ae3e2","system_id":"levelo_inurba_marseille","lat":43.29282,"lon":5.36844,"is_reserved":false,"is_disabled":false,"rental_uris":{"android":"levelo://app?vid=cf4ac0e3-a880-402a-ba16-3c810e1ae3e2","ios":"levelo://app?vid=cf4ac0e3-a880-402a-ba16-3c810e1ae3e2"},"vehicle_type_id":"4","last_reported":1771579840,"current_range_meters":10800,"station_id":"ce4bhbp2rcd13ifvqesg","pricing_plan_id":"cebpf4jnsgd1na2vs0mg"},{"bike_id":"ccbff816-1104-4bd0-99c6-f565cf383d9e","system_id":"levelo_inurba_marseille","lat":43.25522,"lon":5.37664,"is_reserved":false,"is_disabled":false,"rental_uris":{"android":"levelo://app?vid=ccbff816-1104-4bd0-99c6-f565cf383d9e","ios":"levelo://app?vid=ccbff816-1104-4bd0-99c6-f565cf383d9e"},"vehicle_type_id":"4","last_reported":1771579840,"current_range_meters":16800,"station_id":"ce4bhh12rcd13ifvqff0","pricing_plan_id":"cebpf4jnsgd1na2vs0mg"},{"bike_id":"5d28958e-c001-4c94-8a2b-dc61485dc6e0","system_id":"levelo_inurba_marseille","lat":43.30166,"lon":5.38081,"is_reserved":false,"is_disabled":false,"rental_uris":{"android":"levelo://app?vid=5d28958e-c001-4c94-8a2b-dc61485dc6e0","ios":"levelo://app?vid=5d28958e-c001-4c94-8a2b-dc61485dc6e0"},"vehicle_type_id":"4","last_reported":1771579840,"current_range_meters":33600,"station_id":"ce4bgjp2rcd13ifvqbh0","pricing_plan_id":"cebpf4jnsgd1na2vs0mg"},{"bike_id":"60a6995c-c435-4b20-bd2c-a08d8065b0bf","system_id":"levelo_inurba_marseille","lat":43.30933,"lon":5.36905,"is_reserved":false,"is_disabled":false,"rental_uris":{"android":"levelo://app?vid=60a6995c-c435-4b20-bd2c-a08d8065b0bf","ios":"levelo://app?vid=60a6995c-c435-4b20-bd2c-a08d8065b0bf"},"vehicle_type_id":"4","last_reported":1771579840,"current_range_meters":35600,"station_id":"ce4bgn92rcd13ifvqbvg","pricing_plan_id":"cebpf4jnsgd1na2vs0mg"},{"bike_id":"f3dabe3a-1263-4a4f-94b4-37ab08554040","system_id":"levelo_inurba_marseille","lat":43.27954,"lon":5.38727,"is_reserved":false,"is_disabled":false,"rental_uris":{"android":"levelo://app?vid=f3dabe3a-1263-4a4f-94b4-37ab08554040","ios":"levelo://app?vid=f3dabe3a-1263-4a4f-94b4-37ab08554040"},"vehicle_type_id":"4","last_reported":1771579840,"current_range_meters":32000,"station_id":"ce4bhg12rcd13ifvqf80","pricing_plan_id":"cebpf4jnsgd1na2vs0mg"},{"bike_id":"5d4597b2-2961-4f8b-8c73-25cd03047315","system_id":"levelo_inurba_marseille","lat":43.30298,"lon":5.37702,"is_reserved":false,"is_disabled":false,"rental_uris":{"android":"levelo://app?vid=5d4597b2-2961-4f8b-8c73-25cd03047315","ios":"levelo://app?vid=5d4597b2-2961-4f8b-8c73-25cd03047315"},"vehicle_type_id":"4","last_reported":1771579840,"current_range_meters":32800,"station_id":"ce4bguh2rcd13ifvqcj0","pricing_plan_id":"cebpf4jnsgd1na2vs0mg"},{"bike_id":"335a267c-95a8-472d-abc4-03c6dcaf13f4","system_id":"levelo_inurba_marseille","lat":43.30193,"lon":5.3664,"is_reserved":false,"is_disabled":false,"rental_uris":{"android":"levelo://app?vid=335a267c-95a8-472d-abc4-03c6dcaf13f4","ios":"levelo://app?vid=335a267c-95a8-472d-abc4-03c6dcaf13f4"},"vehicle_type_id":"4","last_reported":1771579840,"current_range_meters":27600,"station_id":"ce4bgrh2rcd13ifvqc8g","pricing_plan_id":"cebpf4jnsgd1na2vs0mg"},{"bike_id":"718f4185-4e47-4177-9e77-08c6703daa55","system_id":"levelo_inurba_marseille","lat":43.30025,"lon":5.37517,"is_reserved":false,"is_disabled":false,"rental_uris":{"android":"levelo://app?vid=718f4185-4e47-4177-9e77-08c6703daa55","ios":"levelo://app?vid=718f4185-4e47-4177-9e77-08c6703daa55"},"vehicle_type_id":"4","last_reported":1771579840,"current_range_meters":32400,"station_id":"","pricing_plan_id":"cebpf4jnsgd1na2vs0mg"},{"bike_id":"759f0a09-9669-46dc-9822-7ecc825b93de","system_id":"levelo_inurba_marseille","lat":43.30577,"lon":5.36602,"is_reserved":false,"is_disabled":false,"rental_uris":{"android":"levelo://app?vid=759f0a09-9669-46dc-9822-7ecc825b93de","ios":"levelo://app?vid=759f0a09-9669-46dc-9822-7ecc825b93de"},"vehicle_type_id":"4","last_reported":1771579840,"current_range_meters":31200,"station_id":"ce4bgs12rcd13ifvqcag","pricing_plan_id":"cebpf4jnsgd1na2vs0mg"},{"bike_id":"a203736d-c1b5-4b92-91cd-952b9b8898d7","system_id":"levelo_inurba_marseille","lat":43.298179,"lon":5.440621,"is_reserved":false,"is_disabled":false,"rental_uris":{"android":"levelo://app?vid=a203736d-c1b5-4b92-91cd-952b9b8898d7","ios":"levelo://app?vid=a203736d-c1b5-4b92-91cd-952b9b8898d7"},"vehicle_type_id":"4","last_reported":1771579840,"current_range_meters":36800,"station_id":"st_d3jp68qikq2c7381ktn0","pricing_plan_id":"cebpf4jnsgd1na2vs0mg"},{"bike_id":"00ec92d6-8585-4b6b-bdfb-075a6c0e15c5","system_id":"levelo_inurba_marseille","lat":43.27958,"lon":5.41038,"is_reserved":false,"is_disabled":false,"rental_uris":{"android":"levelo://app?vid=00ec92d6-8585-4b6b-bdfb-075a6c0e15c5","ios":"levelo://app?vid=00ec92d6-8585-4b6b-bdfb-075a6c0e15c5"},"vehicle_type_id":"4","last_reported":1771579840,"current_range_meters":35600,"station_id":"ce4bhnp2rcd13ifvqh0g","pricing_plan_id":"cebpf4jnsgd1na2vs0mg"},{"bike_id":"537ddde5-fba4-4dd4-948a-decf92045f7c","system_id":"levelo_inurba_marseille","lat":43.290275,"lon":5.399536,"is_reserved":false,"is_disabled":false,"rental_uris":{"android":"levelo://app?vid=537ddde5-fba4-4dd4-948a-decf92045f7c","ios":"levelo://app?vid=537ddde5-fba4-4dd4-948a-decf92045f7c"},"vehicle_type_id":"4","last_reported":1771579840,"current_range_meters":37600,"station_id":"ce4bh392rcd13ifvqdm0","pricing_plan_id":"cebpf4jnsgd1na2vs0mg"},{"bike_id":"d29998b5-6967-46da-b884-fd61b5bcb491","system_id":"levelo_inurba_marseille","lat":43.23971,"lon":5.36623,"is_reserved":false,"is_disabled":true,"rental_uris":{"android":"levelo://app?vid=d29998b5-6967-46da-b884-fd61b5bcb491","ios":"levelo://app?vid=d29998b5-6967-46da-b884-fd61b5bcb491"},"vehicle_type_id":"4","last_reported":1771579840,"current_range_meters":39200,"station_id":"ce4bhi12rcd13ifvqfp0","pricing_plan_id":"cebpf4jnsgd1na2vs0mg"},{"bike_id":"2821260b-3b59-44c7-8cec-5fffade087b5","system_id":"levelo_inurba_marseille","lat":43.29032,"lon":5.40001,"is_reserved":false,"is_disabled":false,"rental_uris":{"android":"levelo://app?vid=2821260b-3b59-44c7-8cec-5fffade087b5","ios":"levelo://app?vid=2821260b-3b59-44c7-8cec-5fffade087b5"},"vehicle_type_id":"4","last_reported":1771579840,"current_range_meters":38000,"station_id":"ce4bh392rcd13ifvqdm0","pricing_plan_id":"cebpf4jnsgd1na2vs0mg"},{"bike_id":"cdd8d115-f010-405b-9f34-0bf5a2e0a0aa","system_id":"levelo_inurba_marseille","lat":43.29909,"lon":5.38141,"is_reserved":false,"is_disabled":false,"rental_uris":{"android":"levelo://app?vid=cdd8d115-f010-405b-9f34-0bf5a2e0a0aa","ios":"levelo://app?vid=cdd8d115-f010-405b-9f34-0bf5a2e0a0aa"},"vehicle_type_id":"4","last_reported":1771579840,"current_range_meters":33200,"station_id":"ce4bgj12rcd13ifvqbc0","pricing_plan_id":"cebpf4jnsgd1na2vs0mg"},{"bike_id":"cdc58fbc-7e49-4216-901d-5913cea19fb3","system_id":"levelo_inurba_marseille","lat":43.30188,"lon":5.36647,"is_reserved":false,"is_disabled":false,"rental_uris":{"android":"levelo://app?vid=cdc58fbc-7e49-4216-901d-5913cea19fb3","ios":"levelo://app?vid=cdc58fbc-7e49-4216-901d-5913cea19fb3"},"vehicle_type_id":"4","last_reported":1771579840,"current_range_meters":36800,"station_id":"ce4bgrh2rcd13ifvqc8g","pricing_plan_id":"cebpf4jnsgd1na2vs0mg"},{"bike_id":"83032a15-de29-40b7-a954-7fedf3d7a2f5","system_id":"levelo_inurba_marseille","lat":43.25538,"lon":5.37646,"is_reserved":false,"is_disabled":false,"rental_uris":{"android":"levelo://app?vid=83032a15-de29-40b7-a954-7fedf3d7a2f5","ios":"levelo://app?vid=83032a15-de29-40b7-a954-7fedf3d7a2f5"},"vehicle_type_id":"4","last_reported":1771579840,"current_range_meters":36000,"station_id":"ce4bhh12rcd13ifvqff0","pricing_plan_id":"cebpf4jnsgd1na2vs0mg"},{"bike_id":"89348371-c0d3-4978-b105-d9861775d01c","system_id":"levelo_inurba_marseille","lat":43.29033,"lon":5.399687,"is_reserved":false,"is_disabled":false,"rental_uris":{"android":"levelo://app?vid=89348371-c0d3-4978-b105-d9861775d01c","ios":"levelo://app?vid=89348371-c0d3-4978-b105-d9861775d01c"},"vehicle_type_id":"4","last_reported":1771579840,"current_range_meters":12000,"station_id":"ce4bh392rcd13ifvqdm0","pricing_plan_id":"cebpf4jnsgd1na2vs0mg"},{"bike_id":"1e91ae5d-f4e8-4632-9a45-badf2d733577","system_id":"levelo_inurba_marseille","lat":43.26693,"lon":5.38257,"is_reserved":false,"is_disabled":false,"rental_uris":{"android":"levelo://app?vid=1e91ae5d-f4e8-4632-9a45-badf2d733577","ios":"levelo://app?vid=1e91ae5d-f4e8-4632-9a45-badf2d733577"},"vehicle_type_id":"4","last_reported":1771579840,"current_range_meters":38800,"station_id":"ce4bhg92rcd13ifvqf90","pricing_plan_id":"cebpf4jnsgd1na2vs0mg"},{"bike_id":"6a40bc30-ec3f-4025-af37-d430e3238330","system_id":"levelo_inurba_marseille","lat":43.29524,"lon":5.37508,"is_reserved":false,"is_disabled":false,"rental_uris":{"android":"levelo://app?vid=6a40bc30-ec3f-4025-af37-d430e3238330","ios":"levelo://app?vid=6a40bc30-ec3f-4025-af37-d430e3238330"},"vehicle_type_id":"4","last_reported":1771579840,"current_range_meters":30400,"station_id":"ce4bgkp2rcd13ifvqbmg","pricing_plan_id":"cebpf4jnsgd1na2vs0mg"},{"bike_id":"6490eec2-c2e9-42ad-aca0-95d82ccfc451","system_id":"levelo_inurba_marseille","lat":43.29221,"lon":5.36059,"is_reserved":false,"is_disabled":false,"rental_uris":{"android":"levelo://app?vid=6490eec2-c2e9-42ad-aca0-95d82ccfc451","ios":"levelo://app?vid=6490eec2-c2e9-42ad-aca0-95d82ccfc451"},"vehicle_type_id":"4","last_reported":1771579840,"current_range_meters":39200,"station_id":"ce4bhbh2rcd13ifvqeqg","pricing_plan_id":"cebpf4jnsgd1na2vs0mg"},{"bike_id":"fac37d59-7173-486d-84e4-f215994ed327","system_id":"levelo_inurba_marseille","lat":43.26183,"lon":5.37916,"is_reserved":false,"is_disabled":false,"rental_uris":{"android":"levelo://app?vid=fac37d59-7173-486d-84e4-f215994ed327","ios":"levelo://app?vid=fac37d59-7173-486d-84e4-f215994ed327"},"vehicle_type_id":"4","last_reported":1771579840,"current_range_meters":39200,"station_id":"ce4bhjp2rcd13ifvqg90","pricing_plan_id":"cebpf4jnsgd1na2vs0mg"},{"bike_id":"2ab4db1b-20ea-4e04-a1a7-e5a0ee557ad0","system_id":"levelo_inurba_marseille","lat":43.304,"lon":5.41294,"is_reserved":false,"is_disabled":false,"rental_uris":{"android":"levelo://app?vid=2ab4db1b-20ea-4e04-a1a7-e5a0ee557ad0","ios":"levelo://app?vid=2ab4db1b-20ea-4e04-a1a7-e5a0ee557ad0"},"vehicle_type_id":"4","last_reported":1771579840,"current_range_meters":29600,"station_id":"ce4bhop2rcd13ifvqh8g","pricing_plan_id":"cebpf4jnsgd1na2vs0mg"},{"bike_id":"62441085-837d-4d79-9902-e8ee03534bd7","system_id":"levelo_inurba_marseille","lat":43.29614,"lon":5.36712,"is_reserved":false,"is_disabled":false,"rental_uris":{"android":"levelo://app?vid=62441085-837d-4d79-9902-e8ee03534bd7","ios":"levelo://app?vid=62441085-837d-4d79-9902-e8ee03534bd7"},"vehicle_type_id":"4","last_reported":1771579840,"current_range_meters":39200,"station_id":"ce4bgph2rcd13ifvqc2g","pricing_plan_id":"cebpf4jnsgd1na2vs0mg"},{"bike_id":"f460cdea-58c9-45ae-b344-91e13b5a9dd4","system_id":"levelo_inurba_marseille","lat":43.29284,"lon":5.36835,"is_reserved":false,"is_disabled":false,"rental_uris":{"android":"levelo://app?vid=f460cdea-58c9-45ae-b344-91e13b5a9dd4","ios":"levelo://app?vid=f460cdea-58c9-45ae-b344-91e13b5a9dd4"},"vehicle_type_id":"4","last_reported":1771579840,"current_range_meters":36800,"station_id":"ce4bhbp2rcd13ifvqesg","pricing_plan_id":"cebpf4jnsgd1na2vs0mg"},{"bike_id":"b583c3e4-a483-4093-9959-430528ae3b5e","system_id":"levelo_inurba_marseille","lat":43.30074,"lon":5.38659,"is_reserved":false,"is_disabled":false,"rental_uris":{"android":"levelo://app?vid=b583c3e4-a483-4093-9959-430528ae3b5e","ios":"levelo://app?vid=b583c3e4-a483-4093-9959-430528ae3b5e"},"vehicle_type_id":"4","last_reported":1771579840,"current_range_meters":24800,"station_id":"","pricing_plan_id":"cebpf4jnsgd1na2vs0mg"},{"bike_id":"f5a83828-f353-4692-b521-be18cc9b6b45","system_id":"levelo_inurba_marseille","lat":43.28995,"lon":5.35621,"is_reserved":false,"is_disabled":false,"rental_uris":{"android":"levelo://app?vid=f5a83828-f353-4692-b521-be18cc9b6b45","ios":"levelo://app?vid=f5a83828-f353-4692-b521-be18cc9b6b45"},"vehicle_type_id":"4","last_reported":1771579840,"current_range_meters":17600,"station_id":"ce4bhb92rcd13ifvqen0","pricing_plan_id":"cebpf4jnsgd1na2vs0mg"},{"bike_id":"36b28756-c901-4c26-8e91-94c1df83609b","system_id":"levelo_inurba_marseille","lat":43.29893,"lon":5.43659,"is_reserved":false,"is_disabled":false,"rental_uris":{"android":"levelo://app?vid=36b28756-c901-4c26-8e91-94c1df83609b","ios":"levelo://app?vid=36b28756-c901-4c26-8e91-94c1df83609b"},"vehicle_type_id":"4","last_reported":1771579840,"current_range_meters":39200,"station_id":"ce4bhpp2rcd13ifvqhfg","pricing_plan_id":"cebpf4jnsgd1na2vs0mg"},{"bike_id":"79b9617f-b7dd-42cf-bda2-895f440c14ee","system_id":"levelo_inurba_marseille","lat":43.32412,"lon":5.37362,"is_reserved":false,"is_disabled":false,"rental_uris":{"android":"levelo://app?vid=79b9617f-b7dd-42cf-bda2-895f440c14ee","ios":"levelo://app?vid=79b9617f-b7dd-42cf-bda2-895f440c14ee"},"vehicle_type_id":"4","last_reported":1771579840,"current_range_meters":36000,"station_id":"","pricing_plan_id":"cebpf4jnsgd1na2vs0mg"},{"bike_id":"cf213306-86b5-4130-8f2e-91240decc6a1","system_id":"levelo_inurba_marseille","lat":43.25005,"lon":5.38929,"is_reserved":false,"is_disabled":false,"rental_uris":{"android":"levelo://app?vid=cf213306-86b5-4130-8f2e-91240decc6a1","ios":"levelo://app?vid=cf213306-86b5-4130-8f2e-91240decc6a1"},"vehicle_type_id":"4","last_reported":1771579840,"current_range_meters":40000,"station_id":"ce4bhgp2rcd13ifvqfd0","pricing_plan_id":"cebpf4jnsgd1na2vs0mg"},{"bike_id":"edd40948-90a4-4d4a-82c5-91e29016baab","system_id":"levelo_inurba_marseille","lat":43.30549,"lon":5.3672,"is_reserved":false,"is_disabled":false,"rental_uris":{"android":"levelo://app?vid=edd40948-90a4-4d4a-82c5-91e29016baab","ios":"levelo://app?vid=edd40948-90a4-4d4a-82c5-91e29016baab"},"vehicle_type_id":"4","last_reported":1771579840,"current_range_meters":25600,"station_id":"ce4bgrp2rcd13ifvqc9g","pricing_plan_id":"cebpf4jnsgd1na2vs0mg"},{"bike_id":"1a94d429-f80d-4d27-9a5f-d45ec0c2e032","system_id":"levelo_inurba_marseille","lat":43.27317,"lon":5.39118,"is_reserved":false,"is_disabled":false,"rental_uris":{"android":"levelo://app?vid=1a94d429-f80d-4d27-9a5f-d45ec0c2e032","ios":"levelo://app?vid=1a94d429-f80d-4d27-9a5f-d45ec0c2e032"},"vehicle_type_id":"4","last_reported":1771579840,"current_range_meters":39200,"station_id":"ce4bhgp2rcd13ifvqfe0","pricing_plan_id":"cebpf4jnsgd1na2vs0mg"},{"bike_id":"f8df57cb-120a-4af2-869d-3dd7ec6f3729","system_id":"levelo_inurba_marseille","lat":43.29816,"lon":5.3795,"is_reserved":false,"is_disabled":false,"rental_uris":{"android":"levelo://app?vid=f8df57cb-120a-4af2-869d-3dd7ec6f3729","ios":"levelo://app?vid=f8df57cb-120a-4af2-869d-3dd7ec6f3729"},