{"last_updated":1728457774,"ttl":60,"version":"2.2","data":{"bikes":[{"bike_id":"167b86d2-1cb2-450c-8151-2fad7f5d864c","system_id":"levelo_inurba_marseille","lat":43.25871,"lon":5.39899,"is_reserved":false,"is_disabled":false,"rental_uris":{"android":"levelo://app?vid=167b86d2-1cb2-450c-8151-2fad7f5d864c","ios":"levelo://app?vid=167b86d2-1cb2-450c-8151-2fad7f5d864c"},"vehicle_type_id":"4","last_reported":1728457774,"current_range_meters":38400,"station_id":"ce4bhl92rcd13ifvqghg","pricing_plan_id":"cebpf4jnsgd1na2vs0mg"},{"bike_id":"c60da232-2931-445e-9832-6a7c4cbdbe4f","system_id":"levelo_inurba_marseille","lat":43.25939,"lon":5.40909,"is_reserved":false,"is_disabled":false,"rental_uris":{"android":"levelo://app?vid=c60da232-2931-445e-9832-6a7c4cbdbe4f","ios":"levelo://app?vid=c60da232-2931-445e-9832-6a7c4cbdbe4f"},"vehicle_type_id":"4","last_reported":1728457774,"current_range_meters":29600,"station_id":"ce4bhm92rcd13ifvqglg","pricing_plan_id":"cebpf4jnsgd1na2vs0mg"},{"bike_id":"74a2bc47-bf20-4183-badc-92f3c0344910","system_id":"levelo_inurba_marseille","lat":43.28151,"lon":5.42635,"is_reserved":false,"is_disabled":false,"rental_uris":{"android":"levelo://app?vid=74a2bc47-bf20-4183-badc-92f3c0344910","ios":"levelo://app?vid=74a2bc47-bf20-4183-badc-92f3c0344910"},"vehicle_type_id":"4","last_reported":1728457774,"current_range_meters":26800,"station_id":"ce4bhnh2rcd13ifvqgug","pricing_plan_id":"cebpf4jnsgd1na2vs0mg"},{"bike_id":"6c735826-4f68-45af-8d44-7cab6eb2bf45","system_id":"levelo_inurba_marseille","lat":43.275513,"lon":5.360076,"is_reserved":false,"is_disabled":false,"rental_uris":{"android":"levelo://app?vid=6c735826-4f68-45af-8d44-7cab6eb2bf45","ios":"levelo://app?vid=6c735826-4f68-45af-8d44-7cab6eb2bf45"},"vehicle_type_id":"4","last_reported":1728457774,"current_range_meters":26000,"station_id":"ce4bhbp2rcd13ifvqerg","pricing_plan_id":"cebpf4jnsgd1na2vs0mg"},{"bike_id":"75970601-4b97-4dc5-b5b7-e0b40a9efaf2","system_id":"levelo_inurba_marseille","lat":43.28933,"lon":5.384,"is_reserved":false,"is_disabled":false,"rental_uris":{"android":"levelo://app?vid=75970601-4b97-4dc5-b5b7-e0b40a9efaf2","ios":"levelo://app?vid=75970601-4b97-4dc5-b5b7-e0b40a9efaf2"},"vehicle_type_id":"4","last_reported":1728457774,"current_range_meters":24400,"station_id":"ce4bh612rcd13ifvqe6g","pricing_plan_id":"cebpf4jnsgd1na2vs0mg"},{"bike_id":"62d9e195-f719-4690-a78c-ff33746a6f51","system_id":"levelo_inurba_marseille","lat":43.27378,"lon":5.36266,"is_reserved":false,"is_disabled":false,"rental_uris":{"android":"levelo://app?vid=62d9e195-f719-4690-a78c-ff33746a6f51","ios":"levelo://app?vid=62d9e195-f719-4690-a78c-ff33746a6f51"},"vehicle_type_id":"4","last_reported":1728457774,"current_range_meters":38800,"station_id":"ce4bhbh2rcd13ifvqeo0","pricing_plan_id":"cebpf4jnsgd1na2vs0mg"},{"bike_id":"6b8918a4-396b-43e5-9a7f-f056357bf660","system_id":"levelo_inurba_marseille","lat":43.2307,"lon":5.35498,"is_reserved":false,"is_disabled":false,"rental_uris":{"android":"levelo://app?vid=6b8918a4-396b-43e5-9a7f-f056357bf660","ios":"levelo://app?vid=6b8918a4-396b-43e5-9a7f-f056357bf660"},"vehicle_type_id":"4","last_reported":1728457774,"current_range_meters":9200,"station_id":"cpo3342slgdg3j2ifvpg","pricing_plan_id":"cebpf4jnsgd1na2vs0mg"},{"bike_id":"64524fe4-6e16-4d18-8e90-00b089a26f5f","system_id":"levelo_inurba_marseille","lat":43.27843,"lon":5.38479,"is_reserved":false,"is_disabled":false,"rental_uris":{"android":"levelo://app?vid=64524fe4-6e16-4d18-8e90-00b089a26f5f","ios":"levelo://app?vid=64524fe4-6e16-4d18-8e90-00b089a26f5f"},"vehicle_type_id":"4","last_reported":1728457774,"current_range_meters":35200,"station_id":"ce4bgvp2rcd13ifvqct0","pricing_plan_id":"cebpf4jnsgd1na2vs0mg"},{"bike_id":"a4319151-307a-4f45-87df-6ed5817f7510","system_id":"levelo_inurba_marseille","lat":43.2407,"lon":5.37768,"is_reserved":false,"is_disabled":false,"rental_uris":{"android":"levelo://app?vid=a4319151-307a-4f45-87df-6ed5817f7510","ios":"levelo://app?vid=a4319151-307a-4f45-87df-6ed5817f7510"},"vehicle_type_id":"4","last_reported":1728457774,"current_range_meters":36400,"station_id":"ce4bhnp2rcd13ifvqgvg","pricing_plan_id":"cebpf4jnsgd1na2vs0mg"},{"bike_id":"cb6b7074-cd94-4bfc-9e30-f7ddb63b3bd6","system_id":"levelo_inurba_marseille","lat":43.23966,"lon":5.36634,"is_reserved":false,"is_disabled":false,"rental_uris":{"android":"levelo://app?vid=cb6b7074-cd94-4bfc-9e30-f7ddb63b3bd6","ios":"levelo://app?vid=cb6b7074-cd94-4bfc-9e30-f7ddb63b3bd6"},"vehicle_type_id":"4","last_reported":1728457774,"current_range_meters":14800,"station_id":"ce4bhi12rcd13ifvqfp0","pricing_plan_id":"cebpf4jnsgd1na2vs0mg"},{"bike_id":"5955c424-b516-4f31-9e88-1dc303d2cf30","system_id":"levelo_inurba_marseille","lat":43.26499,"lon":5.39541,"is_reserved":false,"is_disabled":false,"rental_uris":{"android":"levelo://app?vid=5955c424-b516-4f31-9e88-1dc303d2cf30","ios":"levelo://app?vid=5955c424-b516-4f31-9e88-1dc303d2cf30"},"vehicle_type_id":"4","last_reported":1728457774,"current_range_meters":7200,"station_id":"ce4bhi12rcd13ifvqfq0","pricing_plan_id":"cebpf4jnsgd1na2vs0mg"},{"bike_id":"0942f772-31be-4eb1-b669-63d390169f0e","system_id":"levelo_inurba_marseille","lat":43.33601,"lon":5.410294,"is_reserved":false,"is_disabled":false,"rental_uris":{"android":"levelo://app?vid=0942f772-31be-4eb1-b669-63d390169f0e","ios":"levelo://app?vid=0942f772-31be-4eb1-b669-63d390169f0e"},"vehicle_type_id":"4","last_reported":1728457774,"current_range_meters":39200,"station_id":"ce4bhqh2rcd13ifvqhmg","pricing_plan_id":"cebpf4jnsgd1na2vs0mg"},{"bike_id":"587ac9ee-bb99-4547-830b-e4769da5149a","system_id":"levelo_inurba_marseille","lat":43.280365,"lon":5.369508,"is_reserved":false,"is_disabled":false,"rental_uris":{"android":"levelo://app?vid=587ac9ee-bb99-4547-830b-e4769da5149a","ios":"levelo://app?vid=587ac9ee-bb99-4547-830b-e4769da5149a"},"vehicle_type_id":"4","last_reported":1728457774,"current_range_meters":33200,"station_id":"ce4bha12rcd13ifvqef0","pricing_plan_id":"cebpf4jnsgd1na2vs0mg"},{"bike_id":"39889ba0-0431-4056-b70a-688defafb58c","system_id":"levelo_inurba_marseille","lat":43.27496,"lon":5.4245,"is_reserved":false,"is_disabled":false,"rental_uris":{"android":"levelo://app?vid=39889ba0-0431-4056-b70a-688defafb58c","ios":"levelo://app?vid=39889ba0-0431-4056-b70a-688defafb58c"},"vehicle_type_id":"4","last_reported":1728457774,"current_range_meters":36000,"station_id":"ce4bhn92rcd13ifvqgrg","pricing_plan_id":"cebpf4jnsgd1na2vs0mg"},{"bike_id":"776b72b9-076c-4497-b610-d46fec873260","system_id":"levelo_inurba_marseille","lat":43.28618,"lon":5.3511,"is_reserved":false,"is_disabled":false,"rental_uris":{"android":"levelo://app?vid=776b72b9-076c-4497-b610-d46fec873260","ios":"levelo://app?vid=776b72b9-076c-4497-b610-d46fec873260"},"vehicle_type_id":"4","last_reported":1728457774,"current_range_meters":24400,"station_id":"ce4bhch2rcd13ifvqeug","pricing_plan_id":"cebpf4jnsgd1na2vs0mg"},{"bike_id":"9dea584b-a12b-4605-bf9a-cf0b116f9f73","system_id":"levelo_inurba_marseille","lat":43.30281,"lon":5.37713,"is_reserved":false,"is_disabled":false,"rental_uris":{"android":"levelo://app?vid=9dea584b-a12b-4605-bf9a-cf0b116f9f73","ios":"levelo://app?vid=9dea584b-a12b-4605-bf9a-cf0b116f9f73"},"vehicle_type_id":"4","last_reported":1728457774,"current_range_meters":28000,"station_id":"ce4bguh2rcd13ifvqcj0","pricing_plan_id":"cebpf4jnsgd1na2vs0mg"},{"bike_id":"66adeba8-5df7-4620-b2f2-1937e7b64748","system_id":"levelo_inurba_marseille","lat":43.26946,"lon":5.38658,"is_reserved":false,"is_disabled":false,"rental_uris":{"android":"levelo://app?vid=66adeba8-5df7-4620-b2f2-1937e7b64748","ios":"levelo://app?vid=66adeba8-5df7-4620-b2f2-1937e7b64748"},"vehicle_type_id":"4","last_reported":1728457774,"current_range_meters":8400,"station_id":"ce4bhh92rcd13ifvqfh0","pricing_plan_id":"cebpf4jnsgd1na2vs0mg"},{"bike_id":"a7db8d57-39dc-4df7-b4dc-ffdc3d278a56","system_id":"levelo_inurba_marseille","lat":43.30277,"lon":5.37692,"is_reserved":false,"is_disabled":false,"rental_uris":{"android":"levelo://app?vid=a7db8d57-39dc-4df7-b4dc-ffdc3d278a56","ios":"levelo://app?vid=a7db8d57-39dc-4df7-b4dc-ffdc3d278a56"},"vehicle_type_id":"4","last_reported":1728457774,"current_range_meters":31200,"station_id":"ce4bguh2rcd13ifvqcj0","pricing_plan_id":"cebpf4jnsgd1na2vs0mg"},{"bike_id":"f46ca859-0d6d-43f9-9a44-50e439b9648f","system_id":"levelo_inurba_marseille","lat":43.295346,"lon":5.389324,"is_reserved":false,"is_disabled":false,"rental_uris":{"android":"levelo://app?vid=f46ca859-0d6d-43f9-9a44-50e439b9648f","ios":"levelo://app?vid=f46ca859-0d6d-43f9-9a44-50e439b9648f"},"vehicle_type_id":"4","last_reported":1728457774,"current_range_meters":28000,"station_id":"ce4bh492rcd13ifvqdvg","pricing_plan_id":"cebpf4jnsgd1na2vs0mg"},{"bike_id":"64c9abdc-a744-4b43-9856-a64e8ee5db15","system_id":"levelo_inurba_marseille","lat":43.23066,"lon":5.35499,"is_reserved":false,"is_disabled":false,"rental_uris":{"android":"levelo://app?vid=64c9abdc-a744-4b43-9856-a64e8ee5db15","ios":"levelo://app?vid=64c9abdc-a744-4b43-9856-a64e8ee5db15"},"vehicle_type_id":"4","last_reported":1728457774,"current_range_meters":38400,"station_id":"cpo3342slgdg3j2ifvpg","pricing_plan_id":"cebpf4jnsgd1na2vs0mg"},{"bike_id":"05230cb0-07ce-4987-8d23-90a32cbdcfa1","system_id":"levelo_inurba_marseille","lat":43.26954,"lon":5.38628,"is_reserved":false,"is_disabled":false,"rental_uris":{"android":"levelo://app?vid=05230cb0-07ce-4987-8d23-90a32cbdcfa1","ios":"levelo://app?vid=05230cb0-07ce-4987-8d23-90a32cbdcfa1"},"vehicle_type_id":"4","last_reported":1728457774,"current_range_meters":36800,"station_id":"ce4bhh92rcd13ifvqfh0","pricing_plan_id":"cebpf4jnsgd1na2vs0mg"},{"bike_id":"7cfacdad-93ad-431f-abf9-d4c6c0f1d9f2","system_id":"levelo_inurba_marseille","lat":43.337444,"lon":5.374475,"is_reserved":false,"is_disabled":false,"rental_uris":{"android":"levelo://app?vid=7cfacdad-93ad-431f-abf9-d4c6c0f1d9f2","ios":"levelo://app?vid=7cfacdad-93ad-431f-abf9-d4c6c0f1d9f2"},"vehicle_type_id":"4","last_reported":1728457774,"current_range_meters":30000,"station_id":"","pricing_plan_id":"cebpf4jnsgd1na2vs0mg"},{"bike_id":"95c7d446-d990-41a1-97f6-327a9b4d1682","system_id":"levelo_inurba_marseille","lat":43.284698,"lon":5.384226,"is_reserved":false,"is_disabled":false,"rental_uris":{"android":"levelo://app?vid=95c7d446-d990-41a1-97f6-327a9b4d1682","ios":"levelo://app?vid=95c7d446-d990-41a1-97f6-327a9b4d1682"},"vehicle_type_id":"4","last_reported":1728457774,"current_range_meters":15200,"station_id":"ce4bh512rcd13ifvqe3g","pricing_plan_id":"cebpf4jnsgd1na2vs0mg"},{"bike_id":"7469c44d-e141-45b2-a053-a4209ee695e3","system_id":"levelo_inurba_marseille","lat":43.29552,"lon":5.42279,"is_reserved":false,"is_disabled":false,"rental_uris":{"android":"levelo://app?vid=7469c44d-e141-45b2-a053-a4209ee695e3","ios":"levelo://app?vid=7469c44d-e141-45b2-a053-a4209ee695e3"},"vehicle_type_id":"4","last_reported":1728457774,"current_range_meters":38800,"station_id":"ce4bhph2rcd13ifvqhdg","pricing_plan_id":"cebpf4jnsgd1na2vs0mg"},{"bike_id":"23a6cfd8-1fb2-4409-b170-299ae4773723","system_id":"levelo_inurba_marseille","lat":43.30189,"lon":5.36613,"is_reserved":false,"is_disabled":false,"rental_uris":{"android":"levelo://app?vid=23a6cfd8-1fb2-4409-b170-299ae4773723","ios":"levelo://app?vid=23a6cfd8-1fb2-4409-b170-299ae4773723"},"vehicle_type_id":"4","last_reported":1728457774,"current_range_meters":16000,"station_id":"ce4bgrh2rcd13ifvqc8g","pricing_plan_id":"cebpf4jnsgd1na2vs0mg"},{"bike_id":"838b16dd-9eac-4c3f-b799-083241b130de","system_id":"levelo_inurba_marseille","lat":43.31346,"lon":5.36712,"is_reserved":false,"is_disabled":false,"rental_uris":{"android":"levelo://app?vid=838b16dd-9eac-4c3f-b799-083241b130de","ios":"levelo://app?vid=838b16dd-9eac-4c3f-b799-083241b130de"},"vehicle_type_id":"4","last_reported":1728457774,"current_range_meters":39200,"station_id":"ce4bgr92rcd13ifvqc6g","pricing_plan_id":"cebpf4jnsgd1na2vs0mg"},{"bike_id":"65e49233-81d8-4c16-bcdd-6cf182251522","system_id":"levelo_inurba_marseille","lat":43.29276,"lon":5.36846,"is_reserved":false,"is_disabled":false,"rental_uris":{"android":"levelo://app?vid=65e49233-81d8-4c16-bcdd-6cf182251522","ios":"levelo://app?vid=65e49233-81d8-4c16-bcdd-6cf182251522"},"vehicle_type_id":"4","last_reported":1728457774,"current_range_meters":21600,"station_id":"ce4bhbp2rcd13ifvqesg","pricing_plan_id":"cebpf4jnsgd1na2vs0mg"},{"bike_id":"8b1fbf19-b297-4076-84ee-eae96b76bb0e","system_id":"levelo_inurba_marseille","lat":43.27491,"lon":5.42455,"is_reserved":false,"is_disabled":false,"rental_uris":{"android":"levelo://app?vid=8b1fbf19-b297-4076-84ee-eae96b76bb0e","ios":"levelo://app?vid=8b1fbf19-b297-4076-84ee-eae96b76bb0e"},"vehicle_type_id":"4","last_reported":1728457774,"current_range_meters":30000,"station_id":"ce4bhn92rcd13ifvqgrg","pricing_plan_id":"cebpf4jnsgd1na2vs0mg"},{"bike_id":"bbc2e83e-82b4-4e0f-aecc-ba966f4bd080","system_id":"levelo_inurba_marseille","lat":43.337444,"lon":5.374475,"is_reserved":false,"is_disabled":false,"rental_uris":{"android":"levelo://app?vid=bbc2e83e-82b4-4e0f-aecc-ba966f4bd080","ios":"levelo://app?vid=bbc2e83e-82b4-4e0f-aecc-ba966f4bd080"},"vehicle_type_id":"4","last_reported":1728457774,"current_range_meters":34800,"station_id":"","pricing_plan_id":"cebpf4jnsgd1na2vs0mg"},{"bike_id":"a25cf3f5-8305-429f-b687-0d2dc1eedf78","system_id":"levelo_inurba_marseille","lat":43.30462,"lon":5.37903,"is_reserved":false,"is_disabled":false,"rental_uris":{"android":"levelo://app?vid=a25cf3f5-8305-429f-b687-0d2dc1eedf78","ios":"levelo://app?vid=a25cf3f5-8305-429f-b687-0d2dc1eedf78"},"vehicle_type_id":"4","last_reported":1728457774,"current_range_meters":20000,"station_id":"ce4bgup2rcd13ifvqcn0","pricing_plan_id":"cebpf4jnsgd1na2vs0mg"},{"bike_id":"6bb73c89-014f-4a5d-817b-0696f2e56a9d","system_id":"levelo_inurba_marseille","lat":43.24071,"lon":5.37767,"is_reserved":false,"is_disabled":false,"rental_uris":{"android":"levelo://app?vid=6bb73c89-014f-4a5d-817b-0696f2e56a9d","ios":"levelo://app?vid=6bb73c89-014f-4a5d-817b-0696f2e56a9d"},"vehicle_type_id":"4","last_reported":1728457774,"current_range_meters":14400,"station_id":"ce4bhnp2rcd13ifvqgvg","pricing_plan_id":"cebpf4jnsgd1na2vs0mg"},{"bike_id":"59a20882-e884-470e-b111-32ed424e7cc3","system_id":"levelo_inurba_marseille","lat":43.33724,"lon":5.39191,"is_reserved":false,"is_disabled":false,"rental_uris":{"android":"levelo://app?vid=59a20882-e884-470e-b111-32ed424e7cc3","ios":"levelo://app?vid=59a20882-e884-470e-b111-32ed424e7cc3"},"vehicle_type_id":"4","last_reported":1728457774,"current_range_meters":32800,"station_id":"ce4bhr92rcd13ifvqhsg","pricing_plan_id":"cebpf4jnsgd1na2vs0mg"},{"bike_id":"888e9742-70bd-4059-915a-667a20cfd3e5","system_id":"levelo_inurba_marseille","lat":43.29621,"lon":5.37732,"is_reserved":false,"is_disabled":false,"rental_uris":{"android":"levelo://app?vid=888e9742-70bd-4059-915a-667a20cfd3e5","ios":"levelo://app?vid=888e9742-70bd-4059-915a-667a20cfd3e5"},"vehicle_type_id":"4","last_reported":1728457774,"current_range_meters":30000,"station_id":"ce4bgi92rcd13ifvqb90","pricing_plan_id":"cebpf4jnsgd1na2vs0mg"},{"bike_id":"9ed272e2-1a9d-49cf-8f57-b4c6c6d52ed4","system_id":"levelo_inurba_marseille","lat":43.30553,"lon":5.36544,"is_reserved":false,"is_disabled":false,"rental_uris":{"android":"levelo://app?vid=9ed272e2-1a9d-49cf-8f57-b4c6c6d52ed4","ios":"levelo://app?vid=9ed272e2-1a9d-49cf-8f57-b4c6c6d52ed4"},"vehicle_type_id":"4","last_reported":1728457774,"current_range_meters":26800,"station_id":"ce4bgs12rcd13ifvqcag","pricing_plan_id":"cebpf4jnsgd1na2vs0mg"},{"bike_id":"83240f4b-c21b-40e5-a58a-e25bddcb6143","system_id":"levelo_inurba_marseille","lat":43.297928,"lon":5.381176,"is_reserved":false,"is_disabled":false,"rental_uris":{"android":"levelo://app?vid=83240f4b-c21b-40e5-a58a-e25bddcb6143","ios":"levelo://app?vid=83240f4b-c21b-40e5-a58a-e25bddcb6143"},"vehicle_type_id":"4","last_reported":1728457774,"current_range_meters":25600,"station_id":"","pricing_plan_id":"cebpf4jnsgd1na2vs0mg"},{"bike_id":"c2c697a5-1f78-4f8d-b2a7-f7db1f56eb5d","system_id":"levelo_inurba_marseille","lat":43.33613,"lon":5.41028,"is_reserved":false,"is_disabled":false,"rental_uris":{"android":"levelo://app?vid=c2c697a5-1f78-4f8d-b2a7-f7db1f56eb5d","ios":"levelo://app?vid=c2c697a5-1f78-4f8d-b2a7-f7db1f56eb5d"},"vehicle_type_id":"4","last_reported":1728457774,"current_range_meters":40000,"station_id":"ce4bhqh2rcd13ifvqhmg","pricing_plan_id":"cebpf4jnsgd1na2vs0mg"},{"bike_id":"7d7ab187-9965-49a4-bf26-b6ade39671fc","system_id":"levelo_inurba_marseille","lat":43.23195,"lon":5.3555,"is_reserved":false,"is_disabled":false,"rental_uris":{"android":"levelo://app?vid=7d7ab187-9965-49a4-bf26-b6ade39671fc","ios":"levelo://app?vid=7d7ab187-9965-49a4-bf26-b6ade39671fc"},"vehicle_type_id":"4","last_reported":1728457774,"current_range_meters":26000,"station_id":"ce4bhu92rcd13ifvqi70","pricing_plan_id":"cebpf4jnsgd1na2vs0mg"},{"bike_id":"4c1d49fa-f997-40d9-bdd1-213dadbd24c5","system_id":"levelo_inurba_marseille","lat":43.32663,"lon":5.40997,"is_reserved":false,"is_disabled":false,"rental_uris":{"android":"levelo://app?vid=4c1d49fa-f997-40d9-bdd1-213dadbd24c5","ios":"levelo://app?vid=4c1d49fa-f997-40d9-bdd1-213dadbd24c5"},"vehicle_type_id":"4","last_reported":1728457774,"current_range_meters":33600,"station_id":"ce4bhpp2rcd13ifvqhgg","pricing_plan_id":"cebpf4jnsgd1na2vs0mg"},{"bike_id":"64cbf5ad-210a-4eed-8035-947870e47e4b","system_id":"levelo_inurba_marseille","lat":43.23189,"lon":5.39983,"is_reserved":false,"is_disabled":false,"rental_uris":{"android":"levelo://app?vid=64cbf5ad-210a-4eed-8035-947870e47e4b","ios":"levelo://app?vid=64cbf5ad-210a-4eed-8035-947870e47e4b"},"vehicle_type_id":"4","last_reported":1728457774,"current_range_meters":4400,"station_id":"ce4bhn12rcd13ifvqgqg","pricing_plan_id":"cebpf4jnsgd1na2vs0mg"},{"bike_id":"07d4ae28-5f3a-47f6-a786-85016d3b8f1e","system_id":"levelo_inurba_marseille","lat":43.29702,"lon":5.36615,"is_reserved":false,"is_disabled":false,"rental_uris":{"android":"levelo://app?vid=07d4ae28-5f3a-47f6-a786-85016d3b8f1e","ios":"levelo://app?vid=07d4ae28-5f3a-47f6-a786-85016d3b8f1e"},"vehicle_type_id":"4","last_reported":1728457774,"current_range_meters":30000,"station_id":"ce4bgn12rcd13ifvqbt0","pricing_plan_id":"cebpf4jnsgd1na2vs0mg"},{"bike_id":"35019b92-5087-40a5-9241-2bcb3e2dc08b","system_id":"levelo_inurba_marseille","lat":43.30913,"lon":5.36847,"is_reserved":false,"is_disabled":false,"rental_uris":{"android":"levelo://app?vid=35019b92-5087-40a5-9241-2bcb3e2dc08b","ios":"levelo://app?vid=35019b92-5087-40a5-9241-2bcb3e2dc08b"},"vehicle_type_id":"4","last_reported":1728457774,"current_range_meters":36000,"station_id":"ce4bgn92rcd13ifvqbvg","pricing_plan_id":"cebpf4jnsgd1na2vs0mg"},{"bike_id":"6a738702-bdd4-407e-974d-f3abb1ef19a6","system_id":"levelo_inurba_marseille","lat":43.24082,"lon":5.37759,"is_reserved":false,"is_disabled":false,"rental_uris":{"android":"levelo://app?vid=6a738702-bdd4-407e-974d-f3abb1ef19a6","ios":"levelo://app?vid=6a738702-bdd4-407e-974d-f3abb1ef19a6"},"vehicle_type_id":"4","last_reported":1728457774,"current_range_meters":38000,"station_id":"ce4bhnp2rcd13ifvqgvg","pricing_plan_id":"cebpf4jnsgd1na2vs0mg"},{"bike_id":"3ebb579f-18fb-44f5-b0b3-804bd56371c5","system_id":"levelo_inurba_marseille","lat":43.24078,"lon":5.37753,"is_reserved":false,"is_disabled":false,"rental_uris":{"android":"levelo://app?vid=3ebb579f-18fb-44f5-b0b3-804bd56371c5","ios":"levelo://app?vid=3ebb579f-18fb-44f5-b0b3-804bd56371c5"},"vehicle_type_id":"4","last_reported":1728457774,"current_range_meters":37600,"station_id":"ce4bhnp2rcd13ifvqgvg","pricing_plan_id":"cebpf4jnsgd1na2vs0mg"},{"bike_id":"0c141340-7add-4d6e-b13b-9500891d966c","system_id":"levelo_inurba_marseille","lat":43.24078,"lon":5.37751,"is_reserved":false,"is_disabled":false,"rental_uris":{"android":"levelo://app?vid=0c141340-7add-4d6e-b13b-9500891d966c","ios":"levelo://app?vid=0c141340-7add-4d6e-b13b-9500891d966c"},"vehicle_type_id":"4","last_reported":1728457774,"current_range_meters":22000,"station_id":"ce4bhnp2rcd13ifvqgvg","pricing_plan_id":"cebpf4jnsgd1na2vs0mg"},{"bike_id":"cfeb45ab-cab0-43fd-82c7-0283af45cf07","system_id":"levelo_inurba_marseille","lat":43.27493,"lon":5.42451,"is_reserved":false,"is_disabled":false,"rental_uris":{"android":"levelo://app?vid=cfeb45ab-cab0-43fd-82c7-0283af45cf07","ios":"levelo://app?vid=cfeb45ab-cab0-43fd-82c7-0283af45cf07"},"vehicle_type_id":"4","last_reported":1728457774,"current_range_meters":36000,"station_id":"ce4bhn92rcd13ifvqgrg","pricing_plan_id":"cebpf4jnsgd1na2vs0mg"},{"bike_id":"2c4c3de7-36cc-49ba-89f4-420d8d550649","system_id":"levelo_inurba_marseille","lat":43.25936,"lon":5.40908,"is_reserved":false,"is_disabled":false,"rental_uris":{"android":"levelo://app?vid=2c4c3de7-36cc-49ba-89f4-420d8d550649","ios":"levelo://app?vid=2c4c3de7-36cc-49ba-89f4-420d8d550649"},"vehicle_type_id":"4","last_reported":1728457774,"current_range_meters":26800,"station_id":"ce4bhm92rcd13ifvqglg","pricing_plan_id":"cebpf4jnsgd1na2vs0mg"},{"bike_id":"74e9ce9d-9e9f-4c6b-92fb-2f9a88c1f0f4","system_id":"levelo_inurba_marseille","lat":43.24165,"lon":5.36402,"is_reserved":false,"is_disabled":false,"rental_uris":{"android":"levelo://app?vid=74e9ce9d-9e9f-4c6b-92fb-2f9a88c1f0f4","ios":"levelo://app?vid=74e9ce9d-9e9f-4c6b-92fb-2f9a88c1f0f4"},"vehicle_type_id":"4","last_reported":1728457774,"current_range_meters":38000,"station_id":"cpo36qri1sfpv3e86is0","pricing_plan_id":"cebpf4jnsgd1na2vs0mg"},{"bike_id":"b1807f94-96e7-45ac-9ad3-9d2d1d8cb4da","system_id":"levelo_inurba_marseille","lat":43.29242,"lon":5.36591,"is_reserved":false,"is_disabled":false,"rental_uris":{"android":"levelo://app?vid=b1807f94-96e7-45ac-9ad3-9d2d1d8cb4da","ios":"levelo://app?vid=b1807f94-96e7-45ac-9ad3-9d2d1d8cb4da"},"vehicle_type_id":"4","last_reported":1728457774,"current_range_meters":27200,"station_id":"","pricing_plan_id":"cebpf4jnsgd1na2vs0mg"},{"bike_id":"8f7f4295-f0a5-4e77-8354-c6827c156889","system_id":"levelo_inurba_marseille","lat":43.27501,"lon":5.42462,"is_reserved":false,"is_disabled":false,"rental_uris":{"android":"levelo://app?vid=8f7f4295-f0a5-4e77-8354-c6827c156889","ios":"levelo://app?vid=8f7f4295-f0a5-4e77-8354-c6827c156889"},"vehicle_type_id":"4","last_reported":1728457774,"current_range_meters":11200,"station_id":"ce4bhn92rcd13ifvqgrg","pricing_plan_id":"cebpf4jnsgd1na2vs0mg"},{"bike_id":"7bc48729-6a36-4a88-874a-c23256dab9e1","system_id":"levelo_inurba_marseille","lat":43.27497,"lon":5.42455,"is_reserved":false,"is_disabled":false,"rental_uris":{"android":"levelo://app?vid=7bc48729-6a36-4a88-874a-c23256dab9e1","ios":"levelo://app?vid=7bc48729-6a36-4a88-874a-c23256dab9e1"},"vehicle_type_id":"4","last_reported":1728457774,"current_range_meters":9200,"station_id":"ce4bhn92rcd13ifvqgrg","pricing_plan_id":"cebpf4jnsgd1na2vs0mg"},{"bike_id":"792577a6-685a-43bd-bdfe-2ef41696d1e8","system_id":"levelo_inurba_marseille","lat":43.23188,"lon":5.39998,"is_reserved":false,"is_disabled":false,"rental_uris":{"android":"levelo://app?vid=792577a6-685a-43bd-bdfe-2ef41696d1e8","ios":"levelo://app?vid=792577a6-685a-43bd-bdfe-2ef41696d1e8"},"vehicle_type_id":"4","last_reported":1728457774,"current_range_meters":33600,"station_id":"ce4bhn12rcd13ifvqgqg","pricing_plan_id":"cebpf4jnsgd1na2vs0mg"},{"bike_id":"6fd9c035-02dc-479d-b619-c00186a9116b","system_id":"levelo_inurba_marseille","lat":43.248016,"lon":5.374565,"is_reserved":false,"is_disabled":false,"rental_uris":{"android":"levelo://app?vid=6fd9c035-02dc-479d-b619-c00186a9116b","ios":"levelo://app?vid=6fd9c035-02dc-479d-b619-c00186a9116b"},"vehicle_type_id":"4","last_reported":1728457774,"current_range_meters":38800,"station_id":"ce4bhgh2rcd13ifvqfb0","pricing_plan_id":"cebpf4jnsgd1na2vs0mg"},{"bike_id":"4e6700a4-9eaa-4883-b595-cfa877cac3c2","system_id":"levelo_inurba_marseille","lat":43.22926,"lon":5.35376,"is_reserved":false,"is_disabled":false,"rental_uris":{"android":"levelo://app?vid=4e6700a4-9eaa-4883-b595-cfa877cac3c2","ios":"levelo://app?vid=4e6700a4-9eaa-4883-b595-cfa877cac3c2"},"vehicle_type_id":"4","last_reported":1728457774,"current_range_meters":17200,"station_id":"cpo3532slgdg3j2ikp40","pricing_plan_id":"cebpf4jnsgd1na2vs0mg"},{"bike_id":"15076557-340d-41fc-a13c-2001a5da6496","system_id":"levelo_inurba_marseille","lat":43.262043,"lon":5.379263,"is_reserved":false,"is_disabled":false,"rental_uris":{"android":"levelo://app?vid=15076557-340d-41fc-a13c-2001a5da6496","ios":"levelo://app?vid=15076557-340d-41fc-a13c-2001a5da6496"},"vehicle_type_id":"4","last_reported":1728457774,"current_range_meters":30400,"station_id":"ce4bhjp2rcd13ifvqg90","pricing_plan_id":"cebpf4jnsgd1na2vs0mg"},{"bike_id":"d0797665-6ef2-4471-9f17-aaa74175c83c","system_id":"levelo_inurba_marseille","lat":43.28426,"lon":5.34977,"is_reserved":false,"is_disabled":false,"rental_uris":{"android":"levelo://app?vid=d0797665-6ef2-4471-9f17-aaa74175c83c","ios":"levelo://app?vid=d0797665-6ef2-4471-9f17-aaa74175c83c"},"vehicle_type_id":"4","last_reported":1728457774,"current_range_meters":35200,"station_id":"ce4bhbh2rcd13ifvqepg","pricing_plan_id":"cebpf4jnsgd1na2vs0mg"},{"bike_id":"dbdb0492-22c2-40f4-b96f-c81e587904be","system_id":"levelo_inurba_marseille","lat":43.2318,"lon":5.3999,"is_reserved":false,"is_disabled":false,"rental_uris":{"android":"levelo://app?vid=dbdb0492-22c2-40f4-b96f-c81e587904be","ios":"levelo://app?vid=dbdb0492-22c2-40f4-b96f-c81e587904be"},"vehicle_type_id":"4","last_reported":1728457774,"current_range_meters":34800,"station_id":"ce4bhn12rcd13ifvqgqg","pricing_plan_id":"cebpf4jnsgd1na2vs0mg"},{"bike_id":"8bea543b-214d-40ec-9431-9caab1e0e5b3","system_id":"levelo_inurba_marseille","lat":43.23156,"lon":5.43713,"is_reserved":false,"is_disabled":false,"rental_uris":{"android":"levelo://app?vid=8bea543b-214d-40ec-9431-9caab1e0e5b3","ios":"levelo://app?vid=8bea543b-214d-40ec-9431-9caab1e0e5b3"},"vehicle_type_id":"4","last_reported":1728457774,"current_range_meters":14800,"station_id":"ce4bhmp2rcd13ifvqgog","pricing_plan_id":"cebpf4jnsgd1na2vs0mg"},{"bike_id":"fb883a38-0911-43ca-a3f9-38313e99e1ff","system_id":"levelo_inurba_marseille","lat":43.29307,"lon":5.3719,"is_reserved":false,"is_disabled":false,"rental_uris":{"android":"levelo://app?vid=fb883a38-0911-43ca-a3f9-38313e99e1ff","ios":"levelo://app?vid=fb883a38-0911-43ca-a3f9-38313e99e1ff"},"vehicle_type_id":"4","last_reported":1728457774,"current_range_meters":21600,"station_id":"ce4bgh92rcd13ifvqb40","pricing_plan_id":"cebpf4jnsgd1na2vs0mg"},{"bike_id":"d3d56830-8710-450a-9311-63319fc341ac","system_id":"levelo_inurba_marseille","lat":43.325468,"lon":5.414328,"is_reserved":false,"is_disabled":false,"rental_uris":{"android":"levelo://app?vid=d3d56830-8710-450a-9311-63319fc341ac","ios":"levelo://app?vid=d3d56830-8710-450a-9311-63319fc341ac"},"vehicle_type_id":"4","last_reported":1728457774,"current_range_meters":22800,"station_id":"ce4bhq12rcd13ifvqhhg","pricing_plan_id":"cebpf4jnsgd1na2vs0mg"},{"bike_id":"28870c61-52ad-4627-bd08-d12e58cefbc6","system_id":"levelo_inurba_marseille","lat":43.27497,"lon":5.42456,"is_reserved":false,"is_disabled":false,"rental_uris":{"android":"levelo://app?vid=28870c61-52ad-4627-bd08-d12e58cefbc6","ios":"levelo://app?vid=28870c61-52ad-4627-bd08-d12e58cefbc6"},"vehicle_type_id":"4","last_reported":1728457774,"current_range_meters":30800,"station_id":"ce4bhn92rcd13ifvqgrg","pricing_plan_id":"cebpf4jnsgd1na2vs0mg"},{"bike_id":"136f05a9-e689-499c-b74f-9fbb38791b2b","system_id":"levelo_inurba_marseille","lat":43.337444,"lon":5.374475,"is_reserved":false,"is_disabled":false,"rental_uris":{"android":"levelo://app?vid=136f05a9-e689-499c-b74f-9fbb38791b2b","ios":"levelo://app?vid=136f05a9-e689-499c-b74f-9fbb38791b2b"},"vehicle_type_id":"4","last_reported":1728457774,"current_range_meters":24000,"station_id":"","pricing_plan_id":"cebpf4jnsgd1na2vs0mg"},{"bike_id":"051133e1-617d-4246-9be9-4d946642f690","system_id":"levelo_inurba_marseille","lat":43.336018,"lon":5.410183,"is_reserved":false,"is_disabled":false,"rental_uris":{"android":"levelo://app?vid=051133e1-617d-4246-9be9-4d946642f690","ios":"levelo://app?vid=051133e1-617d-4246-9be9-4d946642f690"},"vehicle_type_id":"4","last_reported":1728457774,"current_range_meters":39200,"station_id":"ce4bhqh2rcd13ifvqhmg","pricing_plan_id":"cebpf4jnsgd1na2vs0mg"},{"bike_id":"0b04b87f-751c-4f17-bc30-8ba6df17289e","system_id":"levelo_inurba_marseille","lat":43.25941,"lon":5.40903,"is_reserved":false,"is_disabled":false,"rental_uris":{"android":"levelo://app?vid=0b04b87f-751c-4f17-bc30-8ba6df17289e","ios":"levelo://app?vid=0b04b87f-751c-4f17-bc30-8ba6df17289e"},"vehicle_type_id":"4","last_reported":1728457774,"current_range_meters":35200,"station_id":"ce4bhm92rcd13ifvqglg","pricing_plan_id":"cebpf4jnsgd1na2vs0mg"},{"bike_id":"6a51477b-ce41-4b3e-aca6-e49f8fa8b9a1","system_id":"levelo_inurba_marseille","lat":43.25736,"lon":5.41112,"is_reserved":false,"is_disabled":false,"rental_uris":{"android":"levelo://app?vid=6a51477b-ce41-4b3e-aca6-e49f8fa8b9a1","ios":"levelo://app?vid=6a51477b-ce41-4b3e-aca6-e49f8fa8b9a1"},"vehicle_type_id":"4","last_reported":1728457774,"current_range_meters":35600,"station_id":"ce4bhkp2rcd13ifvqgd0","pricing_plan_id":"cebpf4jnsgd1na2vs0mg"},{"bike_id":"fc589da1-eff4-4324-9863-b4dd8937964a","system_id":"levelo_inurba_marseille","lat":43.28324,"lon":5.38126,"is_reserved":false,"is_disabled":false,"rental_uris":{"android":"levelo://app?vid=fc589da1-eff4-4324-9863-b4dd8937964a","ios":"levelo://app?vid=fc589da1-eff4-4324-9863-b4dd8937964a"},"vehicle_type_id":"4","last_reported":1728457774,"current_range_meters":12400,"station_id":"ce4bh3h2rcd13ifvqdn0","pricing_plan_id":"cebpf4jnsgd1na2vs0mg"},{"bike_id":"6e862a51-da81-43fc-8418-dea2ce30aad5","system_id":"levelo_inurba_marseille","lat":43.24075,"lon":5.37761,"is_reserved":false,"is_disabled":false,"rental_uris":{"android":"levelo://app?vid=6e862a51-da81-43fc-8418-dea2ce30aad5","ios":"levelo://app?vid=6e862a51-da81-43fc-8418-dea2ce30aad5"},"vehicle_type_id":"4","last_reported":1728457774,"current_range_meters":28400,"station_id":"ce4bhnp2rcd13ifvqgvg","pricing_plan_id":"cebpf4jnsgd1na2vs0mg"},{"bike_id":"7999b32e-2391-4b61-8a56-b7d618166799","system_id":"levelo_inurba_marseille","lat":43.28366,"lon":5.38634,"is_reserved":false,"is_disabled":false,"rental_uris":{"android":"levelo://app?vid=7999b32e-2391-4b61-8a56-b7d618166799","ios":"levelo://app?vid=7999b32e-2391-4b61-8a56-b7d618166799"},"vehicle_type_id":"4","last_reported":1728457774,"current_range_meters":9200,"station_id":"ce4bh492rcd13ifvqdvg","pricing_plan_id":"cebpf4jnsgd1na2vs0mg"},{"bike_id":"8513be67-a978-4cfc-9563-19285ed6fe5a","system_id":"levelo_inurba_marseille","lat":43.23191,"lon":5.35541,"is_reserved":false,"is_disabled":false,"rental_uris":{"android":"levelo://app?vid=8513be67-a978-4cfc-9563-19285ed6fe5a","ios":"levelo://app?vid=8513be67-a978-4cfc-9563-19285ed6fe5a"},"vehicle_type_id":"4","last_reported":1728457774,"current_range_meters":13600,"station_id":"ce4bhu92rcd13ifvqi70","pricing_plan_id":"cebpf4jnsgd1na2vs0mg"},{"bike_id":"ef19fa2a-a21a-4a6f-8756-3571dd034b64","system_id":"levelo_inurba_marseille","lat":43.25087,"lon":5.39504,"is_reserved":false,"is_disabled":false,"rental_uris":{"android":"levelo://app?vid=ef19fa2a-a21a-4a6f-8756-3571dd034b64","ios":"levelo://app?vid=ef19fa2a-a21a-4a6f-8756-3571dd034b64"},"vehicle_type_id":"4","last_reported":1728457774,"current_range_meters":8800,"station_id":"ce4bhm12rcd13ifvqgkg","pricing_plan_id":"cebpf4jnsgd1na2vs0mg"},{"bike_id":"1dfe06b2-bd44-4314-b2c5-ca9a8a922d19","system_id":"levelo_inurba_marseille","lat":43.24088,"lon":5.37759,"is_reserved":false,"is_disabled":false,"rental_uris":{"android":"levelo://app?vid=1dfe06b2-bd44-4314-b2c5-ca9a8a922d19","ios":"levelo://app?vid=1dfe06b2-bd44-4314-b2c5-ca9a8a922d19"},"vehicle_type_id":"4","last_reported":1728457774,"current_range_meters":30800,"station_id":"ce4bhnp2rcd13ifvqgvg","pricing_plan_id":"cebpf4jnsgd1na2vs0mg"},{"bike_id":"922252e8-02c2-4987-8eed-1d6d69073568","system_id":"levelo_inurba_marseille","lat":43.26686,"lon":5.38278,"is_reserved":false,"is_disabled":false,"rental_uris":{"android":"levelo://app?vid=922252e8-02c2-4987-8eed-1d6d69073568","ios":"levelo://app?vid=922252e8-02c2-4987-8eed-1d6d69073568"},"vehicle_type_id":"4","last_reported":1728457774,"current_range_meters":33200,"station_id":"ce4bhg92rcd13ifvqf90","pricing_plan_id":"cebpf4jnsgd1na2vs0mg"},{"bike_id":"edb53ae2-fce9-4c98-be65-8c2fedcecefa","system_id":"levelo_inurba_marseille","lat":43.28854,"lon":5.37035,"is_reserved":false,"is_disabled":false,"rental_uris":{"android":"levelo://app?vid=edb53ae2-fce9-4c98-be65-8c2fedcecefa","ios":"levelo://app?vid=edb53ae2-fce9-4c98-be65-8c2fedcecefa"},"vehicle_type_id":"4","last_reported":1728457774,"current_range_meters":27200,"station_id":"","pricing_plan_id":"cebpf4jnsgd1na2vs0mg"},{"bike_id":"6bd31e4e-2fd0-4c44-9080-9e340617a86a","system_id":"levelo_inurba_marseille","lat":43.28272,"lon":5.35071,"is_reserved":false,"is_disabled":false,"rental_uris":{"android":"levelo://app?vid=6bd31e4e-2fd0-4c44-9080-9e340617a86a","ios":"levelo://app?vid=6bd31e4e-2fd0-4c44-9080-9e340617a86a"},"vehicle_type_id":"4","last_reported":1728457774,"current_range_meters":36800,"station_id":"ce4bhbp2rcd13ifvqerg","pricing_plan_id":"cebpf4jnsgd1na2vs0mg"},{"bike_id":"e593636e-ad45-4d0a-9683-88f8a63ecc00","system_id":"levelo_inurba_marseille","lat":43.29032,"lon":5.37574,"is_reserved":false,"is_disabled":false,"rental_uris":{"android":"levelo://app?vid=e593636e-ad45-4d0a-9683-88f8a63ecc00","ios":"levelo://app?vid=e593636e-ad45-4d0a-9683-88f8a63ecc00"},"vehicle_type_id":"4","last_reported":1728457774,"current_range_meters":25600,"station_id":"ce4bh692rcd13ifvqe90","pricing_plan_id":"cebpf4jnsgd1na2vs0mg"},{"bike_id":"a6b3d3c3-66cf-4ef9-93fa-38e21f9a6c77","system_id":"levelo_inurba_marseille","lat":43.26686,"lon":5.38275,"is_reserved":false,"is_disabled":false,"rental_uris":{"android":"levelo://app?vid=a6b3d3c3-66cf-4ef9-93fa-38e21f9a6c77","ios":"levelo://app?vid=a6b3d3c3-66cf-4ef9-93fa-38e21f9a6c77"},"vehicle_type_id":"4","last_reported":1728457774,"current_range_meters":30800,"station_id":"ce4bhg92rcd13ifvqf90","pricing_plan_id":"cebpf4jnsgd1na2vs0mg"},{"bike_id":"5751a18a-badd-48fe-a7f0-be3f931f5f20","system_id":"levelo_inurba_marseille","lat":43.29077,"lon":5.3718,"is_reserved":false,"is_disabled":false,"rental_uris":{"android":"levelo://app?vid=5751a18a-badd-48fe-a7f0-be3f931f5f20","ios":"levelo://app?vid=5751a18a-badd-48fe-a7f0-be3f931f5f20"},"vehicle_type_id":"4","last_reported":1728457774,"current_range_meters":20000,"station_id":"ce4bh5p2rcd13ifvqe4g","pricing_plan_id":"cebpf4jnsgd1na2vs0mg"},{"bike_id":"604d15ec-8a74-4600-9234-5e2d48eeff51","system_id":"levelo_inurba_marseille","lat":43.33606,"lon":5.41031,"is_reserved":false,"is_disabled":false,"rental_uris":{"android":"levelo://app?vid=604d15ec-8a74-4600-9234-5e2d48eeff51","ios":"levelo://app?vid=604d15ec-8a74-4600-9234-5e2d48eeff51"},"vehicle_type_id":"4","last_reported":1728457774,"current_range_meters":20400,"station_id":"ce4bhqh2rcd13ifvqhmg","pricing_plan_id":"cebpf4jnsgd1na2vs0mg"},{"bike_id":"30ad42a8-138d-4c38-89e8-3b033da2c43b","system_id":"levelo_inurba_marseille","lat":43.23961,"lon":5.366347,"is_reserved":false,"is_disabled":false,"rental_uris":{"android":"levelo://app?vid=30ad42a8-138d-4c38-89e8-3b033da2c43b","ios":"levelo://app?vid=30ad42a8-138d-4c38-89e8-3b033da2c43b"},"vehicle_type_id":"4","last_reported":1728457774,"current_range_meters":38800,"station_id":"ce4bhi12rcd13ifvqfp0","pricing_plan_id":"cebpf4jnsgd1na2vs0mg"},{"bike_id":"2c326297-c07d-45b1-b66c-b2717a12f1b8","system_id":"levelo_inurba_marseille","lat":43.24076,"lon":5.37755,"is_reserved":false,"is_disabled":false,"rental_uris":{"android":"levelo://app?vid=2c326297-c07d-45b1-b66c-b2717a12f1b8","ios":"levelo://app?vid=2c326297-c07d-45b1-b66c-b2717a12f1b8"},"vehicle_type_id":"4","last_reported":1728457774,"current_range_meters":27200,"station_id":"ce4bhnp2rcd13ifvqgvg","pricing_plan_id":"cebpf4jnsgd1na2vs0mg"},{"bike_id":"d1d729c1-7adb-492b-9c95-9015a1ed2807","system_id":"levelo_inurba_marseille","lat":43.23152,"lon":5.43716,"is_reserved":false,"is_disabled":false,"rental_uris":{"android":"levelo://app?vid=d1d729c1-7adb-492b-9c95-9015a1ed2807","ios":"levelo://app?vid=d1d729c1-7adb-492b-9c95-9015a1ed2807"},"vehicle_type_id":"4","last_reported":1728457774,"current_range_meters":12800,"station_id":"ce4bhmp2rcd13ifvqgog","pricing_plan_id":"cebpf4jnsgd1na2vs0mg"},{"bike_id":"96d80047-32d2-45f4-bd41-195cf5cb8e0c","system_id":"levelo_inurba_marseille","lat":43.23053,"lon":5.35493,"is_reserved":false,"is_disabled":false,"rental_uris":{"android":"levelo://app?vid=96d80047-32d2-45f4-bd41-195cf5cb8e0c","ios":"levelo://app?vid=96d80047-32d2-45f4-bd41-195cf5cb8e0c"},"vehicle_type_id":"4","last_reported":1728457774,"current_range_meters":38000,"station_id":"cpo3342slgdg3j2ifvpg","pricing_plan_id":"cebpf4jnsgd1na2vs0mg"},{"bike_id":"3cd26948-cfee-40e6-923f-de4204258eb9","system_id":"levelo_inurba_marseille","lat":43.2848,"lon":5.38417,"is_reserved":false,"is_disabled":false,"rental_uris":{"android":"levelo://app?vid=3cd26948-cfee-40e6-923f-de4204258eb9","ios":"levelo://app?vid=3cd26948-cfee-40e6-923f-de4204258eb9"},"vehicle_type_id":"4","last_reported":1728457774,"current_range_meters":20000,"station_id":"ce4bh512rcd13ifvqe3g","pricing_plan_id":"cebpf4jnsgd1na2vs0mg"},{"bike_id":"0f70adbe-ee9d-46bd-9883-74567fc4748c","system_id":"levelo_inurba_marseille","lat":43.31228,"lon":5.36844,"is_reserved":false,"is_disabled":false,"rental_uris":{"android":"levelo://app?vid=0f70adbe-ee9d-46bd-9883-74567fc4748c","ios":"levelo://app?vid=0f70adbe-ee9d-46bd-9883-74567fc4748c"},"vehicle_type_id":"4","last_reported":1728457774,"current_range_meters":39200,"station_id":"ce4bgl92rcd13ifvqbq0","pricing_plan_id":"cebpf4jnsgd1na2vs0mg"},{"bike_id":"dc8dcd8d-add7-493a-ae60-383fc7495dd6","system_id":"levelo_inurba_marseille","lat":43.28939,"lon":5.36395,"is_reserved":false,"is_disabled":false,"rental_uris":{"android":"levelo://app?vid=dc8dcd8d-add7-493a-ae60-383fc7495dd6","ios":"levelo://app?vid=dc8dcd8d-add7-493a-ae60-383fc7495dd6"},"vehicle_type_id":"4","last_reported":1728457774,"current_range_meters":28000,"station_id":"ce4bhc92rcd13ifvqetg","pricing_plan_id":"cebpf4jnsgd1na2vs0mg"},{"bike_id":"4527bfc5-c904-4845-895d-1c7c8e77151f","system_id":"levelo_inurba_marseille","lat":43.31996,"lon":5.38147,"is_reserved":false,"is_disabled":false,"rental_uris":{"android":"levelo://app?vid=4527bfc5-c904-4845-895d-1c7c8e77151f","ios":"levelo://app?vid=4527bfc5-c904-4845-895d-1c7c8e77151f"},"vehicle_type_id":"4","last_reported":1728457774,"current_range_meters":36400,"station_id":"ce4bhr12rcd13ifvqhpg","pricing_plan_id":"cebpf4jnsgd1na2vs0mg"},{"bike_id":"a44748dc-f8f5-4318-8bce-df7a0f090cd4","system_id":"levelo_inurba_marseille","lat":43.29554,"lon":5.42279,"is_reserved":false,"is_disabled":false,"rental_uris":{"android":"levelo://app?vid=a44748dc-f8f5-4318-8bce-df7a0f090cd4","ios":"levelo://app?vid=a44748dc-f8f5-4318-8bce-df7a0f090cd4"},"vehicle_type_id":"4","last_reported":1728457774,"current_range_meters":38800,"station_id":"ce4bhph2rcd13ifvqhdg","pricing_plan_id":"cebpf4jnsgd1na2vs0mg"},{"bike_id":"45051c07-a864-41b8-be9f-d6bc8c6d0047","system_id":"levelo_inurba_marseille","lat":43.23151,"lon":5.4372,"is_reserved":false,"is_disabled":false,"rental_uris":{"android":"levelo://app?vid=45051c07-a864-41b8-be9f-d6bc8c6d0047","ios":"levelo://app?vid=45051c07-a864-41b8-be9f-d6bc8c6d0047"},"vehicle_type_id":"4","last_reported":1728457774,"current_range_meters":31200,"station_id":"ce4bhmp2rcd13ifvqgog","pricing_plan_id":"cebpf4jnsgd1na2vs0mg"},{"bike_id":"ca00638f-9a96-47ef-ba28-de40e3632951","system_id":"levelo_inurba_marseille","lat":43.28703,"lon":5.37391,"is_reserved":false,"is_disabled":false,"rental_uris":{"android":"levelo://app?vid=ca00638f-9a96-47ef-ba28-de40e3632951","ios":"levelo://app?vid=ca00638f-9a96-47ef-ba28-de40e3632951"},"vehicle_type_id":"4","last_reported":1728457774,"current_range_meters":36800,"station_id":"ce4bh3p2rcd13ifvqdq0","pricing_plan_id":"cebpf4jnsgd1na2vs0mg"},{"bike_id":"9fe78430-11e7-47f8-baac-bd725566a90b","system_id":"levelo_inurba_marseille","lat":43.23193,"lon":5.35547,"is_reserved":false,"is_disabled":false,"rental_uris":{"android":"levelo://app?vid=9fe78430-11e7-47f8-baac-bd725566a90b","ios":"levelo://app?vid=9fe78430-11e7-47f8-baac-bd725566a90b"},"vehicle_type_id":"4","last_reported":1728457774,"current_range_meters":4400,"station_id":"ce4bhu92rcd13ifvqi70","pricing_plan_id":"cebpf4jnsgd1na2vs0mg"},{"bike_id":"3c47709e-cce9-4829-a61a-1beb95b597d3","system_id":"levelo_inurba_marseille","lat":43.275,"lon":5.42453,"is_reserved":false,"is_disabled":false,"rental_uris":{"android":"levelo://app?vid=3c47709e-cce9-4829-a61a-1beb95b597d3","ios":"levelo://app?vid=3c47709e-cce9-4829-a61a-1beb95b597d3"},"vehicle_type_id":"4","last_reported":1728457774,"current_range_meters":36400,"station_id":"ce4bhn92rcd13ifvqgrg","pricing_plan_id":"cebpf4jnsgd1na2vs0mg"},{"bike_id":"158c735d-765f-459c-89f5-d54d747df691","system_id":"levelo_inurba_marseille","lat":43.25928,"lon":5.4091,"is_reserved":false,"is_disabled":false,"rental_uris":{"android":"levelo://app?vid=158c735d-765f-459c-89f5-d54d747df691","ios":"levelo://app?vid=158c735d-765f-459c-89f5-d54d747df691"},"vehicle_type_id":"4","last_reported":1728457774,"current_range_meters":38400,"station_id":"ce4bhm92rcd13ifvqglg","pricing_plan_id":"cebpf4jnsgd1na2vs0mg"},{"bike_id":"da4a30f9-9ac5-49b6-a719-4d62f8e54519","system_id":"levelo_inurba_marseille","lat":43.30148,"lon":5.38076,"is_reserved":false,"is_disabled":false,"rental_uris":{"android":"levelo://app?vid=da4a30f9-9ac5-49b6-a719-4d62f8e54519","ios":"levelo://app?vid=da4a30f9-9ac5-49b6-a719-4d62f8e54519"},"vehicle_type_id":"4","last_reported":1728457774,"current_range_meters":21600,"station_id":"ce4bgjp2rcd13ifvqbh0","pricing_plan_id":"cebpf4jnsgd1na2vs0mg"},{"bike_id":"32a47555-5b90-4e71-acec-5d7469e9cc0c","system_id":"levelo_inurba_marseille","lat":43.32484,"lon":5.3657,"is_reserved":false,"is_disabled":false,"rental_uris":{"android":"levelo://app?vid=32a47555-5b90-4e71-acec-5d7469e9cc0c","ios":"levelo://app?vid=32a47555-5b90-4e71-acec-5d7469e9cc0c"},"vehicle_type_id":"4","last_reported":1728457774,"current_range_meters":38800,"station_id":"ce4bhs12rcd13ifvqhvg","pricing_plan_id":"cebpf4jnsgd1na2vs0mg"},{"bike_id":"6b85a3ee-4da3-449d-ad78-2a214e188956","system_id":"levelo_inurba_marseille","lat":43.30152,"lon":5.3808,"is_reserved":false,"is_disabled":false,"rental_uris":{"android":"levelo://app?vid=6b85a3ee-4da3-449d-ad78-2a214e188956","ios":"levelo://app?vid=6b85a3ee-4da3-449d-ad78-2a214e188956"},"vehicle_type_id":"4","last_reported":1728457774,"current_range_meters":18000,"station_id":"ce4bgjp2rcd13ifvqbh0","pricing_plan_id":"cebpf4jnsgd1na2vs0mg"},{"bike_id":"d4e64f39-8e77-4895-8c2d-10934c35d4ef","system_id":"levelo_inurba_marseille","lat":43.31231,"lon":5.36885,"is_reserved":false,"is_disabled":false,"rental_uris":{"android":"levelo://app?vid=d4e64f39-8e77-4895-8c2d-10934c35d4ef","ios":"levelo://app?vid=d4e64f39-8e77-4895-8c2d-10934c35d4ef"},"vehicle_type_id":"4","last_reported":1728457774,"current_range_meters":28400,"station_id":"ce4bgl92rcd13ifvqbq0","pricing_plan_id":"cebpf4jnsgd1na2vs0mg"},{"bike_id":"f25b8718-c10b-42ae-a533-7fc02d90aa7d","system_id":"levelo_inurba_marseille","lat":43.31364,"lon":5.36726,"is_reserved":false,"is_disabled":false,"rental_uris":{"android":"levelo://app?vid=f25b8718-c10b-42ae-a533-7fc02d90aa7d","ios":"levelo://app?vid=f25b8718-c10b-42ae-a533-7fc02d90aa7d"},"vehicle_type_id":"4","last_reported":1728457774,"current_range_meters":35200,"station_id":"ce4bgr92rcd13ifvqc6g","pricing_plan_id":"cebpf4jnsgd1na2vs0mg"},{"bike_id":"f5bd0055-90f6-4036-b18d-9cb67f28454a","system_id":"levelo_inurba_marseille","lat":43.33608,"lon":5.4104,"is_reserved":false,"is_disabled":false,"rental_uris":{"android":"levelo://app?vid=f5bd0055-90f6-4036-b18d-9cb67f28454a","ios":"levelo://app?vid=f5bd0055-90f6-4036-b18d-9cb67f28454a"},"vehicle_type_id":"4","last_reported":1728457774,"current_range_meters":14000,"station_id":"ce4bhqh2rcd13ifvqhmg","pricing_plan_id":"cebpf4jnsgd1na2vs0mg"},{"bike_id":"88267538-d6a0-4053-8085-f063fb54cc2b","system_id":"levelo_inurba_marseille","lat":43.27494,"lon":5.42458,"is_reserved":false,"is_disabled":false,"rental_uris":{"android":"levelo://app?vid=88267538-d6a0-4053-8085-f063fb54cc2b","ios":"levelo://app?vid=88267538-d6a0-4053-8085-f063fb54cc2b"},"vehicle_type_id":"4","last_reported":1728457774,"current_range_meters":28800,"station_id":"ce4bhn92rcd13ifvqgrg","pricing_plan_id":"cebpf4jnsgd1na2vs0mg"},{"bike_id":"6e5161d6-2dde-4497-83c8-deff5505443d","system_id":"levelo_inurba_marseille","lat":43.31886,"lon":5.40738,"is_reserved":false,"is_disabled":false,"rental_uris":{"android":"levelo://app?vid=6e5161d6-2dde-4497-83c8-deff5505443d","ios":"levelo://app?vid=6e5161d6-2dde-4497-83c8-deff5505443d"},"vehicle_type_id":"4","last_reported":1728457774,"current_range_meters":29600,"station_id":"ce4bhq12rcd13ifvqhig","pricing_plan_id":"cebpf4jnsgd1na2vs0mg"},{"bike_id":"a9f672c6-cbf2-45d8-b72c-b96068e14f37","system_id":"levelo_inurba_marseille","lat":43.28979,"lon":5.37846,"is_reserved":false,"is_disabled":false,"rental_uris":{"android":"levelo://app?vid=a9f672c6-cbf2-45d8-b72c-b96068e14f37","ios":"levelo://app?vid=a9f672c6-cbf2-45d8-b72c-b96068e14f37"},"vehicle_type_id":"4","last_reported":1728457774,"current_range_meters":33200,"station_id":"ce4bh9p2rcd13ifvqed0","pricing_plan_id":"cebpf4jnsgd1na2vs0mg"},{"bike_id":"baba3ddf-e747-4095-9a9c-078163c7026f","system_id":"levelo_inurba_marseille","lat":43.25936,"lon":5.40912,"is_reserved":false,"is_disabled":false,"rental_uris":{"android":"levelo://app?vid=baba3ddf-e747-4095-9a9c-078163c7026f","ios":"levelo://app?vid=baba3ddf-e747-4095-9a9c-078163c7026f"},"vehicle_type_id":"4","last_reported":1728457774,"current_range_meters":8000,"station_id":"ce4bhm92rcd13ifvqglg","pricing_plan_id":"cebpf4jnsgd1na2vs0mg"},{"bike_id":"6217f0d4-29aa-4911-a3f9-c02e45328700","system_id":"levelo_inurba_marseille","lat":43.23194,"lon":5.35547,"is_reserved":false,"is_disabled":false,"rental_uris":{"android":"levelo://app?vid=6217f0d4-29aa-4911-a3f9-c02e45328700","ios":"levelo://app?vid=6217f0d4-29aa-4911-a3f9-c02e45328700"},"vehicle_type_id":"4","last_reported":1728457774,"current_range_meters":34000,"station_id":"ce4bhu92rcd13ifvqi70","pricing_plan_id":"cebpf4jnsgd1na2vs0mg"},{"bike_id":"141df06e-113e-44c6-8129-a25fe376a60a","system_id":"levelo_inurba_marseille","lat":43.29551,"lon":5.42285,"is_reserved":false,"is_disabled":false,"rental_uris":{"android":"levelo://app?vid=141df06e-113e-44c6-8129-a25fe376a60a","ios":"levelo://app?vid=141df06e-113e-44c6-8129-a25fe376a60a"},"vehicle_type_id":"4","last_reported":1728457774,"current_range_meters":38800,"station_id":"ce4bhph2rcd13ifvqhdg","pricing_plan_id":"cebpf4jnsgd1na2vs0mg"},{"bike_id":"c8ebc7d1-6943-4044-ad6c-3252fb6dd74b","system_id":"levelo_inurba_marseille","lat":43.26209,"lon":5.37446,"is_reserved":false,"is_disabled":false,"rental_uris":{"android":"levelo://app?vid=c8ebc7d1-6943-4044-ad6c-3252fb6dd74b","ios":"levelo://app?vid=c8ebc7d1-6943-4044-ad6c-3252fb6dd74b"},"vehicle_type_id":"4","last_reported":1728457774,"current_range_meters":28800,"station_id":"ce4bhgp2rcd13ifvqfc0","pricing_plan_id":"cebpf4jnsgd1na2vs0mg"},{"bike_id":"db1bc551-c9e7-45ea-a089-87368fc7380e","system_id":"levelo_inurba_marseille","lat":43.26803,"lon":5.40265,"is_reserved":false,"is_disabled":false,"rental_uris":{"android":"levelo://app?vid=db1bc551-c9e7-45ea-a089-87368fc7380e","ios":"levelo://app?vid=db1bc551-c9e7-45ea-a089-87368fc7380e"},"vehicle_type_id":"4","last_reported":1728457774,"current_range_meters":38000,"station_id":"ce501612rcd8frsf0b60","pricing_plan_id":"cebpf4jnsgd1na2vs0mg"},{"bike_id":"cfad518c-57df-4fc9-9129-741e164b716d","system_id":"levelo_inurba_marseille","lat":43.28461,"lon":5.35899,"is_reserved":false,"is_disabled":false,"rental_uris":{"android":"levelo://app?vid=cfad518c-57df-4fc9-9129-741e164b716d","ios":"levelo://app?vid=cfad518c-57df-4fc9-9129-741e164b716d"},"vehicle_type_id":"4","last_reported":1728457774,"current_range_meters":32000,"station_id":"ce4bhah2rcd13ifvqei0","pricing_plan_id":"cebpf4jnsgd1na2vs0mg"},{"bike_id":"2b6677d5-7b62-4a07-b6c3-7bf77f5bcd5c","system_id":"levelo_inurba_marseille","lat":43.28446,"lon":5.39185,"is_reserved":false,"is_disabled":false,"rental_uris":{"android":"levelo://app?vid=2b6677d5-7b62-4a07-b6c3-7bf77f5bcd5c","ios":"levelo://app?vid=2b6677d5-7b62-4a07-b6c3-7bf77f5bcd5c"},"vehicle_type_id":"4","last_reported":1728457774,"current_range_meters":38000,"station_id":"ce4bhoh2rcd13ifvqh5g","pricing_plan_id":"cebpf4jnsgd1na2vs0mg"},{"bike_id":"4ad23062-b0c7-44e8-85a1-2d74b0f31250","system_id":"levelo_inurba_marseille","lat":43.27423,"lon":5.39419,"is_reserved":false,"is_disabled":false,"rental_uris":{"android":"levelo://app?vid=4ad23062-b0c7-44e8-85a1-2d74b0f31250","ios":"levelo://app?vid=4ad23062-b0c7-44e8-85a1-2d74b0f31250"},"vehicle_type_id":"4","last_reported":1728457774,"current_range_meters":26800,"station_id":"ce4bhdp2rcd13ifvqf20","pricing_plan_id":"cebpf4jnsgd1na2vs0mg"},{"bike_id":"469ef624-038b-473f-a4ff-641c81f6d3cf","system_id":"levelo_inurba_marseille","lat":43.28361,"lon":5.38633,"is_reserved":false,"is_disabled":false,"rental_uris":{"android":"levelo://app?vid=469ef624-038b-473f-a4ff-641c81f6d3cf","ios":"levelo://app?vid=469ef624-038b-473f-a4ff-641c81f6d3cf"},"vehicle_type_id":"4","last_reported":1728457774,"current_range_meters":30000,"station_id":"ce4bh492rcd13ifvqdvg","pricing_plan_id":"cebpf4jnsgd1na2vs0mg"},{"bike_id":"0ac4c99e-25ae-49bd-9233-643b1e4bb98b","system_id":"levelo_inurba_marseille","lat":43.25585,"lon":5.38245,"is_reserved":false,"is_disabled":false,"rental_uris":{"android":"levelo://app?vid=0ac4c99e-25ae-49bd-9233-643b1e4bb98b","ios":"levelo://app?vid=0ac4c99e-25ae-49bd-9233-643b1e4bb98b"},"vehicle_type_id":"4","last_reported":1728457774,"current_range_meters":38800,"station_id":"ce4bhih2rcd13ifvqfs0","pricing_plan_id":"cebpf4jnsgd1na2vs0mg"},{"bike_id":"89dec385-737e-4a0c-b008-c03f16a84911","system_id":"levelo_inurba_marseille","lat":43.29558,"lon":5.42289,"is_reserved":false,"is_disabled":false,"rental_uris":{"android":"levelo://app?vid=89dec385-737e-4a0c-b008-c03f16a84911","ios":"levelo://app?vid=89dec385-737e-4a0c-b008-c03f16a84911"},"vehicle_type_id":"4","last_reported":1728457774,"current_range_meters":28400,"station_id":"ce4bhph2rcd13ifvqhdg","pricing_plan_id":"cebpf4jnsgd1na2vs0mg"},{"bike_id":"16c99d8a-9fec-4054-b8c3-437334a27e05","system_id":"levelo_inurba_marseille","lat":43.29547,"lon":5.42282,"is_reserved":false,"is_disabled":false,"rental_uris":{"android":"levelo://app?vid=16c99d8a-9fec-4054-b8c3-437334a27e05","ios":"levelo://app?vid=16c99d8a-9fec-4054-b8c3-437334a27e05"},"vehicle_type_id":"4","last_reported":1728457774,"current_range_meters":30800,"station_id":"ce4bhph2rcd13ifvqhdg","pricing_plan_id":"cebpf4jnsgd1na2vs0mg"},{"bike_id":"86b9a5db-845f-43fa-bc8f-e51079f4b3f1","system_id":"levelo_inurba_marseille","lat":43.276725,"lon":5.388952,"is_reserved":false,"is_disabled":false,"rental_uris":{"android":"levelo://app?vid=86b9a5db-845f-43fa-bc8f-e51079f4b3f1","ios":"levelo://app?vid=86b9a5db-845f-43fa-bc8f-e51079f4b3f1"},"vehicle_type_id":"4","last_reported":1728457774,"current_range_meters":36800,"station_id":"ce4bhi12rcd13ifvqfo0","pricing_plan_id":"cebpf4jnsgd1na2vs0mg"},{"bike_id":"2250666e-2423-4ec9-a242-d1f6b184ebc2","system_id":"levelo_inurba_marseille","lat":43.302171,"lon":5.374817,"is_reserved":false,"is_disabled":false,"rental_uris":{"android":"levelo://app?vid=2250666e-2423-4ec9-a242-d1f6b184ebc2","ios":"levelo://app?vid=2250666e-2423-4ec9-a242-d1f6b184ebc2"},"vehicle_type_id":"4","last_reported":1728457774,"current_range_meters":25200,"station_id":"ce4bgs92rcd13ifvqcc0","pricing_plan_id":"cebpf4jnsgd1na2vs0mg"},{"bike_id":"abcdcf90-45be-42ed-a0ef-8312cf07294c","system_id":"levelo_inurba_marseille","lat":43.30148,"lon":5.37421,"is_reserved":false,"is_disabled":false,"rental_uris":{"android":"levelo://app?vid=abcdcf90-45be-42ed-a0ef-8312cf07294c","ios":"levelo://app?vid=abcdcf90-45be-42ed-a0ef-8312cf07294c"},"vehicle_type_id":"4","last_reported":1728457774,"current_range_meters":23200,"station_id":"ce4bgs92rcd13ifvqcc0","pricing_plan_id":"cebpf4jnsgd1na2vs0mg"},{"bike_id":"40ce2d9d-e920-4ff5-a7be-f7e9fddaed2e","system_id":"levelo_inurba_marseille","lat":43.30533,"lon":5.36708,"is_reserved":false,"is_disabled":false,"rental_uris":{"android":"levelo://app?vid=40ce2d9d-e920-4ff5-a7be-f7e9fddaed2e","ios":"levelo://app?vid=40ce2d9d-e920-4ff5-a7be-f7e9fddaed2e"},"vehicle_type_id":"4","last_reported":1728457774,"current_range_meters":35200,"station_id":"ce4bgrp2rcd13ifvqc9g","pricing_plan_id":"cebpf4jnsgd1na2vs0mg"},{"bike_id":"c6f4c165-f2b0-469b-b31f-409fa51a5b90","system_id":"levelo_inurba_marseille","lat":43.23196,"lon":5.35556,"is_reserved":false,"is_disabled":false,"rental_uris":{"android":"levelo://app?vid=c6f4c165-f2b0-469b-b31f-409fa51a5b90","ios":"levelo://app?vid=c6f4c165-f2b0-469b-b31f-409fa51a5b90"},"vehicle_type_id":"4","last_reported":1728457774,"current_range_meters":18000,"station_id":"ce4bhu92rcd13ifvqi70","pricing_plan_id":"cebpf4jnsgd1na2vs0mg"},{"bike_id":"f39ed713-b65b-4fe0-9f3f-6e9d0b658b09","system_id":"levelo_inurba_marseille","lat":43.32541,"lon":5.41436,"is_reserved":false,"is_disabled":false,"rental_uris":{"android":"levelo://app?vid=f39ed713-b65b-4fe0-9f3f-6e9d0b658b09","ios":"levelo://app?vid=f39ed713-b65b-4fe0-9f3f-6e9d0b658b09"},"vehicle_type_id":"4","last_reported":1728457774,"current_range_meters":29600,"station_id":"ce4bhq12rcd13ifvqhhg","pricing_plan_id":"cebpf4jnsgd1na2vs0mg"},{"bike_id":"144d11b5-61d2-497e-a663-d169e960147f","system_id":"levelo_inurba_marseille","lat":43.301378,"lon":5.380786,"is_reserved":false,"is_disabled":false,"rental_uris":{"android":"levelo://app?vid=144d11b5-61d2-497e-a663-d169e960147f","ios":"levelo://app?vid=144d11b5-61d2-497e-a663-d169e960147f"},"vehicle_type_id":"4","last_reported":1728457774,"current_range_meters":32400,"station_id":"ce4bhqh2rcd13ifvqhmg","pricing_plan_id":"cebpf4jnsgd1na2vs0mg"},{"bike_id":"0af98fa8-5bd1-491d-968a-5703ea7ae812","system_id":"levelo_inurba_marseille","lat":43.24068,"lon":5.37765,"is_reserved":false,"is_disabled":false,"rental_uris":{"android":"levelo://app?vid=0af98fa8-5bd1-491d-968a-5703ea7ae812","ios":"levelo://app?vid=0af98fa8-5bd1-491d-968a-5703ea7ae812"},"vehicle_type_id":"4","last_reported":1728457774,"current_range_meters":6400,"station_id":"ce4bhnp2rcd13ifvqgvg","pricing_plan_id":"cebpf4jnsgd1na2vs0mg"},{"bike_id":"8a67907a-4e1b-4251-b4a4-c980df6fc77b","system_id":"levelo_inurba_marseille","lat":43.30274,"lon":5.37696,"is_reserved":false,"is_disabled":false,"rental_uris":{"android":"levelo://app?vid=8a67907a-4e1b-4251-b4a4-c980df6fc77b","ios":"levelo://app?vid=8a67907a-4e1b-4251-b4a4-c980df6fc77b"},"vehicle_type_id":"4","last_reported":1728457774,"current_range_meters":36400,"station_id":"ce4bguh2rcd13ifvqcj0","pricing_plan_id":"cebpf4jnsgd1na2vs0mg"},{"bike_id":"8f195e73-56cf-4dbf-97df-c620bbc300b1","system_id":"levelo_inurba_marseille","lat":43.23157,"lon":5.43703,"is_reserved":false,"is_disabled":false,"rental_uris":{"android":"levelo://app?vid=8f195e73-56cf-4dbf-97df-c620bbc300b1","ios":"levelo://app?vid=8f195e73-56cf-4dbf-97df-c620bbc300b1"},"vehicle_type_id":"4","last_reported":1728457774,"current_range_meters":18000,"station_id":"ce4bhmp2rcd13ifvqgog","pricing_plan_id":"cebpf4jnsgd1na2vs0mg"},{"bike_id":"562ca1c5-5529-4b7f-ba55-7ccfdb717c00","system_id":"levelo_inurba_marseille","lat":43.26937,"lon":5.402565,"is_reserved":false,"is_disabled":false,"rental_uris":{"android":"levelo://app?vid=562ca1c5-5529-4b7f-ba55-7ccfdb717c00","ios":"levelo://app?vid=562ca1c5-5529-4b7f-ba55-7ccfdb717c00"},"vehicle_type_id":"4","last_reported":1728457774,"current_range_meters":38000,"station_id":"cjm6bp8fraef2m0cb0m0","pricing_plan_id":"cebpf4jnsgd1na2vs0mg"},{"bike_id":"09fa8933-188c-463c-b655-4d048fac928d","system_id":"levelo_inurba_marseille","lat":43.30155,"lon":5.38084,"is_reserved":false,"is_disabled":false,"rental_uris":{"android":"levelo://app?vid=09fa8933-188c-463c-b655-4d048fac928d","ios":"levelo://app?vid=09fa8933-188c-463c-b655-4d048fac928d"},"vehicle_type_id":"4","last_reported":1728457774,"current_range_meters":36400,"station_id":"ce4bgjp2rcd13ifvqbh0","pricing_plan_id":"cebpf4jnsgd1na2vs0mg"},{"bike_id":"25afecff-8faf-4ca5-beb4-ce74280dcb13","system_id":"levelo_inurba_marseille","lat":43.23195,"lon":5.35547,"is_reserved":false,"is_disabled":false,"rental_uris":{"android":"levelo://app?vid=25afecff-8faf-4ca5-beb4-ce74280dcb13","ios":"levelo://app?vid=25afecff-8faf-4ca5-beb4-ce74280dcb13"},"vehicle_type_id":"4","last_reported":1728457774,"current_range_meters":4800,"station_id":"ce4bhu92rcd13ifvqi70","pricing_plan_id":"cebpf4jnsgd1na2vs0mg"},{"bike_id":"0fe8b88b-a414-402f-b0e0-9171bb228da6","system_id":"levelo_inurba_marseille","lat":43.27313,"lon":5.39081,"is_reserved":false,"is_disabled":false,"rental_uris":{"android":"levelo://app?vid=0fe8b88b-a414-402f-b0e0-9171bb228da6","ios":"levelo://app?vid=0fe8b88b-a414-402f-b0e0-9171bb228da6"},"vehicle_type_id":"4","last_reported":1728457774,"current_range_meters":30800,"station_id":"ce4bhgp2rcd13ifvqfe0","pricing_plan_id":"cebpf4jnsgd1na2vs0mg"},{"bike_id":"9ddbff3a-7de8-4ccf-9d85-074854875271","system_id":"levelo_inurba_marseille","lat":43.26943,"lon":5.38637,"is_reserved":false,"is_disabled":false,"rental_uris":{"android":"levelo://app?vid=9ddbff3a-7de8-4ccf-9d85-074854875271","ios":"levelo://app?vid=9ddbff3a-7de8-4ccf-9d85-074854875271"},"vehicle_type_id":"4","last_reported":1728457774,"current_range_meters":35600,"station_id":"ce4bhh92rcd13ifvqfh0","pricing_plan_id":"cebpf4jnsgd1na2vs0mg"},{"bike_id":"7219fee0-219f-4cfa-8633-b620db7597ae","system_id":"levelo_inurba_marseille","lat":43.29842,"lon":5.37119,"is_reserved":false,"is_disabled":false,"rental_uris":{"android":"levelo://app?vid=7219fee0-219f-4cfa-8633-b620db7597ae","ios":"levelo://app?vid=7219fee0-219f-4cfa-8633-b620db7597ae"},"vehicle_type_id":"4","last_reported":1728457774,"current_range_meters":16400,"station_id":"ce4bgjh2rcd13ifvqbg0","pricing_plan_id":"cebpf4jnsgd1na2vs0mg"},{"bike_id":"f33edb99-347d-4327-abd0-67008465357f","system_id":"levelo_inurba_marseille","lat":43.24078,"lon":5.37761,"is_reserved":false,"is_disabled":false,"rental_uris":{"android":"levelo://app?vid=f33edb99-347d-4327-abd0-67008465357f","ios":"levelo://app?vid=f33edb99-347d-4327-abd0-67008465357f"},"vehicle_type_id":"4","last_reported":1728457774,"current_range_meters":30400,"station_id":"ce4bhnp2rcd13ifvqgvg","pricing_plan_id":"cebpf4jnsgd1na2vs0mg"},{"bike_id":"a92132a4-f46c-40a6-b06c-cea89c5b1a00","system_id":"levelo_inurba_marseille","lat":43.26553,"lon":5.37281,"is_reserved":false,"is_disabled":false,"rental_uris":{"android":"levelo://app?vid=a92132a4-f46c-40a6-b06c-cea89c5b1a00","ios":"levelo://app?vid=a92132a4-f46c-40a6-b06c-cea89c5b1a00"},"vehicle_type_id":"4","last_reported":1728457774,"current_range_meters":37600,"station_id":"ce4bhg12rcd13ifvqf70","pricing_plan_id":"cebpf4jnsgd1na2vs0mg"},{"bike_id":"5e146af4-57f6-4478-8445-6a3648fa63e5","system_id":"levelo_inurba_marseille","lat":43.3096,"lon":5.39036,"is_reserved":false,"is_disabled":false,"rental_uris":{"android":"levelo://app?vid=5e146af4-57f6-4478-8445-6a3648fa63e5","ios":"levelo://app?vid=5e146af4-57f6-4478-8445-6a3648fa63e5"},"vehicle_type_id":"4","last_reported":1728457774,"current_range_meters":25200,"station_id":"ce4bgup2rcd13ifvqco0","pricing_plan_id":"cebpf4jnsgd1na2vs0mg"},{"bike_id":"13e28c57-3bd4-4692-95c1-aa18f5cad0f7","system_id":"levelo_inurba_marseille","lat":43.29894,"lon":5.43664,"is_reserved":false,"is_disabled":false,"rental_uris":{"android":"levelo://app?vid=13e28c57-3bd4-4692-95c1-aa18f5cad0f7","ios":"levelo://app?vid=13e28c57-3bd4-4692-95c1-aa18f5cad0f7"},"vehicle_type_id":"4","last_reported":1728457774,"current_range_meters":38800,"station_id":"ce4bhpp2rcd13ifvqhfg","pricing_plan_id":"cebpf4jnsgd1na2vs0mg"},{"bike_id":"5a20e4bc-4789-4fd0-8ad3-bb78c7602031","system_id":"levelo_inurba_marseille","lat":43.3136,"lon":5.36702,"is_reserved":false,"is_disabled":false,"rental_uris":{"android":"levelo://app?vid=5a20e4bc-4789-4fd0-8ad3-bb78c7602031","ios":"levelo://app?vid=5a20e4bc-4789-4fd0-8ad3-bb78c7602031"},"vehicle_type_id":"4","last_reported":1728457774,"current_range_meters":30800,"station_id":"ce4bgr92rcd13ifvqc6g","pricing_plan_id":"cebpf4jnsgd1na2vs0mg"},{"bike_id":"1b636f7c-771d-4de6-a99a-10cede9347cd","system_id":"levelo_inurba_marseille","lat":43.30148,"lon":5.38071,"is_reserved":false,"is_disabled":false,"rental_uris":{"android":"levelo://app?vid=1b636f7c-771d-4de6-a99a-10cede9347cd","ios":"levelo://app?vid=1b636f7c-771d-4de6-a99a-10cede9347cd"},"vehicle_type_id":"4","last_reported":1728457774,"current_range_meters":31200,"station_id":"ce4bgjp2rcd13ifvqbh0","pricing_plan_id":"cebpf4jnsgd1na2vs0mg"},{"bike_id":"e2d3bf15-6bc4-4545-bc67-a271e3dd6038","system_id":"levelo_inurba_marseille","lat":43.29559,"lon":5.42273,"is_reserved":false,"is_disabled":false,"rental_uris":{"android":"levelo://app?vid=e2d3bf15-6bc4-4545-bc67-a271e3dd6038","ios":"levelo://app?vid=e2d3bf15-6bc4-4545-bc67-a271e3dd6038"},"vehicle_type_id":"4","last_reported":1728457774,"current_range_meters":38800,"station_id":"ce4bhph2rcd13ifvqhdg","pricing_plan_id":"cebpf4jnsgd1na2vs0mg"},{"bike_id":"2c502928-b51e-47c4-b911-763aae73ab9e","system_id":"levelo_inurba_marseille","lat":43.24077,"lon":5.37756,"is_reserved":false,"is_disabled":false,"rental_uris":{"android":"levelo://app?vid=2c502928-b51e-47c4-b911-763aae73ab9e","ios":"levelo://app?vid=2c502928-b51e-47c4-b911-763aae73ab9e"},"vehicle_type_id":"4","last_reported":1728457774,"current_range_meters":36800,"station_id":"ce4bhnp2rcd13ifvqgvg","pricing_plan_id":"cebpf4jnsgd1na2vs0mg"},{"bike_id":"0e0daf82-85d6-4cae-b514-aaf9f6416e23","system_id":"levelo_inurba_marseille","lat":43.31992,"lon":5.38161,"is_reserved":false,"is_disabled":false,"rental_uris":{"android":"levelo://app?vid=0e0daf82-85d6-4cae-b514-aaf9f6416e23","ios":"levelo://app?vid=0e0daf82-85d6-4cae-b514-aaf9f6416e23"},"vehicle_type_id":"4","last_reported":1728457774,"current_range_meters":14000,"station_id":"ce4bhr12rcd13ifvqhpg","pricing_plan_id":"cebpf4jnsgd1na2vs0mg"},{"bike_id":"39367524-b0f7-460c-8b2d-a5a35c46370d","system_id":"levelo_inurba_marseille","lat":43.24079,"lon":5.37756,"is_reserved":false,"is_disabled":false,"rental_uris":{"android":"levelo://app?vid=39367524-b0f7-460c-8b2d-a5a35c46370d","ios":"levelo://app?vid=39367524-b0f7-460c-8b2d-a5a35c46370d"},"vehicle_type_id":"4","last_reported":1728457774,"current_range_meters":32800,"station_id":"ce4bhnp2rcd13ifvqgvg","pricing_plan_id":"cebpf4jnsgd1na2vs0mg"},{"bike_id":"71250cb0-c748-47e9-a0b5-268da76a0664","system_id":"levelo_inurba_marseille","lat":43.30905,"lon":5.36842,"is_reserved":false,"is_disabled":false,"rental_uris":{"android":"levelo://app?vid=71250cb0-c748-47e9-a0b5-268da76a0664","ios":"levelo://app?vid=71250cb0-c748-47e9-a0b5-268da76a0664"},"vehicle_type_id":"4","last_reported":1728457774,"current_range_meters":24800,"station_id":"ce4bgn92rcd13ifvqbvg","pricing_plan_id":"cebpf4jnsgd1na2vs0mg"},{"bike_id":"49e74dee-8cba-4b09-8380-03c6c3b2ccb7","system_id":"levelo_inurba_marseille","lat":43.33611,"lon":5.41028,"is_reserved":false,"is_disabled":false,"rental_uris":{"android":"levelo://app?vid=49e74dee-8cba-4b09-8380-03c6c3b2ccb7","ios":"levelo://app?vid=49e74dee-8cba-4b09-8380-03c6c3b2ccb7"},"vehicle_type_id":"4","last_reported":1728457774,"current_range_meters":37600,"station_id":"ce4bhqh2rcd13ifvqhmg","pricing_plan_id":"cebpf4jnsgd1na2vs0mg"},{"bike_id":"c5f9d7b5-095c-44ea-b18e-09fa3f124b58","system_id":"levelo_inurba_marseille","lat":43.33756,"lon":5.37448,"is_reserved":false,"is_disabled":false,"rental_uris":{"android":"levelo://app?vid=c5f9d7b5-095c-44ea-b18e-09fa3f124b58","ios":"levelo://app?vid=c5f9d7b5-095c-44ea-b18e-09fa3f124b58"},"vehicle_type_id":"4","last_reported":1728457774,"current_range_meters":38400,"station_id":"","pricing_plan_id":"cebpf4jnsgd1na2vs0mg"},{"bike_id":"675d4a1a-a13d-4502-9689-89e83595b0c3","system_id":"levelo_inurba_marseille","lat":43.26944,"lon":5.40251,"is_reserved":false,"is_disabled":false,"rental_uris":{"android":"levelo://app?vid=675d4a1a-a13d-4502-9689-89e83595b0c3","ios":"levelo://app?vid=675d4a1a-a13d-4502-9689-89e83595b0c3"},"vehicle_type_id":"4","last_reported":1728457774,"current_range_meters":38000,"station_id":"cjm6bp8fraef2m0cb0m0","pricing_plan_id":"cebpf4jnsgd1na2vs0mg"},{"bike_id":"045ace5c-b2a3-426f-8ab8-2dde56e1fe43","system_id":"levelo_inurba_marseille","lat":43.30361,"lon":5.4188,"is_reserved":false,"is_disabled":false,"rental_uris":{"android":"levelo://app?vid=045ace5c-b2a3-426f-8ab8-2dde56e1fe43","ios":"levelo://app?vid=045ace5c-b2a3-426f-8ab8-2dde56e1fe43"},"vehicle_type_id":"4","last_reported":1728457774,"current_range_meters":32000,"station_id":"ce4bhop2rcd13ifvqh7g","pricing_plan_id":"cebpf4jnsgd1na2vs0mg"},{"bike_id":"811665d1-0f10-4243-9873-ae3d8727fc0b","system_id":"levelo_inurba_marseille","lat":43.33606,"lon":5.41042,"is_reserved":false,"is_disabled":false,"rental_uris":{"android":"levelo://app?vid=811665d1-0f10-4243-9873-ae3d8727fc0b","ios":"levelo://app?vid=811665d1-0f10-4243-9873-ae3d8727fc0b"},"vehicle_type_id":"4","last_reported":1728457774,"current_range_meters":25200,"station_id":"ce4bhqh2rcd13ifvqhmg","pricing_plan_id":"cebpf4jnsgd1na2vs0mg"},{"bike_id":"cd5db413-cd84-47e8-8776-565b7138cca3","system_id":"levelo_inurba_marseille","lat":43.324829,"lon":5.365696,"is_reserved":false,"is_disabled":false,"rental_uris":{"android":"levelo://app?vid=cd5db413-cd84-47e8-8776-565b7138cca3","ios":"levelo://app?vid=cd5db413-cd84-47e8-8776-565b7138cca3"},"vehicle_type_id":"4","last_reported":1728457774,"current_range_meters":10800,"station_id":"ce4bhs12rcd13ifvqhvg","pricing_plan_id":"cebpf4jnsgd1na2vs0mg"},{"bike_id":"06971ff2-9e3f-427f-9afb-e2db59fd3490","system_id":"levelo_inurba_marseille","lat":43.30152,"lon":5.38087,"is_reserved":false,"is_disabled":false,"rental_uris":{"android":"levelo://app?vid=06971ff2-9e3f-427f-9afb-e2db59fd3490","ios":"levelo://app?vid=06971ff2-9e3f-427f-9afb-e2db59fd3490"},"vehicle_type_id":"4","last_reported":1728457774,"current_range_meters":30000,"station_id":"ce4bgjp2rcd13ifvqbh0","pricing_plan_id":"cebpf4jnsgd1na2vs0mg"},{"bike_id":"2b6d1bbe-0911-4386-9a85-c95f814accae","system_id":"levelo_inurba_marseille","lat":43.28432,"lon":5.34994,"is_reserved":false,"is_disabled":false,"rental_uris":{"android":"levelo://app?vid=2b6d1bbe-0911-4386-9a85-c95f814accae","ios":"levelo://app?vid=2b6d1bbe-0911-4386-9a85-c95f814accae"},"vehicle_type_id":"4","last_reported":1728457774,"current_range_meters":29600,"station_id":"ce4bhbh2rcd13ifvqepg","pricing_plan_id":"cebpf4jnsgd1na2vs0mg"},{"bike_id":"45775561-5846-48d5-ab58-1ae7b991ff01","system_id":"levelo_inurba_marseille","lat":43.25004,"lon":5.38928,"is_reserved":false,"is_disabled":false,"rental_uris":{"android":"levelo://app?vid=45775561-5846-48d5-ab58-1ae7b991ff01","ios":"levelo://app?vid=45775561-5846-48d5-ab58-1ae7b991ff01"},"vehicle_type_id":"4","last_reported":1728457774,"current_range_meters":28000,"station_id":"ce4bhgp2rcd13ifvqfd0","pricing_plan_id":"cebpf4jnsgd1na2vs0mg"},{"bike_id":"6a930237-624b-4cde-ad52-27a0343c1393","system_id":"levelo_inurba_marseille","lat":43.2315,"lon":5.43713,"is_reserved":false,"is_disabled":false,"rental_uris":{"android":"levelo://app?vid=6a930237-624b-4cde-ad52-27a0343c1393","ios":"levelo://app?vid=6a930237-624b-4cde-ad52-27a0343c1393"},"vehicle_type_id":"4","last_reported":1728457774,"current_range_meters":38000,"station_id":"ce4bhmp2rcd13ifvqgog","pricing_plan_id":"cebpf4jnsgd1na2vs0mg"},{"bike_id":"74e99172-b562-4180-88ef-777a20d65b0b","system_id":"levelo_inurba_marseille","lat":43.2408,"lon":5.37745,"is_reserved":false,"is_disabled":false,"rental_uris":{"android":"levelo://app?vid=74e99172-b562-4180-88ef-777a20d65b0b","ios":"levelo://app?vid=74e99172-b562-4180-88ef-777a20d65b0b"},"vehicle_type_id":"4","last_reported":1728457774,"current_range_meters":36000,"station_id":"ce4bhnp2rcd13ifvqgvg","pricing_plan_id":"cebpf4jnsgd1na2vs0mg"},{"bike_id":"74637494-39b2-4d45-8059-bbc9298d0213","system_id":"levelo_inurba_marseille","lat":43.27371,"lon":5.36257,"is_reserved":false,"is_disabled":false,"rental_uris":{"android":"levelo://app?vid=74637494-39b2-4d45-8059-bbc9298d0213","ios":"levelo://app?vid=74637494-39b2-4d45-8059-bbc9298d0213"},"vehicle_type_id":"4","last_reported":1728457774,"current_range_meters":38400,"station_id":"ce4bhbh2rcd13ifvqeo0","pricing_plan_id":"cebpf4jnsgd1na2vs0mg"},{"bike_id":"f3d84ac8-a9a8-4e75-83b5-0a41f278580f","system_id":"levelo_inurba_marseille","lat":43.2836,"lon":5.3864,"is_reserved":false,"is_disabled":false,"rental_uris":{"android":"levelo://app?vid=f3d84ac8-a9a8-4e75-83b5-0a41f278580f","ios":"levelo://app?vid=f3d84ac8-a9a8-4e75-83b5-0a41f278580f"},"vehicle_type_id":"4","last_reported":1728457774,"current_range_meters":25600,"station_id":"ce4bh492rcd13ifvqdvg","pricing_plan_id":"cebpf4jnsgd1na2vs0mg"},{"bike_id":"f4d7ce98-5a96-418e-b04f-b99b2c107522","system_id":"levelo_inurba_marseille","lat":43.24179,"lon":5.39719,"is_reserved":false,"is_disabled":false,"rental_uris":{"android":"levelo://app?vid=f4d7ce98-5a96-418e-b04f-b99b2c107522","ios":"levelo://app?vid=f4d7ce98-5a96-418e-b04f-b99b2c107522"},"vehicle_type_id":"4","last_reported":1728457774,"current_range_meters":35600,"station_id":"ce4bhn12rcd13ifvqgpg","pricing_plan_id":"cebpf4jnsgd1na2vs0mg"},{"bike_id":"e72fa7c9-6357-4d3c-946f-994459110c8a","system_id":"levelo_inurba_marseille","lat":43.27492,"lon":5.42455,"is_reserved":false,"is_disabled":false,"rental_uris":{"android":"levelo://app?vid=e72fa7c9-6357-4d3c-946f-994459110c8a","ios":"levelo://app?vid=e72fa7c9-6357-4d3c-946f-994459110c8a"},"vehicle_type_id":"4","last_reported":1728457774,"current_range_meters":38000,"station_id":"ce4bhn92rcd13ifvqgrg","pricing_plan_id":"cebpf4jnsgd1na2vs0mg"},{"bike_id":"2ed31331-8d4b-4cc9-a6d5-cb863be87dba","system_id":"levelo_inurba_marseille","lat":43.2749,"lon":5.42451,"is_reserved":false,"is_disabled":false,"rental_uris":{"android":"levelo://app?vid=2ed31331-8d4b-4cc9-a6d5-cb863be87dba","ios":"levelo://app?vid=2ed31331-8d4b-4cc9-a6d5-cb863be87dba"},"vehicle_type_id":"4","last_reported":1728457774,"current_range_meters":38800,"station_id":"ce4bhn92rcd13ifvqgrg","pricing_plan_id":"cebpf4jnsgd1na2vs0mg"},{"bike_id":"212d58f0-7281-494e-b4af-6dc8f301be06","system_id":"levelo_inurba_marseille","lat":43.27497,"lon":5.42452,"is_reserved":false,"is_disabled":false,"rental_uris":{"android":"levelo://app?vid=212d58f0-7281-494e-b4af-6dc8f301be06","ios":"levelo://app?vid=212d58f0-7281-494e-b4af-6dc8f301be06"},"vehicle_type_id":"4","last_reported":1728457774,"current_range_meters":36400,"station_id":"ce4bhn92rcd13ifvqgrg","pricing_plan_id":"cebpf4jnsgd1na2vs0mg"},{"bike_id":"fe44b740-871a-4252-88bf-c6a28d621198","system_id":"levelo_inurba_marseille","lat":43.34141,"lon":5.40908,"is_reserved":false,"is_disabled":false,"rental_uris":{"android":"levelo://app?vid=fe44b740-871a-4252-88bf-c6a28d621198","ios":"levelo://app?vid=fe44b740-871a-4252-88bf-c6a28d621198"},"vehicle_type_id":"4","last_reported":1728457774,"current_range_meters":22400,"station_id":"ce4bhqh2rcd13ifvqhlg","pricing_plan_id":"cebpf4jnsgd1na2vs0mg"},{"bike_id":"1fe64f31-b1f7-4d93-b037-765b28dcef03","system_id":"levelo_inurba_marseille","lat":43.25584,"lon":5.38247,"is_reserved":false,"is_disabled":false,"rental_uris":{"android":"levelo://app?vid=1fe64f31-b1f7-4d93-b037-765b28dcef03","ios":"levelo://app?vid=1fe64f31-b1f7-4d93-b037-765b28dcef03"},"vehicle_type_id":"4","last_reported":1728457774,"current_range_meters":38400,"station_id":"ce4bhih2rcd13ifvqfs0","pricing_plan_id":"cebpf4jnsgd1na2vs0mg"},{"bike_id":"863c756d-9260-4264-8703-908b5381b377","system_id":"levelo_inurba_marseille","lat":43.31755,"lon":5.39018,"is_reserved":false,"is_disabled":false,"rental_uris":{"android":"levelo://app?vid=863c756d-9260-4264-8703-908b5381b377","ios":"levelo://app?vid=863c756d-9260-4264-8703-908b5381b377"},"vehicle_type_id":"4","last_reported":1728457774,"current_range_meters":24000,"station_id":"ce4bhqp2rcd13ifvqhng","pricing_plan_id":"cebpf4jnsgd1na2vs0mg"},{"bike_id":"9fe21d01-bb3f-487a-9552-7d2d3fbff081","system_id":"levelo_inurba_marseille","lat":43.31358,"lon":5.36746,"is_reserved":false,"is_disabled":false,"rental_uris":{"android":"levelo://app?vid=9fe21d01-bb3f-487a-9552-7d2d3fbff081","ios":"levelo://app?vid=9fe21d01-bb3f-487a-9552-7d2d3fbff081"},"vehicle_type_id":"4","last_reported":1728457774,"current_range_meters":34000,"station_id":"ce4bgr92rcd13ifvqc6g","pricing_plan_id":"cebpf4jnsgd1na2vs0mg"},{"bike_id":"03ab50e8-f08a-4560-84c0-8046061c1f13","system_id":"levelo_inurba_marseille","lat":43.336309,"lon":5.410482,"is_reserved":false,"is_disabled":false,"rental_uris":{"android":"levelo://app?vid=03ab50e8-f08a-4560-84c0-8046061c1f13","ios":"levelo://app?vid=03ab50e8-f08a-4560-84c0-8046061c1f13"},"vehicle_type_id":"4","last_reported":1728457774,"current_range_meters":10000,"station_id":"ce4bhqh2rcd13ifvqhmg","pricing_plan_id":"cebpf4jnsgd1na2vs0mg"},{"bike_id":"981417f7-3650-4686-9c01-f3fca65dc77f","system_id":"levelo_inurba_marseille","lat":43.2307,"lon":5.35493,"is_reserved":false,"is_disabled":false,"rental_uris":{"android":"levelo://app?vid=981417f7-3650-4686-9c01-f3fca65dc77f","ios":"levelo://app?vid=981417f7-3650-4686-9c01-f3fca65dc77f"},"vehicle_type_id":"4","last_reported":1728457774,"current_range_meters":19600,"station_id":"cpo3342slgdg3j2ifvpg","pricing_plan_id":"cebpf4jnsgd1na2vs0mg"},{"bike_id":"b910cbc1-a115-459f-8c0b-1f2acacdc404","system_id":"levelo_inurba_marseille","lat":43.31348,"lon":5.3671,"is_reserved":false,"is_disabled":false,"rental_uris":{"android":"levelo://app?vid=b910cbc1-a115-459f-8c0b-1f2acacdc404","ios":"levelo://app?vid=b910cbc1-a115-459f-8c0b-1f2acacdc404"},"vehicle_type_id":"4","last_reported":1728457774,"current_range_meters":18800,"station_id":"ce4bgr92rcd13ifvqc6g","pricing_plan_id":"cebpf4jnsgd1na2vs0mg"},{"bike_id":"d9e78638-d819-4cce-8dbf-1fa89d7a43c2","system_id":"levelo_inurba_marseille","lat":43.2558,"lon":5.38241,"is_reserved":false,"is_disabled":false,"rental_uris":{"android":"levelo://app?vid=d9e78638-d819-4cce-8dbf-1fa89d7a43c2","ios":"levelo://app?vid=d9e78638-d819-4cce-8dbf-1fa89d7a43c2"},"vehicle_type_id":"4","last_reported":1728457774,"current_range_meters":34000,"station_id":"ce4bhih2rcd13ifvqfs0","pricing_plan_id":"cebpf4jnsgd1na2vs0mg"},{"bike_id":"a7fc21fc-96fb-4603-843c-267888a20c03","system_id":"levelo_inurba_marseille","lat":43.305367,"lon":5.367273,"is_reserved":false,"is_disabled":false,"rental_uris":{"android":"levelo://app?vid=a7fc21fc-96fb-4603-843c-267888a20c03","ios":"levelo://app?vid=a7fc21fc-96fb-4603-843c-267888a20c03"},"vehicle_type_id":"4","last_reported":1728457774,"current_range_meters":38800,"station_id":"ce4bgrp2rcd13ifvqc9g","pricing_plan_id":"cebpf4jnsgd1na2vs0mg"},{"bike_id":"71eefc66-5e55-4ef2-b3cf-18e5e5d0677d","system_id":"levelo_inurba_marseille","lat":43.31757,"lon":5.39019,"is_reserved":false,"is_disabled":false,"rental_uris":{"android":"levelo://app?vid=71eefc66-5e55-4ef2-b3cf-18e5e5d0677d","ios":"levelo://app?vid=71eefc66-5e55-4ef2-b3cf-18e5e5d0677d"},"vehicle_type_id":"4","last_reported":1728457774,"current_range_meters":7200,"station_id":"ce4bhqp2rcd13ifvqhng","pricing_plan_id":"cebpf4jnsgd1na2vs0mg"},{"bike_id":"aac865ab-ef68-4003-90ef-36b8c80ccf5c","system_id":"levelo_inurba_marseille","lat":43.2418,"lon":5.39721,"is_reserved":false,"is_disabled":false,"rental_uris":{"android":"levelo://app?vid=aac865ab-ef68-4003-90ef-36b8c80ccf5c","ios":"levelo://app?vid=aac865ab-ef68-4003-90ef-36b8c80ccf5c"},"vehicle_type_id":"4","last_reported":1728457774,"current_range_meters":35600,"station_id":"ce4bhn12rcd13ifvqgpg","pricing_plan_id":"cebpf4jnsgd1na2vs0mg"},{"bike_id":"e302c9e8-c83d-489d-916e-90bbbfdd581b","system_id":"levelo_inurba_marseille","lat":43.25937,"lon":5.40912,"is_reserved":false,"is_disabled":false,"rental_uris":{"android":"levelo://app?vid=e302c9e8-c83d-489d-916e-90bbbfdd581b","ios":"levelo://app?vid=e302c9e8-c83d-489d-916e-90bbbfdd581b"},"vehicle_type_id":"4","last_reported":1728457774,"current_range_meters":6800,"station_id":"ce4bhm92rcd13ifvqglg","pricing_plan_id":"cebpf4jnsgd1na2vs0mg"},{"bike_id":"b558cea7-fc0d-41f8-989c-3012b987d43b","system_id":"levelo_inurba_marseille","lat":43.28414,"lon":5.34982,"is_reserved":false,"is_disabled":false,"rental_uris":{"android":"levelo://app?vid=b558cea7-fc0d-41f8-989c-3012b987d43b","ios":"levelo://app?vid=b558cea7-fc0d-41f8-989c-3012b987d43b"},"vehicle_type_id":"4","last_reported":1728457774,"current_range_meters":38800,"station_id":"ce4bhbh2rcd13ifvqepg","pricing_plan_id":"cebpf4jnsgd1na2vs0mg"},{"bike_id":"182be5cb-11c3-4bfd-b166-7a5b453b60dd","system_id":"levelo_inurba_marseille","lat":43.31118,"lon":5.37783,"is_reserved":false,"is_disabled":false,"rental_uris":{"android":"levelo://app?vid=182be5cb-11c3-4bfd-b166-7a5b453b60dd","ios":"levelo://app?vid=182be5cb-11c3-4bfd-b166-7a5b453b60dd"},"vehicle_type_id":"4","last_reported":1728457774,"current_range_meters":6800,"station_id":"ce4bgt92rcd13ifvqcg0","pricing_plan_id":"cebpf4jnsgd1na2vs0mg"},{"bike_id":"5b88c963-47f3-429c-af9e-fe86716196ce","system_id":"levelo_inurba_marseille","lat":43.29553,"lon":5.42282,"is_reserved":false,"is_disabled":false,"rental_uris":{"android":"levelo://app?vid=5b88c963-47f3-429c-af9e-fe86716196ce","ios":"levelo://app?vid=5b88c963-47f3-429c-af9e-fe86716196ce"},"vehicle_type_id":"4","last_reported":1728457774,"current_range_meters":38800,"station_id":"ce4bhph2rcd13ifvqhdg","pricing_plan_id":"cebpf4jnsgd1na2vs0mg"},{"bike_id":"b4cdd3cc-cc3c-48ad-ac9d-4120e6f711f5","system_id":"levelo_inurba_marseille","lat":43.30154,"lon":5.38082,"is_reserved":false,"is_disabled":false,"rental_uris":{"android":"levelo://app?vid=b4cdd3cc-cc3c-48ad-ac9d-4120e6f711f5","ios":"levelo://app?vid=b4cdd3cc-cc3c-48ad-ac9d-4120e6f711f5"},"vehicle_type_id":"4","last_reported":1728457774,"current_range_meters":22800,"station_id":"ce4bgjp2rcd13ifvqbh0","pricing_plan_id":"cebpf4jnsgd1na2vs0mg"},{"bike_id":"bf95273f-62ba-4176-b69f-2e879358a833","system_id":"levelo_inurba_marseille","lat":43.31211,"lon":5.36832,"is_reserved":false,"is_disabled":false,"rental_uris":{"android":"levelo://app?vid=bf95273f-62ba-4176-b69f-2e879358a833","ios":"levelo://app?vid=bf95273f-62ba-4176-b69f-2e879358a833"},"vehicle_type_id":"4","last_reported":1728457774,"current_range_meters":40000,"station_id":"ce4bgl92rcd13ifvqbq0","pricing_plan_id":"cebpf4jnsgd1na2vs0mg"},{"bike_id":"105cc977-34ae-489d-8857-680e2a567ac9","system_id":"levelo_inurba_marseille","lat":43.25583,"lon":5.3825,"is_reserved":false,"is_disabled":false,"rental_uris":{"android":"levelo://app?vid=105cc977-34ae-489d-8857-680e2a567ac9","ios":"levelo://app?vid=105cc977-34ae-489d-8857-680e2a567ac9"},"vehicle_type_id":"4","last_reported":1728457774,"current_range_meters":27600,"station_id":"ce4bhih2rcd13ifvqfs0","pricing_plan_id":"cebpf4jnsgd1na2vs0mg"},{"bike_id":"3b824c89-cf15-4e04-8271-2c0fef868aed","system_id":"levelo_inurba_marseille","lat":43.30547,"lon":5.36535,"is_reserved":false,"is_disabled":false,"rental_uris":{"android":"levelo://app?vid=3b824c89-cf15-4e04-8271-2c0fef868aed","ios":"levelo://app?vid=3b824c89-cf15-4e04-8271-2c0fef868aed"},"vehicle_type_id":"4","last_reported":1728457774,"current_range_meters":22400,"station_id":"ce4bgs12rcd13ifvqcag","pricing_plan_id":"cebpf4jnsgd1na2vs0mg"},{"bike_id":"810b32d6-b30c-480b-a6ee-5bd54d112eb8","system_id":"levelo_inurba_marseille","lat":43.33749,"lon":5.37442,"is_reserved":false,"is_disabled":false,"rental_uris":{"android":"levelo://app?vid=810b32d6-b30c-480b-a6ee-5bd54d112eb8","ios":"levelo://app?vid=810b32d6-b30c-480b-a6ee-5bd54d112eb8"},"vehicle_type_id":"4","last_reported":1728457774,"current_range_meters":28800,"station_id":"ce4rr2p2rcd13i802rgg","pricing_plan_id":"cebpf4jnsgd1na2vs0mg"},{"bike_id":"fe85d2a3-5312-465f-98f1-901fadb4b4d5","system_id":"levelo_inurba_marseille","lat":43.24075,"lon":5.37758,"is_reserved":false,"is_disabled":false,"rental_uris":{"android":"levelo://app?vid=fe85d2a3-5312-465f-98f1-901fadb4b4d5","ios":"levelo://app?vid=fe85d2a3-5312-465f-98f1-901fadb4b4d5"},"vehicle_type_id":"4","last_reported":1728457774,"current_range_meters":29600,"station_id":"ce4bhnp2rcd13ifvqgvg","pricing_plan_id":"cebpf4jnsgd1na2vs0mg"},{"bike_id":"131dc033-13a9-49c8-bf85-2f51c5628f4e","system_id":"levelo_inurba_marseille","lat":43.28151,"lon":5.42644,"is_reserved":false,"is_disabled":false,"rental_uris":{"android":"levelo://app?vid=131dc033-13a9-49c8-bf85-2f51c5628f4e","ios":"levelo://app?vid=131dc033-13a9-49c8-bf85-2f51c5628f4e"},"vehicle_type_id":"4","last_reported":1728457774,"current_range_meters":37600,"station_id":"ce4bhnh2rcd13ifvqgug","pricing_plan_id":"cebpf4jnsgd1na2vs0mg"},{"bike_id":"852ed2c4-7272-4c3a-a4a1-530f07cf6a97","system_id":"levelo_inurba_marseille","lat":43.29041,"lon":5.37553,"is_reserved":false,"is_disabled":false,"rental_uris":{"android":"levelo://app?vid=852ed2c4-7272-4c3a-a4a1-530f07cf6a97","ios":"levelo://app?vid=852ed2c4-7272-4c3a-a4a1-530f07cf6a97"},"vehicle_type_id":"4","last_reported":1728457774,"current_range_meters":16800,"station_id":"ce4bh692rcd13ifvqe90","pricing_plan_id":"cebpf4jnsgd1na2vs0mg"},{"bike_id":"d77a8155-08b8-4fe2-bf17-5470ae6d27d1","system_id":"levelo_inurba_marseille","lat":43.22931,"lon":5.35376,"is_reserved":false,"is_disabled":false,"rental_uris":{"android":"levelo://app?vid=d77a8155-08b8-4fe2-bf17-5470ae6d27d1","ios":"levelo://app?vid=d77a8155-08b8-4fe2-bf17-5470ae6d27d1"},"vehicle_type_id":"4","last_reported":1728457774,"current_range_meters":24400,"station_id":"cpo3532slgdg3j2ikp40","pricing_plan_id":"cebpf4jnsgd1na2vs0mg"},{"bike_id":"566f124d-d2dc-44d6-baaa-cd99b0a92098","system_id":"levelo_inurba_marseille","lat":43.23149,"lon":5.43717,"is_reserved":false,"is_disabled":false,"rental_uris":{"android":"levelo://app?vid=566f124d-d2dc-44d6-baaa-cd99b0a92098","ios":"levelo://app?vid=566f124d-d2dc-44d6-baaa-cd99b0a92098"},"vehicle_type_id":"4","last_reported":1728457774,"current_range_meters":39200,"station_id":"ce4bhmp2rcd13ifvqgog","pricing_plan_id":"cebpf4jnsgd1na2vs0mg"},{"bike_id":"909b693f-c27a-4061-8aad-d890caa1fb05","system_id":"levelo_inurba_marseille","lat":43.30539,"lon":5.36703,"is_reserved":false,"is_disabled":false,"rental_uris":{"android":"levelo://app?vid=909b693f-c27a-4061-8aad-d890caa1fb05","ios":"levelo://app?vid=909b693f-c27a-4061-8aad-d890caa1fb05"},"vehicle_type_id":"4","last_reported":1728457774,"current_range_meters":30400,"station_id":"ce4bgrp2rcd13ifvqc9g","pricing_plan_id":"cebpf4jnsgd1na2vs0mg"},{"bike_id":"483c9ef4-466c-4084-a6f5-16648aecb604","system_id":"levelo_inurba_marseille","lat":43.32539,"lon":5.41438,"is_reserved":false,"is_disabled":false,"rental_uris":{"android":"levelo://app?vid=483c9ef4-466c-4084-a6f5-16648aecb604","ios":"levelo://app?vid=483c9ef4-466c-4084-a6f5-16648aecb604"},"vehicle_type_id":"4","last_reported":1728457774,"current_range_meters":38400,"station_id":"ce4bhq12rcd13ifvqhhg","pricing_plan_id":"cebpf4jnsgd1na2vs0mg"},{"bike_id":"92f0f563-ea16-4c02-b287-b0ed88c8eb9d","system_id":"levelo_inurba_marseille","lat":43.26678,"lon":5.38255,"is_reserved":false,"is_disabled":false,"rental_uris":{"android":"levelo://app?vid=92f0f563-ea16-4c02-b287-b0ed88c8eb9d","ios":"levelo://app?vid=92f0f563-ea16-4c02-b287-b0ed88c8eb9d"},"vehicle_type_id":"4","last_reported":1728457774,"current_range_meters":18800,"station_id":"ce4bhg92rcd13ifvqf90","pricing_plan_id":"cebpf4jnsgd1na2vs0mg"},{"bike_id":"ee2b3c49-c0ce-4daf-9b64-eaa9f6cf83c1","system_id":"levelo_inurba_marseille","lat":43.320566,"lon":5.41544,"is_reserved":false,"is_disabled":false,"rental_uris":{"android":"levelo://app?vid=ee2b3c49-c0ce-4daf-9b64-eaa9f6cf83c1","ios":"levelo://app?vid=ee2b3c49-c0ce-4daf-9b64-eaa9f6cf83c1"},"vehicle_type_id":"4","last_reported":1728457774,"current_range_meters":3200,"station_id":"ce4bhq92rcd13ifvqhkg","pricing_plan_id":"cebpf4jnsgd1na2vs0mg"},{"bike_id":"cd3d8e80-a3cd-4dae-8dd7-f3bb9fc91ead","system_id":"levelo_inurba_marseille","lat":43.289777,"lon":5.378383,"is_reserved":false,"is_disabled":false,"rental_uris":{"android":"levelo://app?vid=cd3d8e80-a3cd-4dae-8dd7-f3bb9fc91ead","ios":"levelo://app?vid=cd3d8e80-a3cd-4dae-8dd7-f3bb9fc91ead"},"vehicle_type_id":"4","last_reported":1728457774,"current_range_meters":38000,"station_id":"ce4bh9p2rcd13ifvqed0","pricing_plan_id":"cebpf4jnsgd1na2vs0mg"},{"bike_id":"e1a5c79b-b669-4f11-8eb4-af5513c136c6","system_id":"levelo_inurba_marseille","lat":43.30275,"lon":5.37712,"is_reserved":false,"is_disabled":false,"rental_uris":{"android":"levelo://app?vid=e1a5c79b-b669-4f11-8eb4-af5513c136c6","ios":"levelo://app?vid=e1a5c79b-b669-4f11-8eb4-af5513c136c6"},"vehicle_type_id":"4","last_reported":1728457774,"current_range_meters":28000,"station_id":"ce4bguh2rcd13ifvqcj0","pricing_plan_id":"cebpf4jnsgd1na2vs0mg"},{"bike_id":"98d5921e-ca4f-412d-ae3f-6964bd641ace","system_id":"levelo_inurba_marseille","lat":43.2998,"lon":5.3719,"is_reserved":false,"is_disabled":false,"rental_uris":{"android":"levelo://app?vid=98d5921e-ca4f-412d-ae3f-6964bd641ace","ios":"levelo://app?vid=98d5921e-ca4f-412d-ae3f-6964bd641ace"},"vehicle_type_id":"4","last_reported":1728457774,"current_range_meters":38000,"station_id":"ce4bgr92rcd13ifvqc7g","pricing_plan_id":"cebpf4jnsgd1na2vs0mg"},{"bike_id":"ec5d5cc0-7637-4fb9-a741-7392281e0c95","system_id":"levelo_inurba_marseille","lat":43.25494,"lon":5.37647,"is_reserved":false,"is_disabled":false,"rental_uris":{"android":"levelo://app?vid=ec5d5cc0-7637-4fb9-a741-7392281e0c95","ios":"levelo://app?vid=ec5d5cc0-7637-4fb9-a741-7392281e0c95"},"vehicle_type_id":"4","last_reported":1728457774,"current_range_meters":30000,"station_id":"ce4bhh12rcd13ifvqff0","pricing_plan_id":"cebpf4jnsgd1na2vs0mg"},{"bike_id":"b1b914a9-f856-4695-a7db-27fdf5e5c15b","system_id":"levelo_inurba_marseille","lat":43.30544,"lon":5.36559,"is_reserved":false,"is_disabled":false,"rental_uris":{"android":"levelo://app?vid=b1b914a9-f856-4695-a7db-27fdf5e5c15b","ios":"levelo://app?vid=b1b914a9-f856-4695-a7db-27fdf5e5c15b"},"vehicle_type_id":"4","last_reported":1728457774,"current_range_meters":11600,"station_id":"ce4bgs12rcd13ifvqcag","pricing_plan_id":"cebpf4jnsgd1na2vs0mg"},{"bike_id":"ae34953c-471d-45a0-a84a-a16db6392d67","system_id":"levelo_inurba_marseille","lat":43.2668,"lon":5.3827,"is_reserved":false,"is_disabled":false,"rental_uris":{"android":"levelo://app?vid=ae34953c-471d-45a0-a84a-a16db6392d67","ios":"levelo://app?vid=ae34953c-471d-45a0-a84a-a16db6392d67"},"vehicle_type_id":"4","last_reported":1728457774,"current_range_meters":23200,"station_id":"ce4bhg92rcd13ifvqf90","pricing_plan_id":"cebpf4jnsgd1na2vs0mg"},{"bike_id":"e69bfdde-68fa-4cbd-8d10-cc970d00e338","system_id":"levelo_inurba_marseille","lat":43.33756,"lon":5.37451,"is_reserved":false,"is_disabled":false,"rental_uris":{"android":"levelo://app?vid=e69bfdde-68fa-4cbd-8d10-cc970d00e338","ios":"levelo://app?vid=e69bfdde-68fa-4cbd-8d10-cc970d00e338"},"vehicle_type_id":"4","last_reported":1728457774,"current_range_meters":38800,"station_id":"","pricing_plan_id":"cebpf4jnsgd1na2vs0mg"},{"bike_id":"de58cf9e-1cda-4de8-a75e-77ccd6793204","system_id":"levelo_inurba_marseille","lat":43.307983,"lon":5.38146,"is_reserved":false,"is_disabled":false,"rental_uris":{"android":"levelo://app?vid=de58cf9e-1cda-4de8-a75e-77ccd6793204","ios":"levelo://app?vid=de58cf9e-1cda-4de8-a75e-77ccd6793204"},"vehicle_type_id":"4","last_reported":1728457774,"current_range_meters":38800,"station_id":"ce4bgt12rcd13ifvqce0","pricing_plan_id":"cebpf4jnsgd1na2vs0mg"},{"bike_id":"7d8ca65d-bc4f-4a21-a46d-f2e2001ba92b","system_id":"levelo_inurba_marseille","lat":43.30149,"lon":5.37422,"is_reserved":false,"is_disabled":false,"rental_uris":{"android":"levelo://app?vid=7d8ca65d-bc4f-4a21-a46d-f2e2001ba92b","ios":"levelo://app?vid=7d8ca65d-bc4f-4a21-a46d-f2e2001ba92b"},"vehicle_type_id":"4","last_reported":1728457774,"current_range_meters":28800,"station_id":"ce4bgs92rcd13ifvqcc0","pricing_plan_id":"cebpf4jnsgd1na2vs0mg"},{"bike_id":"296b073b-fdd5-4de3-b269-a71c1e3e5ba5","system_id":"levelo_inurba_marseille","lat":43.28848,"lon":5.39332,"is_reserved":false,"is_disabled":false,"rental_uris":{"android":"levelo://app?vid=296b073b-fdd5-4de3-b269-a71c1e3e5ba5","ios":"levelo://app?vid=296b073b-fdd5-4de3-b269-a71c1e3e5ba5"},"vehicle_type_id":"4","last_reported":1728457774,"current_range_meters":2800,"station_id":"ce4bh2p2rcd13ifvqdi0","pricing_plan_id":"cebpf4jnsgd1na2vs0mg"},{"bike_id":"d45e491f-6575-4137-be97-06a2c4ce01c3","system_id":"levelo_inurba_marseille","lat":43.30536,"lon":5.36714,"is_reserved":false,"is_disabled":false,"rental_uris":{"android":"levelo://app?vid=d45e491f-6575-4137-be97-06a2c4ce01c3","ios":"levelo://app?vid=d45e491f-6575-4137-be97-06a2c4ce01c3"},"vehicle_type_id":"4","last_reported":1728457774,"current_range_meters":2000,"station_id":"ce4bgrp2rcd13ifvqc9g","pricing_plan_id":"cebpf4jnsgd1na2vs0mg"},{"bike_id":"3fe2e5ba-6c66-43a4-9cfa-b72729de941e","system_id":"levelo_inurba_marseille","lat":43.246643,"lon":5.381737,"is_reserved":false,"is_disabled":false,"rental_uris":{"android":"levelo://app?vid=3fe2e5ba-6c66-43a4-9cfa-b72729de941e","ios":"levelo://app?vid=3fe2e5ba-6c66-43a4-9cfa-b72729de941e"},"vehicle_type_id":"4","last_reported":1728457774,"current_range_meters":28800,"station_id":"ce4bhih2rcd13ifvqfr0","pricing_plan_id":"cebpf4jnsgd1na2vs0mg"},{"bike_id":"0ef6584b-7ef4-4c30-ad4e-c6c871250cfe","system_id":"levelo_inurba_marseille","lat":43.295425,"lon":5.375044,"is_reserved":false,"is_disabled":false,"rental_uris":{"android":"levelo://app?vid=0ef6584b-7ef4-4c30-ad4e-c6c871250cfe","ios":"levelo://app?vid=0ef6584b-7ef4-4c30-ad4e-c6c871250cfe"},"vehicle_type_id":"4","last_reported":1728457774,"current_range_meters":24800,"station_id":"ce4bgkp2rcd13ifvqbmg","pricing_plan_id":"cebpf4jnsgd1na2vs0mg"},{"bike_id":"7c508c4f-0d71-47bf-997b-905aab4646c4","system_id":"levelo_inurba_marseille","lat":43.32541,"lon":5.41449,"is_reserved":false,"is_disabled":false,"rental_uris":{"android":"levelo://app?vid=7c508c4f-0d71-47bf-997b-905aab4646c4","ios":"levelo://app?vid=7c508c4f-0d71-47bf-997b-905aab4646c4"},"vehicle_type_id":"4","last_reported":1728457774,"current_range_meters":37600,"station_id":"ce4bhq12rcd13ifvqhhg","pricing_plan_id":"cebpf4jnsgd1na2vs0mg"},{"bike_id":"6e8c8cbf-845b-47fc-9626-2d8b3d922025","system_id":"levelo_inurba_marseille","lat":43.22932,"lon":5.35374,"is_reserved":false,"is_disabled":false,"rental_uris":{"android":"levelo://app?vid=6e8c8cbf-845b-47fc-9626-2d8b3d922025","ios":"levelo://app?vid=6e8c8cbf-845b-47fc-9626-2d8b3d922025"},"vehicle_type_id":"4","last_reported":1728457774,"current_range_meters":21600,"station_id":"cpo3532slgdg3j2ikp40","pricing_plan_id":"cebpf4jnsgd1na2vs0mg"},{"bike_id":"33580a74-d00a-4a05-a061-53c82915b1c8","system_id":"levelo_inurba_marseille","lat":43.30432,"lon":5.3889,"is_reserved":false,"is_disabled":false,"rental_uris":{"android":"levelo://app?vid=33580a74-d00a-4a05-a061-53c82915b1c8","ios":"levelo://app?vid=33580a74-d00a-4a05-a061-53c82915b1c8"},"vehicle_type_id":"4","last_reported":1728457774,"current_range_meters":38000,"station_id":"ce4bgk12rcd13ifvqbi0","pricing_plan_id":"cebpf4jnsgd1na2vs0mg"},{"bike_id":"5b7c1b64-2180-4349-a949-460f6aba1aeb","system_id":"levelo_inurba_marseille","lat":43.26682,"lon":5.38263,"is_reserved":false,"is_disabled":false,"rental_uris":{"android":"levelo://app?vid=5b7c1b64-2180-4349-a949-460f6aba1aeb","ios":"levelo://app?vid=5b7c1b64-2180-4349-a949-460f6aba1aeb"},"vehicle_type_id":"4","last_reported":1728457774,"current_range_meters":38000,"station_id":"ce4bhg92rcd13ifvqf90","pricing_plan_id":"cebpf4jnsgd1na2vs0mg"},{"bike_id":"d36afd29-050a-4133-98b5-04436a543286","system_id":"levelo_inurba_marseille","lat":43.30539,"lon":5.36557,"is_reserved":false,"is_disabled":false,"rental_uris":{"android":"levelo://app?vid=d36afd29-050a-4133-98b5-04436a543286","ios":"levelo://app?vid=d36afd29-050a-4133-98b5-04436a543286"},"vehicle_type_id":"4","last_reported":1728457774,"current_range_meters":33600,"station_id":"ce4bgs12rcd13ifvqcag","pricing_plan_id":"cebpf4jnsgd1na2vs0mg"},{"bike_id":"1d9b6817-85fc-433d-b0e6-113ff9e54f65","system_id":"levelo_inurba_marseille","lat":43.27493,"lon":5.42459,"is_reserved":false,"is_disabled":false,"rental_uris":{"android":"levelo://app?vid=1d9b6817-85fc-433d-b0e6-113ff9e54f65","ios":"levelo://app?vid=1d9b6817-85fc-433d-b0e6-113ff9e54f65"},"vehicle_type_id":"4","last_reported":1728457774,"current_range_meters":14000,"station_id":"ce4bhn92rcd13ifvqgrg","pricing_plan_id":"cebpf4jnsgd1na2vs0mg"},{"bike_id":"7c2f78bd-e2c8-4550-8f3a-373c0f4443d9","system_id":"levelo_inurba_marseille","lat":43.275,"lon":5.42449,"is_reserved":false,"is_disabled":false,"rental_uris":{"android":"levelo://app?vid=7c2f78bd-e2c8-4550-8f3a-373c0f4443d9","ios":"levelo://app?vid=7c2f78bd-e2c8-4550-8f3a-373c0f4443d9"},"vehicle_type_id":"4","last_reported":1728457774,"current_range_meters":38800,"station_id":"ce4bhn92rcd13ifvqgrg","pricing_plan_id":"cebpf4jnsgd1na2vs0mg"},{"bike_id":"549c60b7-e80a-465c-9929-5897ccbe828d","system_id":"levelo_inurba_marseille","lat":43.23146,"lon":5.43728,"is_reserved":false,"is_disabled":false,"rental_uris":{"android":"levelo://app?vid=549c60b7-e80a-465c-9929-5897ccbe828d","ios":"levelo://app?vid=549c60b7-e80a-465c-9929-5897ccbe828d"},"vehicle_type_id":"4","last_reported":1728457774,"current_range_meters":36000,"station_id":"ce4bhmp2rcd13ifvqgog","pricing_plan_id":"cebpf4jnsgd1na2vs0mg"},{"bike_id":"358e27dc-fa44-451b-84ea-9cccaa5dc0ec","system_id":"levelo_inurba_marseille","lat":43.28155,"lon":5.42642,"is_reserved":false,"is_disabled":false,"rental_uris":{"android":"levelo://app?vid=358e27dc-fa44-451b-84ea-9cccaa5dc0ec","ios":"levelo://app?vid=358e27dc-fa44-451b-84ea-9cccaa5dc0ec"},"vehicle_type_id":"4","last_reported":1728457774,"current_range_meters":14800,"station_id":"ce4bhnh2rcd13ifvqgug","pricing_plan_id":"cebpf4jnsgd1na2vs0mg"},{"bike_id":"19a13b55-8bc4-4199-817a-fd63d295be07","system_id":"levelo_inurba_marseille","lat":43.29957,"lon":5.41317,"is_reserved":false,"is_disabled":false,"rental_uris":{"android":"levelo://app?vid=19a13b55-8bc4-4199-817a-fd63d295be07","ios":"levelo://app?vid=19a13b55-8bc4-4199-817a-fd63d295be07"},"vehicle_type_id":"4","last_reported":1728457774,"current_range_meters":38800,"station_id":"ce4bhp12rcd13ifvqh9g","pricing_plan_id":"cebpf4jnsgd1na2vs0mg"},{"bike_id":"d0a55165-795e-4460-bbcf-03ba9c134680","system_id":"levelo_inurba_marseille","lat":43.30354,"lon":5.41874,"is_reserved":false,"is_disabled":false,"rental_uris":{"android":"levelo://app?vid=d0a55165-795e-4460-bbcf-03ba9c134680","ios":"levelo://app?vid=d0a55165-795e-4460-bbcf-03ba9c134680"},"vehicle_type_id":"4","last_reported":1728457774,"current_range_meters":38800,"station_id":"ce4bhop2rcd13ifvqh7g","pricing_plan_id":"cebpf4jnsgd1na2vs0mg"},{"bike_id":"cdc22e1a-32b1-463f-8f14-d731e6268ff3","system_id":"levelo_inurba_marseille","lat":43.295889,"lon":5.400544,"is_reserved":false,"is_disabled":false,"rental_uris":{"android":"levelo://app?vid=cdc22e1a-32b1-463f-8f14-d731e6268ff3","ios":"levelo://app?vid=cdc22e1a-32b1-463f-8f14-d731e6268ff3"},"vehicle_type_id":"4","last_reported":1728457774,"current_range_meters":6000,"station_id":"ce4bh312rcd13ifvqdj0","pricing_plan_id":"cebpf4jnsgd1na2vs0mg"},{"bike_id":"accf7309-56b8-43f7-9e77-1d6a34bebbbf","system_id":"levelo_inurba_marseille","lat":43.25586,"lon":5.38248,"is_reserved":false,"is_disabled":false,"rental_uris":{"android":"levelo://app?vid=accf7309-56b8-43f7-9e77-1d6a34bebbbf","ios":"levelo://app?vid=accf7309-56b8-43f7-9e77-1d6a34bebbbf"},"vehicle_type_id":"4","last_reported":1728457774,"current_range_meters":31200,"station_id":"ce4bhih2rcd13ifvqfs0","pricing_plan_id":"cebpf4jnsgd1na2vs0mg"},{"bike_id":"6b8cf61f-8c6d-40ab-b67f-08e2e8eebf79","system_id":"levelo_inurba_marseille","lat":43.24081,"lon":5.37751,"is_reserved":false,"is_disabled":false,"rental_uris":{"android":"levelo://app?vid=6b8cf61f-8c6d-40ab-b67f-08e2e8eebf79","ios":"levelo://app?vid=6b8cf61f-8c6d-40ab-b67f-08e2e8eebf79"},"vehicle_type_id":"4","last_reported":1728457774,"current_range_meters":30000,"station_id":"ce4bhnp2rcd13ifvqgvg","pricing_plan_id":"cebpf4jnsgd1na2vs0mg"},{"bike_id":"d560bd78-04a6-485a-8514-94eaa575b388","system_id":"levelo_inurba_marseille","lat":43.25579,"lon":5.38246,"is_reserved":false,"is_disabled":false,"rental_uris":{"android":"levelo://app?vid=d560bd78-04a6-485a-8514-94eaa575b388","ios":"levelo://app?vid=d560bd78-04a6-485a-8514-94eaa575b388"},"vehicle_type_id":"4","last_reported":1728457774,"current_range_meters":37600,"station_id":"ce4bhih2rcd13ifvqfs0","pricing_plan_id":"cebpf4jnsgd1na2vs0mg"},{"bike_id":"5b2246ec-f6dd-4401-8345-406e52c29469","system_id":"levelo_inurba_marseille","lat":43.2418,"lon":5.39726,"is_reserved":false,"is_disabled":false,"rental_uris":{"android":"levelo://app?vid=5b2246ec-f6dd-4401-8345-406e52c29469","ios":"levelo://app?vid=5b2246ec-f6dd-4401-8345-406e52c29469"},"vehicle_type_id":"4","last_reported":1728457774,"current_range_meters":27600,"station_id":"ce4bhn12rcd13ifvqgpg","pricing_plan_id":"cebpf4jnsgd1na2vs0mg"},{"bike_id":"f7c538b0-a2ec-4791-ac93-b6323138bb87","system_id":"levelo_inurba_marseille","lat":43.30539,"lon":5.38435,"is_reserved":false,"is_disabled":false,"rental_uris":{"android":"levelo://app?vid=f7c538b0-a2ec-4791-ac93-b6323138bb87","ios":"levelo://app?vid=f7c538b0-a2ec-4791-ac93-b6323138bb87"},"vehicle_type_id":"4","last_reported":1728457774,"current_range_meters":38000,"station_id":"ce4bgg92rcd13ifvqb30","pricing_plan_id":"cebpf4jnsgd1na2vs0mg"},{"bike_id":"b8b9cdc9-e7eb-451a-a545-d64116bfd06a","system_id":"levelo_inurba_marseille","lat":43.30189,"lon":5.36632,"is_reserved":false,"is_disabled":false,"rental_uris":{"android":"levelo://app?vid=b8b9cdc9-e7eb-451a-a545-d64116bfd06a","ios":"levelo://app?vid=b8b9cdc9-e7eb-451a-a545-d64116bfd06a"},"vehicle_type_id":"4","last_reported":1728457774,"current_range_meters":38400,"station_id":"ce4bgrh2rcd13ifvqc8g","pricing_plan_id":"cebpf4jnsgd1na2vs0mg"},{"bike_id":"91fd35ec-ee42-440b-9f24-29f241ed5b33","system_id":"levelo_inurba_marseille","lat":43.30467,"lon":5.36528,"is_reserved":false,"is_disabled":false,"rental_uris":{"android":"levelo://app?vid=91fd35ec-ee42-440b-9f24-29f241ed5b33","ios":"levelo://app?vid=91fd35ec-ee42-440b-9f24-29f241ed5b33"},"vehicle_type_id":"4","last_reported":1728457774,"current_range_meters":38800,"station_id":"","pricing_plan_id":"cebpf4jnsgd1na2vs0mg"},{"bike_id":"17034ce5-141d-4056-b797-342550a6fbf3","system_id":"levelo_inurba_marseille","lat":43.26206,"lon":5.37927,"is_reserved":false,"is_disabled":false,"rental_uris":{"android":"levelo://app?vid=17034ce5-141d-4056-b797-342550a6fbf3","ios":"levelo://app?vid=17034ce5-141d-4056-b797-342550a6fbf3"},"vehicle_type_id":"4","last_reported":1728457774,"current_range_meters":25200,"station_id":"ce4bhjp2rcd13ifvqg90","pricing_plan_id":"cebpf4jnsgd1na2vs0mg"},{"bike_id":"70704a32-a2b3-46a1-b2bb-1c6687a3fc11","system_id":"levelo_inurba_marseille","lat":43.30552,"lon":5.36563,"is_reserved":false,"is_disabled":false,"rental_uris":{"android":"levelo://app?vid=70704a32-a2b3-46a1-b2bb-1c6687a3fc11","ios":"levelo://app?vid=70704a32-a2b3-46a1-b2bb-1c6687a3fc11"},"vehicle_type_id":"4","last_reported":1728457774,"current_range_meters":38800,"station_id":"ce4bgs12rcd13ifvqcag","pricing_plan_id":"cebpf4jnsgd1na2vs0mg"},