{"last_updated":1746900750,"ttl":60,"version":"2.2","data":{"bikes":[{"bike_id":"aa68f99b-9807-4bfc-b067-486136118cf7","system_id":"levelo_inurba_marseille","lat":43.28406,"lon":5.37513,"is_reserved":false,"is_disabled":false,"rental_uris":{"android":"levelo://app?vid=aa68f99b-9807-4bfc-b067-486136118cf7","ios":"levelo://app?vid=aa68f99b-9807-4bfc-b067-486136118cf7"},"vehicle_type_id":"4","last_reported":1746900750,"current_range_meters":2800,"station_id":"ce4bh412rcd13ifvqds0","pricing_plan_id":"cebpf4jnsgd1na2vs0mg"},{"bike_id":"a025a606-93a6-4dfc-8f4a-4308cc15a65b","system_id":"levelo_inurba_marseille","lat":43.292761,"lon":5.368448,"is_reserved":false,"is_disabled":false,"rental_uris":{"android":"levelo://app?vid=a025a606-93a6-4dfc-8f4a-4308cc15a65b","ios":"levelo://app?vid=a025a606-93a6-4dfc-8f4a-4308cc15a65b"},"vehicle_type_id":"4","last_reported":1746900750,"current_range_meters":2800,"station_id":"ce4bhbp2rcd13ifvqesg","pricing_plan_id":"cebpf4jnsgd1na2vs0mg"},{"bike_id":"733d7a97-b2ec-433a-9eeb-4d4e7964a96d","system_id":"levelo_inurba_marseille","lat":43.27201,"lon":5.39179,"is_reserved":false,"is_disabled":false,"rental_uris":{"android":"levelo://app?vid=733d7a97-b2ec-433a-9eeb-4d4e7964a96d","ios":"levelo://app?vid=733d7a97-b2ec-433a-9eeb-4d4e7964a96d"},"vehicle_type_id":"4","last_reported":1746900750,"current_range_meters":2000,"station_id":"ce4bhhp2rcd13ifvqfm0","pricing_plan_id":"cebpf4jnsgd1na2vs0mg"},{"bike_id":"d03afb30-ead0-4a16-b6ff-60908c1b0031","system_id":"levelo_inurba_marseille","lat":43.23154,"lon":5.43704,"is_reserved":false,"is_disabled":false,"rental_uris":{"android":"levelo://app?vid=d03afb30-ead0-4a16-b6ff-60908c1b0031","ios":"levelo://app?vid=d03afb30-ead0-4a16-b6ff-60908c1b0031"},"vehicle_type_id":"4","last_reported":1746900750,"current_range_meters":2000,"station_id":"ce4bhmp2rcd13ifvqgog","pricing_plan_id":"cebpf4jnsgd1na2vs0mg"},{"bike_id":"2e2a6b7e-46b2-4616-bd49-09d1ae249f84","system_id":"levelo_inurba_marseille","lat":43.29972,"lon":5.37173,"is_reserved":false,"is_disabled":false,"rental_uris":{"android":"levelo://app?vid=2e2a6b7e-46b2-4616-bd49-09d1ae249f84","ios":"levelo://app?vid=2e2a6b7e-46b2-4616-bd49-09d1ae249f84"},"vehicle_type_id":"4","last_reported":1746900750,"current_range_meters":2800,"station_id":"ce4bgr92rcd13ifvqc7g","pricing_plan_id":"cebpf4jnsgd1na2vs0mg"},{"bike_id":"5b576bbc-8da8-457a-a021-1e2980f9edf3","system_id":"levelo_inurba_marseille","lat":43.27205,"lon":5.39177,"is_reserved":false,"is_disabled":false,"rental_uris":{"android":"levelo://app?vid=5b576bbc-8da8-457a-a021-1e2980f9edf3","ios":"levelo://app?vid=5b576bbc-8da8-457a-a021-1e2980f9edf3"},"vehicle_type_id":"4","last_reported":1746900750,"current_range_meters":2800,"station_id":"ce4bhhp2rcd13ifvqfm0","pricing_plan_id":"cebpf4jnsgd1na2vs0mg"},{"bike_id":"cfb29694-b380-4ed8-8e75-d1f5847fab72","system_id":"levelo_inurba_marseille","lat":43.27605,"lon":5.361123,"is_reserved":false,"is_disabled":false,"rental_uris":{"android":"levelo://app?vid=cfb29694-b380-4ed8-8e75-d1f5847fab72","ios":"levelo://app?vid=cfb29694-b380-4ed8-8e75-d1f5847fab72"},"vehicle_type_id":"4","last_reported":1746900750,"current_range_meters":2800,"station_id":"ce4bgj92rcd13ifvqbe0","pricing_plan_id":"cebpf4jnsgd1na2vs0mg"},{"bike_id":"9ed4f4c8-2897-477e-b7e2-b52b25b67558","system_id":"levelo_inurba_marseille","lat":43.30527,"lon":5.3672,"is_reserved":false,"is_disabled":false,"rental_uris":{"android":"levelo://app?vid=9ed4f4c8-2897-477e-b7e2-b52b25b67558","ios":"levelo://app?vid=9ed4f4c8-2897-477e-b7e2-b52b25b67558"},"vehicle_type_id":"4","last_reported":1746900750,"current_range_meters":2800,"station_id":"ce4bgrp2rcd13ifvqc9g","pricing_plan_id":"cebpf4jnsgd1na2vs0mg"},{"bike_id":"c644274b-ca78-4720-9149-ba844b7e12f2","system_id":"levelo_inurba_marseille","lat":43.27573,"lon":5.384369,"is_reserved":false,"is_disabled":false,"rental_uris":{"android":"levelo://app?vid=c644274b-ca78-4720-9149-ba844b7e12f2","ios":"levelo://app?vid=c644274b-ca78-4720-9149-ba844b7e12f2"},"vehicle_type_id":"4","last_reported":1746900750,"current_range_meters":2800,"station_id":"ce4bhh92rcd13ifvqfi0","pricing_plan_id":"cebpf4jnsgd1na2vs0mg"},{"bike_id":"0e3979e5-e49f-4e45-b65d-ceb7e9327d15","system_id":"levelo_inurba_marseille","lat":43.32332,"lon":5.4062,"is_reserved":false,"is_disabled":false,"rental_uris":{"android":"levelo://app?vid=0e3979e5-e49f-4e45-b65d-ceb7e9327d15","ios":"levelo://app?vid=0e3979e5-e49f-4e45-b65d-ceb7e9327d15"},"vehicle_type_id":"4","last_reported":1746900750,"current_range_meters":2800,"station_id":"ce4bhq92rcd13ifvqhjg","pricing_plan_id":"cebpf4jnsgd1na2vs0mg"},{"bike_id":"23641817-c01f-4ffd-9aba-7791a8835be0","system_id":"levelo_inurba_marseille","lat":43.22496,"lon":5.34773,"is_reserved":false,"is_disabled":true,"rental_uris":{"android":"levelo://app?vid=23641817-c01f-4ffd-9aba-7791a8835be0","ios":"levelo://app?vid=23641817-c01f-4ffd-9aba-7791a8835be0"},"vehicle_type_id":"4","last_reported":1746900750,"current_range_meters":2800,"station_id":"st_cvj5dfep6f1abm77gieg","pricing_plan_id":"cebpf4jnsgd1na2vs0mg"},{"bike_id":"1e99064e-484f-4401-88f4-3b76eb2d766b","system_id":"levelo_inurba_marseille","lat":43.28125,"lon":5.42641,"is_reserved":false,"is_disabled":false,"rental_uris":{"android":"levelo://app?vid=1e99064e-484f-4401-88f4-3b76eb2d766b","ios":"levelo://app?vid=1e99064e-484f-4401-88f4-3b76eb2d766b"},"vehicle_type_id":"4","last_reported":1746900750,"current_range_meters":2800,"station_id":"ce4bhnh2rcd13ifvqgug","pricing_plan_id":"cebpf4jnsgd1na2vs0mg"},{"bike_id":"15fca025-fd51-41e4-8e1f-3ced79eafefb","system_id":"levelo_inurba_marseille","lat":43.27992,"lon":5.40007,"is_reserved":false,"is_disabled":false,"rental_uris":{"android":"levelo://app?vid=15fca025-fd51-41e4-8e1f-3ced79eafefb","ios":"levelo://app?vid=15fca025-fd51-41e4-8e1f-3ced79eafefb"},"vehicle_type_id":"4","last_reported":1746900750,"current_range_meters":3200,"station_id":"ce4bho92rcd13ifvqh4g","pricing_plan_id":"cebpf4jnsgd1na2vs0mg"},{"bike_id":"0c0adfcb-b025-461e-bd19-3bd83d86b3b1","system_id":"levelo_inurba_marseille","lat":43.26782,"lon":5.3941,"is_reserved":false,"is_disabled":false,"rental_uris":{"android":"levelo://app?vid=0c0adfcb-b025-461e-bd19-3bd83d86b3b1","ios":"levelo://app?vid=0c0adfcb-b025-461e-bd19-3bd83d86b3b1"},"vehicle_type_id":"4","last_reported":1746900750,"current_range_meters":3200,"station_id":"ce4bhh12rcd13ifvqfg0","pricing_plan_id":"cebpf4jnsgd1na2vs0mg"},{"bike_id":"0b2e78e9-9d0a-4e87-8982-a10bd7146ee7","system_id":"levelo_inurba_marseille","lat":43.30419,"lon":5.39747,"is_reserved":false,"is_disabled":false,"rental_uris":{"android":"levelo://app?vid=0b2e78e9-9d0a-4e87-8982-a10bd7146ee7","ios":"levelo://app?vid=0b2e78e9-9d0a-4e87-8982-a10bd7146ee7"},"vehicle_type_id":"4","last_reported":1746900750,"current_range_meters":3200,"station_id":"ce4bh092rcd13ifvqd20","pricing_plan_id":"cebpf4jnsgd1na2vs0mg"},{"bike_id":"16d6522e-47a1-4bd5-8bca-2cd4ee73477d","system_id":"levelo_inurba_marseille","lat":43.24811,"lon":5.37466,"is_reserved":false,"is_disabled":false,"rental_uris":{"android":"levelo://app?vid=16d6522e-47a1-4bd5-8bca-2cd4ee73477d","ios":"levelo://app?vid=16d6522e-47a1-4bd5-8bca-2cd4ee73477d"},"vehicle_type_id":"4","last_reported":1746900750,"current_range_meters":3200,"station_id":"ce4bhgh2rcd13ifvqfb0","pricing_plan_id":"cebpf4jnsgd1na2vs0mg"},{"bike_id":"5f9d3696-5eb7-462c-ba34-63e4db25308a","system_id":"levelo_inurba_marseille","lat":43.27202,"lon":5.39194,"is_reserved":false,"is_disabled":false,"rental_uris":{"android":"levelo://app?vid=5f9d3696-5eb7-462c-ba34-63e4db25308a","ios":"levelo://app?vid=5f9d3696-5eb7-462c-ba34-63e4db25308a"},"vehicle_type_id":"4","last_reported":1746900750,"current_range_meters":3200,"station_id":"ce4bhhp2rcd13ifvqfm0","pricing_plan_id":"cebpf4jnsgd1na2vs0mg"},{"bike_id":"95205d68-325c-4ca9-bbcb-e289596f5bc9","system_id":"levelo_inurba_marseille","lat":43.29259,"lon":5.37626,"is_reserved":false,"is_disabled":false,"rental_uris":{"android":"levelo://app?vid=95205d68-325c-4ca9-bbcb-e289596f5bc9","ios":"levelo://app?vid=95205d68-325c-4ca9-bbcb-e289596f5bc9"},"vehicle_type_id":"4","last_reported":1746900750,"current_range_meters":3600,"station_id":"ce4bgi12rcd13ifvqb80","pricing_plan_id":"cebpf4jnsgd1na2vs0mg"},{"bike_id":"1b6cb799-c1ce-4c99-a96a-13a5180313fb","system_id":"levelo_inurba_marseille","lat":43.28034,"lon":5.36938,"is_reserved":false,"is_disabled":false,"rental_uris":{"android":"levelo://app?vid=1b6cb799-c1ce-4c99-a96a-13a5180313fb","ios":"levelo://app?vid=1b6cb799-c1ce-4c99-a96a-13a5180313fb"},"vehicle_type_id":"4","last_reported":1746900750,"current_range_meters":3600,"station_id":"ce4bha12rcd13ifvqef0","pricing_plan_id":"cebpf4jnsgd1na2vs0mg"},{"bike_id":"cb0c79cc-72cd-48a9-ad0d-e53ead155551","system_id":"levelo_inurba_marseille","lat":43.27374,"lon":5.36258,"is_reserved":false,"is_disabled":false,"rental_uris":{"android":"levelo://app?vid=cb0c79cc-72cd-48a9-ad0d-e53ead155551","ios":"levelo://app?vid=cb0c79cc-72cd-48a9-ad0d-e53ead155551"},"vehicle_type_id":"4","last_reported":1746900750,"current_range_meters":3600,"station_id":"ce4bhbh2rcd13ifvqeo0","pricing_plan_id":"cebpf4jnsgd1na2vs0mg"},{"bike_id":"48f53d2a-fb77-42c5-80ec-5c5ac2aaeda1","system_id":"levelo_inurba_marseille","lat":43.27662,"lon":5.38881,"is_reserved":false,"is_disabled":false,"rental_uris":{"android":"levelo://app?vid=48f53d2a-fb77-42c5-80ec-5c5ac2aaeda1","ios":"levelo://app?vid=48f53d2a-fb77-42c5-80ec-5c5ac2aaeda1"},"vehicle_type_id":"4","last_reported":1746900750,"current_range_meters":3200,"station_id":"ce4bhi12rcd13ifvqfo0","pricing_plan_id":"cebpf4jnsgd1na2vs0mg"},{"bike_id":"c8fabd27-d2f6-4928-82ac-d9da7c69abc6","system_id":"levelo_inurba_marseille","lat":43.29798,"lon":5.38103,"is_reserved":false,"is_disabled":false,"rental_uris":{"android":"levelo://app?vid=c8fabd27-d2f6-4928-82ac-d9da7c69abc6","ios":"levelo://app?vid=c8fabd27-d2f6-4928-82ac-d9da7c69abc6"},"vehicle_type_id":"4","last_reported":1746900750,"current_range_meters":3600,"station_id":"ce4bgip2rcd13ifvqbb0","pricing_plan_id":"cebpf4jnsgd1na2vs0mg"},{"bike_id":"caf9033d-5f00-49c3-b1ee-1328b62008dc","system_id":"levelo_inurba_marseille","lat":43.33593,"lon":5.42774,"is_reserved":false,"is_disabled":false,"rental_uris":{"android":"levelo://app?vid=caf9033d-5f00-49c3-b1ee-1328b62008dc","ios":"levelo://app?vid=caf9033d-5f00-49c3-b1ee-1328b62008dc"},"vehicle_type_id":"4","last_reported":1746900750,"current_range_meters":3600,"station_id":"","pricing_plan_id":"cebpf4jnsgd1na2vs0mg"},{"bike_id":"34334fad-f669-4e9d-9e42-0861d2c5dd47","system_id":"levelo_inurba_marseille","lat":43.2815,"lon":5.42636,"is_reserved":false,"is_disabled":false,"rental_uris":{"android":"levelo://app?vid=34334fad-f669-4e9d-9e42-0861d2c5dd47","ios":"levelo://app?vid=34334fad-f669-4e9d-9e42-0861d2c5dd47"},"vehicle_type_id":"4","last_reported":1746900750,"current_range_meters":3600,"station_id":"ce4bhnh2rcd13ifvqgug","pricing_plan_id":"cebpf4jnsgd1na2vs0mg"},{"bike_id":"552a1969-8340-490a-8ba9-7f42d5c36e7b","system_id":"levelo_inurba_marseille","lat":43.296167,"lon":5.373279,"is_reserved":false,"is_disabled":false,"rental_uris":{"android":"levelo://app?vid=552a1969-8340-490a-8ba9-7f42d5c36e7b","ios":"levelo://app?vid=552a1969-8340-490a-8ba9-7f42d5c36e7b"},"vehicle_type_id":"4","last_reported":1746900750,"current_range_meters":3600,"station_id":"ce4bgop2rcd13ifvqc1g","pricing_plan_id":"cebpf4jnsgd1na2vs0mg"},{"bike_id":"f0a8c94a-9df7-4763-bbdc-619483b0402d","system_id":"levelo_inurba_marseille","lat":43.23178,"lon":5.39994,"is_reserved":false,"is_disabled":false,"rental_uris":{"android":"levelo://app?vid=f0a8c94a-9df7-4763-bbdc-619483b0402d","ios":"levelo://app?vid=f0a8c94a-9df7-4763-bbdc-619483b0402d"},"vehicle_type_id":"4","last_reported":1746900750,"current_range_meters":4000,"station_id":"ce4bhn12rcd13ifvqgqg","pricing_plan_id":"cebpf4jnsgd1na2vs0mg"},{"bike_id":"56fca4f5-bc40-4bef-9509-e36c5716931c","system_id":"levelo_inurba_marseille","lat":43.26028,"lon":5.37546,"is_reserved":false,"is_disabled":false,"rental_uris":{"android":"levelo://app?vid=56fca4f5-bc40-4bef-9509-e36c5716931c","ios":"levelo://app?vid=56fca4f5-bc40-4bef-9509-e36c5716931c"},"vehicle_type_id":"4","last_reported":1746900750,"current_range_meters":4000,"station_id":"ce4bhgh2rcd13ifvqfa0","pricing_plan_id":"cebpf4jnsgd1na2vs0mg"},{"bike_id":"9780a415-b5ab-45c2-9098-7fb55a48b248","system_id":"levelo_inurba_marseille","lat":43.29258,"lon":5.38438,"is_reserved":false,"is_disabled":false,"rental_uris":{"android":"levelo://app?vid=9780a415-b5ab-45c2-9098-7fb55a48b248","ios":"levelo://app?vid=9780a415-b5ab-45c2-9098-7fb55a48b248"},"vehicle_type_id":"4","last_reported":1746900750,"current_range_meters":4000,"station_id":"ce4bh692rcd13ifvqea0","pricing_plan_id":"cebpf4jnsgd1na2vs0mg"},{"bike_id":"be95cc1d-dbb6-45dc-a717-7a09f83ca254","system_id":"levelo_inurba_marseille","lat":43.25865,"lon":5.39895,"is_reserved":false,"is_disabled":false,"rental_uris":{"android":"levelo://app?vid=be95cc1d-dbb6-45dc-a717-7a09f83ca254","ios":"levelo://app?vid=be95cc1d-dbb6-45dc-a717-7a09f83ca254"},"vehicle_type_id":"4","last_reported":1746900750,"current_range_meters":4000,"station_id":"ce4bhl92rcd13ifvqghg","pricing_plan_id":"cebpf4jnsgd1na2vs0mg"},{"bike_id":"3c4fb990-ec83-458f-909a-3ccae849ad92","system_id":"levelo_inurba_marseille","lat":43.29267,"lon":5.38435,"is_reserved":false,"is_disabled":false,"rental_uris":{"android":"levelo://app?vid=3c4fb990-ec83-458f-909a-3ccae849ad92","ios":"levelo://app?vid=3c4fb990-ec83-458f-909a-3ccae849ad92"},"vehicle_type_id":"4","last_reported":1746900750,"current_range_meters":4000,"station_id":"ce4bh692rcd13ifvqea0","pricing_plan_id":"cebpf4jnsgd1na2vs0mg"},{"bike_id":"e50fe9f2-1300-4737-a617-c8b2e07a6df3","system_id":"levelo_inurba_marseille","lat":43.27214,"lon":5.3917,"is_reserved":false,"is_disabled":false,"rental_uris":{"android":"levelo://app?vid=e50fe9f2-1300-4737-a617-c8b2e07a6df3","ios":"levelo://app?vid=e50fe9f2-1300-4737-a617-c8b2e07a6df3"},"vehicle_type_id":"4","last_reported":1746900750,"current_range_meters":4000,"station_id":"ce4bhhp2rcd13ifvqfm0","pricing_plan_id":"cebpf4jnsgd1na2vs0mg"},{"bike_id":"430e166d-3110-4fcb-ad67-985e2d168d9e","system_id":"levelo_inurba_marseille","lat":43.29002,"lon":5.35617,"is_reserved":false,"is_disabled":false,"rental_uris":{"android":"levelo://app?vid=430e166d-3110-4fcb-ad67-985e2d168d9e","ios":"levelo://app?vid=430e166d-3110-4fcb-ad67-985e2d168d9e"},"vehicle_type_id":"4","last_reported":1746900750,"current_range_meters":4400,"station_id":"ce4bhb92rcd13ifvqen0","pricing_plan_id":"cebpf4jnsgd1na2vs0mg"},{"bike_id":"b9502ac7-2ed4-4b39-879b-b4b71766f766","system_id":"levelo_inurba_marseille","lat":43.29778,"lon":5.39338,"is_reserved":false,"is_disabled":false,"rental_uris":{"android":"levelo://app?vid=b9502ac7-2ed4-4b39-879b-b4b71766f766","ios":"levelo://app?vid=b9502ac7-2ed4-4b39-879b-b4b71766f766"},"vehicle_type_id":"4","last_reported":1746900750,"current_range_meters":4400,"station_id":"chh1huq6cuj3fo74tm60","pricing_plan_id":"cebpf4jnsgd1na2vs0mg"},{"bike_id":"2baaaf13-9839-41e4-a87c-3510bec22ee6","system_id":"levelo_inurba_marseille","lat":43.27215,"lon":5.39158,"is_reserved":false,"is_disabled":false,"rental_uris":{"android":"levelo://app?vid=2baaaf13-9839-41e4-a87c-3510bec22ee6","ios":"levelo://app?vid=2baaaf13-9839-41e4-a87c-3510bec22ee6"},"vehicle_type_id":"4","last_reported":1746900750,"current_range_meters":4000,"station_id":"ce4bhhp2rcd13ifvqfm0","pricing_plan_id":"cebpf4jnsgd1na2vs0mg"},{"bike_id":"d69c80ad-b04f-4021-9556-16e53a21adda","system_id":"levelo_inurba_marseille","lat":43.29906,"lon":5.36286,"is_reserved":false,"is_disabled":false,"rental_uris":{"android":"levelo://app?vid=d69c80ad-b04f-4021-9556-16e53a21adda","ios":"levelo://app?vid=d69c80ad-b04f-4021-9556-16e53a21adda"},"vehicle_type_id":"4","last_reported":1746900750,"current_range_meters":4400,"station_id":"","pricing_plan_id":"cebpf4jnsgd1na2vs0mg"},{"bike_id":"78bceae8-2be9-43d0-bb7a-d01a07eb8979","system_id":"levelo_inurba_marseille","lat":43.30083,"lon":5.39067,"is_reserved":false,"is_disabled":false,"rental_uris":{"android":"levelo://app?vid=78bceae8-2be9-43d0-bb7a-d01a07eb8979","ios":"levelo://app?vid=78bceae8-2be9-43d0-bb7a-d01a07eb8979"},"vehicle_type_id":"4","last_reported":1746900750,"current_range_meters":4800,"station_id":"ce4bh192rcd13ifvqdb0","pricing_plan_id":"cebpf4jnsgd1na2vs0mg"},{"bike_id":"b06a8386-a423-4776-a0a2-2a1079741be5","system_id":"levelo_inurba_marseille","lat":43.27545,"lon":5.38439,"is_reserved":false,"is_disabled":false,"rental_uris":{"android":"levelo://app?vid=b06a8386-a423-4776-a0a2-2a1079741be5","ios":"levelo://app?vid=b06a8386-a423-4776-a0a2-2a1079741be5"},"vehicle_type_id":"4","last_reported":1746900750,"current_range_meters":4800,"station_id":"ce4bhh92rcd13ifvqfi0","pricing_plan_id":"cebpf4jnsgd1na2vs0mg"},{"bike_id":"6bf59690-bfdb-45de-a1e9-08ec3001b1ff","system_id":"levelo_inurba_marseille","lat":43.25107,"lon":5.40326,"is_reserved":false,"is_disabled":false,"rental_uris":{"android":"levelo://app?vid=6bf59690-bfdb-45de-a1e9-08ec3001b1ff","ios":"levelo://app?vid=6bf59690-bfdb-45de-a1e9-08ec3001b1ff"},"vehicle_type_id":"4","last_reported":1746900750,"current_range_meters":4800,"station_id":"ce4bhlh2rcd13ifvqgig","pricing_plan_id":"cebpf4jnsgd1na2vs0mg"},{"bike_id":"cdb2c243-fbdb-4b62-a933-f403dfb8a580","system_id":"levelo_inurba_marseille","lat":43.27955,"lon":5.38767,"is_reserved":false,"is_disabled":false,"rental_uris":{"android":"levelo://app?vid=cdb2c243-fbdb-4b62-a933-f403dfb8a580","ios":"levelo://app?vid=cdb2c243-fbdb-4b62-a933-f403dfb8a580"},"vehicle_type_id":"4","last_reported":1746900750,"current_range_meters":4800,"station_id":"ce4bhg12rcd13ifvqf80","pricing_plan_id":"cebpf4jnsgd1na2vs0mg"},{"bike_id":"da9d3fd1-4908-49dc-bd80-d2a018b7c056","system_id":"levelo_inurba_marseille","lat":43.2841,"lon":5.34997,"is_reserved":false,"is_disabled":false,"rental_uris":{"android":"levelo://app?vid=da9d3fd1-4908-49dc-bd80-d2a018b7c056","ios":"levelo://app?vid=da9d3fd1-4908-49dc-bd80-d2a018b7c056"},"vehicle_type_id":"4","last_reported":1746900750,"current_range_meters":5600,"station_id":"ce4bhbh2rcd13ifvqepg","pricing_plan_id":"cebpf4jnsgd1na2vs0mg"},{"bike_id":"fa47f1bf-d293-4bca-acd1-3ba62fe98139","system_id":"levelo_inurba_marseille","lat":43.26806,"lon":5.40245,"is_reserved":false,"is_disabled":false,"rental_uris":{"android":"levelo://app?vid=fa47f1bf-d293-4bca-acd1-3ba62fe98139","ios":"levelo://app?vid=fa47f1bf-d293-4bca-acd1-3ba62fe98139"},"vehicle_type_id":"4","last_reported":1746900750,"current_range_meters":5600,"station_id":"ce501612rcd8frsf0b60","pricing_plan_id":"cebpf4jnsgd1na2vs0mg"},{"bike_id":"b1078fcf-fc0a-4573-b9f1-2ed4d22a586d","system_id":"levelo_inurba_marseille","lat":43.29793,"lon":5.40399,"is_reserved":false,"is_disabled":false,"rental_uris":{"android":"levelo://app?vid=b1078fcf-fc0a-4573-b9f1-2ed4d22a586d","ios":"levelo://app?vid=b1078fcf-fc0a-4573-b9f1-2ed4d22a586d"},"vehicle_type_id":"4","last_reported":1746900750,"current_range_meters":5600,"station_id":"ce4bh112rcd13ifvqd90","pricing_plan_id":"cebpf4jnsgd1na2vs0mg"},{"bike_id":"703147b6-8285-4f92-8468-d9c586ab62f3","system_id":"levelo_inurba_marseille","lat":43.30532,"lon":5.36722,"is_reserved":false,"is_disabled":false,"rental_uris":{"android":"levelo://app?vid=703147b6-8285-4f92-8468-d9c586ab62f3","ios":"levelo://app?vid=703147b6-8285-4f92-8468-d9c586ab62f3"},"vehicle_type_id":"4","last_reported":1746900750,"current_range_meters":5600,"station_id":"ce4bgrp2rcd13ifvqc9g","pricing_plan_id":"cebpf4jnsgd1na2vs0mg"},{"bike_id":"5f97d7c7-84b9-48af-b783-3f9c2ddffc38","system_id":"levelo_inurba_marseille","lat":43.29897,"lon":5.4367,"is_reserved":false,"is_disabled":false,"rental_uris":{"android":"levelo://app?vid=5f97d7c7-84b9-48af-b783-3f9c2ddffc38","ios":"levelo://app?vid=5f97d7c7-84b9-48af-b783-3f9c2ddffc38"},"vehicle_type_id":"4","last_reported":1746900750,"current_range_meters":6000,"station_id":"ce4bhpp2rcd13ifvqhfg","pricing_plan_id":"cebpf4jnsgd1na2vs0mg"},{"bike_id":"0dc52e4a-27c8-46bc-ac74-d0914cdf2355","system_id":"levelo_inurba_marseille","lat":43.28034,"lon":5.36941,"is_reserved":false,"is_disabled":false,"rental_uris":{"android":"levelo://app?vid=0dc52e4a-27c8-46bc-ac74-d0914cdf2355","ios":"levelo://app?vid=0dc52e4a-27c8-46bc-ac74-d0914cdf2355"},"vehicle_type_id":"4","last_reported":1746900750,"current_range_meters":6000,"station_id":"ce4bha12rcd13ifvqef0","pricing_plan_id":"cebpf4jnsgd1na2vs0mg"},{"bike_id":"4d7ad741-cf4a-4dd1-a158-74a0a127c907","system_id":"levelo_inurba_marseille","lat":43.2988,"lon":5.38913,"is_reserved":false,"is_disabled":false,"rental_uris":{"android":"levelo://app?vid=4d7ad741-cf4a-4dd1-a158-74a0a127c907","ios":"levelo://app?vid=4d7ad741-cf4a-4dd1-a158-74a0a127c907"},"vehicle_type_id":"4","last_reported":1746900750,"current_range_meters":6000,"station_id":"ce4bh392rcd13ifvqdl0","pricing_plan_id":"cebpf4jnsgd1na2vs0mg"},{"bike_id":"178fd83f-9f7b-4529-a00c-76dc3b24a252","system_id":"levelo_inurba_marseille","lat":43.27662,"lon":5.38879,"is_reserved":false,"is_disabled":false,"rental_uris":{"android":"levelo://app?vid=178fd83f-9f7b-4529-a00c-76dc3b24a252","ios":"levelo://app?vid=178fd83f-9f7b-4529-a00c-76dc3b24a252"},"vehicle_type_id":"4","last_reported":1746900750,"current_range_meters":5600,"station_id":"ce4bhi12rcd13ifvqfo0","pricing_plan_id":"cebpf4jnsgd1na2vs0mg"},{"bike_id":"c0cc05ce-914a-4007-a075-809e7bb46f89","system_id":"levelo_inurba_marseille","lat":43.31361,"lon":5.38494,"is_reserved":false,"is_disabled":false,"rental_uris":{"android":"levelo://app?vid=c0cc05ce-914a-4007-a075-809e7bb46f89","ios":"levelo://app?vid=c0cc05ce-914a-4007-a075-809e7bb46f89"},"vehicle_type_id":"4","last_reported":1746900750,"current_range_meters":6400,"station_id":"ce4bgt92rcd13ifvqcf0","pricing_plan_id":"cebpf4jnsgd1na2vs0mg"},{"bike_id":"34d1eb3e-427d-46c0-883f-aea85c6c0a7e","system_id":"levelo_inurba_marseille","lat":43.29709,"lon":5.36613,"is_reserved":false,"is_disabled":false,"rental_uris":{"android":"levelo://app?vid=34d1eb3e-427d-46c0-883f-aea85c6c0a7e","ios":"levelo://app?vid=34d1eb3e-427d-46c0-883f-aea85c6c0a7e"},"vehicle_type_id":"4","last_reported":1746900750,"current_range_meters":6000,"station_id":"ce4bgn12rcd13ifvqbt0","pricing_plan_id":"cebpf4jnsgd1na2vs0mg"},{"bike_id":"832ec58b-d299-44b1-bd83-9db6983f07e3","system_id":"levelo_inurba_marseille","lat":43.28845,"lon":5.35838,"is_reserved":false,"is_disabled":false,"rental_uris":{"android":"levelo://app?vid=832ec58b-d299-44b1-bd83-9db6983f07e3","ios":"levelo://app?vid=832ec58b-d299-44b1-bd83-9db6983f07e3"},"vehicle_type_id":"4","last_reported":1746900750,"current_range_meters":6800,"station_id":"","pricing_plan_id":"cebpf4jnsgd1na2vs0mg"},{"bike_id":"dbcff936-b1e5-44bd-86ff-f21ea9c311a4","system_id":"levelo_inurba_marseille","lat":43.27069,"lon":5.4228,"is_reserved":false,"is_disabled":false,"rental_uris":{"android":"levelo://app?vid=dbcff936-b1e5-44bd-86ff-f21ea9c311a4","ios":"levelo://app?vid=dbcff936-b1e5-44bd-86ff-f21ea9c311a4"},"vehicle_type_id":"4","last_reported":1746900750,"current_range_meters":6400,"station_id":"ce4bhk92rcd13ifvqgb0","pricing_plan_id":"cebpf4jnsgd1na2vs0mg"},{"bike_id":"bb999bd4-6d9d-4968-ac93-2afbd8df51f7","system_id":"levelo_inurba_marseille","lat":43.29415,"lon":5.38618,"is_reserved":false,"is_disabled":false,"rental_uris":{"android":"levelo://app?vid=bb999bd4-6d9d-4968-ac93-2afbd8df51f7","ios":"levelo://app?vid=bb999bd4-6d9d-4968-ac93-2afbd8df51f7"},"vehicle_type_id":"4","last_reported":1746900750,"current_range_meters":6400,"station_id":"ce4bh2h2rcd13ifvqdh0","pricing_plan_id":"cebpf4jnsgd1na2vs0mg"},{"bike_id":"20d62d3a-f9ce-444c-ad20-a24efcb0537e","system_id":"levelo_inurba_marseille","lat":43.3199,"lon":5.38156,"is_reserved":false,"is_disabled":true,"rental_uris":{"android":"levelo://app?vid=20d62d3a-f9ce-444c-ad20-a24efcb0537e","ios":"levelo://app?vid=20d62d3a-f9ce-444c-ad20-a24efcb0537e"},"vehicle_type_id":"4","last_reported":1746900750,"current_range_meters":6400,"station_id":"ce4bhr12rcd13ifvqhpg","pricing_plan_id":"cebpf4jnsgd1na2vs0mg"},{"bike_id":"f2fe92aa-1d45-4e99-bd1f-b8601a0aba0c","system_id":"levelo_inurba_marseille","lat":43.32088,"lon":5.36777,"is_reserved":false,"is_disabled":false,"rental_uris":{"android":"levelo://app?vid=f2fe92aa-1d45-4e99-bd1f-b8601a0aba0c","ios":"levelo://app?vid=f2fe92aa-1d45-4e99-bd1f-b8601a0aba0c"},"vehicle_type_id":"4","last_reported":1746900750,"current_range_meters":6800,"station_id":"ce4bhrh2rcd13ifvqhug","pricing_plan_id":"cebpf4jnsgd1na2vs0mg"},{"bike_id":"e07bb385-d023-433f-957f-9dc7148c55c5","system_id":"levelo_inurba_marseille","lat":43.29303,"lon":5.37443,"is_reserved":false,"is_disabled":false,"rental_uris":{"android":"levelo://app?vid=e07bb385-d023-433f-957f-9dc7148c55c5","ios":"levelo://app?vid=e07bb385-d023-433f-957f-9dc7148c55c5"},"vehicle_type_id":"4","last_reported":1746900750,"current_range_meters":6800,"station_id":"ce4bgi12rcd13ifvqb70","pricing_plan_id":"cebpf4jnsgd1na2vs0mg"},{"bike_id":"a8e9e5b5-d9ad-4bc4-9b2d-a0fb1421179a","system_id":"levelo_inurba_marseille","lat":43.23179,"lon":5.3999,"is_reserved":false,"is_disabled":false,"rental_uris":{"android":"levelo://app?vid=a8e9e5b5-d9ad-4bc4-9b2d-a0fb1421179a","ios":"levelo://app?vid=a8e9e5b5-d9ad-4bc4-9b2d-a0fb1421179a"},"vehicle_type_id":"4","last_reported":1746900750,"current_range_meters":6800,"station_id":"ce4bhn12rcd13ifvqgqg","pricing_plan_id":"cebpf4jnsgd1na2vs0mg"},{"bike_id":"98fe1777-8feb-4e35-91a7-dd2ea0b16538","system_id":"levelo_inurba_marseille","lat":43.2861,"lon":5.37052,"is_reserved":false,"is_disabled":false,"rental_uris":{"android":"levelo://app?vid=98fe1777-8feb-4e35-91a7-dd2ea0b16538","ios":"levelo://app?vid=98fe1777-8feb-4e35-91a7-dd2ea0b16538"},"vehicle_type_id":"4","last_reported":1746900750,"current_range_meters":7200,"station_id":"ce4bht12rcd13ifvqi60","pricing_plan_id":"cebpf4jnsgd1na2vs0mg"},{"bike_id":"46fe4b9c-95b9-4704-a375-2aa5e6cb9d42","system_id":"levelo_inurba_marseille","lat":43.26178,"lon":5.37443,"is_reserved":false,"is_disabled":false,"rental_uris":{"android":"levelo://app?vid=46fe4b9c-95b9-4704-a375-2aa5e6cb9d42","ios":"levelo://app?vid=46fe4b9c-95b9-4704-a375-2aa5e6cb9d42"},"vehicle_type_id":"4","last_reported":1746900750,"current_range_meters":7200,"station_id":"ce4bhgp2rcd13ifvqfc0","pricing_plan_id":"cebpf4jnsgd1na2vs0mg"},{"bike_id":"c15bff14-3ba0-4c1f-9adc-20f4d666200d","system_id":"levelo_inurba_marseille","lat":43.29511,"lon":5.39398,"is_reserved":false,"is_disabled":false,"rental_uris":{"android":"levelo://app?vid=c15bff14-3ba0-4c1f-9adc-20f4d666200d","ios":"levelo://app?vid=c15bff14-3ba0-4c1f-9adc-20f4d666200d"},"vehicle_type_id":"4","last_reported":1746900750,"current_range_meters":7200,"station_id":"ce4bh292rcd13ifvqdf0","pricing_plan_id":"cebpf4jnsgd1na2vs0mg"},{"bike_id":"350acefc-1b5e-46ba-874c-91e5db1019d3","system_id":"levelo_inurba_marseille","lat":43.26939,"lon":5.38638,"is_reserved":false,"is_disabled":false,"rental_uris":{"android":"levelo://app?vid=350acefc-1b5e-46ba-874c-91e5db1019d3","ios":"levelo://app?vid=350acefc-1b5e-46ba-874c-91e5db1019d3"},"vehicle_type_id":"4","last_reported":1746900750,"current_range_meters":7200,"station_id":"ce4bhh92rcd13ifvqfh0","pricing_plan_id":"cebpf4jnsgd1na2vs0mg"},{"bike_id":"3d57773a-9442-452e-8e02-f9ab327ea4f8","system_id":"levelo_inurba_marseille","lat":43.29265,"lon":5.38425,"is_reserved":false,"is_disabled":false,"rental_uris":{"android":"levelo://app?vid=3d57773a-9442-452e-8e02-f9ab327ea4f8","ios":"levelo://app?vid=3d57773a-9442-452e-8e02-f9ab327ea4f8"},"vehicle_type_id":"4","last_reported":1746900750,"current_range_meters":7200,"station_id":"ce4bh692rcd13ifvqea0","pricing_plan_id":"cebpf4jnsgd1na2vs0mg"},{"bike_id":"83207294-bb98-40d5-8baf-fe79fd4d6f5e","system_id":"levelo_inurba_marseille","lat":43.27834,"lon":5.39204,"is_reserved":false,"is_disabled":false,"rental_uris":{"android":"levelo://app?vid=83207294-bb98-40d5-8baf-fe79fd4d6f5e","ios":"levelo://app?vid=83207294-bb98-40d5-8baf-fe79fd4d6f5e"},"vehicle_type_id":"4","last_reported":1746900750,"current_range_meters":7200,"station_id":"ce4bhjp2rcd13ifvqga0","pricing_plan_id":"cebpf4jnsgd1na2vs0mg"},{"bike_id":"da407118-42de-443a-8f13-62b73f3ed9ce","system_id":"levelo_inurba_marseille","lat":43.298,"lon":5.38095,"is_reserved":false,"is_disabled":false,"rental_uris":{"android":"levelo://app?vid=da407118-42de-443a-8f13-62b73f3ed9ce","ios":"levelo://app?vid=da407118-42de-443a-8f13-62b73f3ed9ce"},"vehicle_type_id":"4","last_reported":1746900750,"current_range_meters":7200,"station_id":"ce4bgip2rcd13ifvqbb0","pricing_plan_id":"cebpf4jnsgd1na2vs0mg"},{"bike_id":"ba0d7966-e179-4330-981f-b6b9afadb150","system_id":"levelo_inurba_marseille","lat":43.27829,"lon":5.39212,"is_reserved":false,"is_disabled":false,"rental_uris":{"android":"levelo://app?vid=ba0d7966-e179-4330-981f-b6b9afadb150","ios":"levelo://app?vid=ba0d7966-e179-4330-981f-b6b9afadb150"},"vehicle_type_id":"4","last_reported":1746900750,"current_range_meters":8000,"station_id":"ce4bhjp2rcd13ifvqga0","pricing_plan_id":"cebpf4jnsgd1na2vs0mg"},{"bike_id":"2a90fdc1-e478-45d4-ba5e-92f6cd1eab2f","system_id":"levelo_inurba_marseille","lat":43.26212,"lon":5.37435,"is_reserved":false,"is_disabled":false,"rental_uris":{"android":"levelo://app?vid=2a90fdc1-e478-45d4-ba5e-92f6cd1eab2f","ios":"levelo://app?vid=2a90fdc1-e478-45d4-ba5e-92f6cd1eab2f"},"vehicle_type_id":"4","last_reported":1746900750,"current_range_meters":8000,"station_id":"ce4bhgp2rcd13ifvqfc0","pricing_plan_id":"cebpf4jnsgd1na2vs0mg"},{"bike_id":"93a73efc-9cab-458c-8bde-c455d93bf2be","system_id":"levelo_inurba_marseille","lat":43.25822,"lon":5.39435,"is_reserved":false,"is_disabled":false,"rental_uris":{"android":"levelo://app?vid=93a73efc-9cab-458c-8bde-c455d93bf2be","ios":"levelo://app?vid=93a73efc-9cab-458c-8bde-c455d93bf2be"},"vehicle_type_id":"4","last_reported":1746900750,"current_range_meters":8000,"station_id":"ce4bhip2rcd13ifvqft0","pricing_plan_id":"cebpf4jnsgd1na2vs0mg"},{"bike_id":"636ffb93-3665-4662-8f3f-61644e5691e2","system_id":"levelo_inurba_marseille","lat":43.274211,"lon":5.394177,"is_reserved":false,"is_disabled":false,"rental_uris":{"android":"levelo://app?vid=636ffb93-3665-4662-8f3f-61644e5691e2","ios":"levelo://app?vid=636ffb93-3665-4662-8f3f-61644e5691e2"},"vehicle_type_id":"4","last_reported":1746900750,"current_range_meters":8400,"station_id":"ce4bhdp2rcd13ifvqf20","pricing_plan_id":"cebpf4jnsgd1na2vs0mg"},{"bike_id":"f0440e03-793e-40d1-9c9c-c2fd524a4014","system_id":"levelo_inurba_marseille","lat":43.26197,"lon":5.37934,"is_reserved":false,"is_disabled":false,"rental_uris":{"android":"levelo://app?vid=f0440e03-793e-40d1-9c9c-c2fd524a4014","ios":"levelo://app?vid=f0440e03-793e-40d1-9c9c-c2fd524a4014"},"vehicle_type_id":"4","last_reported":1746900750,"current_range_meters":8000,"station_id":"ce4bhjp2rcd13ifvqg90","pricing_plan_id":"cebpf4jnsgd1na2vs0mg"},{"bike_id":"19616c43-0abe-4907-b085-d980809cf2d8","system_id":"levelo_inurba_marseille","lat":43.2962,"lon":5.37712,"is_reserved":false,"is_disabled":false,"rental_uris":{"android":"levelo://app?vid=19616c43-0abe-4907-b085-d980809cf2d8","ios":"levelo://app?vid=19616c43-0abe-4907-b085-d980809cf2d8"},"vehicle_type_id":"4","last_reported":1746900750,"current_range_meters":8400,"station_id":"ce4bgi92rcd13ifvqb90","pricing_plan_id":"cebpf4jnsgd1na2vs0mg"},{"bike_id":"e1d9212d-5e75-4b1a-b9bc-3d8b847cbf3b","system_id":"levelo_inurba_marseille","lat":43.30641,"lon":5.40105,"is_reserved":false,"is_disabled":false,"rental_uris":{"android":"levelo://app?vid=e1d9212d-5e75-4b1a-b9bc-3d8b847cbf3b","ios":"levelo://app?vid=e1d9212d-5e75-4b1a-b9bc-3d8b847cbf3b"},"vehicle_type_id":"4","last_reported":1746900750,"current_range_meters":8400,"station_id":"ce4bh112rcd13ifvqda0","pricing_plan_id":"cebpf4jnsgd1na2vs0mg"},{"bike_id":"12d815ec-3239-4e4c-bd25-8429c99df31e","system_id":"levelo_inurba_marseille","lat":43.25106,"lon":5.40321,"is_reserved":false,"is_disabled":false,"rental_uris":{"android":"levelo://app?vid=12d815ec-3239-4e4c-bd25-8429c99df31e","ios":"levelo://app?vid=12d815ec-3239-4e4c-bd25-8429c99df31e"},"vehicle_type_id":"4","last_reported":1746900750,"current_range_meters":8400,"station_id":"ce4bhlh2rcd13ifvqgig","pricing_plan_id":"cebpf4jnsgd1na2vs0mg"},{"bike_id":"e5ff9b54-3e87-4c24-8321-a4a4e8070d08","system_id":"levelo_inurba_marseille","lat":43.29783,"lon":5.39342,"is_reserved":false,"is_disabled":false,"rental_uris":{"android":"levelo://app?vid=e5ff9b54-3e87-4c24-8321-a4a4e8070d08","ios":"levelo://app?vid=e5ff9b54-3e87-4c24-8321-a4a4e8070d08"},"vehicle_type_id":"4","last_reported":1746900750,"current_range_meters":8800,"station_id":"chh1huq6cuj3fo74tm60","pricing_plan_id":"cebpf4jnsgd1na2vs0mg"},{"bike_id":"623c5c00-f00c-47ab-b6e7-0e8f64ecda1a","system_id":"levelo_inurba_marseille","lat":43.27209,"lon":5.39176,"is_reserved":false,"is_disabled":false,"rental_uris":{"android":"levelo://app?vid=623c5c00-f00c-47ab-b6e7-0e8f64ecda1a","ios":"levelo://app?vid=623c5c00-f00c-47ab-b6e7-0e8f64ecda1a"},"vehicle_type_id":"4","last_reported":1746900750,"current_range_meters":8400,"station_id":"ce4bhhp2rcd13ifvqfm0","pricing_plan_id":"cebpf4jnsgd1na2vs0mg"},{"bike_id":"3e4b3d51-0941-4fd3-8a16-c83388f7c14c","system_id":"levelo_inurba_marseille","lat":43.284768,"lon":5.391898,"is_reserved":false,"is_disabled":false,"rental_uris":{"android":"levelo://app?vid=3e4b3d51-0941-4fd3-8a16-c83388f7c14c","ios":"levelo://app?vid=3e4b3d51-0941-4fd3-8a16-c83388f7c14c"},"vehicle_type_id":"4","last_reported":1746900750,"current_range_meters":8800,"station_id":"ce4bhoh2rcd13ifvqh5g","pricing_plan_id":"cebpf4jnsgd1na2vs0mg"},{"bike_id":"6d24e392-46d1-4d72-84a5-5d205b606b14","system_id":"levelo_inurba_marseille","lat":43.28157,"lon":5.42624,"is_reserved":false,"is_disabled":false,"rental_uris":{"android":"levelo://app?vid=6d24e392-46d1-4d72-84a5-5d205b606b14","ios":"levelo://app?vid=6d24e392-46d1-4d72-84a5-5d205b606b14"},"vehicle_type_id":"4","last_reported":1746900750,"current_range_meters":8800,"station_id":"ce4bhnh2rcd13ifvqgug","pricing_plan_id":"cebpf4jnsgd1na2vs0mg"},{"bike_id":"f30700cd-2b15-4379-bae3-a617af060209","system_id":"levelo_inurba_marseille","lat":43.21758,"lon":5.34586,"is_reserved":false,"is_disabled":true,"rental_uris":{"android":"levelo://app?vid=f30700cd-2b15-4379-bae3-a617af060209","ios":"levelo://app?vid=f30700cd-2b15-4379-bae3-a617af060209"},"vehicle_type_id":"4","last_reported":1746900750,"current_range_meters":8800,"station_id":"st_cvj6r9ubvosntc0bgbag","pricing_plan_id":"cebpf4jnsgd1na2vs0mg"},{"bike_id":"818b09f3-5086-4441-bd68-6e076339eb9b","system_id":"levelo_inurba_marseille","lat":43.32045,"lon":5.41549,"is_reserved":false,"is_disabled":false,"rental_uris":{"android":"levelo://app?vid=818b09f3-5086-4441-bd68-6e076339eb9b","ios":"levelo://app?vid=818b09f3-5086-4441-bd68-6e076339eb9b"},"vehicle_type_id":"4","last_reported":1746900750,"current_range_meters":8400,"station_id":"ce4bhq92rcd13ifvqhkg","pricing_plan_id":"cebpf4jnsgd1na2vs0mg"},{"bike_id":"bd2978c1-0072-407e-b8cc-29a057b4d275","system_id":"levelo_inurba_marseille","lat":43.27204,"lon":5.39172,"is_reserved":false,"is_disabled":false,"rental_uris":{"android":"levelo://app?vid=bd2978c1-0072-407e-b8cc-29a057b4d275","ios":"levelo://app?vid=bd2978c1-0072-407e-b8cc-29a057b4d275"},"vehicle_type_id":"4","last_reported":1746900750,"current_range_meters":8800,"station_id":"ce4bhhp2rcd13ifvqfm0","pricing_plan_id":"cebpf4jnsgd1na2vs0mg"},{"bike_id":"c8871d60-de65-4dc9-8457-ca42730446e7","system_id":"levelo_inurba_marseille","lat":43.31544,"lon":5.38773,"is_reserved":false,"is_disabled":false,"rental_uris":{"android":"levelo://app?vid=c8871d60-de65-4dc9-8457-ca42730446e7","ios":"levelo://app?vid=c8871d60-de65-4dc9-8457-ca42730446e7"},"vehicle_type_id":"4","last_reported":1746900750,"current_range_meters":8800,"station_id":"","pricing_plan_id":"cebpf4jnsgd1na2vs0mg"},{"bike_id":"c13f6770-edfc-46b5-bb2d-9740a2cce6d4","system_id":"levelo_inurba_marseille","lat":43.25494,"lon":5.37635,"is_reserved":false,"is_disabled":true,"rental_uris":{"android":"levelo://app?vid=c13f6770-edfc-46b5-bb2d-9740a2cce6d4","ios":"levelo://app?vid=c13f6770-edfc-46b5-bb2d-9740a2cce6d4"},"vehicle_type_id":"4","last_reported":1746900750,"current_range_meters":8800,"station_id":"ce4bhh12rcd13ifvqff0","pricing_plan_id":"cebpf4jnsgd1na2vs0mg"},{"bike_id":"6b569379-e98e-40c8-88f5-80bee9be7fcb","system_id":"levelo_inurba_marseille","lat":43.29897,"lon":5.436722,"is_reserved":false,"is_disabled":false,"rental_uris":{"android":"levelo://app?vid=6b569379-e98e-40c8-88f5-80bee9be7fcb","ios":"levelo://app?vid=6b569379-e98e-40c8-88f5-80bee9be7fcb"},"vehicle_type_id":"4","last_reported":1746900750,"current_range_meters":9200,"station_id":"ce4bhpp2rcd13ifvqhfg","pricing_plan_id":"cebpf4jnsgd1na2vs0mg"},{"bike_id":"3209fe01-d759-428d-8206-2cbcad130a04","system_id":"levelo_inurba_marseille","lat":43.31072,"lon":5.38347,"is_reserved":false,"is_disabled":false,"rental_uris":{"android":"levelo://app?vid=3209fe01-d759-428d-8206-2cbcad130a04","ios":"levelo://app?vid=3209fe01-d759-428d-8206-2cbcad130a04"},"vehicle_type_id":"4","last_reported":1746900750,"current_range_meters":9200,"station_id":"ce4bgv92rcd13ifvqcr0","pricing_plan_id":"cebpf4jnsgd1na2vs0mg"},{"bike_id":"1ffd911c-b79d-4573-be11-c1f9a8ff98b3","system_id":"levelo_inurba_marseille","lat":43.265636,"lon":5.372757,"is_reserved":false,"is_disabled":false,"rental_uris":{"android":"levelo://app?vid=1ffd911c-b79d-4573-be11-c1f9a8ff98b3","ios":"levelo://app?vid=1ffd911c-b79d-4573-be11-c1f9a8ff98b3"},"vehicle_type_id":"4","last_reported":1746900750,"current_range_meters":9200,"station_id":"ce4bhg12rcd13ifvqf70","pricing_plan_id":"cebpf4jnsgd1na2vs0mg"},{"bike_id":"7d133824-1f9a-4c15-a32e-419ca57eeea8","system_id":"levelo_inurba_marseille","lat":43.29583,"lon":5.36746,"is_reserved":false,"is_disabled":true,"rental_uris":{"android":"levelo://app?vid=7d133824-1f9a-4c15-a32e-419ca57eeea8","ios":"levelo://app?vid=7d133824-1f9a-4c15-a32e-419ca57eeea8"},"vehicle_type_id":"4","last_reported":1746900750,"current_range_meters":9200,"station_id":"ce4bgph2rcd13ifvqc2g","pricing_plan_id":"cebpf4jnsgd1na2vs0mg"},{"bike_id":"86b478b2-1cf2-4e07-8a5c-76710e912a41","system_id":"levelo_inurba_marseille","lat":43.291234,"lon":5.366897,"is_reserved":false,"is_disabled":false,"rental_uris":{"android":"levelo://app?vid=86b478b2-1cf2-4e07-8a5c-76710e912a41","ios":"levelo://app?vid=86b478b2-1cf2-4e07-8a5c-76710e912a41"},"vehicle_type_id":"4","last_reported":1746900750,"current_range_meters":9200,"station_id":"","pricing_plan_id":"cebpf4jnsgd1na2vs0mg"},{"bike_id":"356c889e-f425-4e69-bd4b-54275a62255a","system_id":"levelo_inurba_marseille","lat":43.30327,"lon":5.4043,"is_reserved":false,"is_disabled":false,"rental_uris":{"android":"levelo://app?vid=356c889e-f425-4e69-bd4b-54275a62255a","ios":"levelo://app?vid=356c889e-f425-4e69-bd4b-54275a62255a"},"vehicle_type_id":"4","last_reported":1746900750,"current_range_meters":9200,"station_id":"ce4bh012rcd13ifvqd10","pricing_plan_id":"cebpf4jnsgd1na2vs0mg"},{"bike_id":"ea0e5001-4ef7-48eb-9613-499e21600d03","system_id":"levelo_inurba_marseille","lat":43.25488,"lon":5.37662,"is_reserved":false,"is_disabled":true,"rental_uris":{"android":"levelo://app?vid=ea0e5001-4ef7-48eb-9613-499e21600d03","ios":"levelo://app?vid=ea0e5001-4ef7-48eb-9613-499e21600d03"},"vehicle_type_id":"4","last_reported":1746900750,"current_range_meters":9600,"station_id":"ce4bhh12rcd13ifvqff0","pricing_plan_id":"cebpf4jnsgd1na2vs0mg"},{"bike_id":"814c300d-d261-4866-b022-44e7c5159380","system_id":"levelo_inurba_marseille","lat":43.24173,"lon":5.36397,"is_reserved":false,"is_disabled":true,"rental_uris":{"android":"levelo://app?vid=814c300d-d261-4866-b022-44e7c5159380","ios":"levelo://app?vid=814c300d-d261-4866-b022-44e7c5159380"},"vehicle_type_id":"4","last_reported":1746900750,"current_range_meters":9600,"station_id":"cpo36qri1sfpv3e86is0","pricing_plan_id":"cebpf4jnsgd1na2vs0mg"},{"bike_id":"6287b388-2224-4c72-ad0b-aa276bf12f11","system_id":"levelo_inurba_marseille","lat":43.2717,"lon":5.40994,"is_reserved":false,"is_disabled":false,"rental_uris":{"android":"levelo://app?vid=6287b388-2224-4c72-ad0b-aa276bf12f11","ios":"levelo://app?vid=6287b388-2224-4c72-ad0b-aa276bf12f11"},"vehicle_type_id":"4","last_reported":1746900750,"current_range_meters":9600,"station_id":"ce4bhl12rcd13ifvqgf0","pricing_plan_id":"cebpf4jnsgd1na2vs0mg"},{"bike_id":"a5ee6ac6-b813-4a1f-bed9-da8cc5453ea1","system_id":"levelo_inurba_marseille","lat":43.29364,"lon":5.42837,"is_reserved":false,"is_disabled":false,"rental_uris":{"android":"levelo://app?vid=a5ee6ac6-b813-4a1f-bed9-da8cc5453ea1","ios":"levelo://app?vid=a5ee6ac6-b813-4a1f-bed9-da8cc5453ea1"},"vehicle_type_id":"4","last_reported":1746900750,"current_range_meters":9600,"station_id":"","pricing_plan_id":"cebpf4jnsgd1na2vs0mg"},{"bike_id":"b3915c29-2e82-410a-8bb0-1d552d2effd8","system_id":"levelo_inurba_marseille","lat":43.26953,"lon":5.38627,"is_reserved":false,"is_disabled":false,"rental_uris":{"android":"levelo://app?vid=b3915c29-2e82-410a-8bb0-1d552d2effd8","ios":"levelo://app?vid=b3915c29-2e82-410a-8bb0-1d552d2effd8"},"vehicle_type_id":"4","last_reported":1746900750,"current_range_meters":9600,"station_id":"ce4bhh92rcd13ifvqfh0","pricing_plan_id":"cebpf4jnsgd1na2vs0mg"},{"bike_id":"dc95d712-620a-4a1f-b605-0952c636d5a6","system_id":"levelo_inurba_marseille","lat":43.28152,"lon":5.42641,"is_reserved":false,"is_disabled":false,"rental_uris":{"android":"levelo://app?vid=dc95d712-620a-4a1f-b605-0952c636d5a6","ios":"levelo://app?vid=dc95d712-620a-4a1f-b605-0952c636d5a6"},"vehicle_type_id":"4","last_reported":1746900750,"current_range_meters":9200,"station_id":"ce4bhnh2rcd13ifvqgug","pricing_plan_id":"cebpf4jnsgd1na2vs0mg"},{"bike_id":"10ee2d0e-ca01-4e83-bbdf-6c08178a202f","system_id":"levelo_inurba_marseille","lat":43.28599,"lon":5.41285,"is_reserved":false,"is_disabled":false,"rental_uris":{"android":"levelo://app?vid=10ee2d0e-ca01-4e83-bbdf-6c08178a202f","ios":"levelo://app?vid=10ee2d0e-ca01-4e83-bbdf-6c08178a202f"},"vehicle_type_id":"4","last_reported":1746900750,"current_range_meters":9600,"station_id":"","pricing_plan_id":"cebpf4jnsgd1na2vs0mg"},{"bike_id":"4f06fe77-36d3-4b35-b181-29f8e04116b1","system_id":"levelo_inurba_marseille","lat":43.30739,"lon":5.4244,"is_reserved":false,"is_disabled":false,"rental_uris":{"android":"levelo://app?vid=4f06fe77-36d3-4b35-b181-29f8e04116b1","ios":"levelo://app?vid=4f06fe77-36d3-4b35-b181-29f8e04116b1"},"vehicle_type_id":"4","last_reported":1746900750,"current_range_meters":9600,"station_id":"st_cvj6ca6bvosntc0bfgr0","pricing_plan_id":"cebpf4jnsgd1na2vs0mg"},{"bike_id":"c4a96685-8d7f-428b-8a0b-e4b7f35bb5f1","system_id":"levelo_inurba_marseille","lat":43.309,"lon":5.3718,"is_reserved":false,"is_disabled":false,"rental_uris":{"android":"levelo://app?vid=c4a96685-8d7f-428b-8a0b-e4b7f35bb5f1","ios":"levelo://app?vid=c4a96685-8d7f-428b-8a0b-e4b7f35bb5f1"},"vehicle_type_id":"4","last_reported":1746900750,"current_range_meters":9200,"station_id":"ce4bguh2rcd13ifvqckg","pricing_plan_id":"cebpf4jnsgd1na2vs0mg"},{"bike_id":"44e88eeb-5d69-44d1-ad07-bcaf5276d14e","system_id":"levelo_inurba_marseille","lat":43.26229,"lon":5.40444,"is_reserved":false,"is_disabled":false,"rental_uris":{"android":"levelo://app?vid=44e88eeb-5d69-44d1-ad07-bcaf5276d14e","ios":"levelo://app?vid=44e88eeb-5d69-44d1-ad07-bcaf5276d14e"},"vehicle_type_id":"4","last_reported":1746900750,"current_range_meters":9600,"station_id":"ce4bhmh2rcd13ifvqgmg","pricing_plan_id":"cebpf4jnsgd1na2vs0mg"},{"bike_id":"99fb9985-2088-4a48-ae83-62aca3ba1639","system_id":"levelo_inurba_marseille","lat":43.3151,"lon":5.37278,"is_reserved":false,"is_disabled":true,"rental_uris":{"android":"levelo://app?vid=99fb9985-2088-4a48-ae83-62aca3ba1639","ios":"levelo://app?vid=99fb9985-2088-4a48-ae83-62aca3ba1639"},"vehicle_type_id":"4","last_reported":1746900750,"current_range_meters":9600,"station_id":"ce4bgt12rcd13ifvqcd0","pricing_plan_id":"cebpf4jnsgd1na2vs0mg"},{"bike_id":"a3c1cd6f-9b6f-4d8e-8fc0-f6423ccd7e1d","system_id":"levelo_inurba_marseille","lat":43.28268,"lon":5.35059,"is_reserved":false,"is_disabled":false,"rental_uris":{"android":"levelo://app?vid=a3c1cd6f-9b6f-4d8e-8fc0-f6423ccd7e1d","ios":"levelo://app?vid=a3c1cd6f-9b6f-4d8e-8fc0-f6423ccd7e1d"},"vehicle_type_id":"4","last_reported":1746900750,"current_range_meters":9600,"station_id":"ce4bhbp2rcd13ifvqerg","pricing_plan_id":"cebpf4jnsgd1na2vs0mg"},{"bike_id":"b0660dcd-62cd-41a1-9211-071c20a4786e","system_id":"levelo_inurba_marseille","lat":43.24079,"lon":5.37747,"is_reserved":false,"is_disabled":false,"rental_uris":{"android":"levelo://app?vid=b0660dcd-62cd-41a1-9211-071c20a4786e","ios":"levelo://app?vid=b0660dcd-62cd-41a1-9211-071c20a4786e"},"vehicle_type_id":"4","last_reported":1746900750,"current_range_meters":10000,"station_id":"ce4bhnp2rcd13ifvqgvg","pricing_plan_id":"cebpf4jnsgd1na2vs0mg"},{"bike_id":"c9dfe67b-4c7d-4883-8b13-fe1fc58f421c","system_id":"levelo_inurba_marseille","lat":43.26938,"lon":5.40244,"is_reserved":false,"is_disabled":false,"rental_uris":{"android":"levelo://app?vid=c9dfe67b-4c7d-4883-8b13-fe1fc58f421c","ios":"levelo://app?vid=c9dfe67b-4c7d-4883-8b13-fe1fc58f421c"},"vehicle_type_id":"4","last_reported":1746900750,"current_range_meters":9600,"station_id":"cjm6bp8fraef2m0cb0m0","pricing_plan_id":"cebpf4jnsgd1na2vs0mg"},{"bike_id":"6f57d4c2-339b-484e-a041-0a23c64a6087","system_id":"levelo_inurba_marseille","lat":43.22932,"lon":5.35376,"is_reserved":false,"is_disabled":false,"rental_uris":{"android":"levelo://app?vid=6f57d4c2-339b-484e-a041-0a23c64a6087","ios":"levelo://app?vid=6f57d4c2-339b-484e-a041-0a23c64a6087"},"vehicle_type_id":"4","last_reported":1746900750,"current_range_meters":10000,"station_id":"cpo3532slgdg3j2ikp40","pricing_plan_id":"cebpf4jnsgd1na2vs0mg"},{"bike_id":"8fd6763d-4415-47e6-ac57-a08f6521cd93","system_id":"levelo_inurba_marseille","lat":43.29312,"lon":5.3717,"is_reserved":false,"is_disabled":false,"rental_uris":{"android":"levelo://app?vid=8fd6763d-4415-47e6-ac57-a08f6521cd93","ios":"levelo://app?vid=8fd6763d-4415-47e6-ac57-a08f6521cd93"},"vehicle_type_id":"4","last_reported":1746900750,"current_range_meters":10800,"station_id":"ce4bgh92rcd13ifvqb40","pricing_plan_id":"cebpf4jnsgd1na2vs0mg"},{"bike_id":"f2b888d3-d314-4694-8acf-16c9eb85db57","system_id":"levelo_inurba_marseille","lat":43.29589,"lon":5.37727,"is_reserved":false,"is_disabled":false,"rental_uris":{"android":"levelo://app?vid=f2b888d3-d314-4694-8acf-16c9eb85db57","ios":"levelo://app?vid=f2b888d3-d314-4694-8acf-16c9eb85db57"},"vehicle_type_id":"4","last_reported":1746900750,"current_range_meters":10800,"station_id":"ce4bgi92rcd13ifvqb90","pricing_plan_id":"cebpf4jnsgd1na2vs0mg"},{"bike_id":"f190d0cf-4345-4e1e-b64a-4740e96a255b","system_id":"levelo_inurba_marseille","lat":43.31271,"lon":5.40166,"is_reserved":false,"is_disabled":false,"rental_uris":{"android":"levelo://app?vid=f190d0cf-4345-4e1e-b64a-4740e96a255b","ios":"levelo://app?vid=f190d0cf-4345-4e1e-b64a-4740e96a255b"},"vehicle_type_id":"4","last_reported":1746900750,"current_range_meters":10800,"station_id":"ce4bh092rcd13ifvqd30","pricing_plan_id":"cebpf4jnsgd1na2vs0mg"},{"bike_id":"351ef218-24e5-4670-825d-fc1ac5cd3c19","system_id":"levelo_inurba_marseille","lat":43.31609,"lon":5.3649,"is_reserved":false,"is_disabled":false,"rental_uris":{"android":"levelo://app?vid=351ef218-24e5-4670-825d-fc1ac5cd3c19","ios":"levelo://app?vid=351ef218-24e5-4670-825d-fc1ac5cd3c19"},"vehicle_type_id":"4","last_reported":1746900750,"current_range_meters":10800,"station_id":"","pricing_plan_id":"cebpf4jnsgd1na2vs0mg"},{"bike_id":"7c298afa-9a67-4bbb-bd53-03c23e889d1b","system_id":"levelo_inurba_marseille","lat":43.28077,"lon":5.39658,"is_reserved":false,"is_disabled":false,"rental_uris":{"android":"levelo://app?vid=7c298afa-9a67-4bbb-bd53-03c23e889d1b","ios":"levelo://app?vid=7c298afa-9a67-4bbb-bd53-03c23e889d1b"},"vehicle_type_id":"4","last_reported":1746900750,"current_range_meters":10800,"station_id":"ce4bho12rcd13ifvqh2g","pricing_plan_id":"cebpf4jnsgd1na2vs0mg"},{"bike_id":"fb04a643-9b55-4450-bd2d-13e2bb8f70b3","system_id":"levelo_inurba_marseille","lat":43.28261,"lon":5.35064,"is_reserved":false,"is_disabled":false,"rental_uris":{"android":"levelo://app?vid=fb04a643-9b55-4450-bd2d-13e2bb8f70b3","ios":"levelo://app?vid=fb04a643-9b55-4450-bd2d-13e2bb8f70b3"},"vehicle_type_id":"4","last_reported":1746900750,"current_range_meters":11200,"station_id":"ce4bhbp2rcd13ifvqerg","pricing_plan_id":"cebpf4jnsgd1na2vs0mg"},{"bike_id":"a49284a7-c858-456a-ab87-673aeb45608d","system_id":"levelo_inurba_marseille","lat":43.298715,"lon":5.397253,"is_reserved":false,"is_disabled":false,"rental_uris":{"android":"levelo://app?vid=a49284a7-c858-456a-ab87-673aeb45608d","ios":"levelo://app?vid=a49284a7-c858-456a-ab87-673aeb45608d"},"vehicle_type_id":"4","last_reported":1746900750,"current_range_meters":11600,"station_id":"ce4bh0h2rcd13ifvqd50","pricing_plan_id":"cebpf4jnsgd1na2vs0mg"},{"bike_id":"7252994d-f656-4b2f-b8b8-5a33580e0ecf","system_id":"levelo_inurba_marseille","lat":43.29517,"lon":5.39405,"is_reserved":false,"is_disabled":false,"rental_uris":{"android":"levelo://app?vid=7252994d-f656-4b2f-b8b8-5a33580e0ecf","ios":"levelo://app?vid=7252994d-f656-4b2f-b8b8-5a33580e0ecf"},"vehicle_type_id":"4","last_reported":1746900750,"current_range_meters":11600,"station_id":"ce4bh292rcd13ifvqdf0","pricing_plan_id":"cebpf4jnsgd1na2vs0mg"},{"bike_id":"a990c391-467f-45d7-8a01-4780b1b5a347","system_id":"levelo_inurba_marseille","lat":43.24178,"lon":5.39734,"is_reserved":false,"is_disabled":false,"rental_uris":{"android":"levelo://app?vid=a990c391-467f-45d7-8a01-4780b1b5a347","ios":"levelo://app?vid=a990c391-467f-45d7-8a01-4780b1b5a347"},"vehicle_type_id":"4","last_reported":1746900750,"current_range_meters":11600,"station_id":"ce4bhn12rcd13ifvqgpg","pricing_plan_id":"cebpf4jnsgd1na2vs0mg"},{"bike_id":"cbcd2cc5-b706-4b27-aab0-4ccd3315b566","system_id":"levelo_inurba_marseille","lat":43.28457,"lon":5.35891,"is_reserved":false,"is_disabled":false,"rental_uris":{"android":"levelo://app?vid=cbcd2cc5-b706-4b27-aab0-4ccd3315b566","ios":"levelo://app?vid=cbcd2cc5-b706-4b27-aab0-4ccd3315b566"},"vehicle_type_id":"4","last_reported":1746900750,"current_range_meters":12000,"station_id":"ce4bhah2rcd13ifvqei0","pricing_plan_id":"cebpf4jnsgd1na2vs0mg"},{"bike_id":"1d83476a-9395-4e91-90b3-3098d854b2b3","system_id":"levelo_inurba_marseille","lat":43.29256,"lon":5.3843,"is_reserved":false,"is_disabled":true,"rental_uris":{"android":"levelo://app?vid=1d83476a-9395-4e91-90b3-3098d854b2b3","ios":"levelo://app?vid=1d83476a-9395-4e91-90b3-3098d854b2b3"},"vehicle_type_id":"4","last_reported":1746900750,"current_range_meters":12400,"station_id":"ce4bh692rcd13ifvqea0","pricing_plan_id":"cebpf4jnsgd1na2vs0mg"},{"bike_id":"49ad4c8c-d13a-43e5-8abe-225c61e22ed3","system_id":"levelo_inurba_marseille","lat":43.28249,"lon":5.35073,"is_reserved":false,"is_disabled":false,"rental_uris":{"android":"levelo://app?vid=49ad4c8c-d13a-43e5-8abe-225c61e22ed3","ios":"levelo://app?vid=49ad4c8c-d13a-43e5-8abe-225c61e22ed3"},"vehicle_type_id":"4","last_reported":1746900750,"current_range_meters":12800,"station_id":"ce4bhbp2rcd13ifvqerg","pricing_plan_id":"cebpf4jnsgd1na2vs0mg"},{"bike_id":"1825aa05-bd80-4cb8-a38f-04c064338a37","system_id":"levelo_inurba_marseille","lat":43.27828,"lon":5.39208,"is_reserved":false,"is_disabled":false,"rental_uris":{"android":"levelo://app?vid=1825aa05-bd80-4cb8-a38f-04c064338a37","ios":"levelo://app?vid=1825aa05-bd80-4cb8-a38f-04c064338a37"},"vehicle_type_id":"4","last_reported":1746900750,"current_range_meters":12800,"station_id":"ce4bhjp2rcd13ifvqga0","pricing_plan_id":"cebpf4jnsgd1na2vs0mg"},{"bike_id":"965bfe10-d6e9-4a9d-94ce-5f6b7ad09a7c","system_id":"levelo_inurba_marseille","lat":43.280315,"lon":5.36945,"is_reserved":false,"is_disabled":false,"rental_uris":{"android":"levelo://app?vid=965bfe10-d6e9-4a9d-94ce-5f6b7ad09a7c","ios":"levelo://app?vid=965bfe10-d6e9-4a9d-94ce-5f6b7ad09a7c"},"vehicle_type_id":"4","last_reported":1746900750,"current_range_meters":12800,"station_id":"ce4bha12rcd13ifvqef0","pricing_plan_id":"cebpf4jnsgd1na2vs0mg"},{"bike_id":"cf06a58c-6b90-4ee6-b7ff-5b33ec523703","system_id":"levelo_inurba_marseille","lat":43.28595,"lon":5.41272,"is_reserved":false,"is_disabled":false,"rental_uris":{"android":"levelo://app?vid=cf06a58c-6b90-4ee6-b7ff-5b33ec523703","ios":"levelo://app?vid=cf06a58c-6b90-4ee6-b7ff-5b33ec523703"},"vehicle_type_id":"4","last_reported":1746900750,"current_range_meters":13600,"station_id":"","pricing_plan_id":"cebpf4jnsgd1na2vs0mg"},{"bike_id":"eaf3e280-39c3-422a-9455-40665b6635e3","system_id":"levelo_inurba_marseille","lat":43.292098,"lon":5.358101,"is_reserved":false,"is_disabled":false,"rental_uris":{"android":"levelo://app?vid=eaf3e280-39c3-422a-9455-40665b6635e3","ios":"levelo://app?vid=eaf3e280-39c3-422a-9455-40665b6635e3"},"vehicle_type_id":"4","last_reported":1746900750,"current_range_meters":13600,"station_id":"ce4bgnh2rcd13ifvqc0g","pricing_plan_id":"cebpf4jnsgd1na2vs0mg"},{"bike_id":"c634960b-2549-48c0-b7be-bfcca811a66e","system_id":"levelo_inurba_marseille","lat":43.2978,"lon":5.37108,"is_reserved":false,"is_disabled":false,"rental_uris":{"android":"levelo://app?vid=c634960b-2549-48c0-b7be-bfcca811a66e","ios":"levelo://app?vid=c634960b-2549-48c0-b7be-bfcca811a66e"},"vehicle_type_id":"4","last_reported":1746900750,"current_range_meters":12800,"station_id":"ce4bgop2rcd13ifvqc1g","pricing_plan_id":"cebpf4jnsgd1na2vs0mg"},{"bike_id":"9faf9d04-9fbc-4d21-a355-5a7a944f1286","system_id":"levelo_inurba_marseille","lat":43.272143,"lon":5.391753,"is_reserved":false,"is_disabled":false,"rental_uris":{"android":"levelo://app?vid=9faf9d04-9fbc-4d21-a355-5a7a944f1286","ios":"levelo://app?vid=9faf9d04-9fbc-4d21-a355-5a7a944f1286"},"vehicle_type_id":"4","last_reported":1746900750,"current_range_meters":12800,"station_id":"ce4bhhp2rcd13ifvqfm0","pricing_plan_id":"cebpf4jnsgd1na2vs0mg"},{"bike_id":"63245484-b525-49b5-b378-7673c9546bef","system_id":"levelo_inurba_marseille","lat":43.30795,"lon":5.38169,"is_reserved":false,"is_disabled":false,"rental_uris":{"android":"levelo://app?vid=63245484-b525-49b5-b378-7673c9546bef","ios":"levelo://app?vid=63245484-b525-49b5-b378-7673c9546bef"},"vehicle_type_id":"4","last_reported":1746900750,"current_range_meters":13600,"station_id":"ce4bgt12rcd13ifvqce0","pricing_plan_id":"cebpf4jnsgd1na2vs0mg"},{"bike_id":"6dcb7cd5-5b9f-4f78-9878-b564334dc5a0","system_id":"levelo_inurba_marseille","lat":43.31709,"lon":5.43708,"is_reserved":false,"is_disabled":false,"rental_uris":{"android":"levelo://app?vid=6dcb7cd5-5b9f-4f78-9878-b564334dc5a0","ios":"levelo://app?vid=6dcb7cd5-5b9f-4f78-9878-b564334dc5a0"},"vehicle_type_id":"4","last_reported":1746900750,"current_range_meters":14400,"station_id":"ce4bhp92rcd13ifvqhcg","pricing_plan_id":"cebpf4jnsgd1na2vs0mg"},{"bike_id":"fc2577e7-1497-425b-9d4f-ab8d7dc843c6","system_id":"levelo_inurba_marseille","lat":43.33771,"lon":5.37485,"is_reserved":false,"is_disabled":false,"rental_uris":{"android":"levelo://app?vid=fc2577e7-1497-425b-9d4f-ab8d7dc843c6","ios":"levelo://app?vid=fc2577e7-1497-425b-9d4f-ab8d7dc843c6"},"vehicle_type_id":"4","last_reported":1746900750,"current_range_meters":14000,"station_id":"","pricing_plan_id":"cebpf4jnsgd1na2vs0mg"},{"bike_id":"273d12ee-a488-4517-9a56-03fdc6ce9cbb","system_id":"levelo_inurba_marseille","lat":43.31764,"lon":5.39003,"is_reserved":false,"is_disabled":false,"rental_uris":{"android":"levelo://app?vid=273d12ee-a488-4517-9a56-03fdc6ce9cbb","ios":"levelo://app?vid=273d12ee-a488-4517-9a56-03fdc6ce9cbb"},"vehicle_type_id":"4","last_reported":1746900750,"current_range_meters":14000,"station_id":"ce4bhqp2rcd13ifvqhng","pricing_plan_id":"cebpf4jnsgd1na2vs0mg"},{"bike_id":"c26bbc1e-385c-453e-962a-970224af53c5","system_id":"levelo_inurba_marseille","lat":43.286094,"lon":5.370601,"is_reserved":false,"is_disabled":false,"rental_uris":{"android":"levelo://app?vid=c26bbc1e-385c-453e-962a-970224af53c5","ios":"levelo://app?vid=c26bbc1e-385c-453e-962a-970224af53c5"},"vehicle_type_id":"4","last_reported":1746900750,"current_range_meters":14000,"station_id":"","pricing_plan_id":"cebpf4jnsgd1na2vs0mg"},{"bike_id":"46d9a950-2ca3-4ab2-ae44-f5c7ab1894a1","system_id":"levelo_inurba_marseille","lat":43.26205,"lon":5.37444,"is_reserved":false,"is_disabled":false,"rental_uris":{"android":"levelo://app?vid=46d9a950-2ca3-4ab2-ae44-f5c7ab1894a1","ios":"levelo://app?vid=46d9a950-2ca3-4ab2-ae44-f5c7ab1894a1"},"vehicle_type_id":"4","last_reported":1746900750,"current_range_meters":14000,"station_id":"ce4bhgp2rcd13ifvqfc0","pricing_plan_id":"cebpf4jnsgd1na2vs0mg"},{"bike_id":"e5112173-5791-4bf8-9717-70545dbd73b1","system_id":"levelo_inurba_marseille","lat":43.299,"lon":5.4366,"is_reserved":false,"is_disabled":false,"rental_uris":{"android":"levelo://app?vid=e5112173-5791-4bf8-9717-70545dbd73b1","ios":"levelo://app?vid=e5112173-5791-4bf8-9717-70545dbd73b1"},"vehicle_type_id":"4","last_reported":1746900750,"current_range_meters":14000,"station_id":"ce4bhpp2rcd13ifvqhfg","pricing_plan_id":"cebpf4jnsgd1na2vs0mg"},{"bike_id":"ad4c7be3-00b6-4fd1-b8be-d8b109478980","system_id":"levelo_inurba_marseille","lat":43.23185,"lon":5.39991,"is_reserved":false,"is_disabled":false,"rental_uris":{"android":"levelo://app?vid=ad4c7be3-00b6-4fd1-b8be-d8b109478980","ios":"levelo://app?vid=ad4c7be3-00b6-4fd1-b8be-d8b109478980"},"vehicle_type_id":"4","last_reported":1746900750,"current_range_meters":14000,"station_id":"ce4bhn12rcd13ifvqgqg","pricing_plan_id":"cebpf4jnsgd1na2vs0mg"},{"bike_id":"b222ace3-ab88-460b-b1d6-41e908211cad","system_id":"levelo_inurba_marseille","lat":43.21752,"lon":5.34592,"is_reserved":false,"is_disabled":true,"rental_uris":{"android":"levelo://app?vid=b222ace3-ab88-460b-b1d6-41e908211cad","ios":"levelo://app?vid=b222ace3-ab88-460b-b1d6-41e908211cad"},"vehicle_type_id":"4","last_reported":1746900750,"current_range_meters":14800,"station_id":"st_cvj6r9ubvosntc0bgbag","pricing_plan_id":"cebpf4jnsgd1na2vs0mg"},{"bike_id":"4de7fe50-aff9-4e5c-8538-47ad67a8d8cb","system_id":"levelo_inurba_marseille","lat":43.2731,"lon":5.39079,"is_reserved":false,"is_disabled":false,"rental_uris":{"android":"levelo://app?vid=4de7fe50-aff9-4e5c-8538-47ad67a8d8cb","ios":"levelo://app?vid=4de7fe50-aff9-4e5c-8538-47ad67a8d8cb"},"vehicle_type_id":"4","last_reported":1746900750,"current_range_meters":15200,"station_id":"ce4bhgp2rcd13ifvqfe0","pricing_plan_id":"cebpf4jnsgd1na2vs0mg"},{"bike_id":"a1121b36-b5cd-4dda-96ef-13a3dfaa55e1","system_id":"levelo_inurba_marseille","lat":43.301401,"lon":5.387791,"is_reserved":false,"is_disabled":false,"rental_uris":{"android":"levelo://app?vid=a1121b36-b5cd-4dda-96ef-13a3dfaa55e1","ios":"levelo://app?vid=a1121b36-b5cd-4dda-96ef-13a3dfaa55e1"},"vehicle_type_id":"4","last_reported":1746900750,"current_range_meters":15200,"station_id":"","pricing_plan_id":"cebpf4jnsgd1na2vs0mg"},{"bike_id":"53124a77-9613-4b7e-9ea3-488381ed85ad","system_id":"levelo_inurba_marseille","lat":43.23958,"lon":5.36634,"is_reserved":false,"is_disabled":false,"rental_uris":{"android":"levelo://app?vid=53124a77-9613-4b7e-9ea3-488381ed85ad","ios":"levelo://app?vid=53124a77-9613-4b7e-9ea3-488381ed85ad"},"vehicle_type_id":"4","last_reported":1746900750,"current_range_meters":15200,"station_id":"ce4bhi12rcd13ifvqfp0","pricing_plan_id":"cebpf4jnsgd1na2vs0mg"},{"bike_id":"8e605c98-9358-45c6-bda3-146988ce556e","system_id":"levelo_inurba_marseille","lat":43.28603,"lon":5.37076,"is_reserved":false,"is_disabled":false,"rental_uris":{"android":"levelo://app?vid=8e605c98-9358-45c6-bda3-146988ce556e","ios":"levelo://app?vid=8e605c98-9358-45c6-bda3-146988ce556e"},"vehicle_type_id":"4","last_reported":1746900750,"current_range_meters":15200,"station_id":"ce4bht12rcd13ifvqi60","pricing_plan_id":"cebpf4jnsgd1na2vs0mg"},{"bike_id":"69e7cd2e-376e-4ca7-b78f-ef3d8649cd88","system_id":"levelo_inurba_marseille","lat":43.27801,"lon":5.40727,"is_reserved":false,"is_disabled":false,"rental_uris":{"android":"levelo://app?vid=69e7cd2e-376e-4ca7-b78f-ef3d8649cd88","ios":"levelo://app?vid=69e7cd2e-376e-4ca7-b78f-ef3d8649cd88"},"vehicle_type_id":"4","last_reported":1746900750,"current_range_meters":15200,"station_id":"ce4bhnh2rcd13ifvqgtg","pricing_plan_id":"cebpf4jnsgd1na2vs0mg"},{"bike_id":"8f86a303-9808-4609-bac8-004a91a69cef","system_id":"levelo_inurba_marseille","lat":43.26565,"lon":5.39014,"is_reserved":false,"is_disabled":false,"rental_uris":{"android":"levelo://app?vid=8f86a303-9808-4609-bac8-004a91a69cef","ios":"levelo://app?vid=8f86a303-9808-4609-bac8-004a91a69cef"},"vehicle_type_id":"4","last_reported":1746900750,"current_range_meters":15200,"station_id":"ce4bhe12rcd13ifvqf30","pricing_plan_id":"cebpf4jnsgd1na2vs0mg"},{"bike_id":"6add2d36-61c6-46c1-a56e-696306c1bd19","system_id":"levelo_inurba_marseille","lat":43.233655,"lon":5.360717,"is_reserved":false,"is_disabled":false,"rental_uris":{"android":"levelo://app?vid=6add2d36-61c6-46c1-a56e-696306c1bd19","ios":"levelo://app?vid=6add2d36-61c6-46c1-a56e-696306c1bd19"},"vehicle_type_id":"4","last_reported":1746900750,"current_range_meters":15200,"station_id":"","pricing_plan_id":"cebpf4jnsgd1na2vs0mg"},{"bike_id":"6092d1a4-4032-46fd-9458-df53bc0618e7","system_id":"levelo_inurba_marseille","lat":43.28688,"lon":5.37391,"is_reserved":false,"is_disabled":false,"rental_uris":{"android":"levelo://app?vid=6092d1a4-4032-46fd-9458-df53bc0618e7","ios":"levelo://app?vid=6092d1a4-4032-46fd-9458-df53bc0618e7"},"vehicle_type_id":"4","last_reported":1746900750,"current_range_meters":14800,"station_id":"ce4bh3p2rcd13ifvqdq0","pricing_plan_id":"cebpf4jnsgd1na2vs0mg"},{"bike_id":"75a983e5-883d-4d88-b17c-ecb9314ff879","system_id":"levelo_inurba_marseille","lat":43.31113,"lon":5.3775,"is_reserved":false,"is_disabled":false,"rental_uris":{"android":"levelo://app?vid=75a983e5-883d-4d88-b17c-ecb9314ff879","ios":"levelo://app?vid=75a983e5-883d-4d88-b17c-ecb9314ff879"},"vehicle_type_id":"4","last_reported":1746900750,"current_range_meters":15200,"station_id":"ce4bgt92rcd13ifvqcg0","pricing_plan_id":"cebpf4jnsgd1na2vs0mg"},{"bike_id":"6d705489-d3d5-4e12-a28e-5d7bb8b109f3","system_id":"levelo_inurba_marseille","lat":43.26831,"lon":5.42778,"is_reserved":false,"is_disabled":false,"rental_uris":{"android":"levelo://app?vid=6d705489-d3d5-4e12-a28e-5d7bb8b109f3","ios":"levelo://app?vid=6d705489-d3d5-4e12-a28e-5d7bb8b109f3"},"vehicle_type_id":"4","last_reported":1746900750,"current_range_meters":16000,"station_id":"","pricing_plan_id":"cebpf4jnsgd1na2vs0mg"},{"bike_id":"a9f9f0ea-faa3-49ef-8dfc-6902c0bad522","system_id":"levelo_inurba_marseille","lat":43.30274,"lon":5.36879,"is_reserved":false,"is_disabled":false,"rental_uris":{"android":"levelo://app?vid=a9f9f0ea-faa3-49ef-8dfc-6902c0bad522","ios":"levelo://app?vid=a9f9f0ea-faa3-49ef-8dfc-6902c0bad522"},"vehicle_type_id":"4","last_reported":1746900750,"current_range_meters":16000,"station_id":"ce4bgqh2rcd13ifvqc5g","pricing_plan_id":"cebpf4jnsgd1na2vs0mg"},{"bike_id":"32dec749-4ed0-4bf4-83eb-4caeee4a49a6","system_id":"levelo_inurba_marseille","lat":43.28436,"lon":5.39202,"is_reserved":false,"is_disabled":false,"rental_uris":{"android":"levelo://app?vid=32dec749-4ed0-4bf4-83eb-4caeee4a49a6","ios":"levelo://app?vid=32dec749-4ed0-4bf4-83eb-4caeee4a49a6"},"vehicle_type_id":"4","last_reported":1746900750,"current_range_meters":16000,"station_id":"ce4bhoh2rcd13ifvqh5g","pricing_plan_id":"cebpf4jnsgd1na2vs0mg"},{"bike_id":"3effa2f8-cbc4-4f61-96bf-75c2e4c4c2b4","system_id":"levelo_inurba_marseille","lat":43.29595,"lon":5.38107,"is_reserved":false,"is_disabled":false,"rental_uris":{"android":"levelo://app?vid=3effa2f8-cbc4-4f61-96bf-75c2e4c4c2b4","ios":"levelo://app?vid=3effa2f8-cbc4-4f61-96bf-75c2e4c4c2b4"},"vehicle_type_id":"4","last_reported":1746900750,"current_range_meters":16000,"station_id":"ce4bgl12rcd13ifvqbo0","pricing_plan_id":"cebpf4jnsgd1na2vs0mg"},{"bike_id":"57065f6d-201e-48a4-a8aa-9b29caeb3eb5","system_id":"levelo_inurba_marseille","lat":43.28159,"lon":5.42634,"is_reserved":false,"is_disabled":false,"rental_uris":{"android":"levelo://app?vid=57065f6d-201e-48a4-a8aa-9b29caeb3eb5","ios":"levelo://app?vid=57065f6d-201e-48a4-a8aa-9b29caeb3eb5"},"vehicle_type_id":"4","last_reported":1746900750,"current_range_meters":14800,"station_id":"ce4bhnh2rcd13ifvqgug","pricing_plan_id":"cebpf4jnsgd1na2vs0mg"},{"bike_id":"e2434f42-8ebb-4eed-a218-d21bf35b3735","system_id":"levelo_inurba_marseille","lat":43.297943,"lon":5.381132,"is_reserved":false,"is_disabled":true,"rental_uris":{"android":"levelo://app?vid=e2434f42-8ebb-4eed-a218-d21bf35b3735","ios":"levelo://app?vid=e2434f42-8ebb-4eed-a218-d21bf35b3735"},"vehicle_type_id":"4","last_reported":1746900750,"current_range_meters":16400,"station_id":"ce4bgip2rcd13ifvqbb0","pricing_plan_id":"cebpf4jnsgd1na2vs0mg"},{"bike_id":"6663a384-abed-48bd-861f-d563c5fcecd4","system_id":"levelo_inurba_marseille","lat":43.28415,"lon":5.35011,"is_reserved":false,"is_disabled":true,"rental_uris":{"android":"levelo://app?vid=6663a384-abed-48bd-861f-d563c5fcecd4","ios":"levelo://app?vid=6663a384-abed-48bd-861f-d563c5fcecd4"},"vehicle_type_id":"4","last_reported":1746900750,"current_range_meters":16400,"station_id":"ce4bhbh2rcd13ifvqepg","pricing_plan_id":"cebpf4jnsgd1na2vs0mg"},{"bike_id":"2dbdf915-d2fb-4c36-8994-b53e3db07015","system_id":"levelo_inurba_marseille","lat":43.21737,"lon":5.34607,"is_reserved":false,"is_disabled":true,"rental_uris":{"android":"levelo://app?vid=2dbdf915-d2fb-4c36-8994-b53e3db07015","ios":"levelo://app?vid=2dbdf915-d2fb-4c36-8994-b53e3db07015"},"vehicle_type_id":"4","last_reported":1746900750,"current_range_meters":16400,"station_id":"st_cvj6r9ubvosntc0bgbag","pricing_plan_id":"cebpf4jnsgd1na2vs0mg"},{"bike_id":"80265a29-7634-4f64-abb3-4182c961748a","system_id":"levelo_inurba_marseille","lat":43.257653,"lon":5.386233,"is_reserved":false,"is_disabled":false,"rental_uris":{"android":"levelo://app?vid=80265a29-7634-4f64-abb3-4182c961748a","ios":"levelo://app?vid=80265a29-7634-4f64-abb3-4182c961748a"},"vehicle_type_id":"4","last_reported":1746900750,"current_range_meters":16400,"station_id":"","pricing_plan_id":"cebpf4jnsgd1na2vs0mg"},{"bike_id":"4ababb28-9135-486f-80f8-705f1cb54551","system_id":"levelo_inurba_marseille","lat":43.29779,"lon":5.36143,"is_reserved":false,"is_disabled":false,"rental_uris":{"android":"levelo://app?vid=4ababb28-9135-486f-80f8-705f1cb54551","ios":"levelo://app?vid=4ababb28-9135-486f-80f8-705f1cb54551"},"vehicle_type_id":"4","last_reported":1746900750,"current_range_meters":16400,"station_id":"","pricing_plan_id":"cebpf4jnsgd1na2vs0mg"},{"bike_id":"78bdd65d-acd5-4212-b9ce-1f713fbfe66f","system_id":"levelo_inurba_marseille","lat":43.21166,"lon":5.35084,"is_reserved":false,"is_disabled":true,"rental_uris":{"android":"levelo://app?vid=78bdd65d-acd5-4212-b9ce-1f713fbfe66f","ios":"levelo://app?vid=78bdd65d-acd5-4212-b9ce-1f713fbfe66f"},"vehicle_type_id":"4","last_reported":1746900750,"current_range_meters":16400,"station_id":"st_cvj6sg6p6f1abm77japg","pricing_plan_id":"cebpf4jnsgd1na2vs0mg"},{"bike_id":"fbbc6f4b-1b5e-4ec9-a1d7-f6885c2660e4","system_id":"levelo_inurba_marseille","lat":43.26485,"lon":5.39545,"is_reserved":false,"is_disabled":false,"rental_uris":{"android":"levelo://app?vid=fbbc6f4b-1b5e-4ec9-a1d7-f6885c2660e4","ios":"levelo://app?vid=fbbc6f4b-1b5e-4ec9-a1d7-f6885c2660e4"},"vehicle_type_id":"4","last_reported":1746900750,"current_range_meters":16400,"station_id":"ce4bhi12rcd13ifvqfq0","pricing_plan_id":"cebpf4jnsgd1na2vs0mg"},{"bike_id":"de73db24-99b3-475f-9991-2beccf428f92","system_id":"levelo_inurba_marseille","lat":43.32365,"lon":5.38879,"is_reserved":false,"is_disabled":false,"rental_uris":{"android":"levelo://app?vid=de73db24-99b3-475f-9991-2beccf428f92","ios":"levelo://app?vid=de73db24-99b3-475f-9991-2beccf428f92"},"vehicle_type_id":"4","last_reported":1746900750,"current_range_meters":16800,"station_id":"ce4bhqp2rcd13ifvqhog","pricing_plan_id":"cebpf4jnsgd1na2vs0mg"},{"bike_id":"e92ce9c9-5fab-414e-a729-6f1913bb922b","system_id":"levelo_inurba_marseille","lat":43.27912,"lon":5.39569,"is_reserved":false,"is_disabled":false,"rental_uris":{"android":"levelo://app?vid=e92ce9c9-5fab-414e-a729-6f1913bb922b","ios":"levelo://app?vid=e92ce9c9-5fab-414e-a729-6f1913bb922b"},"vehicle_type_id":"4","last_reported":1746900750,"current_range_meters":16800,"station_id":"ce4bhf92rcd13ifvqf40","pricing_plan_id":"cebpf4jnsgd1na2vs0mg"},{"bike_id":"d85d5d68-9fa1-4ae6-bff9-3814fed7ed66","system_id":"levelo_inurba_marseille","lat":43.27201,"lon":5.39178,"is_reserved":false,"is_disabled":false,"rental_uris":{"android":"levelo://app?vid=d85d5d68-9fa1-4ae6-bff9-3814fed7ed66","ios":"levelo://app?vid=d85d5d68-9fa1-4ae6-bff9-3814fed7ed66"},"vehicle_type_id":"4","last_reported":1746900750,"current_range_meters":17200,"station_id":"ce4bhhp2rcd13ifvqfm0","pricing_plan_id":"cebpf4jnsgd1na2vs0mg"},{"bike_id":"df514e43-2d1b-491f-a6f1-d0d1f393a242","system_id":"levelo_inurba_marseille","lat":43.29897,"lon":5.43661,"is_reserved":false,"is_disabled":false,"rental_uris":{"android":"levelo://app?vid=df514e43-2d1b-491f-a6f1-d0d1f393a242","ios":"levelo://app?vid=df514e43-2d1b-491f-a6f1-d0d1f393a242"},"vehicle_type_id":"4","last_reported":1746900750,"current_range_meters":17200,"station_id":"ce4bhpp2rcd13ifvqhfg","pricing_plan_id":"cebpf4jnsgd1na2vs0mg"},{"bike_id":"ae1f7786-1415-4327-b5a8-24544029b279","system_id":"levelo_inurba_marseille","lat":43.303252,"lon":5.377433,"is_reserved":false,"is_disabled":false,"rental_uris":{"android":"levelo://app?vid=ae1f7786-1415-4327-b5a8-24544029b279","ios":"levelo://app?vid=ae1f7786-1415-4327-b5a8-24544029b279"},"vehicle_type_id":"4","last_reported":1746900750,"current_range_meters":17200,"station_id":"ce4bguh2rcd13ifvqcj0","pricing_plan_id":"cebpf4jnsgd1na2vs0mg"},{"bike_id":"11249c6e-5d7a-4b5b-95fa-24c771b264f2","system_id":"levelo_inurba_marseille","lat":43.29606,"lon":5.38122,"is_reserved":false,"is_disabled":false,"rental_uris":{"android":"levelo://app?vid=11249c6e-5d7a-4b5b-95fa-24c771b264f2","ios":"levelo://app?vid=11249c6e-5d7a-4b5b-95fa-24c771b264f2"},"vehicle_type_id":"4","last_reported":1746900750,"current_range_meters":17200,"station_id":"ce4bgl12rcd13ifvqbo0","pricing_plan_id":"cebpf4jnsgd1na2vs0mg"},{"bike_id":"eabf14a0-7bd3-4e89-8bac-05906d0f4b2c","system_id":"levelo_inurba_marseille","lat":43.2796,"lon":5.38735,"is_reserved":false,"is_disabled":true,"rental_uris":{"android":"levelo://app?vid=eabf14a0-7bd3-4e89-8bac-05906d0f4b2c","ios":"levelo://app?vid=eabf14a0-7bd3-4e89-8bac-05906d0f4b2c"},"vehicle_type_id":"4","last_reported":1746900750,"current_range_meters":17200,"station_id":"ce4bhg12rcd13ifvqf80","pricing_plan_id":"cebpf4jnsgd1na2vs0mg"},{"bike_id":"71ee35df-e2af-49c8-b101-9daaeeca03b8","system_id":"levelo_inurba_marseille","lat":43.24659,"lon":5.38161,"is_reserved":false,"is_disabled":false,"rental_uris":{"android":"levelo://app?vid=71ee35df-e2af-49c8-b101-9daaeeca03b8","ios":"levelo://app?vid=71ee35df-e2af-49c8-b101-9daaeeca03b8"},"vehicle_type_id":"4","last_reported":1746900750,"current_range_meters":17600,"station_id":"ce4bhih2rcd13ifvqfr0","pricing_plan_id":"cebpf4jnsgd1na2vs0mg"},{"bike_id":"30977f23-f1f6-4c4e-a317-e649cc3b240b","system_id":"levelo_inurba_marseille","lat":43.27329,"lon":5.3905,"is_reserved":false,"is_disabled":false,"rental_uris":{"android":"levelo://app?vid=30977f23-f1f6-4c4e-a317-e649cc3b240b","ios":"levelo://app?vid=30977f23-f1f6-4c4e-a317-e649cc3b240b"},"vehicle_type_id":"4","last_reported":1746900750,"current_range_meters":17600,"station_id":"ce4bhgp2rcd13ifvqfe0","pricing_plan_id":"cebpf4jnsgd1na2vs0mg"},{"bike_id":"050e224e-b8c0-4204-ae1b-a5d5607427d5","system_id":"levelo_inurba_marseille","lat":43.29771,"lon":5.37101,"is_reserved":false,"is_disabled":false,"rental_uris":{"android":"levelo://app?vid=050e224e-b8c0-4204-ae1b-a5d5607427d5","ios":"levelo://app?vid=050e224e-b8c0-4204-ae1b-a5d5607427d5"},"vehicle_type_id":"4","last_reported":1746900750,"current_range_meters":17600,"station_id":"ce4bgop2rcd13ifvqc1g","pricing_plan_id":"cebpf4jnsgd1na2vs0mg"},{"bike_id":"e64b6efa-8ad8-4af7-8d4d-f16b57fe35e2","system_id":"levelo_inurba_marseille","lat":43.28599,"lon":5.37068,"is_reserved":false,"is_disabled":true,"rental_uris":{"android":"levelo://app?vid=e64b6efa-8ad8-4af7-8d4d-f16b57fe35e2","ios":"levelo://app?vid=e64b6efa-8ad8-4af7-8d4d-f16b57fe35e2"},"vehicle_type_id":"4","last_reported":1746900750,"current_range_meters":18000,"station_id":"ce4bht12rcd13ifvqi60","pricing_plan_id":"cebpf4jnsgd1na2vs0mg"},{"bike_id":"c7174cf6-0e33-422d-a97f-941b81eb8690","system_id":"levelo_inurba_marseille","lat":43.27921,"lon":5.39585,"is_reserved":false,"is_disabled":false,"rental_uris":{"android":"levelo://app?vid=c7174cf6-0e33-422d-a97f-941b81eb8690","ios":"levelo://app?vid=c7174cf6-0e33-422d-a97f-941b81eb8690"},"vehicle_type_id":"4","last_reported":1746900750,"current_range_meters":18000,"station_id":"ce4bhf92rcd13ifvqf40","pricing_plan_id":"cebpf4jnsgd1na2vs0mg"},{"bike_id":"13d45d9b-0eaf-47a3-b2a4-a9ac63fc7774","system_id":"levelo_inurba_marseille","lat":43.30191,"lon":5.36617,"is_reserved":false,"is_disabled":false,"rental_uris":{"android":"levelo://app?vid=13d45d9b-0eaf-47a3-b2a4-a9ac63fc7774","ios":"levelo://app?vid=13d45d9b-0eaf-47a3-b2a4-a9ac63fc7774"},"vehicle_type_id":"4","last_reported":1746900750,"current_range_meters":17600,"station_id":"ce4bgrh2rcd13ifvqc8g","pricing_plan_id":"cebpf4jnsgd1na2vs0mg"},{"bike_id":"f52c819d-ca4b-4640-b458-b877db1bf990","system_id":"levelo_inurba_marseille","lat":43.29862,"lon":5.40964,"is_reserved":false,"is_disabled":false,"rental_uris":{"android":"levelo://app?vid=f52c819d-ca4b-4640-b458-b877db1bf990","ios":"levelo://app?vid=f52c819d-ca4b-4640-b458-b877db1bf990"},"vehicle_type_id":"4","last_reported":1746900750,"current_range_meters":18800,"station_id":"","pricing_plan_id":"cebpf4jnsgd1na2vs0mg"},{"bike_id":"3a3a5a55-e9a4-4f49-a47c-53485b9831fe","system_id":"levelo_inurba_marseille","lat":43.3074,"lon":5.42443,"is_reserved":false,"is_disabled":false,"rental_uris":{"android":"levelo://app?vid=3a3a5a55-e9a4-4f49-a47c-53485b9831fe","ios":"levelo://app?vid=3a3a5a55-e9a4-4f49-a47c-53485b9831fe"},"vehicle_type_id":"4","last_reported":1746900750,"current_range_meters":18800,"station_id":"st_cvj6ca6bvosntc0bfgr0","pricing_plan_id":"cebpf4jnsgd1na2vs0mg"},{"bike_id":"4af5fd70-2264-4a74-867f-c5e125bd149d","system_id":"levelo_inurba_marseille","lat":43.25856,"lon":5.39909,"is_reserved":false,"is_disabled":false,"rental_uris":{"android":"levelo://app?vid=4af5fd70-2264-4a74-867f-c5e125bd149d","ios":"levelo://app?vid=4af5fd70-2264-4a74-867f-c5e125bd149d"},"vehicle_type_id":"4","last_reported":1746900750,"current_range_meters":18800,"station_id":"ce4bhl92rcd13ifvqghg","pricing_plan_id":"cebpf4jnsgd1na2vs0mg"},{"bike_id":"2d2466ff-526e-44e9-b5e0-ad8913f09533","system_id":"levelo_inurba_marseille","lat":43.24544,"lon":5.3952,"is_reserved":false,"is_disabled":false,"rental_uris":{"android":"levelo://app?vid=2d2466ff-526e-44e9-b5e0-ad8913f09533","ios":"levelo://app?vid=2d2466ff-526e-44e9-b5e0-ad8913f09533"},"vehicle_type_id":"4","last_reported":1746900750,"current_range_meters":18800,"station_id":"ce4bhlp2rcd13ifvqgjg","pricing_plan_id":"cebpf4jnsgd1na2vs0mg"},{"bike_id":"88c7832d-4930-4fb2-bfa5-bfbbfe85019b","system_id":"levelo_inurba_marseille","lat":43.27805,"lon":5.40726,"is_reserved":false,"is_disabled":false,"rental_uris":{"android":"levelo://app?vid=88c7832d-4930-4fb2-bfa5-bfbbfe85019b","ios":"levelo://app?vid=88c7832d-4930-4fb2-bfa5-bfbbfe85019b"},"vehicle_type_id":"4","last_reported":1746900750,"current_range_meters":18800,"station_id":"ce4bhnh2rcd13ifvqgtg","pricing_plan_id":"cebpf4jnsgd1na2vs0mg"},{"bike_id":"cc62d2da-5a20-4806-9c3f-389790a326f5","system_id":"levelo_inurba_marseille","lat":43.24402,"lon":5.37055,"is_reserved":false,"is_disabled":true,"rental_uris":{"android":"levelo://app?vid=cc62d2da-5a20-4806-9c3f-389790a326f5","ios":"levelo://app?vid=cc62d2da-5a20-4806-9c3f-389790a326f5"},"vehicle_type_id":"4","last_reported":1746900750,"current_range_meters":18800,"station_id":"ce4bhhh2rcd13ifvqfk0","pricing_plan_id":"cebpf4jnsgd1na2vs0mg"},{"bike_id":"e0367e6f-9eb4-4ba9-b3a5-898e674ab5e9","system_id":"levelo_inurba_marseille","lat":43.32281,"lon":5.38282,"is_reserved":false,"is_disabled":false,"rental_uris":{"android":"levelo://app?vid=e0367e6f-9eb4-4ba9-b3a5-898e674ab5e9","ios":"levelo://app?vid=e0367e6f-9eb4-4ba9-b3a5-898e674ab5e9"},"vehicle_type_id":"4","last_reported":1746900750,"current_range_meters":18800,"station_id":"ce4bhr12rcd13ifvqhqg","pricing_plan_id":"cebpf4jnsgd1na2vs0mg"},{"bike_id":"416d7941-4e5e-4b05-b000-521854ff8951","system_id":"levelo_inurba_marseille","lat":43.29275,"lon":5.36849,"is_reserved":false,"is_disabled":false,"rental_uris":{"android":"levelo://app?vid=416d7941-4e5e-4b05-b000-521854ff8951","ios":"levelo://app?vid=416d7941-4e5e-4b05-b000-521854ff8951"},"vehicle_type_id":"4","last_reported":1746900750,"current_range_meters":19200,"station_id":"ce4bhbp2rcd13ifvqesg","pricing_plan_id":"cebpf4jnsgd1na2vs0mg"},{"bike_id":"428e4a57-8485-4a23-afd8-d3d7625b9627","system_id":"levelo_inurba_marseille","lat":43.29774,"lon":5.37117,"is_reserved":false,"is_disabled":false,"rental_uris":{"android":"levelo://app?vid=428e4a57-8485-4a23-afd8-d3d7625b9627","ios":"levelo://app?vid=428e4a57-8485-4a23-afd8-d3d7625b9627"},"vehicle_type_id":"4","last_reported":1746900750,"current_range_meters":19600,"station_id":"ce4bgop2rcd13ifvqc1g","pricing_plan_id":"cebpf4jnsgd1na2vs0mg"},{"bike_id":"8b3c9d7c-c803-49a1-8444-9fcc2955ea54","system_id":"levelo_inurba_marseille","lat":43.31752,"lon":5.39017,"is_reserved":false,"is_disabled":false,"rental_uris":{"android":"levelo://app?vid=8b3c9d7c-c803-49a1-8444-9fcc2955ea54","ios":"levelo://app?vid=8b3c9d7c-c803-49a1-8444-9fcc2955ea54"},"vehicle_type_id":"4","last_reported":1746900750,"current_range_meters":19600,"station_id":"ce4bhqp2rcd13ifvqhng","pricing_plan_id":"cebpf4jnsgd1na2vs0mg"},{"bike_id":"a9210add-2b24-42f6-9222-c95b5b093ba6","system_id":"levelo_inurba_marseille","lat":43.30786,"lon":5.38159,"is_reserved":false,"is_disabled":false,"rental_uris":{"android":"levelo://app?vid=a9210add-2b24-42f6-9222-c95b5b093ba6","ios":"levelo://app?vid=a9210add-2b24-42f6-9222-c95b5b093ba6"},"vehicle_type_id":"4","last_reported":1746900750,"current_range_meters":20000,"station_id":"ce4bgt12rcd13ifvqce0","pricing_plan_id":"cebpf4jnsgd1na2vs0mg"},{"bike_id":"d33b0e1a-b6cd-4d2c-ba25-5290de716c53","system_id":"levelo_inurba_marseille","lat":43.27173,"lon":5.40993,"is_reserved":false,"is_disabled":false,"rental_uris":{"android":"levelo://app?vid=d33b0e1a-b6cd-4d2c-ba25-5290de716c53","ios":"levelo://app?vid=d33b0e1a-b6cd-4d2c-ba25-5290de716c53"},"vehicle_type_id":"4","last_reported":1746900750,"current_range_meters":19600,"station_id":"ce4bhl12rcd13ifvqgf0","pricing_plan_id":"cebpf4jnsgd1na2vs0mg"},{"bike_id":"815a153b-05a4-4277-b4dd-295f646c4add","system_id":"levelo_inurba_marseille","lat":43.27218,"lon":5.39157,"is_reserved":false,"is_disabled":false,"rental_uris":{"android":"levelo://app?vid=815a153b-05a4-4277-b4dd-295f646c4add","ios":"levelo://app?vid=815a153b-05a4-4277-b4dd-295f646c4add"},"vehicle_type_id":"4","last_reported":1746900750,"current_range_meters":20000,"station_id":"ce4bhhp2rcd13ifvqfm0","pricing_plan_id":"cebpf4jnsgd1na2vs0mg"},{"bike_id":"35b6d23b-0ad0-46ef-b2ce-7f183c5af669","system_id":"levelo_inurba_marseille","lat":43.29718,"lon":5.3661,"is_reserved":false,"is_disabled":false,"rental_uris":{"android":"levelo://app?vid=35b6d23b-0ad0-46ef-b2ce-7f183c5af669","ios":"levelo://app?vid=35b6d23b-0ad0-46ef-b2ce-7f183c5af669"},"vehicle_type_id":"4","last_reported":1746900750,"current_range_meters":20000,"station_id":"ce4bgn12rcd13ifvqbt0","pricing_plan_id":"cebpf4jnsgd1na2vs0mg"},{"bike_id":"9eb45cff-0f92-440d-b5e4-f9f552e30ae0","system_id":"levelo_inurba_marseille","lat":43.28423,"lon":5.34985,"is_reserved":false,"is_disabled":true,"rental_uris":{"android":"levelo://app?vid=9eb45cff-0f92-440d-b5e4-f9f552e30ae0","ios":"levelo://app?vid=9eb45cff-0f92-440d-b5e4-f9f552e30ae0"},"vehicle_type_id":"4","last_reported":1746900750,"current_range_meters":20000,"station_id":"ce4bhbh2rcd13ifvqepg","pricing_plan_id":"cebpf4jnsgd1na2vs0mg"},{"bike_id":"6f33d593-b6b8-45ca-b839-ed5fd0e98215","system_id":"levelo_inurba_marseille","lat":43.21201,"lon":5.35065,"is_reserved":false,"is_disabled":true,"rental_uris":{"android":"levelo://app?vid=6f33d593-b6b8-45ca-b839-ed5fd0e98215","ios":"levelo://app?vid=6f33d593-b6b8-45ca-b839-ed5fd0e98215"},"vehicle_type_id":"4","last_reported":1746900750,"current_range_meters":20000,"station_id":"st_cvj6sg6p6f1abm77japg","pricing_plan_id":"cebpf4jnsgd1na2vs0mg"},{"bike_id":"a104292b-5fb1-4b1e-af97-33d96e27d101","system_id":"levelo_inurba_marseille","lat":43.27623,"lon":5.36103,"is_reserved":false,"is_disabled":false,"rental_uris":{"android":"levelo://app?vid=a104292b-5fb1-4b1e-af97-33d96e27d101","ios":"levelo://app?vid=a104292b-5fb1-4b1e-af97-33d96e27d101"},"vehicle_type_id":"4","last_reported":1746900750,"current_range_meters":20000,"station_id":"ce4bgj92rcd13ifvqbe0","pricing_plan_id":"cebpf4jnsgd1na2vs0mg"},{"bike_id":"519f54a3-4261-4886-a609-b705e92a1c41","system_id":"levelo_inurba_marseille","lat":43.29874,"lon":5.39734,"is_reserved":false,"is_disabled":false,"rental_uris":{"android":"levelo://app?vid=519f54a3-4261-4886-a609-b705e92a1c41","ios":"levelo://app?vid=519f54a3-4261-4886-a609-b705e92a1c41"},"vehicle_type_id":"4","last_reported":1746900750,"current_range_meters":20000,"station_id":"ce4bh0h2rcd13ifvqd50","pricing_plan_id":"cebpf4jnsgd1na2vs0mg"},{"bike_id":"35e3aef0-4a45-47f5-9b6e-1a3ae04aba58","system_id":"levelo_inurba_marseille","lat":43.27308,"lon":5.39084,"is_reserved":false,"is_disabled":false,"rental_uris":{"android":"levelo://app?vid=35e3aef0-4a45-47f5-9b6e-1a3ae04aba58","ios":"levelo://app?vid=35e3aef0-4a45-47f5-9b6e-1a3ae04aba58"},"vehicle_type_id":"4","last_reported":1746900750,"current_range_meters":20400,"station_id":"ce4bhgp2rcd13ifvqfe0","pricing_plan_id":"cebpf4jnsgd1na2vs0mg"},{"bike_id":"84f3b81f-5d86-4b1d-9883-fd2dba6914a9","system_id":"levelo_inurba_marseille","lat":43.283909,"lon":5.375222,"is_reserved":false,"is_disabled":false,"rental_uris":{"android":"levelo://app?vid=84f3b81f-5d86-4b1d-9883-fd2dba6914a9","ios":"levelo://app?vid=84f3b81f-5d86-4b1d-9883-fd2dba6914a9"},"vehicle_type_id":"4","last_reported":1746900750,"current_range_meters":20400,"station_id":"ce4bh412rcd13ifvqds0","pricing_plan_id":"cebpf4jnsgd1na2vs0mg"},{"bike_id":"4e71ca35-badc-4509-87b1-bcb7d51163de","system_id":"levelo_inurba_marseille","lat":43.29194,"lon":5.35797,"is_reserved":false,"is_disabled":false,"rental_uris":{"android":"levelo://app?vid=4e71ca35-badc-4509-87b1-bcb7d51163de","ios":"levelo://app?vid=4e71ca35-badc-4509-87b1-bcb7d51163de"},"vehicle_type_id":"4","last_reported":1746900750,"current_range_meters":20400,"station_id":"ce4bhb12rcd13ifvqel0","pricing_plan_id":"cebpf4jnsgd1na2vs0mg"},{"bike_id":"9f58eb09-2915-4161-8093-6e36ba7b57dc","system_id":"levelo_inurba_marseille","lat":43.27291,"lon":5.3913,"is_reserved":false,"is_disabled":false,"rental_uris":{"android":"levelo://app?vid=9f58eb09-2915-4161-8093-6e36ba7b57dc","ios":"levelo://app?vid=9f58eb09-2915-4161-8093-6e36ba7b57dc"},"vehicle_type_id":"4","last_reported":1746900750,"current_range_meters":20800,"station_id":"","pricing_plan_id":"cebpf4jnsgd1na2vs0mg"},{"bike_id":"0116a8c7-ed08-4ca2-b1d8-ab318468e31d","system_id":"levelo_inurba_marseille","lat":43.28451,"lon":5.358919,"is_reserved":false,"is_disabled":false,"rental_uris":{"android":"levelo://app?vid=0116a8c7-ed08-4ca2-b1d8-ab318468e31d","ios":"levelo://app?vid=0116a8c7-ed08-4ca2-b1d8-ab318468e31d"},"vehicle_type_id":"4","last_reported":1746900750,"current_range_meters":20400,"station_id":"ce4bhah2rcd13ifvqei0","pricing_plan_id":"cebpf4jnsgd1na2vs0mg"},{"bike_id":"202a2955-6da0-47bf-bc68-8b898e6f75ac","system_id":"levelo_inurba_marseille","lat":43.27832,"lon":5.39209,"is_reserved":false,"is_disabled":false,"rental_uris":{"android":"levelo://app?vid=202a2955-6da0-47bf-bc68-8b898e6f75ac","ios":"levelo://app?vid=202a2955-6da0-47bf-bc68-8b898e6f75ac"},"vehicle_type_id":"4","last_reported":1746900750,"current_range_meters":20800,"station_id":"ce4bhjp2rcd13ifvqga0","pricing_plan_id":"cebpf4jnsgd1na2vs0mg"},{"bike_id":"e8ab67c9-d062-4241-8a99-09baba1d2540","system_id":"levelo_inurba_marseille","lat":43.28937,"lon":5.39628,"is_reserved":false,"is_disabled":false,"rental_uris":{"android":"levelo://app?vid=e8ab67c9-d062-4241-8a99-09baba1d2540","ios":"levelo://app?vid=e8ab67c9-d062-4241-8a99-09baba1d2540"},"vehicle_type_id":"4","last_reported":1746900750,"current_range_meters":20800,"station_id":"ce4bh3h2rcd13ifvqdn0","pricing_plan_id":"cebpf4jnsgd1na2vs0mg"},{"bike_id":"13aea3d4-3fd9-453e-ab8e-80ed85fa9d78","system_id":"levelo_inurba_marseille","lat":43.31704,"lon":5.43697,"is_reserved":false,"is_disabled":false,"rental_uris":{"android":"levelo://app?vid=13aea3d4-3fd9-453e-ab8e-80ed85fa9d78","ios":"levelo://app?vid=13aea3d4-3fd9-453e-ab8e-80ed85fa9d78"},"vehicle_type_id":"4","last_reported":1746900750,"current_range_meters":21600,"station_id":"ce4bhp92rcd13ifvqhcg","pricing_plan_id":"cebpf4jnsgd1na2vs0mg"},{"bike_id":"14fab081-8680-426b-95b9-b1e1167ab798","system_id":"levelo_inurba_marseille","lat":43.28173,"lon":5.42631,"is_reserved":false,"is_disabled":false,"rental_uris":{"android":"levelo://app?vid=14fab081-8680-426b-95b9-b1e1167ab798","ios":"levelo://app?vid=14fab081-8680-426b-95b9-b1e1167ab798"},"vehicle_type_id":"4","last_reported":1746900750,"current_range_meters":21600,"station_id":"ce4bhnh2rcd13ifvqgug","pricing_plan_id":"cebpf4jnsgd1na2vs0mg"},{"bike_id":"d0b63750-9981-4e93-b442-18226d741952","system_id":"levelo_inurba_marseille","lat":43.2955,"lon":5.4229,"is_reserved":false,"is_disabled":false,"rental_uris":{"android":"levelo://app?vid=d0b63750-9981-4e93-b442-18226d741952","ios":"levelo://app?vid=d0b63750-9981-4e93-b442-18226d741952"},"vehicle_type_id":"4","last_reported":1746900750,"current_range_meters":21600,"station_id":"ce4bhph2rcd13ifvqhdg","pricing_plan_id":"cebpf4jnsgd1na2vs0mg"},{"bike_id":"d515e856-e844-4cce-8df6-925411efb5e0","system_id":"levelo_inurba_marseille","lat":43.27327,"lon":5.39116,"is_reserved":false,"is_disabled":false,"rental_uris":{"android":"levelo://app?vid=d515e856-e844-4cce-8df6-925411efb5e0","ios":"levelo://app?vid=d515e856-e844-4cce-8df6-925411efb5e0"},"vehicle_type_id":"4","last_reported":1746900750,"current_range_meters":21600,"station_id":"ce4bhgp2rcd13ifvqfe0","pricing_plan_id":"cebpf4jnsgd1na2vs0mg"},{"bike_id":"30f11626-3dc8-4d84-9b9c-eb5c1956a70f","system_id":"levelo_inurba_marseille","lat":43.29532,"lon":5.39394,"is_reserved":false,"is_disabled":false,"rental_uris":{"android":"levelo://app?vid=30f11626-3dc8-4d84-9b9c-eb5c1956a70f","ios":"levelo://app?vid=30f11626-3dc8-4d84-9b9c-eb5c1956a70f"},"vehicle_type_id":"4","last_reported":1746900750,"current_range_meters":22000,"station_id":"ce4bh292rcd13ifvqdf0","pricing_plan_id":"cebpf4jnsgd1na2vs0mg"},{"bike_id":"3b16162b-4fa6-4dde-bf52-0c2ed1212571","system_id":"levelo_inurba_marseille","lat":43.248316,"lon":5.374474,"is_reserved":false,"is_disabled":false,"rental_uris":{"android":"levelo://app?vid=3b16162b-4fa6-4dde-bf52-0c2ed1212571","ios":"levelo://app?vid=3b16162b-4fa6-4dde-bf52-0c2ed1212571"},"vehicle_type_id":"4","last_reported":1746900750,"current_range_meters":22000,"station_id":"ce4bhgh2rcd13ifvqfb0","pricing_plan_id":"cebpf4jnsgd1na2vs0mg"},{"bike_id":"78a4fd07-95e0-4309-9198-fcdf0a05f330","system_id":"levelo_inurba_marseille","lat":43.31751,"lon":5.39019,"is_reserved":false,"is_disabled":false,"rental_uris":{"android":"levelo://app?vid=78a4fd07-95e0-4309-9198-fcdf0a05f330","ios":"levelo://app?vid=78a4fd07-95e0-4309-9198-fcdf0a05f330"},"vehicle_type_id":"4","last_reported":1746900750,"current_range_meters":22000,"station_id":"ce4bhqp2rcd13ifvqhng","pricing_plan_id":"cebpf4jnsgd1na2vs0mg"},{"bike_id":"c2dbee4d-cac8-439f-b8b9-c5675068f5dc","system_id":"levelo_inurba_marseille","lat":43.26949,"lon":5.38636,"is_reserved":false,"is_disabled":false,"rental_uris":{"android":"levelo://app?vid=c2dbee4d-cac8-439f-b8b9-c5675068f5dc","ios":"levelo://app?vid=c2dbee4d-cac8-439f-b8b9-c5675068f5dc"},"vehicle_type_id":"4","last_reported":1746900750,"current_range_meters":22000,"station_id":"ce4bhh92rcd13ifvqfh0","pricing_plan_id":"cebpf4jnsgd1na2vs0mg"},{"bike_id":"95c07f58-992e-486e-9e01-f8c38af93653","system_id":"levelo_inurba_marseille","lat":43.30534,"lon":5.367,"is_reserved":false,"is_disabled":true,"rental_uris":{"android":"levelo://app?vid=95c07f58-992e-486e-9e01-f8c38af93653","ios":"levelo://app?vid=95c07f58-992e-486e-9e01-f8c38af93653"},"vehicle_type_id":"4","last_reported":1746900750,"current_range_meters":22000,"station_id":"ce4bgrp2rcd13ifvqc9g","pricing_plan_id":"cebpf4jnsgd1na2vs0mg"},{"bike_id":"66ae2365-a235-40d1-a6b0-2e16e7df11e8","system_id":"levelo_inurba_marseille","lat":43.30638,"lon":5.40096,"is_reserved":false,"is_disabled":false,"rental_uris":{"android":"levelo://app?vid=66ae2365-a235-40d1-a6b0-2e16e7df11e8","ios":"levelo://app?vid=66ae2365-a235-40d1-a6b0-2e16e7df11e8"},"vehicle_type_id":"4","last_reported":1746900750,"current_range_meters":22000,"station_id":"ce4bh112rcd13ifvqda0","pricing_plan_id":"cebpf4jnsgd1na2vs0mg"},{"bike_id":"39870899-7204-4b78-a4c9-b639158c6c7a","system_id":"levelo_inurba_marseille","lat":43.31732,"lon":5.42387,"is_reserved":false,"is_disabled":false,"rental_uris":{"android":"levelo://app?vid=39870899-7204-4b78-a4c9-b639158c6c7a","ios":"levelo://app?vid=39870899-7204-4b78-a4c9-b639158c6c7a"},"vehicle_type_id":"4","last_reported":1746900750,"current_range_meters":22400,"station_id":"ce4bhp92rcd13ifvqhbg","pricing_plan_id":"cebpf4jnsgd1na2vs0mg"},{"bike_id":"77b898d6-83c3-4819-8f10-342d8faa3aa9","system_id":"levelo_inurba_marseille","lat":43.27065,"lon":5.42284,"is_reserved":false,"is_disabled":true,"rental_uris":{"android":"levelo://app?vid=77b898d6-83c3-4819-8f10-342d8faa3aa9","ios":"levelo://app?vid=77b898d6-83c3-4819-8f10-342d8faa3aa9"},"vehicle_type_id":"4","last_reported":1746900750,"current_range_meters":22400,"station_id":"ce4bhk92rcd13ifvqgb0","pricing_plan_id":"cebpf4jnsgd1na2vs0mg"},{"bike_id":"20432041-6fd0-44da-89f6-a09a1aff22bc","system_id":"levelo_inurba_marseille","lat":43.24165,"lon":5.36389,"is_reserved":false,"is_disabled":false,"rental_uris":{"android":"levelo://app?vid=20432041-6fd0-44da-89f6-a09a1aff22bc","ios":"levelo://app?vid=20432041-6fd0-44da-89f6-a09a1aff22bc"},"vehicle_type_id":"4","last_reported":1746900750,"current_range_meters":19600,"station_id":"cpo36qri1sfpv3e86is0","pricing_plan_id":"cebpf4jnsgd1na2vs0mg"},{"bike_id":"ee7d7cdf-6a69-48fa-bee6-c92c8dd8bc0a","system_id":"levelo_inurba_marseille","lat":43.32289,"lon":5.38293,"is_reserved":false,"is_disabled":false,"rental_uris":{"android":"levelo://app?vid=ee7d7cdf-6a69-48fa-bee6-c92c8dd8bc0a","ios":"levelo://app?vid=ee7d7cdf-6a69-48fa-bee6-c92c8dd8bc0a"},"vehicle_type_id":"4","last_reported":1746900750,"current_range_meters":22800,"station_id":"ce4bhr12rcd13ifvqhqg","pricing_plan_id":"cebpf4jnsgd1na2vs0mg"},{"bike_id":"313b14bb-532c-4ca8-a7a8-8588d2d40b5b","system_id":"levelo_inurba_marseille","lat":43.25653,"lon":5.38611,"is_reserved":false,"is_disabled":false,"rental_uris":{"android":"levelo://app?vid=313b14bb-532c-4ca8-a7a8-8588d2d40b5b","ios":"levelo://app?vid=313b14bb-532c-4ca8-a7a8-8588d2d40b5b"},"vehicle_type_id":"4","last_reported":1746900750,"current_range_meters":22800,"station_id":"","pricing_plan_id":"cebpf4jnsgd1na2vs0mg"},{"bike_id":"c0ab1b97-7553-4ecd-83da-2cc1615b3cfd","system_id":"levelo_inurba_marseille","lat":43.26951,"lon":5.38633,"is_reserved":false,"is_disabled":true,"rental_uris":{"android":"levelo://app?vid=c0ab1b97-7553-4ecd-83da-2cc1615b3cfd","ios":"levelo://app?vid=c0ab1b97-7553-4ecd-83da-2cc1615b3cfd"},"vehicle_type_id":"4","last_reported":1746900750,"current_range_meters":22800,"station_id":"ce4bhh92rcd13ifvqfh0","pricing_plan_id":"cebpf4jnsgd1na2vs0mg"},{"bike_id":"67b98491-f3b8-4d27-b61e-9fe3d4347fde","system_id":"levelo_inurba_marseille","lat":43.330078,"lon":5.390378,"is_reserved":false,"is_disabled":false,"rental_uris":{"android":"levelo://app?vid=67b98491-f3b8-4d27-b61e-9fe3d4347fde","ios":"levelo://app?vid=67b98491-f3b8-4d27-b61e-9fe3d4347fde"},"vehicle_type_id":"4","last_reported":1746900750,"current_range_meters":22400,"station_id":"ce4bhr92rcd13ifvqhrg","pricing_plan_id":"cebpf4jnsgd1na2vs0mg"},{"bike_id":"b6f0504a-f7d7-4a97-b810-e7c9e7b1c671","system_id":"levelo_inurba_marseille","lat":43.27898,"lon":5.41256,"is_reserved":false,"is_disabled":false,"rental_uris":{"android":"levelo://app?vid=b6f0504a-f7d7-4a97-b810-e7c9e7b1c671","ios":"levelo://app?vid=b6f0504a-f7d7-4a97-b810-e7c9e7b1c671"},"vehicle_type_id":"4","last_reported":1746900750,"current_range_meters":23200,"station_id":"","pricing_plan_id":"cebpf4jnsgd1na2vs0mg"},{"bike_id":"cba420ba-974e-4cd6-98b7-a971bc227776","system_id":"levelo_inurba_marseille","lat":43.2906,"lon":5.37142,"is_reserved":false,"is_disabled":false,"rental_uris":{"android":"levelo://app?vid=cba420ba-974e-4cd6-98b7-a971bc227776","ios":"levelo://app?vid=cba420ba-974e-4cd6-98b7-a971bc227776"},"vehicle_type_id":"4","last_reported":1746900750,"current_range_meters":23200,"station_id":"ce4bh5p2rcd13ifvqe4g","pricing_plan_id":"cebpf4jnsgd1na2vs0mg"},{"bike_id":"a822fe10-0c36-4a39-acf1-a66e61712946","system_id":"levelo_inurba_marseille","lat":43.29262,"lon":5.38434,"is_reserved":false,"is_disabled":false,"rental_uris":{"android":"levelo://app?vid=a822fe10-0c36-4a39-acf1-a66e61712946","ios":"levelo://app?vid=a822fe10-0c36-4a39-acf1-a66e61712946"},"vehicle_type_id":"4","last_reported":1746900750,"current_range_meters":24000,"station_id":"ce4bh692rcd13ifvqea0","pricing_plan_id":"cebpf4jnsgd1na2vs0mg"},{"bike_id":"f3591eed-1432-4591-8358-d085ffe0dd8b","system_id":"levelo_inurba_marseille","lat":43.26957,"lon":5.39291,"is_reserved":false,"is_disabled":false,"rental_uris":{"android":"levelo://app?vid=f3591eed-1432-4591-8358-d085ffe0dd8b","ios":"levelo://app?vid=f3591eed-1432-4591-8358-d085ffe0dd8b"},"vehicle_type_id":"4","last_reported":1746900750,"current_range_meters":24000,"station_id":"","pricing_plan_id":"cebpf4jnsgd1na2vs0mg"},{"bike_id":"bba870a9-f1a1-4d72-b27c-d30c815afbdd","system_id":"levelo_inurba_marseille","lat":43.29292,"lon":5.37458,"is_reserved":false,"is_disabled":false,"rental_uris":{"android":"levelo://app?vid=bba870a9-f1a1-4d72-b27c-d30c815afbdd","ios":"levelo://app?vid=bba870a9-f1a1-4d72-b27c-d30c815afbdd"},"vehicle_type_id":"4","last_reported":1746900750,"current_range_meters":24000,"station_id":"","pricing_plan_id":"cebpf4jnsgd1na2vs0mg"},{"bike_id":"aca142bd-2716-4ee3-8c04-bd27c952c647","system_id":"levelo_inurba_marseille","lat":43.26444,"lon":5.374986,"is_reserved":false,"is_disabled":false,"rental_uris":{"android":"levelo://app?vid=aca142bd-2716-4ee3-8c04-bd27c952c647","ios":"levelo://app?vid=aca142bd-2716-4ee3-8c04-bd27c952c647"},"vehicle_type_id":"4","last_reported":1746900750,"current_range_meters":24400,"station_id":"","pricing_plan_id":"cebpf4jnsgd1na2vs0mg"},{"bike_id":"9351c5b1-29e3-4cb5-a179-d4cfd00f313e","system_id":"levelo_inurba_marseille","lat":43.26226,"lon":5.40439,"is_reserved":false,"is_disabled":false,"rental_uris":{"android":"levelo://app?vid=9351c5b1-29e3-4cb5-a179-d4cfd00f313e","ios":"levelo://app?vid=9351c5b1-29e3-4cb5-a179-d4cfd00f313e"},"vehicle_type_id":"4","last_reported":1746900750,"current_range_meters":24400,"station_id":"ce4bhmh2rcd13ifvqgmg","pricing_plan_id":"cebpf4jnsgd1na2vs0mg"},{"bike_id":"5826be09-05d5-41d2-9bd2-81f3a94baad4","system_id":"levelo_inurba_marseille","lat":43.25812,"lon":5.39436,"is_reserved":false,"is_disabled":false,"rental_uris":{"android":"levelo://app?vid=5826be09-05d5-41d2-9bd2-81f3a94baad4","ios":"levelo://app?vid=5826be09-05d5-41d2-9bd2-81f3a94baad4"},"vehicle_type_id":"4","last_reported":1746900750,"current_range_meters":24400,"station_id":"ce4bhip2rcd13ifvqft0","pricing_plan_id":"cebpf4jnsgd1na2vs0mg"},{"bike_id":"37197f6c-47f2-443e-b923-c0a20080fb99","system_id":"levelo_inurba_marseille","lat":43.30351,"lon":5.41872,"is_reserved":false,"is_disabled":false,"rental_uris":{"android":"levelo://app?vid=37197f6c-47f2-443e-b923-c0a20080fb99","ios":"levelo://app?vid=37197f6c-47f2-443e-b923-c0a20080fb99"},"vehicle_type_id":"4","last_reported":1746900750,"current_range_meters":24000,"station_id":"ce4bhop2rcd13ifvqh7g","pricing_plan_id":"cebpf4jnsgd1na2vs0mg"},{"bike_id":"cabd2982-6382-4d37-84f0-c508ff4af112","system_id":"levelo_inurba_marseille","lat":43.3014,"lon":5.38773,"is_reserved":false,"is_disabled":false,"rental_uris":{"android":"levelo://app?vid=cabd2982-6382-4d37-84f0-c508ff4af112","ios":"levelo://app?vid=cabd2982-6382-4d37-84f0-c508ff4af112"},"vehicle_type_id":"4","last_reported":1746900750,"current_range_meters":24400,"station_id":"ce4bghh2rcd13ifvqb60","pricing_plan_id":"cebpf4jnsgd1na2vs0mg"},{"bike_id":"90036f2f-6c39-463e-a985-a1a3e2ebd9d8","system_id":"levelo_inurba_marseille","lat":43.30209,"lon":5.39467,"is_reserved":false,"is_disabled":false,"rental_uris":{"android":"levelo://app?vid=90036f2f-6c39-463e-a985-a1a3e2ebd9d8","ios":"levelo://app?vid=90036f2f-6c39-463e-a985-a1a3e2ebd9d8"},"vehicle_type_id":"4","last_reported":1746900750,"current_range_meters":24400,"station_id":"ce4bh0p2rcd13ifvqd70","pricing_plan_id":"cebpf4jnsgd1na2vs0mg"},{"bike_id":"43c8dec2-3c21-42d9-9e8a-80cf03f011ef","system_id":"levelo_inurba_marseille","lat":43.29349,"lon":5.42817,"is_reserved":false,"is_disabled":false,"rental_uris":{"android":"levelo://app?vid=43c8dec2-3c21-42d9-9e8a-80cf03f011ef","ios":"levelo://app?vid=43c8dec2-3c21-42d9-9e8a-80cf03f011ef"},"vehicle_type_id":"4","last_reported":1746900750,"current_range_meters":24400,"station_id":"","pricing_plan_id":"cebpf4jnsgd1na2vs0mg"},{"bike_id":"1a05c14a-3ccd-4d9e-a330-05ec0a905c2b","system_id":"levelo_inurba_marseille","lat":43.30416,"lon":5.41276,"is_reserved":false,"is_disabled":false,"rental_uris":{"android":"levelo://app?vid=1a05c14a-3ccd-4d9e-a330-05ec0a905c2b","ios":"levelo://app?vid=1a05c14a-3ccd-4d9e-a330-05ec0a905c2b"},"vehicle_type_id":"4","last_reported":1746900750,"current_range_meters":24400,"station_id":"ce4bhop2rcd13ifvqh8g","pricing_plan_id":"cebpf4jnsgd1na2vs0mg"},{"bike_id":"2673e56a-2b1d-4800-8426-40a17c5fa2b2","system_id":"levelo_inurba_marseille","lat":43.28071,"lon":5.3966,"is_reserved":false,"is_disabled":false,"rental_uris":{"android":"levelo://app?vid=2673e56a-2b1d-4800-8426-40a17c5fa2b2","ios":"levelo://app?vid=2673e56a-2b1d-4800-8426-40a17c5fa2b2"},"vehicle_type_id":"4","last_reported":1746900750,"current_range_meters":24400,"station_id":"ce4bho12rcd13ifvqh2g","pricing_plan_id":"cebpf4jnsgd1na2vs0mg"},{"bike_id":"e99cd9f5-ae86-49e0-8827-d50848513067","system_id":"levelo_inurba_marseille","lat":43.28343,"lon":5.38109,"is_reserved":false,"is_disabled":false,"rental_uris":{"android":"levelo://app?vid=e99cd9f5-ae86-49e0-8827-d50848513067","ios":"levelo://app?vid=e99cd9f5-ae86-49e0-8827-d50848513067"},"vehicle_type_id":"4","last_reported":1746900750,"current_range_meters":24400,"station_id":"ce4bh412rcd13ifvqdr0","pricing_plan_id":"cebpf4jnsgd1na2vs0mg"},{"bike_id":"d61a8aa4-06c5-4560-9c47-964ef480fb20","system_id":"levelo_inurba_marseille","lat":43.26239,"lon":5.40442,"is_reserved":false,"is_disabled":false,"rental_uris":{"android":"levelo://app?vid=d61a8aa4-06c5-4560-9c47-964ef480fb20","ios":"levelo://app?vid=d61a8aa4-06c5-4560-9c47-964ef480fb20"},