{"last_updated":1719275863,"ttl":30,"version":"2.2","data":{"bikes":[{"bike_id":"dcb37c91-a2ce-4d23-8e6a-6c9a9e37ca0e","system_id":"levelo_inurba_marseille","lat":43.312239,"lon":5.368562,"is_reserved":false,"is_disabled":false,"rental_uris":{"android":"levelo://app?vid=dcb37c91-a2ce-4d23-8e6a-6c9a9e37ca0e","ios":"levelo://app?vid=dcb37c91-a2ce-4d23-8e6a-6c9a9e37ca0e"},"vehicle_type_id":"4","last_reported":1719275863,"current_range_meters":26800,"station_id":"ce4bgl92rcd13ifvqbq0","pricing_plan_id":"cebpf4jnsgd1na2vs0mg"},{"bike_id":"5cad7803-07be-48e1-8a32-02727020d54e","system_id":"levelo_inurba_marseille","lat":43.314811,"lon":5.373103,"is_reserved":false,"is_disabled":false,"rental_uris":{"android":"levelo://app?vid=5cad7803-07be-48e1-8a32-02727020d54e","ios":"levelo://app?vid=5cad7803-07be-48e1-8a32-02727020d54e"},"vehicle_type_id":"4","last_reported":1719275863,"current_range_meters":31600,"station_id":"ce4bgt12rcd13ifvqcd0","pricing_plan_id":"cebpf4jnsgd1na2vs0mg"},{"bike_id":"392845c5-57b0-4e61-8040-65fb292c0607","system_id":"levelo_inurba_marseille","lat":43.314811,"lon":5.373103,"is_reserved":false,"is_disabled":false,"rental_uris":{"android":"levelo://app?vid=392845c5-57b0-4e61-8040-65fb292c0607","ios":"levelo://app?vid=392845c5-57b0-4e61-8040-65fb292c0607"},"vehicle_type_id":"4","last_reported":1719275863,"current_range_meters":4400,"station_id":"ce4bgt12rcd13ifvqcd0","pricing_plan_id":"cebpf4jnsgd1na2vs0mg"},{"bike_id":"7b233bcf-5a13-45ac-b85d-a82cdb219136","system_id":"levelo_inurba_marseille","lat":43.314811,"lon":5.373103,"is_reserved":false,"is_disabled":false,"rental_uris":{"android":"levelo://app?vid=7b233bcf-5a13-45ac-b85d-a82cdb219136","ios":"levelo://app?vid=7b233bcf-5a13-45ac-b85d-a82cdb219136"},"vehicle_type_id":"4","last_reported":1719275863,"current_range_meters":20400,"station_id":"ce4bgt12rcd13ifvqcd0","pricing_plan_id":"cebpf4jnsgd1na2vs0mg"},{"bike_id":"263e117e-2b6a-40d4-ac6d-26559c09a0c1","system_id":"levelo_inurba_marseille","lat":43.314811,"lon":5.373104,"is_reserved":false,"is_disabled":false,"rental_uris":{"android":"levelo://app?vid=263e117e-2b6a-40d4-ac6d-26559c09a0c1","ios":"levelo://app?vid=263e117e-2b6a-40d4-ac6d-26559c09a0c1"},"vehicle_type_id":"4","last_reported":1719275863,"current_range_meters":30800,"station_id":"ce4bgt12rcd13ifvqcd0","pricing_plan_id":"cebpf4jnsgd1na2vs0mg"},{"bike_id":"25d6653b-57ec-4898-83f2-a160a9a9bfe1","system_id":"levelo_inurba_marseille","lat":43.314811,"lon":5.373104,"is_reserved":false,"is_disabled":false,"rental_uris":{"android":"levelo://app?vid=25d6653b-57ec-4898-83f2-a160a9a9bfe1","ios":"levelo://app?vid=25d6653b-57ec-4898-83f2-a160a9a9bfe1"},"vehicle_type_id":"4","last_reported":1719275863,"current_range_meters":31200,"station_id":"ce4bgt12rcd13ifvqcd0","pricing_plan_id":"cebpf4jnsgd1na2vs0mg"},{"bike_id":"52973603-5c80-4d72-97fd-0244141a1c38","system_id":"levelo_inurba_marseille","lat":43.314811,"lon":5.373103,"is_reserved":false,"is_disabled":false,"rental_uris":{"android":"levelo://app?vid=52973603-5c80-4d72-97fd-0244141a1c38","ios":"levelo://app?vid=52973603-5c80-4d72-97fd-0244141a1c38"},"vehicle_type_id":"4","last_reported":1719275863,"current_range_meters":21200,"station_id":"ce4bgt12rcd13ifvqcd0","pricing_plan_id":"cebpf4jnsgd1na2vs0mg"},{"bike_id":"2078e20c-9190-4936-94d9-5ec008597e1f","system_id":"levelo_inurba_marseille","lat":43.314811,"lon":5.373104,"is_reserved":false,"is_disabled":false,"rental_uris":{"android":"levelo://app?vid=2078e20c-9190-4936-94d9-5ec008597e1f","ios":"levelo://app?vid=2078e20c-9190-4936-94d9-5ec008597e1f"},"vehicle_type_id":"4","last_reported":1719275863,"current_range_meters":25200,"station_id":"ce4bgt12rcd13ifvqcd0","pricing_plan_id":"cebpf4jnsgd1na2vs0mg"},{"bike_id":"3e6229a9-daa1-4e8e-b7ec-60b28f97252f","system_id":"levelo_inurba_marseille","lat":43.31452,"lon":5.373706,"is_reserved":false,"is_disabled":false,"rental_uris":{"android":"levelo://app?vid=3e6229a9-daa1-4e8e-b7ec-60b28f97252f","ios":"levelo://app?vid=3e6229a9-daa1-4e8e-b7ec-60b28f97252f"},"vehicle_type_id":"4","last_reported":1719275863,"current_range_meters":1200,"station_id":"ce4bgt12rcd13ifvqcd0","pricing_plan_id":"cebpf4jnsgd1na2vs0mg"},{"bike_id":"77460ccb-960a-4153-8783-e0a172f31a95","system_id":"levelo_inurba_marseille","lat":43.314513,"lon":5.373723,"is_reserved":false,"is_disabled":false,"rental_uris":{"android":"levelo://app?vid=77460ccb-960a-4153-8783-e0a172f31a95","ios":"levelo://app?vid=77460ccb-960a-4153-8783-e0a172f31a95"},"vehicle_type_id":"4","last_reported":1719275863,"current_range_meters":4800,"station_id":"","pricing_plan_id":"cebpf4jnsgd1na2vs0mg"},{"bike_id":"8d109b7f-87a6-471d-9d7d-a87d59998946","system_id":"levelo_inurba_marseille","lat":43.309039,"lon":5.371797,"is_reserved":false,"is_disabled":false,"rental_uris":{"android":"levelo://app?vid=8d109b7f-87a6-471d-9d7d-a87d59998946","ios":"levelo://app?vid=8d109b7f-87a6-471d-9d7d-a87d59998946"},"vehicle_type_id":"4","last_reported":1719275863,"current_range_meters":28400,"station_id":"ce4bguh2rcd13ifvqckg","pricing_plan_id":"cebpf4jnsgd1na2vs0mg"},{"bike_id":"a790c840-8dae-4249-b699-67b70a990aba","system_id":"levelo_inurba_marseille","lat":43.30537,"lon":5.367345,"is_reserved":false,"is_disabled":false,"rental_uris":{"android":"levelo://app?vid=a790c840-8dae-4249-b699-67b70a990aba","ios":"levelo://app?vid=a790c840-8dae-4249-b699-67b70a990aba"},"vehicle_type_id":"4","last_reported":1719275863,"current_range_meters":27600,"station_id":"ce4bgrp2rcd13ifvqc9g","pricing_plan_id":"cebpf4jnsgd1na2vs0mg"},{"bike_id":"16e5a54d-e26b-4a04-803e-bbf7e35ff33c","system_id":"levelo_inurba_marseille","lat":43.305706,"lon":5.365654,"is_reserved":false,"is_disabled":false,"rental_uris":{"android":"levelo://app?vid=16e5a54d-e26b-4a04-803e-bbf7e35ff33c","ios":"levelo://app?vid=16e5a54d-e26b-4a04-803e-bbf7e35ff33c"},"vehicle_type_id":"4","last_reported":1719275863,"current_range_meters":24400,"station_id":"ce4bgs12rcd13ifvqcag","pricing_plan_id":"cebpf4jnsgd1na2vs0mg"},{"bike_id":"4f9b4749-8f37-43ae-9df1-0ec7cc3b89e6","system_id":"levelo_inurba_marseille","lat":43.305276,"lon":5.365829,"is_reserved":false,"is_disabled":false,"rental_uris":{"android":"levelo://app?vid=4f9b4749-8f37-43ae-9df1-0ec7cc3b89e6","ios":"levelo://app?vid=4f9b4749-8f37-43ae-9df1-0ec7cc3b89e6"},"vehicle_type_id":"4","last_reported":1719275863,"current_range_meters":29600,"station_id":"","pricing_plan_id":"cebpf4jnsgd1na2vs0mg"},{"bike_id":"841d6fa2-7e21-45f1-882d-64928e4c7651","system_id":"levelo_inurba_marseille","lat":43.311125,"lon":5.377624,"is_reserved":false,"is_disabled":false,"rental_uris":{"android":"levelo://app?vid=841d6fa2-7e21-45f1-882d-64928e4c7651","ios":"levelo://app?vid=841d6fa2-7e21-45f1-882d-64928e4c7651"},"vehicle_type_id":"4","last_reported":1719275863,"current_range_meters":31200,"station_id":"ce4bgt92rcd13ifvqcg0","pricing_plan_id":"cebpf4jnsgd1na2vs0mg"},{"bike_id":"c44c4c2d-4622-4108-9501-c9ad23943278","system_id":"levelo_inurba_marseille","lat":43.311125,"lon":5.377624,"is_reserved":false,"is_disabled":false,"rental_uris":{"android":"levelo://app?vid=c44c4c2d-4622-4108-9501-c9ad23943278","ios":"levelo://app?vid=c44c4c2d-4622-4108-9501-c9ad23943278"},"vehicle_type_id":"4","last_reported":1719275863,"current_range_meters":29600,"station_id":"ce4bgt92rcd13ifvqcg0","pricing_plan_id":"cebpf4jnsgd1na2vs0mg"},{"bike_id":"fa45cdb1-9a9d-4a0f-9a93-9cc6d8778644","system_id":"levelo_inurba_marseille","lat":43.311125,"lon":5.377624,"is_reserved":false,"is_disabled":false,"rental_uris":{"android":"levelo://app?vid=fa45cdb1-9a9d-4a0f-9a93-9cc6d8778644","ios":"levelo://app?vid=fa45cdb1-9a9d-4a0f-9a93-9cc6d8778644"},"vehicle_type_id":"4","last_reported":1719275863,"current_range_meters":24000,"station_id":"ce4bgt92rcd13ifvqcg0","pricing_plan_id":"cebpf4jnsgd1na2vs0mg"},{"bike_id":"665a0a33-bef3-4699-924b-d5fdb399e5e7","system_id":"levelo_inurba_marseille","lat":43.311125,"lon":5.377624,"is_reserved":false,"is_disabled":false,"rental_uris":{"android":"levelo://app?vid=665a0a33-bef3-4699-924b-d5fdb399e5e7","ios":"levelo://app?vid=665a0a33-bef3-4699-924b-d5fdb399e5e7"},"vehicle_type_id":"4","last_reported":1719275863,"current_range_meters":19200,"station_id":"ce4bgt92rcd13ifvqcg0","pricing_plan_id":"cebpf4jnsgd1na2vs0mg"},{"bike_id":"cc71f696-d473-4691-bd5c-f2d628b8e3c4","system_id":"levelo_inurba_marseille","lat":43.305989,"lon":5.37225,"is_reserved":false,"is_disabled":false,"rental_uris":{"android":"levelo://app?vid=cc71f696-d473-4691-bd5c-f2d628b8e3c4","ios":"levelo://app?vid=cc71f696-d473-4691-bd5c-f2d628b8e3c4"},"vehicle_type_id":"4","last_reported":1719275863,"current_range_meters":7600,"station_id":"ce4bgqh2rcd13ifvqc4g","pricing_plan_id":"cebpf4jnsgd1na2vs0mg"},{"bike_id":"b19d89b2-9da8-4095-ad23-94c35a0c9c8e","system_id":"levelo_inurba_marseille","lat":43.311125,"lon":5.377624,"is_reserved":false,"is_disabled":false,"rental_uris":{"android":"levelo://app?vid=b19d89b2-9da8-4095-ad23-94c35a0c9c8e","ios":"levelo://app?vid=b19d89b2-9da8-4095-ad23-94c35a0c9c8e"},"vehicle_type_id":"4","last_reported":1719275863,"current_range_meters":0,"station_id":"ce4bgt92rcd13ifvqcg0","pricing_plan_id":"cebpf4jnsgd1na2vs0mg"},{"bike_id":"02187124-663b-4495-969e-1c8b76d9e976","system_id":"levelo_inurba_marseille","lat":43.311125,"lon":5.377624,"is_reserved":false,"is_disabled":false,"rental_uris":{"android":"levelo://app?vid=02187124-663b-4495-969e-1c8b76d9e976","ios":"levelo://app?vid=02187124-663b-4495-969e-1c8b76d9e976"},"vehicle_type_id":"4","last_reported":1719275863,"current_range_meters":31600,"station_id":"ce4bgt92rcd13ifvqcg0","pricing_plan_id":"cebpf4jnsgd1na2vs0mg"},{"bike_id":"4cc75e21-d246-4d61-802d-a355e8054b9a","system_id":"levelo_inurba_marseille","lat":43.311125,"lon":5.377624,"is_reserved":false,"is_disabled":false,"rental_uris":{"android":"levelo://app?vid=4cc75e21-d246-4d61-802d-a355e8054b9a","ios":"levelo://app?vid=4cc75e21-d246-4d61-802d-a355e8054b9a"},"vehicle_type_id":"4","last_reported":1719275863,"current_range_meters":12800,"station_id":"ce4bgt92rcd13ifvqcg0","pricing_plan_id":"cebpf4jnsgd1na2vs0mg"},{"bike_id":"deda7612-fb7d-4969-8af5-f3e8a04ce061","system_id":"levelo_inurba_marseille","lat":43.311125,"lon":5.377624,"is_reserved":false,"is_disabled":false,"rental_uris":{"android":"levelo://app?vid=deda7612-fb7d-4969-8af5-f3e8a04ce061","ios":"levelo://app?vid=deda7612-fb7d-4969-8af5-f3e8a04ce061"},"vehicle_type_id":"4","last_reported":1719275863,"current_range_meters":31200,"station_id":"ce4bgt92rcd13ifvqcg0","pricing_plan_id":"cebpf4jnsgd1na2vs0mg"},{"bike_id":"26acc743-e792-42d4-8fda-82933ae2a807","system_id":"levelo_inurba_marseille","lat":43.311125,"lon":5.377624,"is_reserved":false,"is_disabled":false,"rental_uris":{"android":"levelo://app?vid=26acc743-e792-42d4-8fda-82933ae2a807","ios":"levelo://app?vid=26acc743-e792-42d4-8fda-82933ae2a807"},"vehicle_type_id":"4","last_reported":1719275863,"current_range_meters":17600,"station_id":"ce4bgt92rcd13ifvqcg0","pricing_plan_id":"cebpf4jnsgd1na2vs0mg"},{"bike_id":"d0a6c8e7-8fd8-4e04-9d85-3d7dc1362f64","system_id":"levelo_inurba_marseille","lat":43.311125,"lon":5.377624,"is_reserved":false,"is_disabled":false,"rental_uris":{"android":"levelo://app?vid=d0a6c8e7-8fd8-4e04-9d85-3d7dc1362f64","ios":"levelo://app?vid=d0a6c8e7-8fd8-4e04-9d85-3d7dc1362f64"},"vehicle_type_id":"4","last_reported":1719275863,"current_range_meters":25200,"station_id":"ce4bgt92rcd13ifvqcg0","pricing_plan_id":"cebpf4jnsgd1na2vs0mg"},{"bike_id":"450e4bd6-76d9-47c2-972f-8be67b195546","system_id":"levelo_inurba_marseille","lat":43.311125,"lon":5.377624,"is_reserved":false,"is_disabled":false,"rental_uris":{"android":"levelo://app?vid=450e4bd6-76d9-47c2-972f-8be67b195546","ios":"levelo://app?vid=450e4bd6-76d9-47c2-972f-8be67b195546"},"vehicle_type_id":"4","last_reported":1719275863,"current_range_meters":23200,"station_id":"ce4bgt92rcd13ifvqcg0","pricing_plan_id":"cebpf4jnsgd1na2vs0mg"},{"bike_id":"8734f43c-9b5a-4a43-ba05-8479b8729606","system_id":"levelo_inurba_marseille","lat":43.311131,"lon":5.377651,"is_reserved":false,"is_disabled":false,"rental_uris":{"android":"levelo://app?vid=8734f43c-9b5a-4a43-ba05-8479b8729606","ios":"levelo://app?vid=8734f43c-9b5a-4a43-ba05-8479b8729606"},"vehicle_type_id":"4","last_reported":1719275863,"current_range_meters":31200,"station_id":"ce4bgt92rcd13ifvqcg0","pricing_plan_id":"cebpf4jnsgd1na2vs0mg"},{"bike_id":"2b38dfa3-4eb8-4d42-b4ae-b18e7777e198","system_id":"levelo_inurba_marseille","lat":43.311125,"lon":5.377624,"is_reserved":false,"is_disabled":false,"rental_uris":{"android":"levelo://app?vid=2b38dfa3-4eb8-4d42-b4ae-b18e7777e198","ios":"levelo://app?vid=2b38dfa3-4eb8-4d42-b4ae-b18e7777e198"},"vehicle_type_id":"4","last_reported":1719275863,"current_range_meters":20400,"station_id":"ce4bgt92rcd13ifvqcg0","pricing_plan_id":"cebpf4jnsgd1na2vs0mg"},{"bike_id":"2235b775-2840-4f82-900d-3fdb3d942b8a","system_id":"levelo_inurba_marseille","lat":43.307945,"lon":5.376487,"is_reserved":false,"is_disabled":false,"rental_uris":{"android":"levelo://app?vid=2235b775-2840-4f82-900d-3fdb3d942b8a","ios":"levelo://app?vid=2235b775-2840-4f82-900d-3fdb3d942b8a"},"vehicle_type_id":"4","last_reported":1719275863,"current_range_meters":4400,"station_id":"ce4bgv92rcd13ifvqcq0","pricing_plan_id":"cebpf4jnsgd1na2vs0mg"},{"bike_id":"0fa8b2a7-9d2a-4c2e-b565-8b4be86cfd5f","system_id":"levelo_inurba_marseille","lat":43.307945,"lon":5.376487,"is_reserved":false,"is_disabled":false,"rental_uris":{"android":"levelo://app?vid=0fa8b2a7-9d2a-4c2e-b565-8b4be86cfd5f","ios":"levelo://app?vid=0fa8b2a7-9d2a-4c2e-b565-8b4be86cfd5f"},"vehicle_type_id":"4","last_reported":1719275863,"current_range_meters":16800,"station_id":"ce4bgv92rcd13ifvqcq0","pricing_plan_id":"cebpf4jnsgd1na2vs0mg"},{"bike_id":"a925ce60-b2df-420c-b0f2-594a7c33bc48","system_id":"levelo_inurba_marseille","lat":43.30788,"lon":5.37653,"is_reserved":false,"is_disabled":false,"rental_uris":{"android":"levelo://app?vid=a925ce60-b2df-420c-b0f2-594a7c33bc48","ios":"levelo://app?vid=a925ce60-b2df-420c-b0f2-594a7c33bc48"},"vehicle_type_id":"4","last_reported":1719275863,"current_range_meters":15600,"station_id":"ce4bgv92rcd13ifvqcq0","pricing_plan_id":"cebpf4jnsgd1na2vs0mg"},{"bike_id":"2e643961-6f7f-4530-ba81-441d2ce3df07","system_id":"levelo_inurba_marseille","lat":43.307945,"lon":5.376487,"is_reserved":false,"is_disabled":false,"rental_uris":{"android":"levelo://app?vid=2e643961-6f7f-4530-ba81-441d2ce3df07","ios":"levelo://app?vid=2e643961-6f7f-4530-ba81-441d2ce3df07"},"vehicle_type_id":"4","last_reported":1719275863,"current_range_meters":31600,"station_id":"ce4bgv92rcd13ifvqcq0","pricing_plan_id":"cebpf4jnsgd1na2vs0mg"},{"bike_id":"a43e143e-faad-4c35-9edc-f68f7257b867","system_id":"levelo_inurba_marseille","lat":43.317075,"lon":5.377367,"is_reserved":false,"is_disabled":false,"rental_uris":{"android":"levelo://app?vid=a43e143e-faad-4c35-9edc-f68f7257b867","ios":"levelo://app?vid=a43e143e-faad-4c35-9edc-f68f7257b867"},"vehicle_type_id":"4","last_reported":1719275863,"current_range_meters":30000,"station_id":"ce4bgth2rcd13ifvqch0","pricing_plan_id":"cebpf4jnsgd1na2vs0mg"},{"bike_id":"61420c38-11ac-4bf0-9b0b-393b5e8ef401","system_id":"levelo_inurba_marseille","lat":43.317075,"lon":5.377367,"is_reserved":false,"is_disabled":false,"rental_uris":{"android":"levelo://app?vid=61420c38-11ac-4bf0-9b0b-393b5e8ef401","ios":"levelo://app?vid=61420c38-11ac-4bf0-9b0b-393b5e8ef401"},"vehicle_type_id":"4","last_reported":1719275863,"current_range_meters":27600,"station_id":"ce4bgth2rcd13ifvqch0","pricing_plan_id":"cebpf4jnsgd1na2vs0mg"},{"bike_id":"cb462962-b521-433d-ba93-3e9a9646b56a","system_id":"levelo_inurba_marseille","lat":43.30304,"lon":5.368987,"is_reserved":false,"is_disabled":false,"rental_uris":{"android":"levelo://app?vid=cb462962-b521-433d-ba93-3e9a9646b56a","ios":"levelo://app?vid=cb462962-b521-433d-ba93-3e9a9646b56a"},"vehicle_type_id":"4","last_reported":1719275863,"current_range_meters":28800,"station_id":"ce4bgqh2rcd13ifvqc5g","pricing_plan_id":"cebpf4jnsgd1na2vs0mg"},{"bike_id":"e5aede6d-66d7-490d-b236-2b142135edd9","system_id":"levelo_inurba_marseille","lat":43.30304,"lon":5.368987,"is_reserved":false,"is_disabled":false,"rental_uris":{"android":"levelo://app?vid=e5aede6d-66d7-490d-b236-2b142135edd9","ios":"levelo://app?vid=e5aede6d-66d7-490d-b236-2b142135edd9"},"vehicle_type_id":"4","last_reported":1719275863,"current_range_meters":20800,"station_id":"ce4bgqh2rcd13ifvqc5g","pricing_plan_id":"cebpf4jnsgd1na2vs0mg"},{"bike_id":"b59ce81b-7e8e-409a-934f-dc2131fe2dc2","system_id":"levelo_inurba_marseille","lat":43.315289,"lon":5.380349,"is_reserved":false,"is_disabled":false,"rental_uris":{"android":"levelo://app?vid=b59ce81b-7e8e-409a-934f-dc2131fe2dc2","ios":"levelo://app?vid=b59ce81b-7e8e-409a-934f-dc2131fe2dc2"},"vehicle_type_id":"4","last_reported":1719275863,"current_range_meters":25200,"station_id":"ce4bhsp2rcd13ifvqi50","pricing_plan_id":"cebpf4jnsgd1na2vs0mg"},{"bike_id":"21c21597-dd48-4873-8559-37b75edca0ef","system_id":"levelo_inurba_marseille","lat":43.315289,"lon":5.380349,"is_reserved":false,"is_disabled":false,"rental_uris":{"android":"levelo://app?vid=21c21597-dd48-4873-8559-37b75edca0ef","ios":"levelo://app?vid=21c21597-dd48-4873-8559-37b75edca0ef"},"vehicle_type_id":"4","last_reported":1719275863,"current_range_meters":27600,"station_id":"ce4bhsp2rcd13ifvqi50","pricing_plan_id":"cebpf4jnsgd1na2vs0mg"},{"bike_id":"25a55da0-ddca-44bd-9755-6dbd579804ea","system_id":"levelo_inurba_marseille","lat":43.315289,"lon":5.380349,"is_reserved":false,"is_disabled":false,"rental_uris":{"android":"levelo://app?vid=25a55da0-ddca-44bd-9755-6dbd579804ea","ios":"levelo://app?vid=25a55da0-ddca-44bd-9755-6dbd579804ea"},"vehicle_type_id":"4","last_reported":1719275863,"current_range_meters":15200,"station_id":"ce4bhsp2rcd13ifvqi50","pricing_plan_id":"cebpf4jnsgd1na2vs0mg"},{"bike_id":"fed52571-06b4-4a7e-a147-1a89b914fce3","system_id":"levelo_inurba_marseille","lat":43.315289,"lon":5.380349,"is_reserved":false,"is_disabled":false,"rental_uris":{"android":"levelo://app?vid=fed52571-06b4-4a7e-a147-1a89b914fce3","ios":"levelo://app?vid=fed52571-06b4-4a7e-a147-1a89b914fce3"},"vehicle_type_id":"4","last_reported":1719275863,"current_range_meters":24400,"station_id":"ce4bhsp2rcd13ifvqi50","pricing_plan_id":"cebpf4jnsgd1na2vs0mg"},{"bike_id":"e7a3e7b4-3628-4e83-81f0-4a15b0e289cf","system_id":"levelo_inurba_marseille","lat":43.315289,"lon":5.380349,"is_reserved":false,"is_disabled":false,"rental_uris":{"android":"levelo://app?vid=e7a3e7b4-3628-4e83-81f0-4a15b0e289cf","ios":"levelo://app?vid=e7a3e7b4-3628-4e83-81f0-4a15b0e289cf"},"vehicle_type_id":"4","last_reported":1719275863,"current_range_meters":21600,"station_id":"ce4bhsp2rcd13ifvqi50","pricing_plan_id":"cebpf4jnsgd1na2vs0mg"},{"bike_id":"8374bb75-12c2-469f-bc11-17b788e5a3f2","system_id":"levelo_inurba_marseille","lat":43.301939,"lon":5.366286,"is_reserved":false,"is_disabled":false,"rental_uris":{"android":"levelo://app?vid=8374bb75-12c2-469f-bc11-17b788e5a3f2","ios":"levelo://app?vid=8374bb75-12c2-469f-bc11-17b788e5a3f2"},"vehicle_type_id":"4","last_reported":1719275863,"current_range_meters":22000,"station_id":"ce4bgrh2rcd13ifvqc8g","pricing_plan_id":"cebpf4jnsgd1na2vs0mg"},{"bike_id":"01b4bc8a-e9cd-4a80-978c-94d685773403","system_id":"levelo_inurba_marseille","lat":43.301939,"lon":5.366286,"is_reserved":false,"is_disabled":false,"rental_uris":{"android":"levelo://app?vid=01b4bc8a-e9cd-4a80-978c-94d685773403","ios":"levelo://app?vid=01b4bc8a-e9cd-4a80-978c-94d685773403"},"vehicle_type_id":"4","last_reported":1719275863,"current_range_meters":23200,"station_id":"ce4bgrh2rcd13ifvqc8g","pricing_plan_id":"cebpf4jnsgd1na2vs0mg"},{"bike_id":"42b47ec4-774e-4cff-a9f8-c47a7a3d8524","system_id":"levelo_inurba_marseille","lat":43.299724,"lon":5.371829,"is_reserved":false,"is_disabled":false,"rental_uris":{"android":"levelo://app?vid=42b47ec4-774e-4cff-a9f8-c47a7a3d8524","ios":"levelo://app?vid=42b47ec4-774e-4cff-a9f8-c47a7a3d8524"},"vehicle_type_id":"4","last_reported":1719275863,"current_range_meters":20000,"station_id":"ce4bgr92rcd13ifvqc7g","pricing_plan_id":"cebpf4jnsgd1na2vs0mg"},{"bike_id":"6a8fb3a4-5e61-44fb-8af5-44ea155a2dff","system_id":"levelo_inurba_marseille","lat":43.308012,"lon":5.381511,"is_reserved":false,"is_disabled":false,"rental_uris":{"android":"levelo://app?vid=6a8fb3a4-5e61-44fb-8af5-44ea155a2dff","ios":"levelo://app?vid=6a8fb3a4-5e61-44fb-8af5-44ea155a2dff"},"vehicle_type_id":"4","last_reported":1719275863,"current_range_meters":12400,"station_id":"ce4bgt12rcd13ifvqce0","pricing_plan_id":"cebpf4jnsgd1na2vs0mg"},{"bike_id":"237a15bb-559f-438e-aba5-eb312735ec3f","system_id":"levelo_inurba_marseille","lat":43.308012,"lon":5.381511,"is_reserved":false,"is_disabled":false,"rental_uris":{"android":"levelo://app?vid=237a15bb-559f-438e-aba5-eb312735ec3f","ios":"levelo://app?vid=237a15bb-559f-438e-aba5-eb312735ec3f"},"vehicle_type_id":"4","last_reported":1719275863,"current_range_meters":28800,"station_id":"ce4bgt12rcd13ifvqce0","pricing_plan_id":"cebpf4jnsgd1na2vs0mg"},{"bike_id":"5a27c9b3-f83a-4481-b57d-a01db13d88fb","system_id":"levelo_inurba_marseille","lat":43.308012,"lon":5.381511,"is_reserved":false,"is_disabled":false,"rental_uris":{"android":"levelo://app?vid=5a27c9b3-f83a-4481-b57d-a01db13d88fb","ios":"levelo://app?vid=5a27c9b3-f83a-4481-b57d-a01db13d88fb"},"vehicle_type_id":"4","last_reported":1719275863,"current_range_meters":31200,"station_id":"ce4bgt12rcd13ifvqce0","pricing_plan_id":"cebpf4jnsgd1na2vs0mg"},{"bike_id":"08bad828-9e2e-436f-90d9-5ebfcbd99325","system_id":"levelo_inurba_marseille","lat":43.308012,"lon":5.381511,"is_reserved":false,"is_disabled":false,"rental_uris":{"android":"levelo://app?vid=08bad828-9e2e-436f-90d9-5ebfcbd99325","ios":"levelo://app?vid=08bad828-9e2e-436f-90d9-5ebfcbd99325"},"vehicle_type_id":"4","last_reported":1719275863,"current_range_meters":10400,"station_id":"ce4bgt12rcd13ifvqce0","pricing_plan_id":"cebpf4jnsgd1na2vs0mg"},{"bike_id":"da943e6d-aa53-444d-9a39-5709ec559f21","system_id":"levelo_inurba_marseille","lat":43.308012,"lon":5.381511,"is_reserved":false,"is_disabled":false,"rental_uris":{"android":"levelo://app?vid=da943e6d-aa53-444d-9a39-5709ec559f21","ios":"levelo://app?vid=da943e6d-aa53-444d-9a39-5709ec559f21"},"vehicle_type_id":"4","last_reported":1719275863,"current_range_meters":8800,"station_id":"ce4bgt12rcd13ifvqce0","pricing_plan_id":"cebpf4jnsgd1na2vs0mg"},{"bike_id":"b2f2b28f-20e8-491c-9df6-d5b489a80c93","system_id":"levelo_inurba_marseille","lat":43.308012,"lon":5.381511,"is_reserved":false,"is_disabled":false,"rental_uris":{"android":"levelo://app?vid=b2f2b28f-20e8-491c-9df6-d5b489a80c93","ios":"levelo://app?vid=b2f2b28f-20e8-491c-9df6-d5b489a80c93"},"vehicle_type_id":"4","last_reported":1719275863,"current_range_meters":18800,"station_id":"ce4bgt12rcd13ifvqce0","pricing_plan_id":"cebpf4jnsgd1na2vs0mg"},{"bike_id":"8e67ec81-a587-44ae-9128-f75081fad12a","system_id":"levelo_inurba_marseille","lat":43.308012,"lon":5.381511,"is_reserved":false,"is_disabled":false,"rental_uris":{"android":"levelo://app?vid=8e67ec81-a587-44ae-9128-f75081fad12a","ios":"levelo://app?vid=8e67ec81-a587-44ae-9128-f75081fad12a"},"vehicle_type_id":"4","last_reported":1719275863,"current_range_meters":24400,"station_id":"ce4bgt12rcd13ifvqce0","pricing_plan_id":"cebpf4jnsgd1na2vs0mg"},{"bike_id":"19e88a11-7f06-473a-9828-db5dfbed3a16","system_id":"levelo_inurba_marseille","lat":43.308012,"lon":5.381511,"is_reserved":false,"is_disabled":false,"rental_uris":{"android":"levelo://app?vid=19e88a11-7f06-473a-9828-db5dfbed3a16","ios":"levelo://app?vid=19e88a11-7f06-473a-9828-db5dfbed3a16"},"vehicle_type_id":"4","last_reported":1719275863,"current_range_meters":23200,"station_id":"ce4bgt12rcd13ifvqce0","pricing_plan_id":"cebpf4jnsgd1na2vs0mg"},{"bike_id":"754b75d5-44f2-48fc-8b13-8a3cdcb27dde","system_id":"levelo_inurba_marseille","lat":43.308012,"lon":5.381511,"is_reserved":false,"is_disabled":false,"rental_uris":{"android":"levelo://app?vid=754b75d5-44f2-48fc-8b13-8a3cdcb27dde","ios":"levelo://app?vid=754b75d5-44f2-48fc-8b13-8a3cdcb27dde"},"vehicle_type_id":"4","last_reported":1719275863,"current_range_meters":19200,"station_id":"ce4bgt12rcd13ifvqce0","pricing_plan_id":"cebpf4jnsgd1na2vs0mg"},{"bike_id":"c0f4cd64-a4bd-4a18-bce7-3d6369aec1a0","system_id":"levelo_inurba_marseille","lat":43.308012,"lon":5.381511,"is_reserved":false,"is_disabled":false,"rental_uris":{"android":"levelo://app?vid=c0f4cd64-a4bd-4a18-bce7-3d6369aec1a0","ios":"levelo://app?vid=c0f4cd64-a4bd-4a18-bce7-3d6369aec1a0"},"vehicle_type_id":"4","last_reported":1719275863,"current_range_meters":18400,"station_id":"ce4bgt12rcd13ifvqce0","pricing_plan_id":"cebpf4jnsgd1na2vs0mg"},{"bike_id":"8a010712-3de1-4e02-81fd-1f022ef7f73e","system_id":"levelo_inurba_marseille","lat":43.308012,"lon":5.381511,"is_reserved":false,"is_disabled":false,"rental_uris":{"android":"levelo://app?vid=8a010712-3de1-4e02-81fd-1f022ef7f73e","ios":"levelo://app?vid=8a010712-3de1-4e02-81fd-1f022ef7f73e"},"vehicle_type_id":"4","last_reported":1719275863,"current_range_meters":24400,"station_id":"ce4bgt12rcd13ifvqce0","pricing_plan_id":"cebpf4jnsgd1na2vs0mg"},{"bike_id":"e8c64ec9-1684-4989-8ad7-2385e5f48459","system_id":"levelo_inurba_marseille","lat":43.308012,"lon":5.381511,"is_reserved":false,"is_disabled":false,"rental_uris":{"android":"levelo://app?vid=e8c64ec9-1684-4989-8ad7-2385e5f48459","ios":"levelo://app?vid=e8c64ec9-1684-4989-8ad7-2385e5f48459"},"vehicle_type_id":"4","last_reported":1719275863,"current_range_meters":11600,"station_id":"ce4bgt12rcd13ifvqce0","pricing_plan_id":"cebpf4jnsgd1na2vs0mg"},{"bike_id":"6571a219-c2f7-4898-8500-c2e988c89445","system_id":"levelo_inurba_marseille","lat":43.308012,"lon":5.381511,"is_reserved":false,"is_disabled":false,"rental_uris":{"android":"levelo://app?vid=6571a219-c2f7-4898-8500-c2e988c89445","ios":"levelo://app?vid=6571a219-c2f7-4898-8500-c2e988c89445"},"vehicle_type_id":"4","last_reported":1719275863,"current_range_meters":12800,"station_id":"ce4bgt12rcd13ifvqce0","pricing_plan_id":"cebpf4jnsgd1na2vs0mg"},{"bike_id":"706ce198-56d6-4a0a-8f7a-4f232fd69b93","system_id":"levelo_inurba_marseille","lat":43.308012,"lon":5.381511,"is_reserved":false,"is_disabled":false,"rental_uris":{"android":"levelo://app?vid=706ce198-56d6-4a0a-8f7a-4f232fd69b93","ios":"levelo://app?vid=706ce198-56d6-4a0a-8f7a-4f232fd69b93"},"vehicle_type_id":"4","last_reported":1719275863,"current_range_meters":17600,"station_id":"ce4bgt12rcd13ifvqce0","pricing_plan_id":"cebpf4jnsgd1na2vs0mg"},{"bike_id":"705fd711-52c6-47e8-9c25-629b1333d241","system_id":"levelo_inurba_marseille","lat":43.308012,"lon":5.381511,"is_reserved":false,"is_disabled":false,"rental_uris":{"android":"levelo://app?vid=705fd711-52c6-47e8-9c25-629b1333d241","ios":"levelo://app?vid=705fd711-52c6-47e8-9c25-629b1333d241"},"vehicle_type_id":"4","last_reported":1719275863,"current_range_meters":22800,"station_id":"ce4bgt12rcd13ifvqce0","pricing_plan_id":"cebpf4jnsgd1na2vs0mg"},{"bike_id":"a9461242-4a57-4140-99c5-57df5f14a372","system_id":"levelo_inurba_marseille","lat":43.324771,"lon":5.36557,"is_reserved":false,"is_disabled":false,"rental_uris":{"android":"levelo://app?vid=a9461242-4a57-4140-99c5-57df5f14a372","ios":"levelo://app?vid=a9461242-4a57-4140-99c5-57df5f14a372"},"vehicle_type_id":"4","last_reported":1719275863,"current_range_meters":29200,"station_id":"ce4bhs12rcd13ifvqhvg","pricing_plan_id":"cebpf4jnsgd1na2vs0mg"},{"bike_id":"1fa7d650-fe44-49e4-9ffa-31c772387bdd","system_id":"levelo_inurba_marseille","lat":43.324771,"lon":5.36557,"is_reserved":false,"is_disabled":false,"rental_uris":{"android":"levelo://app?vid=1fa7d650-fe44-49e4-9ffa-31c772387bdd","ios":"levelo://app?vid=1fa7d650-fe44-49e4-9ffa-31c772387bdd"},"vehicle_type_id":"4","last_reported":1719275863,"current_range_meters":22000,"station_id":"ce4bhs12rcd13ifvqhvg","pricing_plan_id":"cebpf4jnsgd1na2vs0mg"},{"bike_id":"15992822-2bb1-46fc-a43a-68b7bf806d99","system_id":"levelo_inurba_marseille","lat":43.324771,"lon":5.36557,"is_reserved":false,"is_disabled":false,"rental_uris":{"android":"levelo://app?vid=15992822-2bb1-46fc-a43a-68b7bf806d99","ios":"levelo://app?vid=15992822-2bb1-46fc-a43a-68b7bf806d99"},"vehicle_type_id":"4","last_reported":1719275863,"current_range_meters":27200,"station_id":"ce4bhs12rcd13ifvqhvg","pricing_plan_id":"cebpf4jnsgd1na2vs0mg"},{"bike_id":"99940d12-8816-4939-9d2f-6c5fc5e8f53a","system_id":"levelo_inurba_marseille","lat":43.324771,"lon":5.36557,"is_reserved":false,"is_disabled":false,"rental_uris":{"android":"levelo://app?vid=99940d12-8816-4939-9d2f-6c5fc5e8f53a","ios":"levelo://app?vid=99940d12-8816-4939-9d2f-6c5fc5e8f53a"},"vehicle_type_id":"4","last_reported":1719275863,"current_range_meters":20000,"station_id":"ce4bhs12rcd13ifvqhvg","pricing_plan_id":"cebpf4jnsgd1na2vs0mg"},{"bike_id":"eb794116-d831-4f1d-9de5-1bd8d6cbc5e0","system_id":"levelo_inurba_marseille","lat":43.324771,"lon":5.36557,"is_reserved":false,"is_disabled":false,"rental_uris":{"android":"levelo://app?vid=eb794116-d831-4f1d-9de5-1bd8d6cbc5e0","ios":"levelo://app?vid=eb794116-d831-4f1d-9de5-1bd8d6cbc5e0"},"vehicle_type_id":"4","last_reported":1719275863,"current_range_meters":2000,"station_id":"ce4bhs12rcd13ifvqhvg","pricing_plan_id":"cebpf4jnsgd1na2vs0mg"},{"bike_id":"314a7a27-9752-4b6d-a829-59c2c8c6b968","system_id":"levelo_inurba_marseille","lat":43.310804,"lon":5.38359,"is_reserved":false,"is_disabled":false,"rental_uris":{"android":"levelo://app?vid=314a7a27-9752-4b6d-a829-59c2c8c6b968","ios":"levelo://app?vid=314a7a27-9752-4b6d-a829-59c2c8c6b968"},"vehicle_type_id":"4","last_reported":1719275863,"current_range_meters":31200,"station_id":"ce4bgv92rcd13ifvqcr0","pricing_plan_id":"cebpf4jnsgd1na2vs0mg"},{"bike_id":"17bcd0cb-3fc8-47d1-99bc-f37c30503a33","system_id":"levelo_inurba_marseille","lat":43.302784,"lon":5.377158,"is_reserved":false,"is_disabled":false,"rental_uris":{"android":"levelo://app?vid=17bcd0cb-3fc8-47d1-99bc-f37c30503a33","ios":"levelo://app?vid=17bcd0cb-3fc8-47d1-99bc-f37c30503a33"},"vehicle_type_id":"4","last_reported":1719275863,"current_range_meters":17600,"station_id":"ce4bguh2rcd13ifvqcj0","pricing_plan_id":"cebpf4jnsgd1na2vs0mg"},{"bike_id":"f4b2a785-15e1-48bc-a6b5-497f84fc92df","system_id":"levelo_inurba_marseille","lat":43.31067,"lon":5.38347,"is_reserved":false,"is_disabled":false,"rental_uris":{"android":"levelo://app?vid=f4b2a785-15e1-48bc-a6b5-497f84fc92df","ios":"levelo://app?vid=f4b2a785-15e1-48bc-a6b5-497f84fc92df"},"vehicle_type_id":"4","last_reported":1719275863,"current_range_meters":27600,"station_id":"ce4bgv92rcd13ifvqcr0","pricing_plan_id":"cebpf4jnsgd1na2vs0mg"},{"bike_id":"7f6db167-848f-4e9e-af30-e0c301e5d874","system_id":"levelo_inurba_marseille","lat":43.310804,"lon":5.38359,"is_reserved":false,"is_disabled":false,"rental_uris":{"android":"levelo://app?vid=7f6db167-848f-4e9e-af30-e0c301e5d874","ios":"levelo://app?vid=7f6db167-848f-4e9e-af30-e0c301e5d874"},"vehicle_type_id":"4","last_reported":1719275863,"current_range_meters":30400,"station_id":"ce4bgv92rcd13ifvqcr0","pricing_plan_id":"cebpf4jnsgd1na2vs0mg"},{"bike_id":"b001f135-f511-467e-a518-d056921c14ab","system_id":"levelo_inurba_marseille","lat":43.310804,"lon":5.38359,"is_reserved":false,"is_disabled":false,"rental_uris":{"android":"levelo://app?vid=b001f135-f511-467e-a518-d056921c14ab","ios":"levelo://app?vid=b001f135-f511-467e-a518-d056921c14ab"},"vehicle_type_id":"4","last_reported":1719275863,"current_range_meters":31200,"station_id":"ce4bgv92rcd13ifvqcr0","pricing_plan_id":"cebpf4jnsgd1na2vs0mg"},{"bike_id":"402ba32e-45d6-4e38-bb85-d041e6ee9a03","system_id":"levelo_inurba_marseille","lat":43.310804,"lon":5.38359,"is_reserved":false,"is_disabled":false,"rental_uris":{"android":"levelo://app?vid=402ba32e-45d6-4e38-bb85-d041e6ee9a03","ios":"levelo://app?vid=402ba32e-45d6-4e38-bb85-d041e6ee9a03"},"vehicle_type_id":"4","last_reported":1719275863,"current_range_meters":12400,"station_id":"ce4bgv92rcd13ifvqcr0","pricing_plan_id":"cebpf4jnsgd1na2vs0mg"},{"bike_id":"f108152d-6877-448b-b138-c509ae521661","system_id":"levelo_inurba_marseille","lat":43.310804,"lon":5.38359,"is_reserved":false,"is_disabled":false,"rental_uris":{"android":"levelo://app?vid=f108152d-6877-448b-b138-c509ae521661","ios":"levelo://app?vid=f108152d-6877-448b-b138-c509ae521661"},"vehicle_type_id":"4","last_reported":1719275863,"current_range_meters":26400,"station_id":"ce4bgv92rcd13ifvqcr0","pricing_plan_id":"cebpf4jnsgd1na2vs0mg"},{"bike_id":"4428e60c-d3eb-44fc-982f-65eb66c5298a","system_id":"levelo_inurba_marseille","lat":43.310804,"lon":5.38359,"is_reserved":false,"is_disabled":false,"rental_uris":{"android":"levelo://app?vid=4428e60c-d3eb-44fc-982f-65eb66c5298a","ios":"levelo://app?vid=4428e60c-d3eb-44fc-982f-65eb66c5298a"},"vehicle_type_id":"4","last_reported":1719275863,"current_range_meters":11600,"station_id":"ce4bgv92rcd13ifvqcr0","pricing_plan_id":"cebpf4jnsgd1na2vs0mg"},{"bike_id":"a21dc77e-6410-4670-9fed-797dd0059726","system_id":"levelo_inurba_marseille","lat":43.31074,"lon":5.3836,"is_reserved":false,"is_disabled":false,"rental_uris":{"android":"levelo://app?vid=a21dc77e-6410-4670-9fed-797dd0059726","ios":"levelo://app?vid=a21dc77e-6410-4670-9fed-797dd0059726"},"vehicle_type_id":"4","last_reported":1719275863,"current_range_meters":30000,"station_id":"ce4bgv92rcd13ifvqcr0","pricing_plan_id":"cebpf4jnsgd1na2vs0mg"},{"bike_id":"0e9a5930-c4a6-4e45-a5b7-e49fbbb85dc0","system_id":"levelo_inurba_marseille","lat":43.310804,"lon":5.38359,"is_reserved":false,"is_disabled":false,"rental_uris":{"android":"levelo://app?vid=0e9a5930-c4a6-4e45-a5b7-e49fbbb85dc0","ios":"levelo://app?vid=0e9a5930-c4a6-4e45-a5b7-e49fbbb85dc0"},"vehicle_type_id":"4","last_reported":1719275863,"current_range_meters":10800,"station_id":"ce4bgv92rcd13ifvqcr0","pricing_plan_id":"cebpf4jnsgd1na2vs0mg"},{"bike_id":"c40fa6eb-5a8a-4be3-aad2-60daed61dee2","system_id":"levelo_inurba_marseille","lat":43.310804,"lon":5.38359,"is_reserved":false,"is_disabled":false,"rental_uris":{"android":"levelo://app?vid=c40fa6eb-5a8a-4be3-aad2-60daed61dee2","ios":"levelo://app?vid=c40fa6eb-5a8a-4be3-aad2-60daed61dee2"},"vehicle_type_id":"4","last_reported":1719275863,"current_range_meters":30800,"station_id":"ce4bgv92rcd13ifvqcr0","pricing_plan_id":"cebpf4jnsgd1na2vs0mg"},{"bike_id":"c3ed7e71-c237-4cf4-bb7e-e4226e05d534","system_id":"levelo_inurba_marseille","lat":43.310804,"lon":5.38359,"is_reserved":false,"is_disabled":false,"rental_uris":{"android":"levelo://app?vid=c3ed7e71-c237-4cf4-bb7e-e4226e05d534","ios":"levelo://app?vid=c3ed7e71-c237-4cf4-bb7e-e4226e05d534"},"vehicle_type_id":"4","last_reported":1719275863,"current_range_meters":30800,"station_id":"ce4bgv92rcd13ifvqcr0","pricing_plan_id":"cebpf4jnsgd1na2vs0mg"},{"bike_id":"b9e87985-5b2c-4616-a050-cf7f3a3bd3c9","system_id":"levelo_inurba_marseille","lat":43.31077,"lon":5.38365,"is_reserved":false,"is_disabled":false,"rental_uris":{"android":"levelo://app?vid=b9e87985-5b2c-4616-a050-cf7f3a3bd3c9","ios":"levelo://app?vid=b9e87985-5b2c-4616-a050-cf7f3a3bd3c9"},"vehicle_type_id":"4","last_reported":1719275863,"current_range_meters":13600,"station_id":"ce4bgv92rcd13ifvqcr0","pricing_plan_id":"cebpf4jnsgd1na2vs0mg"},{"bike_id":"eca1d2cb-e7bd-4fc0-a68e-f396e7b2f4f0","system_id":"levelo_inurba_marseille","lat":43.310804,"lon":5.38359,"is_reserved":false,"is_disabled":false,"rental_uris":{"android":"levelo://app?vid=eca1d2cb-e7bd-4fc0-a68e-f396e7b2f4f0","ios":"levelo://app?vid=eca1d2cb-e7bd-4fc0-a68e-f396e7b2f4f0"},"vehicle_type_id":"4","last_reported":1719275863,"current_range_meters":8400,"station_id":"ce4bgv92rcd13ifvqcr0","pricing_plan_id":"cebpf4jnsgd1na2vs0mg"},{"bike_id":"233cb372-bb40-4abc-9aaf-7005bfc2a8de","system_id":"levelo_inurba_marseille","lat":43.310804,"lon":5.38359,"is_reserved":false,"is_disabled":false,"rental_uris":{"android":"levelo://app?vid=233cb372-bb40-4abc-9aaf-7005bfc2a8de","ios":"levelo://app?vid=233cb372-bb40-4abc-9aaf-7005bfc2a8de"},"vehicle_type_id":"4","last_reported":1719275863,"current_range_meters":31200,"station_id":"ce4bgv92rcd13ifvqcr0","pricing_plan_id":"cebpf4jnsgd1na2vs0mg"},{"bike_id":"ef774676-b608-465b-bb34-77b781146b20","system_id":"levelo_inurba_marseille","lat":43.30143,"lon":5.37413,"is_reserved":false,"is_disabled":false,"rental_uris":{"android":"levelo://app?vid=ef774676-b608-465b-bb34-77b781146b20","ios":"levelo://app?vid=ef774676-b608-465b-bb34-77b781146b20"},"vehicle_type_id":"4","last_reported":1719275863,"current_range_meters":31200,"station_id":"ce4bgs92rcd13ifvqcc0","pricing_plan_id":"cebpf4jnsgd1na2vs0mg"},{"bike_id":"985d5a5b-8fc1-46d8-a136-ccba8ff3810e","system_id":"levelo_inurba_marseille","lat":43.302784,"lon":5.377158,"is_reserved":false,"is_disabled":false,"rental_uris":{"android":"levelo://app?vid=985d5a5b-8fc1-46d8-a136-ccba8ff3810e","ios":"levelo://app?vid=985d5a5b-8fc1-46d8-a136-ccba8ff3810e"},"vehicle_type_id":"4","last_reported":1719275863,"current_range_meters":24000,"station_id":"ce4bguh2rcd13ifvqcj0","pricing_plan_id":"cebpf4jnsgd1na2vs0mg"},{"bike_id":"ef65de00-afd1-4967-ac36-9047689076db","system_id":"levelo_inurba_marseille","lat":43.30143,"lon":5.37413,"is_reserved":false,"is_disabled":false,"rental_uris":{"android":"levelo://app?vid=ef65de00-afd1-4967-ac36-9047689076db","ios":"levelo://app?vid=ef65de00-afd1-4967-ac36-9047689076db"},"vehicle_type_id":"4","last_reported":1719275863,"current_range_meters":29200,"station_id":"ce4bgs92rcd13ifvqcc0","pricing_plan_id":"cebpf4jnsgd1na2vs0mg"},{"bike_id":"458d7727-ae2f-4341-b8b6-9711beaa2a72","system_id":"levelo_inurba_marseille","lat":43.301429,"lon":5.37413,"is_reserved":false,"is_disabled":false,"rental_uris":{"android":"levelo://app?vid=458d7727-ae2f-4341-b8b6-9711beaa2a72","ios":"levelo://app?vid=458d7727-ae2f-4341-b8b6-9711beaa2a72"},"vehicle_type_id":"4","last_reported":1719275863,"current_range_meters":18800,"station_id":"ce4bgs92rcd13ifvqcc0","pricing_plan_id":"cebpf4jnsgd1na2vs0mg"},{"bike_id":"af6bd670-557a-4df3-906b-665716d42f99","system_id":"levelo_inurba_marseille","lat":43.319935,"lon":5.381699,"is_reserved":false,"is_disabled":false,"rental_uris":{"android":"levelo://app?vid=af6bd670-557a-4df3-906b-665716d42f99","ios":"levelo://app?vid=af6bd670-557a-4df3-906b-665716d42f99"},"vehicle_type_id":"4","last_reported":1719275863,"current_range_meters":8400,"station_id":"ce4bhr12rcd13ifvqhpg","pricing_plan_id":"cebpf4jnsgd1na2vs0mg"},{"bike_id":"ba2d3fec-e8f5-4cb2-952a-5422afa027ff","system_id":"levelo_inurba_marseille","lat":43.313571,"lon":5.384829,"is_reserved":false,"is_disabled":false,"rental_uris":{"android":"levelo://app?vid=ba2d3fec-e8f5-4cb2-952a-5422afa027ff","ios":"levelo://app?vid=ba2d3fec-e8f5-4cb2-952a-5422afa027ff"},"vehicle_type_id":"4","last_reported":1719275863,"current_range_meters":24400,"station_id":"ce4bgt92rcd13ifvqcf0","pricing_plan_id":"cebpf4jnsgd1na2vs0mg"},{"bike_id":"dcf088ac-fb16-4cca-9175-4f1d754600e2","system_id":"levelo_inurba_marseille","lat":43.313571,"lon":5.384829,"is_reserved":false,"is_disabled":false,"rental_uris":{"android":"levelo://app?vid=dcf088ac-fb16-4cca-9175-4f1d754600e2","ios":"levelo://app?vid=dcf088ac-fb16-4cca-9175-4f1d754600e2"},"vehicle_type_id":"4","last_reported":1719275863,"current_range_meters":26800,"station_id":"ce4bgt92rcd13ifvqcf0","pricing_plan_id":"cebpf4jnsgd1na2vs0mg"},{"bike_id":"7f522734-d556-4c05-9b6b-9e673bb2b9cb","system_id":"levelo_inurba_marseille","lat":43.313571,"lon":5.384829,"is_reserved":false,"is_disabled":false,"rental_uris":{"android":"levelo://app?vid=7f522734-d556-4c05-9b6b-9e673bb2b9cb","ios":"levelo://app?vid=7f522734-d556-4c05-9b6b-9e673bb2b9cb"},"vehicle_type_id":"4","last_reported":1719275863,"current_range_meters":14800,"station_id":"ce4bgt92rcd13ifvqcf0","pricing_plan_id":"cebpf4jnsgd1na2vs0mg"},{"bike_id":"8afb1975-87b5-427b-9fad-79dd6b301071","system_id":"levelo_inurba_marseille","lat":43.313571,"lon":5.384829,"is_reserved":false,"is_disabled":false,"rental_uris":{"android":"levelo://app?vid=8afb1975-87b5-427b-9fad-79dd6b301071","ios":"levelo://app?vid=8afb1975-87b5-427b-9fad-79dd6b301071"},"vehicle_type_id":"4","last_reported":1719275863,"current_range_meters":26800,"station_id":"ce4bgt92rcd13ifvqcf0","pricing_plan_id":"cebpf4jnsgd1na2vs0mg"},{"bike_id":"d13d4ac7-59b7-418f-9f9d-d01d866eb888","system_id":"levelo_inurba_marseille","lat":43.313571,"lon":5.384829,"is_reserved":false,"is_disabled":false,"rental_uris":{"android":"levelo://app?vid=d13d4ac7-59b7-418f-9f9d-d01d866eb888","ios":"levelo://app?vid=d13d4ac7-59b7-418f-9f9d-d01d866eb888"},"vehicle_type_id":"4","last_reported":1719275863,"current_range_meters":22000,"station_id":"ce4bgt92rcd13ifvqcf0","pricing_plan_id":"cebpf4jnsgd1na2vs0mg"},{"bike_id":"27f0aca8-51e5-4f37-83f7-0bd2d9d05ede","system_id":"levelo_inurba_marseille","lat":43.313571,"lon":5.384829,"is_reserved":false,"is_disabled":false,"rental_uris":{"android":"levelo://app?vid=27f0aca8-51e5-4f37-83f7-0bd2d9d05ede","ios":"levelo://app?vid=27f0aca8-51e5-4f37-83f7-0bd2d9d05ede"},"vehicle_type_id":"4","last_reported":1719275863,"current_range_meters":23200,"station_id":"ce4bgt92rcd13ifvqcf0","pricing_plan_id":"cebpf4jnsgd1na2vs0mg"},{"bike_id":"61b72241-420f-4c58-87a1-cdad42b3756d","system_id":"levelo_inurba_marseille","lat":43.313571,"lon":5.384829,"is_reserved":false,"is_disabled":false,"rental_uris":{"android":"levelo://app?vid=61b72241-420f-4c58-87a1-cdad42b3756d","ios":"levelo://app?vid=61b72241-420f-4c58-87a1-cdad42b3756d"},"vehicle_type_id":"4","last_reported":1719275863,"current_range_meters":24000,"station_id":"ce4bgt92rcd13ifvqcf0","pricing_plan_id":"cebpf4jnsgd1na2vs0mg"},{"bike_id":"147fa55e-6771-4076-978d-53af655940a3","system_id":"levelo_inurba_marseille","lat":43.313618,"lon":5.384978,"is_reserved":false,"is_disabled":false,"rental_uris":{"android":"levelo://app?vid=147fa55e-6771-4076-978d-53af655940a3","ios":"levelo://app?vid=147fa55e-6771-4076-978d-53af655940a3"},"vehicle_type_id":"4","last_reported":1719275863,"current_range_meters":23600,"station_id":"ce4bgt92rcd13ifvqcf0","pricing_plan_id":"cebpf4jnsgd1na2vs0mg"},{"bike_id":"f67a53cd-e033-49b3-bf80-7b37b3361e59","system_id":"levelo_inurba_marseille","lat":43.313571,"lon":5.384829,"is_reserved":false,"is_disabled":false,"rental_uris":{"android":"levelo://app?vid=f67a53cd-e033-49b3-bf80-7b37b3361e59","ios":"levelo://app?vid=f67a53cd-e033-49b3-bf80-7b37b3361e59"},"vehicle_type_id":"4","last_reported":1719275863,"current_range_meters":16800,"station_id":"ce4bgt92rcd13ifvqcf0","pricing_plan_id":"cebpf4jnsgd1na2vs0mg"},{"bike_id":"73ebfcc3-95b0-41fe-afb7-fd034679f21e","system_id":"levelo_inurba_marseille","lat":43.31375,"lon":5.38499,"is_reserved":false,"is_disabled":false,"rental_uris":{"android":"levelo://app?vid=73ebfcc3-95b0-41fe-afb7-fd034679f21e","ios":"levelo://app?vid=73ebfcc3-95b0-41fe-afb7-fd034679f21e"},"vehicle_type_id":"4","last_reported":1719275863,"current_range_meters":31200,"station_id":"ce4bgt92rcd13ifvqcf0","pricing_plan_id":"cebpf4jnsgd1na2vs0mg"},{"bike_id":"1865d8db-a3e1-4483-9b11-c6387e1f58b6","system_id":"levelo_inurba_marseille","lat":43.313571,"lon":5.384829,"is_reserved":false,"is_disabled":false,"rental_uris":{"android":"levelo://app?vid=1865d8db-a3e1-4483-9b11-c6387e1f58b6","ios":"levelo://app?vid=1865d8db-a3e1-4483-9b11-c6387e1f58b6"},"vehicle_type_id":"4","last_reported":1719275863,"current_range_meters":800,"station_id":"ce4bgt92rcd13ifvqcf0","pricing_plan_id":"cebpf4jnsgd1na2vs0mg"},{"bike_id":"8c98d7df-cd48-4fdf-b9f7-d27807cbf245","system_id":"levelo_inurba_marseille","lat":43.299222,"lon":5.365554,"is_reserved":false,"is_disabled":false,"rental_uris":{"android":"levelo://app?vid=8c98d7df-cd48-4fdf-b9f7-d27807cbf245","ios":"levelo://app?vid=8c98d7df-cd48-4fdf-b9f7-d27807cbf245"},"vehicle_type_id":"4","last_reported":1719275863,"current_range_meters":8800,"station_id":"ce4bgm92rcd13ifvqbr0","pricing_plan_id":"cebpf4jnsgd1na2vs0mg"},{"bike_id":"ac8e3cf1-078a-4c9b-aae0-16ecdc6ca787","system_id":"levelo_inurba_marseille","lat":43.299222,"lon":5.365554,"is_reserved":false,"is_disabled":false,"rental_uris":{"android":"levelo://app?vid=ac8e3cf1-078a-4c9b-aae0-16ecdc6ca787","ios":"levelo://app?vid=ac8e3cf1-078a-4c9b-aae0-16ecdc6ca787"},"vehicle_type_id":"4","last_reported":1719275863,"current_range_meters":31200,"station_id":"ce4bgm92rcd13ifvqbr0","pricing_plan_id":"cebpf4jnsgd1na2vs0mg"},{"bike_id":"37651167-383b-49cc-a06d-ac55abf2887c","system_id":"levelo_inurba_marseille","lat":43.305364,"lon":5.384119,"is_reserved":false,"is_disabled":false,"rental_uris":{"android":"levelo://app?vid=37651167-383b-49cc-a06d-ac55abf2887c","ios":"levelo://app?vid=37651167-383b-49cc-a06d-ac55abf2887c"},"vehicle_type_id":"4","last_reported":1719275863,"current_range_meters":11600,"station_id":"ce4bgg92rcd13ifvqb30","pricing_plan_id":"cebpf4jnsgd1na2vs0mg"},{"bike_id":"6193836f-fa8c-4a1f-b67e-fb71c39e5141","system_id":"levelo_inurba_marseille","lat":43.298433,"lon":5.362774,"is_reserved":false,"is_disabled":false,"rental_uris":{"android":"levelo://app?vid=6193836f-fa8c-4a1f-b67e-fb71c39e5141","ios":"levelo://app?vid=6193836f-fa8c-4a1f-b67e-fb71c39e5141"},"vehicle_type_id":"4","last_reported":1719275863,"current_range_meters":22400,"station_id":"ce4bgpp2rcd13ifvqc3g","pricing_plan_id":"cebpf4jnsgd1na2vs0mg"},{"bike_id":"29a30a52-c971-483b-80cc-1572a35e006c","system_id":"levelo_inurba_marseille","lat":43.299243,"lon":5.37481,"is_reserved":false,"is_disabled":false,"rental_uris":{"android":"levelo://app?vid=29a30a52-c971-483b-80cc-1572a35e006c","ios":"levelo://app?vid=29a30a52-c971-483b-80cc-1572a35e006c"},"vehicle_type_id":"4","last_reported":1719275863,"current_range_meters":16800,"station_id":"ce4bgjh2rcd13ifvqbg0","pricing_plan_id":"cebpf4jnsgd1na2vs0mg"},{"bike_id":"99b5a0d2-13f9-4d92-8206-b44f12549d4d","system_id":"levelo_inurba_marseille","lat":43.311722,"lon":5.387247,"is_reserved":false,"is_disabled":false,"rental_uris":{"android":"levelo://app?vid=99b5a0d2-13f9-4d92-8206-b44f12549d4d","ios":"levelo://app?vid=99b5a0d2-13f9-4d92-8206-b44f12549d4d"},"vehicle_type_id":"4","last_reported":1719275863,"current_range_meters":15600,"station_id":"ce4bgv12rcd13ifvqcp0","pricing_plan_id":"cebpf4jnsgd1na2vs0mg"},{"bike_id":"e0828a8f-ee5f-4d2f-948f-dbf8deebd903","system_id":"levelo_inurba_marseille","lat":43.311722,"lon":5.387247,"is_reserved":false,"is_disabled":false,"rental_uris":{"android":"levelo://app?vid=e0828a8f-ee5f-4d2f-948f-dbf8deebd903","ios":"levelo://app?vid=e0828a8f-ee5f-4d2f-948f-dbf8deebd903"},"vehicle_type_id":"4","last_reported":1719275863,"current_range_meters":29600,"station_id":"ce4bgv12rcd13ifvqcp0","pricing_plan_id":"cebpf4jnsgd1na2vs0mg"},{"bike_id":"5329be8f-8155-4957-b849-c5f445b7f702","system_id":"levelo_inurba_marseille","lat":43.311832,"lon":5.387127,"is_reserved":false,"is_disabled":false,"rental_uris":{"android":"levelo://app?vid=5329be8f-8155-4957-b849-c5f445b7f702","ios":"levelo://app?vid=5329be8f-8155-4957-b849-c5f445b7f702"},"vehicle_type_id":"4","last_reported":1719275863,"current_range_meters":31200,"station_id":"ce4bgv12rcd13ifvqcp0","pricing_plan_id":"cebpf4jnsgd1na2vs0mg"},{"bike_id":"c67f5089-2900-434f-bce9-41c68cd608ce","system_id":"levelo_inurba_marseille","lat":43.311722,"lon":5.387247,"is_reserved":false,"is_disabled":false,"rental_uris":{"android":"levelo://app?vid=c67f5089-2900-434f-bce9-41c68cd608ce","ios":"levelo://app?vid=c67f5089-2900-434f-bce9-41c68cd608ce"},"vehicle_type_id":"4","last_reported":1719275863,"current_range_meters":31600,"station_id":"ce4bgv12rcd13ifvqcp0","pricing_plan_id":"cebpf4jnsgd1na2vs0mg"},{"bike_id":"31ff90e3-5825-423a-a18d-67ae485e9b55","system_id":"levelo_inurba_marseille","lat":43.311722,"lon":5.387247,"is_reserved":false,"is_disabled":false,"rental_uris":{"android":"levelo://app?vid=31ff90e3-5825-423a-a18d-67ae485e9b55","ios":"levelo://app?vid=31ff90e3-5825-423a-a18d-67ae485e9b55"},"vehicle_type_id":"4","last_reported":1719275863,"current_range_meters":30400,"station_id":"ce4bgv12rcd13ifvqcp0","pricing_plan_id":"cebpf4jnsgd1na2vs0mg"},{"bike_id":"4834831b-09bc-457a-bb7a-a7413e2c988d","system_id":"levelo_inurba_marseille","lat":43.299243,"lon":5.37481,"is_reserved":false,"is_disabled":false,"rental_uris":{"android":"levelo://app?vid=4834831b-09bc-457a-bb7a-a7413e2c988d","ios":"levelo://app?vid=4834831b-09bc-457a-bb7a-a7413e2c988d"},"vehicle_type_id":"4","last_reported":1719275863,"current_range_meters":25200,"station_id":"ce4bgjh2rcd13ifvqbg0","pricing_plan_id":"cebpf4jnsgd1na2vs0mg"},{"bike_id":"0bd9b465-44d2-428c-922d-8d42c60925b6","system_id":"levelo_inurba_marseille","lat":43.299243,"lon":5.37481,"is_reserved":false,"is_disabled":false,"rental_uris":{"android":"levelo://app?vid=0bd9b465-44d2-428c-922d-8d42c60925b6","ios":"levelo://app?vid=0bd9b465-44d2-428c-922d-8d42c60925b6"},"vehicle_type_id":"4","last_reported":1719275863,"current_range_meters":31200,"station_id":"ce4bgjh2rcd13ifvqbg0","pricing_plan_id":"cebpf4jnsgd1na2vs0mg"},{"bike_id":"8e4f703b-ce16-4530-81d2-5b56d61f68f8","system_id":"levelo_inurba_marseille","lat":43.299243,"lon":5.37481,"is_reserved":false,"is_disabled":false,"rental_uris":{"android":"levelo://app?vid=8e4f703b-ce16-4530-81d2-5b56d61f68f8","ios":"levelo://app?vid=8e4f703b-ce16-4530-81d2-5b56d61f68f8"},"vehicle_type_id":"4","last_reported":1719275863,"current_range_meters":31600,"station_id":"ce4bgjh2rcd13ifvqbg0","pricing_plan_id":"cebpf4jnsgd1na2vs0mg"},{"bike_id":"00c5cfa3-a96b-4bc1-ac33-dd1066ee5237","system_id":"levelo_inurba_marseille","lat":43.311722,"lon":5.387247,"is_reserved":false,"is_disabled":false,"rental_uris":{"android":"levelo://app?vid=00c5cfa3-a96b-4bc1-ac33-dd1066ee5237","ios":"levelo://app?vid=00c5cfa3-a96b-4bc1-ac33-dd1066ee5237"},"vehicle_type_id":"4","last_reported":1719275863,"current_range_meters":31600,"station_id":"ce4bgv12rcd13ifvqcp0","pricing_plan_id":"cebpf4jnsgd1na2vs0mg"},{"bike_id":"60a238d7-abaa-4749-a618-e893f2d80f88","system_id":"levelo_inurba_marseille","lat":43.311804,"lon":5.387186,"is_reserved":false,"is_disabled":false,"rental_uris":{"android":"levelo://app?vid=60a238d7-abaa-4749-a618-e893f2d80f88","ios":"levelo://app?vid=60a238d7-abaa-4749-a618-e893f2d80f88"},"vehicle_type_id":"4","last_reported":1719275863,"current_range_meters":27200,"station_id":"ce4bgv12rcd13ifvqcp0","pricing_plan_id":"cebpf4jnsgd1na2vs0mg"},{"bike_id":"a8d5c4da-ae80-4681-a424-47e178299637","system_id":"levelo_inurba_marseille","lat":43.311722,"lon":5.387247,"is_reserved":false,"is_disabled":false,"rental_uris":{"android":"levelo://app?vid=a8d5c4da-ae80-4681-a424-47e178299637","ios":"levelo://app?vid=a8d5c4da-ae80-4681-a424-47e178299637"},"vehicle_type_id":"4","last_reported":1719275863,"current_range_meters":25200,"station_id":"ce4bgv12rcd13ifvqcp0","pricing_plan_id":"cebpf4jnsgd1na2vs0mg"},{"bike_id":"c9778961-ecb1-4982-a816-8811b90744ea","system_id":"levelo_inurba_marseille","lat":43.311722,"lon":5.387247,"is_reserved":false,"is_disabled":false,"rental_uris":{"android":"levelo://app?vid=c9778961-ecb1-4982-a816-8811b90744ea","ios":"levelo://app?vid=c9778961-ecb1-4982-a816-8811b90744ea"},"vehicle_type_id":"4","last_reported":1719275863,"current_range_meters":30800,"station_id":"ce4bgv12rcd13ifvqcp0","pricing_plan_id":"cebpf4jnsgd1na2vs0mg"},{"bike_id":"36f6064e-b345-4b06-b612-bd4713dd20a5","system_id":"levelo_inurba_marseille","lat":43.311722,"lon":5.387247,"is_reserved":false,"is_disabled":false,"rental_uris":{"android":"levelo://app?vid=36f6064e-b345-4b06-b612-bd4713dd20a5","ios":"levelo://app?vid=36f6064e-b345-4b06-b612-bd4713dd20a5"},"vehicle_type_id":"4","last_reported":1719275863,"current_range_meters":28000,"station_id":"ce4bgv12rcd13ifvqcp0","pricing_plan_id":"cebpf4jnsgd1na2vs0mg"},{"bike_id":"9b4e9a6e-2130-4b9f-a72b-0885b8cfa5bf","system_id":"levelo_inurba_marseille","lat":43.297774,"lon":5.370875,"is_reserved":false,"is_disabled":false,"rental_uris":{"android":"levelo://app?vid=9b4e9a6e-2130-4b9f-a72b-0885b8cfa5bf","ios":"levelo://app?vid=9b4e9a6e-2130-4b9f-a72b-0885b8cfa5bf"},"vehicle_type_id":"4","last_reported":1719275863,"current_range_meters":30800,"station_id":"ce4bgop2rcd13ifvqc1g","pricing_plan_id":"cebpf4jnsgd1na2vs0mg"},{"bike_id":"c931766e-7314-4787-a212-81f0215eb9ce","system_id":"levelo_inurba_marseille","lat":43.311722,"lon":5.387247,"is_reserved":false,"is_disabled":false,"rental_uris":{"android":"levelo://app?vid=c931766e-7314-4787-a212-81f0215eb9ce","ios":"levelo://app?vid=c931766e-7314-4787-a212-81f0215eb9ce"},"vehicle_type_id":"4","last_reported":1719275863,"current_range_meters":8400,"station_id":"ce4bgv12rcd13ifvqcp0","pricing_plan_id":"cebpf4jnsgd1na2vs0mg"},{"bike_id":"34159617-e596-4dbf-9981-109c4ed1fa75","system_id":"levelo_inurba_marseille","lat":43.322872,"lon":5.382756,"is_reserved":false,"is_disabled":false,"rental_uris":{"android":"levelo://app?vid=34159617-e596-4dbf-9981-109c4ed1fa75","ios":"levelo://app?vid=34159617-e596-4dbf-9981-109c4ed1fa75"},"vehicle_type_id":"4","last_reported":1719275863,"current_range_meters":30000,"station_id":"ce4bhr12rcd13ifvqhqg","pricing_plan_id":"cebpf4jnsgd1na2vs0mg"},{"bike_id":"de15eb35-9a72-4513-b9b1-9d70e26e4f8e","system_id":"levelo_inurba_marseille","lat":43.322872,"lon":5.382756,"is_reserved":false,"is_disabled":false,"rental_uris":{"android":"levelo://app?vid=de15eb35-9a72-4513-b9b1-9d70e26e4f8e","ios":"levelo://app?vid=de15eb35-9a72-4513-b9b1-9d70e26e4f8e"},"vehicle_type_id":"4","last_reported":1719275863,"current_range_meters":30000,"station_id":"ce4bhr12rcd13ifvqhqg","pricing_plan_id":"cebpf4jnsgd1na2vs0mg"},{"bike_id":"8a3dee68-befb-495c-8c53-779d24084da1","system_id":"levelo_inurba_marseille","lat":43.29704,"lon":5.365473,"is_reserved":false,"is_disabled":false,"rental_uris":{"android":"levelo://app?vid=8a3dee68-befb-495c-8c53-779d24084da1","ios":"levelo://app?vid=8a3dee68-befb-495c-8c53-779d24084da1"},"vehicle_type_id":"4","last_reported":1719275863,"current_range_meters":30000,"station_id":"ce4bgn12rcd13ifvqbt0","pricing_plan_id":"cebpf4jnsgd1na2vs0mg"},{"bike_id":"fc38beb6-8f48-4fef-b127-3e24984dcc9e","system_id":"levelo_inurba_marseille","lat":43.29573,"lon":5.367355,"is_reserved":false,"is_disabled":false,"rental_uris":{"android":"levelo://app?vid=fc38beb6-8f48-4fef-b127-3e24984dcc9e","ios":"levelo://app?vid=fc38beb6-8f48-4fef-b127-3e24984dcc9e"},"vehicle_type_id":"4","last_reported":1719275863,"current_range_meters":24000,"station_id":"ce4bgph2rcd13ifvqc2g","pricing_plan_id":"cebpf4jnsgd1na2vs0mg"},{"bike_id":"36e92c68-b408-421c-8afe-4e41cfb717ba","system_id":"levelo_inurba_marseille","lat":43.296921,"lon":5.376579,"is_reserved":false,"is_disabled":false,"rental_uris":{"android":"levelo://app?vid=36e92c68-b408-421c-8afe-4e41cfb717ba","ios":"levelo://app?vid=36e92c68-b408-421c-8afe-4e41cfb717ba"},"vehicle_type_id":"4","last_reported":1719275863,"current_range_meters":14000,"station_id":"ce4bgkh2rcd13ifvqbl0","pricing_plan_id":"cebpf4jnsgd1na2vs0mg"},{"bike_id":"4d082611-b329-417f-bc50-0e3d3b580872","system_id":"levelo_inurba_marseille","lat":43.309589,"lon":5.390258,"is_reserved":false,"is_disabled":false,"rental_uris":{"android":"levelo://app?vid=4d082611-b329-417f-bc50-0e3d3b580872","ios":"levelo://app?vid=4d082611-b329-417f-bc50-0e3d3b580872"},"vehicle_type_id":"4","last_reported":1719275863,"current_range_meters":20000,"station_id":"ce4bgup2rcd13ifvqco0","pricing_plan_id":"cebpf4jnsgd1na2vs0mg"},{"bike_id":"b3bbffd2-b89f-4106-affb-199ecada0cd8","system_id":"levelo_inurba_marseille","lat":43.309589,"lon":5.390258,"is_reserved":false,"is_disabled":false,"rental_uris":{"android":"levelo://app?vid=b3bbffd2-b89f-4106-affb-199ecada0cd8","ios":"levelo://app?vid=b3bbffd2-b89f-4106-affb-199ecada0cd8"},"vehicle_type_id":"4","last_reported":1719275863,"current_range_meters":21600,"station_id":"ce4bgup2rcd13ifvqco0","pricing_plan_id":"cebpf4jnsgd1na2vs0mg"},{"bike_id":"4ae52ce0-0346-4a99-8386-2c8c720bf5b7","system_id":"levelo_inurba_marseille","lat":43.309589,"lon":5.390258,"is_reserved":false,"is_disabled":false,"rental_uris":{"android":"levelo://app?vid=4ae52ce0-0346-4a99-8386-2c8c720bf5b7","ios":"levelo://app?vid=4ae52ce0-0346-4a99-8386-2c8c720bf5b7"},"vehicle_type_id":"4","last_reported":1719275863,"current_range_meters":23200,"station_id":"ce4bgup2rcd13ifvqco0","pricing_plan_id":"cebpf4jnsgd1na2vs0mg"},{"bike_id":"e668fb9f-38e5-4509-8669-c42be52c9750","system_id":"levelo_inurba_marseille","lat":43.309589,"lon":5.390258,"is_reserved":false,"is_disabled":false,"rental_uris":{"android":"levelo://app?vid=e668fb9f-38e5-4509-8669-c42be52c9750","ios":"levelo://app?vid=e668fb9f-38e5-4509-8669-c42be52c9750"},"vehicle_type_id":"4","last_reported":1719275863,"current_range_meters":17600,"station_id":"ce4bgup2rcd13ifvqco0","pricing_plan_id":"cebpf4jnsgd1na2vs0mg"},{"bike_id":"753f1da4-104b-4488-991b-a0d10f9bebf1","system_id":"levelo_inurba_marseille","lat":43.317557,"lon":5.390173,"is_reserved":false,"is_disabled":false,"rental_uris":{"android":"levelo://app?vid=753f1da4-104b-4488-991b-a0d10f9bebf1","ios":"levelo://app?vid=753f1da4-104b-4488-991b-a0d10f9bebf1"},"vehicle_type_id":"4","last_reported":1719275863,"current_range_meters":20800,"station_id":"ce4bhqp2rcd13ifvqhng","pricing_plan_id":"cebpf4jnsgd1na2vs0mg"},{"bike_id":"d0ad72a6-bc81-42de-9c1d-134c9a3a9620","system_id":"levelo_inurba_marseille","lat":43.317557,"lon":5.390173,"is_reserved":false,"is_disabled":false,"rental_uris":{"android":"levelo://app?vid=d0ad72a6-bc81-42de-9c1d-134c9a3a9620","ios":"levelo://app?vid=d0ad72a6-bc81-42de-9c1d-134c9a3a9620"},"vehicle_type_id":"4","last_reported":1719275863,"current_range_meters":30800,"station_id":"ce4bhqp2rcd13ifvqhng","pricing_plan_id":"cebpf4jnsgd1na2vs0mg"},{"bike_id":"2c57ec1f-ce24-4ef8-ab49-5cb807b19dac","system_id":"levelo_inurba_marseille","lat":43.31759,"lon":5.39015,"is_reserved":false,"is_disabled":false,"rental_uris":{"android":"levelo://app?vid=2c57ec1f-ce24-4ef8-ab49-5cb807b19dac","ios":"levelo://app?vid=2c57ec1f-ce24-4ef8-ab49-5cb807b19dac"},"vehicle_type_id":"4","last_reported":1719275863,"current_range_meters":1600,"station_id":"ce4bhqp2rcd13ifvqhng","pricing_plan_id":"cebpf4jnsgd1na2vs0mg"},{"bike_id":"c36c14b8-4e8d-44c9-846b-d35b5c0355e1","system_id":"levelo_inurba_marseille","lat":43.317592,"lon":5.39016,"is_reserved":false,"is_disabled":false,"rental_uris":{"android":"levelo://app?vid=c36c14b8-4e8d-44c9-846b-d35b5c0355e1","ios":"levelo://app?vid=c36c14b8-4e8d-44c9-846b-d35b5c0355e1"},"vehicle_type_id":"4","last_reported":1719275863,"current_range_meters":30800,"station_id":"ce4bhqp2rcd13ifvqhng","pricing_plan_id":"cebpf4jnsgd1na2vs0mg"},{"bike_id":"cf794826-1d69-43cb-ba64-e910ab7c4c07","system_id":"levelo_inurba_marseille","lat":43.31752,"lon":5.39021,"is_reserved":false,"is_disabled":false,"rental_uris":{"android":"levelo://app?vid=cf794826-1d69-43cb-ba64-e910ab7c4c07","ios":"levelo://app?vid=cf794826-1d69-43cb-ba64-e910ab7c4c07"},"vehicle_type_id":"4","last_reported":1719275863,"current_range_meters":24000,"station_id":"ce4bhqp2rcd13ifvqhng","pricing_plan_id":"cebpf4jnsgd1na2vs0mg"},{"bike_id":"b6664e2f-1e51-4de7-ba47-d80bdf1a20e9","system_id":"levelo_inurba_marseille","lat":43.304327,"lon":5.388883,"is_reserved":false,"is_disabled":false,"rental_uris":{"android":"levelo://app?vid=b6664e2f-1e51-4de7-ba47-d80bdf1a20e9","ios":"levelo://app?vid=b6664e2f-1e51-4de7-ba47-d80bdf1a20e9"},"vehicle_type_id":"4","last_reported":1719275863,"current_range_meters":20000,"station_id":"ce4bgk12rcd13ifvqbi0","pricing_plan_id":"cebpf4jnsgd1na2vs0mg"},{"bike_id":"b4d2beb5-9ea1-4894-8b84-64377b427387","system_id":"levelo_inurba_marseille","lat":43.30435,"lon":5.38894,"is_reserved":false,"is_disabled":false,"rental_uris":{"android":"levelo://app?vid=b4d2beb5-9ea1-4894-8b84-64377b427387","ios":"levelo://app?vid=b4d2beb5-9ea1-4894-8b84-64377b427387"},"vehicle_type_id":"4","last_reported":1719275863,"current_range_meters":19600,"station_id":"ce4bgk12rcd13ifvqbi0","pricing_plan_id":"cebpf4jnsgd1na2vs0mg"},{"bike_id":"8f5ed63f-f067-4907-8ddf-577454b8d946","system_id":"levelo_inurba_marseille","lat":43.299707,"lon":5.384859,"is_reserved":false,"is_disabled":false,"rental_uris":{"android":"levelo://app?vid=8f5ed63f-f067-4907-8ddf-577454b8d946","ios":"levelo://app?vid=8f5ed63f-f067-4907-8ddf-577454b8d946"},"vehicle_type_id":"4","last_reported":1719275863,"current_range_meters":27200,"station_id":"ce4bgj92rcd13ifvqbd0","pricing_plan_id":"cebpf4jnsgd1na2vs0mg"},{"bike_id":"46adf2f2-6975-4240-9b81-8da8a03d6192","system_id":"levelo_inurba_marseille","lat":43.32367,"lon":5.388836,"is_reserved":false,"is_disabled":false,"rental_uris":{"android":"levelo://app?vid=46adf2f2-6975-4240-9b81-8da8a03d6192","ios":"levelo://app?vid=46adf2f2-6975-4240-9b81-8da8a03d6192"},"vehicle_type_id":"4","last_reported":1719275863,"current_range_meters":3200,"station_id":"ce4bhqp2rcd13ifvqhog","pricing_plan_id":"cebpf4jnsgd1na2vs0mg"},{"bike_id":"6389a8c4-1d2f-434a-8385-00a200ddbab1","system_id":"levelo_inurba_marseille","lat":43.32363,"lon":5.38884,"is_reserved":false,"is_disabled":false,"rental_uris":{"android":"levelo://app?vid=6389a8c4-1d2f-434a-8385-00a200ddbab1","ios":"levelo://app?vid=6389a8c4-1d2f-434a-8385-00a200ddbab1"},"vehicle_type_id":"4","last_reported":1719275863,"current_range_meters":0,"station_id":"ce4bhqp2rcd13ifvqhog","pricing_plan_id":"cebpf4jnsgd1na2vs0mg"},{"bike_id":"c80ae94d-609d-4d70-841f-f6cd975d2cf7","system_id":"levelo_inurba_marseille","lat":43.32366,"lon":5.38903,"is_reserved":false,"is_disabled":false,"rental_uris":{"android":"levelo://app?vid=c80ae94d-609d-4d70-841f-f6cd975d2cf7","ios":"levelo://app?vid=c80ae94d-609d-4d70-841f-f6cd975d2cf7"},"vehicle_type_id":"4","last_reported":1719275863,"current_range_meters":0,"station_id":"ce4bhqp2rcd13ifvqhog","pricing_plan_id":"cebpf4jnsgd1na2vs0mg"},{"bike_id":"ba2fcb2d-b635-498c-b050-e9b02c4dd911","system_id":"levelo_inurba_marseille","lat":43.29602,"lon":5.381084,"is_reserved":false,"is_disabled":false,"rental_uris":{"android":"levelo://app?vid=ba2fcb2d-b635-498c-b050-e9b02c4dd911","ios":"levelo://app?vid=ba2fcb2d-b635-498c-b050-e9b02c4dd911"},"vehicle_type_id":"4","last_reported":1719275863,"current_range_meters":21600,"station_id":"ce4bgl12rcd13ifvqbo0","pricing_plan_id":"cebpf4jnsgd1na2vs0mg"},{"bike_id":"911893eb-dff4-4bb8-b411-e9f88b59524a","system_id":"levelo_inurba_marseille","lat":43.293249,"lon":5.371578,"is_reserved":false,"is_disabled":false,"rental_uris":{"android":"levelo://app?vid=911893eb-dff4-4bb8-b411-e9f88b59524a","ios":"levelo://app?vid=911893eb-dff4-4bb8-b411-e9f88b59524a"},"vehicle_type_id":"4","last_reported":1719275863,"current_range_meters":29200,"station_id":"ce4bgh92rcd13ifvqb40","pricing_plan_id":"cebpf4jnsgd1na2vs0mg"},{"bike_id":"6f363974-845c-4ca4-b2d9-d4fe9ce2f791","system_id":"levelo_inurba_marseille","lat":43.305994,"lon":5.393687,"is_reserved":false,"is_disabled":false,"rental_uris":{"android":"levelo://app?vid=6f363974-845c-4ca4-b2d9-d4fe9ce2f791","ios":"levelo://app?vid=6f363974-845c-4ca4-b2d9-d4fe9ce2f791"},"vehicle_type_id":"4","last_reported":1719275863,"current_range_meters":30000,"station_id":"ce4bh0p2rcd13ifvqd80","pricing_plan_id":"cebpf4jnsgd1na2vs0mg"},{"bike_id":"761536ef-dfbd-4565-bd9e-ef42c7a84b16","system_id":"levelo_inurba_marseille","lat":43.305994,"lon":5.393687,"is_reserved":false,"is_disabled":false,"rental_uris":{"android":"levelo://app?vid=761536ef-dfbd-4565-bd9e-ef42c7a84b16","ios":"levelo://app?vid=761536ef-dfbd-4565-bd9e-ef42c7a84b16"},"vehicle_type_id":"4","last_reported":1719275863,"current_range_meters":23200,"station_id":"ce4bh0p2rcd13ifvqd80","pricing_plan_id":"cebpf4jnsgd1na2vs0mg"},{"bike_id":"78c9bba3-b788-40fe-9e6e-db3d17c2f654","system_id":"levelo_inurba_marseille","lat":43.303002,"lon":5.392142,"is_reserved":false,"is_disabled":false,"rental_uris":{"android":"levelo://app?vid=78c9bba3-b788-40fe-9e6e-db3d17c2f654","ios":"levelo://app?vid=78c9bba3-b788-40fe-9e6e-db3d17c2f654"},"vehicle_type_id":"4","last_reported":1719275863,"current_range_meters":0,"station_id":"ce4bgkh2rcd13ifvqbk0","pricing_plan_id":"cebpf4jnsgd1na2vs0mg"},{"bike_id":"382a81c9-eb94-4ca1-9089-599e618f5871","system_id":"levelo_inurba_marseille","lat":43.30085,"lon":5.390856,"is_reserved":false,"is_disabled":false,"rental_uris":{"android":"levelo://app?vid=382a81c9-eb94-4ca1-9089-599e618f5871","ios":"levelo://app?vid=382a81c9-eb94-4ca1-9089-599e618f5871"},"vehicle_type_id":"4","last_reported":1719275863,"current_range_meters":18800,"station_id":"ce4bh192rcd13ifvqdb0","pricing_plan_id":"cebpf4jnsgd1na2vs0mg"},{"bike_id":"c8d36ea4-15d1-4dd7-bbbd-61a04491fd13","system_id":"levelo_inurba_marseille","lat":43.298764,"lon":5.388973,"is_reserved":false,"is_disabled":false,"rental_uris":{"android":"levelo://app?vid=c8d36ea4-15d1-4dd7-bbbd-61a04491fd13","ios":"levelo://app?vid=c8d36ea4-15d1-4dd7-bbbd-61a04491fd13"},"vehicle_type_id":"4","last_reported":1719275863,"current_range_meters":2000,"station_id":"ce4bh392rcd13ifvqdl0","pricing_plan_id":"cebpf4jnsgd1na2vs0mg"},{"bike_id":"ba834afc-8e38-4103-9b9c-f26c4dbf46cf","system_id":"levelo_inurba_marseille","lat":43.298764,"lon":5.388973,"is_reserved":false,"is_disabled":false,"rental_uris":{"android":"levelo://app?vid=ba834afc-8e38-4103-9b9c-f26c4dbf46cf","ios":"levelo://app?vid=ba834afc-8e38-4103-9b9c-f26c4dbf46cf"},"vehicle_type_id":"4","last_reported":1719275863,"current_range_meters":14000,"station_id":"ce4bh392rcd13ifvqdl0","pricing_plan_id":"cebpf4jnsgd1na2vs0mg"},{"bike_id":"23f3c8f1-135c-4178-837b-839a057bf548","system_id":"levelo_inurba_marseille","lat":43.29866,"lon":5.38906,"is_reserved":false,"is_disabled":false,"rental_uris":{"android":"levelo://app?vid=23f3c8f1-135c-4178-837b-839a057bf548","ios":"levelo://app?vid=23f3c8f1-135c-4178-837b-839a057bf548"},"vehicle_type_id":"4","last_reported":1719275863,"current_range_meters":12400,"station_id":"ce4bh392rcd13ifvqdl0","pricing_plan_id":"cebpf4jnsgd1na2vs0mg"},{"bike_id":"20868744-b34c-4f4b-9772-b2c1b2d290b5","system_id":"levelo_inurba_marseille","lat":43.298764,"lon":5.388973,"is_reserved":false,"is_disabled":false,"rental_uris":{"android":"levelo://app?vid=20868744-b34c-4f4b-9772-b2c1b2d290b5","ios":"levelo://app?vid=20868744-b34c-4f4b-9772-b2c1b2d290b5"},"vehicle_type_id":"4","last_reported":1719275863,"current_range_meters":24400,"station_id":"ce4bh392rcd13ifvqdl0","pricing_plan_id":"cebpf4jnsgd1na2vs0mg"},{"bike_id":"9432f900-1e2a-472d-b9c4-6183f9cffbad","system_id":"levelo_inurba_marseille","lat":43.309038,"lon":5.396546,"is_reserved":false,"is_disabled":false,"rental_uris":{"android":"levelo://app?vid=9432f900-1e2a-472d-b9c4-6183f9cffbad","ios":"levelo://app?vid=9432f900-1e2a-472d-b9c4-6183f9cffbad"},"vehicle_type_id":"4","last_reported":1719275863,"current_range_meters":22800,"station_id":"ce4bh012rcd13ifvqcv0","pricing_plan_id":"cebpf4jnsgd1na2vs0mg"},{"bike_id":"18a491b5-e573-4c41-943b-f542e609b16a","system_id":"levelo_inurba_marseille","lat":43.309038,"lon":5.396546,"is_reserved":false,"is_disabled":false,"rental_uris":{"android":"levelo://app?vid=18a491b5-e573-4c41-943b-f542e609b16a","ios":"levelo://app?vid=18a491b5-e573-4c41-943b-f542e609b16a"},"vehicle_type_id":"4","last_reported":1719275863,"current_range_meters":30800,"station_id":"ce4bh012rcd13ifvqcv0","pricing_plan_id":"cebpf4jnsgd1na2vs0mg"},{"bike_id":"2a90c294-c17a-4626-8614-bb140a00c0f5","system_id":"levelo_inurba_marseille","lat":43.309047,"lon":5.396551,"is_reserved":false,"is_disabled":false,"rental_uris":{"android":"levelo://app?vid=2a90c294-c17a-4626-8614-bb140a00c0f5","ios":"levelo://app?vid=2a90c294-c17a-4626-8614-bb140a00c0f5"},"vehicle_type_id":"4","last_reported":1719275863,"current_range_meters":15200,"station_id":"ce4bh012rcd13ifvqcv0","pricing_plan_id":"cebpf4jnsgd1na2vs0mg"},{"bike_id":"b80c950b-b2f6-42cb-9ee0-e8b0a8f36acb","system_id":"levelo_inurba_marseille","lat":43.308803,"lon":5.396387,"is_reserved":false,"is_disabled":false,"rental_uris":{"android":"levelo://app?vid=b80c950b-b2f6-42cb-9ee0-e8b0a8f36acb","ios":"levelo://app?vid=b80c950b-b2f6-42cb-9ee0-e8b0a8f36acb"},"vehicle_type_id":"4","last_reported":1719275863,"current_range_meters":7200,"station_id":"ce4bh012rcd13ifvqcv0","pricing_plan_id":"cebpf4jnsgd1na2vs0mg"},{"bike_id":"0b30cb31-ecee-4a32-b1bb-146b3901ecb9","system_id":"levelo_inurba_marseille","lat":43.308832,"lon":5.396397,"is_reserved":false,"is_disabled":false,"rental_uris":{"android":"levelo://app?vid=0b30cb31-ecee-4a32-b1bb-146b3901ecb9","ios":"levelo://app?vid=0b30cb31-ecee-4a32-b1bb-146b3901ecb9"},"vehicle_type_id":"4","last_reported":1719275863,"current_range_meters":22400,"station_id":"ce4bh012rcd13ifvqcv0","pricing_plan_id":"cebpf4jnsgd1na2vs0mg"},{"bike_id":"9eb8e639-c8c8-4c2c-b853-da9dd4b70c0d","system_id":"levelo_inurba_marseille","lat":43.313291,"lon":5.396838,"is_reserved":false,"is_disabled":false,"rental_uris":{"android":"levelo://app?vid=9eb8e639-c8c8-4c2c-b853-da9dd4b70c0d","ios":"levelo://app?vid=9eb8e639-c8c8-4c2c-b853-da9dd4b70c0d"},"vehicle_type_id":"4","last_reported":1719275863,"current_range_meters":8400,"station_id":"ce4bgvp2rcd13ifvqcu0","pricing_plan_id":"cebpf4jnsgd1na2vs0mg"},{"bike_id":"26cb4221-b5f3-4d99-8e89-bb3f020d6ab1","system_id":"levelo_inurba_marseille","lat":43.313291,"lon":5.396838,"is_reserved":false,"is_disabled":false,"rental_uris":{"android":"levelo://app?vid=26cb4221-b5f3-4d99-8e89-bb3f020d6ab1","ios":"levelo://app?vid=26cb4221-b5f3-4d99-8e89-bb3f020d6ab1"},"vehicle_type_id":"4","last_reported":1719275863,"current_range_meters":16800,"station_id":"ce4bgvp2rcd13ifvqcu0","pricing_plan_id":"cebpf4jnsgd1na2vs0mg"},{"bike_id":"6f806eb9-7349-4a05-bef8-c3a43fc04286","system_id":"levelo_inurba_marseille","lat":43.313291,"lon":5.396838,"is_reserved":false,"is_disabled":false,"rental_uris":{"android":"levelo://app?vid=6f806eb9-7349-4a05-bef8-c3a43fc04286","ios":"levelo://app?vid=6f806eb9-7349-4a05-bef8-c3a43fc04286"},"vehicle_type_id":"4","last_reported":1719275863,"current_range_meters":17200,"station_id":"ce4bgvp2rcd13ifvqcu0","pricing_plan_id":"cebpf4jnsgd1na2vs0mg"},{"bike_id":"7a3d660f-5d3d-4239-8e83-033e29249dda","system_id":"levelo_inurba_marseille","lat":43.309047,"lon":5.396551,"is_reserved":false,"is_disabled":false,"rental_uris":{"android":"levelo://app?vid=7a3d660f-5d3d-4239-8e83-033e29249dda","ios":"levelo://app?vid=7a3d660f-5d3d-4239-8e83-033e29249dda"},"vehicle_type_id":"4","last_reported":1719275863,"current_range_meters":9200,"station_id":"ce4bh012rcd13ifvqcv0","pricing_plan_id":"cebpf4jnsgd1na2vs0mg"},{"bike_id":"4b28afbe-edae-4cf1-95ed-b3409b438870","system_id":"levelo_inurba_marseille","lat":43.313291,"lon":5.396838,"is_reserved":false,"is_disabled":false,"rental_uris":{"android":"levelo://app?vid=4b28afbe-edae-4cf1-95ed-b3409b438870","ios":"levelo://app?vid=4b28afbe-edae-4cf1-95ed-b3409b438870"},"vehicle_type_id":"4","last_reported":1719275863,"current_range_meters":30400,"station_id":"ce4bgvp2rcd13ifvqcu0","pricing_plan_id":"cebpf4jnsgd1na2vs0mg"},{"bike_id":"164fe788-8995-4515-8c0f-b10f04456763","system_id":"levelo_inurba_marseille","lat":43.313291,"lon":5.396838,"is_reserved":false,"is_disabled":false,"rental_uris":{"android":"levelo://app?vid=164fe788-8995-4515-8c0f-b10f04456763","ios":"levelo://app?vid=164fe788-8995-4515-8c0f-b10f04456763"},"vehicle_type_id":"4","last_reported":1719275863,"current_range_meters":28400,"station_id":"ce4bgvp2rcd13ifvqcu0","pricing_plan_id":"cebpf4jnsgd1na2vs0mg"},{"bike_id":"e4b6af0a-a3f8-4d53-bab4-7d0d7f9fd51b","system_id":"levelo_inurba_marseille","lat":43.313291,"lon":5.396838,"is_reserved":false,"is_disabled":false,"rental_uris":{"android":"levelo://app?vid=e4b6af0a-a3f8-4d53-bab4-7d0d7f9fd51b","ios":"levelo://app?vid=e4b6af0a-a3f8-4d53-bab4-7d0d7f9fd51b"},"vehicle_type_id":"4","last_reported":1719275863,"current_range_meters":31200,"station_id":"ce4bgvp2rcd13ifvqcu0","pricing_plan_id":"cebpf4jnsgd1na2vs0mg"},{"bike_id":"a5f6fda7-86b7-4a54-98e1-755f24e7c7fd","system_id":"levelo_inurba_marseille","lat":43.313291,"lon":5.396838,"is_reserved":false,"is_disabled":false,"rental_uris":{"android":"levelo://app?vid=a5f6fda7-86b7-4a54-98e1-755f24e7c7fd","ios":"levelo://app?vid=a5f6fda7-86b7-4a54-98e1-755f24e7c7fd"},"vehicle_type_id":"4","last_reported":1719275863,"current_range_meters":31600,"station_id":"ce4bgvp2rcd13ifvqcu0","pricing_plan_id":"cebpf4jnsgd1na2vs0mg"},{"bike_id":"5da0d757-3bd8-4cc2-8018-3f69f593e9a5","system_id":"levelo_inurba_marseille","lat":43.308822,"lon":5.396438,"is_reserved":false,"is_disabled":false,"rental_uris":{"android":"levelo://app?vid=5da0d757-3bd8-4cc2-8018-3f69f593e9a5","ios":"levelo://app?vid=5da0d757-3bd8-4cc2-8018-3f69f593e9a5"},"vehicle_type_id":"4","last_reported":1719275863,"current_range_meters":12800,"station_id":"ce4bh012rcd13ifvqcv0","pricing_plan_id":"cebpf4jnsgd1na2vs0mg"},{"bike_id":"e9b9fbab-73a2-457c-b7b8-cc5f5013ff09","system_id":"levelo_inurba_marseille","lat":43.313291,"lon":5.396838,"is_reserved":false,"is_disabled":false,"rental_uris":{"android":"levelo://app?vid=e9b9fbab-73a2-457c-b7b8-cc5f5013ff09","ios":"levelo://app?vid=e9b9fbab-73a2-457c-b7b8-cc5f5013ff09"},"vehicle_type_id":"4","last_reported":1719275863,"current_range_meters":20800,"station_id":"ce4bgvp2rcd13ifvqcu0","pricing_plan_id":"cebpf4jnsgd1na2vs0mg"},{"bike_id":"fc602dee-3885-47c9-805f-f9f992106083","system_id":"levelo_inurba_marseille","lat":43.313291,"lon":5.396838,"is_reserved":false,"is_disabled":false,"rental_uris":{"android":"levelo://app?vid=fc602dee-3885-47c9-805f-f9f992106083","ios":"levelo://app?vid=fc602dee-3885-47c9-805f-f9f992106083"},"vehicle_type_id":"4","last_reported":1719275863,"current_range_meters":23200,"station_id":"ce4bgvp2rcd13ifvqcu0","pricing_plan_id":"cebpf4jnsgd1na2vs0mg"},{"bike_id":"4950863f-b8f6-46b8-bed1-641b179e16ca","system_id":"levelo_inurba_marseille","lat":43.309047,"lon":5.396551,"is_reserved":false,"is_disabled":false,"rental_uris":{"android":"levelo://app?vid=4950863f-b8f6-46b8-bed1-641b179e16ca","ios":"levelo://app?vid=4950863f-b8f6-46b8-bed1-641b179e16ca"},"vehicle_type_id":"4","last_reported":1719275863,"current_range_meters":31600,"station_id":"ce4bh012rcd13ifvqcv0","pricing_plan_id":"cebpf4jnsgd1na2vs0mg"},{"bike_id":"f1e1c45b-b853-4101-ac2d-7cbcd2850dc0","system_id":"levelo_inurba_marseille","lat":43.313291,"lon":5.396838,"is_reserved":false,"is_disabled":false,"rental_uris":{"android":"levelo://app?vid=f1e1c45b-b853-4101-ac2d-7cbcd2850dc0","ios":"levelo://app?vid=f1e1c45b-b853-4101-ac2d-7cbcd2850dc0"},"vehicle_type_id":"4","last_reported":1719275863,"current_range_meters":23200,"station_id":"ce4bgvp2rcd13ifvqcu0","pricing_plan_id":"cebpf4jnsgd1na2vs0mg"},{"bike_id":"7c5ff667-0d52-4e56-ab33-00c871590541","system_id":"levelo_inurba_marseille","lat":43.309047,"lon":5.396551,"is_reserved":false,"is_disabled":false,"rental_uris":{"android":"levelo://app?vid=7c5ff667-0d52-4e56-ab33-00c871590541","ios":"levelo://app?vid=7c5ff667-0d52-4e56-ab33-00c871590541"},"vehicle_type_id":"4","last_reported":1719275863,"current_range_meters":8000,"station_id":"ce4bh012rcd13ifvqcv0","pricing_plan_id":"cebpf4jnsgd1na2vs0mg"},{"bike_id":"778228ce-3d94-4fd2-8120-f755afcac899","system_id":"levelo_inurba_marseille","lat":43.313291,"lon":5.396838,"is_reserved":false,"is_disabled":false,"rental_uris":{"android":"levelo://app?vid=778228ce-3d94-4fd2-8120-f755afcac899","ios":"levelo://app?vid=778228ce-3d94-4fd2-8120-f755afcac899"},"vehicle_type_id":"4","last_reported":1719275863,"current_range_meters":20400,"station_id":"ce4bgvp2rcd13ifvqcu0","pricing_plan_id":"cebpf4jnsgd1na2vs0mg"},{"bike_id":"373d5722-5434-47f0-9bdc-a85852380ff4","system_id":"levelo_inurba_marseille","lat":43.309038,"lon":5.396546,"is_reserved":false,"is_disabled":false,"rental_uris":{"android":"levelo://app?vid=373d5722-5434-47f0-9bdc-a85852380ff4","ios":"levelo://app?vid=373d5722-5434-47f0-9bdc-a85852380ff4"},"vehicle_type_id":"4","last_reported":1719275863,"current_range_meters":4400,"station_id":"ce4bh012rcd13ifvqcv0","pricing_plan_id":"cebpf4jnsgd1na2vs0mg"},{"bike_id":"89962f2d-046e-4346-830e-9afc892da223","system_id":"levelo_inurba_marseille","lat":43.313291,"lon":5.396838,"is_reserved":false,"is_disabled":false,"rental_uris":{"android":"levelo://app?vid=89962f2d-046e-4346-830e-9afc892da223","ios":"levelo://app?vid=89962f2d-046e-4346-830e-9afc892da223"},"vehicle_type_id":"4","last_reported":1719275863,"current_range_meters":29200,"station_id":"ce4bgvp2rcd13ifvqcu0","pricing_plan_id":"cebpf4jnsgd1na2vs0mg"},{"bike_id":"9d8bce9c-c00e-43ef-9e6e-0e5e807f7409","system_id":"levelo_inurba_marseille","lat":43.309038,"lon":5.396546,"is_reserved":false,"is_disabled":false,"rental_uris":{"android":"levelo://app?vid=9d8bce9c-c00e-43ef-9e6e-0e5e807f7409","ios":"levelo://app?vid=9d8bce9c-c00e-43ef-9e6e-0e5e807f7409"},"vehicle_type_id":"4","last_reported":1719275863,"current_range_meters":22800,"station_id":"ce4bh012rcd13ifvqcv0","pricing_plan_id":"cebpf4jnsgd1na2vs0mg"},{"bike_id":"a3b4a273-2a9e-4c4a-81f4-440bad55c854","system_id":"levelo_inurba_marseille","lat":43.291994,"lon":5.357886,"is_reserved":false,"is_disabled":false,"rental_uris":{"android":"levelo://app?vid=a3b4a273-2a9e-4c4a-81f4-440bad55c854","ios":"levelo://app?vid=a3b4a273-2a9e-4c4a-81f4-440bad55c854"},"vehicle_type_id":"4","last_reported":1719275863,"current_range_meters":26800,"station_id":"ce4bhb12rcd13ifvqel0","pricing_plan_id":"cebpf4jnsgd1na2vs0mg"},{"bike_id":"903c8b4d-4eea-481c-ad48-1d5fd06e959e","system_id":"levelo_inurba_marseille","lat":43.309047,"lon":5.396551,"is_reserved":false,"is_disabled":false,"rental_uris":{"android":"levelo://app?vid=903c8b4d-4eea-481c-ad48-1d5fd06e959e","ios":"levelo://app?vid=903c8b4d-4eea-481c-ad48-1d5fd06e959e"},"vehicle_type_id":"4","last_reported":1719275863,"current_range_meters":29600,"station_id":"ce4bh012rcd13ifvqcv0","pricing_plan_id":"cebpf4jnsgd1na2vs0mg"},{"bike_id":"24f4333a-1ccd-4615-8b96-395dbd2a7762","system_id":"levelo_inurba_marseille","lat":43.313291,"lon":5.396838,"is_reserved":false,"is_disabled":false,"rental_uris":{"android":"levelo://app?vid=24f4333a-1ccd-4615-8b96-395dbd2a7762","ios":"levelo://app?vid=24f4333a-1ccd-4615-8b96-395dbd2a7762"},"vehicle_type_id":"4","last_reported":1719275863,"current_range_meters":29600,"station_id":"ce4bgvp2rcd13ifvqcu0","pricing_plan_id":"cebpf4jnsgd1na2vs0mg"},{"bike_id":"e8544fa5-f78b-441c-bd31-e484b90c4723","system_id":"levelo_inurba_marseille","lat":43.309038,"lon":5.396546,"is_reserved":false,"is_disabled":false,"rental_uris":{"android":"levelo://app?vid=e8544fa5-f78b-441c-bd31-e484b90c4723","ios":"levelo://app?vid=e8544fa5-f78b-441c-bd31-e484b90c4723"},"vehicle_type_id":"4","last_reported":1719275863,"current_range_meters":30000,"station_id":"ce4bh012rcd13ifvqcv0","pricing_plan_id":"cebpf4jnsgd1na2vs0mg"},{"bike_id":"cb28e5fc-4551-4f2e-ba7e-44b3b848923d","system_id":"levelo_inurba_marseille","lat":43.31544,"lon":5.39716,"is_reserved":false,"is_disabled":false,"rental_uris":{"android":"levelo://app?vid=cb28e5fc-4551-4f2e-ba7e-44b3b848923d","ios":"levelo://app?vid=cb28e5fc-4551-4f2e-ba7e-44b3b848923d"},"vehicle_type_id":"4","last_reported":1719275863,"current_range_meters":1600,"station_id":"","pricing_plan_id":"cebpf4jnsgd1na2vs0mg"},{"bike_id":"499257af-a3a1-4eaf-b2fe-95b0012d845c","system_id":"levelo_inurba_marseille","lat":43.302008,"lon":5.394694,"is_reserved":false,"is_disabled":false,"rental_uris":{"android":"levelo://app?vid=499257af-a3a1-4eaf-b2fe-95b0012d845c","ios":"levelo://app?vid=499257af-a3a1-4eaf-b2fe-95b0012d845c"},"vehicle_type_id":"4","last_reported":1719275863,"current_range_meters":22000,"station_id":"ce4bh0p2rcd13ifvqd70","pricing_plan_id":"cebpf4jnsgd1na2vs0mg"},{"bike_id":"a8308467-e3b2-48a7-979b-92c50090f85b","system_id":"levelo_inurba_marseille","lat":43.302008,"lon":5.394694,"is_reserved":false,"is_disabled":false,"rental_uris":{"android":"levelo://app?vid=a8308467-e3b2-48a7-979b-92c50090f85b","ios":"levelo://app?vid=a8308467-e3b2-48a7-979b-92c50090f85b"},"vehicle_type_id":"4","last_reported":1719275863,"current_range_meters":25200,"station_id":"ce4bh0p2rcd13ifvqd70","pricing_plan_id":"cebpf4jnsgd1na2vs0mg"},{"bike_id":"1d05157a-91fe-453b-93dd-9833506d0628","system_id":"levelo_inurba_marseille","lat":43.302008,"lon":5.394694,"is_reserved":false,"is_disabled":false,"rental_uris":{"android":"levelo://app?vid=1d05157a-91fe-453b-93dd-9833506d0628","ios":"levelo://app?vid=1d05157a-91fe-453b-93dd-9833506d0628"},"vehicle_type_id":"4","last_reported":1719275863,"current_range_meters":30800,"station_id":"ce4bh0p2rcd13ifvqd70","pricing_plan_id":"cebpf4jnsgd1na2vs0mg"},{"bike_id":"03b2e223-7a30-45f3-a93c-ac0833f277d4","system_id":"levelo_inurba_marseille","lat":43.302008,"lon":5.394694,"is_reserved":false,"is_disabled":false,"rental_uris":{"android":"levelo://app?vid=03b2e223-7a30-45f3-a93c-ac0833f277d4","ios":"levelo://app?vid=03b2e223-7a30-45f3-a93c-ac0833f277d4"},"vehicle_type_id":"4","last_reported":1719275863,"current_range_meters":26800,"station_id":"ce4bh0p2rcd13ifvqd70","pricing_plan_id":"cebpf4jnsgd1na2vs0mg"},{"bike_id":"8b43f3f7-2eb9-4039-933e-27e871c6fced","system_id":"levelo_inurba_marseille","lat":43.302008,"lon":5.394694,"is_reserved":false,"is_disabled":false,"rental_uris":{"android":"levelo://app?vid=8b43f3f7-2eb9-4039-933e-27e871c6fced","ios":"levelo://app?vid=8b43f3f7-2eb9-4039-933e-27e871c6fced"},"vehicle_type_id":"4","last_reported":1719275863,"current_range_meters":15200,"station_id":"ce4bh0p2rcd13ifvqd70","pricing_plan_id":"cebpf4jnsgd1na2vs0mg"},{"bike_id":"0e2632c6-7ac6-444e-90fa-bec22908808b","system_id":"levelo_inurba_marseille","lat":43.290631,"lon":5.359244,"is_reserved":false,"is_disabled":false,"rental_uris":{"android":"levelo://app?vid=0e2632c6-7ac6-444e-90fa-bec22908808b","ios":"levelo://app?vid=0e2632c6-7ac6-444e-90fa-bec22908808b"},"vehicle_type_id":"4","last_reported":1719275863,"current_range_meters":18800,"station_id":"ce4bha92rcd13ifvqeg0","pricing_plan_id":"cebpf4jnsgd1na2vs0mg"},{"bike_id":"3002950a-3c4d-4004-974c-0958e9a6bbe7","system_id":"levelo_inurba_marseille","lat":43.28939,"lon":5.36615,"is_reserved":false,"is_disabled":false,"rental_uris":{"android":"levelo://app?vid=3002950a-3c4d-4004-974c-0958e9a6bbe7","ios":"levelo://app?vid=3002950a-3c4d-4004-974c-0958e9a6bbe7"},"vehicle_type_id":"4","last_reported":1719275863,"current_range_meters":19600,"station_id":"ce4bhap2rcd13ifvqek0","pricing_plan_id":"cebpf4jnsgd1na2vs0mg"},{"bike_id":"5c51119e-5d73-489d-a33e-e9e592d7dfd1","system_id":"levelo_inurba_marseille","lat":43.289184,"lon":5.366408,"is_reserved":false,"is_disabled":false,"rental_uris":{"android":"levelo://app?vid=5c51119e-5d73-489d-a33e-e9e592d7dfd1","ios":"levelo://app?vid=5c51119e-5d73-489d-a33e-e9e592d7dfd1"},"vehicle_type_id":"4","last_reported":1719275863,"current_range_meters":27600,"station_id":"ce4bhap2rcd13ifvqek0","pricing_plan_id":"cebpf4jnsgd1na2vs0mg"},{"bike_id":"77271f56-e478-4c8b-803f-bf30cb38ab7c","system_id":"levelo_inurba_marseille","lat":43.289184,"lon":5.366408,"is_reserved":false,"is_disabled":false,"rental_uris":{"android":"levelo://app?vid=77271f56-e478-4c8b-803f-bf30cb38ab7c","ios":"levelo://app?vid=77271f56-e478-4c8b-803f-bf30cb38ab7c"},"vehicle_type_id":"4","last_reported":1719275863,"current_range_meters":23600,"station_id":"ce4bhap2rcd13ifvqek0","pricing_plan_id":"cebpf4jnsgd1na2vs0mg"},{"bike_id":"6bd65736-ca8d-4349-aa15-752c0d55b7d3","system_id":"levelo_inurba_marseille","lat":43.289468,"lon":5.363719,"is_reserved":false,"is_disabled":false,"rental_uris":{"android":"levelo://app?vid=6bd65736-ca8d-4349-aa15-752c0d55b7d3","ios":"levelo://app?vid=6bd65736-ca8d-4349-aa15-752c0d55b7d3"},"vehicle_type_id":"4","last_reported":1719275863,"current_range_meters":21600,"station_id":"ce4bhc92rcd13ifvqetg","pricing_plan_id":"cebpf4jnsgd1na2vs0mg"},{"bike_id":"b13c4d9b-a1d0-433c-8853-70484502aa93","system_id":"levelo_inurba_marseille","lat":43.289468,"lon":5.363719,"is_reserved":false,"is_disabled":false,"rental_uris":{"android":"levelo://app?vid=b13c4d9b-a1d0-433c-8853-70484502aa93","ios":"levelo://app?vid=b13c4d9b-a1d0-433c-8853-70484502aa93"},"vehicle_type_id":"4","last_reported":1719275863,"current_range_meters":6800,"station_id":"ce4bhc92rcd13ifvqetg","pricing_plan_id":"cebpf4jnsgd1na2vs0mg"},{"bike_id":"0652530b-15d5-4931-ad77-4f4cc49f322a","system_id":"levelo_inurba_marseille","lat":43.290995,"lon":5.381361,"is_reserved":false,"is_disabled":false,"rental_uris":{"android":"levelo://app?vid=0652530b-15d5-4931-ad77-4f4cc49f322a","ios":"levelo://app?vid=0652530b-15d5-4931-ad77-4f4cc49f322a"},"vehicle_type_id":"4","last_reported":1719275863,"current_range_meters":30000,"station_id":"ce4bh512rcd13ifvqe2g","pricing_plan_id":"cebpf4jnsgd1na2vs0mg"},{"bike_id":"30c3fd6e-1946-410d-8d57-5571da43bc47","system_id":"levelo_inurba_marseille","lat":43.290995,"lon":5.381361,"is_reserved":false,"is_disabled":false,"rental_uris":{"android":"levelo://app?vid=30c3fd6e-1946-410d-8d57-5571da43bc47","ios":"levelo://app?vid=30c3fd6e-1946-410d-8d57-5571da43bc47"},"vehicle_type_id":"4","last_reported":1719275863,"current_range_meters":23600,"station_id":"ce4bh512rcd13ifvqe2g","pricing_plan_id":"cebpf4jnsgd1na2vs0mg"},{"bike_id":"25cca56b-b7ed-43f3-a354-186cacd541ba","system_id":"levelo_inurba_marseille","lat":43.29799,"lon":5.39333,"is_reserved":false,"is_disabled":false,"rental_uris":{"android":"levelo://app?vid=25cca56b-b7ed-43f3-a354-186cacd541ba","ios":"levelo://app?vid=25cca56b-b7ed-43f3-a354-186cacd541ba"},"vehicle_type_id":"4","last_reported":1719275863,"current_range_meters":31200,"station_id":"chh1huq6cuj3fo74tm60","pricing_plan_id":"cebpf4jnsgd1na2vs0mg"},{"bike_id":"6030e6bf-d14e-47bc-9ac6-87e40804f126","system_id":"levelo_inurba_marseille","lat":43.297815,"lon":5.393548,"is_reserved":false,"is_disabled":false,"rental_uris":{"android":"levelo://app?vid=6030e6bf-d14e-47bc-9ac6-87e40804f126","ios":"levelo://app?vid=6030e6bf-d14e-47bc-9ac6-87e40804f126"},"vehicle_type_id":"4","last_reported":1719275863,"current_range_meters":31200,"station_id":"chh1huq6cuj3fo74tm60","pricing_plan_id":"cebpf4jnsgd1na2vs0mg"},{"bike_id":"e632a894-ad55-4c74-a72a-feca6cb152f0","system_id":"levelo_inurba_marseille","lat":43.295169,"lon":5.390426,"is_reserved":false,"is_disabled":false,"rental_uris":{"android":"levelo://app?vid=e632a894-ad55-4c74-a72a-feca6cb152f0","ios":"levelo://app?vid=e632a894-ad55-4c74-a72a-feca6cb152f0"},"vehicle_type_id":"4","last_reported":1719275863,"current_range_meters":30800,"station_id":"ce4bh3p2rcd13ifvqdp0","pricing_plan_id":"cebpf4jnsgd1na2vs0mg"},{"bike_id":"498bbb46-9655-420b-9371-4c06bd94e3f1","system_id":"levelo_inurba_marseille","lat":43.297874,"lon":5.393424,"is_reserved":false,"is_disabled":false,"rental_uris":{"android":"levelo://app?vid=498bbb46-9655-420b-9371-4c06bd94e3f1","ios":"levelo://app?vid=498bbb46-9655-420b-9371-4c06bd94e3f1"},"vehicle_type_id":"4","last_reported":1719275863,"current_range_meters":25200,"station_id":"chh1huq6cuj3fo74tm60","pricing_plan_id":"cebpf4jnsgd1na2vs0mg"},{"bike_id":"1fa641cb-0b04-46bd-9724-a06f9748c4a3","system_id":"levelo_inurba_marseille","lat":43.297865,"lon":5.393463,"is_reserved":false,"is_disabled":false,"rental_uris":{"android":"levelo://app?vid=1fa641cb-0b04-46bd-9724-a06f9748c4a3","ios":"levelo://app?vid=1fa641cb-0b04-46bd-9724-a06f9748c4a3"},"vehicle_type_id":"4","last_reported":1719275863,"current_range_meters":22000,"station_id":"chh1huq6cuj3fo74tm60","pricing_plan_id":"cebpf4jnsgd1na2vs0mg"},{"bike_id":"a7f17dfa-1274-4572-bccf-eb5fe11348b8","system_id":"levelo_inurba_marseille","lat":43.297912,"lon":5.393518,"is_reserved":false,"is_disabled":false,"rental_uris":{"android":"levelo://app?vid=a7f17dfa-1274-4572-bccf-eb5fe11348b8","ios":"levelo://app?vid=a7f17dfa-1274-4572-bccf-eb5fe11348b8"},"vehicle_type_id":"4","last_reported":1719275863,"current_range_meters":10400,"station_id":"chh1huq6cuj3fo74tm60","pricing_plan_id":"cebpf4jnsgd1na2vs0mg"},{"bike_id":"d061a77f-9020-479d-9c0f-460bb03e0a45","system_id":"levelo_inurba_marseille","lat":43.297892,"lon":5.3935,"is_reserved":false,"is_disabled":false,"rental_uris":{"android":"levelo://app?vid=d061a77f-9020-479d-9c0f-460bb03e0a45","ios":"levelo://app?vid=d061a77f-9020-479d-9c0f-460bb03e0a45"},"vehicle_type_id":"4","last_reported":1719275863,"current_range_meters":31200,"station_id":"chh1huq6cuj3fo74tm60","pricing_plan_id":"cebpf4jnsgd1na2vs0mg"},{"bike_id":"e13e988b-a6db-477e-a52b-64db69d855fe","system_id":"levelo_inurba_marseille","lat":43.295169,"lon":5.390426,"is_reserved":false,"is_disabled":false,"rental_uris":{"android":"levelo://app?vid=e13e988b-a6db-477e-a52b-64db69d855fe","ios":"levelo://app?vid=e13e988b-a6db-477e-a52b-64db69d855fe"},"vehicle_type_id":"4","last_reported":1719275863,"current_range_meters":26400,"station_id":"ce4bh3p2rcd13ifvqdp0","pricing_plan_id":"cebpf4jnsgd1na2vs0mg"},{"bike_id":"1b1b1746-f1f4-4029-b36f-0a7927b94b4d","system_id":"levelo_inurba_marseille","lat":43.29784,"lon":5.39352,"is_reserved":false,"is_disabled":false,"rental_uris":{"android":"levelo://app?vid=1b1b1746-f1f4-4029-b36f-0a7927b94b4d","ios":"levelo://app?vid=1b1b1746-f1f4-4029-b36f-0a7927b94b4d"},"vehicle_type_id":"4","last_reported":1719275863,"current_range_meters":14800,"station_id":"chh1huq6cuj3fo74tm60","pricing_plan_id":"cebpf4jnsgd1na2vs0mg"},{"bike_id":"f9648290-d284-4df2-bf63-fdc1704f9736","system_id":"levelo_inurba_marseille","lat":43.29778,"lon":5.39348,"is_reserved":false,"is_disabled":false,"rental_uris":{"android":"levelo://app?vid=f9648290-d284-4df2-bf63-fdc1704f9736","ios":"levelo://app?vid=f9648290-d284-4df2-bf63-fdc1704f9736"},"vehicle_type_id":"4","last_reported":1719275863,"current_range_meters":26000,"station_id":"chh1huq6cuj3fo74tm60","pricing_plan_id":"cebpf4jnsgd1na2vs0mg"},{"bike_id":"5dbcc7cc-4ced-445e-9b11-bbb52974041c","system_id":"levelo_inurba_marseille","lat":43.330442,"lon":5.389148,"is_reserved":false,"is_disabled":false,"rental_uris":{"android":"levelo://app?vid=5dbcc7cc-4ced-445e-9b11-bbb52974041c","ios":"levelo://app?vid=5dbcc7cc-4ced-445e-9b11-bbb52974041c"},"vehicle_type_id":"4","last_reported":1719275863,"current_range_meters":29600,"station_id":"ce4bhr92rcd13ifvqhrg","pricing_plan_id":"cebpf4jnsgd1na2vs0mg"},{"bike_id":"4dc9d5d5-82b1-45dc-8922-4e910708fc20","system_id":"levelo_inurba_marseille","lat":43.33024,"lon":5.39052,"is_reserved":false,"is_disabled":false,"rental_uris":{"android":"levelo://app?vid=4dc9d5d5-82b1-45dc-8922-4e910708fc20","ios":"levelo://app?vid=4dc9d5d5-82b1-45dc-8922-4e910708fc20"},"vehicle_type_id":"4","last_reported":1719275863,"current_range_meters":0,"station_id":"ce4bhr92rcd13ifvqhrg","pricing_plan_id":"cebpf4jnsgd1na2vs0mg"},{"bike_id":"864b1e62-1a19-4fdc-9a1f-01cda642e0d2","system_id":"levelo_inurba_marseille","lat":43.297447,"lon":5.39342,"is_reserved":false,"is_disabled":false,"rental_uris":{"android":"levelo://app?vid=864b1e62-1a19-4fdc-9a1f-01cda642e0d2","ios":"levelo://app?vid=864b1e62-1a19-4fdc-9a1f-01cda642e0d2"},"vehicle_type_id":"4","last_reported":1719275863,"current_range_meters":8000,"station_id":"chh1huq6cuj3fo74tm60","pricing_plan_id":"cebpf4jnsgd1na2vs0mg"},{"bike_id":"0ed9ff10-b254-4433-88cc-5c7f1da70ee6","system_id":"levelo_inurba_marseille","lat":43.28856,"lon":5.358371,"is_reserved":false,"is_disabled":false,"rental_uris":{"android":"levelo://app?vid=0ed9ff10-b254-4433-88cc-5c7f1da70ee6","ios":"levelo://app?vid=0ed9ff10-b254-4433-88cc-5c7f1da70ee6"},"vehicle_type_id":"4","last_reported":1719275863,"current_range_meters":25600,"station_id":"ce4bhb12rcd13ifvqem0","pricing_plan_id":"cebpf4jnsgd1na2vs0mg"},{"bike_id":"9b81675f-44cd-4cbe-9733-2d36a516d8f7","system_id":"levelo_inurba_marseille","lat":43.337353,"lon":5.374699,"is_reserved":false,"is_disabled":false,"rental_uris":{"android":"levelo://app?vid=9b81675f-44cd-4cbe-9733-2d36a516d8f7","ios":"levelo://app?vid=9b81675f-44cd-4cbe-9733-2d36a516d8f7"},"vehicle_type_id":"0","last_reported":1719275863,"current_range_meters":26400,"station_id":"","pricing_plan_id":"cebpf4jnsgd1na2vs0mg"},{"bike_id":"e26ddf64-125c-4e38-a726-f14829d19eac","system_id":"levelo_inurba_marseille","lat":43.312609,"lon":5.401662,"is_reserved":false,"is_disabled":false,"rental_uris":{"android":"levelo://app?vid=e26ddf64-125c-4e38-a726-f14829d19eac","ios":"levelo://app?vid=e26ddf64-125c-4e38-a726-f14829d19eac"},"vehicle_type_id":"4","last_reported":1719275863,"current_range_meters":10800,"station_id":"ce4bh092rcd13ifvqd30","pricing_plan_id":"cebpf4jnsgd1na2vs0mg"},{"bike_id":"b7efec3a-4b2d-4f78-8041-33119b0fbec0","system_id":"levelo_inurba_marseille","lat":43.312733,"lon":5.401653,"is_reserved":false,"is_disabled":false,"rental_uris":{"android":"levelo://app?vid=b7efec3a-4b2d-4f78-8041-33119b0fbec0","ios":"levelo://app?vid=b7efec3a-4b2d-4f78-8041-33119b0fbec0"},"vehicle_type_id":"4","last_reported":1719275863,"current_range_meters":12400,"station_id":"","pricing_plan_id":"cebpf4jnsgd1na2vs0mg"},{"bike_id":"c25a3696-e1cc-43ba-8656-23d4a118ee2e","system_id":"levelo_inurba_marseille","lat":43.337379,"lon":5.374634,"is_reserved":false,"is_disabled":false,"rental_uris":{"android":"levelo://app?vid=c25a3696-e1cc-43ba-8656-23d4a118ee2e","ios":"levelo://app?vid=c25a3696-e1cc-43ba-8656-23d4a118ee2e"},"vehicle_type_id":"0","last_reported":1719275863,"current_range_meters":26400,"station_id":"","pricing_plan_id":"cebpf4jnsgd1na2vs0mg"},{"bike_id":"bb65fb70-df82-47d8-b27f-438620895501","system_id":"levelo_inurba_marseille","lat":43.337376,"lon":5.374657,"is_reserved":false,"is_disabled":false,"rental_uris":{"android":"levelo://app?vid=bb65fb70-df82-47d8-b27f-438620895501","ios":"levelo://app?vid=bb65fb70-df82-47d8-b27f-438620895501"},"vehicle_type_id":"0","last_reported":1719275863,"current_range_meters":20800,"station_id":"","pricing_plan_id":"cebpf4jnsgd1na2vs0mg"},{"bike_id":"c3ddbe4a-157d-4893-acf1-f1f626a65d21","system_id":"levelo_inurba_marseille","lat":43.337386,"lon":5.374597,"is_reserved":false,"is_disabled":false,"rental_uris":{"android":"levelo://app?vid=c3ddbe4a-157d-4893-acf1-f1f626a65d21","ios":"levelo://app?vid=c3ddbe4a-157d-4893-acf1-f1f626a65d21"},"vehicle_type_id":"0","last_reported":1719275863,"current_range_meters":19200,"station_id":"","pricing_plan_id":"cebpf4jnsgd1na2vs0mg"},{"bike_id":"5aa71f78-390a-47cf-b7bc-e8fa43caa5ba","system_id":"levelo_inurba_marseille","lat":43.31275,"lon":5.40167,"is_reserved":false,"is_disabled":false,"rental_uris":{"android":"levelo://app?vid=5aa71f78-390a-47cf-b7bc-e8fa43caa5ba","ios":"levelo://app?vid=5aa71f78-390a-47cf-b7bc-e8fa43caa5ba"},"vehicle_type_id":"4","last_reported":1719275863,"current_range_meters":31200,"station_id":"ce4bh092rcd13ifvqd30","pricing_plan_id":"cebpf4jnsgd1na2vs0mg"},{"bike_id":"bd9a6c26-2db3-4e30-92c7-c85ae97147aa","system_id":"levelo_inurba_marseille","lat":43.337389,"lon":5.374659,"is_reserved":false,"is_disabled":false,"rental_uris":{"android":"levelo://app?vid=bd9a6c26-2db3-4e30-92c7-c85ae97147aa","ios":"levelo://app?vid=bd9a6c26-2db3-4e30-92c7-c85ae97147aa"},"vehicle_type_id":"0","last_reported":1719275863,"current_range_meters":28400,"station_id":"","pricing_plan_id":"cebpf4jnsgd1na2vs0mg"},{"bike_id":"3827749a-54d6-4a5d-bf36-624dfe6790cd","system_id":"levelo_inurba_marseille","lat":43.312609,"lon":5.401662,"is_reserved":false,"is_disabled":false,"rental_uris":{"android":"levelo://app?vid=3827749a-54d6-4a5d-bf36-624dfe6790cd","ios":"levelo://app?vid=3827749a-54d6-4a5d-bf36-624dfe6790cd"},"vehicle_type_id":"4","last_reported":1719275863,"current_range_meters":31600,"station_id":"ce4bh092rcd13ifvqd30","pricing_plan_id":"cebpf4jnsgd1na2vs0mg"},{"bike_id":"cbff8e2e-87ad-4d9e-a09d-9b1fba1c0aeb","system_id":"levelo_inurba_marseille","lat":43.337395,"lon":5.374671,"is_reserved":false,"is_disabled":false,"rental_uris":{"android":"levelo://app?vid=cbff8e2e-87ad-4d9e-a09d-9b1fba1c0aeb","ios":"levelo://app?vid=cbff8e2e-87ad-4d9e-a09d-9b1fba1c0aeb"},"vehicle_type_id":"0","last_reported":1719275863,"current_range_meters":26000,"station_id":"","pricing_plan_id":"cebpf4jnsgd1na2vs0mg"},{"bike_id":"5580baa4-f1f2-4c57-b688-0aa261093fdc","system_id":"levelo_inurba_marseille","lat":43.312609,"lon":5.401662,"is_reserved":false,"is_disabled":false,"rental_uris":{"android":"levelo://app?vid=5580baa4-f1f2-4c57-b688-0aa261093fdc","ios":"levelo://app?vid=5580baa4-f1f2-4c57-b688-0aa261093fdc"},"vehicle_type_id":"4","last_reported":1719275863,"current_range_meters":21200,"station_id":"ce4bh092rcd13ifvqd30","pricing_plan_id":"cebpf4jnsgd1na2vs0mg"},{"bike_id":"679ea94a-79a1-4c42-a3a0-95c31f7eb59f","system_id":"levelo_inurba_marseille","lat":43.312609,"lon":5.401662,"is_reserved":false,"is_disabled":false,"rental_uris":{"android":"levelo://app?vid=679ea94a-79a1-4c42-a3a0-95c31f7eb59f","ios":"levelo://app?vid=679ea94a-79a1-4c42-a3a0-95c31f7eb59f"},"vehicle_type_id":"4","last_reported":1719275863,"current_range_meters":29600,"station_id":"ce4bh092rcd13ifvqd30","pricing_plan_id":"cebpf4jnsgd1na2vs0mg"},{"bike_id":"8043cc8a-f702-4e45-9523-d56dfd7ee432","system_id":"levelo_inurba_marseille","lat":43.337409,"lon":5.374655,"is_reserved":false,"is_disabled":false,"rental_uris":{"android":"levelo://app?vid=8043cc8a-f702-4e45-9523-d56dfd7ee432","ios":"levelo://app?vid=8043cc8a-f702-4e45-9523-d56dfd7ee432"},"vehicle_type_id":"0","last_reported":1719275863,"current_range_meters":25600,"station_id":"","pricing_plan_id":"cebpf4jnsgd1na2vs0mg"},{"bike_id":"770a0c8a-2a3f-4141-ba5b-8abd3696f2b3","system_id":"levelo_inurba_marseille","lat":43.312609,"lon":5.401662,"is_reserved":false,"is_disabled":false,"rental_uris":{"android":"levelo://app?vid=770a0c8a-2a3f-4141-ba5b-8abd3696f2b3","ios":"levelo://app?vid=770a0c8a-2a3f-4141-ba5b-8abd3696f2b3"},"vehicle_type_id":"4","last_reported":1719275863,"current_range_meters":16800,"station_id":"ce4bh092rcd13ifvqd30","pricing_plan_id":"cebpf4jnsgd1na2vs0mg"},{"bike_id":"3cd3e353-d6ca-412d-8957-e9959dad3d8b","system_id":"levelo_inurba_marseille","lat":43.291614,"lon":5.386063,"is_reserved":false,"is_disabled":false,"rental_uris":{"android":"levelo://app?vid=3cd3e353-d6ca-412d-8957-e9959dad3d8b","ios":"levelo://app?vid=3cd3e353-d6ca-412d-8957-e9959dad3d8b"},"vehicle_type_id":"4","last_reported":1719275863,"current_range_meters":10000,"station_id":"","pricing_plan_id":"cebpf4jnsgd1na2vs0mg"},{"bike_id":"11da98ef-d0c3-43c2-a7e4-890f2c23ccbc","system_id":"levelo_inurba_marseille","lat":43.337416,"lon":5.374626,"is_reserved":false,"is_disabled":false,"rental_uris":{"android":"levelo://app?vid=11da98ef-d0c3-43c2-a7e4-890f2c23ccbc","ios":"levelo://app?vid=11da98ef-d0c3-43c2-a7e4-890f2c23ccbc"},"vehicle_type_id":"0","last_reported":1719275863,"current_range_meters":20000,"station_id":"","pricing_plan_id":"cebpf4jnsgd1na2vs0mg"},{"bike_id":"1ced2077-dc2b-411a-a463-c27380b3a90d","system_id":"levelo_inurba_marseille","lat":43.312609,"lon":5.401662,"is_reserved":false,"is_disabled":false,"rental_uris":{"android":"levelo://app?vid=1ced2077-dc2b-411a-a463-c27380b3a90d","ios":"levelo://app?vid=1ced2077-dc2b-411a-a463-c27380b3a90d"},"vehicle_type_id":"4","last_reported":1719275863,"current_range_meters":30400,"station_id":"ce4bh092rcd13ifvqd30","pricing_plan_id":"cebpf4jnsgd1na2vs0mg"},{"bike_id":"b42b7689-c000-46e5-b6ed-5bef789ceaea","system_id":"levelo_inurba_marseille","lat":43.312609,"lon":5.401662,"is_reserved":false,"is_disabled":false,"rental_uris":{"android":"levelo://app?vid=b42b7689-c000-46e5-b6ed-5bef789ceaea","ios":"levelo://app?vid=b42b7689-c000-46e5-b6ed-5bef789ceaea"},"vehicle_type_id":"4","last_reported":1719275863,"current_range_meters":24000,"station_id":"ce4bh092rcd13ifvqd30","pricing_plan_id":"cebpf4jnsgd1na2vs0mg"},