{"last_updated":1750180219,"ttl":60,"version":"2.2","data":{"bikes":[{"bike_id":"3da29fb8-fc97-44c6-b9ac-31dd456b2fd4","system_id":"levelo_inurba_marseille","lat":43.33771,"lon":5.37424,"is_reserved":false,"is_disabled":true,"rental_uris":{"android":"levelo://app?vid=3da29fb8-fc97-44c6-b9ac-31dd456b2fd4","ios":"levelo://app?vid=3da29fb8-fc97-44c6-b9ac-31dd456b2fd4"},"vehicle_type_id":"4","last_reported":1750180219,"current_range_meters":0,"station_id":"","pricing_plan_id":"cebpf4jnsgd1na2vs0mg"},{"bike_id":"01861ad8-a8d7-4be6-816e-651927c87584","system_id":"levelo_inurba_marseille","lat":43.33751,"lon":5.37456,"is_reserved":false,"is_disabled":true,"rental_uris":{"android":"levelo://app?vid=01861ad8-a8d7-4be6-816e-651927c87584","ios":"levelo://app?vid=01861ad8-a8d7-4be6-816e-651927c87584"},"vehicle_type_id":"4","last_reported":1750180219,"current_range_meters":0,"station_id":"","pricing_plan_id":"cebpf4jnsgd1na2vs0mg"},{"bike_id":"dbfce7a3-3423-4296-b193-a177dea644ac","system_id":"levelo_inurba_marseille","lat":43.27279,"lon":5.4166,"is_reserved":false,"is_disabled":true,"rental_uris":{"android":"levelo://app?vid=dbfce7a3-3423-4296-b193-a177dea644ac","ios":"levelo://app?vid=dbfce7a3-3423-4296-b193-a177dea644ac"},"vehicle_type_id":"4","last_reported":1750180219,"current_range_meters":0,"station_id":"","pricing_plan_id":"cebpf4jnsgd1na2vs0mg"},{"bike_id":"b81ba2bd-624d-43c3-b702-6c0cdad38ab2","system_id":"levelo_inurba_marseille","lat":43.31118,"lon":5.39323,"is_reserved":false,"is_disabled":true,"rental_uris":{"android":"levelo://app?vid=b81ba2bd-624d-43c3-b702-6c0cdad38ab2","ios":"levelo://app?vid=b81ba2bd-624d-43c3-b702-6c0cdad38ab2"},"vehicle_type_id":"4","last_reported":1750180219,"current_range_meters":0,"station_id":"","pricing_plan_id":"cebpf4jnsgd1na2vs0mg"},{"bike_id":"d2bd57c8-6b64-48db-ad24-5398eb3fd9d6","system_id":"levelo_inurba_marseille","lat":43.337444,"lon":5.374475,"is_reserved":false,"is_disabled":true,"rental_uris":{"android":"levelo://app?vid=d2bd57c8-6b64-48db-ad24-5398eb3fd9d6","ios":"levelo://app?vid=d2bd57c8-6b64-48db-ad24-5398eb3fd9d6"},"vehicle_type_id":"4","last_reported":1750180219,"current_range_meters":0,"station_id":"","pricing_plan_id":"cebpf4jnsgd1na2vs0mg"},{"bike_id":"62a493c7-4534-4419-ad43-0582de34a72a","system_id":"levelo_inurba_marseille","lat":43.21366,"lon":5.355183,"is_reserved":false,"is_disabled":true,"rental_uris":{"android":"levelo://app?vid=62a493c7-4534-4419-ad43-0582de34a72a","ios":"levelo://app?vid=62a493c7-4534-4419-ad43-0582de34a72a"},"vehicle_type_id":"4","last_reported":1750180219,"current_range_meters":0,"station_id":"","pricing_plan_id":"cebpf4jnsgd1na2vs0mg"},{"bike_id":"8ad9234e-001a-4549-8bba-9baf2ef98804","system_id":"levelo_inurba_marseille","lat":43.27454,"lon":5.39835,"is_reserved":false,"is_disabled":true,"rental_uris":{"android":"levelo://app?vid=8ad9234e-001a-4549-8bba-9baf2ef98804","ios":"levelo://app?vid=8ad9234e-001a-4549-8bba-9baf2ef98804"},"vehicle_type_id":"4","last_reported":1750180219,"current_range_meters":0,"station_id":"","pricing_plan_id":"cebpf4jnsgd1na2vs0mg"},{"bike_id":"93af304b-67b5-47b8-a3fd-e0775f7cde8c","system_id":"levelo_inurba_marseille","lat":43.21539,"lon":5.34728,"is_reserved":false,"is_disabled":true,"rental_uris":{"android":"levelo://app?vid=93af304b-67b5-47b8-a3fd-e0775f7cde8c","ios":"levelo://app?vid=93af304b-67b5-47b8-a3fd-e0775f7cde8c"},"vehicle_type_id":"4","last_reported":1750180219,"current_range_meters":0,"station_id":"","pricing_plan_id":"cebpf4jnsgd1na2vs0mg"},{"bike_id":"d6609b4f-333b-43c1-9ebe-8726f5e76e88","system_id":"levelo_inurba_marseille","lat":43.337444,"lon":5.374475,"is_reserved":false,"is_disabled":true,"rental_uris":{"android":"levelo://app?vid=d6609b4f-333b-43c1-9ebe-8726f5e76e88","ios":"levelo://app?vid=d6609b4f-333b-43c1-9ebe-8726f5e76e88"},"vehicle_type_id":"4","last_reported":1750180219,"current_range_meters":0,"station_id":"","pricing_plan_id":"cebpf4jnsgd1na2vs0mg"},{"bike_id":"57c83ce1-960e-466a-b6c5-d93bc130c53a","system_id":"levelo_inurba_marseille","lat":43.24913,"lon":5.38949,"is_reserved":false,"is_disabled":true,"rental_uris":{"android":"levelo://app?vid=57c83ce1-960e-466a-b6c5-d93bc130c53a","ios":"levelo://app?vid=57c83ce1-960e-466a-b6c5-d93bc130c53a"},"vehicle_type_id":"4","last_reported":1750180219,"current_range_meters":0,"station_id":"","pricing_plan_id":"cebpf4jnsgd1na2vs0mg"},{"bike_id":"3c2bc12a-20d5-41f4-a284-6b4813d5f43c","system_id":"levelo_inurba_marseille","lat":43.273732,"lon":5.362602,"is_reserved":false,"is_disabled":true,"rental_uris":{"android":"levelo://app?vid=3c2bc12a-20d5-41f4-a284-6b4813d5f43c","ios":"levelo://app?vid=3c2bc12a-20d5-41f4-a284-6b4813d5f43c"},"vehicle_type_id":"4","last_reported":1750180219,"current_range_meters":0,"station_id":"ce4bgs92rcd13ifvqcc0","pricing_plan_id":"cebpf4jnsgd1na2vs0mg"},{"bike_id":"f66330aa-0f11-4552-8f16-7a2e417bec3a","system_id":"levelo_inurba_marseille","lat":43.229317,"lon":5.353748,"is_reserved":false,"is_disabled":true,"rental_uris":{"android":"levelo://app?vid=f66330aa-0f11-4552-8f16-7a2e417bec3a","ios":"levelo://app?vid=f66330aa-0f11-4552-8f16-7a2e417bec3a"},"vehicle_type_id":"4","last_reported":1750180219,"current_range_meters":0,"station_id":"ce4bgup2rcd13ifvqco0","pricing_plan_id":"cebpf4jnsgd1na2vs0mg"},{"bike_id":"90774782-d671-4735-bcbf-cc1a51aa36c7","system_id":"levelo_inurba_marseille","lat":43.302551,"lon":5.400781,"is_reserved":false,"is_disabled":true,"rental_uris":{"android":"levelo://app?vid=90774782-d671-4735-bcbf-cc1a51aa36c7","ios":"levelo://app?vid=90774782-d671-4735-bcbf-cc1a51aa36c7"},"vehicle_type_id":"4","last_reported":1750180219,"current_range_meters":0,"station_id":"ce4bgvh2rcd13ifvqcs0","pricing_plan_id":"cebpf4jnsgd1na2vs0mg"},{"bike_id":"d2a471b1-8974-4ac3-90a1-ef5b030cc6e0","system_id":"levelo_inurba_marseille","lat":43.29031,"lon":5.38646,"is_reserved":false,"is_disabled":true,"rental_uris":{"android":"levelo://app?vid=d2a471b1-8974-4ac3-90a1-ef5b030cc6e0","ios":"levelo://app?vid=d2a471b1-8974-4ac3-90a1-ef5b030cc6e0"},"vehicle_type_id":"4","last_reported":1750180219,"current_range_meters":0,"station_id":"ce4bh4p2rcd13ifvqe0g","pricing_plan_id":"cebpf4jnsgd1na2vs0mg"},{"bike_id":"d7a8f9fd-ac7b-4967-84fb-523b2fecc5cc","system_id":"levelo_inurba_marseille","lat":43.28988,"lon":5.37833,"is_reserved":false,"is_disabled":true,"rental_uris":{"android":"levelo://app?vid=d7a8f9fd-ac7b-4967-84fb-523b2fecc5cc","ios":"levelo://app?vid=d7a8f9fd-ac7b-4967-84fb-523b2fecc5cc"},"vehicle_type_id":"4","last_reported":1750180219,"current_range_meters":0,"station_id":"ce4bh9p2rcd13ifvqed0","pricing_plan_id":"cebpf4jnsgd1na2vs0mg"},{"bike_id":"29c4c78e-0d1a-48ad-ae84-aa5a8f0e8b9c","system_id":"levelo_inurba_marseille","lat":43.27373,"lon":5.362602,"is_reserved":false,"is_disabled":true,"rental_uris":{"android":"levelo://app?vid=29c4c78e-0d1a-48ad-ae84-aa5a8f0e8b9c","ios":"levelo://app?vid=29c4c78e-0d1a-48ad-ae84-aa5a8f0e8b9c"},"vehicle_type_id":"4","last_reported":1750180219,"current_range_meters":0,"station_id":"ce4bhbh2rcd13ifvqeo0","pricing_plan_id":"cebpf4jnsgd1na2vs0mg"},{"bike_id":"c13e447b-81ff-44eb-a0c8-46ed618a7442","system_id":"levelo_inurba_marseille","lat":43.28271,"lon":5.35061,"is_reserved":false,"is_disabled":true,"rental_uris":{"android":"levelo://app?vid=c13e447b-81ff-44eb-a0c8-46ed618a7442","ios":"levelo://app?vid=c13e447b-81ff-44eb-a0c8-46ed618a7442"},"vehicle_type_id":"4","last_reported":1750180219,"current_range_meters":0,"station_id":"ce4bhbp2rcd13ifvqerg","pricing_plan_id":"cebpf4jnsgd1na2vs0mg"},{"bike_id":"f8bcc9e8-8002-4c5f-bbe8-e24ade1e8675","system_id":"levelo_inurba_marseille","lat":43.24998,"lon":5.38928,"is_reserved":false,"is_disabled":true,"rental_uris":{"android":"levelo://app?vid=f8bcc9e8-8002-4c5f-bbe8-e24ade1e8675","ios":"levelo://app?vid=f8bcc9e8-8002-4c5f-bbe8-e24ade1e8675"},"vehicle_type_id":"4","last_reported":1750180219,"current_range_meters":0,"station_id":"ce4bhgp2rcd13ifvqfd0","pricing_plan_id":"cebpf4jnsgd1na2vs0mg"},{"bike_id":"d147efd9-e636-462f-a1c2-1da24782a41f","system_id":"levelo_inurba_marseille","lat":43.2623,"lon":5.40451,"is_reserved":false,"is_disabled":true,"rental_uris":{"android":"levelo://app?vid=d147efd9-e636-462f-a1c2-1da24782a41f","ios":"levelo://app?vid=d147efd9-e636-462f-a1c2-1da24782a41f"},"vehicle_type_id":"4","last_reported":1750180219,"current_range_meters":0,"station_id":"ce4bhmh2rcd13ifvqgmg","pricing_plan_id":"cebpf4jnsgd1na2vs0mg"},{"bike_id":"8ae4c073-2d33-4dd6-bea9-dfcb3340af2d","system_id":"levelo_inurba_marseille","lat":43.29637,"lon":5.40588,"is_reserved":false,"is_disabled":true,"rental_uris":{"android":"levelo://app?vid=8ae4c073-2d33-4dd6-bea9-dfcb3340af2d","ios":"levelo://app?vid=8ae4c073-2d33-4dd6-bea9-dfcb3340af2d"},"vehicle_type_id":"4","last_reported":1750180219,"current_range_meters":400,"station_id":"ce4bh0h2rcd13ifvqd60","pricing_plan_id":"cebpf4jnsgd1na2vs0mg"},{"bike_id":"a84e7e8c-0b62-4659-bd31-4fd183d1a0ea","system_id":"levelo_inurba_marseille","lat":43.29024,"lon":5.38644,"is_reserved":false,"is_disabled":true,"rental_uris":{"android":"levelo://app?vid=a84e7e8c-0b62-4659-bd31-4fd183d1a0ea","ios":"levelo://app?vid=a84e7e8c-0b62-4659-bd31-4fd183d1a0ea"},"vehicle_type_id":"4","last_reported":1750180219,"current_range_meters":400,"station_id":"ce4bh4p2rcd13ifvqe0g","pricing_plan_id":"cebpf4jnsgd1na2vs0mg"},{"bike_id":"23c353b1-f080-4ea0-8172-9a6b7bf53008","system_id":"levelo_inurba_marseille","lat":43.28271,"lon":5.35074,"is_reserved":false,"is_disabled":true,"rental_uris":{"android":"levelo://app?vid=23c353b1-f080-4ea0-8172-9a6b7bf53008","ios":"levelo://app?vid=23c353b1-f080-4ea0-8172-9a6b7bf53008"},"vehicle_type_id":"4","last_reported":1750180219,"current_range_meters":400,"station_id":"ce4bhbp2rcd13ifvqerg","pricing_plan_id":"cebpf4jnsgd1na2vs0mg"},{"bike_id":"fd48bb7f-e5e9-4a9e-9366-ee5f97569763","system_id":"levelo_inurba_marseille","lat":43.29971,"lon":5.38498,"is_reserved":false,"is_disabled":true,"rental_uris":{"android":"levelo://app?vid=fd48bb7f-e5e9-4a9e-9366-ee5f97569763","ios":"levelo://app?vid=fd48bb7f-e5e9-4a9e-9366-ee5f97569763"},"vehicle_type_id":"4","last_reported":1750180219,"current_range_meters":800,"station_id":"ce4bgj92rcd13ifvqbd0","pricing_plan_id":"cebpf4jnsgd1na2vs0mg"},{"bike_id":"5a99279e-559c-4d54-9758-e221634fa6aa","system_id":"levelo_inurba_marseille","lat":43.3125,"lon":5.36882,"is_reserved":false,"is_disabled":true,"rental_uris":{"android":"levelo://app?vid=5a99279e-559c-4d54-9758-e221634fa6aa","ios":"levelo://app?vid=5a99279e-559c-4d54-9758-e221634fa6aa"},"vehicle_type_id":"4","last_reported":1750180219,"current_range_meters":800,"station_id":"ce4bgl92rcd13ifvqbq0","pricing_plan_id":"cebpf4jnsgd1na2vs0mg"},{"bike_id":"9c369775-1f37-441d-b362-dd66db48aced","system_id":"levelo_inurba_marseille","lat":43.28459,"lon":5.35883,"is_reserved":false,"is_disabled":true,"rental_uris":{"android":"levelo://app?vid=9c369775-1f37-441d-b362-dd66db48aced","ios":"levelo://app?vid=9c369775-1f37-441d-b362-dd66db48aced"},"vehicle_type_id":"4","last_reported":1750180219,"current_range_meters":800,"station_id":"ce4bhah2rcd13ifvqei0","pricing_plan_id":"cebpf4jnsgd1na2vs0mg"},{"bike_id":"f537dc93-98b0-482a-a5c1-4a0caf83991e","system_id":"levelo_inurba_marseille","lat":43.286098,"lon":5.35113,"is_reserved":false,"is_disabled":true,"rental_uris":{"android":"levelo://app?vid=f537dc93-98b0-482a-a5c1-4a0caf83991e","ios":"levelo://app?vid=f537dc93-98b0-482a-a5c1-4a0caf83991e"},"vehicle_type_id":"4","last_reported":1750180219,"current_range_meters":800,"station_id":"ce4bhch2rcd13ifvqeug","pricing_plan_id":"cebpf4jnsgd1na2vs0mg"},{"bike_id":"6f74d83e-13c8-4f5e-9ec4-d3423efd0327","system_id":"levelo_inurba_marseille","lat":43.262,"lon":5.37934,"is_reserved":false,"is_disabled":true,"rental_uris":{"android":"levelo://app?vid=6f74d83e-13c8-4f5e-9ec4-d3423efd0327","ios":"levelo://app?vid=6f74d83e-13c8-4f5e-9ec4-d3423efd0327"},"vehicle_type_id":"4","last_reported":1750180219,"current_range_meters":800,"station_id":"ce4bhjp2rcd13ifvqg90","pricing_plan_id":"cebpf4jnsgd1na2vs0mg"},{"bike_id":"b9e37238-9abe-4b8b-b932-edaee33a7e59","system_id":"levelo_inurba_marseille","lat":43.27527,"lon":5.38969,"is_reserved":false,"is_disabled":true,"rental_uris":{"android":"levelo://app?vid=b9e37238-9abe-4b8b-b932-edaee33a7e59","ios":"levelo://app?vid=b9e37238-9abe-4b8b-b932-edaee33a7e59"},"vehicle_type_id":"4","last_reported":1750180219,"current_range_meters":1200,"station_id":"","pricing_plan_id":"cebpf4jnsgd1na2vs0mg"},{"bike_id":"896c2bf4-03eb-4232-8985-2cffe547f0b7","system_id":"levelo_inurba_marseille","lat":43.29697,"lon":5.36604,"is_reserved":false,"is_disabled":true,"rental_uris":{"android":"levelo://app?vid=896c2bf4-03eb-4232-8985-2cffe547f0b7","ios":"levelo://app?vid=896c2bf4-03eb-4232-8985-2cffe547f0b7"},"vehicle_type_id":"4","last_reported":1750180219,"current_range_meters":1200,"station_id":"ce4bgn12rcd13ifvqbt0","pricing_plan_id":"cebpf4jnsgd1na2vs0mg"},{"bike_id":"6ccee71a-0003-4026-9de1-693929a9c5c8","system_id":"levelo_inurba_marseille","lat":43.28844,"lon":5.39322,"is_reserved":false,"is_disabled":true,"rental_uris":{"android":"levelo://app?vid=6ccee71a-0003-4026-9de1-693929a9c5c8","ios":"levelo://app?vid=6ccee71a-0003-4026-9de1-693929a9c5c8"},"vehicle_type_id":"4","last_reported":1750180219,"current_range_meters":1200,"station_id":"ce4bh2p2rcd13ifvqdi0","pricing_plan_id":"cebpf4jnsgd1na2vs0mg"},{"bike_id":"adf047dc-52da-4f0b-a523-fac56fe44e20","system_id":"levelo_inurba_marseille","lat":43.2893,"lon":5.36635,"is_reserved":false,"is_disabled":true,"rental_uris":{"android":"levelo://app?vid=adf047dc-52da-4f0b-a523-fac56fe44e20","ios":"levelo://app?vid=adf047dc-52da-4f0b-a523-fac56fe44e20"},"vehicle_type_id":"4","last_reported":1750180219,"current_range_meters":1200,"station_id":"ce4bhap2rcd13ifvqek0","pricing_plan_id":"cebpf4jnsgd1na2vs0mg"},{"bike_id":"3fd3eb0b-1c24-48aa-afed-80f8d369477c","system_id":"levelo_inurba_marseille","lat":43.28409,"lon":5.34993,"is_reserved":false,"is_disabled":true,"rental_uris":{"android":"levelo://app?vid=3fd3eb0b-1c24-48aa-afed-80f8d369477c","ios":"levelo://app?vid=3fd3eb0b-1c24-48aa-afed-80f8d369477c"},"vehicle_type_id":"4","last_reported":1750180219,"current_range_meters":1200,"station_id":"ce4bhbh2rcd13ifvqepg","pricing_plan_id":"cebpf4jnsgd1na2vs0mg"},{"bike_id":"17a63b51-e1e9-4f1b-be0f-b7e8a6c19f7b","system_id":"levelo_inurba_marseille","lat":43.28269,"lon":5.35068,"is_reserved":false,"is_disabled":true,"rental_uris":{"android":"levelo://app?vid=17a63b51-e1e9-4f1b-be0f-b7e8a6c19f7b","ios":"levelo://app?vid=17a63b51-e1e9-4f1b-be0f-b7e8a6c19f7b"},"vehicle_type_id":"4","last_reported":1750180219,"current_range_meters":1200,"station_id":"ce4bhbp2rcd13ifvqerg","pricing_plan_id":"cebpf4jnsgd1na2vs0mg"},{"bike_id":"70bc3178-ac90-4528-af67-4fa291396959","system_id":"levelo_inurba_marseille","lat":43.2871,"lon":5.39978,"is_reserved":false,"is_disabled":true,"rental_uris":{"android":"levelo://app?vid=70bc3178-ac90-4528-af67-4fa291396959","ios":"levelo://app?vid=70bc3178-ac90-4528-af67-4fa291396959"},"vehicle_type_id":"4","last_reported":1750180219,"current_range_meters":1200,"station_id":"ce4bho92rcd13ifvqh3g","pricing_plan_id":"cebpf4jnsgd1na2vs0mg"},{"bike_id":"b92cec75-afbe-4e4d-a0f6-12ef1752e7b1","system_id":"levelo_inurba_marseille","lat":43.30953,"lon":5.39043,"is_reserved":false,"is_disabled":true,"rental_uris":{"android":"levelo://app?vid=b92cec75-afbe-4e4d-a0f6-12ef1752e7b1","ios":"levelo://app?vid=b92cec75-afbe-4e4d-a0f6-12ef1752e7b1"},"vehicle_type_id":"4","last_reported":1750180219,"current_range_meters":1600,"station_id":"ce4bgup2rcd13ifvqco0","pricing_plan_id":"cebpf4jnsgd1na2vs0mg"},{"bike_id":"5b3c5632-fc65-420b-975d-77c8db9a2d1c","system_id":"levelo_inurba_marseille","lat":43.286132,"lon":5.351095,"is_reserved":false,"is_disabled":true,"rental_uris":{"android":"levelo://app?vid=5b3c5632-fc65-420b-975d-77c8db9a2d1c","ios":"levelo://app?vid=5b3c5632-fc65-420b-975d-77c8db9a2d1c"},"vehicle_type_id":"4","last_reported":1750180219,"current_range_meters":1600,"station_id":"ce4bhch2rcd13ifvqeug","pricing_plan_id":"cebpf4jnsgd1na2vs0mg"},{"bike_id":"bc00f1e0-88b4-46ef-84d0-52fa03a3305f","system_id":"levelo_inurba_marseille","lat":43.28087,"lon":5.38701,"is_reserved":false,"is_disabled":true,"rental_uris":{"android":"levelo://app?vid=bc00f1e0-88b4-46ef-84d0-52fa03a3305f","ios":"levelo://app?vid=bc00f1e0-88b4-46ef-84d0-52fa03a3305f"},"vehicle_type_id":"4","last_reported":1750180219,"current_range_meters":2000,"station_id":"","pricing_plan_id":"cebpf4jnsgd1na2vs0mg"},{"bike_id":"c851cdb7-b673-4ebe-bf98-28e88aa21ec0","system_id":"levelo_inurba_marseille","lat":43.29962,"lon":5.38495,"is_reserved":false,"is_disabled":true,"rental_uris":{"android":"levelo://app?vid=c851cdb7-b673-4ebe-bf98-28e88aa21ec0","ios":"levelo://app?vid=c851cdb7-b673-4ebe-bf98-28e88aa21ec0"},"vehicle_type_id":"4","last_reported":1750180219,"current_range_meters":2000,"station_id":"ce4bgj92rcd13ifvqbd0","pricing_plan_id":"cebpf4jnsgd1na2vs0mg"},{"bike_id":"1f59ca1c-8bde-46c8-af6b-e6fda36b56b0","system_id":"levelo_inurba_marseille","lat":43.29275,"lon":5.4012,"is_reserved":false,"is_disabled":true,"rental_uris":{"android":"levelo://app?vid=1f59ca1c-8bde-46c8-af6b-e6fda36b56b0","ios":"levelo://app?vid=1f59ca1c-8bde-46c8-af6b-e6fda36b56b0"},"vehicle_type_id":"4","last_reported":1750180219,"current_range_meters":2000,"station_id":"ce4bh312rcd13ifvqdk0","pricing_plan_id":"cebpf4jnsgd1na2vs0mg"},{"bike_id":"87a4c7fc-f9e9-49ed-a3af-836f218f3493","system_id":"levelo_inurba_marseille","lat":43.28454,"lon":5.35883,"is_reserved":false,"is_disabled":true,"rental_uris":{"android":"levelo://app?vid=87a4c7fc-f9e9-49ed-a3af-836f218f3493","ios":"levelo://app?vid=87a4c7fc-f9e9-49ed-a3af-836f218f3493"},"vehicle_type_id":"4","last_reported":1750180219,"current_range_meters":2000,"station_id":"ce4bhah2rcd13ifvqei0","pricing_plan_id":"cebpf4jnsgd1na2vs0mg"},{"bike_id":"0c5c4270-6662-40f0-911d-e85266a9fe65","system_id":"levelo_inurba_marseille","lat":43.318838,"lon":5.407354,"is_reserved":false,"is_disabled":true,"rental_uris":{"android":"levelo://app?vid=0c5c4270-6662-40f0-911d-e85266a9fe65","ios":"levelo://app?vid=0c5c4270-6662-40f0-911d-e85266a9fe65"},"vehicle_type_id":"4","last_reported":1750180219,"current_range_meters":2000,"station_id":"ce4bhq12rcd13ifvqhig","pricing_plan_id":"cebpf4jnsgd1na2vs0mg"},{"bike_id":"8d297b38-f666-4a46-9dee-0132f800019c","system_id":"levelo_inurba_marseille","lat":43.32203,"lon":5.38586,"is_reserved":false,"is_disabled":false,"rental_uris":{"android":"levelo://app?vid=8d297b38-f666-4a46-9dee-0132f800019c","ios":"levelo://app?vid=8d297b38-f666-4a46-9dee-0132f800019c"},"vehicle_type_id":"4","last_reported":1750180219,"current_range_meters":2800,"station_id":"","pricing_plan_id":"cebpf4jnsgd1na2vs0mg"},{"bike_id":"c51f4539-5d94-44a6-bb35-d3d6f2ffb837","system_id":"levelo_inurba_marseille","lat":43.2991,"lon":5.38127,"is_reserved":false,"is_disabled":false,"rental_uris":{"android":"levelo://app?vid=c51f4539-5d94-44a6-bb35-d3d6f2ffb837","ios":"levelo://app?vid=c51f4539-5d94-44a6-bb35-d3d6f2ffb837"},"vehicle_type_id":"4","last_reported":1750180219,"current_range_meters":2800,"station_id":"ce4bgj12rcd13ifvqbc0","pricing_plan_id":"cebpf4jnsgd1na2vs0mg"},{"bike_id":"3375749e-cde8-4c43-8b37-f9c8bf3fd6b7","system_id":"levelo_inurba_marseille","lat":43.28989,"lon":5.37814,"is_reserved":false,"is_disabled":false,"rental_uris":{"android":"levelo://app?vid=3375749e-cde8-4c43-8b37-f9c8bf3fd6b7","ios":"levelo://app?vid=3375749e-cde8-4c43-8b37-f9c8bf3fd6b7"},"vehicle_type_id":"4","last_reported":1750180219,"current_range_meters":2800,"station_id":"ce4bh9p2rcd13ifvqed0","pricing_plan_id":"cebpf4jnsgd1na2vs0mg"},{"bike_id":"c6504dca-3b85-4fbf-8e26-9552e994c7a6","system_id":"levelo_inurba_marseille","lat":43.307297,"lon":5.424338,"is_reserved":false,"is_disabled":true,"rental_uris":{"android":"levelo://app?vid=c6504dca-3b85-4fbf-8e26-9552e994c7a6","ios":"levelo://app?vid=c6504dca-3b85-4fbf-8e26-9552e994c7a6"},"vehicle_type_id":"4","last_reported":1750180219,"current_range_meters":2800,"station_id":"st_cvj6ca6bvosntc0bfgr0","pricing_plan_id":"cebpf4jnsgd1na2vs0mg"},{"bike_id":"f73fa35b-4c85-46d7-8920-a5f30e8d421a","system_id":"levelo_inurba_marseille","lat":43.276232,"lon":5.361055,"is_reserved":false,"is_disabled":false,"rental_uris":{"android":"levelo://app?vid=f73fa35b-4c85-46d7-8920-a5f30e8d421a","ios":"levelo://app?vid=f73fa35b-4c85-46d7-8920-a5f30e8d421a"},"vehicle_type_id":"4","last_reported":1750180219,"current_range_meters":3200,"station_id":"ce4bgj92rcd13ifvqbe0","pricing_plan_id":"cebpf4jnsgd1na2vs0mg"},{"bike_id":"d0fa5896-3b4e-4961-9d5c-8d19151b617c","system_id":"levelo_inurba_marseille","lat":43.29868,"lon":5.39728,"is_reserved":false,"is_disabled":false,"rental_uris":{"android":"levelo://app?vid=d0fa5896-3b4e-4961-9d5c-8d19151b617c","ios":"levelo://app?vid=d0fa5896-3b4e-4961-9d5c-8d19151b617c"},"vehicle_type_id":"4","last_reported":1750180219,"current_range_meters":3200,"station_id":"ce4bh0h2rcd13ifvqd50","pricing_plan_id":"cebpf4jnsgd1na2vs0mg"},{"bike_id":"6b4f8100-e887-441f-b6c3-420474d81151","system_id":"levelo_inurba_marseille","lat":43.28924,"lon":5.38396,"is_reserved":false,"is_disabled":false,"rental_uris":{"android":"levelo://app?vid=6b4f8100-e887-441f-b6c3-420474d81151","ios":"levelo://app?vid=6b4f8100-e887-441f-b6c3-420474d81151"},"vehicle_type_id":"4","last_reported":1750180219,"current_range_meters":3200,"station_id":"ce4bh612rcd13ifvqe6g","pricing_plan_id":"cebpf4jnsgd1na2vs0mg"},{"bike_id":"8416733a-53d2-4c41-8341-3633e9ef6394","system_id":"levelo_inurba_marseille","lat":43.29266,"lon":5.38442,"is_reserved":false,"is_disabled":false,"rental_uris":{"android":"levelo://app?vid=8416733a-53d2-4c41-8341-3633e9ef6394","ios":"levelo://app?vid=8416733a-53d2-4c41-8341-3633e9ef6394"},"vehicle_type_id":"4","last_reported":1750180219,"current_range_meters":3200,"station_id":"ce4bh692rcd13ifvqea0","pricing_plan_id":"cebpf4jnsgd1na2vs0mg"},{"bike_id":"69af7404-5ec1-4810-9e8f-2b24aa559381","system_id":"levelo_inurba_marseille","lat":43.29361,"lon":5.38361,"is_reserved":false,"is_disabled":false,"rental_uris":{"android":"levelo://app?vid=69af7404-5ec1-4810-9e8f-2b24aa559381","ios":"levelo://app?vid=69af7404-5ec1-4810-9e8f-2b24aa559381"},"vehicle_type_id":"4","last_reported":1750180219,"current_range_meters":3600,"station_id":"","pricing_plan_id":"cebpf4jnsgd1na2vs0mg"},{"bike_id":"d67d61df-18f2-4299-ad98-52a7cf24ccac","system_id":"levelo_inurba_marseille","lat":43.28703,"lon":5.37389,"is_reserved":false,"is_disabled":false,"rental_uris":{"android":"levelo://app?vid=d67d61df-18f2-4299-ad98-52a7cf24ccac","ios":"levelo://app?vid=d67d61df-18f2-4299-ad98-52a7cf24ccac"},"vehicle_type_id":"4","last_reported":1750180219,"current_range_meters":3600,"station_id":"ce4bh3p2rcd13ifvqdq0","pricing_plan_id":"cebpf4jnsgd1na2vs0mg"},{"bike_id":"26c7a2b7-9d99-4383-a210-6e58054efbb5","system_id":"levelo_inurba_marseille","lat":43.32466,"lon":5.36543,"is_reserved":false,"is_disabled":false,"rental_uris":{"android":"levelo://app?vid=26c7a2b7-9d99-4383-a210-6e58054efbb5","ios":"levelo://app?vid=26c7a2b7-9d99-4383-a210-6e58054efbb5"},"vehicle_type_id":"4","last_reported":1750180219,"current_range_meters":4000,"station_id":"ce4bhs12rcd13ifvqhvg","pricing_plan_id":"cebpf4jnsgd1na2vs0mg"},{"bike_id":"c67a2bf5-720a-4781-b41e-480d042e760d","system_id":"levelo_inurba_marseille","lat":43.28481,"lon":5.38566,"is_reserved":false,"is_disabled":false,"rental_uris":{"android":"levelo://app?vid=c67a2bf5-720a-4781-b41e-480d042e760d","ios":"levelo://app?vid=c67a2bf5-720a-4781-b41e-480d042e760d"},"vehicle_type_id":"4","last_reported":1750180219,"current_range_meters":4400,"station_id":"ce4bh8p2rcd13ifvqeb0","pricing_plan_id":"cebpf4jnsgd1na2vs0mg"},{"bike_id":"65104ac9-4892-4521-b632-bb6fe30eb63f","system_id":"levelo_inurba_marseille","lat":43.2439,"lon":5.37059,"is_reserved":false,"is_disabled":false,"rental_uris":{"android":"levelo://app?vid=65104ac9-4892-4521-b632-bb6fe30eb63f","ios":"levelo://app?vid=65104ac9-4892-4521-b632-bb6fe30eb63f"},"vehicle_type_id":"4","last_reported":1750180219,"current_range_meters":4400,"station_id":"ce4bhhh2rcd13ifvqfk0","pricing_plan_id":"cebpf4jnsgd1na2vs0mg"},{"bike_id":"170a7da6-a970-4d7c-9ed7-c5b5c781bf7c","system_id":"levelo_inurba_marseille","lat":43.24385,"lon":5.37056,"is_reserved":false,"is_disabled":false,"rental_uris":{"android":"levelo://app?vid=170a7da6-a970-4d7c-9ed7-c5b5c781bf7c","ios":"levelo://app?vid=170a7da6-a970-4d7c-9ed7-c5b5c781bf7c"},"vehicle_type_id":"4","last_reported":1750180219,"current_range_meters":4400,"station_id":"ce4bhhh2rcd13ifvqfk0","pricing_plan_id":"cebpf4jnsgd1na2vs0mg"},{"bike_id":"0ec046cd-0025-4549-ad54-4c753c0da080","system_id":"levelo_inurba_marseille","lat":43.3086,"lon":5.37201,"is_reserved":false,"is_disabled":false,"rental_uris":{"android":"levelo://app?vid=0ec046cd-0025-4549-ad54-4c753c0da080","ios":"levelo://app?vid=0ec046cd-0025-4549-ad54-4c753c0da080"},"vehicle_type_id":"4","last_reported":1750180219,"current_range_meters":4800,"station_id":"","pricing_plan_id":"cebpf4jnsgd1na2vs0mg"},{"bike_id":"95e0d29a-fdad-45eb-a9e3-07866f4eac6d","system_id":"levelo_inurba_marseille","lat":43.29658,"lon":5.36252,"is_reserved":false,"is_disabled":false,"rental_uris":{"android":"levelo://app?vid=95e0d29a-fdad-45eb-a9e3-07866f4eac6d","ios":"levelo://app?vid=95e0d29a-fdad-45eb-a9e3-07866f4eac6d"},"vehicle_type_id":"4","last_reported":1750180219,"current_range_meters":4800,"station_id":"","pricing_plan_id":"cebpf4jnsgd1na2vs0mg"},{"bike_id":"e9bc8255-aeec-4b7a-9f42-3ff9784de9d7","system_id":"levelo_inurba_marseille","lat":43.24653,"lon":5.38896,"is_reserved":false,"is_disabled":false,"rental_uris":{"android":"levelo://app?vid=e9bc8255-aeec-4b7a-9f42-3ff9784de9d7","ios":"levelo://app?vid=e9bc8255-aeec-4b7a-9f42-3ff9784de9d7"},"vehicle_type_id":"4","last_reported":1750180219,"current_range_meters":4800,"station_id":"ce4bhg12rcd13ifvqf60","pricing_plan_id":"cebpf4jnsgd1na2vs0mg"},{"bike_id":"792d0705-34f4-4235-bd3d-53e50103655b","system_id":"levelo_inurba_marseille","lat":43.28698,"lon":5.39988,"is_reserved":false,"is_disabled":false,"rental_uris":{"android":"levelo://app?vid=792d0705-34f4-4235-bd3d-53e50103655b","ios":"levelo://app?vid=792d0705-34f4-4235-bd3d-53e50103655b"},"vehicle_type_id":"4","last_reported":1750180219,"current_range_meters":4800,"station_id":"ce4bho92rcd13ifvqh3g","pricing_plan_id":"cebpf4jnsgd1na2vs0mg"},{"bike_id":"b2a9f5a6-9979-41c8-a853-b41f628d20fb","system_id":"levelo_inurba_marseille","lat":43.27372,"lon":5.36276,"is_reserved":false,"is_disabled":false,"rental_uris":{"android":"levelo://app?vid=b2a9f5a6-9979-41c8-a853-b41f628d20fb","ios":"levelo://app?vid=b2a9f5a6-9979-41c8-a853-b41f628d20fb"},"vehicle_type_id":"4","last_reported":1750180219,"current_range_meters":5600,"station_id":"ce4bhbh2rcd13ifvqeo0","pricing_plan_id":"cebpf4jnsgd1na2vs0mg"},{"bike_id":"b7414e94-3bde-46e4-8eac-ffc26f40fac0","system_id":"levelo_inurba_marseille","lat":43.27376,"lon":5.36269,"is_reserved":false,"is_disabled":false,"rental_uris":{"android":"levelo://app?vid=b7414e94-3bde-46e4-8eac-ffc26f40fac0","ios":"levelo://app?vid=b7414e94-3bde-46e4-8eac-ffc26f40fac0"},"vehicle_type_id":"4","last_reported":1750180219,"current_range_meters":5600,"station_id":"ce4bhbh2rcd13ifvqeo0","pricing_plan_id":"cebpf4jnsgd1na2vs0mg"},{"bike_id":"8bfbf926-0b05-4007-b337-4951264b122c","system_id":"levelo_inurba_marseille","lat":43.2587,"lon":5.39893,"is_reserved":false,"is_disabled":false,"rental_uris":{"android":"levelo://app?vid=8bfbf926-0b05-4007-b337-4951264b122c","ios":"levelo://app?vid=8bfbf926-0b05-4007-b337-4951264b122c"},"vehicle_type_id":"4","last_reported":1750180219,"current_range_meters":5600,"station_id":"ce4bhl92rcd13ifvqghg","pricing_plan_id":"cebpf4jnsgd1na2vs0mg"},{"bike_id":"4c6889a5-dc2c-4c12-b423-e71a777b3c94","system_id":"levelo_inurba_marseille","lat":43.24547,"lon":5.39522,"is_reserved":false,"is_disabled":false,"rental_uris":{"android":"levelo://app?vid=4c6889a5-dc2c-4c12-b423-e71a777b3c94","ios":"levelo://app?vid=4c6889a5-dc2c-4c12-b423-e71a777b3c94"},"vehicle_type_id":"4","last_reported":1750180219,"current_range_meters":5600,"station_id":"ce4bhlp2rcd13ifvqgjg","pricing_plan_id":"cebpf4jnsgd1na2vs0mg"},{"bike_id":"104c8a48-0b23-4dfe-b42e-b0a87525c052","system_id":"levelo_inurba_marseille","lat":43.25111,"lon":5.40321,"is_reserved":false,"is_disabled":false,"rental_uris":{"android":"levelo://app?vid=104c8a48-0b23-4dfe-b42e-b0a87525c052","ios":"levelo://app?vid=104c8a48-0b23-4dfe-b42e-b0a87525c052"},"vehicle_type_id":"4","last_reported":1750180219,"current_range_meters":6000,"station_id":"ce4bhlh2rcd13ifvqgig","pricing_plan_id":"cebpf4jnsgd1na2vs0mg"},{"bike_id":"fdb46723-8378-4ba9-9bb4-08e187848fda","system_id":"levelo_inurba_marseille","lat":43.29553,"lon":5.42293,"is_reserved":false,"is_disabled":false,"rental_uris":{"android":"levelo://app?vid=fdb46723-8378-4ba9-9bb4-08e187848fda","ios":"levelo://app?vid=fdb46723-8378-4ba9-9bb4-08e187848fda"},"vehicle_type_id":"4","last_reported":1750180219,"current_range_meters":6000,"station_id":"ce4bhph2rcd13ifvqhdg","pricing_plan_id":"cebpf4jnsgd1na2vs0mg"},{"bike_id":"b94ad41f-3cd1-4a81-9863-922080040a44","system_id":"levelo_inurba_marseille","lat":43.22501,"lon":5.34786,"is_reserved":false,"is_disabled":false,"rental_uris":{"android":"levelo://app?vid=b94ad41f-3cd1-4a81-9863-922080040a44","ios":"levelo://app?vid=b94ad41f-3cd1-4a81-9863-922080040a44"},"vehicle_type_id":"4","last_reported":1750180219,"current_range_meters":6400,"station_id":"","pricing_plan_id":"cebpf4jnsgd1na2vs0mg"},{"bike_id":"a8560958-7a33-4e37-bad9-c9a1e686fc43","system_id":"levelo_inurba_marseille","lat":43.29243,"lon":5.374813,"is_reserved":false,"is_disabled":false,"rental_uris":{"android":"levelo://app?vid=a8560958-7a33-4e37-bad9-c9a1e686fc43","ios":"levelo://app?vid=a8560958-7a33-4e37-bad9-c9a1e686fc43"},"vehicle_type_id":"4","last_reported":1750180219,"current_range_meters":6400,"station_id":"","pricing_plan_id":"cebpf4jnsgd1na2vs0mg"},{"bike_id":"84715f47-80df-4d27-a42e-8464f44a2ef9","system_id":"levelo_inurba_marseille","lat":43.31325,"lon":5.39692,"is_reserved":false,"is_disabled":false,"rental_uris":{"android":"levelo://app?vid=84715f47-80df-4d27-a42e-8464f44a2ef9","ios":"levelo://app?vid=84715f47-80df-4d27-a42e-8464f44a2ef9"},"vehicle_type_id":"4","last_reported":1750180219,"current_range_meters":6400,"station_id":"ce4bgvp2rcd13ifvqcu0","pricing_plan_id":"cebpf4jnsgd1na2vs0mg"},{"bike_id":"ca201c86-aa3d-49e0-8d67-bf2988718aa3","system_id":"levelo_inurba_marseille","lat":43.28699,"lon":5.39985,"is_reserved":false,"is_disabled":false,"rental_uris":{"android":"levelo://app?vid=ca201c86-aa3d-49e0-8d67-bf2988718aa3","ios":"levelo://app?vid=ca201c86-aa3d-49e0-8d67-bf2988718aa3"},"vehicle_type_id":"4","last_reported":1750180219,"current_range_meters":6400,"station_id":"ce4bho92rcd13ifvqh3g","pricing_plan_id":"cebpf4jnsgd1na2vs0mg"},{"bike_id":"6d5599e3-d18c-4773-b116-6f33a06de8ec","system_id":"levelo_inurba_marseille","lat":43.27618,"lon":5.36106,"is_reserved":false,"is_disabled":false,"rental_uris":{"android":"levelo://app?vid=6d5599e3-d18c-4773-b116-6f33a06de8ec","ios":"levelo://app?vid=6d5599e3-d18c-4773-b116-6f33a06de8ec"},"vehicle_type_id":"4","last_reported":1750180219,"current_range_meters":6800,"station_id":"ce4bgj92rcd13ifvqbe0","pricing_plan_id":"cebpf4jnsgd1na2vs0mg"},{"bike_id":"cd000c22-0d7d-41d6-a93c-ecc88d239eba","system_id":"levelo_inurba_marseille","lat":43.29874,"lon":5.39747,"is_reserved":false,"is_disabled":false,"rental_uris":{"android":"levelo://app?vid=cd000c22-0d7d-41d6-a93c-ecc88d239eba","ios":"levelo://app?vid=cd000c22-0d7d-41d6-a93c-ecc88d239eba"},"vehicle_type_id":"4","last_reported":1750180219,"current_range_meters":6800,"station_id":"ce4bh0h2rcd13ifvqd50","pricing_plan_id":"cebpf4jnsgd1na2vs0mg"},{"bike_id":"a45c8a38-3555-4e55-a4c3-1e34b465ff9a","system_id":"levelo_inurba_marseille","lat":43.28728,"lon":5.37924,"is_reserved":false,"is_disabled":false,"rental_uris":{"android":"levelo://app?vid=a45c8a38-3555-4e55-a4c3-1e34b465ff9a","ios":"levelo://app?vid=a45c8a38-3555-4e55-a4c3-1e34b465ff9a"},"vehicle_type_id":"4","last_reported":1750180219,"current_range_meters":6800,"station_id":"ce4bh9p2rcd13ifvqec0","pricing_plan_id":"cebpf4jnsgd1na2vs0mg"},{"bike_id":"c346c957-5967-4ca8-8451-c19712603c29","system_id":"levelo_inurba_marseille","lat":43.281005,"lon":5.378409,"is_reserved":false,"is_disabled":false,"rental_uris":{"android":"levelo://app?vid=c346c957-5967-4ca8-8451-c19712603c29","ios":"levelo://app?vid=c346c957-5967-4ca8-8451-c19712603c29"},"vehicle_type_id":"4","last_reported":1750180219,"current_range_meters":6800,"station_id":"ce4bha12rcd13ifvqee0","pricing_plan_id":"cebpf4jnsgd1na2vs0mg"},{"bike_id":"6afc644c-08c3-42de-8619-3f94e2ba41cd","system_id":"levelo_inurba_marseille","lat":43.29892,"lon":5.43646,"is_reserved":false,"is_disabled":false,"rental_uris":{"android":"levelo://app?vid=6afc644c-08c3-42de-8619-3f94e2ba41cd","ios":"levelo://app?vid=6afc644c-08c3-42de-8619-3f94e2ba41cd"},"vehicle_type_id":"4","last_reported":1750180219,"current_range_meters":6800,"station_id":"ce4bhpp2rcd13ifvqhfg","pricing_plan_id":"cebpf4jnsgd1na2vs0mg"},{"bike_id":"2612cafd-19dc-489f-9268-fe85156717db","system_id":"levelo_inurba_marseille","lat":43.28454,"lon":5.359,"is_reserved":false,"is_disabled":false,"rental_uris":{"android":"levelo://app?vid=2612cafd-19dc-489f-9268-fe85156717db","ios":"levelo://app?vid=2612cafd-19dc-489f-9268-fe85156717db"},"vehicle_type_id":"4","last_reported":1750180219,"current_range_meters":7200,"station_id":"ce4bhah2rcd13ifvqei0","pricing_plan_id":"cebpf4jnsgd1na2vs0mg"},{"bike_id":"702d1439-931d-4e3a-98ae-8be3fd773830","system_id":"levelo_inurba_marseille","lat":43.26956,"lon":5.38636,"is_reserved":false,"is_disabled":false,"rental_uris":{"android":"levelo://app?vid=702d1439-931d-4e3a-98ae-8be3fd773830","ios":"levelo://app?vid=702d1439-931d-4e3a-98ae-8be3fd773830"},"vehicle_type_id":"4","last_reported":1750180219,"current_range_meters":7200,"station_id":"ce4bhh92rcd13ifvqfh0","pricing_plan_id":"cebpf4jnsgd1na2vs0mg"},{"bike_id":"6c25f0de-e778-462d-b812-1146c0b8d1fb","system_id":"levelo_inurba_marseille","lat":43.27376,"lon":5.36254,"is_reserved":false,"is_disabled":false,"rental_uris":{"android":"levelo://app?vid=6c25f0de-e778-462d-b812-1146c0b8d1fb","ios":"levelo://app?vid=6c25f0de-e778-462d-b812-1146c0b8d1fb"},"vehicle_type_id":"4","last_reported":1750180219,"current_range_meters":8000,"station_id":"ce4bhbh2rcd13ifvqeo0","pricing_plan_id":"cebpf4jnsgd1na2vs0mg"},{"bike_id":"9ed64ba7-3af1-4181-a4e6-0f30e9c489c8","system_id":"levelo_inurba_marseille","lat":43.2841,"lon":5.34981,"is_reserved":false,"is_disabled":false,"rental_uris":{"android":"levelo://app?vid=9ed64ba7-3af1-4181-a4e6-0f30e9c489c8","ios":"levelo://app?vid=9ed64ba7-3af1-4181-a4e6-0f30e9c489c8"},"vehicle_type_id":"4","last_reported":1750180219,"current_range_meters":8000,"station_id":"ce4bhbh2rcd13ifvqepg","pricing_plan_id":"cebpf4jnsgd1na2vs0mg"},{"bike_id":"4053bbe9-4a4b-4a0a-93a8-56fb4fbaa86d","system_id":"levelo_inurba_marseille","lat":43.30602,"lon":5.37224,"is_reserved":false,"is_disabled":false,"rental_uris":{"android":"levelo://app?vid=4053bbe9-4a4b-4a0a-93a8-56fb4fbaa86d","ios":"levelo://app?vid=4053bbe9-4a4b-4a0a-93a8-56fb4fbaa86d"},"vehicle_type_id":"4","last_reported":1750180219,"current_range_meters":8400,"station_id":"ce4bgqh2rcd13ifvqc4g","pricing_plan_id":"cebpf4jnsgd1na2vs0mg"},{"bike_id":"d6a4176b-b607-42ea-9931-a207a567b534","system_id":"levelo_inurba_marseille","lat":43.28409,"lon":5.34992,"is_reserved":false,"is_disabled":false,"rental_uris":{"android":"levelo://app?vid=d6a4176b-b607-42ea-9931-a207a567b534","ios":"levelo://app?vid=d6a4176b-b607-42ea-9931-a207a567b534"},"vehicle_type_id":"4","last_reported":1750180219,"current_range_meters":8400,"station_id":"ce4bhbh2rcd13ifvqepg","pricing_plan_id":"cebpf4jnsgd1na2vs0mg"},{"bike_id":"adc4dd4e-7632-4c58-82c5-b29caf78d493","system_id":"levelo_inurba_marseille","lat":43.281577,"lon":5.426381,"is_reserved":false,"is_disabled":false,"rental_uris":{"android":"levelo://app?vid=adc4dd4e-7632-4c58-82c5-b29caf78d493","ios":"levelo://app?vid=adc4dd4e-7632-4c58-82c5-b29caf78d493"},"vehicle_type_id":"4","last_reported":1750180219,"current_range_meters":8400,"station_id":"ce4bhnh2rcd13ifvqgug","pricing_plan_id":"cebpf4jnsgd1na2vs0mg"},{"bike_id":"da3e1724-606c-4f9a-9130-d56dd48e22e0","system_id":"levelo_inurba_marseille","lat":43.329654,"lon":5.406024,"is_reserved":false,"is_disabled":false,"rental_uris":{"android":"levelo://app?vid=da3e1724-606c-4f9a-9130-d56dd48e22e0","ios":"levelo://app?vid=da3e1724-606c-4f9a-9130-d56dd48e22e0"},"vehicle_type_id":"4","last_reported":1750180219,"current_range_meters":8800,"station_id":"","pricing_plan_id":"cebpf4jnsgd1na2vs0mg"},{"bike_id":"92542d35-8f2f-4dd4-b923-248e6bddb2b7","system_id":"levelo_inurba_marseille","lat":43.229308,"lon":5.353856,"is_reserved":false,"is_disabled":false,"rental_uris":{"android":"levelo://app?vid=92542d35-8f2f-4dd4-b923-248e6bddb2b7","ios":"levelo://app?vid=92542d35-8f2f-4dd4-b923-248e6bddb2b7"},"vehicle_type_id":"4","last_reported":1750180219,"current_range_meters":8800,"station_id":"cpo3532slgdg3j2ikp40","pricing_plan_id":"cebpf4jnsgd1na2vs0mg"},{"bike_id":"abe898bd-3d96-4438-96b1-b7298b1cb6ad","system_id":"levelo_inurba_marseille","lat":43.33716,"lon":5.3919,"is_reserved":false,"is_disabled":false,"rental_uris":{"android":"levelo://app?vid=abe898bd-3d96-4438-96b1-b7298b1cb6ad","ios":"levelo://app?vid=abe898bd-3d96-4438-96b1-b7298b1cb6ad"},"vehicle_type_id":"4","last_reported":1750180219,"current_range_meters":9200,"station_id":"ce4bhr92rcd13ifvqhsg","pricing_plan_id":"cebpf4jnsgd1na2vs0mg"},{"bike_id":"ae8524c6-7b10-43ef-8ed4-b8035f1213c1","system_id":"levelo_inurba_marseille","lat":43.33388,"lon":5.40084,"is_reserved":false,"is_disabled":false,"rental_uris":{"android":"levelo://app?vid=ae8524c6-7b10-43ef-8ed4-b8035f1213c1","ios":"levelo://app?vid=ae8524c6-7b10-43ef-8ed4-b8035f1213c1"},"vehicle_type_id":"4","last_reported":1750180219,"current_range_meters":9600,"station_id":"","pricing_plan_id":"cebpf4jnsgd1na2vs0mg"},{"bike_id":"ef3a05c7-f5e4-4695-9bee-9fb037da136f","system_id":"levelo_inurba_marseille","lat":43.29593,"lon":5.38101,"is_reserved":false,"is_disabled":false,"rental_uris":{"android":"levelo://app?vid=ef3a05c7-f5e4-4695-9bee-9fb037da136f","ios":"levelo://app?vid=ef3a05c7-f5e4-4695-9bee-9fb037da136f"},"vehicle_type_id":"4","last_reported":1750180219,"current_range_meters":9600,"station_id":"ce4bgl12rcd13ifvqbo0","pricing_plan_id":"cebpf4jnsgd1na2vs0mg"},{"bike_id":"a4797651-3361-4e76-ad49-6641bcbfd4d6","system_id":"levelo_inurba_marseille","lat":43.30328,"lon":5.40432,"is_reserved":false,"is_disabled":false,"rental_uris":{"android":"levelo://app?vid=a4797651-3361-4e76-ad49-6641bcbfd4d6","ios":"levelo://app?vid=a4797651-3361-4e76-ad49-6641bcbfd4d6"},"vehicle_type_id":"4","last_reported":1750180219,"current_range_meters":9600,"station_id":"ce4bh012rcd13ifvqd10","pricing_plan_id":"cebpf4jnsgd1na2vs0mg"},{"bike_id":"776a611c-7808-4f20-b038-87d3c259e8e0","system_id":"levelo_inurba_marseille","lat":43.27383,"lon":5.36258,"is_reserved":false,"is_disabled":false,"rental_uris":{"android":"levelo://app?vid=776a611c-7808-4f20-b038-87d3c259e8e0","ios":"levelo://app?vid=776a611c-7808-4f20-b038-87d3c259e8e0"},"vehicle_type_id":"4","last_reported":1750180219,"current_range_meters":9600,"station_id":"ce4bhbh2rcd13ifvqeo0","pricing_plan_id":"cebpf4jnsgd1na2vs0mg"},{"bike_id":"b2f4f569-240a-41eb-98c1-867758e4b382","system_id":"levelo_inurba_marseille","lat":43.28262,"lon":5.35062,"is_reserved":false,"is_disabled":false,"rental_uris":{"android":"levelo://app?vid=b2f4f569-240a-41eb-98c1-867758e4b382","ios":"levelo://app?vid=b2f4f569-240a-41eb-98c1-867758e4b382"},"vehicle_type_id":"4","last_reported":1750180219,"current_range_meters":9600,"station_id":"ce4bhbp2rcd13ifvqerg","pricing_plan_id":"cebpf4jnsgd1na2vs0mg"},{"bike_id":"3b136301-d892-4bf1-aa15-695ec30464ca","system_id":"levelo_inurba_marseille","lat":43.32085,"lon":5.36768,"is_reserved":false,"is_disabled":false,"rental_uris":{"android":"levelo://app?vid=3b136301-d892-4bf1-aa15-695ec30464ca","ios":"levelo://app?vid=3b136301-d892-4bf1-aa15-695ec30464ca"},"vehicle_type_id":"4","last_reported":1750180219,"current_range_meters":9600,"station_id":"ce4bhrh2rcd13ifvqhug","pricing_plan_id":"cebpf4jnsgd1na2vs0mg"},{"bike_id":"25960fd9-8509-4555-9b23-fa4fae1e21d0","system_id":"levelo_inurba_marseille","lat":43.29037,"lon":5.38181,"is_reserved":false,"is_disabled":false,"rental_uris":{"android":"levelo://app?vid=25960fd9-8509-4555-9b23-fa4fae1e21d0","ios":"levelo://app?vid=25960fd9-8509-4555-9b23-fa4fae1e21d0"},"vehicle_type_id":"4","last_reported":1750180219,"current_range_meters":10000,"station_id":"","pricing_plan_id":"cebpf4jnsgd1na2vs0mg"},{"bike_id":"dbbc7403-7e64-4eee-8b48-29b3b9ec755d","system_id":"levelo_inurba_marseille","lat":43.28407,"lon":5.3498,"is_reserved":false,"is_disabled":false,"rental_uris":{"android":"levelo://app?vid=dbbc7403-7e64-4eee-8b48-29b3b9ec755d","ios":"levelo://app?vid=dbbc7403-7e64-4eee-8b48-29b3b9ec755d"},"vehicle_type_id":"4","last_reported":1750180219,"current_range_meters":10000,"station_id":"ce4bhbh2rcd13ifvqepg","pricing_plan_id":"cebpf4jnsgd1na2vs0mg"},{"bike_id":"0dfba49c-6841-4f89-bfd3-1f8b4ee79b78","system_id":"levelo_inurba_marseille","lat":43.28421,"lon":5.3499,"is_reserved":false,"is_disabled":false,"rental_uris":{"android":"levelo://app?vid=0dfba49c-6841-4f89-bfd3-1f8b4ee79b78","ios":"levelo://app?vid=0dfba49c-6841-4f89-bfd3-1f8b4ee79b78"},"vehicle_type_id":"4","last_reported":1750180219,"current_range_meters":10000,"station_id":"ce4bhbh2rcd13ifvqepg","pricing_plan_id":"cebpf4jnsgd1na2vs0mg"},{"bike_id":"f23dd91f-bd8f-41e7-b2e0-8ae6e611d398","system_id":"levelo_inurba_marseille","lat":43.24389,"lon":5.37056,"is_reserved":false,"is_disabled":false,"rental_uris":{"android":"levelo://app?vid=f23dd91f-bd8f-41e7-b2e0-8ae6e611d398","ios":"levelo://app?vid=f23dd91f-bd8f-41e7-b2e0-8ae6e611d398"},"vehicle_type_id":"4","last_reported":1750180219,"current_range_meters":10000,"station_id":"ce4bhhh2rcd13ifvqfk0","pricing_plan_id":"cebpf4jnsgd1na2vs0mg"},{"bike_id":"20783f9a-bccb-40b2-ad0a-4c146f9df5a6","system_id":"levelo_inurba_marseille","lat":43.25725,"lon":5.41111,"is_reserved":false,"is_disabled":false,"rental_uris":{"android":"levelo://app?vid=20783f9a-bccb-40b2-ad0a-4c146f9df5a6","ios":"levelo://app?vid=20783f9a-bccb-40b2-ad0a-4c146f9df5a6"},"vehicle_type_id":"4","last_reported":1750180219,"current_range_meters":10000,"station_id":"ce4bhkp2rcd13ifvqgd0","pricing_plan_id":"cebpf4jnsgd1na2vs0mg"},{"bike_id":"5eeb69db-f9e7-4c00-bdbd-e249fa25e747","system_id":"levelo_inurba_marseille","lat":43.28454,"lon":5.39192,"is_reserved":false,"is_disabled":false,"rental_uris":{"android":"levelo://app?vid=5eeb69db-f9e7-4c00-bdbd-e249fa25e747","ios":"levelo://app?vid=5eeb69db-f9e7-4c00-bdbd-e249fa25e747"},"vehicle_type_id":"4","last_reported":1750180219,"current_range_meters":10000,"station_id":"ce4bhoh2rcd13ifvqh5g","pricing_plan_id":"cebpf4jnsgd1na2vs0mg"},{"bike_id":"45dfd6d4-3229-444a-a8d9-61730c77d9bb","system_id":"levelo_inurba_marseille","lat":43.2846,"lon":5.35885,"is_reserved":false,"is_disabled":false,"rental_uris":{"android":"levelo://app?vid=45dfd6d4-3229-444a-a8d9-61730c77d9bb","ios":"levelo://app?vid=45dfd6d4-3229-444a-a8d9-61730c77d9bb"},"vehicle_type_id":"4","last_reported":1750180219,"current_range_meters":10800,"station_id":"ce4bhah2rcd13ifvqei0","pricing_plan_id":"cebpf4jnsgd1na2vs0mg"},{"bike_id":"0a6a85ba-18c7-48d0-ba66-2701c698b81e","system_id":"levelo_inurba_marseille","lat":43.27379,"lon":5.36254,"is_reserved":false,"is_disabled":false,"rental_uris":{"android":"levelo://app?vid=0a6a85ba-18c7-48d0-ba66-2701c698b81e","ios":"levelo://app?vid=0a6a85ba-18c7-48d0-ba66-2701c698b81e"},"vehicle_type_id":"4","last_reported":1750180219,"current_range_meters":10800,"station_id":"ce4bhbh2rcd13ifvqeo0","pricing_plan_id":"cebpf4jnsgd1na2vs0mg"},{"bike_id":"76a83fca-07b3-4480-b79f-2a0c07dba84f","system_id":"levelo_inurba_marseille","lat":43.28413,"lon":5.34991,"is_reserved":false,"is_disabled":false,"rental_uris":{"android":"levelo://app?vid=76a83fca-07b3-4480-b79f-2a0c07dba84f","ios":"levelo://app?vid=76a83fca-07b3-4480-b79f-2a0c07dba84f"},"vehicle_type_id":"4","last_reported":1750180219,"current_range_meters":10800,"station_id":"ce4bhbh2rcd13ifvqepg","pricing_plan_id":"cebpf4jnsgd1na2vs0mg"},{"bike_id":"21984358-84ad-4d26-b470-14777c1a6829","system_id":"levelo_inurba_marseille","lat":43.284,"lon":5.34983,"is_reserved":false,"is_disabled":false,"rental_uris":{"android":"levelo://app?vid=21984358-84ad-4d26-b470-14777c1a6829","ios":"levelo://app?vid=21984358-84ad-4d26-b470-14777c1a6829"},"vehicle_type_id":"4","last_reported":1750180219,"current_range_meters":10800,"station_id":"ce4bhbh2rcd13ifvqepg","pricing_plan_id":"cebpf4jnsgd1na2vs0mg"},{"bike_id":"035c6e67-564a-48c1-8397-a55bbbc101f0","system_id":"levelo_inurba_marseille","lat":43.24547,"lon":5.39521,"is_reserved":false,"is_disabled":false,"rental_uris":{"android":"levelo://app?vid=035c6e67-564a-48c1-8397-a55bbbc101f0","ios":"levelo://app?vid=035c6e67-564a-48c1-8397-a55bbbc101f0"},"vehicle_type_id":"4","last_reported":1750180219,"current_range_meters":10800,"station_id":"ce4bhlp2rcd13ifvqgjg","pricing_plan_id":"cebpf4jnsgd1na2vs0mg"},{"bike_id":"99cad508-6ecc-4a68-9c2f-388d966e9df1","system_id":"levelo_inurba_marseille","lat":43.30732,"lon":5.42438,"is_reserved":false,"is_disabled":false,"rental_uris":{"android":"levelo://app?vid=99cad508-6ecc-4a68-9c2f-388d966e9df1","ios":"levelo://app?vid=99cad508-6ecc-4a68-9c2f-388d966e9df1"},"vehicle_type_id":"4","last_reported":1750180219,"current_range_meters":10800,"station_id":"st_cvj6ca6bvosntc0bfgr0","pricing_plan_id":"cebpf4jnsgd1na2vs0mg"},{"bike_id":"704614bd-2483-47f2-9c39-8f9ef1fa9ec5","system_id":"levelo_inurba_marseille","lat":43.2439,"lon":5.37061,"is_reserved":false,"is_disabled":false,"rental_uris":{"android":"levelo://app?vid=704614bd-2483-47f2-9c39-8f9ef1fa9ec5","ios":"levelo://app?vid=704614bd-2483-47f2-9c39-8f9ef1fa9ec5"},"vehicle_type_id":"4","last_reported":1750180219,"current_range_meters":11200,"station_id":"ce4bhhh2rcd13ifvqfk0","pricing_plan_id":"cebpf4jnsgd1na2vs0mg"},{"bike_id":"b3ff5d11-c301-453d-b224-58ca5aaf0a02","system_id":"levelo_inurba_marseille","lat":43.24179,"lon":5.39731,"is_reserved":false,"is_disabled":false,"rental_uris":{"android":"levelo://app?vid=b3ff5d11-c301-453d-b224-58ca5aaf0a02","ios":"levelo://app?vid=b3ff5d11-c301-453d-b224-58ca5aaf0a02"},"vehicle_type_id":"4","last_reported":1750180219,"current_range_meters":11200,"station_id":"ce4bhn12rcd13ifvqgpg","pricing_plan_id":"cebpf4jnsgd1na2vs0mg"},{"bike_id":"1e373418-986e-4d3c-9ff7-c37dd7c7a214","system_id":"levelo_inurba_marseille","lat":43.2991,"lon":5.43679,"is_reserved":false,"is_disabled":false,"rental_uris":{"android":"levelo://app?vid=1e373418-986e-4d3c-9ff7-c37dd7c7a214","ios":"levelo://app?vid=1e373418-986e-4d3c-9ff7-c37dd7c7a214"},"vehicle_type_id":"4","last_reported":1750180219,"current_range_meters":11200,"station_id":"ce4bhpp2rcd13ifvqhfg","pricing_plan_id":"cebpf4jnsgd1na2vs0mg"},{"bike_id":"0e27dafc-21df-4fb1-bd36-2450a7866702","system_id":"levelo_inurba_marseille","lat":43.2716,"lon":5.400001,"is_reserved":false,"is_disabled":false,"rental_uris":{"android":"levelo://app?vid=0e27dafc-21df-4fb1-bd36-2450a7866702","ios":"levelo://app?vid=0e27dafc-21df-4fb1-bd36-2450a7866702"},"vehicle_type_id":"4","last_reported":1750180219,"current_range_meters":11600,"station_id":"","pricing_plan_id":"cebpf4jnsgd1na2vs0mg"},{"bike_id":"51400062-8e94-4d69-9e22-9c782f92cf9c","system_id":"levelo_inurba_marseille","lat":43.25289,"lon":5.3945,"is_reserved":false,"is_disabled":false,"rental_uris":{"android":"levelo://app?vid=51400062-8e94-4d69-9e22-9c782f92cf9c","ios":"levelo://app?vid=51400062-8e94-4d69-9e22-9c782f92cf9c"},"vehicle_type_id":"4","last_reported":1750180219,"current_range_meters":11600,"station_id":"","pricing_plan_id":"cebpf4jnsgd1na2vs0mg"},{"bike_id":"3d0af0da-6733-4f1b-a866-6acd8352e9eb","system_id":"levelo_inurba_marseille","lat":43.28567,"lon":5.39497,"is_reserved":false,"is_disabled":false,"rental_uris":{"android":"levelo://app?vid=3d0af0da-6733-4f1b-a866-6acd8352e9eb","ios":"levelo://app?vid=3d0af0da-6733-4f1b-a866-6acd8352e9eb"},"vehicle_type_id":"4","last_reported":1750180219,"current_range_meters":11600,"station_id":"ce4bh292rcd13ifvqdg0","pricing_plan_id":"cebpf4jnsgd1na2vs0mg"},{"bike_id":"a053ae33-a700-48ac-bed2-527018c087df","system_id":"levelo_inurba_marseille","lat":43.29268,"lon":5.38436,"is_reserved":false,"is_disabled":false,"rental_uris":{"android":"levelo://app?vid=a053ae33-a700-48ac-bed2-527018c087df","ios":"levelo://app?vid=a053ae33-a700-48ac-bed2-527018c087df"},"vehicle_type_id":"4","last_reported":1750180219,"current_range_meters":11600,"station_id":"ce4bh692rcd13ifvqea0","pricing_plan_id":"cebpf4jnsgd1na2vs0mg"},{"bike_id":"ea226b36-edba-4537-b4bc-58bd3cfc161c","system_id":"levelo_inurba_marseille","lat":43.241477,"lon":5.363923,"is_reserved":false,"is_disabled":false,"rental_uris":{"android":"levelo://app?vid=ea226b36-edba-4537-b4bc-58bd3cfc161c","ios":"levelo://app?vid=ea226b36-edba-4537-b4bc-58bd3cfc161c"},"vehicle_type_id":"4","last_reported":1750180219,"current_range_meters":11600,"station_id":"cpo36qri1sfpv3e86is0","pricing_plan_id":"cebpf4jnsgd1na2vs0mg"},{"bike_id":"8ca0868d-bd81-4dab-baba-25ffb0391ee9","system_id":"levelo_inurba_marseille","lat":43.28405,"lon":5.3499,"is_reserved":false,"is_disabled":false,"rental_uris":{"android":"levelo://app?vid=8ca0868d-bd81-4dab-baba-25ffb0391ee9","ios":"levelo://app?vid=8ca0868d-bd81-4dab-baba-25ffb0391ee9"},"vehicle_type_id":"4","last_reported":1750180219,"current_range_meters":12000,"station_id":"ce4bhbh2rcd13ifvqepg","pricing_plan_id":"cebpf4jnsgd1na2vs0mg"},{"bike_id":"cd9782e1-7881-48a2-9567-4307df941594","system_id":"levelo_inurba_marseille","lat":43.292786,"lon":5.368476,"is_reserved":false,"is_disabled":false,"rental_uris":{"android":"levelo://app?vid=cd9782e1-7881-48a2-9567-4307df941594","ios":"levelo://app?vid=cd9782e1-7881-48a2-9567-4307df941594"},"vehicle_type_id":"4","last_reported":1750180219,"current_range_meters":12000,"station_id":"ce4bhbp2rcd13ifvqesg","pricing_plan_id":"cebpf4jnsgd1na2vs0mg"},{"bike_id":"a53319d8-32f6-4e4a-893a-06307fc2ef49","system_id":"levelo_inurba_marseille","lat":43.30417,"lon":5.41279,"is_reserved":false,"is_disabled":false,"rental_uris":{"android":"levelo://app?vid=a53319d8-32f6-4e4a-893a-06307fc2ef49","ios":"levelo://app?vid=a53319d8-32f6-4e4a-893a-06307fc2ef49"},"vehicle_type_id":"4","last_reported":1750180219,"current_range_meters":12000,"station_id":"ce4bhop2rcd13ifvqh8g","pricing_plan_id":"cebpf4jnsgd1na2vs0mg"},{"bike_id":"eca25bd6-1b44-4388-a7b0-074a85a4f502","system_id":"levelo_inurba_marseille","lat":43.31104,"lon":5.39739,"is_reserved":false,"is_disabled":false,"rental_uris":{"android":"levelo://app?vid=eca25bd6-1b44-4388-a7b0-074a85a4f502","ios":"levelo://app?vid=eca25bd6-1b44-4388-a7b0-074a85a4f502"},"vehicle_type_id":"4","last_reported":1750180219,"current_range_meters":12400,"station_id":"","pricing_plan_id":"cebpf4jnsgd1na2vs0mg"},{"bike_id":"0a729932-711b-4919-8b2d-451f1ceb93fd","system_id":"levelo_inurba_marseille","lat":43.28458,"lon":5.35894,"is_reserved":false,"is_disabled":false,"rental_uris":{"android":"levelo://app?vid=0a729932-711b-4919-8b2d-451f1ceb93fd","ios":"levelo://app?vid=0a729932-711b-4919-8b2d-451f1ceb93fd"},"vehicle_type_id":"4","last_reported":1750180219,"current_range_meters":12400,"station_id":"ce4bhah2rcd13ifvqei0","pricing_plan_id":"cebpf4jnsgd1na2vs0mg"},{"bike_id":"ff8ddf05-50a8-48c1-9d3f-0ff7a07e81fc","system_id":"levelo_inurba_marseille","lat":43.292011,"lon":5.358023,"is_reserved":false,"is_disabled":false,"rental_uris":{"android":"levelo://app?vid=ff8ddf05-50a8-48c1-9d3f-0ff7a07e81fc","ios":"levelo://app?vid=ff8ddf05-50a8-48c1-9d3f-0ff7a07e81fc"},"vehicle_type_id":"4","last_reported":1750180219,"current_range_meters":12400,"station_id":"ce4bhb12rcd13ifvqel0","pricing_plan_id":"cebpf4jnsgd1na2vs0mg"},{"bike_id":"09de8cea-135d-41a5-9f67-7ed4f01cade7","system_id":"levelo_inurba_marseille","lat":43.28274,"lon":5.35071,"is_reserved":false,"is_disabled":false,"rental_uris":{"android":"levelo://app?vid=09de8cea-135d-41a5-9f67-7ed4f01cade7","ios":"levelo://app?vid=09de8cea-135d-41a5-9f67-7ed4f01cade7"},"vehicle_type_id":"4","last_reported":1750180219,"current_range_meters":12400,"station_id":"ce4bhbp2rcd13ifvqerg","pricing_plan_id":"cebpf4jnsgd1na2vs0mg"},{"bike_id":"aa1a59e7-218a-4356-a4d4-ae8af02eb6dc","system_id":"levelo_inurba_marseille","lat":43.24082,"lon":5.37757,"is_reserved":false,"is_disabled":false,"rental_uris":{"android":"levelo://app?vid=aa1a59e7-218a-4356-a4d4-ae8af02eb6dc","ios":"levelo://app?vid=aa1a59e7-218a-4356-a4d4-ae8af02eb6dc"},"vehicle_type_id":"4","last_reported":1750180219,"current_range_meters":12400,"station_id":"ce4bhnp2rcd13ifvqgvg","pricing_plan_id":"cebpf4jnsgd1na2vs0mg"},{"bike_id":"315bbc47-4556-4f02-a764-e5a1ab009748","system_id":"levelo_inurba_marseille","lat":43.29556,"lon":5.42293,"is_reserved":false,"is_disabled":false,"rental_uris":{"android":"levelo://app?vid=315bbc47-4556-4f02-a764-e5a1ab009748","ios":"levelo://app?vid=315bbc47-4556-4f02-a764-e5a1ab009748"},"vehicle_type_id":"4","last_reported":1750180219,"current_range_meters":12400,"station_id":"ce4bhph2rcd13ifvqhdg","pricing_plan_id":"cebpf4jnsgd1na2vs0mg"},{"bike_id":"ccc7e69b-8ecc-4477-8f6e-2267dff3a231","system_id":"levelo_inurba_marseille","lat":43.32051,"lon":5.41541,"is_reserved":false,"is_disabled":false,"rental_uris":{"android":"levelo://app?vid=ccc7e69b-8ecc-4477-8f6e-2267dff3a231","ios":"levelo://app?vid=ccc7e69b-8ecc-4477-8f6e-2267dff3a231"},"vehicle_type_id":"4","last_reported":1750180219,"current_range_meters":12400,"station_id":"ce4bhq92rcd13ifvqhkg","pricing_plan_id":"cebpf4jnsgd1na2vs0mg"},{"bike_id":"94556628-72cd-4618-b5b6-25b5cfa4141b","system_id":"levelo_inurba_marseille","lat":43.21209,"lon":5.35122,"is_reserved":false,"is_disabled":false,"rental_uris":{"android":"levelo://app?vid=94556628-72cd-4618-b5b6-25b5cfa4141b","ios":"levelo://app?vid=94556628-72cd-4618-b5b6-25b5cfa4141b"},"vehicle_type_id":"4","last_reported":1750180219,"current_range_meters":12400,"station_id":"st_cvj6sg6p6f1abm77japg","pricing_plan_id":"cebpf4jnsgd1na2vs0mg"},{"bike_id":"cef0c399-5fa5-4965-a38e-894e987e8614","system_id":"levelo_inurba_marseille","lat":43.2841,"lon":5.34996,"is_reserved":false,"is_disabled":false,"rental_uris":{"android":"levelo://app?vid=cef0c399-5fa5-4965-a38e-894e987e8614","ios":"levelo://app?vid=cef0c399-5fa5-4965-a38e-894e987e8614"},"vehicle_type_id":"4","last_reported":1750180219,"current_range_meters":12800,"station_id":"ce4bhbh2rcd13ifvqepg","pricing_plan_id":"cebpf4jnsgd1na2vs0mg"},{"bike_id":"3e510fa8-f04c-48da-bb9a-ac8762f257c7","system_id":"levelo_inurba_marseille","lat":43.28408,"lon":5.34982,"is_reserved":false,"is_disabled":false,"rental_uris":{"android":"levelo://app?vid=3e510fa8-f04c-48da-bb9a-ac8762f257c7","ios":"levelo://app?vid=3e510fa8-f04c-48da-bb9a-ac8762f257c7"},"vehicle_type_id":"4","last_reported":1750180219,"current_range_meters":12800,"station_id":"ce4bhbh2rcd13ifvqepg","pricing_plan_id":"cebpf4jnsgd1na2vs0mg"},{"bike_id":"df796033-835f-46eb-8a65-dd475a2db135","system_id":"levelo_inurba_marseille","lat":43.29228,"lon":5.36072,"is_reserved":false,"is_disabled":false,"rental_uris":{"android":"levelo://app?vid=df796033-835f-46eb-8a65-dd475a2db135","ios":"levelo://app?vid=df796033-835f-46eb-8a65-dd475a2db135"},"vehicle_type_id":"4","last_reported":1750180219,"current_range_meters":12800,"station_id":"ce4bhbh2rcd13ifvqeqg","pricing_plan_id":"cebpf4jnsgd1na2vs0mg"},{"bike_id":"213b6ab9-c976-4318-9bfc-a588c76ef7c5","system_id":"levelo_inurba_marseille","lat":43.28256,"lon":5.35068,"is_reserved":false,"is_disabled":false,"rental_uris":{"android":"levelo://app?vid=213b6ab9-c976-4318-9bfc-a588c76ef7c5","ios":"levelo://app?vid=213b6ab9-c976-4318-9bfc-a588c76ef7c5"},"vehicle_type_id":"4","last_reported":1750180219,"current_range_meters":12800,"station_id":"ce4bhbp2rcd13ifvqerg","pricing_plan_id":"cebpf4jnsgd1na2vs0mg"},{"bike_id":"ecd8be3f-d23e-4647-ae0a-735b2f2cd3ae","system_id":"levelo_inurba_marseille","lat":43.2396,"lon":5.36631,"is_reserved":false,"is_disabled":false,"rental_uris":{"android":"levelo://app?vid=ecd8be3f-d23e-4647-ae0a-735b2f2cd3ae","ios":"levelo://app?vid=ecd8be3f-d23e-4647-ae0a-735b2f2cd3ae"},"vehicle_type_id":"4","last_reported":1750180219,"current_range_meters":12800,"station_id":"ce4bhi12rcd13ifvqfp0","pricing_plan_id":"cebpf4jnsgd1na2vs0mg"},{"bike_id":"7625bf91-3cbf-4e9a-81e8-fe88f4c9b88f","system_id":"levelo_inurba_marseille","lat":43.21192,"lon":5.35072,"is_reserved":false,"is_disabled":false,"rental_uris":{"android":"levelo://app?vid=7625bf91-3cbf-4e9a-81e8-fe88f4c9b88f","ios":"levelo://app?vid=7625bf91-3cbf-4e9a-81e8-fe88f4c9b88f"},"vehicle_type_id":"4","last_reported":1750180219,"current_range_meters":12800,"station_id":"st_cvj6sg6p6f1abm77japg","pricing_plan_id":"cebpf4jnsgd1na2vs0mg"},{"bike_id":"83cfee7d-980d-496a-98c8-745c7e44c68d","system_id":"levelo_inurba_marseille","lat":43.328884,"lon":5.390883,"is_reserved":false,"is_disabled":false,"rental_uris":{"android":"levelo://app?vid=83cfee7d-980d-496a-98c8-745c7e44c68d","ios":"levelo://app?vid=83cfee7d-980d-496a-98c8-745c7e44c68d"},"vehicle_type_id":"4","last_reported":1750180219,"current_range_meters":13600,"station_id":"","pricing_plan_id":"cebpf4jnsgd1na2vs0mg"},{"bike_id":"3f4e0178-c870-4352-b9be-0f434d5e0a9c","system_id":"levelo_inurba_marseille","lat":43.31725,"lon":5.37261,"is_reserved":false,"is_disabled":false,"rental_uris":{"android":"levelo://app?vid=3f4e0178-c870-4352-b9be-0f434d5e0a9c","ios":"levelo://app?vid=3f4e0178-c870-4352-b9be-0f434d5e0a9c"},"vehicle_type_id":"4","last_reported":1750180219,"current_range_meters":13600,"station_id":"","pricing_plan_id":"cebpf4jnsgd1na2vs0mg"},{"bike_id":"2cf75317-d426-4144-ad12-7eed3f5626dc","system_id":"levelo_inurba_marseille","lat":43.3091,"lon":5.36841,"is_reserved":false,"is_disabled":false,"rental_uris":{"android":"levelo://app?vid=2cf75317-d426-4144-ad12-7eed3f5626dc","ios":"levelo://app?vid=2cf75317-d426-4144-ad12-7eed3f5626dc"},"vehicle_type_id":"4","last_reported":1750180219,"current_range_meters":13600,"station_id":"ce4bgn92rcd13ifvqbvg","pricing_plan_id":"cebpf4jnsgd1na2vs0mg"},{"bike_id":"79ed0e36-e1ce-4bf4-ab8b-c09d91a633b7","system_id":"levelo_inurba_marseille","lat":43.28406,"lon":5.34986,"is_reserved":false,"is_disabled":false,"rental_uris":{"android":"levelo://app?vid=79ed0e36-e1ce-4bf4-ab8b-c09d91a633b7","ios":"levelo://app?vid=79ed0e36-e1ce-4bf4-ab8b-c09d91a633b7"},"vehicle_type_id":"4","last_reported":1750180219,"current_range_meters":13600,"station_id":"ce4bhbh2rcd13ifvqepg","pricing_plan_id":"cebpf4jnsgd1na2vs0mg"},{"bike_id":"2b83cd24-399d-4dbc-b076-07ef0d4db505","system_id":"levelo_inurba_marseille","lat":43.28264,"lon":5.3507,"is_reserved":false,"is_disabled":false,"rental_uris":{"android":"levelo://app?vid=2b83cd24-399d-4dbc-b076-07ef0d4db505","ios":"levelo://app?vid=2b83cd24-399d-4dbc-b076-07ef0d4db505"},"vehicle_type_id":"4","last_reported":1750180219,"current_range_meters":13600,"station_id":"ce4bhbp2rcd13ifvqerg","pricing_plan_id":"cebpf4jnsgd1na2vs0mg"},{"bike_id":"aff9e7a3-3782-4f02-98fa-8c2d8fb1deca","system_id":"levelo_inurba_marseille","lat":43.24797,"lon":5.37452,"is_reserved":false,"is_disabled":false,"rental_uris":{"android":"levelo://app?vid=aff9e7a3-3782-4f02-98fa-8c2d8fb1deca","ios":"levelo://app?vid=aff9e7a3-3782-4f02-98fa-8c2d8fb1deca"},"vehicle_type_id":"4","last_reported":1750180219,"current_range_meters":13600,"station_id":"ce4bhgh2rcd13ifvqfb0","pricing_plan_id":"cebpf4jnsgd1na2vs0mg"},{"bike_id":"967f6192-68b8-4aec-a674-d7b9b14e6279","system_id":"levelo_inurba_marseille","lat":43.25118,"lon":5.40318,"is_reserved":false,"is_disabled":false,"rental_uris":{"android":"levelo://app?vid=967f6192-68b8-4aec-a674-d7b9b14e6279","ios":"levelo://app?vid=967f6192-68b8-4aec-a674-d7b9b14e6279"},"vehicle_type_id":"4","last_reported":1750180219,"current_range_meters":13600,"station_id":"ce4bhlh2rcd13ifvqgig","pricing_plan_id":"cebpf4jnsgd1na2vs0mg"},{"bike_id":"148e1d9a-c4f6-460a-9b65-f2e59da03e8e","system_id":"levelo_inurba_marseille","lat":43.278113,"lon":5.40717,"is_reserved":false,"is_disabled":false,"rental_uris":{"android":"levelo://app?vid=148e1d9a-c4f6-460a-9b65-f2e59da03e8e","ios":"levelo://app?vid=148e1d9a-c4f6-460a-9b65-f2e59da03e8e"},"vehicle_type_id":"4","last_reported":1750180219,"current_range_meters":13600,"station_id":"ce4bhnh2rcd13ifvqgtg","pricing_plan_id":"cebpf4jnsgd1na2vs0mg"},{"bike_id":"65b3430b-0007-48b0-9c3e-d6527611cc91","system_id":"levelo_inurba_marseille","lat":43.28931,"lon":5.3664,"is_reserved":false,"is_disabled":false,"rental_uris":{"android":"levelo://app?vid=65b3430b-0007-48b0-9c3e-d6527611cc91","ios":"levelo://app?vid=65b3430b-0007-48b0-9c3e-d6527611cc91"},"vehicle_type_id":"4","last_reported":1750180219,"current_range_meters":14000,"station_id":"ce4bhap2rcd13ifvqek0","pricing_plan_id":"cebpf4jnsgd1na2vs0mg"},{"bike_id":"6242470a-8ddf-4a3e-ae30-95cc065d1413","system_id":"levelo_inurba_marseille","lat":43.28416,"lon":5.3498,"is_reserved":false,"is_disabled":false,"rental_uris":{"android":"levelo://app?vid=6242470a-8ddf-4a3e-ae30-95cc065d1413","ios":"levelo://app?vid=6242470a-8ddf-4a3e-ae30-95cc065d1413"},"vehicle_type_id":"4","last_reported":1750180219,"current_range_meters":14000,"station_id":"ce4bhbh2rcd13ifvqepg","pricing_plan_id":"cebpf4jnsgd1na2vs0mg"},{"bike_id":"93dcba2d-d386-44f6-ad85-b9e6cf410e58","system_id":"levelo_inurba_marseille","lat":43.28403,"lon":5.3499,"is_reserved":false,"is_disabled":false,"rental_uris":{"android":"levelo://app?vid=93dcba2d-d386-44f6-ad85-b9e6cf410e58","ios":"levelo://app?vid=93dcba2d-d386-44f6-ad85-b9e6cf410e58"},"vehicle_type_id":"4","last_reported":1750180219,"current_range_meters":14000,"station_id":"ce4bhbh2rcd13ifvqepg","pricing_plan_id":"cebpf4jnsgd1na2vs0mg"},{"bike_id":"952cccd3-dc05-4deb-b6b1-1ab020910064","system_id":"levelo_inurba_marseille","lat":43.291913,"lon":5.357987,"is_reserved":false,"is_disabled":false,"rental_uris":{"android":"levelo://app?vid=952cccd3-dc05-4deb-b6b1-1ab020910064","ios":"levelo://app?vid=952cccd3-dc05-4deb-b6b1-1ab020910064"},"vehicle_type_id":"4","last_reported":1750180219,"current_range_meters":14400,"station_id":"ce4bhb12rcd13ifvqel0","pricing_plan_id":"cebpf4jnsgd1na2vs0mg"},{"bike_id":"25365994-fe75-402a-99f3-a77399d139d7","system_id":"levelo_inurba_marseille","lat":43.25584,"lon":5.38229,"is_reserved":false,"is_disabled":false,"rental_uris":{"android":"levelo://app?vid=25365994-fe75-402a-99f3-a77399d139d7","ios":"levelo://app?vid=25365994-fe75-402a-99f3-a77399d139d7"},"vehicle_type_id":"4","last_reported":1750180219,"current_range_meters":14400,"station_id":"ce4bhih2rcd13ifvqfs0","pricing_plan_id":"cebpf4jnsgd1na2vs0mg"},{"bike_id":"2090556a-ebe6-4fcd-b60b-df67d7c8e4f7","system_id":"levelo_inurba_marseille","lat":43.299029,"lon":5.436673,"is_reserved":false,"is_disabled":false,"rental_uris":{"android":"levelo://app?vid=2090556a-ebe6-4fcd-b60b-df67d7c8e4f7","ios":"levelo://app?vid=2090556a-ebe6-4fcd-b60b-df67d7c8e4f7"},"vehicle_type_id":"4","last_reported":1750180219,"current_range_meters":14400,"station_id":"ce4bhpp2rcd13ifvqhfg","pricing_plan_id":"cebpf4jnsgd1na2vs0mg"},{"bike_id":"57df1029-d941-4611-b79f-8a7462cfcdbf","system_id":"levelo_inurba_marseille","lat":43.239798,"lon":5.362927,"is_reserved":false,"is_disabled":false,"rental_uris":{"android":"levelo://app?vid=57df1029-d941-4611-b79f-8a7462cfcdbf","ios":"levelo://app?vid=57df1029-d941-4611-b79f-8a7462cfcdbf"},"vehicle_type_id":"4","last_reported":1750180219,"current_range_meters":14400,"station_id":"ce4bhu92rcd13ifvqi70","pricing_plan_id":"cebpf4jnsgd1na2vs0mg"},{"bike_id":"c344e604-aeee-4c3f-9e96-07ddc681f34f","system_id":"levelo_inurba_marseille","lat":43.30432,"lon":5.3975,"is_reserved":false,"is_disabled":false,"rental_uris":{"android":"levelo://app?vid=c344e604-aeee-4c3f-9e96-07ddc681f34f","ios":"levelo://app?vid=c344e604-aeee-4c3f-9e96-07ddc681f34f"},"vehicle_type_id":"4","last_reported":1750180219,"current_range_meters":14800,"station_id":"ce4bh092rcd13ifvqd20","pricing_plan_id":"cebpf4jnsgd1na2vs0mg"},{"bike_id":"6c2f7b30-5ca6-4bae-851f-63c297a86db1","system_id":"levelo_inurba_marseille","lat":43.23198,"lon":5.35541,"is_reserved":false,"is_disabled":false,"rental_uris":{"android":"levelo://app?vid=6c2f7b30-5ca6-4bae-851f-63c297a86db1","ios":"levelo://app?vid=6c2f7b30-5ca6-4bae-851f-63c297a86db1"},"vehicle_type_id":"4","last_reported":1750180219,"current_range_meters":14800,"station_id":"ce4bhu92rcd13ifvqi70","pricing_plan_id":"cebpf4jnsgd1na2vs0mg"},{"bike_id":"68a77fb5-91eb-46be-8eb5-1112ae731eab","system_id":"levelo_inurba_marseille","lat":43.23198,"lon":5.35556,"is_reserved":false,"is_disabled":false,"rental_uris":{"android":"levelo://app?vid=68a77fb5-91eb-46be-8eb5-1112ae731eab","ios":"levelo://app?vid=68a77fb5-91eb-46be-8eb5-1112ae731eab"},"vehicle_type_id":"4","last_reported":1750180219,"current_range_meters":14800,"station_id":"ce4bhu92rcd13ifvqi70","pricing_plan_id":"cebpf4jnsgd1na2vs0mg"},{"bike_id":"f57b2ae0-d249-4718-b366-45d738aa9b20","system_id":"levelo_inurba_marseille","lat":43.30591,"lon":5.3936,"is_reserved":false,"is_disabled":false,"rental_uris":{"android":"levelo://app?vid=f57b2ae0-d249-4718-b366-45d738aa9b20","ios":"levelo://app?vid=f57b2ae0-d249-4718-b366-45d738aa9b20"},"vehicle_type_id":"4","last_reported":1750180219,"current_range_meters":15200,"station_id":"ce4bh0p2rcd13ifvqd80","pricing_plan_id":"cebpf4jnsgd1na2vs0mg"},{"bike_id":"888561d2-8c8a-44d2-baec-44f6dfecf4b8","system_id":"levelo_inurba_marseille","lat":43.28413,"lon":5.34991,"is_reserved":false,"is_disabled":false,"rental_uris":{"android":"levelo://app?vid=888561d2-8c8a-44d2-baec-44f6dfecf4b8","ios":"levelo://app?vid=888561d2-8c8a-44d2-baec-44f6dfecf4b8"},"vehicle_type_id":"4","last_reported":1750180219,"current_range_meters":15200,"station_id":"ce4bhbh2rcd13ifvqepg","pricing_plan_id":"cebpf4jnsgd1na2vs0mg"},{"bike_id":"64e86426-f8ba-479c-be39-bccf47940e3d","system_id":"levelo_inurba_marseille","lat":43.26215,"lon":5.374015,"is_reserved":false,"is_disabled":false,"rental_uris":{"android":"levelo://app?vid=64e86426-f8ba-479c-be39-bccf47940e3d","ios":"levelo://app?vid=64e86426-f8ba-479c-be39-bccf47940e3d"},"vehicle_type_id":"4","last_reported":1750180219,"current_range_meters":15200,"station_id":"ce4bhgp2rcd13ifvqfc0","pricing_plan_id":"cebpf4jnsgd1na2vs0mg"},{"bike_id":"3d9742ed-f1f3-42eb-9ebc-c69202b6c368","system_id":"levelo_inurba_marseille","lat":43.25002,"lon":5.38919,"is_reserved":false,"is_disabled":false,"rental_uris":{"android":"levelo://app?vid=3d9742ed-f1f3-42eb-9ebc-c69202b6c368","ios":"levelo://app?vid=3d9742ed-f1f3-42eb-9ebc-c69202b6c368"},"vehicle_type_id":"4","last_reported":1750180219,"current_range_meters":15200,"station_id":"ce4bhgp2rcd13ifvqfd0","pricing_plan_id":"cebpf4jnsgd1na2vs0mg"},{"bike_id":"cbf5ec9f-e33a-40b8-a59b-84d9e5b967a1","system_id":"levelo_inurba_marseille","lat":43.2306,"lon":5.3549,"is_reserved":false,"is_disabled":false,"rental_uris":{"android":"levelo://app?vid=cbf5ec9f-e33a-40b8-a59b-84d9e5b967a1","ios":"levelo://app?vid=cbf5ec9f-e33a-40b8-a59b-84d9e5b967a1"},"vehicle_type_id":"4","last_reported":1750180219,"current_range_meters":15200,"station_id":"cpo3342slgdg3j2ifvpg","pricing_plan_id":"cebpf4jnsgd1na2vs0mg"},{"bike_id":"b19fa68d-a8ee-4922-9e6f-0673f7a1de33","system_id":"levelo_inurba_marseille","lat":43.22931,"lon":5.35378,"is_reserved":false,"is_disabled":false,"rental_uris":{"android":"levelo://app?vid=b19fa68d-a8ee-4922-9e6f-0673f7a1de33","ios":"levelo://app?vid=b19fa68d-a8ee-4922-9e6f-0673f7a1de33"},"vehicle_type_id":"4","last_reported":1750180219,"current_range_meters":15200,"station_id":"cpo3532slgdg3j2ikp40","pricing_plan_id":"cebpf4jnsgd1na2vs0mg"},{"bike_id":"de0f7c2b-5974-4035-a240-8ed367c0e3f3","system_id":"levelo_inurba_marseille","lat":43.31976,"lon":5.37613,"is_reserved":false,"is_disabled":false,"rental_uris":{"android":"levelo://app?vid=de0f7c2b-5974-4035-a240-8ed367c0e3f3","ios":"levelo://app?vid=de0f7c2b-5974-4035-a240-8ed367c0e3f3"},"vehicle_type_id":"4","last_reported":1750180219,"current_range_meters":16000,"station_id":"","pricing_plan_id":"cebpf4jnsgd1na2vs0mg"},{"bike_id":"ea9465c6-c9a1-4c97-ba77-3c7ca16ee8ca","system_id":"levelo_inurba_marseille","lat":43.29526,"lon":5.38546,"is_reserved":false,"is_disabled":false,"rental_uris":{"android":"levelo://app?vid=ea9465c6-c9a1-4c97-ba77-3c7ca16ee8ca","ios":"levelo://app?vid=ea9465c6-c9a1-4c97-ba77-3c7ca16ee8ca"},"vehicle_type_id":"4","last_reported":1750180219,"current_range_meters":16000,"station_id":"ce4bgih2rcd13ifvqba0","pricing_plan_id":"cebpf4jnsgd1na2vs0mg"},{"bike_id":"c9802d63-7523-49f2-9859-723b2472e998","system_id":"levelo_inurba_marseille","lat":43.30919,"lon":5.40148,"is_reserved":false,"is_disabled":false,"rental_uris":{"android":"levelo://app?vid=c9802d63-7523-49f2-9859-723b2472e998","ios":"levelo://app?vid=c9802d63-7523-49f2-9859-723b2472e998"},"vehicle_type_id":"4","last_reported":1750180219,"current_range_meters":16000,"station_id":"ce4bgvp2rcd13ifvqct0","pricing_plan_id":"cebpf4jnsgd1na2vs0mg"},{"bike_id":"d585f3c1-07ec-464f-8529-635f25e4b0f4","system_id":"levelo_inurba_marseille","lat":43.27368,"lon":5.36257,"is_reserved":false,"is_disabled":false,"rental_uris":{"android":"levelo://app?vid=d585f3c1-07ec-464f-8529-635f25e4b0f4","ios":"levelo://app?vid=d585f3c1-07ec-464f-8529-635f25e4b0f4"},"vehicle_type_id":"4","last_reported":1750180219,"current_range_meters":16000,"station_id":"ce4bhbh2rcd13ifvqeo0","pricing_plan_id":"cebpf4jnsgd1na2vs0mg"},{"bike_id":"c13d2109-b7dd-4901-85e1-95e5a90f7920","system_id":"levelo_inurba_marseille","lat":43.28403,"lon":5.34987,"is_reserved":false,"is_disabled":false,"rental_uris":{"android":"levelo://app?vid=c13d2109-b7dd-4901-85e1-95e5a90f7920","ios":"levelo://app?vid=c13d2109-b7dd-4901-85e1-95e5a90f7920"},"vehicle_type_id":"4","last_reported":1750180219,"current_range_meters":16000,"station_id":"ce4bhbh2rcd13ifvqepg","pricing_plan_id":"cebpf4jnsgd1na2vs0mg"},{"bike_id":"1dca189b-e58d-407e-91a0-5d0b482c7bd9","system_id":"levelo_inurba_marseille","lat":43.28267,"lon":5.35085,"is_reserved":false,"is_disabled":false,"rental_uris":{"android":"levelo://app?vid=1dca189b-e58d-407e-91a0-5d0b482c7bd9","ios":"levelo://app?vid=1dca189b-e58d-407e-91a0-5d0b482c7bd9"},"vehicle_type_id":"4","last_reported":1750180219,"current_range_meters":16000,"station_id":"ce4bhbp2rcd13ifvqerg","pricing_plan_id":"cebpf4jnsgd1na2vs0mg"},{"bike_id":"f3c93373-9981-4743-99f3-bf8f02d8c2e1","system_id":"levelo_inurba_marseille","lat":43.23198,"lon":5.35545,"is_reserved":false,"is_disabled":false,"rental_uris":{"android":"levelo://app?vid=f3c93373-9981-4743-99f3-bf8f02d8c2e1","ios":"levelo://app?vid=f3c93373-9981-4743-99f3-bf8f02d8c2e1"},"vehicle_type_id":"4","last_reported":1750180219,"current_range_meters":16000,"station_id":"ce4bhu92rcd13ifvqi70","pricing_plan_id":"cebpf4jnsgd1na2vs0mg"},{"bike_id":"3518210a-6d90-482f-a11b-11cb7c94acd1","system_id":"levelo_inurba_marseille","lat":43.264761,"lon":5.391903,"is_reserved":false,"is_disabled":false,"rental_uris":{"android":"levelo://app?vid=3518210a-6d90-482f-a11b-11cb7c94acd1","ios":"levelo://app?vid=3518210a-6d90-482f-a11b-11cb7c94acd1"},"vehicle_type_id":"4","last_reported":1750180219,"current_range_meters":16400,"station_id":"","pricing_plan_id":"cebpf4jnsgd1na2vs0mg"},{"bike_id":"910aa740-ff3e-4919-84ef-b9de3b113250","system_id":"levelo_inurba_marseille","lat":43.292598,"lon":5.408701,"is_reserved":false,"is_disabled":false,"rental_uris":{"android":"levelo://app?vid=910aa740-ff3e-4919-84ef-b9de3b113250","ios":"levelo://app?vid=910aa740-ff3e-4919-84ef-b9de3b113250"},"vehicle_type_id":"4","last_reported":1750180219,"current_range_meters":16400,"station_id":"ce4bh192rcd13ifvqdc0","pricing_plan_id":"cebpf4jnsgd1na2vs0mg"},{"bike_id":"3e3e010e-8154-487f-b267-ec6ac92b9a0b","system_id":"levelo_inurba_marseille","lat":43.28423,"lon":5.35002,"is_reserved":false,"is_disabled":false,"rental_uris":{"android":"levelo://app?vid=3e3e010e-8154-487f-b267-ec6ac92b9a0b","ios":"levelo://app?vid=3e3e010e-8154-487f-b267-ec6ac92b9a0b"},"vehicle_type_id":"4","last_reported":1750180219,"current_range_meters":16400,"station_id":"ce4bhbh2rcd13ifvqepg","pricing_plan_id":"cebpf4jnsgd1na2vs0mg"},{"bike_id":"2766c131-5287-4ec6-8f94-d41b3b5d9579","system_id":"levelo_inurba_marseille","lat":43.28407,"lon":5.3499,"is_reserved":false,"is_disabled":false,"rental_uris":{"android":"levelo://app?vid=2766c131-5287-4ec6-8f94-d41b3b5d9579","ios":"levelo://app?vid=2766c131-5287-4ec6-8f94-d41b3b5d9579"},"vehicle_type_id":"4","last_reported":1750180219,"current_range_meters":16400,"station_id":"ce4bhbh2rcd13ifvqepg","pricing_plan_id":"cebpf4jnsgd1na2vs0mg"},{"bike_id":"448ba436-6ff2-4bb3-979c-e95e14c74387","system_id":"levelo_inurba_marseille","lat":43.28268,"lon":5.35064,"is_reserved":false,"is_disabled":false,"rental_uris":{"android":"levelo://app?vid=448ba436-6ff2-4bb3-979c-e95e14c74387","ios":"levelo://app?vid=448ba436-6ff2-4bb3-979c-e95e14c74387"},"vehicle_type_id":"4","last_reported":1750180219,"current_range_meters":16400,"station_id":"ce4bhbp2rcd13ifvqerg","pricing_plan_id":"cebpf4jnsgd1na2vs0mg"},{"bike_id":"9dae8699-1512-4e8d-b49b-c78fbe4f2ae3","system_id":"levelo_inurba_marseille","lat":43.30804,"lon":5.43522,"is_reserved":false,"is_disabled":false,"rental_uris":{"android":"levelo://app?vid=9dae8699-1512-4e8d-b49b-c78fbe4f2ae3","ios":"levelo://app?vid=9dae8699-1512-4e8d-b49b-c78fbe4f2ae3"},"vehicle_type_id":"4","last_reported":1750180219,"current_range_meters":16400,"station_id":"ce4bhph2rcd13ifvqheg","pricing_plan_id":"cebpf4jnsgd1na2vs0mg"},{"bike_id":"52c0878f-ce63-4def-a848-e358b9318ad8","system_id":"levelo_inurba_marseille","lat":43.3073,"lon":5.42444,"is_reserved":false,"is_disabled":false,"rental_uris":{"android":"levelo://app?vid=52c0878f-ce63-4def-a848-e358b9318ad8","ios":"levelo://app?vid=52c0878f-ce63-4def-a848-e358b9318ad8"},"vehicle_type_id":"4","last_reported":1750180219,"current_range_meters":16400,"station_id":"st_cvj6ca6bvosntc0bfgr0","pricing_plan_id":"cebpf4jnsgd1na2vs0mg"},{"bike_id":"2f0f7865-53e4-4955-8eb9-1bb98bf95595","system_id":"levelo_inurba_marseille","lat":43.31763,"lon":5.37591,"is_reserved":false,"is_disabled":false,"rental_uris":{"android":"levelo://app?vid=2f0f7865-53e4-4955-8eb9-1bb98bf95595","ios":"levelo://app?vid=2f0f7865-53e4-4955-8eb9-1bb98bf95595"},"vehicle_type_id":"4","last_reported":1750180219,"current_range_meters":16800,"station_id":"","pricing_plan_id":"cebpf4jnsgd1na2vs0mg"},{"bike_id":"de0bda34-41a6-4231-8ed4-c93e07fc3176","system_id":"levelo_inurba_marseille","lat":43.32649,"lon":5.37499,"is_reserved":false,"is_disabled":false,"rental_uris":{"android":"levelo://app?vid=de0bda34-41a6-4231-8ed4-c93e07fc3176","ios":"levelo://app?vid=de0bda34-41a6-4231-8ed4-c93e07fc3176"},"vehicle_type_id":"4","last_reported":1750180219,"current_range_meters":16800,"station_id":"","pricing_plan_id":"cebpf4jnsgd1na2vs0mg"},{"bike_id":"16ccfcaa-3685-448b-8fdb-1627eef74037","system_id":"levelo_inurba_marseille","lat":43.27378,"lon":5.36262,"is_reserved":false,"is_disabled":false,"rental_uris":{"android":"levelo://app?vid=16ccfcaa-3685-448b-8fdb-1627eef74037","ios":"levelo://app?vid=16ccfcaa-3685-448b-8fdb-1627eef74037"},"vehicle_type_id":"4","last_reported":1750180219,"current_range_meters":16800,"station_id":"ce4bhbh2rcd13ifvqeo0","pricing_plan_id":"cebpf4jnsgd1na2vs0mg"},{"bike_id":"cf028ab6-4da3-4f54-991c-43fe70d5c00d","system_id":"levelo_inurba_marseille","lat":43.2862,"lon":5.35093,"is_reserved":false,"is_disabled":false,"rental_uris":{"android":"levelo://app?vid=cf028ab6-4da3-4f54-991c-43fe70d5c00d","ios":"levelo://app?vid=cf028ab6-4da3-4f54-991c-43fe70d5c00d"},"vehicle_type_id":"4","last_reported":1750180219,"current_range_meters":16800,"station_id":"ce4bhch2rcd13ifvqeug","pricing_plan_id":"cebpf4jnsgd1na2vs0mg"},{"bike_id":"b30516ab-1ed4-467b-9700-ada15a939813","system_id":"levelo_inurba_marseille","lat":43.23198,"lon":5.35565,"is_reserved":false,"is_disabled":false,"rental_uris":{"android":"levelo://app?vid=b30516ab-1ed4-467b-9700-ada15a939813","ios":"levelo://app?vid=b30516ab-1ed4-467b-9700-ada15a939813"},"vehicle_type_id":"4","last_reported":1750180219,"current_range_meters":16800,"station_id":"ce4bhu92rcd13ifvqi70","pricing_plan_id":"cebpf4jnsgd1na2vs0mg"},{"bike_id":"4ce5b165-f22d-40cf-abd3-1cb294861955","system_id":"levelo_inurba_marseille","lat":43.21202,"lon":5.35061,"is_reserved":false,"is_disabled":false,"rental_uris":{"android":"levelo://app?vid=4ce5b165-f22d-40cf-abd3-1cb294861955","ios":"levelo://app?vid=4ce5b165-f22d-40cf-abd3-1cb294861955"},"vehicle_type_id":"4","last_reported":1750180219,"current_range_meters":17200,"station_id":"","pricing_plan_id":"cebpf4jnsgd1na2vs0mg"},{"bike_id":"fbcbfd58-84fd-4285-bea2-48fbde343737","system_id":"levelo_inurba_marseille","lat":43.28932,"lon":5.36629,"is_reserved":false,"is_disabled":false,"rental_uris":{"android":"levelo://app?vid=fbcbfd58-84fd-4285-bea2-48fbde343737","ios":"levelo://app?vid=fbcbfd58-84fd-4285-bea2-48fbde343737"},"vehicle_type_id":"4","last_reported":1750180219,"current_range_meters":17200,"station_id":"ce4bhap2rcd13ifvqek0","pricing_plan_id":"cebpf4jnsgd1na2vs0mg"},{"bike_id":"f3f1aa67-ad53-4fb8-b7bb-2667316ab163","system_id":"levelo_inurba_marseille","lat":43.25002,"lon":5.389237,"is_reserved":false,"is_disabled":false,"rental_uris":{"android":"levelo://app?vid=f3f1aa67-ad53-4fb8-b7bb-2667316ab163","ios":"levelo://app?vid=f3f1aa67-ad53-4fb8-b7bb-2667316ab163"},"vehicle_type_id":"4","last_reported":1750180219,"current_range_meters":17200,"station_id":"ce4bhgp2rcd13ifvqfd0","pricing_plan_id":"cebpf4jnsgd1na2vs0mg"},{"bike_id":"3b6a0c42-69d4-4e3e-adce-b2b868a995ec","system_id":"levelo_inurba_marseille","lat":43.24391,"lon":5.37046,"is_reserved":false,"is_disabled":false,"rental_uris":{"android":"levelo://app?vid=3b6a0c42-69d4-4e3e-adce-b2b868a995ec","ios":"levelo://app?vid=3b6a0c42-69d4-4e3e-adce-b2b868a995ec"},"vehicle_type_id":"4","last_reported":1750180219,"current_range_meters":17200,"station_id":"ce4bhhh2rcd13ifvqfk0","pricing_plan_id":"cebpf4jnsgd1na2vs0mg"},{"bike_id":"cc8086c3-023b-4662-b7ba-91199240f1a1","system_id":"levelo_inurba_marseille","lat":43.23049,"lon":5.3549,"is_reserved":false,"is_disabled":false,"rental_uris":{"android":"levelo://app?vid=cc8086c3-023b-4662-b7ba-91199240f1a1","ios":"levelo://app?vid=cc8086c3-023b-4662-b7ba-91199240f1a1"},"vehicle_type_id":"4","last_reported":1750180219,"current_range_meters":17200,"station_id":"cpo3342slgdg3j2ifvpg","pricing_plan_id":"cebpf4jnsgd1na2vs0mg"},{"bike_id":"4cda9327-46c6-426e-87dd-c291d5dc5ff7","system_id":"levelo_inurba_marseille","lat":43.211983,"lon":5.350733,"is_reserved":false,"is_disabled":false,"rental_uris":{"android":"levelo://app?vid=4cda9327-46c6-426e-87dd-c291d5dc5ff7","ios":"levelo://app?vid=4cda9327-46c6-426e-87dd-c291d5dc5ff7"},"vehicle_type_id":"4","last_reported":1750180219,"current_range_meters":17200,"station_id":"st_cvj6sg6p6f1abm77japg","pricing_plan_id":"cebpf4jnsgd1na2vs0mg"},{"bike_id":"4b8da722-ee9e-48a4-a5e5-3a8a10364708","system_id":"levelo_inurba_marseille","lat":43.31247,"lon":5.3781,"is_reserved":false,"is_disabled":false,"rental_uris":{"android":"levelo://app?vid=4b8da722-ee9e-48a4-a5e5-3a8a10364708","ios":"levelo://app?vid=4b8da722-ee9e-48a4-a5e5-3a8a10364708"},"vehicle_type_id":"4","last_reported":1750180219,"current_range_meters":17600,"station_id":"","pricing_plan_id":"cebpf4jnsgd1na2vs0mg"},{"bike_id":"fd77899a-d28e-4726-ac7b-d7e7b6888d3c","system_id":"levelo_inurba_marseille","lat":43.27613,"lon":5.36128,"is_reserved":false,"is_disabled":false,"rental_uris":{"android":"levelo://app?vid=fd77899a-d28e-4726-ac7b-d7e7b6888d3c","ios":"levelo://app?vid=fd77899a-d28e-4726-ac7b-d7e7b6888d3c"},"vehicle_type_id":"4","last_reported":1750180219,"current_range_meters":17600,"station_id":"ce4bgj92rcd13ifvqbe0","pricing_plan_id":"cebpf4jnsgd1na2vs0mg"},{"bike_id":"20e5fd97-af51-480d-9161-e1aa0093825a","system_id":"levelo_inurba_marseille","lat":43.30429,"lon":5.38889,"is_reserved":false,"is_disabled":false,"rental_uris":{"android":"levelo://app?vid=20e5fd97-af51-480d-9161-e1aa0093825a","ios":"levelo://app?vid=20e5fd97-af51-480d-9161-e1aa0093825a"},"vehicle_type_id":"4","last_reported":1750180219,"current_range_meters":17600,"station_id":"ce4bgk12rcd13ifvqbi0","pricing_plan_id":"cebpf4jnsgd1na2vs0mg"},{"bike_id":"5c8a41ce-0a82-4d5c-8332-89a647003f7b","system_id":"levelo_inurba_marseille","lat":43.25002,"lon":5.38929,"is_reserved":false,"is_disabled":false,"rental_uris":{"android":"levelo://app?vid=5c8a41ce-0a82-4d5c-8332-89a647003f7b","ios":"levelo://app?vid=5c8a41ce-0a82-4d5c-8332-89a647003f7b"},"vehicle_type_id":"4","last_reported":1750180219,"current_range_meters":17600,"station_id":"ce4bhgp2rcd13ifvqfd0","pricing_plan_id":"cebpf4jnsgd1na2vs0mg"},{"bike_id":"5cbdd979-131e-4b0a-a5c9-96ef156802c9","system_id":"levelo_inurba_marseille","lat":43.28436,"lon":5.39209,"is_reserved":false,"is_disabled":false,"rental_uris":{"android":"levelo://app?vid=5cbdd979-131e-4b0a-a5c9-96ef156802c9","ios":"levelo://app?vid=5cbdd979-131e-4b0a-a5c9-96ef156802c9"},"vehicle_type_id":"4","last_reported":1750180219,"current_range_meters":17600,"station_id":"ce4bhoh2rcd13ifvqh5g","pricing_plan_id":"cebpf4jnsgd1na2vs0mg"},{"bike_id":"4c23cbf0-01ea-41ea-b605-7388c6436cec","system_id":"levelo_inurba_marseille","lat":43.31716,"lon":5.43711,"is_reserved":false,"is_disabled":false,"rental_uris":{"android":"levelo://app?vid=4c23cbf0-01ea-41ea-b605-7388c6436cec","ios":"levelo://app?vid=4c23cbf0-01ea-41ea-b605-7388c6436cec"},"vehicle_type_id":"4","last_reported":1750180219,"current_range_meters":17600,"station_id":"ce4bhp92rcd13ifvqhcg","pricing_plan_id":"cebpf4jnsgd1na2vs0mg"},{"bike_id":"653a05d9-205d-420f-b0c9-a638667f0917","system_id":"levelo_inurba_marseille","lat":43.212,"lon":5.3506,"is_reserved":false,"is_disabled":false,"rental_uris":{"android":"levelo://app?vid=653a05d9-205d-420f-b0c9-a638667f0917","ios":"levelo://app?vid=653a05d9-205d-420f-b0c9-a638667f0917"},"vehicle_type_id":"4","last_reported":1750180219,"current_range_meters":17600,"station_id":"st_cvj6sg6p6f1abm77japg","pricing_plan_id":"cebpf4jnsgd1na2vs0mg"},{"bike_id":"1a30f111-6901-4dc3-b64c-894d4aa3d30f","system_id":"levelo_inurba_marseille","lat":43.30927,"lon":5.4014,"is_reserved":false,"is_disabled":false,"rental_uris":{"android":"levelo://app?vid=1a30f111-6901-4dc3-b64c-894d4aa3d30f","ios":"levelo://app?vid=1a30f111-6901-4dc3-b64c-894d4aa3d30f"},"vehicle_type_id":"4","last_reported":1750180219,"current_range_meters":18000,"station_id":"ce4bgvp2rcd13ifvqct0","pricing_plan_id":"cebpf4jnsgd1na2vs0mg"},{"bike_id":"79f57bae-163b-4f90-9768-0a5a78aeca96","system_id":"levelo_inurba_marseille","lat":43.27373,"lon":5.36256,"is_reserved":false,"is_disabled":false,"rental_uris":{"android":"levelo://app?vid=79f57bae-163b-4f90-9768-0a5a78aeca96","ios":"levelo://app?vid=79f57bae-163b-4f90-9768-0a5a78aeca96"},"vehicle_type_id":"4","last_reported":1750180219,"current_range_meters":18000,"station_id":"ce4bhbh2rcd13ifvqeo0","pricing_plan_id":"cebpf4jnsgd1na2vs0mg"},{"bike_id":"c5184cdf-14b1-4582-8d2b-935b2fb06299","system_id":"levelo_inurba_marseille","lat":43.24387,"lon":5.37056,"is_reserved":false,"is_disabled":false,"rental_uris":{"android":"levelo://app?vid=c5184cdf-14b1-4582-8d2b-935b2fb06299","ios":"levelo://app?vid=c5184cdf-14b1-4582-8d2b-935b2fb06299"},"vehicle_type_id":"4","last_reported":1750180219,"current_range_meters":18000,"station_id":"ce4bhhh2rcd13ifvqfk0","pricing_plan_id":"cebpf4jnsgd1na2vs0mg"},{"bike_id":"353d311d-54a6-4151-a3bd-6f76a7c05120","system_id":"levelo_inurba_marseille","lat":43.27943,"lon":5.41044,"is_reserved":false,"is_disabled":false,"rental_uris":{"android":"levelo://app?vid=353d311d-54a6-4151-a3bd-6f76a7c05120","ios":"levelo://app?vid=353d311d-54a6-4151-a3bd-6f76a7c05120"},"vehicle_type_id":"4","last_reported":1750180219,"current_range_meters":18000,"station_id":"ce4bhnp2rcd13ifvqh0g","pricing_plan_id":"cebpf4jnsgd1na2vs0mg"},{"bike_id":"d0850648-11b0-4457-8fd7-555ac02afd10","system_id":"levelo_inurba_marseille","lat":43.31084,"lon":5.42424,"is_reserved":false,"is_disabled":false,"rental_uris":{"android":"levelo://app?vid=d0850648-11b0-4457-8fd7-555ac02afd10","ios":"levelo://app?vid=d0850648-11b0-4457-8fd7-555ac02afd10"},"vehicle_type_id":"4","last_reported":1750180219,"current_range_meters":18000,"station_id":"ce4bhp92rcd13ifvqhag","pricing_plan_id":"cebpf4jnsgd1na2vs0mg"},{"bike_id":"0a10b1dc-995e-4212-bb96-10f4404f171d","system_id":"levelo_inurba_marseille","lat":43.29559,"lon":5.42291,"is_reserved":false,"is_disabled":false,"rental_uris":{"android":"levelo://app?vid=0a10b1dc-995e-4212-bb96-10f4404f171d","ios":"levelo://app?vid=0a10b1dc-995e-4212-bb96-10f4404f171d"},"vehicle_type_id":"4","last_reported":1750180219,"current_range_meters":18000,"station_id":"ce4bhph2rcd13ifvqhdg","pricing_plan_id":"cebpf4jnsgd1na2vs0mg"},{"bike_id":"34011965-7337-4c76-bc6d-833dad6810be","system_id":"levelo_inurba_marseille","lat":43.26227,"lon":5.37461,"is_reserved":false,"is_disabled":false,"rental_uris":{"android":"levelo://app?vid=34011965-7337-4c76-bc6d-833dad6810be","ios":"levelo://app?vid=34011965-7337-4c76-bc6d-833dad6810be"},"vehicle_type_id":"4","last_reported":1750180219,"current_range_meters":18800,"station_id":"","pricing_plan_id":"cebpf4jnsgd1na2vs0mg"},{"bike_id":"69391ca7-3f01-4e51-a628-257cf9ff7306","system_id":"levelo_inurba_marseille","lat":43.33791,"lon":5.37416,"is_reserved":false,"is_disabled":false,"rental_uris":{"android":"levelo://app?vid=69391ca7-3f01-4e51-a628-257cf9ff7306","ios":"levelo://app?vid=69391ca7-3f01-4e51-a628-257cf9ff7306"},"vehicle_type_id":"4","last_reported":1750180219,"current_range_meters":18800,"station_id":"","pricing_plan_id":"cebpf4jnsgd1na2vs0mg"},{"bike_id":"268aafb4-1331-426c-97bc-a7d6564caeb6","system_id":"levelo_inurba_marseille","lat":43.32913,"lon":5.37925,"is_reserved":false,"is_disabled":false,"rental_uris":{"android":"levelo://app?vid=268aafb4-1331-426c-97bc-a7d6564caeb6","ios":"levelo://app?vid=268aafb4-1331-426c-97bc-a7d6564caeb6"},"vehicle_type_id":"4","last_reported":1750180219,"current_range_meters":18800,"station_id":"","pricing_plan_id":"cebpf4jnsgd1na2vs0mg"},{"bike_id":"3151b431-ae3a-411c-8189-09c45ab38d79","system_id":"levelo_inurba_marseille","lat":43.30859,"lon":5.37216,"is_reserved":false,"is_disabled":false,"rental_uris":{"android":"levelo://app?vid=3151b431-ae3a-411c-8189-09c45ab38d79","ios":"levelo://app?vid=3151b431-ae3a-411c-8189-09c45ab38d79"},"vehicle_type_id":"4","last_reported":1750180219,"current_range_meters":18800,"station_id":"","pricing_plan_id":"cebpf4jnsgd1na2vs0mg"},{"bike_id":"f88fd6c2-93d6-4a0c-9c1e-7dc24c7de53f","system_id":"levelo_inurba_marseille","lat":43.28844,"lon":5.35868,"is_reserved":false,"is_disabled":false,"rental_uris":{"android":"levelo://app?vid=f88fd6c2-93d6-4a0c-9c1e-7dc24c7de53f","ios":"levelo://app?vid=f88fd6c2-93d6-4a0c-9c1e-7dc24c7de53f"},"vehicle_type_id":"4","last_reported":1750180219,"current_range_meters":18800,"station_id":"ce4bhb12rcd13ifvqem0","pricing_plan_id":"cebpf4jnsgd1na2vs0mg"},{"bike_id":"37cc9a40-2862-4cb1-927e-ddfb05d61f93","system_id":"levelo_inurba_marseille","lat":43.29009,"lon":5.35615,"is_reserved":false,"is_disabled":false,"rental_uris":{"android":"levelo://app?vid=37cc9a40-2862-4cb1-927e-ddfb05d61f93","ios":"levelo://app?vid=37cc9a40-2862-4cb1-927e-ddfb05d61f93"},"vehicle_type_id":"4","last_reported":1750180219,"current_range_meters":18800,"station_id":"ce4bhb92rcd13ifvqen0","pricing_plan_id":"cebpf4jnsgd1na2vs0mg"},{"bike_id":"8b8e3452-c32b-408e-938b-44cc98f0f857","system_id":"levelo_inurba_marseille","lat":43.28425,"lon":5.34987,"is_reserved":false,"is_disabled":false,"rental_uris":{"android":"levelo://app?vid=8b8e3452-c32b-408e-938b-44cc98f0f857","ios":"levelo://app?vid=8b8e3452-c32b-408e-938b-44cc98f0f857"},"vehicle_type_id":"4","last_reported":1750180219,"current_range_meters":18800,"station_id":"ce4bhbh2rcd13ifvqepg","pricing_plan_id":"cebpf4jnsgd1na2vs0mg"},{"bike_id":"dc12feaf-c1b3-4f33-b967-35a3e51e53c9","system_id":"levelo_inurba_marseille","lat":43.28619,"lon":5.3511,"is_reserved":false,"is_disabled":false,"rental_uris":{"android":"levelo://app?vid=dc12feaf-c1b3-4f33-b967-35a3e51e53c9","ios":"levelo://app?vid=dc12feaf-c1b3-4f33-b967-35a3e51e53c9"},"vehicle_type_id":"4","last_reported":1750180219,"current_range_meters":18800,"station_id":"ce4bhch2rcd13ifvqeug","pricing_plan_id":"cebpf4jnsgd1na2vs0mg"},{"bike_id":"8f7ac6a7-f9c6-43ac-850d-1b9a98bf6334","system_id":"levelo_inurba_marseille","lat":43.25863,"lon":5.39898,"is_reserved":false,"is_disabled":false,"rental_uris":{"android":"levelo://app?vid=8f7ac6a7-f9c6-43ac-850d-1b9a98bf6334","ios":"levelo://app?vid=8f7ac6a7-f9c6-43ac-850d-1b9a98bf6334"},"vehicle_type_id":"4","last_reported":1750180219,"current_range_meters":18800,"station_id":"ce4bhl92rcd13ifvqghg","pricing_plan_id":"cebpf4jnsgd1na2vs0mg"},{"bike_id":"a6e0c645-b8fb-43cf-a604-072cc870798a","system_id":"levelo_inurba_marseille","lat":43.28417,"lon":5.3499,"is_reserved":false,"is_disabled":false,"rental_uris":{"android":"levelo://app?vid=a6e0c645-b8fb-43cf-a604-072cc870798a","ios":"levelo://app?vid=a6e0c645-b8fb-43cf-a604-072cc870798a"},"vehicle_type_id":"4","last_reported":1750180219,"current_range_meters":19200,"station_id":"ce4bhbh2rcd13ifvqepg","pricing_plan_id":"cebpf4jnsgd1na2vs0mg"},{"bike_id":"b242a622-7fab-40d3-ae44-a212db7990a5","system_id":"levelo_inurba_marseille","lat":43.27915,"lon":5.39594,"is_reserved":false,"is_disabled":false,"rental_uris":{"android":"levelo://app?vid=b242a622-7fab-40d3-ae44-a212db7990a5","ios":"levelo://app?vid=b242a622-7fab-40d3-ae44-a212db7990a5"},"vehicle_type_id":"4","last_reported":1750180219,"current_range_meters":19200,"station_id":"ce4bhf92rcd13ifvqf40","pricing_plan_id":"cebpf4jnsgd1na2vs0mg"},{"bike_id":"744cf4fa-bb14-4576-929f-2f6effc633c9","system_id":"levelo_inurba_marseille","lat":43.29552,"lon":5.42292,"is_reserved":false,"is_disabled":false,"rental_uris":{"android":"levelo://app?vid=744cf4fa-bb14-4576-929f-2f6effc633c9","ios":"levelo://app?vid=744cf4fa-bb14-4576-929f-2f6effc633c9"},"vehicle_type_id":"4","last_reported":1750180219,"current_range_meters":19200,"station_id":"ce4bhph2rcd13ifvqhdg","pricing_plan_id":"cebpf4jnsgd1na2vs0mg"},{"bike_id":"18789e4d-0ce8-4315-8db3-2231cbac458c","system_id":"levelo_inurba_marseille","lat":43.28725,"lon":5.36087,"is_reserved":false,"is_disabled":false,"rental_uris":{"android":"levelo://app?vid=18789e4d-0ce8-4315-8db3-2231cbac458c","ios":"levelo://app?vid=18789e4d-0ce8-4315-8db3-2231cbac458c"},"vehicle_type_id":"4","last_reported":1750180219,"current_range_meters":19200,"station_id":"cki0cbj6b192h4jlfktg","pricing_plan_id":"cebpf4jnsgd1na2vs0mg"},{"bike_id":"a44ba06e-c79f-4f7d-9250-76e665d28f4c","system_id":"levelo_inurba_marseille","lat":43.2417,"lon":5.36398,"is_reserved":false,"is_disabled":false,"rental_uris":{"android":"levelo://app?vid=a44ba06e-c79f-4f7d-9250-76e665d28f4c","ios":"levelo://app?vid=a44ba06e-c79f-4f7d-9250-76e665d28f4c"},"vehicle_type_id":"4","last_reported":1750180219,"current_range_meters":19200,"station_id":"cpo36qri1sfpv3e86is0","pricing_plan_id":"cebpf4jnsgd1na2vs0mg"},{"bike_id":"28701354-04db-4ccd-965d-529bbc82fcd5","system_id":"levelo_inurba_marseille","lat":43.211908,"lon":5.35074,"is_reserved":false,"is_disabled":false,"rental_uris":{"android":"levelo://app?vid=28701354-04db-4ccd-965d-529bbc82fcd5","ios":"levelo://app?vid=28701354-04db-4ccd-965d-529bbc82fcd5"},"vehicle_type_id":"4","last_reported":1750180219,"current_range_meters":19200,"station_id":"st_cvj6sg6p6f1abm77japg","pricing_plan_id":"cebpf4jnsgd1na2vs0mg"},{"bike_id":"7d323fe3-a48f-41da-8026-436298dd6903","system_id":"levelo_inurba_marseille","lat":43.28405,"lon":5.34982,"is_reserved":false,"is_disabled":false,"rental_uris":{"android":"levelo://app?vid=7d323fe3-a48f-41da-8026-436298dd6903","ios":"levelo://app?vid=7d323fe3-a48f-41da-8026-436298dd6903"},"vehicle_type_id":"4","last_reported":1750180219,"current_range_meters":19600,"station_id":"ce4bhbh2rcd13ifvqepg","pricing_plan_id":"cebpf4jnsgd1na2vs0mg"},{"bike_id":"e9e3edc1-2a82-4d3b-b0e3-ff0e74d0c24a","system_id":"levelo_inurba_marseille","lat":43.28611,"lon":5.35101,"is_reserved":false,"is_disabled":false,"rental_uris":{"android":"levelo://app?vid=e9e3edc1-2a82-4d3b-b0e3-ff0e74d0c24a","ios":"levelo://app?vid=e9e3edc1-2a82-4d3b-b0e3-ff0e74d0c24a"},"vehicle_type_id":"4","last_reported":1750180219,"current_range_meters":19600,"station_id":"ce4bhch2rcd13ifvqeug","pricing_plan_id":"cebpf4jnsgd1na2vs0mg"},{"bike_id":"481caa64-1d58-4728-87c9-a5edf6a3e9da","system_id":"levelo_inurba_marseille","lat":43.28614,"lon":5.35103,"is_reserved":false,"is_disabled":false,"rental_uris":{"android":"levelo://app?vid=481caa64-1d58-4728-87c9-a5edf6a3e9da","ios":"levelo://app?vid=481caa64-1d58-4728-87c9-a5edf6a3e9da"},"vehicle_type_id":"4","last_reported":1750180219,"current_range_meters":19600,"station_id":"ce4bhch2rcd13ifvqeug","pricing_plan_id":"cebpf4jnsgd1na2vs0mg"},{"bike_id":"fc8855d1-955f-47a4-a4bd-6ae269bdc647","system_id":"levelo_inurba_marseille","lat":43.24805,"lon":5.37455,"is_reserved":false,"is_disabled":false,"rental_uris":{"android":"levelo://app?vid=fc8855d1-955f-47a4-a4bd-6ae269bdc647","ios":"levelo://app?vid=fc8855d1-955f-47a4-a4bd-6ae269bdc647"},"vehicle_type_id":"4","last_reported":1750180219,"current_range_meters":19600,"station_id":"ce4bhgh2rcd13ifvqfb0","pricing_plan_id":"cebpf4jnsgd1na2vs0mg"},{"bike_id":"f6ea18f4-d77c-4843-ab66-bba6fb8a9a88","system_id":"levelo_inurba_marseille","lat":43.25119,"lon":5.40319,"is_reserved":false,"is_disabled":false,"rental_uris":{"android":"levelo://app?vid=f6ea18f4-d77c-4843-ab66-bba6fb8a9a88","ios":"levelo://app?vid=f6ea18f4-d77c-4843-ab66-bba6fb8a9a88"},"vehicle_type_id":"4","last_reported":1750180219,"current_range_meters":19600,"station_id":"ce4bhlh2rcd13ifvqgig","pricing_plan_id":"cebpf4jnsgd1na2vs0mg"},{"bike_id":"6b446eae-23b1-42c6-9375-1dfb12898b13","system_id":"levelo_inurba_marseille","lat":43.28151,"lon":5.42638,"is_reserved":false,"is_disabled":false,"rental_uris":{"android":"levelo://app?vid=6b446eae-23b1-42c6-9375-1dfb12898b13","ios":"levelo://app?vid=6b446eae-23b1-42c6-9375-1dfb12898b13"},"vehicle_type_id":"4","last_reported":1750180219,"current_range_meters":19600,"station_id":"ce4bhnh2rcd13ifvqgug","pricing_plan_id":"cebpf4jnsgd1na2vs0mg"},{"bike_id":"54cebbad-17db-4f40-8141-8eedac83be3f","system_id":"levelo_inurba_marseille","lat":43.33766,"lon":5.37424,"is_reserved":false,"is_disabled":false,"rental_uris":{"android":"levelo://app?vid=54cebbad-17db-4f40-8141-8eedac83be3f","ios":"levelo://app?vid=54cebbad-17db-4f40-8141-8eedac83be3f"},"vehicle_type_id":"4","last_reported":1750180219,"current_range_meters":20000,"station_id":"","pricing_plan_id":"cebpf4jnsgd1na2vs0mg"},{"bike_id":"8a4b48de-2cd9-4889-b961-876cf0282039","system_id":"levelo_inurba_marseille","lat":43.30609,"lon":5.37221,"is_reserved":false,"is_disabled":false,"rental_uris":{"android":"levelo://app?vid=8a4b48de-2cd9-4889-b961-876cf0282039","ios":"levelo://app?vid=8a4b48de-2cd9-4889-b961-876cf0282039"},"vehicle_type_id":"4","last_reported":1750180219,"current_range_meters":20000,"station_id":"ce4bgqh2rcd13ifvqc4g","pricing_plan_id":"cebpf4jnsgd1na2vs0mg"},{"bike_id":"734b180a-2d43-4b2e-95d8-038e8d98e875","system_id":"levelo_inurba_marseille","lat":43.30638,"lon":5.40089,"is_reserved":false,"is_disabled":false,"rental_uris":{"android":"levelo://app?vid=734b180a-2d43-4b2e-95d8-038e8d98e875","ios":"levelo://app?vid=734b180a-2d43-4b2e-95d8-038e8d98e875"},"vehicle_type_id":"4","last_reported":1750180219,"current_range_meters":20000,"station_id":"ce4bh112rcd13ifvqda0","pricing_plan_id":"cebpf4jnsgd1na2vs0mg"},{"bike_id":"844bf093-9995-43f5-aeda-03074f1b80eb","system_id":"levelo_inurba_marseille","lat":43.29183,"lon":5.35806,"is_reserved":false,"is_disabled":false,"rental_uris":{"android":"levelo://app?vid=844bf093-9995-43f5-aeda-03074f1b80eb","ios":"levelo://app?vid=844bf093-9995-43f5-aeda-03074f1b80eb"},"vehicle_type_id":"4","last_reported":1750180219,"current_range_meters":20000,"station_id":"ce4bhb12rcd13ifvqel0","pricing_plan_id":"cebpf4jnsgd1na2vs0mg"},{"bike_id":"c1f010d4-2315-444e-bea5-8917443da6cd","system_id":"levelo_inurba_marseille","lat":43.28416,"lon":5.34994,"is_reserved":false,"is_disabled":false,"rental_uris":{"android":"levelo://app?vid=c1f010d4-2315-444e-bea5-8917443da6cd","ios":"levelo://app?vid=c1f010d4-2315-444e-bea5-8917443da6cd"},"vehicle_type_id":"4","last_reported":1750180219,"current_range_meters":20000,"station_id":"ce4bhbh2rcd13ifvqepg","pricing_plan_id":"cebpf4jnsgd1na2vs0mg"},{"bike_id":"329fa638-5cae-4d80-84a0-f7375cb03d86","system_id":"levelo_inurba_marseille","lat":43.28422,"lon":5.34992,"is_reserved":false,"is_disabled":false,"rental_uris":{"android":"levelo://app?vid=329fa638-5cae-4d80-84a0-f7375cb03d86","ios":"levelo://app?vid=329fa638-5cae-4d80-84a0-f7375cb03d86"},"vehicle_type_id":"4","last_reported":1750180219,"current_range_meters":20000,"station_id":"ce4bhbh2rcd13ifvqepg","pricing_plan_id":"cebpf4jnsgd1na2vs0mg"},{"bike_id":"b892e18a-1e13-43ef-9cbd-496a1805ec19","system_id":"levelo_inurba_marseille","lat":43.27944,"lon":5.41049,"is_reserved":false,"is_disabled":false,"rental_uris":{"android":"levelo://app?vid=b892e18a-1e13-43ef-9cbd-496a1805ec19","ios":"levelo://app?vid=b892e18a-1e13-43ef-9cbd-496a1805ec19"},"vehicle_type_id":"4","last_reported":1750180219,"current_range_meters":20000,"station_id":"ce4bhnp2rcd13ifvqh0g","pricing_plan_id":"cebpf4jnsgd1na2vs0mg"},{"bike_id":"4b6b2a2b-d3c4-4663-8ea1-de4eff39b7b2","system_id":"levelo_inurba_marseille","lat":43.211863,"lon":5.350823,"is_reserved":false,"is_disabled":false,"rental_uris":{"android":"levelo://app?vid=4b6b2a2b-d3c4-4663-8ea1-de4eff39b7b2","ios":"levelo://app?vid=4b6b2a2b-d3c4-4663-8ea1-de4eff39b7b2"},"vehicle_type_id":"4","last_reported":1750180219,"current_range_meters":20000,"station_id":"st_cvj6sg6p6f1abm77japg","pricing_plan_id":"cebpf4jnsgd1na2vs0mg"},{"bike_id":"5d8918e5-7d8d-471b-811b-16c8f65256fc","system_id":"levelo_inurba_marseille","lat":43.29257,"lon":5.40906,"is_reserved":false,"is_disabled":false,"rental_uris":{"android":"levelo://app?vid=5d8918e5-7d8d-471b-811b-16c8f65256fc","ios":"levelo://app?vid=5d8918e5-7d8d-471b-811b-16c8f65256fc"},"vehicle_type_id":"4","last_reported":1750180219,"current_range_meters":20400,"station_id":"ce4bh192rcd13ifvqdc0","pricing_plan_id":"cebpf4jnsgd1na2vs0mg"},{"bike_id":"1a859a01-41d7-4638-9367-c817228f01c5","system_id":"levelo_inurba_marseille","lat":43.28947,"lon":5.36635,"is_reserved":false,"is_disabled":false,"rental_uris":{"android":"levelo://app?vid=1a859a01-41d7-4638-9367-c817228f01c5","ios":"levelo://app?vid=1a859a01-41d7-4638-9367-c817228f01c5"},"vehicle_type_id":"4","last_reported":1750180219,"current_range_meters":20400,"station_id":"ce4bhap2rcd13ifvqek0","pricing_plan_id":"cebpf4jnsgd1na2vs0mg"},