{"last_updated":1719234633,"ttl":30,"version":"2.2","data":{"bikes":[{"bike_id":"b7018b48-250a-403a-b635-6738926f05b1","system_id":"levelo_inurba_marseille","lat":43.31341,"lon":5.367098,"is_reserved":false,"is_disabled":false,"rental_uris":{"android":"levelo://app?vid=b7018b48-250a-403a-b635-6738926f05b1","ios":"levelo://app?vid=b7018b48-250a-403a-b635-6738926f05b1"},"vehicle_type_id":"4","last_reported":1719234634,"current_range_meters":20400,"station_id":"ce4bgr92rcd13ifvqc6g","pricing_plan_id":"cebpf4jnsgd1na2vs0mg"},{"bike_id":"405e03b2-ab38-4948-9e52-b40431e44963","system_id":"levelo_inurba_marseille","lat":43.31341,"lon":5.367098,"is_reserved":false,"is_disabled":false,"rental_uris":{"android":"levelo://app?vid=405e03b2-ab38-4948-9e52-b40431e44963","ios":"levelo://app?vid=405e03b2-ab38-4948-9e52-b40431e44963"},"vehicle_type_id":"4","last_reported":1719234634,"current_range_meters":4400,"station_id":"ce4bgr92rcd13ifvqc6g","pricing_plan_id":"cebpf4jnsgd1na2vs0mg"},{"bike_id":"d8409057-282b-4c52-b64c-a173978e17e5","system_id":"levelo_inurba_marseille","lat":43.31341,"lon":5.367098,"is_reserved":false,"is_disabled":false,"rental_uris":{"android":"levelo://app?vid=d8409057-282b-4c52-b64c-a173978e17e5","ios":"levelo://app?vid=d8409057-282b-4c52-b64c-a173978e17e5"},"vehicle_type_id":"4","last_reported":1719234634,"current_range_meters":31200,"station_id":"ce4bgr92rcd13ifvqc6g","pricing_plan_id":"cebpf4jnsgd1na2vs0mg"},{"bike_id":"ade9619b-6986-465b-99bb-064d99b920b3","system_id":"levelo_inurba_marseille","lat":43.31341,"lon":5.367098,"is_reserved":false,"is_disabled":false,"rental_uris":{"android":"levelo://app?vid=ade9619b-6986-465b-99bb-064d99b920b3","ios":"levelo://app?vid=ade9619b-6986-465b-99bb-064d99b920b3"},"vehicle_type_id":"4","last_reported":1719234634,"current_range_meters":10400,"station_id":"ce4bgr92rcd13ifvqc6g","pricing_plan_id":"cebpf4jnsgd1na2vs0mg"},{"bike_id":"903c0f0e-7a22-4ae7-8842-ae5106cfdd59","system_id":"levelo_inurba_marseille","lat":43.312239,"lon":5.368562,"is_reserved":false,"is_disabled":false,"rental_uris":{"android":"levelo://app?vid=903c0f0e-7a22-4ae7-8842-ae5106cfdd59","ios":"levelo://app?vid=903c0f0e-7a22-4ae7-8842-ae5106cfdd59"},"vehicle_type_id":"4","last_reported":1719234634,"current_range_meters":12000,"station_id":"ce4bgl92rcd13ifvqbq0","pricing_plan_id":"cebpf4jnsgd1na2vs0mg"},{"bike_id":"b19ad25e-bdf1-4475-ae7b-041f13207f65","system_id":"levelo_inurba_marseille","lat":43.312239,"lon":5.368562,"is_reserved":false,"is_disabled":false,"rental_uris":{"android":"levelo://app?vid=b19ad25e-bdf1-4475-ae7b-041f13207f65","ios":"levelo://app?vid=b19ad25e-bdf1-4475-ae7b-041f13207f65"},"vehicle_type_id":"4","last_reported":1719234634,"current_range_meters":29200,"station_id":"ce4bgl92rcd13ifvqbq0","pricing_plan_id":"cebpf4jnsgd1na2vs0mg"},{"bike_id":"05fcb775-210e-495e-90c5-a6a8b65d0bdf","system_id":"levelo_inurba_marseille","lat":43.312239,"lon":5.368562,"is_reserved":false,"is_disabled":false,"rental_uris":{"android":"levelo://app?vid=05fcb775-210e-495e-90c5-a6a8b65d0bdf","ios":"levelo://app?vid=05fcb775-210e-495e-90c5-a6a8b65d0bdf"},"vehicle_type_id":"4","last_reported":1719234634,"current_range_meters":16400,"station_id":"ce4bgl92rcd13ifvqbq0","pricing_plan_id":"cebpf4jnsgd1na2vs0mg"},{"bike_id":"8cafb510-617d-402d-b7bf-87afaf330ee9","system_id":"levelo_inurba_marseille","lat":43.312239,"lon":5.368562,"is_reserved":false,"is_disabled":false,"rental_uris":{"android":"levelo://app?vid=8cafb510-617d-402d-b7bf-87afaf330ee9","ios":"levelo://app?vid=8cafb510-617d-402d-b7bf-87afaf330ee9"},"vehicle_type_id":"4","last_reported":1719234634,"current_range_meters":4800,"station_id":"ce4bgl92rcd13ifvqbq0","pricing_plan_id":"cebpf4jnsgd1na2vs0mg"},{"bike_id":"e088c916-7d8d-4a90-82e5-00d618751fed","system_id":"levelo_inurba_marseille","lat":43.312239,"lon":5.368562,"is_reserved":false,"is_disabled":false,"rental_uris":{"android":"levelo://app?vid=e088c916-7d8d-4a90-82e5-00d618751fed","ios":"levelo://app?vid=e088c916-7d8d-4a90-82e5-00d618751fed"},"vehicle_type_id":"4","last_reported":1719234634,"current_range_meters":800,"station_id":"ce4bgl92rcd13ifvqbq0","pricing_plan_id":"cebpf4jnsgd1na2vs0mg"},{"bike_id":"856d4be4-07a6-4806-aedf-8943949ee82e","system_id":"levelo_inurba_marseille","lat":43.312239,"lon":5.368562,"is_reserved":false,"is_disabled":false,"rental_uris":{"android":"levelo://app?vid=856d4be4-07a6-4806-aedf-8943949ee82e","ios":"levelo://app?vid=856d4be4-07a6-4806-aedf-8943949ee82e"},"vehicle_type_id":"4","last_reported":1719234634,"current_range_meters":22400,"station_id":"ce4bgl92rcd13ifvqbq0","pricing_plan_id":"cebpf4jnsgd1na2vs0mg"},{"bike_id":"3a6c9a53-6d12-4f1d-8607-e04e6d9599ba","system_id":"levelo_inurba_marseille","lat":43.312239,"lon":5.368562,"is_reserved":false,"is_disabled":false,"rental_uris":{"android":"levelo://app?vid=3a6c9a53-6d12-4f1d-8607-e04e6d9599ba","ios":"levelo://app?vid=3a6c9a53-6d12-4f1d-8607-e04e6d9599ba"},"vehicle_type_id":"4","last_reported":1719234634,"current_range_meters":31600,"station_id":"ce4bgl92rcd13ifvqbq0","pricing_plan_id":"cebpf4jnsgd1na2vs0mg"},{"bike_id":"ab321610-35ff-4339-9796-b4e95acc827d","system_id":"levelo_inurba_marseille","lat":43.312239,"lon":5.368562,"is_reserved":false,"is_disabled":false,"rental_uris":{"android":"levelo://app?vid=ab321610-35ff-4339-9796-b4e95acc827d","ios":"levelo://app?vid=ab321610-35ff-4339-9796-b4e95acc827d"},"vehicle_type_id":"4","last_reported":1719234634,"current_range_meters":4400,"station_id":"ce4bgl92rcd13ifvqbq0","pricing_plan_id":"cebpf4jnsgd1na2vs0mg"},{"bike_id":"eb0b23ef-a6cf-44db-928a-438a4dcc0ffd","system_id":"levelo_inurba_marseille","lat":43.312239,"lon":5.368562,"is_reserved":false,"is_disabled":false,"rental_uris":{"android":"levelo://app?vid=eb0b23ef-a6cf-44db-928a-438a4dcc0ffd","ios":"levelo://app?vid=eb0b23ef-a6cf-44db-928a-438a4dcc0ffd"},"vehicle_type_id":"4","last_reported":1719234634,"current_range_meters":14800,"station_id":"ce4bgl92rcd13ifvqbq0","pricing_plan_id":"cebpf4jnsgd1na2vs0mg"},{"bike_id":"0b2ff2e5-bcee-40e1-a9ad-781dfa94659b","system_id":"levelo_inurba_marseille","lat":43.312239,"lon":5.368562,"is_reserved":false,"is_disabled":false,"rental_uris":{"android":"levelo://app?vid=0b2ff2e5-bcee-40e1-a9ad-781dfa94659b","ios":"levelo://app?vid=0b2ff2e5-bcee-40e1-a9ad-781dfa94659b"},"vehicle_type_id":"4","last_reported":1719234634,"current_range_meters":24000,"station_id":"ce4bgl92rcd13ifvqbq0","pricing_plan_id":"cebpf4jnsgd1na2vs0mg"},{"bike_id":"7c806ee3-18c5-40db-b709-9159af3d0df0","system_id":"levelo_inurba_marseille","lat":43.312239,"lon":5.368562,"is_reserved":false,"is_disabled":false,"rental_uris":{"android":"levelo://app?vid=7c806ee3-18c5-40db-b709-9159af3d0df0","ios":"levelo://app?vid=7c806ee3-18c5-40db-b709-9159af3d0df0"},"vehicle_type_id":"4","last_reported":1719234634,"current_range_meters":27200,"station_id":"ce4bgl92rcd13ifvqbq0","pricing_plan_id":"cebpf4jnsgd1na2vs0mg"},{"bike_id":"0a760c5e-cdde-4f48-81a6-8a1a2bf0455b","system_id":"levelo_inurba_marseille","lat":43.312239,"lon":5.368562,"is_reserved":false,"is_disabled":false,"rental_uris":{"android":"levelo://app?vid=0a760c5e-cdde-4f48-81a6-8a1a2bf0455b","ios":"levelo://app?vid=0a760c5e-cdde-4f48-81a6-8a1a2bf0455b"},"vehicle_type_id":"4","last_reported":1719234634,"current_range_meters":10000,"station_id":"ce4bgl92rcd13ifvqbq0","pricing_plan_id":"cebpf4jnsgd1na2vs0mg"},{"bike_id":"51450d8d-4fbb-4502-883d-9b1acfc2850a","system_id":"levelo_inurba_marseille","lat":43.309076,"lon":5.368465,"is_reserved":false,"is_disabled":false,"rental_uris":{"android":"levelo://app?vid=51450d8d-4fbb-4502-883d-9b1acfc2850a","ios":"levelo://app?vid=51450d8d-4fbb-4502-883d-9b1acfc2850a"},"vehicle_type_id":"4","last_reported":1719234634,"current_range_meters":31600,"station_id":"ce4bgn92rcd13ifvqbvg","pricing_plan_id":"cebpf4jnsgd1na2vs0mg"},{"bike_id":"4d6cdbbe-b784-49ea-80b2-b781920f0676","system_id":"levelo_inurba_marseille","lat":43.309076,"lon":5.368465,"is_reserved":false,"is_disabled":false,"rental_uris":{"android":"levelo://app?vid=4d6cdbbe-b784-49ea-80b2-b781920f0676","ios":"levelo://app?vid=4d6cdbbe-b784-49ea-80b2-b781920f0676"},"vehicle_type_id":"4","last_reported":1719234634,"current_range_meters":31600,"station_id":"ce4bgn92rcd13ifvqbvg","pricing_plan_id":"cebpf4jnsgd1na2vs0mg"},{"bike_id":"07042176-1b2b-4486-9dc3-5b37db0cd453","system_id":"levelo_inurba_marseille","lat":43.309076,"lon":5.368465,"is_reserved":false,"is_disabled":false,"rental_uris":{"android":"levelo://app?vid=07042176-1b2b-4486-9dc3-5b37db0cd453","ios":"levelo://app?vid=07042176-1b2b-4486-9dc3-5b37db0cd453"},"vehicle_type_id":"4","last_reported":1719234634,"current_range_meters":19200,"station_id":"ce4bgn92rcd13ifvqbvg","pricing_plan_id":"cebpf4jnsgd1na2vs0mg"},{"bike_id":"d9fc6799-155b-411e-b8ab-9230ef6a152e","system_id":"levelo_inurba_marseille","lat":43.309076,"lon":5.368465,"is_reserved":false,"is_disabled":false,"rental_uris":{"android":"levelo://app?vid=d9fc6799-155b-411e-b8ab-9230ef6a152e","ios":"levelo://app?vid=d9fc6799-155b-411e-b8ab-9230ef6a152e"},"vehicle_type_id":"4","last_reported":1719234634,"current_range_meters":30800,"station_id":"ce4bgn92rcd13ifvqbvg","pricing_plan_id":"cebpf4jnsgd1na2vs0mg"},{"bike_id":"92c44e16-ec25-4577-88a5-66118e3e803d","system_id":"levelo_inurba_marseille","lat":43.309076,"lon":5.368465,"is_reserved":false,"is_disabled":false,"rental_uris":{"android":"levelo://app?vid=92c44e16-ec25-4577-88a5-66118e3e803d","ios":"levelo://app?vid=92c44e16-ec25-4577-88a5-66118e3e803d"},"vehicle_type_id":"4","last_reported":1719234634,"current_range_meters":28800,"station_id":"ce4bgn92rcd13ifvqbvg","pricing_plan_id":"cebpf4jnsgd1na2vs0mg"},{"bike_id":"74d5f98d-49f4-4afe-83bc-74199de21c93","system_id":"levelo_inurba_marseille","lat":43.309076,"lon":5.368465,"is_reserved":false,"is_disabled":false,"rental_uris":{"android":"levelo://app?vid=74d5f98d-49f4-4afe-83bc-74199de21c93","ios":"levelo://app?vid=74d5f98d-49f4-4afe-83bc-74199de21c93"},"vehicle_type_id":"4","last_reported":1719234634,"current_range_meters":8800,"station_id":"ce4bgn92rcd13ifvqbvg","pricing_plan_id":"cebpf4jnsgd1na2vs0mg"},{"bike_id":"f43dfad2-ceb8-4eb4-90d3-585eb52dfa1b","system_id":"levelo_inurba_marseille","lat":43.309076,"lon":5.368465,"is_reserved":false,"is_disabled":false,"rental_uris":{"android":"levelo://app?vid=f43dfad2-ceb8-4eb4-90d3-585eb52dfa1b","ios":"levelo://app?vid=f43dfad2-ceb8-4eb4-90d3-585eb52dfa1b"},"vehicle_type_id":"4","last_reported":1719234634,"current_range_meters":9600,"station_id":"ce4bgn92rcd13ifvqbvg","pricing_plan_id":"cebpf4jnsgd1na2vs0mg"},{"bike_id":"cb27d540-66fe-4046-bc74-d6c723295443","system_id":"levelo_inurba_marseille","lat":43.30908,"lon":5.36858,"is_reserved":false,"is_disabled":false,"rental_uris":{"android":"levelo://app?vid=cb27d540-66fe-4046-bc74-d6c723295443","ios":"levelo://app?vid=cb27d540-66fe-4046-bc74-d6c723295443"},"vehicle_type_id":"4","last_reported":1719234634,"current_range_meters":27200,"station_id":"","pricing_plan_id":"cebpf4jnsgd1na2vs0mg"},{"bike_id":"c1f2d51a-0b92-42e2-bc8c-ba5354967bab","system_id":"levelo_inurba_marseille","lat":43.309076,"lon":5.368465,"is_reserved":false,"is_disabled":false,"rental_uris":{"android":"levelo://app?vid=c1f2d51a-0b92-42e2-bc8c-ba5354967bab","ios":"levelo://app?vid=c1f2d51a-0b92-42e2-bc8c-ba5354967bab"},"vehicle_type_id":"4","last_reported":1719234634,"current_range_meters":22400,"station_id":"ce4bgn92rcd13ifvqbvg","pricing_plan_id":"cebpf4jnsgd1na2vs0mg"},{"bike_id":"597c5dc6-626a-4990-be47-253f5e1a90b0","system_id":"levelo_inurba_marseille","lat":43.309076,"lon":5.368465,"is_reserved":false,"is_disabled":false,"rental_uris":{"android":"levelo://app?vid=597c5dc6-626a-4990-be47-253f5e1a90b0","ios":"levelo://app?vid=597c5dc6-626a-4990-be47-253f5e1a90b0"},"vehicle_type_id":"4","last_reported":1719234634,"current_range_meters":21200,"station_id":"ce4bgn92rcd13ifvqbvg","pricing_plan_id":"cebpf4jnsgd1na2vs0mg"},{"bike_id":"a475d5fc-2008-419a-8678-b1a23e668643","system_id":"levelo_inurba_marseille","lat":43.309076,"lon":5.368465,"is_reserved":false,"is_disabled":false,"rental_uris":{"android":"levelo://app?vid=a475d5fc-2008-419a-8678-b1a23e668643","ios":"levelo://app?vid=a475d5fc-2008-419a-8678-b1a23e668643"},"vehicle_type_id":"4","last_reported":1719234634,"current_range_meters":22400,"station_id":"ce4bgn92rcd13ifvqbvg","pricing_plan_id":"cebpf4jnsgd1na2vs0mg"},{"bike_id":"45a33a60-b8af-457f-9fb1-8e4650487c6d","system_id":"levelo_inurba_marseille","lat":43.309076,"lon":5.368465,"is_reserved":false,"is_disabled":false,"rental_uris":{"android":"levelo://app?vid=45a33a60-b8af-457f-9fb1-8e4650487c6d","ios":"levelo://app?vid=45a33a60-b8af-457f-9fb1-8e4650487c6d"},"vehicle_type_id":"4","last_reported":1719234634,"current_range_meters":18000,"station_id":"ce4bgn92rcd13ifvqbvg","pricing_plan_id":"cebpf4jnsgd1na2vs0mg"},{"bike_id":"e812a534-bab8-4037-b05b-3e47488d18c0","system_id":"levelo_inurba_marseille","lat":43.314969,"lon":5.373,"is_reserved":false,"is_disabled":false,"rental_uris":{"android":"levelo://app?vid=e812a534-bab8-4037-b05b-3e47488d18c0","ios":"levelo://app?vid=e812a534-bab8-4037-b05b-3e47488d18c0"},"vehicle_type_id":"4","last_reported":1719234634,"current_range_meters":2800,"station_id":"ce4bgt12rcd13ifvqcd0","pricing_plan_id":"cebpf4jnsgd1na2vs0mg"},{"bike_id":"08d79f7a-2cf7-4580-9ab3-6712ef9f8a2e","system_id":"levelo_inurba_marseille","lat":43.31493,"lon":5.37308,"is_reserved":false,"is_disabled":false,"rental_uris":{"android":"levelo://app?vid=08d79f7a-2cf7-4580-9ab3-6712ef9f8a2e","ios":"levelo://app?vid=08d79f7a-2cf7-4580-9ab3-6712ef9f8a2e"},"vehicle_type_id":"4","last_reported":1719234634,"current_range_meters":30800,"station_id":"ce4bgt12rcd13ifvqcd0","pricing_plan_id":"cebpf4jnsgd1na2vs0mg"},{"bike_id":"b12b85c9-d2df-432d-b3f0-b64fc11327ea","system_id":"levelo_inurba_marseille","lat":43.314811,"lon":5.373103,"is_reserved":false,"is_disabled":false,"rental_uris":{"android":"levelo://app?vid=b12b85c9-d2df-432d-b3f0-b64fc11327ea","ios":"levelo://app?vid=b12b85c9-d2df-432d-b3f0-b64fc11327ea"},"vehicle_type_id":"4","last_reported":1719234634,"current_range_meters":27600,"station_id":"ce4bgt12rcd13ifvqcd0","pricing_plan_id":"cebpf4jnsgd1na2vs0mg"},{"bike_id":"b027b8c0-cf59-4d96-93c4-d0a2eecaae86","system_id":"levelo_inurba_marseille","lat":43.31491,"lon":5.37312,"is_reserved":false,"is_disabled":false,"rental_uris":{"android":"levelo://app?vid=b027b8c0-cf59-4d96-93c4-d0a2eecaae86","ios":"levelo://app?vid=b027b8c0-cf59-4d96-93c4-d0a2eecaae86"},"vehicle_type_id":"4","last_reported":1719234634,"current_range_meters":12000,"station_id":"ce4bgt12rcd13ifvqcd0","pricing_plan_id":"cebpf4jnsgd1na2vs0mg"},{"bike_id":"271ffc3c-10f1-47ab-9515-cf94bd86ac8e","system_id":"levelo_inurba_marseille","lat":43.30894,"lon":5.371847,"is_reserved":false,"is_disabled":false,"rental_uris":{"android":"levelo://app?vid=271ffc3c-10f1-47ab-9515-cf94bd86ac8e","ios":"levelo://app?vid=271ffc3c-10f1-47ab-9515-cf94bd86ac8e"},"vehicle_type_id":"4","last_reported":1719234634,"current_range_meters":12400,"station_id":"ce4bguh2rcd13ifvqckg","pricing_plan_id":"cebpf4jnsgd1na2vs0mg"},{"bike_id":"3e6229a9-daa1-4e8e-b7ec-60b28f97252f","system_id":"levelo_inurba_marseille","lat":43.31452,"lon":5.373706,"is_reserved":false,"is_disabled":false,"rental_uris":{"android":"levelo://app?vid=3e6229a9-daa1-4e8e-b7ec-60b28f97252f","ios":"levelo://app?vid=3e6229a9-daa1-4e8e-b7ec-60b28f97252f"},"vehicle_type_id":"4","last_reported":1719234634,"current_range_meters":2800,"station_id":"ce4bgt12rcd13ifvqcd0","pricing_plan_id":"cebpf4jnsgd1na2vs0mg"},{"bike_id":"77460ccb-960a-4153-8783-e0a172f31a95","system_id":"levelo_inurba_marseille","lat":43.314513,"lon":5.373723,"is_reserved":false,"is_disabled":false,"rental_uris":{"android":"levelo://app?vid=77460ccb-960a-4153-8783-e0a172f31a95","ios":"levelo://app?vid=77460ccb-960a-4153-8783-e0a172f31a95"},"vehicle_type_id":"4","last_reported":1719234634,"current_range_meters":6400,"station_id":"","pricing_plan_id":"cebpf4jnsgd1na2vs0mg"},{"bike_id":"0002bf12-5285-4eab-bc48-6b05996d9634","system_id":"levelo_inurba_marseille","lat":43.305712,"lon":5.365641,"is_reserved":false,"is_disabled":false,"rental_uris":{"android":"levelo://app?vid=0002bf12-5285-4eab-bc48-6b05996d9634","ios":"levelo://app?vid=0002bf12-5285-4eab-bc48-6b05996d9634"},"vehicle_type_id":"4","last_reported":1719234634,"current_range_meters":6800,"station_id":"ce4bgs12rcd13ifvqcag","pricing_plan_id":"cebpf4jnsgd1na2vs0mg"},{"bike_id":"82479987-14ec-4475-be36-408168e4049f","system_id":"levelo_inurba_marseille","lat":43.305714,"lon":5.365633,"is_reserved":false,"is_disabled":false,"rental_uris":{"android":"levelo://app?vid=82479987-14ec-4475-be36-408168e4049f","ios":"levelo://app?vid=82479987-14ec-4475-be36-408168e4049f"},"vehicle_type_id":"4","last_reported":1719234634,"current_range_meters":6800,"station_id":"ce4bgs12rcd13ifvqcag","pricing_plan_id":"cebpf4jnsgd1na2vs0mg"},{"bike_id":"17670195-abdd-48c1-bd41-cba4ff4b6c8a","system_id":"levelo_inurba_marseille","lat":43.305706,"lon":5.365654,"is_reserved":false,"is_disabled":false,"rental_uris":{"android":"levelo://app?vid=17670195-abdd-48c1-bd41-cba4ff4b6c8a","ios":"levelo://app?vid=17670195-abdd-48c1-bd41-cba4ff4b6c8a"},"vehicle_type_id":"4","last_reported":1719234634,"current_range_meters":800,"station_id":"ce4bgs12rcd13ifvqcag","pricing_plan_id":"cebpf4jnsgd1na2vs0mg"},{"bike_id":"fe2aa67d-051f-49f3-b698-541a93bf2f95","system_id":"levelo_inurba_marseille","lat":43.305706,"lon":5.365654,"is_reserved":false,"is_disabled":false,"rental_uris":{"android":"levelo://app?vid=fe2aa67d-051f-49f3-b698-541a93bf2f95","ios":"levelo://app?vid=fe2aa67d-051f-49f3-b698-541a93bf2f95"},"vehicle_type_id":"4","last_reported":1719234634,"current_range_meters":28800,"station_id":"ce4bgs12rcd13ifvqcag","pricing_plan_id":"cebpf4jnsgd1na2vs0mg"},{"bike_id":"691a2ce7-02af-4066-bc97-3242f16b9cbd","system_id":"levelo_inurba_marseille","lat":43.305706,"lon":5.365654,"is_reserved":false,"is_disabled":false,"rental_uris":{"android":"levelo://app?vid=691a2ce7-02af-4066-bc97-3242f16b9cbd","ios":"levelo://app?vid=691a2ce7-02af-4066-bc97-3242f16b9cbd"},"vehicle_type_id":"4","last_reported":1719234634,"current_range_meters":14800,"station_id":"ce4bgs12rcd13ifvqcag","pricing_plan_id":"cebpf4jnsgd1na2vs0mg"},{"bike_id":"e7f5a721-0efc-4337-8876-7430af1e4c70","system_id":"levelo_inurba_marseille","lat":43.305706,"lon":5.365654,"is_reserved":false,"is_disabled":false,"rental_uris":{"android":"levelo://app?vid=e7f5a721-0efc-4337-8876-7430af1e4c70","ios":"levelo://app?vid=e7f5a721-0efc-4337-8876-7430af1e4c70"},"vehicle_type_id":"4","last_reported":1719234634,"current_range_meters":23200,"station_id":"ce4bgs12rcd13ifvqcag","pricing_plan_id":"cebpf4jnsgd1na2vs0mg"},{"bike_id":"158f87c9-c58b-4ef8-af9d-e129ded5ecfd","system_id":"levelo_inurba_marseille","lat":43.305368,"lon":5.367343,"is_reserved":false,"is_disabled":false,"rental_uris":{"android":"levelo://app?vid=158f87c9-c58b-4ef8-af9d-e129ded5ecfd","ios":"levelo://app?vid=158f87c9-c58b-4ef8-af9d-e129ded5ecfd"},"vehicle_type_id":"4","last_reported":1719234634,"current_range_meters":10400,"station_id":"ce4bgrp2rcd13ifvqc9g","pricing_plan_id":"cebpf4jnsgd1na2vs0mg"},{"bike_id":"48052584-2b7c-4320-96cc-ca9e8663dc08","system_id":"levelo_inurba_marseille","lat":43.30613,"lon":5.37214,"is_reserved":false,"is_disabled":false,"rental_uris":{"android":"levelo://app?vid=48052584-2b7c-4320-96cc-ca9e8663dc08","ios":"levelo://app?vid=48052584-2b7c-4320-96cc-ca9e8663dc08"},"vehicle_type_id":"4","last_reported":1719234634,"current_range_meters":13600,"station_id":"ce4bgqh2rcd13ifvqc4g","pricing_plan_id":"cebpf4jnsgd1na2vs0mg"},{"bike_id":"e69cdd6a-e514-4463-b1ab-2ec7bb1d8a8b","system_id":"levelo_inurba_marseille","lat":43.31152,"lon":5.37762,"is_reserved":false,"is_disabled":false,"rental_uris":{"android":"levelo://app?vid=e69cdd6a-e514-4463-b1ab-2ec7bb1d8a8b","ios":"levelo://app?vid=e69cdd6a-e514-4463-b1ab-2ec7bb1d8a8b"},"vehicle_type_id":"4","last_reported":1719234634,"current_range_meters":26800,"station_id":"ce4bgt92rcd13ifvqcg0","pricing_plan_id":"cebpf4jnsgd1na2vs0mg"},{"bike_id":"b61fbddf-9a70-4432-ba61-2efe7f14f9d2","system_id":"levelo_inurba_marseille","lat":43.311125,"lon":5.377624,"is_reserved":false,"is_disabled":false,"rental_uris":{"android":"levelo://app?vid=b61fbddf-9a70-4432-ba61-2efe7f14f9d2","ios":"levelo://app?vid=b61fbddf-9a70-4432-ba61-2efe7f14f9d2"},"vehicle_type_id":"4","last_reported":1719234634,"current_range_meters":26000,"station_id":"ce4bgt92rcd13ifvqcg0","pricing_plan_id":"cebpf4jnsgd1na2vs0mg"},{"bike_id":"efcee4eb-3109-462c-ab7a-ddffc8654ebe","system_id":"levelo_inurba_marseille","lat":43.317075,"lon":5.377367,"is_reserved":false,"is_disabled":false,"rental_uris":{"android":"levelo://app?vid=efcee4eb-3109-462c-ab7a-ddffc8654ebe","ios":"levelo://app?vid=efcee4eb-3109-462c-ab7a-ddffc8654ebe"},"vehicle_type_id":"4","last_reported":1719234634,"current_range_meters":29600,"station_id":"ce4bgth2rcd13ifvqch0","pricing_plan_id":"cebpf4jnsgd1na2vs0mg"},{"bike_id":"7d03d015-b15b-49c7-a6b8-505daaedf5c6","system_id":"levelo_inurba_marseille","lat":43.303046,"lon":5.368981,"is_reserved":false,"is_disabled":false,"rental_uris":{"android":"levelo://app?vid=7d03d015-b15b-49c7-a6b8-505daaedf5c6","ios":"levelo://app?vid=7d03d015-b15b-49c7-a6b8-505daaedf5c6"},"vehicle_type_id":"4","last_reported":1719234634,"current_range_meters":28000,"station_id":"ce4bgqh2rcd13ifvqc5g","pricing_plan_id":"cebpf4jnsgd1na2vs0mg"},{"bike_id":"db19222a-8ef8-42d4-a2f3-c8b682d2481d","system_id":"levelo_inurba_marseille","lat":43.30304,"lon":5.368987,"is_reserved":false,"is_disabled":false,"rental_uris":{"android":"levelo://app?vid=db19222a-8ef8-42d4-a2f3-c8b682d2481d","ios":"levelo://app?vid=db19222a-8ef8-42d4-a2f3-c8b682d2481d"},"vehicle_type_id":"4","last_reported":1719234634,"current_range_meters":4000,"station_id":"ce4bgqh2rcd13ifvqc5g","pricing_plan_id":"cebpf4jnsgd1na2vs0mg"},{"bike_id":"b4659855-8cbc-48e2-91c1-cd4a49ccedad","system_id":"levelo_inurba_marseille","lat":43.30304,"lon":5.368987,"is_reserved":false,"is_disabled":false,"rental_uris":{"android":"levelo://app?vid=b4659855-8cbc-48e2-91c1-cd4a49ccedad","ios":"levelo://app?vid=b4659855-8cbc-48e2-91c1-cd4a49ccedad"},"vehicle_type_id":"4","last_reported":1719234634,"current_range_meters":16000,"station_id":"ce4bgqh2rcd13ifvqc5g","pricing_plan_id":"cebpf4jnsgd1na2vs0mg"},{"bike_id":"62d6386c-1503-4b05-b0f4-18995a8e201f","system_id":"levelo_inurba_marseille","lat":43.30275,"lon":5.37217,"is_reserved":false,"is_disabled":false,"rental_uris":{"android":"levelo://app?vid=62d6386c-1503-4b05-b0f4-18995a8e201f","ios":"levelo://app?vid=62d6386c-1503-4b05-b0f4-18995a8e201f"},"vehicle_type_id":"4","last_reported":1719234634,"current_range_meters":18000,"station_id":"","pricing_plan_id":"cebpf4jnsgd1na2vs0mg"},{"bike_id":"e9bdbe37-02b4-46be-85a9-57b7736be5cf","system_id":"levelo_inurba_marseille","lat":43.30197,"lon":5.366224,"is_reserved":false,"is_disabled":false,"rental_uris":{"android":"levelo://app?vid=e9bdbe37-02b4-46be-85a9-57b7736be5cf","ios":"levelo://app?vid=e9bdbe37-02b4-46be-85a9-57b7736be5cf"},"vehicle_type_id":"4","last_reported":1719234634,"current_range_meters":25600,"station_id":"ce4bgrh2rcd13ifvqc8g","pricing_plan_id":"cebpf4jnsgd1na2vs0mg"},{"bike_id":"22ef21ed-f34d-4873-adcd-bc0339db6af3","system_id":"levelo_inurba_marseille","lat":43.301939,"lon":5.366286,"is_reserved":false,"is_disabled":false,"rental_uris":{"android":"levelo://app?vid=22ef21ed-f34d-4873-adcd-bc0339db6af3","ios":"levelo://app?vid=22ef21ed-f34d-4873-adcd-bc0339db6af3"},"vehicle_type_id":"4","last_reported":1719234634,"current_range_meters":26800,"station_id":"ce4bgrh2rcd13ifvqc8g","pricing_plan_id":"cebpf4jnsgd1na2vs0mg"},{"bike_id":"b77122ba-2f32-402f-8e32-cab6d02457ac","system_id":"levelo_inurba_marseille","lat":43.308012,"lon":5.381511,"is_reserved":false,"is_disabled":false,"rental_uris":{"android":"levelo://app?vid=b77122ba-2f32-402f-8e32-cab6d02457ac","ios":"levelo://app?vid=b77122ba-2f32-402f-8e32-cab6d02457ac"},"vehicle_type_id":"4","last_reported":1719234634,"current_range_meters":8000,"station_id":"ce4bgt12rcd13ifvqce0","pricing_plan_id":"cebpf4jnsgd1na2vs0mg"},{"bike_id":"7abdbe9e-1c09-44cd-934a-8d35e276cc09","system_id":"levelo_inurba_marseille","lat":43.324771,"lon":5.36557,"is_reserved":false,"is_disabled":false,"rental_uris":{"android":"levelo://app?vid=7abdbe9e-1c09-44cd-934a-8d35e276cc09","ios":"levelo://app?vid=7abdbe9e-1c09-44cd-934a-8d35e276cc09"},"vehicle_type_id":"4","last_reported":1719234634,"current_range_meters":10400,"station_id":"ce4bhs12rcd13ifvqhvg","pricing_plan_id":"cebpf4jnsgd1na2vs0mg"},{"bike_id":"91243181-9773-47d7-a3ff-e24e0ed93767","system_id":"levelo_inurba_marseille","lat":43.324771,"lon":5.36557,"is_reserved":false,"is_disabled":false,"rental_uris":{"android":"levelo://app?vid=91243181-9773-47d7-a3ff-e24e0ed93767","ios":"levelo://app?vid=91243181-9773-47d7-a3ff-e24e0ed93767"},"vehicle_type_id":"4","last_reported":1719234634,"current_range_meters":22400,"station_id":"ce4bhs12rcd13ifvqhvg","pricing_plan_id":"cebpf4jnsgd1na2vs0mg"},{"bike_id":"373b1521-29c9-474c-bfd4-274a49584962","system_id":"levelo_inurba_marseille","lat":43.324771,"lon":5.36557,"is_reserved":false,"is_disabled":false,"rental_uris":{"android":"levelo://app?vid=373b1521-29c9-474c-bfd4-274a49584962","ios":"levelo://app?vid=373b1521-29c9-474c-bfd4-274a49584962"},"vehicle_type_id":"4","last_reported":1719234634,"current_range_meters":10400,"station_id":"ce4bhs12rcd13ifvqhvg","pricing_plan_id":"cebpf4jnsgd1na2vs0mg"},{"bike_id":"14c9c5f1-4f95-49d2-b1a2-dbfc7b5731c5","system_id":"levelo_inurba_marseille","lat":43.324771,"lon":5.36557,"is_reserved":false,"is_disabled":false,"rental_uris":{"android":"levelo://app?vid=14c9c5f1-4f95-49d2-b1a2-dbfc7b5731c5","ios":"levelo://app?vid=14c9c5f1-4f95-49d2-b1a2-dbfc7b5731c5"},"vehicle_type_id":"4","last_reported":1719234634,"current_range_meters":7200,"station_id":"ce4bhs12rcd13ifvqhvg","pricing_plan_id":"cebpf4jnsgd1na2vs0mg"},{"bike_id":"93afeaa8-0ffd-4853-b8dd-68068eeea4e1","system_id":"levelo_inurba_marseille","lat":43.324771,"lon":5.36557,"is_reserved":false,"is_disabled":false,"rental_uris":{"android":"levelo://app?vid=93afeaa8-0ffd-4853-b8dd-68068eeea4e1","ios":"levelo://app?vid=93afeaa8-0ffd-4853-b8dd-68068eeea4e1"},"vehicle_type_id":"4","last_reported":1719234634,"current_range_meters":14400,"station_id":"ce4bhs12rcd13ifvqhvg","pricing_plan_id":"cebpf4jnsgd1na2vs0mg"},{"bike_id":"f55ee702-4712-47a2-9d7a-4d7fc8adffe8","system_id":"levelo_inurba_marseille","lat":43.324771,"lon":5.36557,"is_reserved":false,"is_disabled":false,"rental_uris":{"android":"levelo://app?vid=f55ee702-4712-47a2-9d7a-4d7fc8adffe8","ios":"levelo://app?vid=f55ee702-4712-47a2-9d7a-4d7fc8adffe8"},"vehicle_type_id":"4","last_reported":1719234634,"current_range_meters":3600,"station_id":"ce4bhs12rcd13ifvqhvg","pricing_plan_id":"cebpf4jnsgd1na2vs0mg"},{"bike_id":"5d4bdf5e-3942-43a0-81fe-42357bbbf60f","system_id":"levelo_inurba_marseille","lat":43.302784,"lon":5.377158,"is_reserved":false,"is_disabled":false,"rental_uris":{"android":"levelo://app?vid=5d4bdf5e-3942-43a0-81fe-42357bbbf60f","ios":"levelo://app?vid=5d4bdf5e-3942-43a0-81fe-42357bbbf60f"},"vehicle_type_id":"4","last_reported":1719234634,"current_range_meters":23600,"station_id":"ce4bguh2rcd13ifvqcj0","pricing_plan_id":"cebpf4jnsgd1na2vs0mg"},{"bike_id":"38ec79e2-276f-4975-8dd2-4b7e03f0d20c","system_id":"levelo_inurba_marseille","lat":43.302784,"lon":5.377158,"is_reserved":false,"is_disabled":false,"rental_uris":{"android":"levelo://app?vid=38ec79e2-276f-4975-8dd2-4b7e03f0d20c","ios":"levelo://app?vid=38ec79e2-276f-4975-8dd2-4b7e03f0d20c"},"vehicle_type_id":"4","last_reported":1719234634,"current_range_meters":22000,"station_id":"ce4bguh2rcd13ifvqcj0","pricing_plan_id":"cebpf4jnsgd1na2vs0mg"},{"bike_id":"fd9b5d9b-670c-40c2-8484-f9e202b57ed1","system_id":"levelo_inurba_marseille","lat":43.301429,"lon":5.37413,"is_reserved":false,"is_disabled":false,"rental_uris":{"android":"levelo://app?vid=fd9b5d9b-670c-40c2-8484-f9e202b57ed1","ios":"levelo://app?vid=fd9b5d9b-670c-40c2-8484-f9e202b57ed1"},"vehicle_type_id":"4","last_reported":1719234634,"current_range_meters":26400,"station_id":"ce4bgs92rcd13ifvqcc0","pricing_plan_id":"cebpf4jnsgd1na2vs0mg"},{"bike_id":"16469152-d5d3-4085-a569-b1fb2fabe3ac","system_id":"levelo_inurba_marseille","lat":43.302784,"lon":5.377158,"is_reserved":false,"is_disabled":false,"rental_uris":{"android":"levelo://app?vid=16469152-d5d3-4085-a569-b1fb2fabe3ac","ios":"levelo://app?vid=16469152-d5d3-4085-a569-b1fb2fabe3ac"},"vehicle_type_id":"4","last_reported":1719234634,"current_range_meters":2800,"station_id":"ce4bguh2rcd13ifvqcj0","pricing_plan_id":"cebpf4jnsgd1na2vs0mg"},{"bike_id":"cbff3412-e782-46f3-902f-b36de1fa8d92","system_id":"levelo_inurba_marseille","lat":43.319935,"lon":5.381699,"is_reserved":false,"is_disabled":false,"rental_uris":{"android":"levelo://app?vid=cbff3412-e782-46f3-902f-b36de1fa8d92","ios":"levelo://app?vid=cbff3412-e782-46f3-902f-b36de1fa8d92"},"vehicle_type_id":"4","last_reported":1719234634,"current_range_meters":24400,"station_id":"ce4bhr12rcd13ifvqhpg","pricing_plan_id":"cebpf4jnsgd1na2vs0mg"},{"bike_id":"f2edd5dd-550f-442e-9bbd-84bb5594dadb","system_id":"levelo_inurba_marseille","lat":43.319983,"lon":5.38156,"is_reserved":false,"is_disabled":false,"rental_uris":{"android":"levelo://app?vid=f2edd5dd-550f-442e-9bbd-84bb5594dadb","ios":"levelo://app?vid=f2edd5dd-550f-442e-9bbd-84bb5594dadb"},"vehicle_type_id":"4","last_reported":1719234634,"current_range_meters":30800,"station_id":"ce4bhr12rcd13ifvqhpg","pricing_plan_id":"cebpf4jnsgd1na2vs0mg"},{"bike_id":"c5695249-6c1e-416a-aadd-b9b48ac62157","system_id":"levelo_inurba_marseille","lat":43.319935,"lon":5.381699,"is_reserved":false,"is_disabled":false,"rental_uris":{"android":"levelo://app?vid=c5695249-6c1e-416a-aadd-b9b48ac62157","ios":"levelo://app?vid=c5695249-6c1e-416a-aadd-b9b48ac62157"},"vehicle_type_id":"4","last_reported":1719234634,"current_range_meters":12800,"station_id":"ce4bhr12rcd13ifvqhpg","pricing_plan_id":"cebpf4jnsgd1na2vs0mg"},{"bike_id":"a2253144-bd83-44ad-8520-993386ec6e41","system_id":"levelo_inurba_marseille","lat":43.319935,"lon":5.381699,"is_reserved":false,"is_disabled":false,"rental_uris":{"android":"levelo://app?vid=a2253144-bd83-44ad-8520-993386ec6e41","ios":"levelo://app?vid=a2253144-bd83-44ad-8520-993386ec6e41"},"vehicle_type_id":"4","last_reported":1719234634,"current_range_meters":17200,"station_id":"ce4bhr12rcd13ifvqhpg","pricing_plan_id":"cebpf4jnsgd1na2vs0mg"},{"bike_id":"e1190fc6-c06d-4db9-bfec-d5811c47a56c","system_id":"levelo_inurba_marseille","lat":43.299724,"lon":5.371829,"is_reserved":false,"is_disabled":false,"rental_uris":{"android":"levelo://app?vid=e1190fc6-c06d-4db9-bfec-d5811c47a56c","ios":"levelo://app?vid=e1190fc6-c06d-4db9-bfec-d5811c47a56c"},"vehicle_type_id":"4","last_reported":1719234634,"current_range_meters":31200,"station_id":"ce4bgr92rcd13ifvqc7g","pricing_plan_id":"cebpf4jnsgd1na2vs0mg"},{"bike_id":"0795b5d6-9b2b-4378-bd0a-148463e4d1fb","system_id":"levelo_inurba_marseille","lat":43.299724,"lon":5.371829,"is_reserved":false,"is_disabled":false,"rental_uris":{"android":"levelo://app?vid=0795b5d6-9b2b-4378-bd0a-148463e4d1fb","ios":"levelo://app?vid=0795b5d6-9b2b-4378-bd0a-148463e4d1fb"},"vehicle_type_id":"4","last_reported":1719234634,"current_range_meters":28000,"station_id":"ce4bgr92rcd13ifvqc7g","pricing_plan_id":"cebpf4jnsgd1na2vs0mg"},{"bike_id":"6e0a2600-eed2-4783-a9c5-6f8b1a56fbff","system_id":"levelo_inurba_marseille","lat":43.298433,"lon":5.362774,"is_reserved":false,"is_disabled":false,"rental_uris":{"android":"levelo://app?vid=6e0a2600-eed2-4783-a9c5-6f8b1a56fbff","ios":"levelo://app?vid=6e0a2600-eed2-4783-a9c5-6f8b1a56fbff"},"vehicle_type_id":"4","last_reported":1719234634,"current_range_meters":13600,"station_id":"ce4bgpp2rcd13ifvqc3g","pricing_plan_id":"cebpf4jnsgd1na2vs0mg"},{"bike_id":"fa959555-9f1f-4d4c-8801-5f841dbdfb0f","system_id":"levelo_inurba_marseille","lat":43.305364,"lon":5.384119,"is_reserved":false,"is_disabled":false,"rental_uris":{"android":"levelo://app?vid=fa959555-9f1f-4d4c-8801-5f841dbdfb0f","ios":"levelo://app?vid=fa959555-9f1f-4d4c-8801-5f841dbdfb0f"},"vehicle_type_id":"4","last_reported":1719234634,"current_range_meters":19600,"station_id":"ce4bgg92rcd13ifvqb30","pricing_plan_id":"cebpf4jnsgd1na2vs0mg"},{"bike_id":"e2a93a1f-18a4-4edf-b1e6-706930a110cc","system_id":"levelo_inurba_marseille","lat":43.305406,"lon":5.384186,"is_reserved":false,"is_disabled":false,"rental_uris":{"android":"levelo://app?vid=e2a93a1f-18a4-4edf-b1e6-706930a110cc","ios":"levelo://app?vid=e2a93a1f-18a4-4edf-b1e6-706930a110cc"},"vehicle_type_id":"4","last_reported":1719234634,"current_range_meters":21200,"station_id":"","pricing_plan_id":"cebpf4jnsgd1na2vs0mg"},{"bike_id":"aaa8a8da-145f-4703-aea6-1e67c559cb52","system_id":"levelo_inurba_marseille","lat":43.305364,"lon":5.384119,"is_reserved":false,"is_disabled":false,"rental_uris":{"android":"levelo://app?vid=aaa8a8da-145f-4703-aea6-1e67c559cb52","ios":"levelo://app?vid=aaa8a8da-145f-4703-aea6-1e67c559cb52"},"vehicle_type_id":"4","last_reported":1719234634,"current_range_meters":18000,"station_id":"ce4bgg92rcd13ifvqb30","pricing_plan_id":"cebpf4jnsgd1na2vs0mg"},{"bike_id":"58a45e59-c2e8-43f7-8c1a-ba0a3bbee4d5","system_id":"levelo_inurba_marseille","lat":43.298433,"lon":5.362774,"is_reserved":false,"is_disabled":false,"rental_uris":{"android":"levelo://app?vid=58a45e59-c2e8-43f7-8c1a-ba0a3bbee4d5","ios":"levelo://app?vid=58a45e59-c2e8-43f7-8c1a-ba0a3bbee4d5"},"vehicle_type_id":"4","last_reported":1719234634,"current_range_meters":6000,"station_id":"ce4bgpp2rcd13ifvqc3g","pricing_plan_id":"cebpf4jnsgd1na2vs0mg"},{"bike_id":"61eba4e4-65a3-4688-be04-74e023c8c902","system_id":"levelo_inurba_marseille","lat":43.298433,"lon":5.362774,"is_reserved":false,"is_disabled":false,"rental_uris":{"android":"levelo://app?vid=61eba4e4-65a3-4688-be04-74e023c8c902","ios":"levelo://app?vid=61eba4e4-65a3-4688-be04-74e023c8c902"},"vehicle_type_id":"4","last_reported":1719234634,"current_range_meters":18800,"station_id":"ce4bgpp2rcd13ifvqc3g","pricing_plan_id":"cebpf4jnsgd1na2vs0mg"},{"bike_id":"e3b234bd-53ac-4686-9c10-52ca3bee5b88","system_id":"levelo_inurba_marseille","lat":43.299243,"lon":5.37481,"is_reserved":false,"is_disabled":false,"rental_uris":{"android":"levelo://app?vid=e3b234bd-53ac-4686-9c10-52ca3bee5b88","ios":"levelo://app?vid=e3b234bd-53ac-4686-9c10-52ca3bee5b88"},"vehicle_type_id":"4","last_reported":1719234634,"current_range_meters":8000,"station_id":"ce4bgjh2rcd13ifvqbg0","pricing_plan_id":"cebpf4jnsgd1na2vs0mg"},{"bike_id":"468129d1-61fd-4d9f-9008-cde21cbb69dc","system_id":"levelo_inurba_marseille","lat":43.299243,"lon":5.37481,"is_reserved":false,"is_disabled":false,"rental_uris":{"android":"levelo://app?vid=468129d1-61fd-4d9f-9008-cde21cbb69dc","ios":"levelo://app?vid=468129d1-61fd-4d9f-9008-cde21cbb69dc"},"vehicle_type_id":"4","last_reported":1719234634,"current_range_meters":13200,"station_id":"ce4bgjh2rcd13ifvqbg0","pricing_plan_id":"cebpf4jnsgd1na2vs0mg"},{"bike_id":"736dd3b8-8ac0-4698-bf74-2ac77473b449","system_id":"levelo_inurba_marseille","lat":43.311722,"lon":5.387247,"is_reserved":false,"is_disabled":false,"rental_uris":{"android":"levelo://app?vid=736dd3b8-8ac0-4698-bf74-2ac77473b449","ios":"levelo://app?vid=736dd3b8-8ac0-4698-bf74-2ac77473b449"},"vehicle_type_id":"4","last_reported":1719234634,"current_range_meters":24000,"station_id":"ce4bgv12rcd13ifvqcp0","pricing_plan_id":"cebpf4jnsgd1na2vs0mg"},{"bike_id":"9a1923d5-d51b-496b-a7e2-7c88d710823b","system_id":"levelo_inurba_marseille","lat":43.313571,"lon":5.384829,"is_reserved":false,"is_disabled":false,"rental_uris":{"android":"levelo://app?vid=9a1923d5-d51b-496b-a7e2-7c88d710823b","ios":"levelo://app?vid=9a1923d5-d51b-496b-a7e2-7c88d710823b"},"vehicle_type_id":"4","last_reported":1719234634,"current_range_meters":0,"station_id":"ce4bgt92rcd13ifvqcf0","pricing_plan_id":"cebpf4jnsgd1na2vs0mg"},{"bike_id":"f48c0870-b7f2-43e0-acc3-0888ebd13258","system_id":"levelo_inurba_marseille","lat":43.297163,"lon":5.365866,"is_reserved":false,"is_disabled":false,"rental_uris":{"android":"levelo://app?vid=f48c0870-b7f2-43e0-acc3-0888ebd13258","ios":"levelo://app?vid=f48c0870-b7f2-43e0-acc3-0888ebd13258"},"vehicle_type_id":"4","last_reported":1719234634,"current_range_meters":27200,"station_id":"ce4bgn12rcd13ifvqbt0","pricing_plan_id":"cebpf4jnsgd1na2vs0mg"},{"bike_id":"e3274259-3eec-4a29-a6f1-4ef32000d9df","system_id":"levelo_inurba_marseille","lat":43.297163,"lon":5.365866,"is_reserved":false,"is_disabled":false,"rental_uris":{"android":"levelo://app?vid=e3274259-3eec-4a29-a6f1-4ef32000d9df","ios":"levelo://app?vid=e3274259-3eec-4a29-a6f1-4ef32000d9df"},"vehicle_type_id":"4","last_reported":1719234634,"current_range_meters":23600,"station_id":"ce4bgn12rcd13ifvqbt0","pricing_plan_id":"cebpf4jnsgd1na2vs0mg"},{"bike_id":"41ac9ccd-c7ea-47e2-9b62-b00c1ef9699a","system_id":"levelo_inurba_marseille","lat":43.297163,"lon":5.365866,"is_reserved":false,"is_disabled":false,"rental_uris":{"android":"levelo://app?vid=41ac9ccd-c7ea-47e2-9b62-b00c1ef9699a","ios":"levelo://app?vid=41ac9ccd-c7ea-47e2-9b62-b00c1ef9699a"},"vehicle_type_id":"4","last_reported":1719234634,"current_range_meters":20800,"station_id":"ce4bgn12rcd13ifvqbt0","pricing_plan_id":"cebpf4jnsgd1na2vs0mg"},{"bike_id":"5c08dae8-5d84-4a2b-b3d0-8749dea59a71","system_id":"levelo_inurba_marseille","lat":43.297163,"lon":5.365866,"is_reserved":false,"is_disabled":false,"rental_uris":{"android":"levelo://app?vid=5c08dae8-5d84-4a2b-b3d0-8749dea59a71","ios":"levelo://app?vid=5c08dae8-5d84-4a2b-b3d0-8749dea59a71"},"vehicle_type_id":"4","last_reported":1719234634,"current_range_meters":29600,"station_id":"ce4bgn12rcd13ifvqbt0","pricing_plan_id":"cebpf4jnsgd1na2vs0mg"},{"bike_id":"9c6e2a17-b4d7-4558-b7a5-4e6a2db8c24b","system_id":"levelo_inurba_marseille","lat":43.2968,"lon":5.37291,"is_reserved":false,"is_disabled":false,"rental_uris":{"android":"levelo://app?vid=9c6e2a17-b4d7-4558-b7a5-4e6a2db8c24b","ios":"levelo://app?vid=9c6e2a17-b4d7-4558-b7a5-4e6a2db8c24b"},"vehicle_type_id":"4","last_reported":1719234634,"current_range_meters":0,"station_id":"ce4bgk12rcd13ifvqbj0","pricing_plan_id":"cebpf4jnsgd1na2vs0mg"},{"bike_id":"8f79ec5b-5edc-40b2-a718-d9829c464d08","system_id":"levelo_inurba_marseille","lat":43.296921,"lon":5.376579,"is_reserved":false,"is_disabled":false,"rental_uris":{"android":"levelo://app?vid=8f79ec5b-5edc-40b2-a718-d9829c464d08","ios":"levelo://app?vid=8f79ec5b-5edc-40b2-a718-d9829c464d08"},"vehicle_type_id":"4","last_reported":1719234634,"current_range_meters":28400,"station_id":"ce4bgkh2rcd13ifvqbl0","pricing_plan_id":"cebpf4jnsgd1na2vs0mg"},{"bike_id":"1be79fc4-e04d-4a5b-9ce6-3b3cda931e81","system_id":"levelo_inurba_marseille","lat":43.296921,"lon":5.376579,"is_reserved":false,"is_disabled":false,"rental_uris":{"android":"levelo://app?vid=1be79fc4-e04d-4a5b-9ce6-3b3cda931e81","ios":"levelo://app?vid=1be79fc4-e04d-4a5b-9ce6-3b3cda931e81"},"vehicle_type_id":"4","last_reported":1719234634,"current_range_meters":8000,"station_id":"ce4bgkh2rcd13ifvqbl0","pricing_plan_id":"cebpf4jnsgd1na2vs0mg"},{"bike_id":"44f9f5a5-c0e1-4971-b785-23e9c122a157","system_id":"levelo_inurba_marseille","lat":43.296921,"lon":5.376579,"is_reserved":false,"is_disabled":false,"rental_uris":{"android":"levelo://app?vid=44f9f5a5-c0e1-4971-b785-23e9c122a157","ios":"levelo://app?vid=44f9f5a5-c0e1-4971-b785-23e9c122a157"},"vehicle_type_id":"4","last_reported":1719234634,"current_range_meters":27200,"station_id":"ce4bgkh2rcd13ifvqbl0","pricing_plan_id":"cebpf4jnsgd1na2vs0mg"},{"bike_id":"4fbf2c68-e3de-43a7-b1c3-77d6be104f9c","system_id":"levelo_inurba_marseille","lat":43.296935,"lon":5.376544,"is_reserved":false,"is_disabled":false,"rental_uris":{"android":"levelo://app?vid=4fbf2c68-e3de-43a7-b1c3-77d6be104f9c","ios":"levelo://app?vid=4fbf2c68-e3de-43a7-b1c3-77d6be104f9c"},"vehicle_type_id":"4","last_reported":1719234634,"current_range_meters":24400,"station_id":"ce4bgkh2rcd13ifvqbl0","pricing_plan_id":"cebpf4jnsgd1na2vs0mg"},{"bike_id":"b5a4d4f4-70fe-4de6-9204-54c0bede0ef5","system_id":"levelo_inurba_marseille","lat":43.309589,"lon":5.390258,"is_reserved":false,"is_disabled":false,"rental_uris":{"android":"levelo://app?vid=b5a4d4f4-70fe-4de6-9204-54c0bede0ef5","ios":"levelo://app?vid=b5a4d4f4-70fe-4de6-9204-54c0bede0ef5"},"vehicle_type_id":"4","last_reported":1719234634,"current_range_meters":14000,"station_id":"ce4bgup2rcd13ifvqco0","pricing_plan_id":"cebpf4jnsgd1na2vs0mg"},{"bike_id":"096a2e25-27ee-4a6e-b3e7-bc5cb528c9de","system_id":"levelo_inurba_marseille","lat":43.309589,"lon":5.390258,"is_reserved":false,"is_disabled":false,"rental_uris":{"android":"levelo://app?vid=096a2e25-27ee-4a6e-b3e7-bc5cb528c9de","ios":"levelo://app?vid=096a2e25-27ee-4a6e-b3e7-bc5cb528c9de"},"vehicle_type_id":"4","last_reported":1719234634,"current_range_meters":28000,"station_id":"ce4bgup2rcd13ifvqco0","pricing_plan_id":"cebpf4jnsgd1na2vs0mg"},{"bike_id":"8e0c8a81-ba8f-428a-a759-64cbe90289cc","system_id":"levelo_inurba_marseille","lat":43.317557,"lon":5.390173,"is_reserved":false,"is_disabled":false,"rental_uris":{"android":"levelo://app?vid=8e0c8a81-ba8f-428a-a759-64cbe90289cc","ios":"levelo://app?vid=8e0c8a81-ba8f-428a-a759-64cbe90289cc"},"vehicle_type_id":"4","last_reported":1719234634,"current_range_meters":8800,"station_id":"ce4bhqp2rcd13ifvqhng","pricing_plan_id":"cebpf4jnsgd1na2vs0mg"},{"bike_id":"641c0105-0d82-4e6d-bb95-9ecf53c6767e","system_id":"levelo_inurba_marseille","lat":43.295748,"lon":5.37522,"is_reserved":false,"is_disabled":false,"rental_uris":{"android":"levelo://app?vid=641c0105-0d82-4e6d-bb95-9ecf53c6767e","ios":"levelo://app?vid=641c0105-0d82-4e6d-bb95-9ecf53c6767e"},"vehicle_type_id":"4","last_reported":1719234634,"current_range_meters":20800,"station_id":"ce4bgh92rcd13ifvqb50","pricing_plan_id":"cebpf4jnsgd1na2vs0mg"},{"bike_id":"c8e4ea46-d258-4580-9448-1abd88d1ba5e","system_id":"levelo_inurba_marseille","lat":43.29579,"lon":5.37508,"is_reserved":false,"is_disabled":false,"rental_uris":{"android":"levelo://app?vid=c8e4ea46-d258-4580-9448-1abd88d1ba5e","ios":"levelo://app?vid=c8e4ea46-d258-4580-9448-1abd88d1ba5e"},"vehicle_type_id":"4","last_reported":1719234634,"current_range_meters":7600,"station_id":"ce4bgh92rcd13ifvqb50","pricing_plan_id":"cebpf4jnsgd1na2vs0mg"},{"bike_id":"d942aa0c-b88b-4e1f-85a1-d727586e178e","system_id":"levelo_inurba_marseille","lat":43.29574,"lon":5.37518,"is_reserved":false,"is_disabled":false,"rental_uris":{"android":"levelo://app?vid=d942aa0c-b88b-4e1f-85a1-d727586e178e","ios":"levelo://app?vid=d942aa0c-b88b-4e1f-85a1-d727586e178e"},"vehicle_type_id":"4","last_reported":1719234634,"current_range_meters":29200,"station_id":"ce4bgh92rcd13ifvqb50","pricing_plan_id":"cebpf4jnsgd1na2vs0mg"},{"bike_id":"fa06c622-a5df-4cdc-8091-24dd7a36f754","system_id":"levelo_inurba_marseille","lat":43.295748,"lon":5.37522,"is_reserved":false,"is_disabled":false,"rental_uris":{"android":"levelo://app?vid=fa06c622-a5df-4cdc-8091-24dd7a36f754","ios":"levelo://app?vid=fa06c622-a5df-4cdc-8091-24dd7a36f754"},"vehicle_type_id":"4","last_reported":1719234634,"current_range_meters":0,"station_id":"ce4bgh92rcd13ifvqb50","pricing_plan_id":"cebpf4jnsgd1na2vs0mg"},{"bike_id":"73be07a4-eac5-4971-8cab-fccbc1983067","system_id":"levelo_inurba_marseille","lat":43.304278,"lon":5.388868,"is_reserved":false,"is_disabled":false,"rental_uris":{"android":"levelo://app?vid=73be07a4-eac5-4971-8cab-fccbc1983067","ios":"levelo://app?vid=73be07a4-eac5-4971-8cab-fccbc1983067"},"vehicle_type_id":"4","last_reported":1719234634,"current_range_meters":23200,"station_id":"ce4bgk12rcd13ifvqbi0","pricing_plan_id":"cebpf4jnsgd1na2vs0mg"},{"bike_id":"88bbc824-e319-4b84-90ba-6bc5e44f7882","system_id":"levelo_inurba_marseille","lat":43.295657,"lon":5.37515,"is_reserved":false,"is_disabled":false,"rental_uris":{"android":"levelo://app?vid=88bbc824-e319-4b84-90ba-6bc5e44f7882","ios":"levelo://app?vid=88bbc824-e319-4b84-90ba-6bc5e44f7882"},"vehicle_type_id":"4","last_reported":1719234634,"current_range_meters":20800,"station_id":"ce4bgh92rcd13ifvqb50","pricing_plan_id":"cebpf4jnsgd1na2vs0mg"},{"bike_id":"41d600ae-a37c-4ade-a492-96b5db8c5efb","system_id":"levelo_inurba_marseille","lat":43.304274,"lon":5.388873,"is_reserved":false,"is_disabled":false,"rental_uris":{"android":"levelo://app?vid=41d600ae-a37c-4ade-a492-96b5db8c5efb","ios":"levelo://app?vid=41d600ae-a37c-4ade-a492-96b5db8c5efb"},"vehicle_type_id":"4","last_reported":1719234634,"current_range_meters":1200,"station_id":"ce4bgk12rcd13ifvqbi0","pricing_plan_id":"cebpf4jnsgd1na2vs0mg"},{"bike_id":"ce9fa7d3-de66-40bf-8123-473c8940ce58","system_id":"levelo_inurba_marseille","lat":43.296263,"lon":5.377094,"is_reserved":false,"is_disabled":false,"rental_uris":{"android":"levelo://app?vid=ce9fa7d3-de66-40bf-8123-473c8940ce58","ios":"levelo://app?vid=ce9fa7d3-de66-40bf-8123-473c8940ce58"},"vehicle_type_id":"4","last_reported":1719234634,"current_range_meters":31200,"station_id":"ce4bgi92rcd13ifvqb90","pricing_plan_id":"cebpf4jnsgd1na2vs0mg"},{"bike_id":"3a0abd10-3dfb-4673-9786-03a152366e95","system_id":"levelo_inurba_marseille","lat":43.304274,"lon":5.388873,"is_reserved":false,"is_disabled":false,"rental_uris":{"android":"levelo://app?vid=3a0abd10-3dfb-4673-9786-03a152366e95","ios":"levelo://app?vid=3a0abd10-3dfb-4673-9786-03a152366e95"},"vehicle_type_id":"4","last_reported":1719234634,"current_range_meters":11200,"station_id":"ce4bgk12rcd13ifvqbi0","pricing_plan_id":"cebpf4jnsgd1na2vs0mg"},{"bike_id":"de66ca2c-4076-4b98-9a70-1d93e81feb7d","system_id":"levelo_inurba_marseille","lat":43.295279,"lon":5.375048,"is_reserved":false,"is_disabled":false,"rental_uris":{"android":"levelo://app?vid=de66ca2c-4076-4b98-9a70-1d93e81feb7d","ios":"levelo://app?vid=de66ca2c-4076-4b98-9a70-1d93e81feb7d"},"vehicle_type_id":"4","last_reported":1719234634,"current_range_meters":15600,"station_id":"ce4bgkp2rcd13ifvqbmg","pricing_plan_id":"cebpf4jnsgd1na2vs0mg"},{"bike_id":"d297cba4-e14d-44d0-9b20-887e6d4df984","system_id":"levelo_inurba_marseille","lat":43.295279,"lon":5.375048,"is_reserved":false,"is_disabled":false,"rental_uris":{"android":"levelo://app?vid=d297cba4-e14d-44d0-9b20-887e6d4df984","ios":"levelo://app?vid=d297cba4-e14d-44d0-9b20-887e6d4df984"},"vehicle_type_id":"4","last_reported":1719234634,"current_range_meters":9600,"station_id":"ce4bgkp2rcd13ifvqbmg","pricing_plan_id":"cebpf4jnsgd1na2vs0mg"},{"bike_id":"318bf4f7-5c9b-4ccd-8d86-f34ec98a0191","system_id":"levelo_inurba_marseille","lat":43.295279,"lon":5.375048,"is_reserved":false,"is_disabled":false,"rental_uris":{"android":"levelo://app?vid=318bf4f7-5c9b-4ccd-8d86-f34ec98a0191","ios":"levelo://app?vid=318bf4f7-5c9b-4ccd-8d86-f34ec98a0191"},"vehicle_type_id":"4","last_reported":1719234634,"current_range_meters":5600,"station_id":"ce4bgkp2rcd13ifvqbmg","pricing_plan_id":"cebpf4jnsgd1na2vs0mg"},{"bike_id":"9952a341-4bbd-408e-b224-3163c2b0f9ce","system_id":"levelo_inurba_marseille","lat":43.29518,"lon":5.37509,"is_reserved":false,"is_disabled":false,"rental_uris":{"android":"levelo://app?vid=9952a341-4bbd-408e-b224-3163c2b0f9ce","ios":"levelo://app?vid=9952a341-4bbd-408e-b224-3163c2b0f9ce"},"vehicle_type_id":"4","last_reported":1719234634,"current_range_meters":12800,"station_id":"ce4bgkp2rcd13ifvqbmg","pricing_plan_id":"cebpf4jnsgd1na2vs0mg"},{"bike_id":"8e363c7f-cff1-4360-be48-41bd261fd8fc","system_id":"levelo_inurba_marseille","lat":43.299724,"lon":5.384848,"is_reserved":false,"is_disabled":false,"rental_uris":{"android":"levelo://app?vid=8e363c7f-cff1-4360-be48-41bd261fd8fc","ios":"levelo://app?vid=8e363c7f-cff1-4360-be48-41bd261fd8fc"},"vehicle_type_id":"4","last_reported":1719234634,"current_range_meters":16400,"station_id":"ce4bgj92rcd13ifvqbd0","pricing_plan_id":"cebpf4jnsgd1na2vs0mg"},{"bike_id":"8fb4eacf-df5d-4077-84d0-c3796492a109","system_id":"levelo_inurba_marseille","lat":43.29963,"lon":5.38502,"is_reserved":false,"is_disabled":false,"rental_uris":{"android":"levelo://app?vid=8fb4eacf-df5d-4077-84d0-c3796492a109","ios":"levelo://app?vid=8fb4eacf-df5d-4077-84d0-c3796492a109"},"vehicle_type_id":"4","last_reported":1719234634,"current_range_meters":0,"station_id":"ce4bgj92rcd13ifvqbd0","pricing_plan_id":"cebpf4jnsgd1na2vs0mg"},{"bike_id":"68af31b3-a5ab-46e6-a645-3f9995197013","system_id":"levelo_inurba_marseille","lat":43.29602,"lon":5.381084,"is_reserved":false,"is_disabled":false,"rental_uris":{"android":"levelo://app?vid=68af31b3-a5ab-46e6-a645-3f9995197013","ios":"levelo://app?vid=68af31b3-a5ab-46e6-a645-3f9995197013"},"vehicle_type_id":"4","last_reported":1719234634,"current_range_meters":6000,"station_id":"ce4bgl12rcd13ifvqbo0","pricing_plan_id":"cebpf4jnsgd1na2vs0mg"},{"bike_id":"abd4df09-6573-4e6f-a956-cd33ee575eab","system_id":"levelo_inurba_marseille","lat":43.29602,"lon":5.381084,"is_reserved":false,"is_disabled":false,"rental_uris":{"android":"levelo://app?vid=abd4df09-6573-4e6f-a956-cd33ee575eab","ios":"levelo://app?vid=abd4df09-6573-4e6f-a956-cd33ee575eab"},"vehicle_type_id":"4","last_reported":1719234634,"current_range_meters":7600,"station_id":"ce4bgl12rcd13ifvqbo0","pricing_plan_id":"cebpf4jnsgd1na2vs0mg"},{"bike_id":"7eb88106-76ea-4cf5-b63a-397050f44248","system_id":"levelo_inurba_marseille","lat":43.29602,"lon":5.381084,"is_reserved":false,"is_disabled":false,"rental_uris":{"android":"levelo://app?vid=7eb88106-76ea-4cf5-b63a-397050f44248","ios":"levelo://app?vid=7eb88106-76ea-4cf5-b63a-397050f44248"},"vehicle_type_id":"4","last_reported":1719234634,"current_range_meters":21200,"station_id":"ce4bgl12rcd13ifvqbo0","pricing_plan_id":"cebpf4jnsgd1na2vs0mg"},{"bike_id":"7f2cd1bd-46ec-4c6f-94f6-7b0b00aa5c83","system_id":"levelo_inurba_marseille","lat":43.29602,"lon":5.381084,"is_reserved":false,"is_disabled":false,"rental_uris":{"android":"levelo://app?vid=7f2cd1bd-46ec-4c6f-94f6-7b0b00aa5c83","ios":"levelo://app?vid=7f2cd1bd-46ec-4c6f-94f6-7b0b00aa5c83"},"vehicle_type_id":"4","last_reported":1719234634,"current_range_meters":6400,"station_id":"ce4bgl12rcd13ifvqbo0","pricing_plan_id":"cebpf4jnsgd1na2vs0mg"},{"bike_id":"75b3ba5b-2ff0-4071-abeb-9f42494ca066","system_id":"levelo_inurba_marseille","lat":43.29602,"lon":5.381084,"is_reserved":false,"is_disabled":false,"rental_uris":{"android":"levelo://app?vid=75b3ba5b-2ff0-4071-abeb-9f42494ca066","ios":"levelo://app?vid=75b3ba5b-2ff0-4071-abeb-9f42494ca066"},"vehicle_type_id":"4","last_reported":1719234634,"current_range_meters":9200,"station_id":"ce4bgl12rcd13ifvqbo0","pricing_plan_id":"cebpf4jnsgd1na2vs0mg"},{"bike_id":"439fcc04-291e-45de-a75f-5c2e835f0c6d","system_id":"levelo_inurba_marseille","lat":43.293249,"lon":5.371578,"is_reserved":false,"is_disabled":false,"rental_uris":{"android":"levelo://app?vid=439fcc04-291e-45de-a75f-5c2e835f0c6d","ios":"levelo://app?vid=439fcc04-291e-45de-a75f-5c2e835f0c6d"},"vehicle_type_id":"4","last_reported":1719234634,"current_range_meters":5600,"station_id":"ce4bgh92rcd13ifvqb40","pricing_plan_id":"cebpf4jnsgd1na2vs0mg"},{"bike_id":"7ae52b43-e85c-4c66-b9c2-274c7f85a3c8","system_id":"levelo_inurba_marseille","lat":43.292749,"lon":5.368402,"is_reserved":false,"is_disabled":false,"rental_uris":{"android":"levelo://app?vid=7ae52b43-e85c-4c66-b9c2-274c7f85a3c8","ios":"levelo://app?vid=7ae52b43-e85c-4c66-b9c2-274c7f85a3c8"},"vehicle_type_id":"4","last_reported":1719234634,"current_range_meters":18800,"station_id":"ce4bhbp2rcd13ifvqesg","pricing_plan_id":"cebpf4jnsgd1na2vs0mg"},{"bike_id":"f7c65d02-8113-48eb-9798-ffcd10343558","system_id":"levelo_inurba_marseille","lat":43.293259,"lon":5.371586,"is_reserved":false,"is_disabled":false,"rental_uris":{"android":"levelo://app?vid=f7c65d02-8113-48eb-9798-ffcd10343558","ios":"levelo://app?vid=f7c65d02-8113-48eb-9798-ffcd10343558"},"vehicle_type_id":"4","last_reported":1719234634,"current_range_meters":22000,"station_id":"ce4bgh92rcd13ifvqb40","pricing_plan_id":"cebpf4jnsgd1na2vs0mg"},{"bike_id":"a080ee12-7f12-47a0-8600-3a7762e31c6a","system_id":"levelo_inurba_marseille","lat":43.293009,"lon":5.374584,"is_reserved":false,"is_disabled":false,"rental_uris":{"android":"levelo://app?vid=a080ee12-7f12-47a0-8600-3a7762e31c6a","ios":"levelo://app?vid=a080ee12-7f12-47a0-8600-3a7762e31c6a"},"vehicle_type_id":"4","last_reported":1719234634,"current_range_meters":14400,"station_id":"ce4bgi12rcd13ifvqb70","pricing_plan_id":"cebpf4jnsgd1na2vs0mg"},{"bike_id":"f17ec57e-9d07-4198-854c-3935173add77","system_id":"levelo_inurba_marseille","lat":43.305994,"lon":5.393687,"is_reserved":false,"is_disabled":false,"rental_uris":{"android":"levelo://app?vid=f17ec57e-9d07-4198-854c-3935173add77","ios":"levelo://app?vid=f17ec57e-9d07-4198-854c-3935173add77"},"vehicle_type_id":"4","last_reported":1719234634,"current_range_meters":30000,"station_id":"ce4bh0p2rcd13ifvqd80","pricing_plan_id":"cebpf4jnsgd1na2vs0mg"},{"bike_id":"b7c75f6f-98c1-40ba-b394-c04a414d1266","system_id":"levelo_inurba_marseille","lat":43.303002,"lon":5.392142,"is_reserved":false,"is_disabled":false,"rental_uris":{"android":"levelo://app?vid=b7c75f6f-98c1-40ba-b394-c04a414d1266","ios":"levelo://app?vid=b7c75f6f-98c1-40ba-b394-c04a414d1266"},"vehicle_type_id":"4","last_reported":1719234634,"current_range_meters":4400,"station_id":"ce4bgkh2rcd13ifvqbk0","pricing_plan_id":"cebpf4jnsgd1na2vs0mg"},{"bike_id":"5c7db91e-5b04-4160-b9a4-c896b11c5200","system_id":"levelo_inurba_marseille","lat":43.302992,"lon":5.392136,"is_reserved":false,"is_disabled":false,"rental_uris":{"android":"levelo://app?vid=5c7db91e-5b04-4160-b9a4-c896b11c5200","ios":"levelo://app?vid=5c7db91e-5b04-4160-b9a4-c896b11c5200"},"vehicle_type_id":"4","last_reported":1719234634,"current_range_meters":4000,"station_id":"ce4bgkh2rcd13ifvqbk0","pricing_plan_id":"cebpf4jnsgd1na2vs0mg"},{"bike_id":"725446b5-b02a-443e-9d64-115e8d43ce76","system_id":"levelo_inurba_marseille","lat":43.2936,"lon":5.37835,"is_reserved":false,"is_disabled":false,"rental_uris":{"android":"levelo://app?vid=725446b5-b02a-443e-9d64-115e8d43ce76","ios":"levelo://app?vid=725446b5-b02a-443e-9d64-115e8d43ce76"},"vehicle_type_id":"4","last_reported":1719234634,"current_range_meters":15600,"station_id":"ce4bgjh2rcd13ifvqbf0","pricing_plan_id":"cebpf4jnsgd1na2vs0mg"},{"bike_id":"8a7709e6-adb6-4a27-bc77-cdc731a95aa9","system_id":"levelo_inurba_marseille","lat":43.2936,"lon":5.37835,"is_reserved":false,"is_disabled":false,"rental_uris":{"android":"levelo://app?vid=8a7709e6-adb6-4a27-bc77-cdc731a95aa9","ios":"levelo://app?vid=8a7709e6-adb6-4a27-bc77-cdc731a95aa9"},"vehicle_type_id":"4","last_reported":1719234634,"current_range_meters":22400,"station_id":"ce4bgjh2rcd13ifvqbf0","pricing_plan_id":"cebpf4jnsgd1na2vs0mg"},{"bike_id":"e310e4ff-074a-43c9-af97-e4f4f3397c6b","system_id":"levelo_inurba_marseille","lat":43.292311,"lon":5.360731,"is_reserved":false,"is_disabled":false,"rental_uris":{"android":"levelo://app?vid=e310e4ff-074a-43c9-af97-e4f4f3397c6b","ios":"levelo://app?vid=e310e4ff-074a-43c9-af97-e4f4f3397c6b"},"vehicle_type_id":"4","last_reported":1719234634,"current_range_meters":31200,"station_id":"ce4bhbh2rcd13ifvqeqg","pricing_plan_id":"cebpf4jnsgd1na2vs0mg"},{"bike_id":"e2eda2ee-129f-4c2f-a3a5-141f569fc0cf","system_id":"levelo_inurba_marseille","lat":43.298764,"lon":5.388973,"is_reserved":false,"is_disabled":false,"rental_uris":{"android":"levelo://app?vid=e2eda2ee-129f-4c2f-a3a5-141f569fc0cf","ios":"levelo://app?vid=e2eda2ee-129f-4c2f-a3a5-141f569fc0cf"},"vehicle_type_id":"4","last_reported":1719234634,"current_range_meters":3600,"station_id":"ce4bh392rcd13ifvqdl0","pricing_plan_id":"cebpf4jnsgd1na2vs0mg"},{"bike_id":"59343a57-c052-48c3-834c-b663ab098cea","system_id":"levelo_inurba_marseille","lat":43.30085,"lon":5.390856,"is_reserved":false,"is_disabled":false,"rental_uris":{"android":"levelo://app?vid=59343a57-c052-48c3-834c-b663ab098cea","ios":"levelo://app?vid=59343a57-c052-48c3-834c-b663ab098cea"},"vehicle_type_id":"4","last_reported":1719234634,"current_range_meters":19200,"station_id":"ce4bh192rcd13ifvqdb0","pricing_plan_id":"cebpf4jnsgd1na2vs0mg"},{"bike_id":"07393e3b-5d13-48c1-9a8c-5dffcec057ff","system_id":"levelo_inurba_marseille","lat":43.30085,"lon":5.390856,"is_reserved":false,"is_disabled":false,"rental_uris":{"android":"levelo://app?vid=07393e3b-5d13-48c1-9a8c-5dffcec057ff","ios":"levelo://app?vid=07393e3b-5d13-48c1-9a8c-5dffcec057ff"},"vehicle_type_id":"4","last_reported":1719234634,"current_range_meters":6000,"station_id":"ce4bh192rcd13ifvqdb0","pricing_plan_id":"cebpf4jnsgd1na2vs0mg"},{"bike_id":"bad1353a-3540-4e16-8f81-c4064c20f1d6","system_id":"levelo_inurba_marseille","lat":43.29266,"lon":5.37626,"is_reserved":false,"is_disabled":false,"rental_uris":{"android":"levelo://app?vid=bad1353a-3540-4e16-8f81-c4064c20f1d6","ios":"levelo://app?vid=bad1353a-3540-4e16-8f81-c4064c20f1d6"},"vehicle_type_id":"4","last_reported":1719234634,"current_range_meters":0,"station_id":"","pricing_plan_id":"cebpf4jnsgd1na2vs0mg"},{"bike_id":"9ea33398-e964-4cc5-9224-696a0c5921f1","system_id":"levelo_inurba_marseille","lat":43.298764,"lon":5.388973,"is_reserved":false,"is_disabled":false,"rental_uris":{"android":"levelo://app?vid=9ea33398-e964-4cc5-9224-696a0c5921f1","ios":"levelo://app?vid=9ea33398-e964-4cc5-9224-696a0c5921f1"},"vehicle_type_id":"4","last_reported":1719234634,"current_range_meters":6400,"station_id":"ce4bh392rcd13ifvqdl0","pricing_plan_id":"cebpf4jnsgd1na2vs0mg"},{"bike_id":"50701329-165f-46fd-a6a7-558379734efa","system_id":"levelo_inurba_marseille","lat":43.291671,"lon":5.371575,"is_reserved":false,"is_disabled":false,"rental_uris":{"android":"levelo://app?vid=50701329-165f-46fd-a6a7-558379734efa","ios":"levelo://app?vid=50701329-165f-46fd-a6a7-558379734efa"},"vehicle_type_id":"4","last_reported":1719234634,"current_range_meters":24800,"station_id":"ce4bha92rcd13ifvqeh0","pricing_plan_id":"cebpf4jnsgd1na2vs0mg"},{"bike_id":"ec0b1ebe-32c0-472c-94e5-35bf63e21234","system_id":"levelo_inurba_marseille","lat":43.292005,"lon":5.357875,"is_reserved":false,"is_disabled":false,"rental_uris":{"android":"levelo://app?vid=ec0b1ebe-32c0-472c-94e5-35bf63e21234","ios":"levelo://app?vid=ec0b1ebe-32c0-472c-94e5-35bf63e21234"},"vehicle_type_id":"4","last_reported":1719234634,"current_range_meters":1200,"station_id":"ce4bhb12rcd13ifvqel0","pricing_plan_id":"cebpf4jnsgd1na2vs0mg"},{"bike_id":"e295e7ed-83fa-4595-9ad8-0566a871cc06","system_id":"levelo_inurba_marseille","lat":43.292005,"lon":5.357875,"is_reserved":false,"is_disabled":false,"rental_uris":{"android":"levelo://app?vid=e295e7ed-83fa-4595-9ad8-0566a871cc06","ios":"levelo://app?vid=e295e7ed-83fa-4595-9ad8-0566a871cc06"},"vehicle_type_id":"4","last_reported":1719234634,"current_range_meters":10400,"station_id":"ce4bhb12rcd13ifvqel0","pricing_plan_id":"cebpf4jnsgd1na2vs0mg"},{"bike_id":"d4a7ee21-291a-44a0-9284-e4cf6472c9cd","system_id":"levelo_inurba_marseille","lat":43.313291,"lon":5.396838,"is_reserved":false,"is_disabled":false,"rental_uris":{"android":"levelo://app?vid=d4a7ee21-291a-44a0-9284-e4cf6472c9cd","ios":"levelo://app?vid=d4a7ee21-291a-44a0-9284-e4cf6472c9cd"},"vehicle_type_id":"4","last_reported":1719234634,"current_range_meters":21600,"station_id":"ce4bgvp2rcd13ifvqcu0","pricing_plan_id":"cebpf4jnsgd1na2vs0mg"},{"bike_id":"c10bf1a4-1338-4860-a85f-1b811685b2cb","system_id":"levelo_inurba_marseille","lat":43.309047,"lon":5.396551,"is_reserved":false,"is_disabled":false,"rental_uris":{"android":"levelo://app?vid=c10bf1a4-1338-4860-a85f-1b811685b2cb","ios":"levelo://app?vid=c10bf1a4-1338-4860-a85f-1b811685b2cb"},"vehicle_type_id":"4","last_reported":1719234634,"current_range_meters":29200,"station_id":"ce4bh012rcd13ifvqcv0","pricing_plan_id":"cebpf4jnsgd1na2vs0mg"},{"bike_id":"01328cf5-48e4-4cee-adcc-52c17ebff01a","system_id":"levelo_inurba_marseille","lat":43.309047,"lon":5.396551,"is_reserved":false,"is_disabled":false,"rental_uris":{"android":"levelo://app?vid=01328cf5-48e4-4cee-adcc-52c17ebff01a","ios":"levelo://app?vid=01328cf5-48e4-4cee-adcc-52c17ebff01a"},"vehicle_type_id":"4","last_reported":1719234634,"current_range_meters":28400,"station_id":"ce4bh012rcd13ifvqcv0","pricing_plan_id":"cebpf4jnsgd1na2vs0mg"},{"bike_id":"8ecdb498-04b1-4118-aaf8-e101e246964a","system_id":"levelo_inurba_marseille","lat":43.33211,"lon":5.38093,"is_reserved":false,"is_disabled":false,"rental_uris":{"android":"levelo://app?vid=8ecdb498-04b1-4118-aaf8-e101e246964a","ios":"levelo://app?vid=8ecdb498-04b1-4118-aaf8-e101e246964a"},"vehicle_type_id":"4","last_reported":1719234634,"current_range_meters":0,"station_id":"","pricing_plan_id":"cebpf4jnsgd1na2vs0mg"},{"bike_id":"ff86de5c-b9e1-4513-9f12-826451551176","system_id":"levelo_inurba_marseille","lat":43.313291,"lon":5.396838,"is_reserved":false,"is_disabled":false,"rental_uris":{"android":"levelo://app?vid=ff86de5c-b9e1-4513-9f12-826451551176","ios":"levelo://app?vid=ff86de5c-b9e1-4513-9f12-826451551176"},"vehicle_type_id":"4","last_reported":1719234634,"current_range_meters":21600,"station_id":"ce4bgvp2rcd13ifvqcu0","pricing_plan_id":"cebpf4jnsgd1na2vs0mg"},{"bike_id":"dceadd9e-5174-4e3b-a495-1c6be31906df","system_id":"levelo_inurba_marseille","lat":43.309038,"lon":5.396546,"is_reserved":false,"is_disabled":false,"rental_uris":{"android":"levelo://app?vid=dceadd9e-5174-4e3b-a495-1c6be31906df","ios":"levelo://app?vid=dceadd9e-5174-4e3b-a495-1c6be31906df"},"vehicle_type_id":"4","last_reported":1719234634,"current_range_meters":21200,"station_id":"ce4bh012rcd13ifvqcv0","pricing_plan_id":"cebpf4jnsgd1na2vs0mg"},{"bike_id":"cd99e4bd-9d21-4f72-ba6c-ee9f499bf44c","system_id":"levelo_inurba_marseille","lat":43.309047,"lon":5.396551,"is_reserved":false,"is_disabled":false,"rental_uris":{"android":"levelo://app?vid=cd99e4bd-9d21-4f72-ba6c-ee9f499bf44c","ios":"levelo://app?vid=cd99e4bd-9d21-4f72-ba6c-ee9f499bf44c"},"vehicle_type_id":"4","last_reported":1719234634,"current_range_meters":20400,"station_id":"ce4bh012rcd13ifvqcv0","pricing_plan_id":"cebpf4jnsgd1na2vs0mg"},{"bike_id":"9430638a-6500-45cb-b132-091e7f1dd76f","system_id":"levelo_inurba_marseille","lat":43.309038,"lon":5.396546,"is_reserved":false,"is_disabled":false,"rental_uris":{"android":"levelo://app?vid=9430638a-6500-45cb-b132-091e7f1dd76f","ios":"levelo://app?vid=9430638a-6500-45cb-b132-091e7f1dd76f"},"vehicle_type_id":"4","last_reported":1719234634,"current_range_meters":3200,"station_id":"ce4bh012rcd13ifvqcv0","pricing_plan_id":"cebpf4jnsgd1na2vs0mg"},{"bike_id":"8ba1539a-f191-4ad2-bd34-53a6891349c6","system_id":"levelo_inurba_marseille","lat":43.309038,"lon":5.396546,"is_reserved":false,"is_disabled":false,"rental_uris":{"android":"levelo://app?vid=8ba1539a-f191-4ad2-bd34-53a6891349c6","ios":"levelo://app?vid=8ba1539a-f191-4ad2-bd34-53a6891349c6"},"vehicle_type_id":"4","last_reported":1719234634,"current_range_meters":9600,"station_id":"ce4bh012rcd13ifvqcv0","pricing_plan_id":"cebpf4jnsgd1na2vs0mg"},{"bike_id":"92627152-5855-4ca4-a86b-48fc33cc52bb","system_id":"levelo_inurba_marseille","lat":43.29529,"lon":5.385581,"is_reserved":false,"is_disabled":false,"rental_uris":{"android":"levelo://app?vid=92627152-5855-4ca4-a86b-48fc33cc52bb","ios":"levelo://app?vid=92627152-5855-4ca4-a86b-48fc33cc52bb"},"vehicle_type_id":"4","last_reported":1719234634,"current_range_meters":4000,"station_id":"ce4bgih2rcd13ifvqba0","pricing_plan_id":"cebpf4jnsgd1na2vs0mg"},{"bike_id":"e3f1e6e5-6b7a-456f-9596-d9caab77c08f","system_id":"levelo_inurba_marseille","lat":43.309038,"lon":5.396546,"is_reserved":false,"is_disabled":false,"rental_uris":{"android":"levelo://app?vid=e3f1e6e5-6b7a-456f-9596-d9caab77c08f","ios":"levelo://app?vid=e3f1e6e5-6b7a-456f-9596-d9caab77c08f"},"vehicle_type_id":"4","last_reported":1719234634,"current_range_meters":7200,"station_id":"ce4bh012rcd13ifvqcv0","pricing_plan_id":"cebpf4jnsgd1na2vs0mg"},{"bike_id":"af0c5ac2-bfdb-47a1-8184-4d4f7bab98d0","system_id":"levelo_inurba_marseille","lat":43.290779,"lon":5.371482,"is_reserved":false,"is_disabled":false,"rental_uris":{"android":"levelo://app?vid=af0c5ac2-bfdb-47a1-8184-4d4f7bab98d0","ios":"levelo://app?vid=af0c5ac2-bfdb-47a1-8184-4d4f7bab98d0"},"vehicle_type_id":"4","last_reported":1719234634,"current_range_meters":13200,"station_id":"ce4bh5p2rcd13ifvqe4g","pricing_plan_id":"cebpf4jnsgd1na2vs0mg"},{"bike_id":"93ede900-d133-4305-b4cd-e1a07634f0a7","system_id":"levelo_inurba_marseille","lat":43.302008,"lon":5.394694,"is_reserved":false,"is_disabled":false,"rental_uris":{"android":"levelo://app?vid=93ede900-d133-4305-b4cd-e1a07634f0a7","ios":"levelo://app?vid=93ede900-d133-4305-b4cd-e1a07634f0a7"},"vehicle_type_id":"4","last_reported":1719234634,"current_range_meters":20000,"station_id":"ce4bh0p2rcd13ifvqd70","pricing_plan_id":"cebpf4jnsgd1na2vs0mg"},{"bike_id":"c80a8782-0dae-4fcb-bb5d-d8ad48d90e58","system_id":"levelo_inurba_marseille","lat":43.290624,"lon":5.359245,"is_reserved":false,"is_disabled":false,"rental_uris":{"android":"levelo://app?vid=c80a8782-0dae-4fcb-bb5d-d8ad48d90e58","ios":"levelo://app?vid=c80a8782-0dae-4fcb-bb5d-d8ad48d90e58"},"vehicle_type_id":"4","last_reported":1719234634,"current_range_meters":11200,"station_id":"ce4bha92rcd13ifvqeg0","pricing_plan_id":"cebpf4jnsgd1na2vs0mg"},{"bike_id":"c626d589-2a3e-4055-b1fc-a8095fb140b6","system_id":"levelo_inurba_marseille","lat":43.294153,"lon":5.386305,"is_reserved":false,"is_disabled":false,"rental_uris":{"android":"levelo://app?vid=c626d589-2a3e-4055-b1fc-a8095fb140b6","ios":"levelo://app?vid=c626d589-2a3e-4055-b1fc-a8095fb140b6"},"vehicle_type_id":"4","last_reported":1719234634,"current_range_meters":11600,"station_id":"ce4bh2h2rcd13ifvqdh0","pricing_plan_id":"cebpf4jnsgd1na2vs0mg"},{"bike_id":"3ed95410-a725-4928-ae0f-f0d88c4441bd","system_id":"levelo_inurba_marseille","lat":43.290319,"lon":5.375732,"is_reserved":false,"is_disabled":false,"rental_uris":{"android":"levelo://app?vid=3ed95410-a725-4928-ae0f-f0d88c4441bd","ios":"levelo://app?vid=3ed95410-a725-4928-ae0f-f0d88c4441bd"},"vehicle_type_id":"4","last_reported":1719234634,"current_range_meters":10400,"station_id":"ce4bh692rcd13ifvqe90","pricing_plan_id":"cebpf4jnsgd1na2vs0mg"},{"bike_id":"be39a1f1-cca1-4459-9eb9-c28ed13eb55a","system_id":"levelo_inurba_marseille","lat":43.290319,"lon":5.375732,"is_reserved":false,"is_disabled":false,"rental_uris":{"android":"levelo://app?vid=be39a1f1-cca1-4459-9eb9-c28ed13eb55a","ios":"levelo://app?vid=be39a1f1-cca1-4459-9eb9-c28ed13eb55a"},"vehicle_type_id":"4","last_reported":1719234634,"current_range_meters":29600,"station_id":"ce4bh692rcd13ifvqe90","pricing_plan_id":"cebpf4jnsgd1na2vs0mg"},{"bike_id":"189e105a-ff0c-40c6-ae9c-2c2582e81305","system_id":"levelo_inurba_marseille","lat":43.294162,"lon":5.386292,"is_reserved":false,"is_disabled":false,"rental_uris":{"android":"levelo://app?vid=189e105a-ff0c-40c6-ae9c-2c2582e81305","ios":"levelo://app?vid=189e105a-ff0c-40c6-ae9c-2c2582e81305"},"vehicle_type_id":"4","last_reported":1719234634,"current_range_meters":24000,"station_id":"ce4bh2h2rcd13ifvqdh0","pricing_plan_id":"cebpf4jnsgd1na2vs0mg"},{"bike_id":"f0d3a178-0e97-4943-b996-df92537c005c","system_id":"levelo_inurba_marseille","lat":43.289184,"lon":5.366408,"is_reserved":false,"is_disabled":false,"rental_uris":{"android":"levelo://app?vid=f0d3a178-0e97-4943-b996-df92537c005c","ios":"levelo://app?vid=f0d3a178-0e97-4943-b996-df92537c005c"},"vehicle_type_id":"4","last_reported":1719234634,"current_range_meters":0,"station_id":"ce4bhap2rcd13ifvqek0","pricing_plan_id":"cebpf4jnsgd1na2vs0mg"},{"bike_id":"6ddbbecf-2eeb-4329-b014-65287479f4a5","system_id":"levelo_inurba_marseille","lat":43.292644,"lon":5.384257,"is_reserved":false,"is_disabled":false,"rental_uris":{"android":"levelo://app?vid=6ddbbecf-2eeb-4329-b014-65287479f4a5","ios":"levelo://app?vid=6ddbbecf-2eeb-4329-b014-65287479f4a5"},"vehicle_type_id":"4","last_reported":1719234634,"current_range_meters":16800,"station_id":"ce4bh692rcd13ifvqea0","pricing_plan_id":"cebpf4jnsgd1na2vs0mg"},{"bike_id":"9cf7a8be-8763-4c63-854d-381abbf3e41c","system_id":"levelo_inurba_marseille","lat":43.292642,"lon":5.384254,"is_reserved":false,"is_disabled":false,"rental_uris":{"android":"levelo://app?vid=9cf7a8be-8763-4c63-854d-381abbf3e41c","ios":"levelo://app?vid=9cf7a8be-8763-4c63-854d-381abbf3e41c"},"vehicle_type_id":"4","last_reported":1719234634,"current_range_meters":0,"station_id":"ce4bh692rcd13ifvqea0","pricing_plan_id":"cebpf4jnsgd1na2vs0mg"},{"bike_id":"381a6864-8d32-410b-93e8-70f6cea92736","system_id":"levelo_inurba_marseille","lat":43.290104,"lon":5.356111,"is_reserved":false,"is_disabled":false,"rental_uris":{"android":"levelo://app?vid=381a6864-8d32-410b-93e8-70f6cea92736","ios":"levelo://app?vid=381a6864-8d32-410b-93e8-70f6cea92736"},"vehicle_type_id":"4","last_reported":1719234634,"current_range_meters":16800,"station_id":"ce4bhb92rcd13ifvqen0","pricing_plan_id":"cebpf4jnsgd1na2vs0mg"},{"bike_id":"79420116-be07-4404-bcba-faa77ae139d7","system_id":"levelo_inurba_marseille","lat":43.290104,"lon":5.356111,"is_reserved":false,"is_disabled":false,"rental_uris":{"android":"levelo://app?vid=79420116-be07-4404-bcba-faa77ae139d7","ios":"levelo://app?vid=79420116-be07-4404-bcba-faa77ae139d7"},"vehicle_type_id":"4","last_reported":1719234634,"current_range_meters":25200,"station_id":"ce4bhb92rcd13ifvqen0","pricing_plan_id":"cebpf4jnsgd1na2vs0mg"},{"bike_id":"1178439d-4a65-4e75-9a22-39b4884a6489","system_id":"levelo_inurba_marseille","lat":43.290104,"lon":5.356111,"is_reserved":false,"is_disabled":false,"rental_uris":{"android":"levelo://app?vid=1178439d-4a65-4e75-9a22-39b4884a6489","ios":"levelo://app?vid=1178439d-4a65-4e75-9a22-39b4884a6489"},"vehicle_type_id":"4","last_reported":1719234634,"current_range_meters":800,"station_id":"ce4bhb92rcd13ifvqen0","pricing_plan_id":"cebpf4jnsgd1na2vs0mg"},{"bike_id":"f5a47e1e-c73d-440b-a22f-ce6d6f73b419","system_id":"levelo_inurba_marseille","lat":43.29006,"lon":5.35617,"is_reserved":false,"is_disabled":false,"rental_uris":{"android":"levelo://app?vid=f5a47e1e-c73d-440b-a22f-ce6d6f73b419","ios":"levelo://app?vid=f5a47e1e-c73d-440b-a22f-ce6d6f73b419"},"vehicle_type_id":"4","last_reported":1719234634,"current_range_meters":13200,"station_id":"ce4bhb92rcd13ifvqen0","pricing_plan_id":"cebpf4jnsgd1na2vs0mg"},{"bike_id":"fcd07f08-05b6-4ab7-a233-16ec8e61b582","system_id":"levelo_inurba_marseille","lat":43.290104,"lon":5.356111,"is_reserved":false,"is_disabled":false,"rental_uris":{"android":"levelo://app?vid=fcd07f08-05b6-4ab7-a233-16ec8e61b582","ios":"levelo://app?vid=fcd07f08-05b6-4ab7-a233-16ec8e61b582"},"vehicle_type_id":"4","last_reported":1719234634,"current_range_meters":21600,"station_id":"ce4bhb92rcd13ifvqen0","pricing_plan_id":"cebpf4jnsgd1na2vs0mg"},{"bike_id":"f76fbbb5-beb9-42c0-9ca0-c08ba5c1c9c9","system_id":"levelo_inurba_marseille","lat":43.290104,"lon":5.356111,"is_reserved":false,"is_disabled":false,"rental_uris":{"android":"levelo://app?vid=f76fbbb5-beb9-42c0-9ca0-c08ba5c1c9c9","ios":"levelo://app?vid=f76fbbb5-beb9-42c0-9ca0-c08ba5c1c9c9"},"vehicle_type_id":"4","last_reported":1719234634,"current_range_meters":24000,"station_id":"ce4bhb92rcd13ifvqen0","pricing_plan_id":"cebpf4jnsgd1na2vs0mg"},{"bike_id":"cd839d6a-aba3-4692-a3f8-c53a4dfe7781","system_id":"levelo_inurba_marseille","lat":43.290103,"lon":5.356114,"is_reserved":false,"is_disabled":false,"rental_uris":{"android":"levelo://app?vid=cd839d6a-aba3-4692-a3f8-c53a4dfe7781","ios":"levelo://app?vid=cd839d6a-aba3-4692-a3f8-c53a4dfe7781"},"vehicle_type_id":"4","last_reported":1719234634,"current_range_meters":31200,"station_id":"ce4bhb92rcd13ifvqen0","pricing_plan_id":"cebpf4jnsgd1na2vs0mg"},{"bike_id":"e03732f6-7b2e-47dc-bb66-2166c2fdef14","system_id":"levelo_inurba_marseille","lat":43.290103,"lon":5.356114,"is_reserved":false,"is_disabled":false,"rental_uris":{"android":"levelo://app?vid=e03732f6-7b2e-47dc-bb66-2166c2fdef14","ios":"levelo://app?vid=e03732f6-7b2e-47dc-bb66-2166c2fdef14"},"vehicle_type_id":"4","last_reported":1719234634,"current_range_meters":0,"station_id":"ce4bhb92rcd13ifvqen0","pricing_plan_id":"cebpf4jnsgd1na2vs0mg"},{"bike_id":"e99f05c0-9c10-48cb-bdc7-12ea0df22104","system_id":"levelo_inurba_marseille","lat":43.290995,"lon":5.381361,"is_reserved":false,"is_disabled":false,"rental_uris":{"android":"levelo://app?vid=e99f05c0-9c10-48cb-bdc7-12ea0df22104","ios":"levelo://app?vid=e99f05c0-9c10-48cb-bdc7-12ea0df22104"},"vehicle_type_id":"4","last_reported":1719234634,"current_range_meters":20800,"station_id":"ce4bh512rcd13ifvqe2g","pricing_plan_id":"cebpf4jnsgd1na2vs0mg"},{"bike_id":"737f9a63-6b62-48c5-a28f-1b29bf95531c","system_id":"levelo_inurba_marseille","lat":43.28976,"lon":5.37832,"is_reserved":false,"is_disabled":false,"rental_uris":{"android":"levelo://app?vid=737f9a63-6b62-48c5-a28f-1b29bf95531c","ios":"levelo://app?vid=737f9a63-6b62-48c5-a28f-1b29bf95531c"},"vehicle_type_id":"4","last_reported":1719234634,"current_range_meters":8800,"station_id":"ce4bh9p2rcd13ifvqed0","pricing_plan_id":"cebpf4jnsgd1na2vs0mg"},{"bike_id":"b0f13bd5-402b-4437-8b1c-f5624c6120b8","system_id":"levelo_inurba_marseille","lat":43.330442,"lon":5.389148,"is_reserved":false,"is_disabled":false,"rental_uris":{"android":"levelo://app?vid=b0f13bd5-402b-4437-8b1c-f5624c6120b8","ios":"levelo://app?vid=b0f13bd5-402b-4437-8b1c-f5624c6120b8"},"vehicle_type_id":"4","last_reported":1719234634,"current_range_meters":30800,"station_id":"ce4bhr92rcd13ifvqhrg","pricing_plan_id":"cebpf4jnsgd1na2vs0mg"},{"bike_id":"2aa0e7ed-2b61-4a38-b282-8a065d59c61b","system_id":"levelo_inurba_marseille","lat":43.295169,"lon":5.390426,"is_reserved":false,"is_disabled":false,"rental_uris":{"android":"levelo://app?vid=2aa0e7ed-2b61-4a38-b282-8a065d59c61b","ios":"levelo://app?vid=2aa0e7ed-2b61-4a38-b282-8a065d59c61b"},"vehicle_type_id":"4","last_reported":1719234634,"current_range_meters":28400,"station_id":"ce4bh3p2rcd13ifvqdp0","pricing_plan_id":"cebpf4jnsgd1na2vs0mg"},{"bike_id":"cbff8e2e-87ad-4d9e-a09d-9b1fba1c0aeb","system_id":"levelo_inurba_marseille","lat":43.33729,"lon":5.37468,"is_reserved":false,"is_disabled":false,"rental_uris":{"android":"levelo://app?vid=cbff8e2e-87ad-4d9e-a09d-9b1fba1c0aeb","ios":"levelo://app?vid=cbff8e2e-87ad-4d9e-a09d-9b1fba1c0aeb"},"vehicle_type_id":"0","last_reported":1719234634,"current_range_meters":28400,"station_id":"","pricing_plan_id":"cebpf4jnsgd1na2vs0mg"},{"bike_id":"aa527c2c-31a5-479b-bfbe-daae0d9bb514","system_id":"levelo_inurba_marseille","lat":43.33737,"lon":5.3746,"is_reserved":false,"is_disabled":false,"rental_uris":{"android":"levelo://app?vid=aa527c2c-31a5-479b-bfbe-daae0d9bb514","ios":"levelo://app?vid=aa527c2c-31a5-479b-bfbe-daae0d9bb514"},"vehicle_type_id":"0","last_reported":1719234634,"current_range_meters":18800,"station_id":"","pricing_plan_id":"cebpf4jnsgd1na2vs0mg"},{"bike_id":"bb65fb70-df82-47d8-b27f-438620895501","system_id":"levelo_inurba_marseille","lat":43.33737,"lon":5.374607,"is_reserved":false,"is_disabled":false,"rental_uris":{"android":"levelo://app?vid=bb65fb70-df82-47d8-b27f-438620895501","ios":"levelo://app?vid=bb65fb70-df82-47d8-b27f-438620895501"},"vehicle_type_id":"0","last_reported":1719234634,"current_range_meters":23600,"station_id":"","pricing_plan_id":"cebpf4jnsgd1na2vs0mg"},{"bike_id":"c3ddbe4a-157d-4893-acf1-f1f626a65d21","system_id":"levelo_inurba_marseille","lat":43.337373,"lon":5.374643,"is_reserved":false,"is_disabled":false,"rental_uris":{"android":"levelo://app?vid=c3ddbe4a-157d-4893-acf1-f1f626a65d21","ios":"levelo://app?vid=c3ddbe4a-157d-4893-acf1-f1f626a65d21"},"vehicle_type_id":"0","last_reported":1719234634,"current_range_meters":15600,"station_id":"","pricing_plan_id":"cebpf4jnsgd1na2vs0mg"},{"bike_id":"bd9a6c26-2db3-4e30-92c7-c85ae97147aa","system_id":"levelo_inurba_marseille","lat":43.33739,"lon":5.37469,"is_reserved":false,"is_disabled":false,"rental_uris":{"android":"levelo://app?vid=bd9a6c26-2db3-4e30-92c7-c85ae97147aa","ios":"levelo://app?vid=bd9a6c26-2db3-4e30-92c7-c85ae97147aa"},"vehicle_type_id":"0","last_reported":1719234634,"current_range_meters":30400,"station_id":"","pricing_plan_id":"cebpf4jnsgd1na2vs0mg"},{"bike_id":"9b81675f-44cd-4cbe-9733-2d36a516d8f7","system_id":"levelo_inurba_marseille","lat":43.33741,"lon":5.3746,"is_reserved":false,"is_disabled":false,"rental_uris":{"android":"levelo://app?vid=9b81675f-44cd-4cbe-9733-2d36a516d8f7","ios":"levelo://app?vid=9b81675f-44cd-4cbe-9733-2d36a516d8f7"},"vehicle_type_id":"0","last_reported":1719234634,"current_range_meters":28400,"station_id":"","pricing_plan_id":"cebpf4jnsgd1na2vs0mg"},{"bike_id":"2a0fb516-a307-4861-b129-104556c40f00","system_id":"levelo_inurba_marseille","lat":43.3374,"lon":5.3747,"is_reserved":false,"is_disabled":false,"rental_uris":{"android":"levelo://app?vid=2a0fb516-a307-4861-b129-104556c40f00","ios":"levelo://app?vid=2a0fb516-a307-4861-b129-104556c40f00"},"vehicle_type_id":"0","last_reported":1719234634,"current_range_meters":19600,"station_id":"","pricing_plan_id":"cebpf4jnsgd1na2vs0mg"},{"bike_id":"11da98ef-d0c3-43c2-a7e4-890f2c23ccbc","system_id":"levelo_inurba_marseille","lat":43.33743,"lon":5.374647,"is_reserved":false,"is_disabled":false,"rental_uris":{"android":"levelo://app?vid=11da98ef-d0c3-43c2-a7e4-890f2c23ccbc","ios":"levelo://app?vid=11da98ef-d0c3-43c2-a7e4-890f2c23ccbc"},"vehicle_type_id":"0","last_reported":1719234634,"current_range_meters":22000,"station_id":"","pricing_plan_id":"cebpf4jnsgd1na2vs0mg"},{"bike_id":"8043cc8a-f702-4e45-9523-d56dfd7ee432","system_id":"levelo_inurba_marseille","lat":43.337423,"lon":5.37471,"is_reserved":false,"is_disabled":false,"rental_uris":{"android":"levelo://app?vid=8043cc8a-f702-4e45-9523-d56dfd7ee432","ios":"levelo://app?vid=8043cc8a-f702-4e45-9523-d56dfd7ee432"},"vehicle_type_id":"0","last_reported":1719234634,"current_range_meters":28000,"station_id":"","pricing_plan_id":"cebpf4jnsgd1na2vs0mg"},{"bike_id":"bf709b1a-1e81-4c69-a36a-dfef45d67fee","system_id":"levelo_inurba_marseille","lat":43.33744,"lon":5.37464,"is_reserved":false,"is_disabled":false,"rental_uris":{"android":"levelo://app?vid=bf709b1a-1e81-4c69-a36a-dfef45d67fee","ios":"levelo://app?vid=bf709b1a-1e81-4c69-a36a-dfef45d67fee"},"vehicle_type_id":"0","last_reported":1719234634,"current_range_meters":28000,"station_id":"","pricing_plan_id":"cebpf4jnsgd1na2vs0mg"},{"bike_id":"985eda3a-8205-4c72-8b0d-a44593dd15b5","system_id":"levelo_inurba_marseille","lat":43.337443,"lon":5.374693,"is_reserved":false,"is_disabled":false,"rental_uris":{"android":"levelo://app?vid=985eda3a-8205-4c72-8b0d-a44593dd15b5","ios":"levelo://app?vid=985eda3a-8205-4c72-8b0d-a44593dd15b5"},"vehicle_type_id":"0","last_reported":1719234634,"current_range_meters":22000,"station_id":"","pricing_plan_id":"cebpf4jnsgd1na2vs0mg"},{"bike_id":"a5fa7b9c-1482-48bf-aaf4-096de293d303","system_id":"levelo_inurba_marseille","lat":43.312609,"lon":5.401662,"is_reserved":false,"is_disabled":false,"rental_uris":{"android":"levelo://app?vid=a5fa7b9c-1482-48bf-aaf4-096de293d303","ios":"levelo://app?vid=a5fa7b9c-1482-48bf-aaf4-096de293d303"},"vehicle_type_id":"4","last_reported":1719234634,"current_range_meters":21200,"station_id":"ce4bh092rcd13ifvqd30","pricing_plan_id":"cebpf4jnsgd1na2vs0mg"},{"bike_id":"e2837f26-3bde-488d-9db7-a740823f66cf","system_id":"levelo_inurba_marseille","lat":43.312609,"lon":5.401662,"is_reserved":false,"is_disabled":false,"rental_uris":{"android":"levelo://app?vid=e2837f26-3bde-488d-9db7-a740823f66cf","ios":"levelo://app?vid=e2837f26-3bde-488d-9db7-a740823f66cf"},"vehicle_type_id":"4","last_reported":1719234634,"current_range_meters":400,"station_id":"ce4bh092rcd13ifvqd30","pricing_plan_id":"cebpf4jnsgd1na2vs0mg"},{"bike_id":"00807d1c-5e0c-46cc-99d6-c8367dc71ce2","system_id":"levelo_inurba_marseille","lat":43.337551,"lon":5.374454,"is_reserved":false,"is_disabled":false,"rental_uris":{"android":"levelo://app?vid=00807d1c-5e0c-46cc-99d6-c8367dc71ce2","ios":"levelo://app?vid=00807d1c-5e0c-46cc-99d6-c8367dc71ce2"},"vehicle_type_id":"4","last_reported":1719234634,"current_range_meters":30800,"station_id":"","pricing_plan_id":"cebpf4jnsgd1na2vs0mg"},{"bike_id":"2fd81f47-b28e-4ff5-91a2-474786d7654e","system_id":"levelo_inurba_marseille","lat":43.309234,"lon":5.401522,"is_reserved":false,"is_disabled":false,"rental_uris":{"android":"levelo://app?vid=2fd81f47-b28e-4ff5-91a2-474786d7654e","ios":"levelo://app?vid=2fd81f47-b28e-4ff5-91a2-474786d7654e"},"vehicle_type_id":"4","last_reported":1719234634,"current_range_meters":0,"station_id":"ce4bgvp2rcd13ifvqct0","pricing_plan_id":"cebpf4jnsgd1na2vs0mg"},{"bike_id":"c25a3696-e1cc-43ba-8656-23d4a118ee2e","system_id":"levelo_inurba_marseille","lat":43.33752,"lon":5.37471,"is_reserved":false,"is_disabled":false,"rental_uris":{"android":"levelo://app?vid=c25a3696-e1cc-43ba-8656-23d4a118ee2e","ios":"levelo://app?vid=c25a3696-e1cc-43ba-8656-23d4a118ee2e"},"vehicle_type_id":"0","last_reported":1719234634,"current_range_meters":28800,"station_id":"","pricing_plan_id":"cebpf4jnsgd1na2vs0mg"},{"bike_id":"a1491df4-5c24-403d-8f06-ee027124213c","system_id":"levelo_inurba_marseille","lat":43.30642,"lon":5.401031,"is_reserved":false,"is_disabled":false,"rental_uris":{"android":"levelo://app?vid=a1491df4-5c24-403d-8f06-ee027124213c","ios":"levelo://app?vid=a1491df4-5c24-403d-8f06-ee027124213c"},"vehicle_type_id":"4","last_reported":1719234634,"current_range_meters":22800,"station_id":"ce4bh112rcd13ifvqda0","pricing_plan_id":"cebpf4jnsgd1na2vs0mg"},{"bike_id":"00e6ee78-d4b5-4e03-ace9-36eb15a8a82f","system_id":"levelo_inurba_marseille","lat":43.301117,"lon":5.398795,"is_reserved":false,"is_disabled":false,"rental_uris":{"android":"levelo://app?vid=00e6ee78-d4b5-4e03-ace9-36eb15a8a82f","ios":"levelo://app?vid=00e6ee78-d4b5-4e03-ace9-36eb15a8a82f"},"vehicle_type_id":"4","last_reported":1719234634,"current_range_meters":0,"station_id":"ce4bh0h2rcd13ifvqd40","pricing_plan_id":"cebpf4jnsgd1na2vs0mg"},{"bike_id":"e1b86361-2051-4626-89e8-9ba3e103e6dc","system_id":"levelo_inurba_marseille","lat":43.28727,"lon":5.36078,"is_reserved":false,"is_disabled":false,"rental_uris":{"android":"levelo://app?vid=e1b86361-2051-4626-89e8-9ba3e103e6dc","ios":"levelo://app?vid=e1b86361-2051-4626-89e8-9ba3e103e6dc"},"vehicle_type_id":"4","last_reported":1719234634,"current_range_meters":6400,"station_id":"cki0cbj6b192h4jlfktg","pricing_plan_id":"cebpf4jnsgd1na2vs0mg"},{"bike_id":"595e8344-27d0-4ba5-bbce-98f482b61c93","system_id":"levelo_inurba_marseille","lat":43.286961,"lon":5.373785,"is_reserved":false,"is_disabled":false,"rental_uris":{"android":"levelo://app?vid=595e8344-27d0-4ba5-bbce-98f482b61c93","ios":"levelo://app?vid=595e8344-27d0-4ba5-bbce-98f482b61c93"},"vehicle_type_id":"4","last_reported":1719234634,"current_range_meters":8000,"station_id":"ce4bh3p2rcd13ifvqdq0","pricing_plan_id":"cebpf4jnsgd1na2vs0mg"},{"bike_id":"533c2f23-c7b7-4c71-9a6e-8792347ea1b8","system_id":"levelo_inurba_marseille","lat":43.286961,"lon":5.373785,"is_reserved":false,"is_disabled":false,"rental_uris":{"android":"levelo://app?vid=533c2f23-c7b7-4c71-9a6e-8792347ea1b8","ios":"levelo://app?vid=533c2f23-c7b7-4c71-9a6e-8792347ea1b8"},"vehicle_type_id":"4","last_reported":1719234634,"current_range_meters":31200,"station_id":"ce4bh3p2rcd13ifvqdq0","pricing_plan_id":"cebpf4jnsgd1na2vs0mg"},{"bike_id":"4c06608f-4320-4b2a-b2aa-44f5e27c72f5","system_id":"levelo_inurba_marseille","lat":43.286961,"lon":5.373785,"is_reserved":false,"is_disabled":false,"rental_uris":{"android":"levelo://app?vid=4c06608f-4320-4b2a-b2aa-44f5e27c72f5","ios":"levelo://app?vid=4c06608f-4320-4b2a-b2aa-44f5e27c72f5"},"vehicle_type_id":"4","last_reported":1719234634,"current_range_meters":14800,"station_id":"ce4bh3p2rcd13ifvqdq0","pricing_plan_id":"cebpf4jnsgd1na2vs0mg"},{"bike_id":"6a5678e7-bd88-41ce-93d9-30682ebcd514","system_id":"levelo_inurba_marseille","lat":43.286961,"lon":5.373785,"is_reserved":false,"is_disabled":false,"rental_uris":{"android":"levelo://app?vid=6a5678e7-bd88-41ce-93d9-30682ebcd514","ios":"levelo://app?vid=6a5678e7-bd88-41ce-93d9-30682ebcd514"},"vehicle_type_id":"4","last_reported":1719234634,"current_range_meters":26400,"station_id":"ce4bh3p2rcd13ifvqdq0","pricing_plan_id":"cebpf4jnsgd1na2vs0mg"},{"bike_id":"9b72894f-859d-418e-a722-c5577b5c4ffd","system_id":"levelo_inurba_marseille","lat":43.286961,"lon":5.373785,"is_reserved":false,"is_disabled":false,"rental_uris":{"android":"levelo://app?vid=9b72894f-859d-418e-a722-c5577b5c4ffd","ios":"levelo://app?vid=9b72894f-859d-418e-a722-c5577b5c4ffd"},"vehicle_type_id":"4","last_reported":1719234634,"current_range_meters":1200,"station_id":"ce4bh3p2rcd13ifvqdq0","pricing_plan_id":"cebpf4jnsgd1na2vs0mg"},{"bike_id":"08ddb14e-6297-4148-beb5-1c45f4719e41","system_id":"levelo_inurba_marseille","lat":43.286593,"lon":5.363346,"is_reserved":false,"is_disabled":false,"rental_uris":{"android":"levelo://app?vid=08ddb14e-6297-4148-beb5-1c45f4719e41","ios":"levelo://app?vid=08ddb14e-6297-4148-beb5-1c45f4719e41"},"vehicle_type_id":"4","last_reported":1719234634,"current_range_meters":0,"station_id":"ce4bhah2rcd13ifvqej0","pricing_plan_id":"cebpf4jnsgd1na2vs0mg"},{"bike_id":"af52a68c-792f-41fb-b2ef-d34a1717a5c9","system_id":"levelo_inurba_marseille","lat":43.286961,"lon":5.373785,"is_reserved":false,"is_disabled":false,"rental_uris":{"android":"levelo://app?vid=af52a68c-792f-41fb-b2ef-d34a1717a5c9","ios":"levelo://app?vid=af52a68c-792f-41fb-b2ef-d34a1717a5c9"},"vehicle_type_id":"4","last_reported":1719234634,"current_range_meters":3600,"station_id":"ce4bh3p2rcd13ifvqdq0","pricing_plan_id":"cebpf4jnsgd1na2vs0mg"},{"bike_id":"afa03801-805c-4625-9337-a09f1af82d79","system_id":"levelo_inurba_marseille","lat":43.295194,"lon":5.39397,"is_reserved":false,"is_disabled":false,"rental_uris":{"android":"levelo://app?vid=afa03801-805c-4625-9337-a09f1af82d79","ios":"levelo://app?vid=afa03801-805c-4625-9337-a09f1af82d79"},"vehicle_type_id":"4","last_reported":1719234634,"current_range_meters":9200,"station_id":"ce4bh292rcd13ifvqdf0","pricing_plan_id":"cebpf4jnsgd1na2vs0mg"},{"bike_id":"50f471f3-654e-488a-a2aa-7b4b88eeb902","system_id":"levelo_inurba_marseille","lat":43.289307,"lon":5.38406,"is_reserved":false,"is_disabled":false,"rental_uris":{"android":"levelo://app?vid=50f471f3-654e-488a-a2aa-7b4b88eeb902","ios":"levelo://app?vid=50f471f3-654e-488a-a2aa-7b4b88eeb902"},"vehicle_type_id":"4","last_reported":1719234634,"current_range_meters":0,"station_id":"ce4bh612rcd13ifvqe6g","pricing_plan_id":"cebpf4jnsgd1na2vs0mg"},{"bike_id":"b68f458c-fc8b-4d19-bb6c-431239dd1015","system_id":"levelo_inurba_marseille","lat":43.290336,"lon":5.386425,"is_reserved":false,"is_disabled":false,"rental_uris":{"android":"levelo://app?vid=b68f458c-fc8b-4d19-bb6c-431239dd1015","ios":"levelo://app?vid=b68f458c-fc8b-4d19-bb6c-431239dd1015"},"vehicle_type_id":"4","last_reported":1719234634,"current_range_meters":29600,"station_id":"ce4bh4p2rcd13ifvqe0g","pricing_plan_id":"cebpf4jnsgd1na2vs0mg"},{"bike_id":"9a61117b-b94c-4e89-9617-de4088192239","system_id":"levelo_inurba_marseille","lat":43.286039,"lon":5.370681,"is_reserved":false,"is_disabled":false,"rental_uris":{"android":"levelo://app?vid=9a61117b-b94c-4e89-9617-de4088192239","ios":"levelo://app?vid=9a61117b-b94c-4e89-9617-de4088192239"},"vehicle_type_id":"4","last_reported":1719234634,"current_range_meters":19200,"station_id":"ce4bht12rcd13ifvqi60","pricing_plan_id":"cebpf4jnsgd1na2vs0mg"},{"bike_id":"1c16f2c4-109d-4e11-8afc-a40607d3bfd2","system_id":"levelo_inurba_marseille","lat":43.287184,"lon":5.37937,"is_reserved":false,"is_disabled":false,"rental_uris":{"android":"levelo://app?vid=1c16f2c4-109d-4e11-8afc-a40607d3bfd2","ios":"levelo://app?vid=1c16f2c4-109d-4e11-8afc-a40607d3bfd2"},"vehicle_type_id":"4","last_reported":1719234634,"current_range_meters":13600,"station_id":"ce4bh9p2rcd13ifvqec0","pricing_plan_id":"cebpf4jnsgd1na2vs0mg"},{"bike_id":"7e8c033e-6152-4ecb-a484-6600f91d2983","system_id":"levelo_inurba_marseille","lat":43.287185,"lon":5.379373,"is_reserved":false,"is_disabled":false,"rental_uris":{"android":"levelo://app?vid=7e8c033e-6152-4ecb-a484-6600f91d2983","ios":"levelo://app?vid=7e8c033e-6152-4ecb-a484-6600f91d2983"},"vehicle_type_id":"4","last_reported":1719234634,"current_range_meters":8400,"station_id":"ce4bh9p2rcd13ifvqec0","pricing_plan_id":"cebpf4jnsgd1na2vs0mg"},{"bike_id":"57d4fb33-0d50-451f-aabd-4fe268b375c9","system_id":"levelo_inurba_marseille","lat":43.287185,"lon":5.379373,"is_reserved":false,"is_disabled":false,"rental_uris":{"android":"levelo://app?vid=57d4fb33-0d50-451f-aabd-4fe268b375c9","ios":"levelo://app?vid=57d4fb33-0d50-451f-aabd-4fe268b375c9"},"vehicle_type_id":"4","last_reported":1719234634,"current_range_meters":31200,"station_id":"ce4bh9p2rcd13ifvqec0","pricing_plan_id":"cebpf4jnsgd1na2vs0mg"},{"bike_id":"3a72615f-c602-4f96-91b9-d6f25a8c1ebf","system_id":"levelo_inurba_marseille","lat":43.316821,"lon":5.404737,"is_reserved":false,"is_disabled":false,"rental_uris":{"android":"levelo://app?vid=3a72615f-c602-4f96-91b9-d6f25a8c1ebf","ios":"levelo://app?vid=3a72615f-c602-4f96-91b9-d6f25a8c1ebf"},"vehicle_type_id":"4","last_reported":1719234634,"current_range_meters":23600,"station_id":"ce4bh012rcd13ifvqd00","pricing_plan_id":"cebpf4jnsgd1na2vs0mg"},{"bike_id":"6fc9cb37-55e5-4ec4-997e-25acd9728850","system_id":"levelo_inurba_marseille","lat":43.284534,"lon":5.358662,"is_reserved":false,"is_disabled":false,"rental_uris":{"android":"levelo://app?vid=6fc9cb37-55e5-4ec4-997e-25acd9728850","ios":"levelo://app?vid=6fc9cb37-55e5-4ec4-997e-25acd9728850"},"vehicle_type_id":"4","last_reported":1719234634,"current_range_meters":28000,"station_id":"ce4bhah2rcd13ifvqei0","pricing_plan_id":"cebpf4jnsgd1na2vs0mg"},{"bike_id":"f72197e3-7095-427c-bee0-3380c69f3142","system_id":"levelo_inurba_marseille","lat":43.284538,"lon":5.358657,"is_reserved":false,"is_disabled":false,"rental_uris":{"android":"levelo://app?vid=f72197e3-7095-427c-bee0-3380c69f3142","ios":"levelo://app?vid=f72197e3-7095-427c-bee0-3380c69f3142"},"vehicle_type_id":"4","last_reported":1719234634,"current_range_meters":11600,"station_id":"ce4bhah2rcd13ifvqei0","pricing_plan_id":"cebpf4jnsgd1na2vs0mg"},{"bike_id":"150dba2a-313a-4ef0-9aa2-f60a24dff2a6","system_id":"levelo_inurba_marseille","lat":43.284538,"lon":5.358657,"is_reserved":false,"is_disabled":false,"rental_uris":{"android":"levelo://app?vid=150dba2a-313a-4ef0-9aa2-f60a24dff2a6","ios":"levelo://app?vid=150dba2a-313a-4ef0-9aa2-f60a24dff2a6"},"vehicle_type_id":"4","last_reported":1719234634,"current_range_meters":13600,"station_id":"ce4bhah2rcd13ifvqei0","pricing_plan_id":"cebpf4jnsgd1na2vs0mg"},{"bike_id":"f186e89f-18ac-4239-9bbb-752ea5634d9c","system_id":"levelo_inurba_marseille","lat":43.284538,"lon":5.358657,"is_reserved":false,"is_disabled":false,"rental_uris":{"android":"levelo://app?vid=f186e89f-18ac-4239-9bbb-752ea5634d9c","ios":"levelo://app?vid=f186e89f-18ac-4239-9bbb-752ea5634d9c"},"vehicle_type_id":"4","last_reported":1719234634,"current_range_meters":31200,"station_id":"ce4bhah2rcd13ifvqei0","pricing_plan_id":"cebpf4jnsgd1na2vs0mg"},{"bike_id":"f9328ff4-4218-4dff-bb42-8edf05ccda18","system_id":"levelo_inurba_marseille","lat":43.284534,"lon":5.358662,"is_reserved":false,"is_disabled":false,"rental_uris":{"android":"levelo://app?vid=f9328ff4-4218-4dff-bb42-8edf05ccda18","ios":"levelo://app?vid=f9328ff4-4218-4dff-bb42-8edf05ccda18"},"vehicle_type_id":"4","last_reported":1719234634,"current_range_meters":31200,"station_id":"ce4bhah2rcd13ifvqei0","pricing_plan_id":"cebpf4jnsgd1na2vs0mg"},{"bike_id":"083ded1c-6631-450d-98b1-bfb1c106f368","system_id":"levelo_inurba_marseille","lat":43.284538,"lon":5.358657,"is_reserved":false,"is_disabled":false,"rental_uris":{"android":"levelo://app?vid=083ded1c-6631-450d-98b1-bfb1c106f368","ios":"levelo://app?vid=083ded1c-6631-450d-98b1-bfb1c106f368"},"vehicle_type_id":"4","last_reported":1719234634,"current_range_meters":5200,"station_id":"ce4bhah2rcd13ifvqei0","pricing_plan_id":"cebpf4jnsgd1na2vs0mg"},{"bike_id":"1086eb39-ca31-4e89-9854-8e1930e91330","system_id":"levelo_inurba_marseille","lat":43.284534,"lon":5.358662,"is_reserved":false,"is_disabled":false,"rental_uris":{"android":"levelo://app?vid=1086eb39-ca31-4e89-9854-8e1930e91330","ios":"levelo://app?vid=1086eb39-ca31-4e89-9854-8e1930e91330"},"vehicle_type_id":"4","last_reported":1719234634,"current_range_meters":31600,"station_id":"ce4bhah2rcd13ifvqei0","pricing_plan_id":"cebpf4jnsgd1na2vs0mg"},{"bike_id":"77934796-df17-40f6-b05a-bb15a89f10c5","system_id":"levelo_inurba_marseille","lat":43.285848,"lon":5.350787,"is_reserved":false,"is_disabled":false,"rental_uris":{"android":"levelo://app?vid=77934796-df17-40f6-b05a-bb15a89f10c5","ios":"levelo://app?vid=77934796-df17-40f6-b05a-bb15a89f10c5"},"vehicle_type_id":"4","last_reported":1719234634,"current_range_meters":25200,"station_id":"ce4bhch2rcd13ifvqeug","pricing_plan_id":"cebpf4jnsgd1na2vs0mg"},{"bike_id":"470a41de-197a-4b2d-94b6-85dfe25cc064","system_id":"levelo_inurba_marseille","lat":43.285848,"lon":5.350787,"is_reserved":false,"is_disabled":false,"rental_uris":{"android":"levelo://app?vid=470a41de-197a-4b2d-94b6-85dfe25cc064","ios":"levelo://app?vid=470a41de-197a-4b2d-94b6-85dfe25cc064"},"vehicle_type_id":"4","last_reported":1719234634,"current_range_meters":18800,"station_id":"ce4bhch2rcd13ifvqeug","pricing_plan_id":"cebpf4jnsgd1na2vs0mg"},{"bike_id":"34f2075c-3a97-4ec2-a39c-6a8effd88b7e","system_id":"levelo_inurba_marseille","lat":43.285848,"lon":5.350787,"is_reserved":false,"is_disabled":false,"rental_uris":{"android":"levelo://app?vid=34f2075c-3a97-4ec2-a39c-6a8effd88b7e","ios":"levelo://app?vid=34f2075c-3a97-4ec2-a39c-6a8effd88b7e"},"vehicle_type_id":"4","last_reported":1719234634,"current_range_meters":21200,"station_id":"ce4bhch2rcd13ifvqeug","pricing_plan_id":"cebpf4jnsgd1na2vs0mg"},{"bike_id":"1efc2d98-8576-4684-b1c0-fcb296291954","system_id":"levelo_inurba_marseille","lat":43.28617,"lon":5.35106,"is_reserved":false,"is_disabled":false,"rental_uris":{"android":"levelo://app?vid=1efc2d98-8576-4684-b1c0-fcb296291954","ios":"levelo://app?vid=1efc2d98-8576-4684-b1c0-fcb296291954"},"vehicle_type_id":"4","last_reported":1719234634,"current_range_meters":18400,"station_id":"ce4bhch2rcd13ifvqeug","pricing_plan_id":"cebpf4jnsgd1na2vs0mg"},{"bike_id":"2bee6d0c-221c-40f1-9ff6-16e3df609f3c","system_id":"levelo_inurba_marseille","lat":43.285848,"lon":5.350787,"is_reserved":false,"is_disabled":false,"rental_uris":{"android":"levelo://app?vid=2bee6d0c-221c-40f1-9ff6-16e3df609f3c","ios":"levelo://app?vid=2bee6d0c-221c-40f1-9ff6-16e3df609f3c"},"vehicle_type_id":"4","last_reported":1719234634,"current_range_meters":17600,"station_id":"ce4bhch2rcd13ifvqeug","pricing_plan_id":"cebpf4jnsgd1na2vs0mg"},{"bike_id":"e2e352af-05fd-457e-8b06-1b8d4db9ec23","system_id":"levelo_inurba_marseille","lat":43.285848,"lon":5.350787,"is_reserved":false,"is_disabled":false,"rental_uris":{"android":"levelo://app?vid=e2e352af-05fd-457e-8b06-1b8d4db9ec23","ios":"levelo://app?vid=e2e352af-05fd-457e-8b06-1b8d4db9ec23"},"vehicle_type_id":"4","last_reported":1719234634,"current_range_meters":21600,"station_id":"ce4bhch2rcd13ifvqeug","pricing_plan_id":"cebpf4jnsgd1na2vs0mg"},{"bike_id":"638ba26e-2c1a-400c-869d-9bbd18fef354","system_id":"levelo_inurba_marseille","lat":43.285856,"lon":5.350771,"is_reserved":false,"is_disabled":false,"rental_uris":{"android":"levelo://app?vid=638ba26e-2c1a-400c-869d-9bbd18fef354","ios":"levelo://app?vid=638ba26e-2c1a-400c-869d-9bbd18fef354"},"vehicle_type_id":"4","last_reported":1719234634,"current_range_meters":30000,"station_id":"ce4bhch2rcd13ifvqeug","pricing_plan_id":"cebpf4jnsgd1na2vs0mg"},{"bike_id":"ffe52496-83a4-4c9d-9a32-bc812f890851","system_id":"levelo_inurba_marseille","lat":43.283998,"lon":5.375062,"is_reserved":false,"is_disabled":false,"rental_uris":{"android":"levelo://app?vid=ffe52496-83a4-4c9d-9a32-bc812f890851","ios":"levelo://app?vid=ffe52496-83a4-4c9d-9a32-bc812f890851"},"vehicle_type_id":"4","last_reported":1719234634,"current_range_meters":7200,"station_id":"ce4bh412rcd13ifvqds0","pricing_plan_id":"cebpf4jnsgd1na2vs0mg"},{"bike_id":"40d09689-e1a0-4416-a3f3-7d5216e5c481","system_id":"levelo_inurba_marseille","lat":43.283998,"lon":5.375062,"is_reserved":false,"is_disabled":false,"rental_uris":{"android":"levelo://app?vid=40d09689-e1a0-4416-a3f3-7d5216e5c481","ios":"levelo://app?vid=40d09689-e1a0-4416-a3f3-7d5216e5c481"},"vehicle_type_id":"4","last_reported":1719234634,"current_range_meters":13200,"station_id":"ce4bh412rcd13ifvqds0","pricing_plan_id":"cebpf4jnsgd1na2vs0mg"},{"bike_id":"0c2b961e-d6f9-400f-9436-6dc8dd75d380","system_id":"levelo_inurba_marseille","lat":43.295713,"lon":5.399639,"is_reserved":false,"is_disabled":false,"rental_uris":{"android":"levelo://app?vid=0c2b961e-d6f9-400f-9436-6dc8dd75d380","ios":"levelo://app?vid=0c2b961e-d6f9-400f-9436-6dc8dd75d380"},"vehicle_type_id":"4","last_reported":1719234634,"current_range_meters":22800,"station_id":"ce4bh312rcd13ifvqdj0","pricing_plan_id":"cebpf4jnsgd1na2vs0mg"},{"bike_id":"e558c796-b682-4a4b-8889-59cab05d6b11","system_id":"levelo_inurba_marseille","lat":43.283998,"lon":5.375062,"is_reserved":false,"is_disabled":false,"rental_uris":{"android":"levelo://app?vid=e558c796-b682-4a4b-8889-59cab05d6b11","ios":"levelo://app?vid=e558c796-b682-4a4b-8889-59cab05d6b11"},"vehicle_type_id":"4","last_reported":1719234634,"current_range_meters":17200,"station_id":"ce4bh412rcd13ifvqds0","pricing_plan_id":"cebpf4jnsgd1na2vs0mg"},{"bike_id":"ac593b48-735e-41a3-8c52-5cbf429418ad","system_id":"levelo_inurba_marseille","lat":43.283998,"lon":5.375062,"is_reserved":false,"is_disabled":false,"rental_uris":{"android":"levelo://app?vid=ac593b48-735e-41a3-8c52-5cbf429418ad","ios":"levelo://app?vid=ac593b48-735e-41a3-8c52-5cbf429418ad"},"vehicle_type_id":"4","last_reported":1719234634,"current_range_meters":4400,"station_id":"ce4bh412rcd13ifvqds0","pricing_plan_id":"cebpf4jnsgd1na2vs0mg"},{"bike_id":"2e29e87c-4512-4710-b1da-7d0bcba336af","system_id":"levelo_inurba_marseille","lat":43.286595,"lon":5.386795,"is_reserved":false,"is_disabled":false,"rental_uris":{"android":"levelo://app?vid=2e29e87c-4512-4710-b1da-7d0bcba336af","ios":"levelo://app?vid=2e29e87c-4512-4710-b1da-7d0bcba336af"},"vehicle_type_id":"4","last_reported":1719234634,"current_range_meters":28000,"station_id":"ce4bh492rcd13ifvqdug","pricing_plan_id":"cebpf4jnsgd1na2vs0mg"},{"bike_id":"96669064-adfa-424c-ad8d-635f7703df75","system_id":"levelo_inurba_marseille","lat":43.284793,"lon":5.384113,"is_reserved":false,"is_disabled":false,"rental_uris":{"android":"levelo://app?vid=96669064-adfa-424c-ad8d-635f7703df75","ios":"levelo://app?vid=96669064-adfa-424c-ad8d-635f7703df75"},"vehicle_type_id":"4","last_reported":1719234634,"current_range_meters":11600,"station_id":"ce4bh512rcd13ifvqe3g","pricing_plan_id":"cebpf4jnsgd1na2vs0mg"},{"bike_id":"0e107605-5600-4751-9215-21d6b9e34346","system_id":"levelo_inurba_marseille","lat":43.33717,"lon":5.391857,"is_reserved":false,"is_disabled":false,"rental_uris":{"android":"levelo://app?vid=0e107605-5600-4751-9215-21d6b9e34346","ios":"levelo://app?vid=0e107605-5600-4751-9215-21d6b9e34346"},"vehicle_type_id":"4","last_reported":1719234634,"current_range_meters":14800,"station_id":"ce4bhr92rcd13ifvqhsg","pricing_plan_id":"cebpf4jnsgd1na2vs0mg"},{"bike_id":"9d8fa027-64d3-4504-b892-366646de05cd","system_id":"levelo_inurba_marseille","lat":43.33717,"lon":5.391857,"is_reserved":false,"is_disabled":false,"rental_uris":{"android":"levelo://app?vid=9d8fa027-64d3-4504-b892-366646de05cd","ios":"levelo://app?vid=9d8fa027-64d3-4504-b892-366646de05cd"},