{"last_updated":1747343388,"ttl":60,"version":"2.2","data":{"bikes":[{"bike_id":"c0b9fd4f-e181-46ce-b0bf-f5119973334f","system_id":"levelo_inurba_marseille","lat":43.33771,"lon":5.37424,"is_reserved":false,"is_disabled":false,"rental_uris":{"android":"levelo://app?vid=c0b9fd4f-e181-46ce-b0bf-f5119973334f","ios":"levelo://app?vid=c0b9fd4f-e181-46ce-b0bf-f5119973334f"},"vehicle_type_id":"4","last_reported":1747343388,"current_range_meters":12800,"station_id":"","pricing_plan_id":"cebpf4jnsgd1na2vs0mg"},{"bike_id":"fc2577e7-1497-425b-9d4f-ab8d7dc843c6","system_id":"levelo_inurba_marseille","lat":43.33771,"lon":5.37485,"is_reserved":false,"is_disabled":true,"rental_uris":{"android":"levelo://app?vid=fc2577e7-1497-425b-9d4f-ab8d7dc843c6","ios":"levelo://app?vid=fc2577e7-1497-425b-9d4f-ab8d7dc843c6"},"vehicle_type_id":"4","last_reported":1747343388,"current_range_meters":0,"station_id":"","pricing_plan_id":"cebpf4jnsgd1na2vs0mg"},{"bike_id":"e62a2c8b-ebd4-4592-ae0f-ff5560db0b84","system_id":"levelo_inurba_marseille","lat":43.247047,"lon":5.399633,"is_reserved":false,"is_disabled":true,"rental_uris":{"android":"levelo://app?vid=e62a2c8b-ebd4-4592-ae0f-ff5560db0b84","ios":"levelo://app?vid=e62a2c8b-ebd4-4592-ae0f-ff5560db0b84"},"vehicle_type_id":"4","last_reported":1747343388,"current_range_meters":0,"station_id":"","pricing_plan_id":"cebpf4jnsgd1na2vs0mg"},{"bike_id":"2b8fbf5f-4106-421b-bd48-29543ccb14db","system_id":"levelo_inurba_marseille","lat":43.2369,"lon":5.36299,"is_reserved":false,"is_disabled":true,"rental_uris":{"android":"levelo://app?vid=2b8fbf5f-4106-421b-bd48-29543ccb14db","ios":"levelo://app?vid=2b8fbf5f-4106-421b-bd48-29543ccb14db"},"vehicle_type_id":"4","last_reported":1747343388,"current_range_meters":0,"station_id":"","pricing_plan_id":"cebpf4jnsgd1na2vs0mg"},{"bike_id":"772b6fff-1447-445e-950b-c2e27d6bb6b1","system_id":"levelo_inurba_marseille","lat":43.31172,"lon":5.37586,"is_reserved":false,"is_disabled":true,"rental_uris":{"android":"levelo://app?vid=772b6fff-1447-445e-950b-c2e27d6bb6b1","ios":"levelo://app?vid=772b6fff-1447-445e-950b-c2e27d6bb6b1"},"vehicle_type_id":"4","last_reported":1747343388,"current_range_meters":0,"station_id":"","pricing_plan_id":"cebpf4jnsgd1na2vs0mg"},{"bike_id":"792567c6-0442-4011-aff0-9c05e25deb48","system_id":"levelo_inurba_marseille","lat":43.337444,"lon":5.374475,"is_reserved":false,"is_disabled":true,"rental_uris":{"android":"levelo://app?vid=792567c6-0442-4011-aff0-9c05e25deb48","ios":"levelo://app?vid=792567c6-0442-4011-aff0-9c05e25deb48"},"vehicle_type_id":"4","last_reported":1747343388,"current_range_meters":0,"station_id":"","pricing_plan_id":"cebpf4jnsgd1na2vs0mg"},{"bike_id":"2a5dafaf-54ec-4df0-8510-39053ad2d582","system_id":"levelo_inurba_marseille","lat":43.31513,"lon":5.38912,"is_reserved":false,"is_disabled":true,"rental_uris":{"android":"levelo://app?vid=2a5dafaf-54ec-4df0-8510-39053ad2d582","ios":"levelo://app?vid=2a5dafaf-54ec-4df0-8510-39053ad2d582"},"vehicle_type_id":"4","last_reported":1747343388,"current_range_meters":0,"station_id":"","pricing_plan_id":"cebpf4jnsgd1na2vs0mg"},{"bike_id":"0fd4bff8-7683-40d4-b0ae-c129cdc72cba","system_id":"levelo_inurba_marseille","lat":43.30727,"lon":5.40455,"is_reserved":false,"is_disabled":true,"rental_uris":{"android":"levelo://app?vid=0fd4bff8-7683-40d4-b0ae-c129cdc72cba","ios":"levelo://app?vid=0fd4bff8-7683-40d4-b0ae-c129cdc72cba"},"vehicle_type_id":"4","last_reported":1747343388,"current_range_meters":0,"station_id":"","pricing_plan_id":"cebpf4jnsgd1na2vs0mg"},{"bike_id":"c18b9686-c31e-4b41-a9ab-d4352f0aaab0","system_id":"levelo_inurba_marseille","lat":43.28659,"lon":5.38585,"is_reserved":false,"is_disabled":true,"rental_uris":{"android":"levelo://app?vid=c18b9686-c31e-4b41-a9ab-d4352f0aaab0","ios":"levelo://app?vid=c18b9686-c31e-4b41-a9ab-d4352f0aaab0"},"vehicle_type_id":"4","last_reported":1747343388,"current_range_meters":0,"station_id":"","pricing_plan_id":"cebpf4jnsgd1na2vs0mg"},{"bike_id":"7d73e8e8-5bd0-469d-90ea-0ad2c82ed0a1","system_id":"levelo_inurba_marseille","lat":43.29644,"lon":5.40592,"is_reserved":false,"is_disabled":true,"rental_uris":{"android":"levelo://app?vid=7d73e8e8-5bd0-469d-90ea-0ad2c82ed0a1","ios":"levelo://app?vid=7d73e8e8-5bd0-469d-90ea-0ad2c82ed0a1"},"vehicle_type_id":"4","last_reported":1747343388,"current_range_meters":0,"station_id":"ce4bh0h2rcd13ifvqd60","pricing_plan_id":"cebpf4jnsgd1na2vs0mg"},{"bike_id":"df0f99cf-4039-4c6e-aae9-edc9bf294720","system_id":"levelo_inurba_marseille","lat":43.30204,"lon":5.39466,"is_reserved":false,"is_disabled":true,"rental_uris":{"android":"levelo://app?vid=df0f99cf-4039-4c6e-aae9-edc9bf294720","ios":"levelo://app?vid=df0f99cf-4039-4c6e-aae9-edc9bf294720"},"vehicle_type_id":"4","last_reported":1747343388,"current_range_meters":0,"station_id":"ce4bh0p2rcd13ifvqd70","pricing_plan_id":"cebpf4jnsgd1na2vs0mg"},{"bike_id":"2b243f06-b86d-4805-b086-b90d53e5e6ce","system_id":"levelo_inurba_marseille","lat":43.28106,"lon":5.37865,"is_reserved":false,"is_disabled":true,"rental_uris":{"android":"levelo://app?vid=2b243f06-b86d-4805-b086-b90d53e5e6ce","ios":"levelo://app?vid=2b243f06-b86d-4805-b086-b90d53e5e6ce"},"vehicle_type_id":"4","last_reported":1747343388,"current_range_meters":0,"station_id":"ce4bha12rcd13ifvqee0","pricing_plan_id":"cebpf4jnsgd1na2vs0mg"},{"bike_id":"ce883f03-83e8-4154-b27f-1b1407c6ba49","system_id":"levelo_inurba_marseille","lat":43.31095,"lon":5.42427,"is_reserved":false,"is_disabled":true,"rental_uris":{"android":"levelo://app?vid=ce883f03-83e8-4154-b27f-1b1407c6ba49","ios":"levelo://app?vid=ce883f03-83e8-4154-b27f-1b1407c6ba49"},"vehicle_type_id":"4","last_reported":1747343388,"current_range_meters":0,"station_id":"ce4bhp92rcd13ifvqhag","pricing_plan_id":"cebpf4jnsgd1na2vs0mg"},{"bike_id":"ce4325af-2448-4172-bdec-81d552ee0b62","system_id":"levelo_inurba_marseille","lat":43.2617,"lon":5.42012,"is_reserved":false,"is_disabled":true,"rental_uris":{"android":"levelo://app?vid=ce4325af-2448-4172-bdec-81d552ee0b62","ios":"levelo://app?vid=ce4325af-2448-4172-bdec-81d552ee0b62"},"vehicle_type_id":"4","last_reported":1747343388,"current_range_meters":400,"station_id":"","pricing_plan_id":"cebpf4jnsgd1na2vs0mg"},{"bike_id":"7904e55c-80d5-4167-ba52-baa82330bb66","system_id":"levelo_inurba_marseille","lat":43.278709,"lon":5.387503,"is_reserved":false,"is_disabled":true,"rental_uris":{"android":"levelo://app?vid=7904e55c-80d5-4167-ba52-baa82330bb66","ios":"levelo://app?vid=7904e55c-80d5-4167-ba52-baa82330bb66"},"vehicle_type_id":"4","last_reported":1747343388,"current_range_meters":400,"station_id":"","pricing_plan_id":"cebpf4jnsgd1na2vs0mg"},{"bike_id":"5de4311e-acc0-4747-9be3-06bcfa4d137e","system_id":"levelo_inurba_marseille","lat":43.31977,"lon":5.38724,"is_reserved":false,"is_disabled":true,"rental_uris":{"android":"levelo://app?vid=5de4311e-acc0-4747-9be3-06bcfa4d137e","ios":"levelo://app?vid=5de4311e-acc0-4747-9be3-06bcfa4d137e"},"vehicle_type_id":"4","last_reported":1747343388,"current_range_meters":400,"station_id":"","pricing_plan_id":"cebpf4jnsgd1na2vs0mg"},{"bike_id":"420b922a-6c75-4199-a992-a4588e02630c","system_id":"levelo_inurba_marseille","lat":43.32364,"lon":5.38896,"is_reserved":false,"is_disabled":true,"rental_uris":{"android":"levelo://app?vid=420b922a-6c75-4199-a992-a4588e02630c","ios":"levelo://app?vid=420b922a-6c75-4199-a992-a4588e02630c"},"vehicle_type_id":"4","last_reported":1747343388,"current_range_meters":400,"station_id":"ce4bhqp2rcd13ifvqhog","pricing_plan_id":"cebpf4jnsgd1na2vs0mg"},{"bike_id":"793eebb7-8d7a-4264-a964-29208cde3f6b","system_id":"levelo_inurba_marseille","lat":43.22928,"lon":5.35377,"is_reserved":false,"is_disabled":true,"rental_uris":{"android":"levelo://app?vid=793eebb7-8d7a-4264-a964-29208cde3f6b","ios":"levelo://app?vid=793eebb7-8d7a-4264-a964-29208cde3f6b"},"vehicle_type_id":"4","last_reported":1747343388,"current_range_meters":800,"station_id":"cpo3532slgdg3j2ikp40","pricing_plan_id":"cebpf4jnsgd1na2vs0mg"},{"bike_id":"1ea25898-2c19-498a-bcca-631520244a05","system_id":"levelo_inurba_marseille","lat":43.29708,"lon":5.36603,"is_reserved":false,"is_disabled":true,"rental_uris":{"android":"levelo://app?vid=1ea25898-2c19-498a-bcca-631520244a05","ios":"levelo://app?vid=1ea25898-2c19-498a-bcca-631520244a05"},"vehicle_type_id":"4","last_reported":1747343388,"current_range_meters":1200,"station_id":"ce4bgn12rcd13ifvqbt0","pricing_plan_id":"cebpf4jnsgd1na2vs0mg"},{"bike_id":"46f6b884-7304-4c7e-b14b-a7db1aae4827","system_id":"levelo_inurba_marseille","lat":43.30933,"lon":5.40149,"is_reserved":false,"is_disabled":true,"rental_uris":{"android":"levelo://app?vid=46f6b884-7304-4c7e-b14b-a7db1aae4827","ios":"levelo://app?vid=46f6b884-7304-4c7e-b14b-a7db1aae4827"},"vehicle_type_id":"4","last_reported":1747343388,"current_range_meters":1200,"station_id":"ce4bgvp2rcd13ifvqct0","pricing_plan_id":"cebpf4jnsgd1na2vs0mg"},{"bike_id":"38401852-e09c-4a6c-995e-4a38c584519a","system_id":"levelo_inurba_marseille","lat":43.30078,"lon":5.39061,"is_reserved":false,"is_disabled":true,"rental_uris":{"android":"levelo://app?vid=38401852-e09c-4a6c-995e-4a38c584519a","ios":"levelo://app?vid=38401852-e09c-4a6c-995e-4a38c584519a"},"vehicle_type_id":"4","last_reported":1747343388,"current_range_meters":1200,"station_id":"ce4bh192rcd13ifvqdb0","pricing_plan_id":"cebpf4jnsgd1na2vs0mg"},{"bike_id":"2b569621-7a01-4368-b0d1-bf3ce413d512","system_id":"levelo_inurba_marseille","lat":43.24544,"lon":5.39521,"is_reserved":false,"is_disabled":true,"rental_uris":{"android":"levelo://app?vid=2b569621-7a01-4368-b0d1-bf3ce413d512","ios":"levelo://app?vid=2b569621-7a01-4368-b0d1-bf3ce413d512"},"vehicle_type_id":"4","last_reported":1747343388,"current_range_meters":1200,"station_id":"ce4bhlp2rcd13ifvqgjg","pricing_plan_id":"cebpf4jnsgd1na2vs0mg"},{"bike_id":"c93ab3b1-327b-4e9b-9235-2b91857576cb","system_id":"levelo_inurba_marseille","lat":43.27999,"lon":5.41662,"is_reserved":false,"is_disabled":true,"rental_uris":{"android":"levelo://app?vid=c93ab3b1-327b-4e9b-9235-2b91857576cb","ios":"levelo://app?vid=c93ab3b1-327b-4e9b-9235-2b91857576cb"},"vehicle_type_id":"4","last_reported":1747343388,"current_range_meters":1200,"station_id":"ce4bho12rcd13ifvqh1g","pricing_plan_id":"cebpf4jnsgd1na2vs0mg"},{"bike_id":"11776c65-f944-4fac-9a69-0d6b77754396","system_id":"levelo_inurba_marseille","lat":43.28707,"lon":5.39986,"is_reserved":false,"is_disabled":true,"rental_uris":{"android":"levelo://app?vid=11776c65-f944-4fac-9a69-0d6b77754396","ios":"levelo://app?vid=11776c65-f944-4fac-9a69-0d6b77754396"},"vehicle_type_id":"4","last_reported":1747343388,"current_range_meters":1200,"station_id":"ce4bho92rcd13ifvqh3g","pricing_plan_id":"cebpf4jnsgd1na2vs0mg"},{"bike_id":"889d7d3b-0613-453a-8216-4f25e90c00e3","system_id":"levelo_inurba_marseille","lat":43.30886,"lon":5.39618,"is_reserved":false,"is_disabled":true,"rental_uris":{"android":"levelo://app?vid=889d7d3b-0613-453a-8216-4f25e90c00e3","ios":"levelo://app?vid=889d7d3b-0613-453a-8216-4f25e90c00e3"},"vehicle_type_id":"4","last_reported":1747343388,"current_range_meters":1600,"station_id":"ce4bh012rcd13ifvqcv0","pricing_plan_id":"cebpf4jnsgd1na2vs0mg"},{"bike_id":"74b17e25-929c-45da-894b-5234a2af43cb","system_id":"levelo_inurba_marseille","lat":43.27838,"lon":5.39205,"is_reserved":false,"is_disabled":true,"rental_uris":{"android":"levelo://app?vid=74b17e25-929c-45da-894b-5234a2af43cb","ios":"levelo://app?vid=74b17e25-929c-45da-894b-5234a2af43cb"},"vehicle_type_id":"4","last_reported":1747343388,"current_range_meters":1600,"station_id":"ce4bhjp2rcd13ifvqga0","pricing_plan_id":"cebpf4jnsgd1na2vs0mg"},{"bike_id":"5e9fa20e-1340-4d0d-b683-901a4275ba5d","system_id":"levelo_inurba_marseille","lat":43.28181,"lon":5.425331,"is_reserved":false,"is_disabled":true,"rental_uris":{"android":"levelo://app?vid=5e9fa20e-1340-4d0d-b683-901a4275ba5d","ios":"levelo://app?vid=5e9fa20e-1340-4d0d-b683-901a4275ba5d"},"vehicle_type_id":"4","last_reported":1747343388,"current_range_meters":2000,"station_id":"","pricing_plan_id":"cebpf4jnsgd1na2vs0mg"},{"bike_id":"ad4822f5-dceb-440b-9bcb-6cfc5e9af24d","system_id":"levelo_inurba_marseille","lat":43.297973,"lon":5.426568,"is_reserved":false,"is_disabled":true,"rental_uris":{"android":"levelo://app?vid=ad4822f5-dceb-440b-9bcb-6cfc5e9af24d","ios":"levelo://app?vid=ad4822f5-dceb-440b-9bcb-6cfc5e9af24d"},"vehicle_type_id":"4","last_reported":1747343388,"current_range_meters":2000,"station_id":"","pricing_plan_id":"cebpf4jnsgd1na2vs0mg"},{"bike_id":"ecfeed34-ca0e-4188-bec3-1b1d33380c4f","system_id":"levelo_inurba_marseille","lat":43.28497,"lon":5.3856,"is_reserved":false,"is_disabled":false,"rental_uris":{"android":"levelo://app?vid=ecfeed34-ca0e-4188-bec3-1b1d33380c4f","ios":"levelo://app?vid=ecfeed34-ca0e-4188-bec3-1b1d33380c4f"},"vehicle_type_id":"4","last_reported":1747343388,"current_range_meters":2800,"station_id":"ce4bh8p2rcd13ifvqeb0","pricing_plan_id":"cebpf4jnsgd1na2vs0mg"},{"bike_id":"71de0c1a-ee5d-482e-9b2f-183ea8f1c98e","system_id":"levelo_inurba_marseille","lat":43.27942,"lon":5.41042,"is_reserved":false,"is_disabled":false,"rental_uris":{"android":"levelo://app?vid=71de0c1a-ee5d-482e-9b2f-183ea8f1c98e","ios":"levelo://app?vid=71de0c1a-ee5d-482e-9b2f-183ea8f1c98e"},"vehicle_type_id":"4","last_reported":1747343388,"current_range_meters":2800,"station_id":"ce4bhnp2rcd13ifvqh0g","pricing_plan_id":"cebpf4jnsgd1na2vs0mg"},{"bike_id":"651bac86-f9d7-484e-9f6b-223e2e4b389a","system_id":"levelo_inurba_marseille","lat":43.27961,"lon":5.41031,"is_reserved":false,"is_disabled":false,"rental_uris":{"android":"levelo://app?vid=651bac86-f9d7-484e-9f6b-223e2e4b389a","ios":"levelo://app?vid=651bac86-f9d7-484e-9f6b-223e2e4b389a"},"vehicle_type_id":"4","last_reported":1747343388,"current_range_meters":2800,"station_id":"ce4bhnp2rcd13ifvqh0g","pricing_plan_id":"cebpf4jnsgd1na2vs0mg"},{"bike_id":"fe099644-59e4-438f-a009-e4740039a77d","system_id":"levelo_inurba_marseille","lat":43.30803,"lon":5.38146,"is_reserved":false,"is_disabled":false,"rental_uris":{"android":"levelo://app?vid=fe099644-59e4-438f-a009-e4740039a77d","ios":"levelo://app?vid=fe099644-59e4-438f-a009-e4740039a77d"},"vehicle_type_id":"4","last_reported":1747343388,"current_range_meters":3200,"station_id":"ce4bgt12rcd13ifvqce0","pricing_plan_id":"cebpf4jnsgd1na2vs0mg"},{"bike_id":"bc403e1d-0106-4ec0-815d-537e8bca31b6","system_id":"levelo_inurba_marseille","lat":43.30884,"lon":5.39659,"is_reserved":false,"is_disabled":false,"rental_uris":{"android":"levelo://app?vid=bc403e1d-0106-4ec0-815d-537e8bca31b6","ios":"levelo://app?vid=bc403e1d-0106-4ec0-815d-537e8bca31b6"},"vehicle_type_id":"4","last_reported":1747343388,"current_range_meters":3200,"station_id":"ce4bh012rcd13ifvqcv0","pricing_plan_id":"cebpf4jnsgd1na2vs0mg"},{"bike_id":"c0439cf6-8647-4ac1-a17f-42ebe73a5bc3","system_id":"levelo_inurba_marseille","lat":43.32337,"lon":5.40623,"is_reserved":false,"is_disabled":false,"rental_uris":{"android":"levelo://app?vid=c0439cf6-8647-4ac1-a17f-42ebe73a5bc3","ios":"levelo://app?vid=c0439cf6-8647-4ac1-a17f-42ebe73a5bc3"},"vehicle_type_id":"4","last_reported":1747343388,"current_range_meters":3200,"station_id":"ce4bhq92rcd13ifvqhjg","pricing_plan_id":"cebpf4jnsgd1na2vs0mg"},{"bike_id":"c334f53f-6386-4502-b496-c0f578da1ace","system_id":"levelo_inurba_marseille","lat":43.30965,"lon":5.40119,"is_reserved":false,"is_disabled":false,"rental_uris":{"android":"levelo://app?vid=c334f53f-6386-4502-b496-c0f578da1ace","ios":"levelo://app?vid=c334f53f-6386-4502-b496-c0f578da1ace"},"vehicle_type_id":"4","last_reported":1747343388,"current_range_meters":3600,"station_id":"ce4bgvp2rcd13ifvqct0","pricing_plan_id":"cebpf4jnsgd1na2vs0mg"},{"bike_id":"91e4ea2b-403e-4fbb-b9d7-3a66397ad377","system_id":"levelo_inurba_marseille","lat":43.26034,"lon":5.37545,"is_reserved":false,"is_disabled":false,"rental_uris":{"android":"levelo://app?vid=91e4ea2b-403e-4fbb-b9d7-3a66397ad377","ios":"levelo://app?vid=91e4ea2b-403e-4fbb-b9d7-3a66397ad377"},"vehicle_type_id":"4","last_reported":1747343388,"current_range_meters":3600,"station_id":"ce4bhgh2rcd13ifvqfa0","pricing_plan_id":"cebpf4jnsgd1na2vs0mg"},{"bike_id":"a1488227-8952-4fdb-9b72-682d7084244e","system_id":"levelo_inurba_marseille","lat":43.28155,"lon":5.4264,"is_reserved":false,"is_disabled":false,"rental_uris":{"android":"levelo://app?vid=a1488227-8952-4fdb-9b72-682d7084244e","ios":"levelo://app?vid=a1488227-8952-4fdb-9b72-682d7084244e"},"vehicle_type_id":"4","last_reported":1747343388,"current_range_meters":3600,"station_id":"ce4bhnh2rcd13ifvqgug","pricing_plan_id":"cebpf4jnsgd1na2vs0mg"},{"bike_id":"f5b10ec3-2ce6-41ed-98b5-9940c7c4c1bc","system_id":"levelo_inurba_marseille","lat":43.32354,"lon":5.3888,"is_reserved":false,"is_disabled":false,"rental_uris":{"android":"levelo://app?vid=f5b10ec3-2ce6-41ed-98b5-9940c7c4c1bc","ios":"levelo://app?vid=f5b10ec3-2ce6-41ed-98b5-9940c7c4c1bc"},"vehicle_type_id":"4","last_reported":1747343388,"current_range_meters":3600,"station_id":"ce4bhqp2rcd13ifvqhog","pricing_plan_id":"cebpf4jnsgd1na2vs0mg"},{"bike_id":"be874d11-2d06-4759-83a6-05c7c2bc5f88","system_id":"levelo_inurba_marseille","lat":43.26985,"lon":5.391,"is_reserved":false,"is_disabled":false,"rental_uris":{"android":"levelo://app?vid=be874d11-2d06-4759-83a6-05c7c2bc5f88","ios":"levelo://app?vid=be874d11-2d06-4759-83a6-05c7c2bc5f88"},"vehicle_type_id":"4","last_reported":1747343388,"current_range_meters":4000,"station_id":"","pricing_plan_id":"cebpf4jnsgd1na2vs0mg"},{"bike_id":"17adfe2f-7a7c-4067-b0f5-d9e51f973802","system_id":"levelo_inurba_marseille","lat":43.31491,"lon":5.37312,"is_reserved":false,"is_disabled":false,"rental_uris":{"android":"levelo://app?vid=17adfe2f-7a7c-4067-b0f5-d9e51f973802","ios":"levelo://app?vid=17adfe2f-7a7c-4067-b0f5-d9e51f973802"},"vehicle_type_id":"4","last_reported":1747343388,"current_range_meters":4000,"station_id":"ce4bgt12rcd13ifvqcd0","pricing_plan_id":"cebpf4jnsgd1na2vs0mg"},{"bike_id":"65a86690-597c-4e12-87a1-22e77f2f03d7","system_id":"levelo_inurba_marseille","lat":43.3117,"lon":5.38723,"is_reserved":false,"is_disabled":false,"rental_uris":{"android":"levelo://app?vid=65a86690-597c-4e12-87a1-22e77f2f03d7","ios":"levelo://app?vid=65a86690-597c-4e12-87a1-22e77f2f03d7"},"vehicle_type_id":"4","last_reported":1747343388,"current_range_meters":4000,"station_id":"ce4bgv12rcd13ifvqcp0","pricing_plan_id":"cebpf4jnsgd1na2vs0mg"},{"bike_id":"e003c7d0-4673-485f-8ec2-5936f8c11385","system_id":"levelo_inurba_marseille","lat":43.28724,"lon":5.37931,"is_reserved":false,"is_disabled":false,"rental_uris":{"android":"levelo://app?vid=e003c7d0-4673-485f-8ec2-5936f8c11385","ios":"levelo://app?vid=e003c7d0-4673-485f-8ec2-5936f8c11385"},"vehicle_type_id":"4","last_reported":1747343388,"current_range_meters":4000,"station_id":"ce4bh9p2rcd13ifvqec0","pricing_plan_id":"cebpf4jnsgd1na2vs0mg"},{"bike_id":"6ad0ba0f-1994-4066-9aca-566e37d92f5b","system_id":"levelo_inurba_marseille","lat":43.25859,"lon":5.399,"is_reserved":false,"is_disabled":false,"rental_uris":{"android":"levelo://app?vid=6ad0ba0f-1994-4066-9aca-566e37d92f5b","ios":"levelo://app?vid=6ad0ba0f-1994-4066-9aca-566e37d92f5b"},"vehicle_type_id":"4","last_reported":1747343388,"current_range_meters":4000,"station_id":"ce4bhl92rcd13ifvqghg","pricing_plan_id":"cebpf4jnsgd1na2vs0mg"},{"bike_id":"f9e7d873-88bb-4f94-a0d6-3fcae7d05021","system_id":"levelo_inurba_marseille","lat":43.307943,"lon":5.369514,"is_reserved":false,"is_disabled":false,"rental_uris":{"android":"levelo://app?vid=f9e7d873-88bb-4f94-a0d6-3fcae7d05021","ios":"levelo://app?vid=f9e7d873-88bb-4f94-a0d6-3fcae7d05021"},"vehicle_type_id":"4","last_reported":1747343388,"current_range_meters":4400,"station_id":"","pricing_plan_id":"cebpf4jnsgd1na2vs0mg"},{"bike_id":"121e2734-5d6f-4590-99ab-62121ab9e131","system_id":"levelo_inurba_marseille","lat":43.30254,"lon":5.40074,"is_reserved":false,"is_disabled":false,"rental_uris":{"android":"levelo://app?vid=121e2734-5d6f-4590-99ab-62121ab9e131","ios":"levelo://app?vid=121e2734-5d6f-4590-99ab-62121ab9e131"},"vehicle_type_id":"4","last_reported":1747343388,"current_range_meters":4400,"station_id":"ce4bgvh2rcd13ifvqcs0","pricing_plan_id":"cebpf4jnsgd1na2vs0mg"},{"bike_id":"7061a76f-90b0-418d-9de9-fba7b79a4930","system_id":"levelo_inurba_marseille","lat":43.29524,"lon":5.39393,"is_reserved":false,"is_disabled":false,"rental_uris":{"android":"levelo://app?vid=7061a76f-90b0-418d-9de9-fba7b79a4930","ios":"levelo://app?vid=7061a76f-90b0-418d-9de9-fba7b79a4930"},"vehicle_type_id":"4","last_reported":1747343388,"current_range_meters":4400,"station_id":"ce4bh292rcd13ifvqdf0","pricing_plan_id":"cebpf4jnsgd1na2vs0mg"},{"bike_id":"374aa759-89f0-4585-aaa7-94e59791001b","system_id":"levelo_inurba_marseille","lat":43.29037,"lon":5.39969,"is_reserved":false,"is_disabled":false,"rental_uris":{"android":"levelo://app?vid=374aa759-89f0-4585-aaa7-94e59791001b","ios":"levelo://app?vid=374aa759-89f0-4585-aaa7-94e59791001b"},"vehicle_type_id":"4","last_reported":1747343388,"current_range_meters":4400,"station_id":"ce4bh392rcd13ifvqdm0","pricing_plan_id":"cebpf4jnsgd1na2vs0mg"},{"bike_id":"c9f9236f-5ba8-485b-a8aa-560c0a495408","system_id":"levelo_inurba_marseille","lat":43.25817,"lon":5.39433,"is_reserved":false,"is_disabled":false,"rental_uris":{"android":"levelo://app?vid=c9f9236f-5ba8-485b-a8aa-560c0a495408","ios":"levelo://app?vid=c9f9236f-5ba8-485b-a8aa-560c0a495408"},"vehicle_type_id":"4","last_reported":1747343388,"current_range_meters":4400,"station_id":"ce4bhip2rcd13ifvqft0","pricing_plan_id":"cebpf4jnsgd1na2vs0mg"},{"bike_id":"f3fcbd71-3a07-4e87-94e9-ada6243bdcff","system_id":"levelo_inurba_marseille","lat":43.29038,"lon":5.39968,"is_reserved":false,"is_disabled":false,"rental_uris":{"android":"levelo://app?vid=f3fcbd71-3a07-4e87-94e9-ada6243bdcff","ios":"levelo://app?vid=f3fcbd71-3a07-4e87-94e9-ada6243bdcff"},"vehicle_type_id":"4","last_reported":1747343388,"current_range_meters":4800,"station_id":"ce4bh392rcd13ifvqdm0","pricing_plan_id":"cebpf4jnsgd1na2vs0mg"},{"bike_id":"3225a70f-12cd-4cb5-a7c5-ab0440c76feb","system_id":"levelo_inurba_marseille","lat":43.26548,"lon":5.37288,"is_reserved":false,"is_disabled":false,"rental_uris":{"android":"levelo://app?vid=3225a70f-12cd-4cb5-a7c5-ab0440c76feb","ios":"levelo://app?vid=3225a70f-12cd-4cb5-a7c5-ab0440c76feb"},"vehicle_type_id":"4","last_reported":1747343388,"current_range_meters":4800,"station_id":"ce4bhg12rcd13ifvqf70","pricing_plan_id":"cebpf4jnsgd1na2vs0mg"},{"bike_id":"c1cea811-6043-458b-9433-eedc63a8029c","system_id":"levelo_inurba_marseille","lat":43.28076,"lon":5.39643,"is_reserved":false,"is_disabled":false,"rental_uris":{"android":"levelo://app?vid=c1cea811-6043-458b-9433-eedc63a8029c","ios":"levelo://app?vid=c1cea811-6043-458b-9433-eedc63a8029c"},"vehicle_type_id":"4","last_reported":1747343388,"current_range_meters":4800,"station_id":"ce4bho12rcd13ifvqh2g","pricing_plan_id":"cebpf4jnsgd1na2vs0mg"},{"bike_id":"9b42257b-e6cd-4717-a457-bffcbe6eb915","system_id":"levelo_inurba_marseille","lat":43.30857,"lon":5.39649,"is_reserved":false,"is_disabled":false,"rental_uris":{"android":"levelo://app?vid=9b42257b-e6cd-4717-a457-bffcbe6eb915","ios":"levelo://app?vid=9b42257b-e6cd-4717-a457-bffcbe6eb915"},"vehicle_type_id":"4","last_reported":1747343388,"current_range_meters":5600,"station_id":"","pricing_plan_id":"cebpf4jnsgd1na2vs0mg"},{"bike_id":"c4cd7bec-7dae-416b-8dad-af7ff0675e61","system_id":"levelo_inurba_marseille","lat":43.29294,"lon":5.37158,"is_reserved":false,"is_disabled":false,"rental_uris":{"android":"levelo://app?vid=c4cd7bec-7dae-416b-8dad-af7ff0675e61","ios":"levelo://app?vid=c4cd7bec-7dae-416b-8dad-af7ff0675e61"},"vehicle_type_id":"4","last_reported":1747343388,"current_range_meters":6000,"station_id":"ce4bgh92rcd13ifvqb40","pricing_plan_id":"cebpf4jnsgd1na2vs0mg"},{"bike_id":"ea716814-d8a0-425d-8c9d-51cf34ecd6e9","system_id":"levelo_inurba_marseille","lat":43.28107,"lon":5.37846,"is_reserved":false,"is_disabled":false,"rental_uris":{"android":"levelo://app?vid=ea716814-d8a0-425d-8c9d-51cf34ecd6e9","ios":"levelo://app?vid=ea716814-d8a0-425d-8c9d-51cf34ecd6e9"},"vehicle_type_id":"4","last_reported":1747343388,"current_range_meters":6000,"station_id":"ce4bha12rcd13ifvqee0","pricing_plan_id":"cebpf4jnsgd1na2vs0mg"},{"bike_id":"fe5d0865-672f-43bd-a0c1-4310bfdeadc9","system_id":"levelo_inurba_marseille","lat":43.25094,"lon":5.40335,"is_reserved":false,"is_disabled":false,"rental_uris":{"android":"levelo://app?vid=fe5d0865-672f-43bd-a0c1-4310bfdeadc9","ios":"levelo://app?vid=fe5d0865-672f-43bd-a0c1-4310bfdeadc9"},"vehicle_type_id":"4","last_reported":1747343388,"current_range_meters":6400,"station_id":"ce4bhlh2rcd13ifvqgig","pricing_plan_id":"cebpf4jnsgd1na2vs0mg"},{"bike_id":"b8375d5e-bed4-4b74-9a96-a5e86a0092c7","system_id":"levelo_inurba_marseille","lat":43.25091,"lon":5.39521,"is_reserved":false,"is_disabled":false,"rental_uris":{"android":"levelo://app?vid=b8375d5e-bed4-4b74-9a96-a5e86a0092c7","ios":"levelo://app?vid=b8375d5e-bed4-4b74-9a96-a5e86a0092c7"},"vehicle_type_id":"4","last_reported":1747343388,"current_range_meters":6400,"station_id":"ce4bhm12rcd13ifvqgkg","pricing_plan_id":"cebpf4jnsgd1na2vs0mg"},{"bike_id":"fed06cf5-f5f2-4809-91f1-074e851a4497","system_id":"levelo_inurba_marseille","lat":43.24181,"lon":5.39723,"is_reserved":false,"is_disabled":false,"rental_uris":{"android":"levelo://app?vid=fed06cf5-f5f2-4809-91f1-074e851a4497","ios":"levelo://app?vid=fed06cf5-f5f2-4809-91f1-074e851a4497"},"vehicle_type_id":"4","last_reported":1747343388,"current_range_meters":6400,"station_id":"ce4bhn12rcd13ifvqgpg","pricing_plan_id":"cebpf4jnsgd1na2vs0mg"},{"bike_id":"93d15d0e-183e-4620-8ecc-8d584e65b7ff","system_id":"levelo_inurba_marseille","lat":43.28706,"lon":5.37393,"is_reserved":false,"is_disabled":false,"rental_uris":{"android":"levelo://app?vid=93d15d0e-183e-4620-8ecc-8d584e65b7ff","ios":"levelo://app?vid=93d15d0e-183e-4620-8ecc-8d584e65b7ff"},"vehicle_type_id":"4","last_reported":1747343388,"current_range_meters":6800,"station_id":"ce4bh3p2rcd13ifvqdq0","pricing_plan_id":"cebpf4jnsgd1na2vs0mg"},{"bike_id":"e2e2487b-8a81-4022-b36a-6aa7a6726e87","system_id":"levelo_inurba_marseille","lat":43.242,"lon":5.39709,"is_reserved":false,"is_disabled":false,"rental_uris":{"android":"levelo://app?vid=e2e2487b-8a81-4022-b36a-6aa7a6726e87","ios":"levelo://app?vid=e2e2487b-8a81-4022-b36a-6aa7a6726e87"},"vehicle_type_id":"4","last_reported":1747343388,"current_range_meters":6800,"station_id":"ce4bhn12rcd13ifvqgpg","pricing_plan_id":"cebpf4jnsgd1na2vs0mg"},{"bike_id":"f5b8fa4b-9c15-4202-bf7f-ee1fa1753644","system_id":"levelo_inurba_marseille","lat":43.27989,"lon":5.41657,"is_reserved":false,"is_disabled":false,"rental_uris":{"android":"levelo://app?vid=f5b8fa4b-9c15-4202-bf7f-ee1fa1753644","ios":"levelo://app?vid=f5b8fa4b-9c15-4202-bf7f-ee1fa1753644"},"vehicle_type_id":"4","last_reported":1747343388,"current_range_meters":6800,"station_id":"ce4bho12rcd13ifvqh1g","pricing_plan_id":"cebpf4jnsgd1na2vs0mg"},{"bike_id":"f177d2e4-b664-49e7-930f-92de032ad36e","system_id":"levelo_inurba_marseille","lat":43.32342,"lon":5.36705,"is_reserved":false,"is_disabled":false,"rental_uris":{"android":"levelo://app?vid=f177d2e4-b664-49e7-930f-92de032ad36e","ios":"levelo://app?vid=f177d2e4-b664-49e7-930f-92de032ad36e"},"vehicle_type_id":"4","last_reported":1747343388,"current_range_meters":6800,"station_id":"ce4bhsh2rcd13ifvqi2g","pricing_plan_id":"cebpf4jnsgd1na2vs0mg"},{"bike_id":"39e99e57-d2aa-4bcc-b275-e65d73c63c65","system_id":"levelo_inurba_marseille","lat":43.29806,"lon":5.39342,"is_reserved":false,"is_disabled":false,"rental_uris":{"android":"levelo://app?vid=39e99e57-d2aa-4bcc-b275-e65d73c63c65","ios":"levelo://app?vid=39e99e57-d2aa-4bcc-b275-e65d73c63c65"},"vehicle_type_id":"4","last_reported":1747343388,"current_range_meters":6800,"station_id":"chh1huq6cuj3fo74tm60","pricing_plan_id":"cebpf4jnsgd1na2vs0mg"},{"bike_id":"18e2ab6e-8fae-4f1f-b9c7-a4adc527cf67","system_id":"levelo_inurba_marseille","lat":43.33019,"lon":5.37998,"is_reserved":false,"is_disabled":false,"rental_uris":{"android":"levelo://app?vid=18e2ab6e-8fae-4f1f-b9c7-a4adc527cf67","ios":"levelo://app?vid=18e2ab6e-8fae-4f1f-b9c7-a4adc527cf67"},"vehicle_type_id":"4","last_reported":1747343388,"current_range_meters":7200,"station_id":"","pricing_plan_id":"cebpf4jnsgd1na2vs0mg"},{"bike_id":"ee88d965-4bbf-4965-bef7-53a1e7bfcc82","system_id":"levelo_inurba_marseille","lat":43.30791,"lon":5.3766,"is_reserved":false,"is_disabled":false,"rental_uris":{"android":"levelo://app?vid=ee88d965-4bbf-4965-bef7-53a1e7bfcc82","ios":"levelo://app?vid=ee88d965-4bbf-4965-bef7-53a1e7bfcc82"},"vehicle_type_id":"4","last_reported":1747343388,"current_range_meters":7200,"station_id":"ce4bgv92rcd13ifvqcq0","pricing_plan_id":"cebpf4jnsgd1na2vs0mg"},{"bike_id":"ba8fb352-1c04-4045-bcb3-375b5491f432","system_id":"levelo_inurba_marseille","lat":43.2809,"lon":5.39675,"is_reserved":false,"is_disabled":false,"rental_uris":{"android":"levelo://app?vid=ba8fb352-1c04-4045-bcb3-375b5491f432","ios":"levelo://app?vid=ba8fb352-1c04-4045-bcb3-375b5491f432"},"vehicle_type_id":"4","last_reported":1747343388,"current_range_meters":7200,"station_id":"ce4bho12rcd13ifvqh2g","pricing_plan_id":"cebpf4jnsgd1na2vs0mg"},{"bike_id":"b6896310-a386-4eb1-a47b-30e3cd81dc87","system_id":"levelo_inurba_marseille","lat":43.28698,"lon":5.39973,"is_reserved":false,"is_disabled":false,"rental_uris":{"android":"levelo://app?vid=b6896310-a386-4eb1-a47b-30e3cd81dc87","ios":"levelo://app?vid=b6896310-a386-4eb1-a47b-30e3cd81dc87"},"vehicle_type_id":"4","last_reported":1747343388,"current_range_meters":7200,"station_id":"ce4bho92rcd13ifvqh3g","pricing_plan_id":"cebpf4jnsgd1na2vs0mg"},{"bike_id":"48d79e04-d345-448d-af23-f153ef124b9d","system_id":"levelo_inurba_marseille","lat":43.29914,"lon":5.37481,"is_reserved":false,"is_disabled":false,"rental_uris":{"android":"levelo://app?vid=48d79e04-d345-448d-af23-f153ef124b9d","ios":"levelo://app?vid=48d79e04-d345-448d-af23-f153ef124b9d"},"vehicle_type_id":"4","last_reported":1747343388,"current_range_meters":8000,"station_id":"ce4bgjh2rcd13ifvqbg0","pricing_plan_id":"cebpf4jnsgd1na2vs0mg"},{"bike_id":"6e242361-41d3-4686-896b-1e0eca53a57f","system_id":"levelo_inurba_marseille","lat":43.30887,"lon":5.39658,"is_reserved":false,"is_disabled":false,"rental_uris":{"android":"levelo://app?vid=6e242361-41d3-4686-896b-1e0eca53a57f","ios":"levelo://app?vid=6e242361-41d3-4686-896b-1e0eca53a57f"},"vehicle_type_id":"4","last_reported":1747343388,"current_range_meters":8000,"station_id":"ce4bh012rcd13ifvqcv0","pricing_plan_id":"cebpf4jnsgd1na2vs0mg"},{"bike_id":"62727cd4-68e2-4053-8af3-714f7c770273","system_id":"levelo_inurba_marseille","lat":43.28415,"lon":5.37504,"is_reserved":false,"is_disabled":false,"rental_uris":{"android":"levelo://app?vid=62727cd4-68e2-4053-8af3-714f7c770273","ios":"levelo://app?vid=62727cd4-68e2-4053-8af3-714f7c770273"},"vehicle_type_id":"4","last_reported":1747343388,"current_range_meters":8000,"station_id":"ce4bh412rcd13ifvqds0","pricing_plan_id":"cebpf4jnsgd1na2vs0mg"},{"bike_id":"d4789963-feaa-420d-afc5-22454b891ea8","system_id":"levelo_inurba_marseille","lat":43.28158,"lon":5.42633,"is_reserved":false,"is_disabled":false,"rental_uris":{"android":"levelo://app?vid=d4789963-feaa-420d-afc5-22454b891ea8","ios":"levelo://app?vid=d4789963-feaa-420d-afc5-22454b891ea8"},"vehicle_type_id":"4","last_reported":1747343388,"current_range_meters":8000,"station_id":"ce4bhnh2rcd13ifvqgug","pricing_plan_id":"cebpf4jnsgd1na2vs0mg"},{"bike_id":"22368baa-c49f-4818-ad8f-92eee34f21f1","system_id":"levelo_inurba_marseille","lat":43.30379,"lon":5.42486,"is_reserved":false,"is_disabled":false,"rental_uris":{"android":"levelo://app?vid=22368baa-c49f-4818-ad8f-92eee34f21f1","ios":"levelo://app?vid=22368baa-c49f-4818-ad8f-92eee34f21f1"},"vehicle_type_id":"4","last_reported":1747343388,"current_range_meters":8000,"station_id":"ce4bhoh2rcd13ifvqh6g","pricing_plan_id":"cebpf4jnsgd1na2vs0mg"},{"bike_id":"30062e82-b6c9-48bf-ad0e-78e8aabb2070","system_id":"levelo_inurba_marseille","lat":43.21738,"lon":5.34567,"is_reserved":false,"is_disabled":false,"rental_uris":{"android":"levelo://app?vid=30062e82-b6c9-48bf-ad0e-78e8aabb2070","ios":"levelo://app?vid=30062e82-b6c9-48bf-ad0e-78e8aabb2070"},"vehicle_type_id":"4","last_reported":1747343388,"current_range_meters":8000,"station_id":"st_cvj6r9ubvosntc0bgbag","pricing_plan_id":"cebpf4jnsgd1na2vs0mg"},{"bike_id":"563f7fd1-20e2-4752-bc27-030d36cdf7ad","system_id":"levelo_inurba_marseille","lat":43.30595,"lon":5.37202,"is_reserved":false,"is_disabled":false,"rental_uris":{"android":"levelo://app?vid=563f7fd1-20e2-4752-bc27-030d36cdf7ad","ios":"levelo://app?vid=563f7fd1-20e2-4752-bc27-030d36cdf7ad"},"vehicle_type_id":"4","last_reported":1747343388,"current_range_meters":8400,"station_id":"ce4bgqh2rcd13ifvqc4g","pricing_plan_id":"cebpf4jnsgd1na2vs0mg"},{"bike_id":"77a97a10-49ce-4d5a-b430-9b0855c9b056","system_id":"levelo_inurba_marseille","lat":43.2953,"lon":5.39401,"is_reserved":false,"is_disabled":false,"rental_uris":{"android":"levelo://app?vid=77a97a10-49ce-4d5a-b430-9b0855c9b056","ios":"levelo://app?vid=77a97a10-49ce-4d5a-b430-9b0855c9b056"},"vehicle_type_id":"4","last_reported":1747343388,"current_range_meters":8400,"station_id":"ce4bh292rcd13ifvqdf0","pricing_plan_id":"cebpf4jnsgd1na2vs0mg"},{"bike_id":"a47defef-8fc8-46f7-b905-e1164d195e70","system_id":"levelo_inurba_marseille","lat":43.28848,"lon":5.39314,"is_reserved":false,"is_disabled":false,"rental_uris":{"android":"levelo://app?vid=a47defef-8fc8-46f7-b905-e1164d195e70","ios":"levelo://app?vid=a47defef-8fc8-46f7-b905-e1164d195e70"},"vehicle_type_id":"4","last_reported":1747343388,"current_range_meters":8400,"station_id":"ce4bh2p2rcd13ifvqdi0","pricing_plan_id":"cebpf4jnsgd1na2vs0mg"},{"bike_id":"38a3b32b-5fec-4261-9ad6-676ce6c58781","system_id":"levelo_inurba_marseille","lat":43.283562,"lon":5.38104,"is_reserved":false,"is_disabled":false,"rental_uris":{"android":"levelo://app?vid=38a3b32b-5fec-4261-9ad6-676ce6c58781","ios":"levelo://app?vid=38a3b32b-5fec-4261-9ad6-676ce6c58781"},"vehicle_type_id":"4","last_reported":1747343388,"current_range_meters":8400,"station_id":"ce4bh412rcd13ifvqdr0","pricing_plan_id":"cebpf4jnsgd1na2vs0mg"},{"bike_id":"64908e2c-289d-42cb-b946-7648955ad17f","system_id":"levelo_inurba_marseille","lat":43.29017,"lon":5.38623,"is_reserved":false,"is_disabled":false,"rental_uris":{"android":"levelo://app?vid=64908e2c-289d-42cb-b946-7648955ad17f","ios":"levelo://app?vid=64908e2c-289d-42cb-b946-7648955ad17f"},"vehicle_type_id":"4","last_reported":1747343388,"current_range_meters":8400,"station_id":"ce4bh4p2rcd13ifvqe0g","pricing_plan_id":"cebpf4jnsgd1na2vs0mg"},{"bike_id":"5fdebff2-c927-4e43-81c5-6ec5122ce28c","system_id":"levelo_inurba_marseille","lat":43.2809,"lon":5.3785,"is_reserved":false,"is_disabled":false,"rental_uris":{"android":"levelo://app?vid=5fdebff2-c927-4e43-81c5-6ec5122ce28c","ios":"levelo://app?vid=5fdebff2-c927-4e43-81c5-6ec5122ce28c"},"vehicle_type_id":"4","last_reported":1747343388,"current_range_meters":8400,"station_id":"ce4bha12rcd13ifvqee0","pricing_plan_id":"cebpf4jnsgd1na2vs0mg"},{"bike_id":"94df6717-f838-4d5f-8a5b-c5bced960baa","system_id":"levelo_inurba_marseille","lat":43.24389,"lon":5.37064,"is_reserved":false,"is_disabled":false,"rental_uris":{"android":"levelo://app?vid=94df6717-f838-4d5f-8a5b-c5bced960baa","ios":"levelo://app?vid=94df6717-f838-4d5f-8a5b-c5bced960baa"},"vehicle_type_id":"4","last_reported":1747343388,"current_range_meters":8400,"station_id":"ce4bhhh2rcd13ifvqfk0","pricing_plan_id":"cebpf4jnsgd1na2vs0mg"},{"bike_id":"b7cb570d-77f5-48d9-be33-70291761d5d7","system_id":"levelo_inurba_marseille","lat":43.21189,"lon":5.35066,"is_reserved":false,"is_disabled":false,"rental_uris":{"android":"levelo://app?vid=b7cb570d-77f5-48d9-be33-70291761d5d7","ios":"levelo://app?vid=b7cb570d-77f5-48d9-be33-70291761d5d7"},"vehicle_type_id":"4","last_reported":1747343388,"current_range_meters":8400,"station_id":"st_cvj6sg6p6f1abm77japg","pricing_plan_id":"cebpf4jnsgd1na2vs0mg"},{"bike_id":"614a6166-1760-4980-853c-86035facd777","system_id":"levelo_inurba_marseille","lat":43.33206,"lon":5.37976,"is_reserved":false,"is_disabled":false,"rental_uris":{"android":"levelo://app?vid=614a6166-1760-4980-853c-86035facd777","ios":"levelo://app?vid=614a6166-1760-4980-853c-86035facd777"},"vehicle_type_id":"4","last_reported":1747343388,"current_range_meters":8800,"station_id":"","pricing_plan_id":"cebpf4jnsgd1na2vs0mg"},{"bike_id":"561549a2-798d-4052-830a-279630f71645","system_id":"levelo_inurba_marseille","lat":43.28428,"lon":5.35516,"is_reserved":false,"is_disabled":false,"rental_uris":{"android":"levelo://app?vid=561549a2-798d-4052-830a-279630f71645","ios":"levelo://app?vid=561549a2-798d-4052-830a-279630f71645"},"vehicle_type_id":"4","last_reported":1747343388,"current_range_meters":8800,"station_id":"","pricing_plan_id":"cebpf4jnsgd1na2vs0mg"},{"bike_id":"680938f3-c3e8-44ed-a520-cb983b0c28aa","system_id":"levelo_inurba_marseille","lat":43.29451,"lon":5.39748,"is_reserved":false,"is_disabled":false,"rental_uris":{"android":"levelo://app?vid=680938f3-c3e8-44ed-a520-cb983b0c28aa","ios":"levelo://app?vid=680938f3-c3e8-44ed-a520-cb983b0c28aa"},"vehicle_type_id":"4","last_reported":1747343388,"current_range_meters":8800,"station_id":"ce4bh3h2rcd13ifvqdo0","pricing_plan_id":"cebpf4jnsgd1na2vs0mg"},{"bike_id":"04539c87-76eb-4b45-a743-515c3df3ab81","system_id":"levelo_inurba_marseille","lat":43.28355,"lon":5.38102,"is_reserved":false,"is_disabled":false,"rental_uris":{"android":"levelo://app?vid=04539c87-76eb-4b45-a743-515c3df3ab81","ios":"levelo://app?vid=04539c87-76eb-4b45-a743-515c3df3ab81"},"vehicle_type_id":"4","last_reported":1747343388,"current_range_meters":8800,"station_id":"ce4bh412rcd13ifvqdr0","pricing_plan_id":"cebpf4jnsgd1na2vs0mg"},{"bike_id":"4b737c71-2d50-46db-b412-91ca61536621","system_id":"levelo_inurba_marseille","lat":43.26053,"lon":5.39395,"is_reserved":false,"is_disabled":false,"rental_uris":{"android":"levelo://app?vid=4b737c71-2d50-46db-b412-91ca61536621","ios":"levelo://app?vid=4b737c71-2d50-46db-b412-91ca61536621"},"vehicle_type_id":"4","last_reported":1747343388,"current_range_meters":8800,"station_id":"ce4bhh92rcd13ifvqfj0","pricing_plan_id":"cebpf4jnsgd1na2vs0mg"},{"bike_id":"226fac81-bea8-4bc6-bb83-d6b8fd20efc1","system_id":"levelo_inurba_marseille","lat":43.31249,"lon":5.45861,"is_reserved":false,"is_disabled":false,"rental_uris":{"android":"levelo://app?vid=226fac81-bea8-4bc6-bb83-d6b8fd20efc1","ios":"levelo://app?vid=226fac81-bea8-4bc6-bb83-d6b8fd20efc1"},"vehicle_type_id":"4","last_reported":1747343388,"current_range_meters":9200,"station_id":"","pricing_plan_id":"cebpf4jnsgd1na2vs0mg"},{"bike_id":"a887d8d6-6f94-4ed7-92df-883ada4838df","system_id":"levelo_inurba_marseille","lat":43.29882,"lon":5.38894,"is_reserved":false,"is_disabled":false,"rental_uris":{"android":"levelo://app?vid=a887d8d6-6f94-4ed7-92df-883ada4838df","ios":"levelo://app?vid=a887d8d6-6f94-4ed7-92df-883ada4838df"},"vehicle_type_id":"4","last_reported":1747343388,"current_range_meters":9200,"station_id":"ce4bh392rcd13ifvqdl0","pricing_plan_id":"cebpf4jnsgd1na2vs0mg"},{"bike_id":"071475b4-485f-493b-84fd-887e85797e6b","system_id":"levelo_inurba_marseille","lat":43.28724,"lon":5.37934,"is_reserved":false,"is_disabled":false,"rental_uris":{"android":"levelo://app?vid=071475b4-485f-493b-84fd-887e85797e6b","ios":"levelo://app?vid=071475b4-485f-493b-84fd-887e85797e6b"},"vehicle_type_id":"4","last_reported":1747343388,"current_range_meters":9200,"station_id":"ce4bh9p2rcd13ifvqec0","pricing_plan_id":"cebpf4jnsgd1na2vs0mg"},{"bike_id":"3f1f535b-ce0c-4f9d-bc72-6d768cecae7c","system_id":"levelo_inurba_marseille","lat":43.28701,"lon":5.39986,"is_reserved":false,"is_disabled":false,"rental_uris":{"android":"levelo://app?vid=3f1f535b-ce0c-4f9d-bc72-6d768cecae7c","ios":"levelo://app?vid=3f1f535b-ce0c-4f9d-bc72-6d768cecae7c"},"vehicle_type_id":"4","last_reported":1747343388,"current_range_meters":9200,"station_id":"ce4bho92rcd13ifvqh3g","pricing_plan_id":"cebpf4jnsgd1na2vs0mg"},{"bike_id":"cdc17061-5a6f-437b-a2d6-ebac9cb6a45e","system_id":"levelo_inurba_marseille","lat":43.32288,"lon":5.40638,"is_reserved":false,"is_disabled":false,"rental_uris":{"android":"levelo://app?vid=cdc17061-5a6f-437b-a2d6-ebac9cb6a45e","ios":"levelo://app?vid=cdc17061-5a6f-437b-a2d6-ebac9cb6a45e"},"vehicle_type_id":"4","last_reported":1747343388,"current_range_meters":9200,"station_id":"ce4bhq92rcd13ifvqhjg","pricing_plan_id":"cebpf4jnsgd1na2vs0mg"},{"bike_id":"fd368a2c-24ee-4354-aec6-35cb06319654","system_id":"levelo_inurba_marseille","lat":43.32374,"lon":5.38867,"is_reserved":false,"is_disabled":false,"rental_uris":{"android":"levelo://app?vid=fd368a2c-24ee-4354-aec6-35cb06319654","ios":"levelo://app?vid=fd368a2c-24ee-4354-aec6-35cb06319654"},"vehicle_type_id":"4","last_reported":1747343388,"current_range_meters":9200,"station_id":"ce4bhqp2rcd13ifvqhog","pricing_plan_id":"cebpf4jnsgd1na2vs0mg"},{"bike_id":"2d868c7d-1773-4908-befa-cd0aaed09d96","system_id":"levelo_inurba_marseille","lat":43.32368,"lon":5.3888,"is_reserved":false,"is_disabled":false,"rental_uris":{"android":"levelo://app?vid=2d868c7d-1773-4908-befa-cd0aaed09d96","ios":"levelo://app?vid=2d868c7d-1773-4908-befa-cd0aaed09d96"},"vehicle_type_id":"4","last_reported":1747343388,"current_range_meters":9200,"station_id":"ce4bhqp2rcd13ifvqhog","pricing_plan_id":"cebpf4jnsgd1na2vs0mg"},{"bike_id":"4e716133-12bd-48ef-8462-cdade112f10c","system_id":"levelo_inurba_marseille","lat":43.27132,"lon":5.40019,"is_reserved":false,"is_disabled":false,"rental_uris":{"android":"levelo://app?vid=4e716133-12bd-48ef-8462-cdade112f10c","ios":"levelo://app?vid=4e716133-12bd-48ef-8462-cdade112f10c"},"vehicle_type_id":"4","last_reported":1747343388,"current_range_meters":9600,"station_id":"","pricing_plan_id":"cebpf4jnsgd1na2vs0mg"},{"bike_id":"0077f398-56b6-43bb-8eeb-9798d08de05c","system_id":"levelo_inurba_marseille","lat":43.30922,"lon":5.37271,"is_reserved":false,"is_disabled":false,"rental_uris":{"android":"levelo://app?vid=0077f398-56b6-43bb-8eeb-9798d08de05c","ios":"levelo://app?vid=0077f398-56b6-43bb-8eeb-9798d08de05c"},"vehicle_type_id":"4","last_reported":1747343388,"current_range_meters":9600,"station_id":"","pricing_plan_id":"cebpf4jnsgd1na2vs0mg"},{"bike_id":"3bbd92f2-6806-408b-a244-9d40163b65cd","system_id":"levelo_inurba_marseille","lat":43.2943,"lon":5.38624,"is_reserved":false,"is_disabled":false,"rental_uris":{"android":"levelo://app?vid=3bbd92f2-6806-408b-a244-9d40163b65cd","ios":"levelo://app?vid=3bbd92f2-6806-408b-a244-9d40163b65cd"},"vehicle_type_id":"4","last_reported":1747343388,"current_range_meters":9600,"station_id":"ce4bh2h2rcd13ifvqdh0","pricing_plan_id":"cebpf4jnsgd1na2vs0mg"},{"bike_id":"524f417a-867a-4c52-8fac-a03360d23bfb","system_id":"levelo_inurba_marseille","lat":43.29446,"lon":5.39748,"is_reserved":false,"is_disabled":false,"rental_uris":{"android":"levelo://app?vid=524f417a-867a-4c52-8fac-a03360d23bfb","ios":"levelo://app?vid=524f417a-867a-4c52-8fac-a03360d23bfb"},"vehicle_type_id":"4","last_reported":1747343388,"current_range_meters":9600,"station_id":"ce4bh3h2rcd13ifvqdo0","pricing_plan_id":"cebpf4jnsgd1na2vs0mg"},{"bike_id":"ca45ddcd-6a0e-4b93-a7a2-262f4ee54cf8","system_id":"levelo_inurba_marseille","lat":43.28426,"lon":5.37512,"is_reserved":false,"is_disabled":false,"rental_uris":{"android":"levelo://app?vid=ca45ddcd-6a0e-4b93-a7a2-262f4ee54cf8","ios":"levelo://app?vid=ca45ddcd-6a0e-4b93-a7a2-262f4ee54cf8"},"vehicle_type_id":"4","last_reported":1747343388,"current_range_meters":9600,"station_id":"ce4bh412rcd13ifvqds0","pricing_plan_id":"cebpf4jnsgd1na2vs0mg"},{"bike_id":"7589aa3c-663d-4b9a-82a9-c7c89bfde8f2","system_id":"levelo_inurba_marseille","lat":43.2841,"lon":5.37523,"is_reserved":false,"is_disabled":false,"rental_uris":{"android":"levelo://app?vid=7589aa3c-663d-4b9a-82a9-c7c89bfde8f2","ios":"levelo://app?vid=7589aa3c-663d-4b9a-82a9-c7c89bfde8f2"},"vehicle_type_id":"4","last_reported":1747343388,"current_range_meters":9600,"station_id":"ce4bh412rcd13ifvqds0","pricing_plan_id":"cebpf4jnsgd1na2vs0mg"},{"bike_id":"d47aa709-16cd-4003-b5f2-52a3f9556c58","system_id":"levelo_inurba_marseille","lat":43.32341,"lon":5.40612,"is_reserved":false,"is_disabled":false,"rental_uris":{"android":"levelo://app?vid=d47aa709-16cd-4003-b5f2-52a3f9556c58","ios":"levelo://app?vid=d47aa709-16cd-4003-b5f2-52a3f9556c58"},"vehicle_type_id":"4","last_reported":1747343388,"current_range_meters":9600,"station_id":"ce4bhq92rcd13ifvqhjg","pricing_plan_id":"cebpf4jnsgd1na2vs0mg"},{"bike_id":"8ec5f003-d483-458a-a922-eb33d3c56e96","system_id":"levelo_inurba_marseille","lat":43.33593,"lon":5.40994,"is_reserved":false,"is_disabled":false,"rental_uris":{"android":"levelo://app?vid=8ec5f003-d483-458a-a922-eb33d3c56e96","ios":"levelo://app?vid=8ec5f003-d483-458a-a922-eb33d3c56e96"},"vehicle_type_id":"4","last_reported":1747343388,"current_range_meters":9600,"station_id":"ce4bhqh2rcd13ifvqhmg","pricing_plan_id":"cebpf4jnsgd1na2vs0mg"},{"bike_id":"5fbcd3a8-5fba-4859-a6da-5a3b617f4707","system_id":"levelo_inurba_marseille","lat":43.24162,"lon":5.36398,"is_reserved":false,"is_disabled":false,"rental_uris":{"android":"levelo://app?vid=5fbcd3a8-5fba-4859-a6da-5a3b617f4707","ios":"levelo://app?vid=5fbcd3a8-5fba-4859-a6da-5a3b617f4707"},"vehicle_type_id":"4","last_reported":1747343388,"current_range_meters":9600,"station_id":"cpo36qri1sfpv3e86is0","pricing_plan_id":"cebpf4jnsgd1na2vs0mg"},{"bike_id":"f768f02c-a770-46ed-b9fb-ed1e435a3c0f","system_id":"levelo_inurba_marseille","lat":43.32918,"lon":5.38976,"is_reserved":false,"is_disabled":false,"rental_uris":{"android":"levelo://app?vid=f768f02c-a770-46ed-b9fb-ed1e435a3c0f","ios":"levelo://app?vid=f768f02c-a770-46ed-b9fb-ed1e435a3c0f"},"vehicle_type_id":"4","last_reported":1747343388,"current_range_meters":10000,"station_id":"","pricing_plan_id":"cebpf4jnsgd1na2vs0mg"},{"bike_id":"7f4fc273-1360-4a47-aa6f-29da663bd116","system_id":"levelo_inurba_marseille","lat":43.249031,"lon":5.394063,"is_reserved":false,"is_disabled":false,"rental_uris":{"android":"levelo://app?vid=7f4fc273-1360-4a47-aa6f-29da663bd116","ios":"levelo://app?vid=7f4fc273-1360-4a47-aa6f-29da663bd116"},"vehicle_type_id":"4","last_reported":1747343388,"current_range_meters":10000,"station_id":"","pricing_plan_id":"cebpf4jnsgd1na2vs0mg"},{"bike_id":"ebcfa87f-6f1d-4f08-b6e6-bf6eed7fd349","system_id":"levelo_inurba_marseille","lat":43.3059,"lon":5.37226,"is_reserved":false,"is_disabled":false,"rental_uris":{"android":"levelo://app?vid=ebcfa87f-6f1d-4f08-b6e6-bf6eed7fd349","ios":"levelo://app?vid=ebcfa87f-6f1d-4f08-b6e6-bf6eed7fd349"},"vehicle_type_id":"4","last_reported":1747343388,"current_range_meters":10000,"station_id":"ce4bgqh2rcd13ifvqc4g","pricing_plan_id":"cebpf4jnsgd1na2vs0mg"},{"bike_id":"cb171dae-451b-43a5-9861-9c89f0d35636","system_id":"levelo_inurba_marseille","lat":43.28699,"lon":5.3866,"is_reserved":false,"is_disabled":false,"rental_uris":{"android":"levelo://app?vid=cb171dae-451b-43a5-9861-9c89f0d35636","ios":"levelo://app?vid=cb171dae-451b-43a5-9861-9c89f0d35636"},"vehicle_type_id":"4","last_reported":1747343388,"current_range_meters":10000,"station_id":"ce4bh492rcd13ifvqdug","pricing_plan_id":"cebpf4jnsgd1na2vs0mg"},{"bike_id":"061c4197-403e-4c5c-bcac-8ee74bdc9c6d","system_id":"levelo_inurba_marseille","lat":43.24665,"lon":5.38165,"is_reserved":false,"is_disabled":false,"rental_uris":{"android":"levelo://app?vid=061c4197-403e-4c5c-bcac-8ee74bdc9c6d","ios":"levelo://app?vid=061c4197-403e-4c5c-bcac-8ee74bdc9c6d"},"vehicle_type_id":"4","last_reported":1747343388,"current_range_meters":10000,"station_id":"ce4bhih2rcd13ifvqfr0","pricing_plan_id":"cebpf4jnsgd1na2vs0mg"},{"bike_id":"f3a72af1-1864-4f80-b643-9506010f65f6","system_id":"levelo_inurba_marseille","lat":43.28703,"lon":5.37411,"is_reserved":false,"is_disabled":false,"rental_uris":{"android":"levelo://app?vid=f3a72af1-1864-4f80-b643-9506010f65f6","ios":"levelo://app?vid=f3a72af1-1864-4f80-b643-9506010f65f6"},"vehicle_type_id":"4","last_reported":1747343388,"current_range_meters":10800,"station_id":"ce4bh3p2rcd13ifvqdq0","pricing_plan_id":"cebpf4jnsgd1na2vs0mg"},{"bike_id":"15577d04-3e2b-4f99-afaa-ef9ba2ad9697","system_id":"levelo_inurba_marseille","lat":43.25832,"lon":5.39419,"is_reserved":false,"is_disabled":false,"rental_uris":{"android":"levelo://app?vid=15577d04-3e2b-4f99-afaa-ef9ba2ad9697","ios":"levelo://app?vid=15577d04-3e2b-4f99-afaa-ef9ba2ad9697"},"vehicle_type_id":"4","last_reported":1747343388,"current_range_meters":10800,"station_id":"ce4bhip2rcd13ifvqft0","pricing_plan_id":"cebpf4jnsgd1na2vs0mg"},{"bike_id":"69395ec3-f2c3-497b-ba6e-ea857b4662d1","system_id":"levelo_inurba_marseille","lat":43.241788,"lon":5.397304,"is_reserved":false,"is_disabled":false,"rental_uris":{"android":"levelo://app?vid=69395ec3-f2c3-497b-ba6e-ea857b4662d1","ios":"levelo://app?vid=69395ec3-f2c3-497b-ba6e-ea857b4662d1"},"vehicle_type_id":"4","last_reported":1747343388,"current_range_meters":10800,"station_id":"ce4bhn12rcd13ifvqgpg","pricing_plan_id":"cebpf4jnsgd1na2vs0mg"},{"bike_id":"f8708533-c882-424d-919c-8da02599e742","system_id":"levelo_inurba_marseille","lat":43.32376,"lon":5.38882,"is_reserved":false,"is_disabled":false,"rental_uris":{"android":"levelo://app?vid=f8708533-c882-424d-919c-8da02599e742","ios":"levelo://app?vid=f8708533-c882-424d-919c-8da02599e742"},"vehicle_type_id":"4","last_reported":1747343388,"current_range_meters":10800,"station_id":"ce4bhqp2rcd13ifvqhog","pricing_plan_id":"cebpf4jnsgd1na2vs0mg"},{"bike_id":"3e19438e-984d-44dd-9fb2-db600f768109","system_id":"levelo_inurba_marseille","lat":43.30262,"lon":5.40079,"is_reserved":false,"is_disabled":false,"rental_uris":{"android":"levelo://app?vid=3e19438e-984d-44dd-9fb2-db600f768109","ios":"levelo://app?vid=3e19438e-984d-44dd-9fb2-db600f768109"},"vehicle_type_id":"4","last_reported":1747343388,"current_range_meters":11200,"station_id":"ce4bgvh2rcd13ifvqcs0","pricing_plan_id":"cebpf4jnsgd1na2vs0mg"},{"bike_id":"ce49af4a-1d11-43db-af18-db3b5e6bc9f8","system_id":"levelo_inurba_marseille","lat":43.30329,"lon":5.40434,"is_reserved":false,"is_disabled":false,"rental_uris":{"android":"levelo://app?vid=ce49af4a-1d11-43db-af18-db3b5e6bc9f8","ios":"levelo://app?vid=ce49af4a-1d11-43db-af18-db3b5e6bc9f8"},"vehicle_type_id":"4","last_reported":1747343388,"current_range_meters":11200,"station_id":"ce4bh012rcd13ifvqd10","pricing_plan_id":"cebpf4jnsgd1na2vs0mg"},{"bike_id":"31bedb95-5fc4-4b24-91b1-10c9cd7506c0","system_id":"levelo_inurba_marseille","lat":43.25837,"lon":5.39438,"is_reserved":false,"is_disabled":false,"rental_uris":{"android":"levelo://app?vid=31bedb95-5fc4-4b24-91b1-10c9cd7506c0","ios":"levelo://app?vid=31bedb95-5fc4-4b24-91b1-10c9cd7506c0"},"vehicle_type_id":"4","last_reported":1747343388,"current_range_meters":11200,"station_id":"ce4bhip2rcd13ifvqft0","pricing_plan_id":"cebpf4jnsgd1na2vs0mg"},{"bike_id":"46cafa0f-b725-42dc-8957-dee3889c2200","system_id":"levelo_inurba_marseille","lat":43.27839,"lon":5.3921,"is_reserved":false,"is_disabled":false,"rental_uris":{"android":"levelo://app?vid=46cafa0f-b725-42dc-8957-dee3889c2200","ios":"levelo://app?vid=46cafa0f-b725-42dc-8957-dee3889c2200"},"vehicle_type_id":"4","last_reported":1747343388,"current_range_meters":11200,"station_id":"ce4bhjp2rcd13ifvqga0","pricing_plan_id":"cebpf4jnsgd1na2vs0mg"},{"bike_id":"272b286b-b7d8-4cfe-b108-afc4a304e9e2","system_id":"levelo_inurba_marseille","lat":43.27995,"lon":5.40003,"is_reserved":false,"is_disabled":false,"rental_uris":{"android":"levelo://app?vid=272b286b-b7d8-4cfe-b108-afc4a304e9e2","ios":"levelo://app?vid=272b286b-b7d8-4cfe-b108-afc4a304e9e2"},"vehicle_type_id":"4","last_reported":1747343388,"current_range_meters":11200,"station_id":"ce4bho92rcd13ifvqh4g","pricing_plan_id":"cebpf4jnsgd1na2vs0mg"},{"bike_id":"e2b4908e-382d-4e94-ab4b-f5628b31503e","system_id":"levelo_inurba_marseille","lat":43.34145,"lon":5.40902,"is_reserved":false,"is_disabled":false,"rental_uris":{"android":"levelo://app?vid=e2b4908e-382d-4e94-ab4b-f5628b31503e","ios":"levelo://app?vid=e2b4908e-382d-4e94-ab4b-f5628b31503e"},"vehicle_type_id":"4","last_reported":1747343388,"current_range_meters":11200,"station_id":"ce4bhqh2rcd13ifvqhlg","pricing_plan_id":"cebpf4jnsgd1na2vs0mg"},{"bike_id":"ae0ac683-b1c0-4f78-b2c4-ad4f28836c02","system_id":"levelo_inurba_marseille","lat":43.29031,"lon":5.39968,"is_reserved":false,"is_disabled":false,"rental_uris":{"android":"levelo://app?vid=ae0ac683-b1c0-4f78-b2c4-ad4f28836c02","ios":"levelo://app?vid=ae0ac683-b1c0-4f78-b2c4-ad4f28836c02"},"vehicle_type_id":"4","last_reported":1747343388,"current_range_meters":11600,"station_id":"ce4bh392rcd13ifvqdm0","pricing_plan_id":"cebpf4jnsgd1na2vs0mg"},{"bike_id":"ab4e5a85-0ffe-4a65-9b04-ab3547a82031","system_id":"levelo_inurba_marseille","lat":43.24189,"lon":5.39724,"is_reserved":false,"is_disabled":false,"rental_uris":{"android":"levelo://app?vid=ab4e5a85-0ffe-4a65-9b04-ab3547a82031","ios":"levelo://app?vid=ab4e5a85-0ffe-4a65-9b04-ab3547a82031"},"vehicle_type_id":"4","last_reported":1747343388,"current_range_meters":11600,"station_id":"ce4bhn12rcd13ifvqgpg","pricing_plan_id":"cebpf4jnsgd1na2vs0mg"},{"bike_id":"aff764a5-5915-435c-9997-68831ff772a7","system_id":"levelo_inurba_marseille","lat":43.31085,"lon":5.42431,"is_reserved":false,"is_disabled":false,"rental_uris":{"android":"levelo://app?vid=aff764a5-5915-435c-9997-68831ff772a7","ios":"levelo://app?vid=aff764a5-5915-435c-9997-68831ff772a7"},"vehicle_type_id":"4","last_reported":1747343388,"current_range_meters":11600,"station_id":"ce4bhp92rcd13ifvqhag","pricing_plan_id":"cebpf4jnsgd1na2vs0mg"},{"bike_id":"e64e4484-2db6-41f4-beb8-e0c0ae1263cd","system_id":"levelo_inurba_marseille","lat":43.285181,"lon":5.430431,"is_reserved":false,"is_disabled":false,"rental_uris":{"android":"levelo://app?vid=e64e4484-2db6-41f4-beb8-e0c0ae1263cd","ios":"levelo://app?vid=e64e4484-2db6-41f4-beb8-e0c0ae1263cd"},"vehicle_type_id":"4","last_reported":1747343388,"current_range_meters":12000,"station_id":"","pricing_plan_id":"cebpf4jnsgd1na2vs0mg"},{"bike_id":"f8e4732a-2ecf-431c-8f66-abc7aabb8aa1","system_id":"levelo_inurba_marseille","lat":43.32947,"lon":5.38992,"is_reserved":false,"is_disabled":false,"rental_uris":{"android":"levelo://app?vid=f8e4732a-2ecf-431c-8f66-abc7aabb8aa1","ios":"levelo://app?vid=f8e4732a-2ecf-431c-8f66-abc7aabb8aa1"},"vehicle_type_id":"4","last_reported":1747343388,"current_range_meters":12000,"station_id":"","pricing_plan_id":"cebpf4jnsgd1na2vs0mg"},{"bike_id":"b94cd355-1e64-4b82-89cc-8982b6c9985a","system_id":"levelo_inurba_marseille","lat":43.30255,"lon":5.40078,"is_reserved":false,"is_disabled":false,"rental_uris":{"android":"levelo://app?vid=b94cd355-1e64-4b82-89cc-8982b6c9985a","ios":"levelo://app?vid=b94cd355-1e64-4b82-89cc-8982b6c9985a"},"vehicle_type_id":"4","last_reported":1747343388,"current_range_meters":12000,"station_id":"ce4bgvh2rcd13ifvqcs0","pricing_plan_id":"cebpf4jnsgd1na2vs0mg"},{"bike_id":"238d7f52-41a9-4d4e-836b-955a6b2dfec8","system_id":"levelo_inurba_marseille","lat":43.28155,"lon":5.42598,"is_reserved":false,"is_disabled":false,"rental_uris":{"android":"levelo://app?vid=238d7f52-41a9-4d4e-836b-955a6b2dfec8","ios":"levelo://app?vid=238d7f52-41a9-4d4e-836b-955a6b2dfec8"},"vehicle_type_id":"4","last_reported":1747343388,"current_range_meters":12000,"station_id":"ce4bhnh2rcd13ifvqgug","pricing_plan_id":"cebpf4jnsgd1na2vs0mg"},{"bike_id":"86f6a583-8115-47db-928c-9eea2b5263ea","system_id":"levelo_inurba_marseille","lat":43.281462,"lon":5.426498,"is_reserved":false,"is_disabled":false,"rental_uris":{"android":"levelo://app?vid=86f6a583-8115-47db-928c-9eea2b5263ea","ios":"levelo://app?vid=86f6a583-8115-47db-928c-9eea2b5263ea"},"vehicle_type_id":"4","last_reported":1747343388,"current_range_meters":12000,"station_id":"ce4bhnh2rcd13ifvqgug","pricing_plan_id":"cebpf4jnsgd1na2vs0mg"},{"bike_id":"59c25f22-c8ab-4e86-9539-0bf088f6d80e","system_id":"levelo_inurba_marseille","lat":43.31349,"lon":5.36707,"is_reserved":false,"is_disabled":false,"rental_uris":{"android":"levelo://app?vid=59c25f22-c8ab-4e86-9539-0bf088f6d80e","ios":"levelo://app?vid=59c25f22-c8ab-4e86-9539-0bf088f6d80e"},"vehicle_type_id":"4","last_reported":1747343388,"current_range_meters":12400,"station_id":"ce4bgr92rcd13ifvqc6g","pricing_plan_id":"cebpf4jnsgd1na2vs0mg"},{"bike_id":"419fd523-3f13-4ce0-b66c-77e0fec9f9af","system_id":"levelo_inurba_marseille","lat":43.30885,"lon":5.39629,"is_reserved":false,"is_disabled":false,"rental_uris":{"android":"levelo://app?vid=419fd523-3f13-4ce0-b66c-77e0fec9f9af","ios":"levelo://app?vid=419fd523-3f13-4ce0-b66c-77e0fec9f9af"},"vehicle_type_id":"4","last_reported":1747343388,"current_range_meters":12400,"station_id":"ce4bh012rcd13ifvqcv0","pricing_plan_id":"cebpf4jnsgd1na2vs0mg"},{"bike_id":"e569c6b1-7056-48fc-9532-34d8bdd7ba2d","system_id":"levelo_inurba_marseille","lat":43.294496,"lon":5.397438,"is_reserved":false,"is_disabled":false,"rental_uris":{"android":"levelo://app?vid=e569c6b1-7056-48fc-9532-34d8bdd7ba2d","ios":"levelo://app?vid=e569c6b1-7056-48fc-9532-34d8bdd7ba2d"},"vehicle_type_id":"4","last_reported":1747343388,"current_range_meters":12400,"station_id":"ce4bh3h2rcd13ifvqdo0","pricing_plan_id":"cebpf4jnsgd1na2vs0mg"},{"bike_id":"9646d106-98c3-4ae2-846d-d8b445526c17","system_id":"levelo_inurba_marseille","lat":43.29069,"lon":5.37174,"is_reserved":false,"is_disabled":false,"rental_uris":{"android":"levelo://app?vid=9646d106-98c3-4ae2-846d-d8b445526c17","ios":"levelo://app?vid=9646d106-98c3-4ae2-846d-d8b445526c17"},"vehicle_type_id":"4","last_reported":1747343388,"current_range_meters":12400,"station_id":"ce4bh5p2rcd13ifvqe4g","pricing_plan_id":"cebpf4jnsgd1na2vs0mg"},{"bike_id":"237cae25-7a61-4f02-b20f-f00c1bedf897","system_id":"levelo_inurba_marseille","lat":43.27821,"lon":5.40701,"is_reserved":false,"is_disabled":false,"rental_uris":{"android":"levelo://app?vid=237cae25-7a61-4f02-b20f-f00c1bedf897","ios":"levelo://app?vid=237cae25-7a61-4f02-b20f-f00c1bedf897"},"vehicle_type_id":"4","last_reported":1747343388,"current_range_meters":12400,"station_id":"ce4bhnh2rcd13ifvqgtg","pricing_plan_id":"cebpf4jnsgd1na2vs0mg"},{"bike_id":"ac038ba6-1734-43d8-ad2e-e3a818a8fec2","system_id":"levelo_inurba_marseille","lat":43.3173,"lon":5.42412,"is_reserved":false,"is_disabled":false,"rental_uris":{"android":"levelo://app?vid=ac038ba6-1734-43d8-ad2e-e3a818a8fec2","ios":"levelo://app?vid=ac038ba6-1734-43d8-ad2e-e3a818a8fec2"},"vehicle_type_id":"4","last_reported":1747343388,"current_range_meters":12400,"station_id":"ce4bhp92rcd13ifvqhbg","pricing_plan_id":"cebpf4jnsgd1na2vs0mg"},{"bike_id":"027f72d8-88c3-409a-9f83-3afde0954f18","system_id":"levelo_inurba_marseille","lat":43.302677,"lon":5.396925,"is_reserved":false,"is_disabled":false,"rental_uris":{"android":"levelo://app?vid=027f72d8-88c3-409a-9f83-3afde0954f18","ios":"levelo://app?vid=027f72d8-88c3-409a-9f83-3afde0954f18"},"vehicle_type_id":"4","last_reported":1747343388,"current_range_meters":12800,"station_id":"","pricing_plan_id":"cebpf4jnsgd1na2vs0mg"},{"bike_id":"c036520d-fd4c-4152-bcdf-1ca0a144635b","system_id":"levelo_inurba_marseille","lat":43.30795,"lon":5.38158,"is_reserved":false,"is_disabled":false,"rental_uris":{"android":"levelo://app?vid=c036520d-fd4c-4152-bcdf-1ca0a144635b","ios":"levelo://app?vid=c036520d-fd4c-4152-bcdf-1ca0a144635b"},"vehicle_type_id":"4","last_reported":1747343388,"current_range_meters":12800,"station_id":"ce4bgt12rcd13ifvqce0","pricing_plan_id":"cebpf4jnsgd1na2vs0mg"},{"bike_id":"1bb78060-a6e9-4acd-89d4-b46f06f7121b","system_id":"levelo_inurba_marseille","lat":43.303265,"lon":5.404365,"is_reserved":false,"is_disabled":false,"rental_uris":{"android":"levelo://app?vid=1bb78060-a6e9-4acd-89d4-b46f06f7121b","ios":"levelo://app?vid=1bb78060-a6e9-4acd-89d4-b46f06f7121b"},"vehicle_type_id":"4","last_reported":1747343388,"current_range_meters":12800,"station_id":"ce4bh012rcd13ifvqd10","pricing_plan_id":"cebpf4jnsgd1na2vs0mg"},{"bike_id":"7688d6bf-38d3-49a7-be41-4c731ec36c1d","system_id":"levelo_inurba_marseille","lat":43.30633,"lon":5.4007,"is_reserved":false,"is_disabled":false,"rental_uris":{"android":"levelo://app?vid=7688d6bf-38d3-49a7-be41-4c731ec36c1d","ios":"levelo://app?vid=7688d6bf-38d3-49a7-be41-4c731ec36c1d"},"vehicle_type_id":"4","last_reported":1747343388,"current_range_meters":12800,"station_id":"ce4bh112rcd13ifvqda0","pricing_plan_id":"cebpf4jnsgd1na2vs0mg"},{"bike_id":"a15f8fdb-454f-46a9-bc40-186f54d4cbe9","system_id":"levelo_inurba_marseille","lat":43.2835,"lon":5.3811,"is_reserved":false,"is_disabled":false,"rental_uris":{"android":"levelo://app?vid=a15f8fdb-454f-46a9-bc40-186f54d4cbe9","ios":"levelo://app?vid=a15f8fdb-454f-46a9-bc40-186f54d4cbe9"},"vehicle_type_id":"4","last_reported":1747343388,"current_range_meters":12800,"station_id":"ce4bh412rcd13ifvqdr0","pricing_plan_id":"cebpf4jnsgd1na2vs0mg"},{"bike_id":"c84a0417-89cc-4faa-9354-122740b51444","system_id":"levelo_inurba_marseille","lat":43.28111,"lon":5.37838,"is_reserved":false,"is_disabled":false,"rental_uris":{"android":"levelo://app?vid=c84a0417-89cc-4faa-9354-122740b51444","ios":"levelo://app?vid=c84a0417-89cc-4faa-9354-122740b51444"},"vehicle_type_id":"4","last_reported":1747343388,"current_range_meters":12800,"station_id":"ce4bha12rcd13ifvqee0","pricing_plan_id":"cebpf4jnsgd1na2vs0mg"},{"bike_id":"1e0aa35f-cae5-4703-97ad-02cb8d7ab4dd","system_id":"levelo_inurba_marseille","lat":43.25088,"lon":5.3952,"is_reserved":false,"is_disabled":false,"rental_uris":{"android":"levelo://app?vid=1e0aa35f-cae5-4703-97ad-02cb8d7ab4dd","ios":"levelo://app?vid=1e0aa35f-cae5-4703-97ad-02cb8d7ab4dd"},"vehicle_type_id":"4","last_reported":1747343388,"current_range_meters":12800,"station_id":"ce4bhm12rcd13ifvqgkg","pricing_plan_id":"cebpf4jnsgd1na2vs0mg"},{"bike_id":"84e661be-7aee-41c2-88b8-b181c61b3046","system_id":"levelo_inurba_marseille","lat":43.32658,"lon":5.40992,"is_reserved":false,"is_disabled":false,"rental_uris":{"android":"levelo://app?vid=84e661be-7aee-41c2-88b8-b181c61b3046","ios":"levelo://app?vid=84e661be-7aee-41c2-88b8-b181c61b3046"},"vehicle_type_id":"4","last_reported":1747343388,"current_range_meters":12800,"station_id":"ce4bhpp2rcd13ifvqhgg","pricing_plan_id":"cebpf4jnsgd1na2vs0mg"},{"bike_id":"46a3e2c1-f297-4f25-9c99-f961a1accd8c","system_id":"levelo_inurba_marseille","lat":43.33124,"lon":5.39127,"is_reserved":false,"is_disabled":false,"rental_uris":{"android":"levelo://app?vid=46a3e2c1-f297-4f25-9c99-f961a1accd8c","ios":"levelo://app?vid=46a3e2c1-f297-4f25-9c99-f961a1accd8c"},"vehicle_type_id":"4","last_reported":1747343388,"current_range_meters":13600,"station_id":"","pricing_plan_id":"cebpf4jnsgd1na2vs0mg"},{"bike_id":"f86bff49-f428-42a7-96af-ace44757dd4a","system_id":"levelo_inurba_marseille","lat":43.33791,"lon":5.3747,"is_reserved":false,"is_disabled":false,"rental_uris":{"android":"levelo://app?vid=f86bff49-f428-42a7-96af-ace44757dd4a","ios":"levelo://app?vid=f86bff49-f428-42a7-96af-ace44757dd4a"},"vehicle_type_id":"4","last_reported":1747343388,"current_range_meters":13600,"station_id":"","pricing_plan_id":"cebpf4jnsgd1na2vs0mg"},{"bike_id":"e57a1ff4-7949-48aa-9160-5ea69cf8f2fd","system_id":"levelo_inurba_marseille","lat":43.31124,"lon":5.37758,"is_reserved":false,"is_disabled":false,"rental_uris":{"android":"levelo://app?vid=e57a1ff4-7949-48aa-9160-5ea69cf8f2fd","ios":"levelo://app?vid=e57a1ff4-7949-48aa-9160-5ea69cf8f2fd"},"vehicle_type_id":"4","last_reported":1747343388,"current_range_meters":13600,"station_id":"ce4bgt92rcd13ifvqcg0","pricing_plan_id":"cebpf4jnsgd1na2vs0mg"},{"bike_id":"0ee46c54-beb5-4889-b751-d602574a94ed","system_id":"levelo_inurba_marseille","lat":43.28106,"lon":5.37845,"is_reserved":false,"is_disabled":false,"rental_uris":{"android":"levelo://app?vid=0ee46c54-beb5-4889-b751-d602574a94ed","ios":"levelo://app?vid=0ee46c54-beb5-4889-b751-d602574a94ed"},"vehicle_type_id":"4","last_reported":1747343388,"current_range_meters":13600,"station_id":"ce4bha12rcd13ifvqee0","pricing_plan_id":"cebpf4jnsgd1na2vs0mg"},{"bike_id":"5879f203-1394-47e0-9f75-7c405ac331f5","system_id":"levelo_inurba_marseille","lat":43.323666,"lon":5.388854,"is_reserved":false,"is_disabled":false,"rental_uris":{"android":"levelo://app?vid=5879f203-1394-47e0-9f75-7c405ac331f5","ios":"levelo://app?vid=5879f203-1394-47e0-9f75-7c405ac331f5"},"vehicle_type_id":"4","last_reported":1747343388,"current_range_meters":13600,"station_id":"ce4bhqp2rcd13ifvqhog","pricing_plan_id":"cebpf4jnsgd1na2vs0mg"},{"bike_id":"ce74eb8d-9506-4e7d-bd6f-ee4185c4e1f3","system_id":"levelo_inurba_marseille","lat":43.30536,"lon":5.38439,"is_reserved":false,"is_disabled":false,"rental_uris":{"android":"levelo://app?vid=ce74eb8d-9506-4e7d-bd6f-ee4185c4e1f3","ios":"levelo://app?vid=ce74eb8d-9506-4e7d-bd6f-ee4185c4e1f3"},"vehicle_type_id":"4","last_reported":1747343388,"current_range_meters":14000,"station_id":"ce4bgg92rcd13ifvqb30","pricing_plan_id":"cebpf4jnsgd1na2vs0mg"},{"bike_id":"a47c17a4-dff5-4a09-b71d-f2a0a7a70749","system_id":"levelo_inurba_marseille","lat":43.31127,"lon":5.37765,"is_reserved":false,"is_disabled":false,"rental_uris":{"android":"levelo://app?vid=a47c17a4-dff5-4a09-b71d-f2a0a7a70749","ios":"levelo://app?vid=a47c17a4-dff5-4a09-b71d-f2a0a7a70749"},"vehicle_type_id":"4","last_reported":1747343388,"current_range_meters":14000,"station_id":"ce4bgt92rcd13ifvqcg0","pricing_plan_id":"cebpf4jnsgd1na2vs0mg"},{"bike_id":"ed7e9adb-807c-4155-9475-8ba3014084c8","system_id":"levelo_inurba_marseille","lat":43.288526,"lon":5.393283,"is_reserved":false,"is_disabled":false,"rental_uris":{"android":"levelo://app?vid=ed7e9adb-807c-4155-9475-8ba3014084c8","ios":"levelo://app?vid=ed7e9adb-807c-4155-9475-8ba3014084c8"},"vehicle_type_id":"4","last_reported":1747343388,"current_range_meters":14000,"station_id":"ce4bh2p2rcd13ifvqdi0","pricing_plan_id":"cebpf4jnsgd1na2vs0mg"},{"bike_id":"9c15c27f-fcd9-46c8-8f2a-d98c46ce8a5c","system_id":"levelo_inurba_marseille","lat":43.287,"lon":5.39985,"is_reserved":false,"is_disabled":false,"rental_uris":{"android":"levelo://app?vid=9c15c27f-fcd9-46c8-8f2a-d98c46ce8a5c","ios":"levelo://app?vid=9c15c27f-fcd9-46c8-8f2a-d98c46ce8a5c"},"vehicle_type_id":"4","last_reported":1747343388,"current_range_meters":14000,"station_id":"ce4bho92rcd13ifvqh3g","pricing_plan_id":"cebpf4jnsgd1na2vs0mg"},{"bike_id":"26ed5461-fe36-4190-97e5-23787d52a7fe","system_id":"levelo_inurba_marseille","lat":43.31107,"lon":5.37773,"is_reserved":false,"is_disabled":false,"rental_uris":{"android":"levelo://app?vid=26ed5461-fe36-4190-97e5-23787d52a7fe","ios":"levelo://app?vid=26ed5461-fe36-4190-97e5-23787d52a7fe"},"vehicle_type_id":"4","last_reported":1747343388,"current_range_meters":14400,"station_id":"ce4bgt92rcd13ifvqcg0","pricing_plan_id":"cebpf4jnsgd1na2vs0mg"},{"bike_id":"ea95e8ec-562b-49e7-a15b-4eca8febff1e","system_id":"levelo_inurba_marseille","lat":43.278283,"lon":5.391736,"is_reserved":false,"is_disabled":false,"rental_uris":{"android":"levelo://app?vid=ea95e8ec-562b-49e7-a15b-4eca8febff1e","ios":"levelo://app?vid=ea95e8ec-562b-49e7-a15b-4eca8febff1e"},"vehicle_type_id":"4","last_reported":1747343388,"current_range_meters":14400,"station_id":"ce4bhjp2rcd13ifvqga0","pricing_plan_id":"cebpf4jnsgd1na2vs0mg"},{"bike_id":"a488853e-8708-42f9-a9f1-40f4dc62e03d","system_id":"levelo_inurba_marseille","lat":43.30529,"lon":5.37328,"is_reserved":false,"is_disabled":false,"rental_uris":{"android":"levelo://app?vid=a488853e-8708-42f9-a9f1-40f4dc62e03d","ios":"levelo://app?vid=a488853e-8708-42f9-a9f1-40f4dc62e03d"},"vehicle_type_id":"4","last_reported":1747343388,"current_range_meters":14800,"station_id":"","pricing_plan_id":"cebpf4jnsgd1na2vs0mg"},{"bike_id":"96334f03-444b-4479-a62d-d8a040dfd259","system_id":"levelo_inurba_marseille","lat":43.25496,"lon":5.37647,"is_reserved":false,"is_disabled":false,"rental_uris":{"android":"levelo://app?vid=96334f03-444b-4479-a62d-d8a040dfd259","ios":"levelo://app?vid=96334f03-444b-4479-a62d-d8a040dfd259"},"vehicle_type_id":"4","last_reported":1747343388,"current_range_meters":14800,"station_id":"ce4bhh12rcd13ifvqff0","pricing_plan_id":"cebpf4jnsgd1na2vs0mg"},{"bike_id":"39c7c348-baf3-417a-8df3-30f456f5c866","system_id":"levelo_inurba_marseille","lat":43.32106,"lon":5.36763,"is_reserved":false,"is_disabled":false,"rental_uris":{"android":"levelo://app?vid=39c7c348-baf3-417a-8df3-30f456f5c866","ios":"levelo://app?vid=39c7c348-baf3-417a-8df3-30f456f5c866"},"vehicle_type_id":"4","last_reported":1747343388,"current_range_meters":14800,"station_id":"ce4bhrh2rcd13ifvqhug","pricing_plan_id":"cebpf4jnsgd1na2vs0mg"},{"bike_id":"1f40b1c8-404d-4fd1-bb32-88fb923bca3f","system_id":"levelo_inurba_marseille","lat":43.29786,"lon":5.39345,"is_reserved":false,"is_disabled":false,"rental_uris":{"android":"levelo://app?vid=1f40b1c8-404d-4fd1-bb32-88fb923bca3f","ios":"levelo://app?vid=1f40b1c8-404d-4fd1-bb32-88fb923bca3f"},"vehicle_type_id":"4","last_reported":1747343388,"current_range_meters":14800,"station_id":"chh1huq6cuj3fo74tm60","pricing_plan_id":"cebpf4jnsgd1na2vs0mg"},{"bike_id":"e29f14d1-c786-4e28-830a-050ccdc1aa54","system_id":"levelo_inurba_marseille","lat":43.29254,"lon":5.40911,"is_reserved":false,"is_disabled":false,"rental_uris":{"android":"levelo://app?vid=e29f14d1-c786-4e28-830a-050ccdc1aa54","ios":"levelo://app?vid=e29f14d1-c786-4e28-830a-050ccdc1aa54"},"vehicle_type_id":"4","last_reported":1747343388,"current_range_meters":15200,"station_id":"ce4bh192rcd13ifvqdc0","pricing_plan_id":"cebpf4jnsgd1na2vs0mg"},{"bike_id":"ab672895-e3bc-4621-a2a8-14d480d3c15a","system_id":"levelo_inurba_marseille","lat":43.26604,"lon":5.3902,"is_reserved":false,"is_disabled":false,"rental_uris":{"android":"levelo://app?vid=ab672895-e3bc-4621-a2a8-14d480d3c15a","ios":"levelo://app?vid=ab672895-e3bc-4621-a2a8-14d480d3c15a"},"vehicle_type_id":"4","last_reported":1747343388,"current_range_meters":15200,"station_id":"ce4bhe12rcd13ifvqf30","pricing_plan_id":"cebpf4jnsgd1na2vs0mg"},{"bike_id":"49a5ca5b-2dd1-4c5c-95bc-2c85ce199845","system_id":"levelo_inurba_marseille","lat":43.301422,"lon":5.380648,"is_reserved":false,"is_disabled":false,"rental_uris":{"android":"levelo://app?vid=49a5ca5b-2dd1-4c5c-95bc-2c85ce199845","ios":"levelo://app?vid=49a5ca5b-2dd1-4c5c-95bc-2c85ce199845"},"vehicle_type_id":"4","last_reported":1747343388,"current_range_meters":15200,"station_id":"ce4bho12rcd13ifvqh1g","pricing_plan_id":"cebpf4jnsgd1na2vs0mg"},{"bike_id":"6d886103-344e-431a-ac80-7f62879d2f7c","system_id":"levelo_inurba_marseille","lat":43.22935,"lon":5.35375,"is_reserved":false,"is_disabled":false,"rental_uris":{"android":"levelo://app?vid=6d886103-344e-431a-ac80-7f62879d2f7c","ios":"levelo://app?vid=6d886103-344e-431a-ac80-7f62879d2f7c"},"vehicle_type_id":"4","last_reported":1747343388,"current_range_meters":15200,"station_id":"cpo3532slgdg3j2ikp40","pricing_plan_id":"cebpf4jnsgd1na2vs0mg"},{"bike_id":"aa239ba2-f01b-46df-8666-407c5e49459b","system_id":"levelo_inurba_marseille","lat":43.30919,"lon":5.40139,"is_reserved":false,"is_disabled":false,"rental_uris":{"android":"levelo://app?vid=aa239ba2-f01b-46df-8666-407c5e49459b","ios":"levelo://app?vid=aa239ba2-f01b-46df-8666-407c5e49459b"},"vehicle_type_id":"4","last_reported":1747343388,"current_range_meters":16000,"station_id":"ce4bgvp2rcd13ifvqct0","pricing_plan_id":"cebpf4jnsgd1na2vs0mg"},{"bike_id":"893d59b2-1894-42ba-b17c-0aaa787c4475","system_id":"levelo_inurba_marseille","lat":43.30949,"lon":5.40146,"is_reserved":false,"is_disabled":false,"rental_uris":{"android":"levelo://app?vid=893d59b2-1894-42ba-b17c-0aaa787c4475","ios":"levelo://app?vid=893d59b2-1894-42ba-b17c-0aaa787c4475"},"vehicle_type_id":"4","last_reported":1747343388,"current_range_meters":16000,"station_id":"ce4bgvp2rcd13ifvqct0","pricing_plan_id":"cebpf4jnsgd1na2vs0mg"},{"bike_id":"44ebde39-7f60-4c3c-863a-d4d42bcfc78c","system_id":"levelo_inurba_marseille","lat":43.3043,"lon":5.39747,"is_reserved":false,"is_disabled":false,"rental_uris":{"android":"levelo://app?vid=44ebde39-7f60-4c3c-863a-d4d42bcfc78c","ios":"levelo://app?vid=44ebde39-7f60-4c3c-863a-d4d42bcfc78c"},"vehicle_type_id":"4","last_reported":1747343388,"current_range_meters":16000,"station_id":"ce4bh092rcd13ifvqd20","pricing_plan_id":"cebpf4jnsgd1na2vs0mg"},{"bike_id":"d8a739e2-01be-4859-893b-3009da028a91","system_id":"levelo_inurba_marseille","lat":43.2867,"lon":5.38665,"is_reserved":false,"is_disabled":false,"rental_uris":{"android":"levelo://app?vid=d8a739e2-01be-4859-893b-3009da028a91","ios":"levelo://app?vid=d8a739e2-01be-4859-893b-3009da028a91"},"vehicle_type_id":"4","last_reported":1747343388,"current_range_meters":16000,"station_id":"ce4bh492rcd13ifvqdug","pricing_plan_id":"cebpf4jnsgd1na2vs0mg"},{"bike_id":"ca2814ff-db1a-4be3-a7ff-913f1c0503af","system_id":"levelo_inurba_marseille","lat":43.287132,"lon":5.379405,"is_reserved":false,"is_disabled":false,"rental_uris":{"android":"levelo://app?vid=ca2814ff-db1a-4be3-a7ff-913f1c0503af","ios":"levelo://app?vid=ca2814ff-db1a-4be3-a7ff-913f1c0503af"},"vehicle_type_id":"4","last_reported":1747343388,"current_range_meters":16000,"station_id":"ce4bh9p2rcd13ifvqec0","pricing_plan_id":"cebpf4jnsgd1na2vs0mg"},{"bike_id":"c729e29f-0fde-49aa-8bb2-1db3b2e0227e","system_id":"levelo_inurba_marseille","lat":43.28666,"lon":5.36359,"is_reserved":false,"is_disabled":false,"rental_uris":{"android":"levelo://app?vid=c729e29f-0fde-49aa-8bb2-1db3b2e0227e","ios":"levelo://app?vid=c729e29f-0fde-49aa-8bb2-1db3b2e0227e"},"vehicle_type_id":"4","last_reported":1747343388,"current_range_meters":16000,"station_id":"ce4bhah2rcd13ifvqej0","pricing_plan_id":"cebpf4jnsgd1na2vs0mg"},{"bike_id":"26173702-3864-4b5e-ab78-221b845e135f","system_id":"levelo_inurba_marseille","lat":43.28696,"lon":5.39966,"is_reserved":false,"is_disabled":false,"rental_uris":{"android":"levelo://app?vid=26173702-3864-4b5e-ab78-221b845e135f","ios":"levelo://app?vid=26173702-3864-4b5e-ab78-221b845e135f"},"vehicle_type_id":"4","last_reported":1747343388,"current_range_meters":16000,"station_id":"ce4bho92rcd13ifvqh3g","pricing_plan_id":"cebpf4jnsgd1na2vs0mg"},{"bike_id":"1121c08b-9c34-42bb-ad3e-e0947dc1fc45","system_id":"levelo_inurba_marseille","lat":43.3248,"lon":5.36556,"is_reserved":false,"is_disabled":false,"rental_uris":{"android":"levelo://app?vid=1121c08b-9c34-42bb-ad3e-e0947dc1fc45","ios":"levelo://app?vid=1121c08b-9c34-42bb-ad3e-e0947dc1fc45"},"vehicle_type_id":"4","last_reported":1747343388,"current_range_meters":16000,"station_id":"ce4bhs12rcd13ifvqhvg","pricing_plan_id":"cebpf4jnsgd1na2vs0mg"},{"bike_id":"00582634-d557-4f1c-8bde-b1e674d16622","system_id":"levelo_inurba_marseille","lat":43.29781,"lon":5.39338,"is_reserved":false,"is_disabled":false,"rental_uris":{"android":"levelo://app?vid=00582634-d557-4f1c-8bde-b1e674d16622","ios":"levelo://app?vid=00582634-d557-4f1c-8bde-b1e674d16622"},"vehicle_type_id":"4","last_reported":1747343388,"current_range_meters":16000,"station_id":"chh1huq6cuj3fo74tm60","pricing_plan_id":"cebpf4jnsgd1na2vs0mg"},{"bike_id":"2a56cf36-d3fb-4a41-8ebc-23f0abc6d7f1","system_id":"levelo_inurba_marseille","lat":43.2123,"lon":5.3506,"is_reserved":false,"is_disabled":false,"rental_uris":{"android":"levelo://app?vid=2a56cf36-d3fb-4a41-8ebc-23f0abc6d7f1","ios":"levelo://app?vid=2a56cf36-d3fb-4a41-8ebc-23f0abc6d7f1"},"vehicle_type_id":"4","last_reported":1747343388,"current_range_meters":16400,"station_id":"","pricing_plan_id":"cebpf4jnsgd1na2vs0mg"},{"bike_id":"004deaad-71d8-428c-b44b-9070f09291d4","system_id":"levelo_inurba_marseille","lat":43.31833,"lon":5.3727,"is_reserved":false,"is_disabled":false,"rental_uris":{"android":"levelo://app?vid=004deaad-71d8-428c-b44b-9070f09291d4","ios":"levelo://app?vid=004deaad-71d8-428c-b44b-9070f09291d4"},"vehicle_type_id":"4","last_reported":1747343388,"current_range_meters":16400,"station_id":"","pricing_plan_id":"cebpf4jnsgd1na2vs0mg"},{"bike_id":"5393d561-11ed-4011-a0b5-c258ff7b2dfb","system_id":"levelo_inurba_marseille","lat":43.30255,"lon":5.40067,"is_reserved":false,"is_disabled":false,"rental_uris":{"android":"levelo://app?vid=5393d561-11ed-4011-a0b5-c258ff7b2dfb","ios":"levelo://app?vid=5393d561-11ed-4011-a0b5-c258ff7b2dfb"},"vehicle_type_id":"4","last_reported":1747343388,"current_range_meters":16400,"station_id":"ce4bgvh2rcd13ifvqcs0","pricing_plan_id":"cebpf4jnsgd1na2vs0mg"},{"bike_id":"39f8671a-8167-408b-91d6-ddc7d8ee515d","system_id":"levelo_inurba_marseille","lat":43.30641,"lon":5.40074,"is_reserved":false,"is_disabled":false,"rental_uris":{"android":"levelo://app?vid=39f8671a-8167-408b-91d6-ddc7d8ee515d","ios":"levelo://app?vid=39f8671a-8167-408b-91d6-ddc7d8ee515d"},"vehicle_type_id":"4","last_reported":1747343388,"current_range_meters":16400,"station_id":"ce4bh112rcd13ifvqda0","pricing_plan_id":"cebpf4jnsgd1na2vs0mg"},{"bike_id":"9c69e55b-3827-4551-aa71-02fc928cda04","system_id":"levelo_inurba_marseille","lat":43.323654,"lon":5.388923,"is_reserved":false,"is_disabled":false,"rental_uris":{"android":"levelo://app?vid=9c69e55b-3827-4551-aa71-02fc928cda04","ios":"levelo://app?vid=9c69e55b-3827-4551-aa71-02fc928cda04"},"vehicle_type_id":"4","last_reported":1747343388,"current_range_meters":16400,"station_id":"ce4bhqp2rcd13ifvqhog","pricing_plan_id":"cebpf4jnsgd1na2vs0mg"},{"bike_id":"31b1aa38-bbf9-49a6-b106-f8bd4c1621e0","system_id":"levelo_inurba_marseille","lat":43.30194,"lon":5.36634,"is_reserved":false,"is_disabled":false,"rental_uris":{"android":"levelo://app?vid=31b1aa38-bbf9-49a6-b106-f8bd4c1621e0","ios":"levelo://app?vid=31b1aa38-bbf9-49a6-b106-f8bd4c1621e0"},"vehicle_type_id":"4","last_reported":1747343388,"current_range_meters":16800,"station_id":"ce4bgrh2rcd13ifvqc8g","pricing_plan_id":"cebpf4jnsgd1na2vs0mg"},{"bike_id":"390ce11c-f867-4081-8eb4-b18d3e644798","system_id":"levelo_inurba_marseille","lat":43.28938,"lon":5.39621,"is_reserved":false,"is_disabled":false,"rental_uris":{"android":"levelo://app?vid=390ce11c-f867-4081-8eb4-b18d3e644798","ios":"levelo://app?vid=390ce11c-f867-4081-8eb4-b18d3e644798"},"vehicle_type_id":"4","last_reported":1747343388,"current_range_meters":16800,"station_id":"ce4bh3h2rcd13ifvqdn0","pricing_plan_id":"cebpf4jnsgd1na2vs0mg"},{"bike_id":"92358a6b-416a-44b4-acd3-b6537479b73a","system_id":"levelo_inurba_marseille","lat":43.26194,"lon":5.37447,"is_reserved":false,"is_disabled":false,"rental_uris":{"android":"levelo://app?vid=92358a6b-416a-44b4-acd3-b6537479b73a","ios":"levelo://app?vid=92358a6b-416a-44b4-acd3-b6537479b73a"},"vehicle_type_id":"4","last_reported":1747343388,"current_range_meters":16800,"station_id":"ce4bhgp2rcd13ifvqfc0","pricing_plan_id":"cebpf4jnsgd1na2vs0mg"},{"bike_id":"6558bd78-5118-49f5-baf5-87eb40b51e8d","system_id":"levelo_inurba_marseille","lat":43.27177,"lon":5.40995,"is_reserved":false,"is_disabled":false,"rental_uris":{"android":"levelo://app?vid=6558bd78-5118-49f5-baf5-87eb40b51e8d","ios":"levelo://app?vid=6558bd78-5118-49f5-baf5-87eb40b51e8d"},"vehicle_type_id":"4","last_reported":1747343388,"current_range_meters":16800,"station_id":"ce4bhl12rcd13ifvqgf0","pricing_plan_id":"cebpf4jnsgd1na2vs0mg"},{"bike_id":"225d88a7-bbb1-45c7-845f-1fd1816815a2","system_id":"levelo_inurba_marseille","lat":43.34677,"lon":5.34551,"is_reserved":false,"is_disabled":false,"rental_uris":{"android":"levelo://app?vid=225d88a7-bbb1-45c7-845f-1fd1816815a2","ios":"levelo://app?vid=225d88a7-bbb1-45c7-845f-1fd1816815a2"},"vehicle_type_id":"4","last_reported":1747343388,"current_range_meters":17200,"station_id":"","pricing_plan_id":"cebpf4jnsgd1na2vs0mg"},{"bike_id":"14c75fad-f012-41d2-b4a9-1138f8ca169b","system_id":"levelo_inurba_marseille","lat":43.30869,"lon":5.39631,"is_reserved":false,"is_disabled":false,"rental_uris":{"android":"levelo://app?vid=14c75fad-f012-41d2-b4a9-1138f8ca169b","ios":"levelo://app?vid=14c75fad-f012-41d2-b4a9-1138f8ca169b"},"vehicle_type_id":"4","last_reported":1747343388,"current_range_meters":17200,"station_id":"ce4bh012rcd13ifvqcv0","pricing_plan_id":"cebpf4jnsgd1na2vs0mg"},{"bike_id":"c18f41fc-b1cf-4e06-8262-8743e71bd6fc","system_id":"levelo_inurba_marseille","lat":43.30762,"lon":5.3766,"is_reserved":false,"is_disabled":false,"rental_uris":{"android":"levelo://app?vid=c18f41fc-b1cf-4e06-8262-8743e71bd6fc","ios":"levelo://app?vid=c18f41fc-b1cf-4e06-8262-8743e71bd6fc"},"vehicle_type_id":"4","last_reported":1747343388,"current_range_meters":17600,"station_id":"ce4bgv92rcd13ifvqcq0","pricing_plan_id":"cebpf4jnsgd1na2vs0mg"},{"bike_id":"4724ece7-cc29-4891-a712-ddc57190bda5","system_id":"levelo_inurba_marseille","lat":43.29885,"lon":5.38913,"is_reserved":false,"is_disabled":false,"rental_uris":{"android":"levelo://app?vid=4724ece7-cc29-4891-a712-ddc57190bda5","ios":"levelo://app?vid=4724ece7-cc29-4891-a712-ddc57190bda5"},"vehicle_type_id":"4","last_reported":1747343388,"current_range_meters":17600,"station_id":"ce4bh392rcd13ifvqdl0","pricing_plan_id":"cebpf4jnsgd1na2vs0mg"},{"bike_id":"376235ef-3727-4be2-a231-1a4f4a4e03dd","system_id":"levelo_inurba_marseille","lat":43.29455,"lon":5.39739,"is_reserved":false,"is_disabled":false,"rental_uris":{"android":"levelo://app?vid=376235ef-3727-4be2-a231-1a4f4a4e03dd","ios":"levelo://app?vid=376235ef-3727-4be2-a231-1a4f4a4e03dd"},"vehicle_type_id":"4","last_reported":1747343388,"current_range_meters":17600,"station_id":"ce4bh3h2rcd13ifvqdo0","pricing_plan_id":"cebpf4jnsgd1na2vs0mg"},{"bike_id":"97debd90-929f-4fac-82c1-32872a77ce7a","system_id":"levelo_inurba_marseille","lat":43.29197,"lon":5.39338,"is_reserved":false,"is_disabled":false,"rental_uris":{"android":"levelo://app?vid=97debd90-929f-4fac-82c1-32872a77ce7a","ios":"levelo://app?vid=97debd90-929f-4fac-82c1-32872a77ce7a"},"vehicle_type_id":"4","last_reported":1747343388,"current_range_meters":18000,"station_id":"ce4bh192rcd13ifvqdd0","pricing_plan_id":"cebpf4jnsgd1na2vs0mg"},{"bike_id":"384b8789-33d5-4c25-a055-f51e5139cca5","system_id":"levelo_inurba_marseille","lat":43.286635,"lon":5.363438,"is_reserved":false,"is_disabled":false,"rental_uris":{"android":"levelo://app?vid=384b8789-33d5-4c25-a055-f51e5139cca5","ios":"levelo://app?vid=384b8789-33d5-4c25-a055-f51e5139cca5"},"vehicle_type_id":"4","last_reported":1747343388,"current_range_meters":18000,"station_id":"ce4bhah2rcd13ifvqej0","pricing_plan_id":"cebpf4jnsgd1na2vs0mg"},{"bike_id":"c9d38b35-6d83-4f58-ab38-76634da71fd3","system_id":"levelo_inurba_marseille","lat":43.31537,"lon":5.38025,"is_reserved":false,"is_disabled":false,"rental_uris":{"android":"levelo://app?vid=c9d38b35-6d83-4f58-ab38-76634da71fd3","ios":"levelo://app?vid=c9d38b35-6d83-4f58-ab38-76634da71fd3"},"vehicle_type_id":"4","last_reported":1747343388,"current_range_meters":18000,"station_id":"ce4bhsp2rcd13ifvqi50","pricing_plan_id":"cebpf4jnsgd1na2vs0mg"},{"bike_id":"aa53c5b9-c9b8-4906-989e-6e49a1f5abe6","system_id":"levelo_inurba_marseille","lat":43.22927,"lon":5.35386,"is_reserved":false,"is_disabled":false,"rental_uris":{"android":"levelo://app?vid=aa53c5b9-c9b8-4906-989e-6e49a1f5abe6","ios":"levelo://app?vid=aa53c5b9-c9b8-4906-989e-6e49a1f5abe6"},"vehicle_type_id":"4","last_reported":1747343388,"current_range_meters":18000,"station_id":"cpo3532slgdg3j2ikp40","pricing_plan_id":"cebpf4jnsgd1na2vs0mg"},{"bike_id":"6dbb2691-6afd-44a6-adc8-96cdcc1e512d","system_id":"levelo_inurba_marseille","lat":43.22956,"lon":5.3536,"is_reserved":false,"is_disabled":false,"rental_uris":{"android":"levelo://app?vid=6dbb2691-6afd-44a6-adc8-96cdcc1e512d","ios":"levelo://app?vid=6dbb2691-6afd-44a6-adc8-96cdcc1e512d"},"vehicle_type_id":"4","last_reported":1747343388,"current_range_meters":18000,"station_id":"cpo3532slgdg3j2ikp40","pricing_plan_id":"cebpf4jnsgd1na2vs0mg"},{"bike_id":"54a1a73b-9f7a-414c-a48f-eeace73bd9b0","system_id":"levelo_inurba_marseille","lat":43.22509,"lon":5.34774,"is_reserved":false,"is_disabled":false,"rental_uris":{"android":"levelo://app?vid=54a1a73b-9f7a-414c-a48f-eeace73bd9b0","ios":"levelo://app?vid=54a1a73b-9f7a-414c-a48f-eeace73bd9b0"},"vehicle_type_id":"4","last_reported":1747343388,"current_range_meters":18000,"station_id":"st_cvj5dfep6f1abm77gieg","pricing_plan_id":"cebpf4jnsgd1na2vs0mg"},{"bike_id":"54c80718-1468-47f9-9877-bc44f5940722","system_id":"levelo_inurba_marseille","lat":43.21199,"lon":5.35078,"is_reserved":false,"is_disabled":false,"rental_uris":{"android":"levelo://app?vid=54c80718-1468-47f9-9877-bc44f5940722","ios":"levelo://app?vid=54c80718-1468-47f9-9877-bc44f5940722"},"vehicle_type_id":"4","last_reported":1747343388,"current_range_meters":18000,"station_id":"st_cvj6sg6p6f1abm77japg","pricing_plan_id":"cebpf4jnsgd1na2vs0mg"},{"bike_id":"daeb7e32-7b69-4a2b-a675-0c764d15a0d6","system_id":"levelo_inurba_marseille","lat":43.30429,"lon":5.39764,"is_reserved":false,"is_disabled":false,"rental_uris":{"android":"levelo://app?vid=daeb7e32-7b69-4a2b-a675-0c764d15a0d6","ios":"levelo://app?vid=daeb7e32-7b69-4a2b-a675-0c764d15a0d6"},"vehicle_type_id":"4","last_reported":1747343388,"current_range_meters":18800,"station_id":"ce4bh092rcd13ifvqd20","pricing_plan_id":"cebpf4jnsgd1na2vs0mg"},{"bike_id":"6aead391-835b-4e50-8f04-2f39b20bbc66","system_id":"levelo_inurba_marseille","lat":43.28617,"lon":5.35105,"is_reserved":false,"is_disabled":false,"rental_uris":{"android":"levelo://app?vid=6aead391-835b-4e50-8f04-2f39b20bbc66","ios":"levelo://app?vid=6aead391-835b-4e50-8f04-2f39b20bbc66"},"vehicle_type_id":"4","last_reported":1747343388,"current_range_meters":18800,"station_id":"ce4bhch2rcd13ifvqeug","pricing_plan_id":"cebpf4jnsgd1na2vs0mg"},{"bike_id":"da66c5e5-6e35-4104-b407-ba7ff49a5057","system_id":"levelo_inurba_marseille","lat":43.23179,"lon":5.39992,"is_reserved":false,"is_disabled":false,"rental_uris":{"android":"levelo://app?vid=da66c5e5-6e35-4104-b407-ba7ff49a5057","ios":"levelo://app?vid=da66c5e5-6e35-4104-b407-ba7ff49a5057"},"vehicle_type_id":"4","last_reported":1747343388,"current_range_meters":18800,"station_id":"ce4bhn12rcd13ifvqgqg","pricing_plan_id":"cebpf4jnsgd1na2vs0mg"},{"bike_id":"32a71608-d040-4777-8836-213bb8c84259","system_id":"levelo_inurba_marseille","lat":43.27939,"lon":5.41043,"is_reserved":false,"is_disabled":false,"rental_uris":{"android":"levelo://app?vid=32a71608-d040-4777-8836-213bb8c84259","ios":"levelo://app?vid=32a71608-d040-4777-8836-213bb8c84259"},"vehicle_type_id":"4","last_reported":1747343388,"current_range_meters":18800,"station_id":"ce4bhnp2rcd13ifvqh0g","pricing_plan_id":"cebpf4jnsgd1na2vs0mg"},{"bike_id":"80e67cca-c7fa-4fe4-9771-3039f1748507","system_id":"levelo_inurba_marseille","lat":43.28705,"lon":5.39986,"is_reserved":false,"is_disabled":false,"rental_uris":{"android":"levelo://app?vid=80e67cca-c7fa-4fe4-9771-3039f1748507","ios":"levelo://app?vid=80e67cca-c7fa-4fe4-9771-3039f1748507"},"vehicle_type_id":"4","last_reported":1747343388,"current_range_meters":18800,"station_id":"ce4bho92rcd13ifvqh3g","pricing_plan_id":"cebpf4jnsgd1na2vs0mg"},{"bike_id":"fccb336e-d2ea-48fc-b4b5-69db9f976629","system_id":"levelo_inurba_marseille","lat":43.28425,"lon":5.39199,"is_reserved":false,"is_disabled":false,"rental_uris":{"android":"levelo://app?vid=fccb336e-d2ea-48fc-b4b5-69db9f976629","ios":"levelo://app?vid=fccb336e-d2ea-48fc-b4b5-69db9f976629"},"vehicle_type_id":"4","last_reported":1747343388,"current_range_meters":18800,"station_id":"ce4bhoh2rcd13ifvqh5g","pricing_plan_id":"cebpf4jnsgd1na2vs0mg"},{"bike_id":"6335d677-a299-4849-a0f3-1e55f4e585b1","system_id":"levelo_inurba_marseille","lat":43.31176,"lon":5.38704,"is_reserved":false,"is_disabled":false,"rental_uris":{"android":"levelo://app?vid=6335d677-a299-4849-a0f3-1e55f4e585b1","ios":"levelo://app?vid=6335d677-a299-4849-a0f3-1e55f4e585b1"},"vehicle_type_id":"4","last_reported":1747343388,"current_range_meters":19200,"station_id":"ce4bgv12rcd13ifvqcp0","pricing_plan_id":"cebpf4jnsgd1na2vs0mg"},{"bike_id":"dbc12823-8428-4fdf-9cdf-6bc4f4bc55e0","system_id":"levelo_inurba_marseille","lat":43.30425,"lon":5.39755,"is_reserved":false,"is_disabled":false,"rental_uris":{"android":"levelo://app?vid=dbc12823-8428-4fdf-9cdf-6bc4f4bc55e0","ios":"levelo://app?vid=dbc12823-8428-4fdf-9cdf-6bc4f4bc55e0"},"vehicle_type_id":"4","last_reported":1747343388,"current_range_meters":19200,"station_id":"ce4bh092rcd13ifvqd20","pricing_plan_id":"cebpf4jnsgd1na2vs0mg"},{"bike_id":"610b3bc3-a02d-4d75-82aa-c6a81e03b920","system_id":"levelo_inurba_marseille","lat":43.28464,"lon":5.35897,"is_reserved":false,"is_disabled":false,"rental_uris":{"android":"levelo://app?vid=610b3bc3-a02d-4d75-82aa-c6a81e03b920","ios":"levelo://app?vid=610b3bc3-a02d-4d75-82aa-c6a81e03b920"},"vehicle_type_id":"4","last_reported":1747343388,"current_range_meters":19200,"station_id":"ce4bh3h2rcd13ifvqdn0","pricing_plan_id":"cebpf4jnsgd1na2vs0mg"},{"bike_id":"81f3e17d-d1e7-4725-a4c4-9de7158d4766","system_id":"levelo_inurba_marseille","lat":43.2872,"lon":5.37938,"is_reserved":false,"is_disabled":false,"rental_uris":{"android":"levelo://app?vid=81f3e17d-d1e7-4725-a4c4-9de7158d4766","ios":"levelo://app?vid=81f3e17d-d1e7-4725-a4c4-9de7158d4766"},"vehicle_type_id":"4","last_reported":1747343388,"current_range_meters":19200,"station_id":"ce4bh9p2rcd13ifvqec0","pricing_plan_id":"cebpf4jnsgd1na2vs0mg"},{"bike_id":"ce0f48cc-cf3c-4b07-8bcd-8183c1034fba","system_id":"levelo_inurba_marseille","lat":43.26682,"lon":5.38267,"is_reserved":false,"is_disabled":false,"rental_uris":{"android":"levelo://app?vid=ce0f48cc-cf3c-4b07-8bcd-8183c1034fba","ios":"levelo://app?vid=ce0f48cc-cf3c-4b07-8bcd-8183c1034fba"},"vehicle_type_id":"4","last_reported":1747343388,"current_range_meters":19200,"station_id":"ce4bhg92rcd13ifvqf90","pricing_plan_id":"cebpf4jnsgd1na2vs0mg"},{"bike_id":"acdaf25e-d849-4b21-bc18-4d2363b6a4c1","system_id":"levelo_inurba_marseille","lat":43.30217,"lon":5.39469,"is_reserved":false,"is_disabled":false,"rental_uris":{"android":"levelo://app?vid=acdaf25e-d849-4b21-bc18-4d2363b6a4c1","ios":"levelo://app?vid=acdaf25e-d849-4b21-bc18-4d2363b6a4c1"},"vehicle_type_id":"4","last_reported":1747343388,"current_range_meters":19600,"station_id":"ce4bh0p2rcd13ifvqd70","pricing_plan_id":"cebpf4jnsgd1na2vs0mg"},{"bike_id":"8fa79d1d-4832-4866-b26e-eb7f366fd11f","system_id":"levelo_inurba_marseille","lat":43.29203,"lon":5.39316,"is_reserved":false,"is_disabled":false,"rental_uris":{"android":"levelo://app?vid=8fa79d1d-4832-4866-b26e-eb7f366fd11f","ios":"levelo://app?vid=8fa79d1d-4832-4866-b26e-eb7f366fd11f"},"vehicle_type_id":"4","last_reported":1747343388,"current_range_meters":19600,"station_id":"ce4bh192rcd13ifvqdd0","pricing_plan_id":"cebpf4jnsgd1na2vs0mg"},{"bike_id":"1904aac7-c1fd-40d7-a04b-0296c3b79556","system_id":"levelo_inurba_marseille","lat":43.28116,"lon":5.378613,"is_reserved":false,"is_disabled":false,"rental_uris":{"android":"levelo://app?vid=1904aac7-c1fd-40d7-a04b-0296c3b79556","ios":"levelo://app?vid=1904aac7-c1fd-40d7-a04b-0296c3b79556"},"vehicle_type_id":"4","last_reported":1747343388,"current_range_meters":19600,"station_id":"ce4bha12rcd13ifvqee0","pricing_plan_id":"cebpf4jnsgd1na2vs0mg"},{"bike_id":"df9e8c82-11e3-46b2-9cfc-e67609374278","system_id":"levelo_inurba_marseille","lat":43.2549,"lon":5.37645,"is_reserved":false,"is_disabled":false,"rental_uris":{"android":"levelo://app?vid=df9e8c82-11e3-46b2-9cfc-e67609374278","ios":"levelo://app?vid=df9e8c82-11e3-46b2-9cfc-e67609374278"},"vehicle_type_id":"4","last_reported":1747343388,"current_range_meters":19600,"station_id":"ce4bhh12rcd13ifvqff0","pricing_plan_id":"cebpf4jnsgd1na2vs0mg"},{"bike_id":"0b024457-9163-476e-8e28-42011b1ade8c","system_id":"levelo_inurba_marseille","lat":43.32668,"lon":5.40985,"is_reserved":false,"is_disabled":false,"rental_uris":{"android":"levelo://app?vid=0b024457-9163-476e-8e28-42011b1ade8c","ios":"levelo://app?vid=0b024457-9163-476e-8e28-42011b1ade8c"},"vehicle_type_id":"4","last_reported":1747343388,"current_range_meters":19600,"station_id":"ce4bhpp2rcd13ifvqhgg","pricing_plan_id":"cebpf4jnsgd1na2vs0mg"},{"bike_id":"802c4d63-595a-41d7-9c4d-874ae820ff7d","system_id":"levelo_inurba_marseille","lat":43.28573,"lon":5.39501,"is_reserved":false,"is_disabled":false,"rental_uris":{"android":"levelo://app?vid=802c4d63-595a-41d7-9c4d-874ae820ff7d","ios":"levelo://app?vid=802c4d63-595a-41d7-9c4d-874ae820ff7d"},"vehicle_type_id":"4","last_reported":1747343388,"current_range_meters":20000,"station_id":"ce4bh292rcd13ifvqdg0","pricing_plan_id":"cebpf4jnsgd1na2vs0mg"},{"bike_id":"cb1d7e43-3f54-4ca4-b7bc-d2c867dfb02e","system_id":"levelo_inurba_marseille","lat":43.25003,"lon":5.38922,"is_reserved":false,"is_disabled":false,"rental_uris":{"android":"levelo://app?vid=cb1d7e43-3f54-4ca4-b7bc-d2c867dfb02e","ios":"levelo://app?vid=cb1d7e43-3f54-4ca4-b7bc-d2c867dfb02e"},"vehicle_type_id":"4","last_reported":1747343388,"current_range_meters":20000,"station_id":"ce4bhgp2rcd13ifvqfd0","pricing_plan_id":"cebpf4jnsgd1na2vs0mg"},{"bike_id":"04435270-d895-46c4-a23b-e4b1597c5ed0","system_id":"levelo_inurba_marseille","lat":43.25502,"lon":5.37649,"is_reserved":false,"is_disabled":false,"rental_uris":{"android":"levelo://app?vid=04435270-d895-46c4-a23b-e4b1597c5ed0","ios":"levelo://app?vid=04435270-d895-46c4-a23b-e4b1597c5ed0"},"vehicle_type_id":"4","last_reported":1747343388,"current_range_meters":20000,"station_id":"ce4bhh12rcd13ifvqff0","pricing_plan_id":"cebpf4jnsgd1na2vs0mg"},{"bike_id":"7157188f-234f-4802-845c-417e73d48e6b","system_id":"levelo_inurba_marseille","lat":43.25876,"lon":5.39906,"is_reserved":false,"is_disabled":false,"rental_uris":{"android":"levelo://app?vid=7157188f-234f-4802-845c-417e73d48e6b","ios":"levelo://app?vid=7157188f-234f-4802-845c-417e73d48e6b"},"vehicle_type_id":"4","last_reported":1747343388,"current_range_meters":20000,"station_id":"ce4bhl92rcd13ifvqghg","pricing_plan_id":"cebpf4jnsgd1na2vs0mg"},{"bike_id":"9764e2d5-405d-4fff-ba9f-770df7ddfddc","system_id":"levelo_inurba_marseille","lat":43.2611,"lon":5.41461,"is_reserved":false,"is_disabled":false,"rental_uris":{"android":"levelo://app?vid=9764e2d5-405d-4fff-ba9f-770df7ddfddc","ios":"levelo://app?vid=9764e2d5-405d-4fff-ba9f-770df7ddfddc"},"vehicle_type_id":"4","last_reported":1747343388,"current_range_meters":20400,"station_id":"","pricing_plan_id":"cebpf4jnsgd1na2vs0mg"},{"bike_id":"ddbd7c75-6978-4c7a-a602-8a20d2cf903e","system_id":"levelo_inurba_marseille","lat":43.30329,"lon":5.40438,"is_reserved":false,"is_disabled":false,"rental_uris":{"android":"levelo://app?vid=ddbd7c75-6978-4c7a-a602-8a20d2cf903e","ios":"levelo://app?vid=ddbd7c75-6978-4c7a-a602-8a20d2cf903e"},"vehicle_type_id":"4","last_reported":1747343388,"current_range_meters":20400,"station_id":"ce4bh012rcd13ifvqd10","pricing_plan_id":"cebpf4jnsgd1na2vs0mg"},{"bike_id":"97b15f4f-49fd-4069-adf6-51d0a8ed6043","system_id":"levelo_inurba_marseille","lat":43.28566,"lon":5.39519,"is_reserved":false,"is_disabled":false,"rental_uris":{"android":"levelo://app?vid=97b15f4f-49fd-4069-adf6-51d0a8ed6043","ios":"levelo://app?vid=97b15f4f-49fd-4069-adf6-51d0a8ed6043"},"vehicle_type_id":"4","last_reported":1747343388,"current_range_meters":20400,"station_id":"ce4bh292rcd13ifvqdg0","pricing_plan_id":"cebpf4jnsgd1na2vs0mg"},{"bike_id":"856cdcbd-b218-4cd4-92c0-8ff99f9a0928","system_id":"levelo_inurba_marseille","lat":43.2945,"lon":5.39752,"is_reserved":false,"is_disabled":false,"rental_uris":{"android":"levelo://app?vid=856cdcbd-b218-4cd4-92c0-8ff99f9a0928","ios":"levelo://app?vid=856cdcbd-b218-4cd4-92c0-8ff99f9a0928"},"vehicle_type_id":"4","last_reported":1747343388,"current_range_meters":20400,"station_id":"ce4bh3h2rcd13ifvqdo0","pricing_plan_id":"cebpf4jnsgd1na2vs0mg"},{"bike_id":"2a1881cb-b73a-4175-9777-1386cb2bfbd7","system_id":"levelo_inurba_marseille","lat":43.29033,"lon":5.39965,"is_reserved":false,"is_disabled":false,"rental_uris":{"android":"levelo://app?vid=2a1881cb-b73a-4175-9777-1386cb2bfbd7","ios":"levelo://app?vid=2a1881cb-b73a-4175-9777-1386cb2bfbd7"},"vehicle_type_id":"4","last_reported":1747343388,"current_range_meters":20800,"station_id":"ce4bh392rcd13ifvqdm0","pricing_plan_id":"cebpf4jnsgd1na2vs0mg"},{"bike_id":"d9a187b7-5850-49c9-a118-d6c592bbe25c","system_id":"levelo_inurba_marseille","lat":43.294308,"lon":5.397512,"is_reserved":false,"is_disabled":false,"rental_uris":{"android":"levelo://app?vid=d9a187b7-5850-49c9-a118-d6c592bbe25c","ios":"levelo://app?vid=d9a187b7-5850-49c9-a118-d6c592bbe25c"},"vehicle_type_id":"4","last_reported":1747343388,"current_range_meters":20800,"station_id":"ce4bh3h2rcd13ifvqdo0","pricing_plan_id":"cebpf4jnsgd1na2vs0mg"},{"bike_id":"8e94d1e3-9642-4a91-b754-c231a77d8f02","system_id":"levelo_inurba_marseille","lat":43.24807,"lon":5.37454,"is_reserved":false,"is_disabled":false,"rental_uris":{"android":"levelo://app?vid=8e94d1e3-9642-4a91-b754-c231a77d8f02","ios":"levelo://app?vid=8e94d1e3-9642-4a91-b754-c231a77d8f02"},"vehicle_type_id":"4","last_reported":1747343388,"current_range_meters":20800,"station_id":"ce4bhgh2rcd13ifvqfb0","pricing_plan_id":"cebpf4jnsgd1na2vs0mg"},{"bike_id":"fbb48204-7772-4ffe-b676-63302482b9f4","system_id":"levelo_inurba_marseille","lat":43.27843,"lon":5.40714,"is_reserved":false,"is_disabled":false,"rental_uris":{"android":"levelo://app?vid=fbb48204-7772-4ffe-b676-63302482b9f4","ios":"levelo://app?vid=fbb48204-7772-4ffe-b676-63302482b9f4"},"vehicle_type_id":"4","last_reported":1747343388,"current_range_meters":20800,"station_id":"ce4bhnh2rcd13ifvqgtg","pricing_plan_id":"cebpf4jnsgd1na2vs0mg"},{"bike_id":"abf77f6a-e794-4ce9-a44d-4678abaa2586","system_id":"levelo_inurba_marseille","lat":43.30377,"lon":5.4249,"is_reserved":false,"is_disabled":false,"rental_uris":{"android":"levelo://app?vid=abf77f6a-e794-4ce9-a44d-4678abaa2586","ios":"levelo://app?vid=abf77f6a-e794-4ce9-a44d-4678abaa2586"},"vehicle_type_id":"4","last_reported":1747343388,"current_range_meters":20800,"station_id":"ce4bhoh2rcd13ifvqh6g","pricing_plan_id":"cebpf4jnsgd1na2vs0mg"},{"bike_id":"4d2a91e0-1e71-4274-8d42-028af3d58327","system_id":"levelo_inurba_marseille","lat":43.30445,"lon":5.38882,"is_reserved":false,"is_disabled":false,"rental_uris":{"android":"levelo://app?vid=4d2a91e0-1e71-4274-8d42-028af3d58327","ios":"levelo://app?vid=4d2a91e0-1e71-4274-8d42-028af3d58327"},"vehicle_type_id":"4","last_reported":1747343388,"current_range_meters":21600,"station_id":"ce4bgk12rcd13ifvqbi0","pricing_plan_id":"cebpf4jnsgd1na2vs0mg"},{"bike_id":"c4419c00-68e4-424f-bfa0-b827ebb985c4","system_id":"levelo_inurba_marseille","lat":43.30329,"lon":5.40436,"is_reserved":false,"is_disabled":false,"rental_uris":{"android":"levelo://app?vid=c4419c00-68e4-424f-bfa0-b827ebb985c4","ios":"levelo://app?vid=c4419c00-68e4-424f-bfa0-b827ebb985c4"},"vehicle_type_id":"4","last_reported":1747343388,"current_range_meters":21600,"station_id":"ce4bh012rcd13ifvqd10","pricing_plan_id":"cebpf4jnsgd1na2vs0mg"},{"bike_id":"50cafd20-9f91-411c-9adf-f7bb5d2d9681","system_id":"levelo_inurba_marseille","lat":43.28372,"lon":5.38632,"is_reserved":false,"is_disabled":false,"rental_uris":{"android":"levelo://app?vid=50cafd20-9f91-411c-9adf-f7bb5d2d9681","ios":"levelo://app?vid=50cafd20-9f91-411c-9adf-f7bb5d2d9681"},"vehicle_type_id":"4","last_reported":1747343388,"current_range_meters":21600,"station_id":"ce4bh492rcd13ifvqdvg","pricing_plan_id":"cebpf4jnsgd1na2vs0mg"},{"bike_id":"365428ef-3309-45a8-bd18-33e6085c4507","system_id":"levelo_inurba_marseille","lat":43.30252,"lon":5.40051,"is_reserved":false,"is_disabled":false,"rental_uris":{"android":"levelo://app?vid=365428ef-3309-45a8-bd18-33e6085c4507","ios":"levelo://app?vid=365428ef-3309-45a8-bd18-33e6085c4507"},"vehicle_type_id":"4","last_reported":1747343388,"current_range_meters":22000,"station_id":"ce4bgvh2rcd13ifvqcs0","pricing_plan_id":"cebpf4jnsgd1na2vs0mg"},