{"last_updated":1758208200,"ttl":60,"version":"2.2","data":{"bikes":[{"bike_id":"ca5a1340-d41e-49f3-95f8-599734e0a36c","system_id":"levelo_inurba_marseille","lat":43.225342,"lon":5.348349,"is_reserved":false,"is_disabled":false,"rental_uris":{"android":"levelo://app?vid=ca5a1340-d41e-49f3-95f8-599734e0a36c","ios":"levelo://app?vid=ca5a1340-d41e-49f3-95f8-599734e0a36c"},"vehicle_type_id":"4","last_reported":1758208200,"current_range_meters":2800,"station_id":"","pricing_plan_id":"cebpf4jnsgd1na2vs0mg"},{"bike_id":"b3172057-eaf1-4660-9e01-fccfdd51bcd4","system_id":"levelo_inurba_marseille","lat":43.29804,"lon":5.38113,"is_reserved":false,"is_disabled":false,"rental_uris":{"android":"levelo://app?vid=b3172057-eaf1-4660-9e01-fccfdd51bcd4","ios":"levelo://app?vid=b3172057-eaf1-4660-9e01-fccfdd51bcd4"},"vehicle_type_id":"4","last_reported":1758208200,"current_range_meters":2800,"station_id":"","pricing_plan_id":"cebpf4jnsgd1na2vs0mg"},{"bike_id":"9dad14de-695b-4716-9015-d99f580d5773","system_id":"levelo_inurba_marseille","lat":43.293,"lon":5.37174,"is_reserved":false,"is_disabled":false,"rental_uris":{"android":"levelo://app?vid=9dad14de-695b-4716-9015-d99f580d5773","ios":"levelo://app?vid=9dad14de-695b-4716-9015-d99f580d5773"},"vehicle_type_id":"4","last_reported":1758208200,"current_range_meters":2800,"station_id":"ce4bgh92rcd13ifvqb40","pricing_plan_id":"cebpf4jnsgd1na2vs0mg"},{"bike_id":"69af084b-c8fd-4c61-bebb-2df28f4be37f","system_id":"levelo_inurba_marseille","lat":43.260557,"lon":5.394013,"is_reserved":false,"is_disabled":false,"rental_uris":{"android":"levelo://app?vid=69af084b-c8fd-4c61-bebb-2df28f4be37f","ios":"levelo://app?vid=69af084b-c8fd-4c61-bebb-2df28f4be37f"},"vehicle_type_id":"4","last_reported":1758208200,"current_range_meters":2000,"station_id":"ce4bhh92rcd13ifvqfj0","pricing_plan_id":"cebpf4jnsgd1na2vs0mg"},{"bike_id":"098c341b-b5b9-42e8-b0d2-1299d43d872e","system_id":"levelo_inurba_marseille","lat":43.31267,"lon":5.40175,"is_reserved":false,"is_disabled":false,"rental_uris":{"android":"levelo://app?vid=098c341b-b5b9-42e8-b0d2-1299d43d872e","ios":"levelo://app?vid=098c341b-b5b9-42e8-b0d2-1299d43d872e"},"vehicle_type_id":"4","last_reported":1758208200,"current_range_meters":2800,"station_id":"ce4bh092rcd13ifvqd30","pricing_plan_id":"cebpf4jnsgd1na2vs0mg"},{"bike_id":"e4866abf-7b6c-485b-a3fa-c4b24c73d8b9","system_id":"levelo_inurba_marseille","lat":43.25092,"lon":5.39521,"is_reserved":false,"is_disabled":true,"rental_uris":{"android":"levelo://app?vid=e4866abf-7b6c-485b-a3fa-c4b24c73d8b9","ios":"levelo://app?vid=e4866abf-7b6c-485b-a3fa-c4b24c73d8b9"},"vehicle_type_id":"4","last_reported":1758208200,"current_range_meters":3200,"station_id":"ce4bhm12rcd13ifvqgkg","pricing_plan_id":"cebpf4jnsgd1na2vs0mg"},{"bike_id":"b1dc24e3-f92e-4864-bf6e-7ae8cd5b3cf3","system_id":"levelo_inurba_marseille","lat":43.28267,"lon":5.35072,"is_reserved":false,"is_disabled":false,"rental_uris":{"android":"levelo://app?vid=b1dc24e3-f92e-4864-bf6e-7ae8cd5b3cf3","ios":"levelo://app?vid=b1dc24e3-f92e-4864-bf6e-7ae8cd5b3cf3"},"vehicle_type_id":"4","last_reported":1758208200,"current_range_meters":3200,"station_id":"ce4bhbp2rcd13ifvqerg","pricing_plan_id":"cebpf4jnsgd1na2vs0mg"},{"bike_id":"7a539e71-0139-42dc-bd8b-b60cdb0086ff","system_id":"levelo_inurba_marseille","lat":43.28267,"lon":5.35069,"is_reserved":false,"is_disabled":false,"rental_uris":{"android":"levelo://app?vid=7a539e71-0139-42dc-bd8b-b60cdb0086ff","ios":"levelo://app?vid=7a539e71-0139-42dc-bd8b-b60cdb0086ff"},"vehicle_type_id":"4","last_reported":1758208200,"current_range_meters":3200,"station_id":"ce4bhbp2rcd13ifvqerg","pricing_plan_id":"cebpf4jnsgd1na2vs0mg"},{"bike_id":"dc0bdc22-010e-42c3-83a9-edaa5278a9f4","system_id":"levelo_inurba_marseille","lat":43.301243,"lon":5.398594,"is_reserved":false,"is_disabled":false,"rental_uris":{"android":"levelo://app?vid=dc0bdc22-010e-42c3-83a9-edaa5278a9f4","ios":"levelo://app?vid=dc0bdc22-010e-42c3-83a9-edaa5278a9f4"},"vehicle_type_id":"4","last_reported":1758208200,"current_range_meters":3200,"station_id":"ce4bh0h2rcd13ifvqd40","pricing_plan_id":"cebpf4jnsgd1na2vs0mg"},{"bike_id":"461a5676-6376-483b-bfd3-f8bfd29227bf","system_id":"levelo_inurba_marseille","lat":43.30123,"lon":5.39121,"is_reserved":false,"is_disabled":false,"rental_uris":{"android":"levelo://app?vid=461a5676-6376-483b-bfd3-f8bfd29227bf","ios":"levelo://app?vid=461a5676-6376-483b-bfd3-f8bfd29227bf"},"vehicle_type_id":"4","last_reported":1758208200,"current_range_meters":3200,"station_id":"","pricing_plan_id":"cebpf4jnsgd1na2vs0mg"},{"bike_id":"e5f76331-4486-469c-9faa-be532461cc59","system_id":"levelo_inurba_marseille","lat":43.28209,"lon":5.42973,"is_reserved":false,"is_disabled":false,"rental_uris":{"android":"levelo://app?vid=e5f76331-4486-469c-9faa-be532461cc59","ios":"levelo://app?vid=e5f76331-4486-469c-9faa-be532461cc59"},"vehicle_type_id":"4","last_reported":1758208200,"current_range_meters":3200,"station_id":"","pricing_plan_id":"cebpf4jnsgd1na2vs0mg"},{"bike_id":"b4369672-96d7-4b09-b1b7-01a2167af237","system_id":"levelo_inurba_marseille","lat":43.28423,"lon":5.34989,"is_reserved":false,"is_disabled":false,"rental_uris":{"android":"levelo://app?vid=b4369672-96d7-4b09-b1b7-01a2167af237","ios":"levelo://app?vid=b4369672-96d7-4b09-b1b7-01a2167af237"},"vehicle_type_id":"4","last_reported":1758208200,"current_range_meters":3600,"station_id":"ce4bhbh2rcd13ifvqepg","pricing_plan_id":"cebpf4jnsgd1na2vs0mg"},{"bike_id":"fb7358ff-16c1-46e1-ac8c-18e9a528b1a8","system_id":"levelo_inurba_marseille","lat":43.29629,"lon":5.40595,"is_reserved":false,"is_disabled":false,"rental_uris":{"android":"levelo://app?vid=fb7358ff-16c1-46e1-ac8c-18e9a528b1a8","ios":"levelo://app?vid=fb7358ff-16c1-46e1-ac8c-18e9a528b1a8"},"vehicle_type_id":"4","last_reported":1758208200,"current_range_meters":4800,"station_id":"ce4bh0h2rcd13ifvqd60","pricing_plan_id":"cebpf4jnsgd1na2vs0mg"},{"bike_id":"046ba709-b940-4fa3-9690-1d81db536e4b","system_id":"levelo_inurba_marseille","lat":43.22573,"lon":5.41606,"is_reserved":false,"is_disabled":false,"rental_uris":{"android":"levelo://app?vid=046ba709-b940-4fa3-9690-1d81db536e4b","ios":"levelo://app?vid=046ba709-b940-4fa3-9690-1d81db536e4b"},"vehicle_type_id":"4","last_reported":1758208200,"current_range_meters":3600,"station_id":"st_d2o4gvlbi1j2169b742g","pricing_plan_id":"cebpf4jnsgd1na2vs0mg"},{"bike_id":"d8e40768-895d-4d45-beae-7dcf0e01db2d","system_id":"levelo_inurba_marseille","lat":43.30085,"lon":5.39075,"is_reserved":false,"is_disabled":false,"rental_uris":{"android":"levelo://app?vid=d8e40768-895d-4d45-beae-7dcf0e01db2d","ios":"levelo://app?vid=d8e40768-895d-4d45-beae-7dcf0e01db2d"},"vehicle_type_id":"4","last_reported":1758208200,"current_range_meters":3600,"station_id":"ce4bh192rcd13ifvqdb0","pricing_plan_id":"cebpf4jnsgd1na2vs0mg"},{"bike_id":"ff7ab9af-1de8-4320-90d3-ec99b0f63fe8","system_id":"levelo_inurba_marseille","lat":43.27212,"lon":5.39181,"is_reserved":false,"is_disabled":false,"rental_uris":{"android":"levelo://app?vid=ff7ab9af-1de8-4320-90d3-ec99b0f63fe8","ios":"levelo://app?vid=ff7ab9af-1de8-4320-90d3-ec99b0f63fe8"},"vehicle_type_id":"4","last_reported":1758208200,"current_range_meters":3600,"station_id":"ce4bhhp2rcd13ifvqfm0","pricing_plan_id":"cebpf4jnsgd1na2vs0mg"},{"bike_id":"490e696c-621c-4a86-a10f-327faad5578b","system_id":"levelo_inurba_marseille","lat":43.30609,"lon":5.37224,"is_reserved":false,"is_disabled":false,"rental_uris":{"android":"levelo://app?vid=490e696c-621c-4a86-a10f-327faad5578b","ios":"levelo://app?vid=490e696c-621c-4a86-a10f-327faad5578b"},"vehicle_type_id":"4","last_reported":1758208200,"current_range_meters":3200,"station_id":"ce4bgqh2rcd13ifvqc4g","pricing_plan_id":"cebpf4jnsgd1na2vs0mg"},{"bike_id":"5b1a3548-4384-418f-b6b2-16eb93ba4829","system_id":"levelo_inurba_marseille","lat":43.28664,"lon":5.36324,"is_reserved":false,"is_disabled":true,"rental_uris":{"android":"levelo://app?vid=5b1a3548-4384-418f-b6b2-16eb93ba4829","ios":"levelo://app?vid=5b1a3548-4384-418f-b6b2-16eb93ba4829"},"vehicle_type_id":"4","last_reported":1758208200,"current_range_meters":4000,"station_id":"ce4bhah2rcd13ifvqej0","pricing_plan_id":"cebpf4jnsgd1na2vs0mg"},{"bike_id":"bbd08af0-d7cc-43e4-9ceb-3a56530c4ea7","system_id":"levelo_inurba_marseille","lat":43.289358,"lon":5.36643,"is_reserved":false,"is_disabled":false,"rental_uris":{"android":"levelo://app?vid=bbd08af0-d7cc-43e4-9ceb-3a56530c4ea7","ios":"levelo://app?vid=bbd08af0-d7cc-43e4-9ceb-3a56530c4ea7"},"vehicle_type_id":"4","last_reported":1758208200,"current_range_meters":4400,"station_id":"ce4bhap2rcd13ifvqek0","pricing_plan_id":"cebpf4jnsgd1na2vs0mg"},{"bike_id":"4523295c-4f88-40db-90ee-beed2cf9bbe8","system_id":"levelo_inurba_marseille","lat":43.2534,"lon":5.42153,"is_reserved":false,"is_disabled":false,"rental_uris":{"android":"levelo://app?vid=4523295c-4f88-40db-90ee-beed2cf9bbe8","ios":"levelo://app?vid=4523295c-4f88-40db-90ee-beed2cf9bbe8"},"vehicle_type_id":"4","last_reported":1758208200,"current_range_meters":4400,"station_id":"st_d2m65c5bi1j21697t3ng","pricing_plan_id":"cebpf4jnsgd1na2vs0mg"},{"bike_id":"377cb6f6-a308-4aed-9c97-5791b605c2d9","system_id":"levelo_inurba_marseille","lat":43.21487,"lon":5.34331,"is_reserved":false,"is_disabled":false,"rental_uris":{"android":"levelo://app?vid=377cb6f6-a308-4aed-9c97-5791b605c2d9","ios":"levelo://app?vid=377cb6f6-a308-4aed-9c97-5791b605c2d9"},"vehicle_type_id":"4","last_reported":1758208200,"current_range_meters":4400,"station_id":"","pricing_plan_id":"cebpf4jnsgd1na2vs0mg"},{"bike_id":"7cb0d75d-55f1-485a-a7ee-f82fa36e662b","system_id":"levelo_inurba_marseille","lat":43.29216,"lon":5.39697,"is_reserved":false,"is_disabled":false,"rental_uris":{"android":"levelo://app?vid=7cb0d75d-55f1-485a-a7ee-f82fa36e662b","ios":"levelo://app?vid=7cb0d75d-55f1-485a-a7ee-f82fa36e662b"},"vehicle_type_id":"4","last_reported":1758208200,"current_range_meters":4400,"station_id":"","pricing_plan_id":"cebpf4jnsgd1na2vs0mg"},{"bike_id":"775af279-8ac9-4585-9121-809be9b13265","system_id":"levelo_inurba_marseille","lat":43.33769,"lon":5.37387,"is_reserved":false,"is_disabled":false,"rental_uris":{"android":"levelo://app?vid=775af279-8ac9-4585-9121-809be9b13265","ios":"levelo://app?vid=775af279-8ac9-4585-9121-809be9b13265"},"vehicle_type_id":"4","last_reported":1758208200,"current_range_meters":4800,"station_id":"","pricing_plan_id":"cebpf4jnsgd1na2vs0mg"},{"bike_id":"53c38884-ac8c-4484-ac54-167dbcb7965e","system_id":"levelo_inurba_marseille","lat":43.25119,"lon":5.40317,"is_reserved":false,"is_disabled":false,"rental_uris":{"android":"levelo://app?vid=53c38884-ac8c-4484-ac54-167dbcb7965e","ios":"levelo://app?vid=53c38884-ac8c-4484-ac54-167dbcb7965e"},"vehicle_type_id":"4","last_reported":1758208200,"current_range_meters":10800,"station_id":"ce4bhlh2rcd13ifvqgig","pricing_plan_id":"cebpf4jnsgd1na2vs0mg"},{"bike_id":"3da3f894-869c-44ad-93c6-d64f700921c7","system_id":"levelo_inurba_marseille","lat":43.28475,"lon":5.385677,"is_reserved":false,"is_disabled":false,"rental_uris":{"android":"levelo://app?vid=3da3f894-869c-44ad-93c6-d64f700921c7","ios":"levelo://app?vid=3da3f894-869c-44ad-93c6-d64f700921c7"},"vehicle_type_id":"4","last_reported":1758208200,"current_range_meters":4400,"station_id":"ce4bh8p2rcd13ifvqeb0","pricing_plan_id":"cebpf4jnsgd1na2vs0mg"},{"bike_id":"d857c84e-3909-4aa3-ba90-5cd9f52ad3f3","system_id":"levelo_inurba_marseille","lat":43.30435,"lon":5.38892,"is_reserved":false,"is_disabled":false,"rental_uris":{"android":"levelo://app?vid=d857c84e-3909-4aa3-ba90-5cd9f52ad3f3","ios":"levelo://app?vid=d857c84e-3909-4aa3-ba90-5cd9f52ad3f3"},"vehicle_type_id":"4","last_reported":1758208200,"current_range_meters":6000,"station_id":"ce4bgk12rcd13ifvqbi0","pricing_plan_id":"cebpf4jnsgd1na2vs0mg"},{"bike_id":"865137cd-8143-4dab-8970-eaa9459d6308","system_id":"levelo_inurba_marseille","lat":43.25496,"lon":5.37648,"is_reserved":false,"is_disabled":false,"rental_uris":{"android":"levelo://app?vid=865137cd-8143-4dab-8970-eaa9459d6308","ios":"levelo://app?vid=865137cd-8143-4dab-8970-eaa9459d6308"},"vehicle_type_id":"4","last_reported":1758208200,"current_range_meters":6000,"station_id":"ce4bhh12rcd13ifvqff0","pricing_plan_id":"cebpf4jnsgd1na2vs0mg"},{"bike_id":"ef9e28a4-447c-465d-90a0-5e57d8e2f7b8","system_id":"levelo_inurba_marseille","lat":43.29799,"lon":5.38104,"is_reserved":false,"is_disabled":false,"rental_uris":{"android":"levelo://app?vid=ef9e28a4-447c-465d-90a0-5e57d8e2f7b8","ios":"levelo://app?vid=ef9e28a4-447c-465d-90a0-5e57d8e2f7b8"},"vehicle_type_id":"4","last_reported":1758208200,"current_range_meters":6000,"station_id":"","pricing_plan_id":"cebpf4jnsgd1na2vs0mg"},{"bike_id":"a973009e-b94a-452c-9494-38dc7926520c","system_id":"levelo_inurba_marseille","lat":43.298655,"lon":5.397382,"is_reserved":false,"is_disabled":false,"rental_uris":{"android":"levelo://app?vid=a973009e-b94a-452c-9494-38dc7926520c","ios":"levelo://app?vid=a973009e-b94a-452c-9494-38dc7926520c"},"vehicle_type_id":"4","last_reported":1758208200,"current_range_meters":6000,"station_id":"ce4bh0h2rcd13ifvqd50","pricing_plan_id":"cebpf4jnsgd1na2vs0mg"},{"bike_id":"2dbcef0a-5d5f-463e-ad7c-5352d9e8b520","system_id":"levelo_inurba_marseille","lat":43.286659,"lon":5.38671,"is_reserved":false,"is_disabled":false,"rental_uris":{"android":"levelo://app?vid=2dbcef0a-5d5f-463e-ad7c-5352d9e8b520","ios":"levelo://app?vid=2dbcef0a-5d5f-463e-ad7c-5352d9e8b520"},"vehicle_type_id":"4","last_reported":1758208200,"current_range_meters":6400,"station_id":"ce4bh492rcd13ifvqdug","pricing_plan_id":"cebpf4jnsgd1na2vs0mg"},{"bike_id":"5cebaa99-7be9-4a3f-9cc0-5cdfdaef03f0","system_id":"levelo_inurba_marseille","lat":43.225319,"lon":5.348348,"is_reserved":false,"is_disabled":false,"rental_uris":{"android":"levelo://app?vid=5cebaa99-7be9-4a3f-9cc0-5cdfdaef03f0","ios":"levelo://app?vid=5cebaa99-7be9-4a3f-9cc0-5cdfdaef03f0"},"vehicle_type_id":"4","last_reported":1758208200,"current_range_meters":6800,"station_id":"","pricing_plan_id":"cebpf4jnsgd1na2vs0mg"},{"bike_id":"6e0cb710-2ac6-4ce4-91e5-af1fb4b77359","system_id":"levelo_inurba_marseille","lat":43.29265,"lon":5.40157,"is_reserved":false,"is_disabled":false,"rental_uris":{"android":"levelo://app?vid=6e0cb710-2ac6-4ce4-91e5-af1fb4b77359","ios":"levelo://app?vid=6e0cb710-2ac6-4ce4-91e5-af1fb4b77359"},"vehicle_type_id":"4","last_reported":1758208200,"current_range_meters":6400,"station_id":"ce4bh312rcd13ifvqdk0","pricing_plan_id":"cebpf4jnsgd1na2vs0mg"},{"bike_id":"e8d4947c-e157-44ad-834e-34d1eb426ae7","system_id":"levelo_inurba_marseille","lat":43.324862,"lon":5.365713,"is_reserved":false,"is_disabled":false,"rental_uris":{"android":"levelo://app?vid=e8d4947c-e157-44ad-834e-34d1eb426ae7","ios":"levelo://app?vid=e8d4947c-e157-44ad-834e-34d1eb426ae7"},"vehicle_type_id":"4","last_reported":1758208200,"current_range_meters":8400,"station_id":"ce4bhs12rcd13ifvqhvg","pricing_plan_id":"cebpf4jnsgd1na2vs0mg"},{"bike_id":"e820c689-e974-4315-9bed-010e44b9c698","system_id":"levelo_inurba_marseille","lat":43.28111,"lon":5.35034,"is_reserved":false,"is_disabled":false,"rental_uris":{"android":"levelo://app?vid=e820c689-e974-4315-9bed-010e44b9c698","ios":"levelo://app?vid=e820c689-e974-4315-9bed-010e44b9c698"},"vehicle_type_id":"4","last_reported":1758208200,"current_range_meters":6800,"station_id":"","pricing_plan_id":"cebpf4jnsgd1na2vs0mg"},{"bike_id":"a1c95e05-2263-447f-9df5-2bb20f4a47c8","system_id":"levelo_inurba_marseille","lat":43.297079,"lon":5.366098,"is_reserved":false,"is_disabled":false,"rental_uris":{"android":"levelo://app?vid=a1c95e05-2263-447f-9df5-2bb20f4a47c8","ios":"levelo://app?vid=a1c95e05-2263-447f-9df5-2bb20f4a47c8"},"vehicle_type_id":"4","last_reported":1758208200,"current_range_meters":6800,"station_id":"ce4bgn12rcd13ifvqbt0","pricing_plan_id":"cebpf4jnsgd1na2vs0mg"},{"bike_id":"25b2da70-3345-491c-80f8-92888481b5a8","system_id":"levelo_inurba_marseille","lat":43.30132,"lon":5.37415,"is_reserved":false,"is_disabled":true,"rental_uris":{"android":"levelo://app?vid=25b2da70-3345-491c-80f8-92888481b5a8","ios":"levelo://app?vid=25b2da70-3345-491c-80f8-92888481b5a8"},"vehicle_type_id":"4","last_reported":1758208200,"current_range_meters":6800,"station_id":"","pricing_plan_id":"cebpf4jnsgd1na2vs0mg"},{"bike_id":"003515e8-8117-44bb-979d-5f47e8d50fda","system_id":"levelo_inurba_marseille","lat":43.30647,"lon":5.37558,"is_reserved":false,"is_disabled":false,"rental_uris":{"android":"levelo://app?vid=003515e8-8117-44bb-979d-5f47e8d50fda","ios":"levelo://app?vid=003515e8-8117-44bb-979d-5f47e8d50fda"},"vehicle_type_id":"4","last_reported":1758208200,"current_range_meters":7200,"station_id":"","pricing_plan_id":"cebpf4jnsgd1na2vs0mg"},{"bike_id":"537146fd-77f3-4a7e-aef6-61209f803e53","system_id":"levelo_inurba_marseille","lat":43.30291,"lon":5.37692,"is_reserved":false,"is_disabled":true,"rental_uris":{"android":"levelo://app?vid=537146fd-77f3-4a7e-aef6-61209f803e53","ios":"levelo://app?vid=537146fd-77f3-4a7e-aef6-61209f803e53"},"vehicle_type_id":"4","last_reported":1758208200,"current_range_meters":7200,"station_id":"","pricing_plan_id":"cebpf4jnsgd1na2vs0mg"},{"bike_id":"ba5c0453-ab14-4699-a2b0-030159f4a0c8","system_id":"levelo_inurba_marseille","lat":43.295272,"lon":5.385416,"is_reserved":false,"is_disabled":false,"rental_uris":{"android":"levelo://app?vid=ba5c0453-ab14-4699-a2b0-030159f4a0c8","ios":"levelo://app?vid=ba5c0453-ab14-4699-a2b0-030159f4a0c8"},"vehicle_type_id":"4","last_reported":1758208200,"current_range_meters":7200,"station_id":"ce4bgih2rcd13ifvqba0","pricing_plan_id":"cebpf4jnsgd1na2vs0mg"},{"bike_id":"4728fb58-5772-4748-8e45-274785fa8fcb","system_id":"levelo_inurba_marseille","lat":43.273688,"lon":5.36267,"is_reserved":false,"is_disabled":false,"rental_uris":{"android":"levelo://app?vid=4728fb58-5772-4748-8e45-274785fa8fcb","ios":"levelo://app?vid=4728fb58-5772-4748-8e45-274785fa8fcb"},"vehicle_type_id":"4","last_reported":1758208200,"current_range_meters":7200,"station_id":"ce4bhbh2rcd13ifvqeo0","pricing_plan_id":"cebpf4jnsgd1na2vs0mg"},{"bike_id":"890bbd0f-66c6-4dbf-b486-77274cf6e6ba","system_id":"levelo_inurba_marseille","lat":43.30135,"lon":5.39859,"is_reserved":false,"is_disabled":false,"rental_uris":{"android":"levelo://app?vid=890bbd0f-66c6-4dbf-b486-77274cf6e6ba","ios":"levelo://app?vid=890bbd0f-66c6-4dbf-b486-77274cf6e6ba"},"vehicle_type_id":"4","last_reported":1758208200,"current_range_meters":6800,"station_id":"ce4bh0h2rcd13ifvqd40","pricing_plan_id":"cebpf4jnsgd1na2vs0mg"},{"bike_id":"1a4c6274-d065-4325-ad94-d748dcf00242","system_id":"levelo_inurba_marseille","lat":43.258116,"lon":5.394271,"is_reserved":false,"is_disabled":false,"rental_uris":{"android":"levelo://app?vid=1a4c6274-d065-4325-ad94-d748dcf00242","ios":"levelo://app?vid=1a4c6274-d065-4325-ad94-d748dcf00242"},"vehicle_type_id":"4","last_reported":1758208200,"current_range_meters":8000,"station_id":"ce4bhip2rcd13ifvqft0","pricing_plan_id":"cebpf4jnsgd1na2vs0mg"},{"bike_id":"d6f6694e-e391-4f11-8a94-1196ed47764d","system_id":"levelo_inurba_marseille","lat":43.24065,"lon":5.37762,"is_reserved":false,"is_disabled":false,"rental_uris":{"android":"levelo://app?vid=d6f6694e-e391-4f11-8a94-1196ed47764d","ios":"levelo://app?vid=d6f6694e-e391-4f11-8a94-1196ed47764d"},"vehicle_type_id":"4","last_reported":1758208200,"current_range_meters":8000,"station_id":"ce4bhnp2rcd13ifvqgvg","pricing_plan_id":"cebpf4jnsgd1na2vs0mg"},{"bike_id":"4fae8ef2-d486-4272-bb72-afadec4f7688","system_id":"levelo_inurba_marseille","lat":43.28568,"lon":5.39495,"is_reserved":false,"is_disabled":false,"rental_uris":{"android":"levelo://app?vid=4fae8ef2-d486-4272-bb72-afadec4f7688","ios":"levelo://app?vid=4fae8ef2-d486-4272-bb72-afadec4f7688"},"vehicle_type_id":"4","last_reported":1758208200,"current_range_meters":8400,"station_id":"ce4bh292rcd13ifvqdg0","pricing_plan_id":"cebpf4jnsgd1na2vs0mg"},{"bike_id":"121da484-cbdb-4329-b82b-26c9225a66fd","system_id":"levelo_inurba_marseille","lat":43.29802,"lon":5.38102,"is_reserved":false,"is_disabled":false,"rental_uris":{"android":"levelo://app?vid=121da484-cbdb-4329-b82b-26c9225a66fd","ios":"levelo://app?vid=121da484-cbdb-4329-b82b-26c9225a66fd"},"vehicle_type_id":"4","last_reported":1758208200,"current_range_meters":8400,"station_id":"ce4bgip2rcd13ifvqbb0","pricing_plan_id":"cebpf4jnsgd1na2vs0mg"},{"bike_id":"190d0825-c1b9-4efd-8a03-d87285d4a5b6","system_id":"levelo_inurba_marseille","lat":43.29799,"lon":5.37707,"is_reserved":false,"is_disabled":false,"rental_uris":{"android":"levelo://app?vid=190d0825-c1b9-4efd-8a03-d87285d4a5b6","ios":"levelo://app?vid=190d0825-c1b9-4efd-8a03-d87285d4a5b6"},"vehicle_type_id":"4","last_reported":1758208200,"current_range_meters":8400,"station_id":"","pricing_plan_id":"cebpf4jnsgd1na2vs0mg"},{"bike_id":"adbab27a-e95d-4607-b8a3-6dfd23cf79c3","system_id":"levelo_inurba_marseille","lat":43.31718,"lon":5.42393,"is_reserved":false,"is_disabled":false,"rental_uris":{"android":"levelo://app?vid=adbab27a-e95d-4607-b8a3-6dfd23cf79c3","ios":"levelo://app?vid=adbab27a-e95d-4607-b8a3-6dfd23cf79c3"},"vehicle_type_id":"4","last_reported":1758208200,"current_range_meters":8400,"station_id":"ce4bhp92rcd13ifvqhbg","pricing_plan_id":"cebpf4jnsgd1na2vs0mg"},{"bike_id":"ee2abbca-c6e7-4630-b79a-a4832bf5234a","system_id":"levelo_inurba_marseille","lat":43.28462,"lon":5.35879,"is_reserved":false,"is_disabled":false,"rental_uris":{"android":"levelo://app?vid=ee2abbca-c6e7-4630-b79a-a4832bf5234a","ios":"levelo://app?vid=ee2abbca-c6e7-4630-b79a-a4832bf5234a"},"vehicle_type_id":"4","last_reported":1758208200,"current_range_meters":8800,"station_id":"ce4bhah2rcd13ifvqei0","pricing_plan_id":"cebpf4jnsgd1na2vs0mg"},{"bike_id":"c44cbb5b-c601-4ff2-b67f-59caee368761","system_id":"levelo_inurba_marseille","lat":43.3372,"lon":5.39186,"is_reserved":false,"is_disabled":false,"rental_uris":{"android":"levelo://app?vid=c44cbb5b-c601-4ff2-b67f-59caee368761","ios":"levelo://app?vid=c44cbb5b-c601-4ff2-b67f-59caee368761"},"vehicle_type_id":"4","last_reported":1758208200,"current_range_meters":8400,"station_id":"ce4bhr92rcd13ifvqhsg","pricing_plan_id":"cebpf4jnsgd1na2vs0mg"},{"bike_id":"3bbfa56b-fd52-46ea-b0aa-a5802206a1d1","system_id":"levelo_inurba_marseille","lat":43.29533,"lon":5.37501,"is_reserved":false,"is_disabled":false,"rental_uris":{"android":"levelo://app?vid=3bbfa56b-fd52-46ea-b0aa-a5802206a1d1","ios":"levelo://app?vid=3bbfa56b-fd52-46ea-b0aa-a5802206a1d1"},"vehicle_type_id":"4","last_reported":1758208200,"current_range_meters":8800,"station_id":"ce4bgkp2rcd13ifvqbmg","pricing_plan_id":"cebpf4jnsgd1na2vs0mg"},{"bike_id":"3b8b87b4-c2d4-49fb-97c9-8b8f774a7e66","system_id":"levelo_inurba_marseille","lat":43.337444,"lon":5.374475,"is_reserved":false,"is_disabled":false,"rental_uris":{"android":"levelo://app?vid=3b8b87b4-c2d4-49fb-97c9-8b8f774a7e66","ios":"levelo://app?vid=3b8b87b4-c2d4-49fb-97c9-8b8f774a7e66"},"vehicle_type_id":"4","last_reported":1758208200,"current_range_meters":9200,"station_id":"","pricing_plan_id":"cebpf4jnsgd1na2vs0mg"},{"bike_id":"7c45899d-52f4-405b-ad67-a6848bf71d4f","system_id":"levelo_inurba_marseille","lat":43.29273,"lon":5.36844,"is_reserved":false,"is_disabled":false,"rental_uris":{"android":"levelo://app?vid=7c45899d-52f4-405b-ad67-a6848bf71d4f","ios":"levelo://app?vid=7c45899d-52f4-405b-ad67-a6848bf71d4f"},"vehicle_type_id":"4","last_reported":1758208200,"current_range_meters":9200,"station_id":"ce4bhbp2rcd13ifvqesg","pricing_plan_id":"cebpf4jnsgd1na2vs0mg"},{"bike_id":"7c53e1e0-9efc-4c15-9c29-668d4dac4c59","system_id":"levelo_inurba_marseille","lat":43.22511,"lon":5.34848,"is_reserved":false,"is_disabled":false,"rental_uris":{"android":"levelo://app?vid=7c53e1e0-9efc-4c15-9c29-668d4dac4c59","ios":"levelo://app?vid=7c53e1e0-9efc-4c15-9c29-668d4dac4c59"},"vehicle_type_id":"4","last_reported":1758208200,"current_range_meters":9200,"station_id":"","pricing_plan_id":"cebpf4jnsgd1na2vs0mg"},{"bike_id":"45f31c14-aac5-4d60-b193-8a48379140da","system_id":"levelo_inurba_marseille","lat":43.29592,"lon":5.38097,"is_reserved":false,"is_disabled":false,"rental_uris":{"android":"levelo://app?vid=45f31c14-aac5-4d60-b193-8a48379140da","ios":"levelo://app?vid=45f31c14-aac5-4d60-b193-8a48379140da"},"vehicle_type_id":"4","last_reported":1758208200,"current_range_meters":9600,"station_id":"","pricing_plan_id":"cebpf4jnsgd1na2vs0mg"},{"bike_id":"45afe5f4-5cbe-49c2-a913-33c967100178","system_id":"levelo_inurba_marseille","lat":43.29776,"lon":5.380931,"is_reserved":false,"is_disabled":false,"rental_uris":{"android":"levelo://app?vid=45afe5f4-5cbe-49c2-a913-33c967100178","ios":"levelo://app?vid=45afe5f4-5cbe-49c2-a913-33c967100178"},"vehicle_type_id":"4","last_reported":1758208200,"current_range_meters":9600,"station_id":"","pricing_plan_id":"cebpf4jnsgd1na2vs0mg"},{"bike_id":"f7254990-f51d-45fe-83e3-57aceffccbc4","system_id":"levelo_inurba_marseille","lat":43.22563,"lon":5.41631,"is_reserved":false,"is_disabled":false,"rental_uris":{"android":"levelo://app?vid=f7254990-f51d-45fe-83e3-57aceffccbc4","ios":"levelo://app?vid=f7254990-f51d-45fe-83e3-57aceffccbc4"},"vehicle_type_id":"4","last_reported":1758208200,"current_range_meters":10000,"station_id":"st_d2o4gvlbi1j2169b742g","pricing_plan_id":"cebpf4jnsgd1na2vs0mg"},{"bike_id":"55dfb17a-dc13-4669-82ac-2c676d600c2d","system_id":"levelo_inurba_marseille","lat":43.31351,"lon":5.37936,"is_reserved":false,"is_disabled":true,"rental_uris":{"android":"levelo://app?vid=55dfb17a-dc13-4669-82ac-2c676d600c2d","ios":"levelo://app?vid=55dfb17a-dc13-4669-82ac-2c676d600c2d"},"vehicle_type_id":"4","last_reported":1758208200,"current_range_meters":10000,"station_id":"","pricing_plan_id":"cebpf4jnsgd1na2vs0mg"},{"bike_id":"b4982662-2742-4a01-be8b-254417115f8d","system_id":"levelo_inurba_marseille","lat":43.29792,"lon":5.37109,"is_reserved":false,"is_disabled":false,"rental_uris":{"android":"levelo://app?vid=b4982662-2742-4a01-be8b-254417115f8d","ios":"levelo://app?vid=b4982662-2742-4a01-be8b-254417115f8d"},"vehicle_type_id":"4","last_reported":1758208200,"current_range_meters":10000,"station_id":"","pricing_plan_id":"cebpf4jnsgd1na2vs0mg"},{"bike_id":"1a484b23-d022-4179-931b-1ed59ece632a","system_id":"levelo_inurba_marseille","lat":43.30141,"lon":5.38781,"is_reserved":false,"is_disabled":false,"rental_uris":{"android":"levelo://app?vid=1a484b23-d022-4179-931b-1ed59ece632a","ios":"levelo://app?vid=1a484b23-d022-4179-931b-1ed59ece632a"},"vehicle_type_id":"4","last_reported":1758208200,"current_range_meters":9600,"station_id":"ce4bghh2rcd13ifvqb60","pricing_plan_id":"cebpf4jnsgd1na2vs0mg"},{"bike_id":"444b2dd7-03dc-4d8f-8e7f-442801b28af4","system_id":"levelo_inurba_marseille","lat":43.30792,"lon":5.43529,"is_reserved":false,"is_disabled":false,"rental_uris":{"android":"levelo://app?vid=444b2dd7-03dc-4d8f-8e7f-442801b28af4","ios":"levelo://app?vid=444b2dd7-03dc-4d8f-8e7f-442801b28af4"},"vehicle_type_id":"4","last_reported":1758208200,"current_range_meters":10000,"station_id":"ce4bhph2rcd13ifvqheg","pricing_plan_id":"cebpf4jnsgd1na2vs0mg"},{"bike_id":"f120109a-cd6f-4fa7-8bf9-3da6ebb78032","system_id":"levelo_inurba_marseille","lat":43.2907,"lon":5.37168,"is_reserved":false,"is_disabled":false,"rental_uris":{"android":"levelo://app?vid=f120109a-cd6f-4fa7-8bf9-3da6ebb78032","ios":"levelo://app?vid=f120109a-cd6f-4fa7-8bf9-3da6ebb78032"},"vehicle_type_id":"4","last_reported":1758208200,"current_range_meters":10000,"station_id":"ce4bh5p2rcd13ifvqe4g","pricing_plan_id":"cebpf4jnsgd1na2vs0mg"},{"bike_id":"29ff012f-93b7-4f3a-b112-270dd6f2ad4e","system_id":"levelo_inurba_marseille","lat":43.246278,"lon":5.431373,"is_reserved":false,"is_disabled":false,"rental_uris":{"android":"levelo://app?vid=29ff012f-93b7-4f3a-b112-270dd6f2ad4e","ios":"levelo://app?vid=29ff012f-93b7-4f3a-b112-270dd6f2ad4e"},"vehicle_type_id":"4","last_reported":1758208200,"current_range_meters":10000,"station_id":"st_d2m6c4gdas8pm72e190g","pricing_plan_id":"cebpf4jnsgd1na2vs0mg"},{"bike_id":"e587597e-5d29-4472-934e-5eb41335eaf1","system_id":"levelo_inurba_marseille","lat":43.29304,"lon":5.37175,"is_reserved":false,"is_disabled":false,"rental_uris":{"android":"levelo://app?vid=e587597e-5d29-4472-934e-5eb41335eaf1","ios":"levelo://app?vid=e587597e-5d29-4472-934e-5eb41335eaf1"},"vehicle_type_id":"4","last_reported":1758208200,"current_range_meters":8000,"station_id":"ce4bgh92rcd13ifvqb40","pricing_plan_id":"cebpf4jnsgd1na2vs0mg"},{"bike_id":"543b5a54-f2fc-410d-acb9-2ca35a519464","system_id":"levelo_inurba_marseille","lat":43.27374,"lon":5.36256,"is_reserved":false,"is_disabled":false,"rental_uris":{"android":"levelo://app?vid=543b5a54-f2fc-410d-acb9-2ca35a519464","ios":"levelo://app?vid=543b5a54-f2fc-410d-acb9-2ca35a519464"},"vehicle_type_id":"4","last_reported":1758208200,"current_range_meters":10800,"station_id":"ce4bhbh2rcd13ifvqeo0","pricing_plan_id":"cebpf4jnsgd1na2vs0mg"},{"bike_id":"d507ce46-00f5-4d3f-ba03-b31a89c0d325","system_id":"levelo_inurba_marseille","lat":43.225353,"lon":5.348406,"is_reserved":false,"is_disabled":false,"rental_uris":{"android":"levelo://app?vid=d507ce46-00f5-4d3f-ba03-b31a89c0d325","ios":"levelo://app?vid=d507ce46-00f5-4d3f-ba03-b31a89c0d325"},"vehicle_type_id":"4","last_reported":1758208200,"current_range_meters":10800,"station_id":"","pricing_plan_id":"cebpf4jnsgd1na2vs0mg"},{"bike_id":"cec88ccf-d88f-4a48-839d-60406e7c7ea2","system_id":"levelo_inurba_marseille","lat":43.22567,"lon":5.41629,"is_reserved":false,"is_disabled":false,"rental_uris":{"android":"levelo://app?vid=cec88ccf-d88f-4a48-839d-60406e7c7ea2","ios":"levelo://app?vid=cec88ccf-d88f-4a48-839d-60406e7c7ea2"},"vehicle_type_id":"4","last_reported":1758208200,"current_range_meters":10800,"station_id":"st_d2o4gvlbi1j2169b742g","pricing_plan_id":"cebpf4jnsgd1na2vs0mg"},{"bike_id":"5701fe9c-3e98-4b9f-a910-5eb395d4e5d3","system_id":"levelo_inurba_marseille","lat":43.305389,"lon":5.384223,"is_reserved":false,"is_disabled":false,"rental_uris":{"android":"levelo://app?vid=5701fe9c-3e98-4b9f-a910-5eb395d4e5d3","ios":"levelo://app?vid=5701fe9c-3e98-4b9f-a910-5eb395d4e5d3"},"vehicle_type_id":"4","last_reported":1758208200,"current_range_meters":11200,"station_id":"ce4bgg92rcd13ifvqb30","pricing_plan_id":"cebpf4jnsgd1na2vs0mg"},{"bike_id":"925cb2eb-dd07-4071-bff7-81d4309b3333","system_id":"levelo_inurba_marseille","lat":43.29529,"lon":5.37503,"is_reserved":false,"is_disabled":false,"rental_uris":{"android":"levelo://app?vid=925cb2eb-dd07-4071-bff7-81d4309b3333","ios":"levelo://app?vid=925cb2eb-dd07-4071-bff7-81d4309b3333"},"vehicle_type_id":"4","last_reported":1758208200,"current_range_meters":11200,"station_id":"ce4bgkp2rcd13ifvqbmg","pricing_plan_id":"cebpf4jnsgd1na2vs0mg"},{"bike_id":"7455ab97-ba58-4b1f-9638-3798a732d1ab","system_id":"levelo_inurba_marseille","lat":43.22551,"lon":5.4163,"is_reserved":false,"is_disabled":false,"rental_uris":{"android":"levelo://app?vid=7455ab97-ba58-4b1f-9638-3798a732d1ab","ios":"levelo://app?vid=7455ab97-ba58-4b1f-9638-3798a732d1ab"},"vehicle_type_id":"4","last_reported":1758208200,"current_range_meters":12000,"station_id":"st_d2o4gvlbi1j2169b742g","pricing_plan_id":"cebpf4jnsgd1na2vs0mg"},{"bike_id":"a259ef1c-1a73-4640-ac56-e63d53f23723","system_id":"levelo_inurba_marseille","lat":43.27071,"lon":5.42277,"is_reserved":false,"is_disabled":false,"rental_uris":{"android":"levelo://app?vid=a259ef1c-1a73-4640-ac56-e63d53f23723","ios":"levelo://app?vid=a259ef1c-1a73-4640-ac56-e63d53f23723"},"vehicle_type_id":"4","last_reported":1758208200,"current_range_meters":12000,"station_id":"ce4bhk92rcd13ifvqgb0","pricing_plan_id":"cebpf4jnsgd1na2vs0mg"},{"bike_id":"75e71057-08cb-4238-916f-6bb30265fcb6","system_id":"levelo_inurba_marseille","lat":43.23177,"lon":5.39984,"is_reserved":false,"is_disabled":false,"rental_uris":{"android":"levelo://app?vid=75e71057-08cb-4238-916f-6bb30265fcb6","ios":"levelo://app?vid=75e71057-08cb-4238-916f-6bb30265fcb6"},"vehicle_type_id":"4","last_reported":1758208200,"current_range_meters":12000,"station_id":"ce4bhn12rcd13ifvqgqg","pricing_plan_id":"cebpf4jnsgd1na2vs0mg"},{"bike_id":"cf66592a-d8fa-4c6c-9927-5d7a9fef5026","system_id":"levelo_inurba_marseille","lat":43.26276,"lon":5.39831,"is_reserved":false,"is_disabled":false,"rental_uris":{"android":"levelo://app?vid=cf66592a-d8fa-4c6c-9927-5d7a9fef5026","ios":"levelo://app?vid=cf66592a-d8fa-4c6c-9927-5d7a9fef5026"},"vehicle_type_id":"4","last_reported":1758208200,"current_range_meters":12000,"station_id":"","pricing_plan_id":"cebpf4jnsgd1na2vs0mg"},{"bike_id":"d1788760-0706-4b90-8999-db00a9e42210","system_id":"levelo_inurba_marseille","lat":43.32797,"lon":5.41011,"is_reserved":false,"is_disabled":false,"rental_uris":{"android":"levelo://app?vid=d1788760-0706-4b90-8999-db00a9e42210","ios":"levelo://app?vid=d1788760-0706-4b90-8999-db00a9e42210"},"vehicle_type_id":"4","last_reported":1758208200,"current_range_meters":12000,"station_id":"","pricing_plan_id":"cebpf4jnsgd1na2vs0mg"},{"bike_id":"28216fc3-65a9-4c77-90e2-0700f365068f","system_id":"levelo_inurba_marseille","lat":43.28418,"lon":5.34984,"is_reserved":false,"is_disabled":false,"rental_uris":{"android":"levelo://app?vid=28216fc3-65a9-4c77-90e2-0700f365068f","ios":"levelo://app?vid=28216fc3-65a9-4c77-90e2-0700f365068f"},"vehicle_type_id":"4","last_reported":1758208200,"current_range_meters":12000,"station_id":"ce4bhbh2rcd13ifvqepg","pricing_plan_id":"cebpf4jnsgd1na2vs0mg"},{"bike_id":"783a175e-4b6a-4772-afae-ea0fe7835227","system_id":"levelo_inurba_marseille","lat":43.22532,"lon":5.34828,"is_reserved":false,"is_disabled":false,"rental_uris":{"android":"levelo://app?vid=783a175e-4b6a-4772-afae-ea0fe7835227","ios":"levelo://app?vid=783a175e-4b6a-4772-afae-ea0fe7835227"},"vehicle_type_id":"4","last_reported":1758208200,"current_range_meters":12400,"station_id":"","pricing_plan_id":"cebpf4jnsgd1na2vs0mg"},{"bike_id":"315f367b-945e-48e9-9810-8183f084f5fc","system_id":"levelo_inurba_marseille","lat":43.27498,"lon":5.42471,"is_reserved":false,"is_disabled":true,"rental_uris":{"android":"levelo://app?vid=315f367b-945e-48e9-9810-8183f084f5fc","ios":"levelo://app?vid=315f367b-945e-48e9-9810-8183f084f5fc"},"vehicle_type_id":"4","last_reported":1758208200,"current_range_meters":12400,"station_id":"ce4bhn92rcd13ifvqgrg","pricing_plan_id":"cebpf4jnsgd1na2vs0mg"},{"bike_id":"5167bd12-57b2-49e5-a6cc-b362a501b969","system_id":"levelo_inurba_marseille","lat":43.25343,"lon":5.4216,"is_reserved":false,"is_disabled":false,"rental_uris":{"android":"levelo://app?vid=5167bd12-57b2-49e5-a6cc-b362a501b969","ios":"levelo://app?vid=5167bd12-57b2-49e5-a6cc-b362a501b969"},"vehicle_type_id":"4","last_reported":1758208200,"current_range_meters":12800,"station_id":"st_d2m65c5bi1j21697t3ng","pricing_plan_id":"cebpf4jnsgd1na2vs0mg"},{"bike_id":"d1a1fe31-d730-4742-b042-58ba0b4c7fb5","system_id":"levelo_inurba_marseille","lat":43.28937,"lon":5.36641,"is_reserved":false,"is_disabled":false,"rental_uris":{"android":"levelo://app?vid=d1a1fe31-d730-4742-b042-58ba0b4c7fb5","ios":"levelo://app?vid=d1a1fe31-d730-4742-b042-58ba0b4c7fb5"},"vehicle_type_id":"4","last_reported":1758208200,"current_range_meters":12800,"station_id":"ce4bhap2rcd13ifvqek0","pricing_plan_id":"cebpf4jnsgd1na2vs0mg"},{"bike_id":"0b2dae76-05e7-4da6-847a-29f370bf97f8","system_id":"levelo_inurba_marseille","lat":43.25112,"lon":5.40325,"is_reserved":false,"is_disabled":false,"rental_uris":{"android":"levelo://app?vid=0b2dae76-05e7-4da6-847a-29f370bf97f8","ios":"levelo://app?vid=0b2dae76-05e7-4da6-847a-29f370bf97f8"},"vehicle_type_id":"4","last_reported":1758208200,"current_range_meters":15200,"station_id":"ce4bhlh2rcd13ifvqgig","pricing_plan_id":"cebpf4jnsgd1na2vs0mg"},{"bike_id":"10fab88a-0e35-4316-bccc-b77b7f7be44a","system_id":"levelo_inurba_marseille","lat":43.29023,"lon":5.3754,"is_reserved":false,"is_disabled":false,"rental_uris":{"android":"levelo://app?vid=10fab88a-0e35-4316-bccc-b77b7f7be44a","ios":"levelo://app?vid=10fab88a-0e35-4316-bccc-b77b7f7be44a"},"vehicle_type_id":"4","last_reported":1758208200,"current_range_meters":12400,"station_id":"ce4bh692rcd13ifvqe90","pricing_plan_id":"cebpf4jnsgd1na2vs0mg"},{"bike_id":"08128352-d0a0-4f5f-a684-879e4974aa4c","system_id":"levelo_inurba_marseille","lat":43.22566,"lon":5.41637,"is_reserved":false,"is_disabled":false,"rental_uris":{"android":"levelo://app?vid=08128352-d0a0-4f5f-a684-879e4974aa4c","ios":"levelo://app?vid=08128352-d0a0-4f5f-a684-879e4974aa4c"},"vehicle_type_id":"4","last_reported":1758208200,"current_range_meters":13600,"station_id":"st_d2o4gvlbi1j2169b742g","pricing_plan_id":"cebpf4jnsgd1na2vs0mg"},{"bike_id":"c59d91a5-a946-4657-9887-578ca45a7334","system_id":"levelo_inurba_marseille","lat":43.273757,"lon":5.362632,"is_reserved":false,"is_disabled":false,"rental_uris":{"android":"levelo://app?vid=c59d91a5-a946-4657-9887-578ca45a7334","ios":"levelo://app?vid=c59d91a5-a946-4657-9887-578ca45a7334"},"vehicle_type_id":"4","last_reported":1758208200,"current_range_meters":13600,"station_id":"","pricing_plan_id":"cebpf4jnsgd1na2vs0mg"},{"bike_id":"f48358a9-91d6-4045-8e8a-7550693f74fc","system_id":"levelo_inurba_marseille","lat":43.278348,"lon":5.419706,"is_reserved":false,"is_disabled":false,"rental_uris":{"android":"levelo://app?vid=f48358a9-91d6-4045-8e8a-7550693f74fc","ios":"levelo://app?vid=f48358a9-91d6-4045-8e8a-7550693f74fc"},"vehicle_type_id":"4","last_reported":1758208200,"current_range_meters":14000,"station_id":"ce4bho12rcd13ifvqh1g","pricing_plan_id":"cebpf4jnsgd1na2vs0mg"},{"bike_id":"80a9a218-f77f-42ce-8136-b0dceb9fc366","system_id":"levelo_inurba_marseille","lat":43.267867,"lon":5.394102,"is_reserved":false,"is_disabled":false,"rental_uris":{"android":"levelo://app?vid=80a9a218-f77f-42ce-8136-b0dceb9fc366","ios":"levelo://app?vid=80a9a218-f77f-42ce-8136-b0dceb9fc366"},"vehicle_type_id":"4","last_reported":1758208200,"current_range_meters":14000,"station_id":"ce4bhh12rcd13ifvqfg0","pricing_plan_id":"cebpf4jnsgd1na2vs0mg"},{"bike_id":"6fe5ee4d-d638-47ed-9e67-4166b3f93870","system_id":"levelo_inurba_marseille","lat":43.25343,"lon":5.42167,"is_reserved":false,"is_disabled":false,"rental_uris":{"android":"levelo://app?vid=6fe5ee4d-d638-47ed-9e67-4166b3f93870","ios":"levelo://app?vid=6fe5ee4d-d638-47ed-9e67-4166b3f93870"},"vehicle_type_id":"4","last_reported":1758208200,"current_range_meters":14000,"station_id":"st_d2m65c5bi1j21697t3ng","pricing_plan_id":"cebpf4jnsgd1na2vs0mg"},{"bike_id":"42323a1a-489c-43cb-90ae-c675b27444d5","system_id":"levelo_inurba_marseille","lat":43.21643,"lon":5.34365,"is_reserved":false,"is_disabled":false,"rental_uris":{"android":"levelo://app?vid=42323a1a-489c-43cb-90ae-c675b27444d5","ios":"levelo://app?vid=42323a1a-489c-43cb-90ae-c675b27444d5"},"vehicle_type_id":"4","last_reported":1758208200,"current_range_meters":14000,"station_id":"","pricing_plan_id":"cebpf4jnsgd1na2vs0mg"},{"bike_id":"a4faa1fd-62ee-404a-aff8-b79ea6b6b5d2","system_id":"levelo_inurba_marseille","lat":43.32986,"lon":5.39245,"is_reserved":false,"is_disabled":false,"rental_uris":{"android":"levelo://app?vid=a4faa1fd-62ee-404a-aff8-b79ea6b6b5d2","ios":"levelo://app?vid=a4faa1fd-62ee-404a-aff8-b79ea6b6b5d2"},"vehicle_type_id":"4","last_reported":1758208200,"current_range_meters":14400,"station_id":"","pricing_plan_id":"cebpf4jnsgd1na2vs0mg"},{"bike_id":"d9f0ae84-d732-44f5-b420-064e325a0d60","system_id":"levelo_inurba_marseille","lat":43.320183,"lon":5.381343,"is_reserved":false,"is_disabled":false,"rental_uris":{"android":"levelo://app?vid=d9f0ae84-d732-44f5-b420-064e325a0d60","ios":"levelo://app?vid=d9f0ae84-d732-44f5-b420-064e325a0d60"},"vehicle_type_id":"4","last_reported":1758208200,"current_range_meters":14400,"station_id":"","pricing_plan_id":"cebpf4jnsgd1na2vs0mg"},{"bike_id":"7cfeb98b-09f0-482b-89ac-dae870f7aad6","system_id":"levelo_inurba_marseille","lat":43.26555,"lon":5.37282,"is_reserved":false,"is_disabled":false,"rental_uris":{"android":"levelo://app?vid=7cfeb98b-09f0-482b-89ac-dae870f7aad6","ios":"levelo://app?vid=7cfeb98b-09f0-482b-89ac-dae870f7aad6"},"vehicle_type_id":"4","last_reported":1758208200,"current_range_meters":14400,"station_id":"ce4bhg12rcd13ifvqf70","pricing_plan_id":"cebpf4jnsgd1na2vs0mg"},{"bike_id":"fec1ab5e-22d2-4edf-971a-cb3946551fc1","system_id":"levelo_inurba_marseille","lat":43.28416,"lon":5.34972,"is_reserved":false,"is_disabled":false,"rental_uris":{"android":"levelo://app?vid=fec1ab5e-22d2-4edf-971a-cb3946551fc1","ios":"levelo://app?vid=fec1ab5e-22d2-4edf-971a-cb3946551fc1"},"vehicle_type_id":"4","last_reported":1758208200,"current_range_meters":14400,"station_id":"ce4bhbh2rcd13ifvqepg","pricing_plan_id":"cebpf4jnsgd1na2vs0mg"},{"bike_id":"d007b170-9320-4c7c-b5e3-8db2adf3a0d2","system_id":"levelo_inurba_marseille","lat":43.22562,"lon":5.41623,"is_reserved":false,"is_disabled":false,"rental_uris":{"android":"levelo://app?vid=d007b170-9320-4c7c-b5e3-8db2adf3a0d2","ios":"levelo://app?vid=d007b170-9320-4c7c-b5e3-8db2adf3a0d2"},"vehicle_type_id":"4","last_reported":1758208200,"current_range_meters":14400,"station_id":"st_d2o4gvlbi1j2169b742g","pricing_plan_id":"cebpf4jnsgd1na2vs0mg"},{"bike_id":"fa0847a4-8d8b-47a2-9c0d-c16fe7a48c9b","system_id":"levelo_inurba_marseille","lat":43.330285,"lon":5.390556,"is_reserved":false,"is_disabled":false,"rental_uris":{"android":"levelo://app?vid=fa0847a4-8d8b-47a2-9c0d-c16fe7a48c9b","ios":"levelo://app?vid=fa0847a4-8d8b-47a2-9c0d-c16fe7a48c9b"},"vehicle_type_id":"4","last_reported":1758208200,"current_range_meters":14400,"station_id":"","pricing_plan_id":"cebpf4jnsgd1na2vs0mg"},{"bike_id":"f709ecc6-7c53-4c9c-95d6-bc38d2a751eb","system_id":"levelo_inurba_marseille","lat":43.2737,"lon":5.36261,"is_reserved":false,"is_disabled":false,"rental_uris":{"android":"levelo://app?vid=f709ecc6-7c53-4c9c-95d6-bc38d2a751eb","ios":"levelo://app?vid=f709ecc6-7c53-4c9c-95d6-bc38d2a751eb"},"vehicle_type_id":"4","last_reported":1758208200,"current_range_meters":14400,"station_id":"ce4bhbh2rcd13ifvqeo0","pricing_plan_id":"cebpf4jnsgd1na2vs0mg"},{"bike_id":"4ca8dda9-9450-4592-ae7e-73b1e2d04654","system_id":"levelo_inurba_marseille","lat":43.25495,"lon":5.37655,"is_reserved":false,"is_disabled":false,"rental_uris":{"android":"levelo://app?vid=4ca8dda9-9450-4592-ae7e-73b1e2d04654","ios":"levelo://app?vid=4ca8dda9-9450-4592-ae7e-73b1e2d04654"},"vehicle_type_id":"4","last_reported":1758208200,"current_range_meters":14400,"station_id":"ce4bhh12rcd13ifvqff0","pricing_plan_id":"cebpf4jnsgd1na2vs0mg"},{"bike_id":"be9ee84b-9ec1-497c-800c-5907ad1418ae","system_id":"levelo_inurba_marseille","lat":43.22553,"lon":5.41628,"is_reserved":false,"is_disabled":false,"rental_uris":{"android":"levelo://app?vid=be9ee84b-9ec1-497c-800c-5907ad1418ae","ios":"levelo://app?vid=be9ee84b-9ec1-497c-800c-5907ad1418ae"},"vehicle_type_id":"4","last_reported":1758208200,"current_range_meters":14400,"station_id":"st_d2o4gvlbi1j2169b742g","pricing_plan_id":"cebpf4jnsgd1na2vs0mg"},{"bike_id":"f1cb89fd-3aae-45dd-8b07-61c162b2375e","system_id":"levelo_inurba_marseille","lat":43.21191,"lon":5.35067,"is_reserved":false,"is_disabled":false,"rental_uris":{"android":"levelo://app?vid=f1cb89fd-3aae-45dd-8b07-61c162b2375e","ios":"levelo://app?vid=f1cb89fd-3aae-45dd-8b07-61c162b2375e"},"vehicle_type_id":"4","last_reported":1758208200,"current_range_meters":14400,"station_id":"","pricing_plan_id":"cebpf4jnsgd1na2vs0mg"},{"bike_id":"387d6da7-6ff4-4b9d-8f58-4e0c8a9373dd","system_id":"levelo_inurba_marseille","lat":43.26052,"lon":5.394,"is_reserved":false,"is_disabled":false,"rental_uris":{"android":"levelo://app?vid=387d6da7-6ff4-4b9d-8f58-4e0c8a9373dd","ios":"levelo://app?vid=387d6da7-6ff4-4b9d-8f58-4e0c8a9373dd"},"vehicle_type_id":"4","last_reported":1758208200,"current_range_meters":14400,"station_id":"ce4bhh92rcd13ifvqfj0","pricing_plan_id":"cebpf4jnsgd1na2vs0mg"},{"bike_id":"a740f00f-a20b-4210-a4ab-4e77b8d25655","system_id":"levelo_inurba_marseille","lat":43.32393,"lon":5.3885,"is_reserved":false,"is_disabled":false,"rental_uris":{"android":"levelo://app?vid=a740f00f-a20b-4210-a4ab-4e77b8d25655","ios":"levelo://app?vid=a740f00f-a20b-4210-a4ab-4e77b8d25655"},"vehicle_type_id":"4","last_reported":1758208200,"current_range_meters":14800,"station_id":"ce4bhqp2rcd13ifvqhog","pricing_plan_id":"cebpf4jnsgd1na2vs0mg"},{"bike_id":"387df40b-196d-4110-b07e-49df90fda22c","system_id":"levelo_inurba_marseille","lat":43.25333,"lon":5.42164,"is_reserved":false,"is_disabled":false,"rental_uris":{"android":"levelo://app?vid=387df40b-196d-4110-b07e-49df90fda22c","ios":"levelo://app?vid=387df40b-196d-4110-b07e-49df90fda22c"},"vehicle_type_id":"4","last_reported":1758208200,"current_range_meters":14800,"station_id":"st_d2m65c5bi1j21697t3ng","pricing_plan_id":"cebpf4jnsgd1na2vs0mg"},{"bike_id":"293506f4-38f7-489e-ab4e-c6311809d908","system_id":"levelo_inurba_marseille","lat":43.2926,"lon":5.38441,"is_reserved":false,"is_disabled":false,"rental_uris":{"android":"levelo://app?vid=293506f4-38f7-489e-ab4e-c6311809d908","ios":"levelo://app?vid=293506f4-38f7-489e-ab4e-c6311809d908"},"vehicle_type_id":"4","last_reported":1758208200,"current_range_meters":14800,"station_id":"ce4bh692rcd13ifvqea0","pricing_plan_id":"cebpf4jnsgd1na2vs0mg"},{"bike_id":"ff44f1ad-2efa-4491-b8e1-7e77aa981a6b","system_id":"levelo_inurba_marseille","lat":43.3013,"lon":5.37408,"is_reserved":false,"is_disabled":true,"rental_uris":{"android":"levelo://app?vid=ff44f1ad-2efa-4491-b8e1-7e77aa981a6b","ios":"levelo://app?vid=ff44f1ad-2efa-4491-b8e1-7e77aa981a6b"},"vehicle_type_id":"4","last_reported":1758208200,"current_range_meters":14800,"station_id":"","pricing_plan_id":"cebpf4jnsgd1na2vs0mg"},{"bike_id":"22f0687d-25d3-4094-9c4a-293a61e189a6","system_id":"levelo_inurba_marseille","lat":43.2463,"lon":5.39626,"is_reserved":false,"is_disabled":false,"rental_uris":{"android":"levelo://app?vid=22f0687d-25d3-4094-9c4a-293a61e189a6","ios":"levelo://app?vid=22f0687d-25d3-4094-9c4a-293a61e189a6"},"vehicle_type_id":"4","last_reported":1758208200,"current_range_meters":14800,"station_id":"","pricing_plan_id":"cebpf4jnsgd1na2vs0mg"},{"bike_id":"28748757-025b-4662-ad5f-4b143cff5213","system_id":"levelo_inurba_marseille","lat":43.22933,"lon":5.35382,"is_reserved":false,"is_disabled":false,"rental_uris":{"android":"levelo://app?vid=28748757-025b-4662-ad5f-4b143cff5213","ios":"levelo://app?vid=28748757-025b-4662-ad5f-4b143cff5213"},"vehicle_type_id":"4","last_reported":1758208200,"current_range_meters":14800,"station_id":"cpo3532slgdg3j2ikp40","pricing_plan_id":"cebpf4jnsgd1na2vs0mg"},{"bike_id":"273352c5-3503-41dd-aea7-399efb1cb61a","system_id":"levelo_inurba_marseille","lat":43.30638,"lon":5.40103,"is_reserved":false,"is_disabled":false,"rental_uris":{"android":"levelo://app?vid=273352c5-3503-41dd-aea7-399efb1cb61a","ios":"levelo://app?vid=273352c5-3503-41dd-aea7-399efb1cb61a"},"vehicle_type_id":"4","last_reported":1758208200,"current_range_meters":14400,"station_id":"ce4bh112rcd13ifvqda0","pricing_plan_id":"cebpf4jnsgd1na2vs0mg"},{"bike_id":"90924aea-244d-4a78-9350-6652a7b49eb8","system_id":"levelo_inurba_marseille","lat":43.29799,"lon":5.38092,"is_reserved":false,"is_disabled":false,"rental_uris":{"android":"levelo://app?vid=90924aea-244d-4a78-9350-6652a7b49eb8","ios":"levelo://app?vid=90924aea-244d-4a78-9350-6652a7b49eb8"},"vehicle_type_id":"4","last_reported":1758208200,"current_range_meters":15200,"station_id":"","pricing_plan_id":"cebpf4jnsgd1na2vs0mg"},{"bike_id":"09570d12-1c19-480b-b748-01efa9a99750","system_id":"levelo_inurba_marseille","lat":43.26202,"lon":5.37451,"is_reserved":false,"is_disabled":false,"rental_uris":{"android":"levelo://app?vid=09570d12-1c19-480b-b748-01efa9a99750","ios":"levelo://app?vid=09570d12-1c19-480b-b748-01efa9a99750"},"vehicle_type_id":"4","last_reported":1758208200,"current_range_meters":15200,"station_id":"ce4bhgp2rcd13ifvqfc0","pricing_plan_id":"cebpf4jnsgd1na2vs0mg"},{"bike_id":"4aef79be-97dd-43f5-a1de-7985d8307a79","system_id":"levelo_inurba_marseille","lat":43.240744,"lon":5.377612,"is_reserved":false,"is_disabled":false,"rental_uris":{"android":"levelo://app?vid=4aef79be-97dd-43f5-a1de-7985d8307a79","ios":"levelo://app?vid=4aef79be-97dd-43f5-a1de-7985d8307a79"},"vehicle_type_id":"4","last_reported":1758208200,"current_range_meters":12800,"station_id":"ce4bhnp2rcd13ifvqgvg","pricing_plan_id":"cebpf4jnsgd1na2vs0mg"},{"bike_id":"e2c36ae3-ce63-4a19-9132-85eccd255c34","system_id":"levelo_inurba_marseille","lat":43.3079,"lon":5.43525,"is_reserved":false,"is_disabled":false,"rental_uris":{"android":"levelo://app?vid=e2c36ae3-ce63-4a19-9132-85eccd255c34","ios":"levelo://app?vid=e2c36ae3-ce63-4a19-9132-85eccd255c34"},"vehicle_type_id":"4","last_reported":1758208200,"current_range_meters":15200,"station_id":"ce4bhph2rcd13ifvqheg","pricing_plan_id":"cebpf4jnsgd1na2vs0mg"},{"bike_id":"ad2a47f3-4969-4c54-b4b1-17c97e735128","system_id":"levelo_inurba_marseille","lat":43.25516,"lon":5.37625,"is_reserved":false,"is_disabled":false,"rental_uris":{"android":"levelo://app?vid=ad2a47f3-4969-4c54-b4b1-17c97e735128","ios":"levelo://app?vid=ad2a47f3-4969-4c54-b4b1-17c97e735128"},"vehicle_type_id":"4","last_reported":1758208200,"current_range_meters":16000,"station_id":"ce4bhh12rcd13ifvqff0","pricing_plan_id":"cebpf4jnsgd1na2vs0mg"},{"bike_id":"7eed94c4-182d-4460-826b-78b4ef60c719","system_id":"levelo_inurba_marseille","lat":43.295859,"lon":5.375163,"is_reserved":false,"is_disabled":false,"rental_uris":{"android":"levelo://app?vid=7eed94c4-182d-4460-826b-78b4ef60c719","ios":"levelo://app?vid=7eed94c4-182d-4460-826b-78b4ef60c719"},"vehicle_type_id":"4","last_reported":1758208200,"current_range_meters":16000,"station_id":"","pricing_plan_id":"cebpf4jnsgd1na2vs0mg"},{"bike_id":"14b0b536-1224-48a2-9649-a40684ff5788","system_id":"levelo_inurba_marseille","lat":43.2961,"lon":5.37728,"is_reserved":false,"is_disabled":true,"rental_uris":{"android":"levelo://app?vid=14b0b536-1224-48a2-9649-a40684ff5788","ios":"levelo://app?vid=14b0b536-1224-48a2-9649-a40684ff5788"},"vehicle_type_id":"4","last_reported":1758208200,"current_range_meters":16000,"station_id":"","pricing_plan_id":"cebpf4jnsgd1na2vs0mg"},{"bike_id":"09b79a8d-bb3d-4edb-8c89-76a54be6a3ce","system_id":"levelo_inurba_marseille","lat":43.296722,"lon":5.373049,"is_reserved":false,"is_disabled":false,"rental_uris":{"android":"levelo://app?vid=09b79a8d-bb3d-4edb-8c89-76a54be6a3ce","ios":"levelo://app?vid=09b79a8d-bb3d-4edb-8c89-76a54be6a3ce"},"vehicle_type_id":"4","last_reported":1758208200,"current_range_meters":16000,"station_id":"ce4bgk12rcd13ifvqbj0","pricing_plan_id":"cebpf4jnsgd1na2vs0mg"},{"bike_id":"e76bbeac-ad21-421b-bfbe-b765982604b9","system_id":"levelo_inurba_marseille","lat":43.24545,"lon":5.39522,"is_reserved":false,"is_disabled":false,"rental_uris":{"android":"levelo://app?vid=e76bbeac-ad21-421b-bfbe-b765982604b9","ios":"levelo://app?vid=e76bbeac-ad21-421b-bfbe-b765982604b9"},"vehicle_type_id":"4","last_reported":1758208200,"current_range_meters":16400,"station_id":"ce4bhlp2rcd13ifvqgjg","pricing_plan_id":"cebpf4jnsgd1na2vs0mg"},{"bike_id":"e942f984-8fe7-48d1-8f04-3806656b9996","system_id":"levelo_inurba_marseille","lat":43.33602,"lon":5.3796,"is_reserved":false,"is_disabled":false,"rental_uris":{"android":"levelo://app?vid=e942f984-8fe7-48d1-8f04-3806656b9996","ios":"levelo://app?vid=e942f984-8fe7-48d1-8f04-3806656b9996"},"vehicle_type_id":"4","last_reported":1758208200,"current_range_meters":16400,"station_id":"","pricing_plan_id":"cebpf4jnsgd1na2vs0mg"},{"bike_id":"6f64d1a0-4930-447a-a9e8-f317c4fa83ea","system_id":"levelo_inurba_marseille","lat":43.246568,"lon":5.381647,"is_reserved":false,"is_disabled":false,"rental_uris":{"android":"levelo://app?vid=6f64d1a0-4930-447a-a9e8-f317c4fa83ea","ios":"levelo://app?vid=6f64d1a0-4930-447a-a9e8-f317c4fa83ea"},"vehicle_type_id":"4","last_reported":1758208200,"current_range_meters":16400,"station_id":"ce4bhih2rcd13ifvqfr0","pricing_plan_id":"cebpf4jnsgd1na2vs0mg"},{"bike_id":"9d8b4944-013e-4958-9415-40d7b5ee9701","system_id":"levelo_inurba_marseille","lat":43.31637,"lon":5.38159,"is_reserved":false,"is_disabled":false,"rental_uris":{"android":"levelo://app?vid=9d8b4944-013e-4958-9415-40d7b5ee9701","ios":"levelo://app?vid=9d8b4944-013e-4958-9415-40d7b5ee9701"},"vehicle_type_id":"4","last_reported":1758208200,"current_range_meters":16400,"station_id":"","pricing_plan_id":"cebpf4jnsgd1na2vs0mg"},{"bike_id":"e45b2a8e-9a2f-4164-804b-29a7d97298e4","system_id":"levelo_inurba_marseille","lat":43.23179,"lon":5.39991,"is_reserved":false,"is_disabled":false,"rental_uris":{"android":"levelo://app?vid=e45b2a8e-9a2f-4164-804b-29a7d97298e4","ios":"levelo://app?vid=e45b2a8e-9a2f-4164-804b-29a7d97298e4"},"vehicle_type_id":"4","last_reported":1758208200,"current_range_meters":16400,"station_id":"ce4bhn12rcd13ifvqgqg","pricing_plan_id":"cebpf4jnsgd1na2vs0mg"},{"bike_id":"c564c7df-6544-41be-a7d1-2e808b7a7e4d","system_id":"levelo_inurba_marseille","lat":43.24655,"lon":5.38147,"is_reserved":false,"is_disabled":false,"rental_uris":{"android":"levelo://app?vid=c564c7df-6544-41be-a7d1-2e808b7a7e4d","ios":"levelo://app?vid=c564c7df-6544-41be-a7d1-2e808b7a7e4d"},"vehicle_type_id":"4","last_reported":1758208200,"current_range_meters":16400,"station_id":"ce4bhih2rcd13ifvqfr0","pricing_plan_id":"cebpf4jnsgd1na2vs0mg"},{"bike_id":"f9418cc9-c64d-43d9-9060-3aeedd69cdee","system_id":"levelo_inurba_marseille","lat":43.33083,"lon":5.37845,"is_reserved":false,"is_disabled":false,"rental_uris":{"android":"levelo://app?vid=f9418cc9-c64d-43d9-9060-3aeedd69cdee","ios":"levelo://app?vid=f9418cc9-c64d-43d9-9060-3aeedd69cdee"},"vehicle_type_id":"4","last_reported":1758208200,"current_range_meters":16400,"station_id":"","pricing_plan_id":"cebpf4jnsgd1na2vs0mg"},{"bike_id":"fb78ea42-e26f-45b3-a617-d3474b811b72","system_id":"levelo_inurba_marseille","lat":43.29873,"lon":5.37944,"is_reserved":false,"is_disabled":false,"rental_uris":{"android":"levelo://app?vid=fb78ea42-e26f-45b3-a617-d3474b811b72","ios":"levelo://app?vid=fb78ea42-e26f-45b3-a617-d3474b811b72"},"vehicle_type_id":"4","last_reported":1758208200,"current_range_meters":16800,"station_id":"","pricing_plan_id":"cebpf4jnsgd1na2vs0mg"},{"bike_id":"7529cc7e-a55d-47d0-9f8e-eb41d1157d4a","system_id":"levelo_inurba_marseille","lat":43.251115,"lon":5.4032,"is_reserved":false,"is_disabled":false,"rental_uris":{"android":"levelo://app?vid=7529cc7e-a55d-47d0-9f8e-eb41d1157d4a","ios":"levelo://app?vid=7529cc7e-a55d-47d0-9f8e-eb41d1157d4a"},"vehicle_type_id":"4","last_reported":1758208200,"current_range_meters":16800,"station_id":"ce4bhlh2rcd13ifvqgig","pricing_plan_id":"cebpf4jnsgd1na2vs0mg"},{"bike_id":"da1bb89e-ee6c-45d2-be12-911ca53e867b","system_id":"levelo_inurba_marseille","lat":43.24633,"lon":5.43148,"is_reserved":false,"is_disabled":false,"rental_uris":{"android":"levelo://app?vid=da1bb89e-ee6c-45d2-be12-911ca53e867b","ios":"levelo://app?vid=da1bb89e-ee6c-45d2-be12-911ca53e867b"},"vehicle_type_id":"4","last_reported":1758208200,"current_range_meters":16800,"station_id":"st_d2m6c4gdas8pm72e190g","pricing_plan_id":"cebpf4jnsgd1na2vs0mg"},{"bike_id":"0d82b35c-17e7-4268-966b-cc4ee5eb3f1c","system_id":"levelo_inurba_marseille","lat":43.23188,"lon":5.39988,"is_reserved":false,"is_disabled":false,"rental_uris":{"android":"levelo://app?vid=0d82b35c-17e7-4268-966b-cc4ee5eb3f1c","ios":"levelo://app?vid=0d82b35c-17e7-4268-966b-cc4ee5eb3f1c"},"vehicle_type_id":"4","last_reported":1758208200,"current_range_meters":16800,"station_id":"ce4bhn12rcd13ifvqgqg","pricing_plan_id":"cebpf4jnsgd1na2vs0mg"},{"bike_id":"553f8368-9fc7-4fab-ab6b-4ab64407d3bf","system_id":"levelo_inurba_marseille","lat":43.28855,"lon":5.4251,"is_reserved":false,"is_disabled":false,"rental_uris":{"android":"levelo://app?vid=553f8368-9fc7-4fab-ab6b-4ab64407d3bf","ios":"levelo://app?vid=553f8368-9fc7-4fab-ab6b-4ab64407d3bf"},"vehicle_type_id":"4","last_reported":1758208200,"current_range_meters":16800,"station_id":"","pricing_plan_id":"cebpf4jnsgd1na2vs0mg"},{"bike_id":"bf6e6d27-c09e-4725-9fbc-20073fd5a515","system_id":"levelo_inurba_marseille","lat":43.289376,"lon":5.396214,"is_reserved":false,"is_disabled":false,"rental_uris":{"android":"levelo://app?vid=bf6e6d27-c09e-4725-9fbc-20073fd5a515","ios":"levelo://app?vid=bf6e6d27-c09e-4725-9fbc-20073fd5a515"},"vehicle_type_id":"4","last_reported":1758208200,"current_range_meters":17200,"station_id":"","pricing_plan_id":"cebpf4jnsgd1na2vs0mg"},{"bike_id":"0960e3dd-c358-4474-bd10-8223758e1f6b","system_id":"levelo_inurba_marseille","lat":43.296996,"lon":5.376855,"is_reserved":false,"is_disabled":false,"rental_uris":{"android":"levelo://app?vid=0960e3dd-c358-4474-bd10-8223758e1f6b","ios":"levelo://app?vid=0960e3dd-c358-4474-bd10-8223758e1f6b"},"vehicle_type_id":"4","last_reported":1758208200,"current_range_meters":17200,"station_id":"","pricing_plan_id":"cebpf4jnsgd1na2vs0mg"},{"bike_id":"5a74ab2f-4a92-406d-a3c2-702febec28c3","system_id":"levelo_inurba_marseille","lat":43.28423,"lon":5.34996,"is_reserved":false,"is_disabled":false,"rental_uris":{"android":"levelo://app?vid=5a74ab2f-4a92-406d-a3c2-702febec28c3","ios":"levelo://app?vid=5a74ab2f-4a92-406d-a3c2-702febec28c3"},"vehicle_type_id":"4","last_reported":1758208200,"current_range_meters":17200,"station_id":"ce4bhbh2rcd13ifvqepg","pricing_plan_id":"cebpf4jnsgd1na2vs0mg"},{"bike_id":"06319b1f-bb7d-4df8-beb6-4cc890d4ea37","system_id":"levelo_inurba_marseille","lat":43.3375,"lon":5.37455,"is_reserved":false,"is_disabled":false,"rental_uris":{"android":"levelo://app?vid=06319b1f-bb7d-4df8-beb6-4cc890d4ea37","ios":"levelo://app?vid=06319b1f-bb7d-4df8-beb6-4cc890d4ea37"},"vehicle_type_id":"4","last_reported":1758208200,"current_range_meters":17600,"station_id":"","pricing_plan_id":"cebpf4jnsgd1na2vs0mg"},{"bike_id":"4b25ad77-301b-4be3-89f8-94f9df20251d","system_id":"levelo_inurba_marseille","lat":43.27489,"lon":5.42456,"is_reserved":false,"is_disabled":true,"rental_uris":{"android":"levelo://app?vid=4b25ad77-301b-4be3-89f8-94f9df20251d","ios":"levelo://app?vid=4b25ad77-301b-4be3-89f8-94f9df20251d"},"vehicle_type_id":"4","last_reported":1758208200,"current_range_meters":17600,"station_id":"ce4bhn92rcd13ifvqgrg","pricing_plan_id":"cebpf4jnsgd1na2vs0mg"},{"bike_id":"f9ccf06f-79e1-49e1-b249-6072bfdb072f","system_id":"levelo_inurba_marseille","lat":43.32001,"lon":5.38152,"is_reserved":false,"is_disabled":false,"rental_uris":{"android":"levelo://app?vid=f9ccf06f-79e1-49e1-b249-6072bfdb072f","ios":"levelo://app?vid=f9ccf06f-79e1-49e1-b249-6072bfdb072f"},"vehicle_type_id":"4","last_reported":1758208200,"current_range_meters":17600,"station_id":"ce4bhr12rcd13ifvqhpg","pricing_plan_id":"cebpf4jnsgd1na2vs0mg"},{"bike_id":"f4f303df-fd89-4a02-8677-3c24b6d98687","system_id":"levelo_inurba_marseille","lat":43.28275,"lon":5.35075,"is_reserved":false,"is_disabled":false,"rental_uris":{"android":"levelo://app?vid=f4f303df-fd89-4a02-8677-3c24b6d98687","ios":"levelo://app?vid=f4f303df-fd89-4a02-8677-3c24b6d98687"},"vehicle_type_id":"4","last_reported":1758208200,"current_range_meters":18000,"station_id":"ce4bhbp2rcd13ifvqerg","pricing_plan_id":"cebpf4jnsgd1na2vs0mg"},{"bike_id":"83981190-f3d9-45bf-a46e-4ee5e9cd6e7e","system_id":"levelo_inurba_marseille","lat":43.231897,"lon":5.39979,"is_reserved":false,"is_disabled":false,"rental_uris":{"android":"levelo://app?vid=83981190-f3d9-45bf-a46e-4ee5e9cd6e7e","ios":"levelo://app?vid=83981190-f3d9-45bf-a46e-4ee5e9cd6e7e"},"vehicle_type_id":"4","last_reported":1758208200,"current_range_meters":18000,"station_id":"ce4bhn12rcd13ifvqgqg","pricing_plan_id":"cebpf4jnsgd1na2vs0mg"},{"bike_id":"48af9b18-e4f4-4d87-93de-00ac1c059c4e","system_id":"levelo_inurba_marseille","lat":43.27374,"lon":5.3626,"is_reserved":false,"is_disabled":false,"rental_uris":{"android":"levelo://app?vid=48af9b18-e4f4-4d87-93de-00ac1c059c4e","ios":"levelo://app?vid=48af9b18-e4f4-4d87-93de-00ac1c059c4e"},"vehicle_type_id":"4","last_reported":1758208200,"current_range_meters":18000,"station_id":"ce4bhbh2rcd13ifvqeo0","pricing_plan_id":"cebpf4jnsgd1na2vs0mg"},{"bike_id":"79c62aa0-ffa4-4336-8072-79ef267e4ecd","system_id":"levelo_inurba_marseille","lat":43.29569,"lon":5.37523,"is_reserved":false,"is_disabled":false,"rental_uris":{"android":"levelo://app?vid=79c62aa0-ffa4-4336-8072-79ef267e4ecd","ios":"levelo://app?vid=79c62aa0-ffa4-4336-8072-79ef267e4ecd"},"vehicle_type_id":"4","last_reported":1758208200,"current_range_meters":18000,"station_id":"","pricing_plan_id":"cebpf4jnsgd1na2vs0mg"},{"bike_id":"43d57fd4-047e-4ac8-97e5-ec9b96239472","system_id":"levelo_inurba_marseille","lat":43.32894,"lon":5.38928,"is_reserved":false,"is_disabled":false,"rental_uris":{"android":"levelo://app?vid=43d57fd4-047e-4ac8-97e5-ec9b96239472","ios":"levelo://app?vid=43d57fd4-047e-4ac8-97e5-ec9b96239472"},"vehicle_type_id":"4","last_reported":1758208200,"current_range_meters":18000,"station_id":"","pricing_plan_id":"cebpf4jnsgd1na2vs0mg"},{"bike_id":"e10ee02b-e0d3-42b8-b743-728ec32829a6","system_id":"levelo_inurba_marseille","lat":43.26074,"lon":5.39366,"is_reserved":false,"is_disabled":false,"rental_uris":{"android":"levelo://app?vid=e10ee02b-e0d3-42b8-b743-728ec32829a6","ios":"levelo://app?vid=e10ee02b-e0d3-42b8-b743-728ec32829a6"},"vehicle_type_id":"4","last_reported":1758208200,"current_range_meters":18800,"station_id":"ce4bhh92rcd13ifvqfj0","pricing_plan_id":"cebpf4jnsgd1na2vs0mg"},{"bike_id":"4d5246a3-d568-4b61-a7ab-2d165c2396e5","system_id":"levelo_inurba_marseille","lat":43.29204,"lon":5.35773,"is_reserved":false,"is_disabled":false,"rental_uris":{"android":"levelo://app?vid=4d5246a3-d568-4b61-a7ab-2d165c2396e5","ios":"levelo://app?vid=4d5246a3-d568-4b61-a7ab-2d165c2396e5"},"vehicle_type_id":"4","last_reported":1758208200,"current_range_meters":18800,"station_id":"ce4bhb12rcd13ifvqel0","pricing_plan_id":"cebpf4jnsgd1na2vs0mg"},{"bike_id":"2ec08256-90ca-4d8f-9299-c62bd5da2f24","system_id":"levelo_inurba_marseille","lat":43.30795,"lon":5.43519,"is_reserved":false,"is_disabled":false,"rental_uris":{"android":"levelo://app?vid=2ec08256-90ca-4d8f-9299-c62bd5da2f24","ios":"levelo://app?vid=2ec08256-90ca-4d8f-9299-c62bd5da2f24"},"vehicle_type_id":"4","last_reported":1758208200,"current_range_meters":18800,"station_id":"ce4bhph2rcd13ifvqheg","pricing_plan_id":"cebpf4jnsgd1na2vs0mg"},{"bike_id":"9c0693b2-33f4-40d9-85fa-754a770a9d54","system_id":"levelo_inurba_marseille","lat":43.295188,"lon":5.390328,"is_reserved":false,"is_disabled":false,"rental_uris":{"android":"levelo://app?vid=9c0693b2-33f4-40d9-85fa-754a770a9d54","ios":"levelo://app?vid=9c0693b2-33f4-40d9-85fa-754a770a9d54"},"vehicle_type_id":"4","last_reported":1758208200,"current_range_meters":18800,"station_id":"ce4bh312rcd13ifvqdj0","pricing_plan_id":"cebpf4jnsgd1na2vs0mg"},{"bike_id":"1e995fdc-d9d9-470f-bbee-4f21c58ed9e6","system_id":"levelo_inurba_marseille","lat":43.28429,"lon":5.34991,"is_reserved":false,"is_disabled":false,"rental_uris":{"android":"levelo://app?vid=1e995fdc-d9d9-470f-bbee-4f21c58ed9e6","ios":"levelo://app?vid=1e995fdc-d9d9-470f-bbee-4f21c58ed9e6"},"vehicle_type_id":"4","last_reported":1758208200,"current_range_meters":18800,"station_id":"ce4bhbh2rcd13ifvqepg","pricing_plan_id":"cebpf4jnsgd1na2vs0mg"},{"bike_id":"824b19f1-652f-444c-8622-458b0a4b90a2","system_id":"levelo_inurba_marseille","lat":43.28934,"lon":5.36395,"is_reserved":false,"is_disabled":false,"rental_uris":{"android":"levelo://app?vid=824b19f1-652f-444c-8622-458b0a4b90a2","ios":"levelo://app?vid=824b19f1-652f-444c-8622-458b0a4b90a2"},"vehicle_type_id":"4","last_reported":1758208200,"current_range_meters":19200,"station_id":"ce4bhc92rcd13ifvqetg","pricing_plan_id":"cebpf4jnsgd1na2vs0mg"},{"bike_id":"d04ca1f1-211d-437e-a1a5-ef1b59345c33","system_id":"levelo_inurba_marseille","lat":43.2737,"lon":5.36261,"is_reserved":false,"is_disabled":false,"rental_uris":{"android":"levelo://app?vid=d04ca1f1-211d-437e-a1a5-ef1b59345c33","ios":"levelo://app?vid=d04ca1f1-211d-437e-a1a5-ef1b59345c33"},"vehicle_type_id":"4","last_reported":1758208200,"current_range_meters":19200,"station_id":"ce4bhbh2rcd13ifvqeo0","pricing_plan_id":"cebpf4jnsgd1na2vs0mg"},{"bike_id":"bea1d3f2-73ba-4309-a201-b3ae7e900784","system_id":"levelo_inurba_marseille","lat":43.26548,"lon":5.37288,"is_reserved":false,"is_disabled":false,"rental_uris":{"android":"levelo://app?vid=bea1d3f2-73ba-4309-a201-b3ae7e900784","ios":"levelo://app?vid=bea1d3f2-73ba-4309-a201-b3ae7e900784"},"vehicle_type_id":"4","last_reported":1758208200,"current_range_meters":19200,"station_id":"ce4bhg12rcd13ifvqf70","pricing_plan_id":"cebpf4jnsgd1na2vs0mg"},{"bike_id":"f85a8c4d-f9d0-4136-9b57-8bfb28db950c","system_id":"levelo_inurba_marseille","lat":43.31902,"lon":5.37438,"is_reserved":false,"is_disabled":false,"rental_uris":{"android":"levelo://app?vid=f85a8c4d-f9d0-4136-9b57-8bfb28db950c","ios":"levelo://app?vid=f85a8c4d-f9d0-4136-9b57-8bfb28db950c"},"vehicle_type_id":"4","last_reported":1758208200,"current_range_meters":19200,"station_id":"","pricing_plan_id":"cebpf4jnsgd1na2vs0mg"},{"bike_id":"4b8537a5-4736-4d92-b52d-2168a000a2e9","system_id":"levelo_inurba_marseille","lat":43.28937,"lon":5.36399,"is_reserved":false,"is_disabled":true,"rental_uris":{"android":"levelo://app?vid=4b8537a5-4736-4d92-b52d-2168a000a2e9","ios":"levelo://app?vid=4b8537a5-4736-4d92-b52d-2168a000a2e9"},"vehicle_type_id":"4","last_reported":1758208200,"current_range_meters":19200,"station_id":"ce4bhc92rcd13ifvqetg","pricing_plan_id":"cebpf4jnsgd1na2vs0mg"},{"bike_id":"181a1dcb-593d-42b3-909c-56433c107eb0","system_id":"levelo_inurba_marseille","lat":43.32284,"lon":5.3827,"is_reserved":false,"is_disabled":false,"rental_uris":{"android":"levelo://app?vid=181a1dcb-593d-42b3-909c-56433c107eb0","ios":"levelo://app?vid=181a1dcb-593d-42b3-909c-56433c107eb0"},"vehicle_type_id":"4","last_reported":1758208200,"current_range_meters":19200,"station_id":"ce4bhr12rcd13ifvqhqg","pricing_plan_id":"cebpf4jnsgd1na2vs0mg"},{"bike_id":"4a96070d-2f9b-402d-a878-57b5c58b4764","system_id":"levelo_inurba_marseille","lat":43.27313,"lon":5.39078,"is_reserved":false,"is_disabled":false,"rental_uris":{"android":"levelo://app?vid=4a96070d-2f9b-402d-a878-57b5c58b4764","ios":"levelo://app?vid=4a96070d-2f9b-402d-a878-57b5c58b4764"},"vehicle_type_id":"4","last_reported":1758208200,"current_range_meters":19600,"station_id":"ce4bhgp2rcd13ifvqfe0","pricing_plan_id":"cebpf4jnsgd1na2vs0mg"},{"bike_id":"518eef5b-9e3c-4b06-94a9-56e70af9d262","system_id":"levelo_inurba_marseille","lat":43.30809,"lon":5.38152,"is_reserved":false,"is_disabled":true,"rental_uris":{"android":"levelo://app?vid=518eef5b-9e3c-4b06-94a9-56e70af9d262","ios":"levelo://app?vid=518eef5b-9e3c-4b06-94a9-56e70af9d262"},"vehicle_type_id":"4","last_reported":1758208200,"current_range_meters":19600,"station_id":"ce4bgt12rcd13ifvqce0","pricing_plan_id":"cebpf4jnsgd1na2vs0mg"},{"bike_id":"dab8e79a-3298-43b1-b9ce-81d331b5b61b","system_id":"levelo_inurba_marseille","lat":43.2842,"lon":5.34993,"is_reserved":false,"is_disabled":false,"rental_uris":{"android":"levelo://app?vid=dab8e79a-3298-43b1-b9ce-81d331b5b61b","ios":"levelo://app?vid=dab8e79a-3298-43b1-b9ce-81d331b5b61b"},"vehicle_type_id":"4","last_reported":1758208200,"current_range_meters":20000,"station_id":"ce4bhbh2rcd13ifvqepg","pricing_plan_id":"cebpf4jnsgd1na2vs0mg"},{"bike_id":"2c4968af-b710-4801-93a3-2341805017d0","system_id":"levelo_inurba_marseille","lat":43.295297,"lon":5.37499,"is_reserved":false,"is_disabled":false,"rental_uris":{"android":"levelo://app?vid=2c4968af-b710-4801-93a3-2341805017d0","ios":"levelo://app?vid=2c4968af-b710-4801-93a3-2341805017d0"},"vehicle_type_id":"4","last_reported":1758208200,"current_range_meters":20000,"station_id":"ce4bgkp2rcd13ifvqbmg","pricing_plan_id":"cebpf4jnsgd1na2vs0mg"},{"bike_id":"ff6e8faf-7f1f-43ab-a2f4-20e0a65a01a0","system_id":"levelo_inurba_marseille","lat":43.26027,"lon":5.37599,"is_reserved":false,"is_disabled":false,"rental_uris":{"android":"levelo://app?vid=ff6e8faf-7f1f-43ab-a2f4-20e0a65a01a0","ios":"levelo://app?vid=ff6e8faf-7f1f-43ab-a2f4-20e0a65a01a0"},"vehicle_type_id":"4","last_reported":1758208200,"current_range_meters":20000,"station_id":"ce4bhgh2rcd13ifvqfa0","pricing_plan_id":"cebpf4jnsgd1na2vs0mg"},{"bike_id":"c5e95224-360e-4c4c-b6ca-a337a16371e5","system_id":"levelo_inurba_marseille","lat":43.26556,"lon":5.37281,"is_reserved":false,"is_disabled":false,"rental_uris":{"android":"levelo://app?vid=c5e95224-360e-4c4c-b6ca-a337a16371e5","ios":"levelo://app?vid=c5e95224-360e-4c4c-b6ca-a337a16371e5"},"vehicle_type_id":"4","last_reported":1758208200,"current_range_meters":20400,"station_id":"ce4bhg12rcd13ifvqf70","pricing_plan_id":"cebpf4jnsgd1na2vs0mg"},{"bike_id":"c9919643-5674-4c54-9e5c-03c9b4fef8ff","system_id":"levelo_inurba_marseille","lat":43.23193,"lon":5.39985,"is_reserved":false,"is_disabled":false,"rental_uris":{"android":"levelo://app?vid=c9919643-5674-4c54-9e5c-03c9b4fef8ff","ios":"levelo://app?vid=c9919643-5674-4c54-9e5c-03c9b4fef8ff"},"vehicle_type_id":"4","last_reported":1758208200,"current_range_meters":20400,"station_id":"ce4bhn12rcd13ifvqgqg","pricing_plan_id":"cebpf4jnsgd1na2vs0mg"},{"bike_id":"c4706891-6ce1-4440-91ff-a3ecf2ff007e","system_id":"levelo_inurba_marseille","lat":43.26374,"lon":5.40075,"is_reserved":false,"is_disabled":false,"rental_uris":{"android":"levelo://app?vid=c4706891-6ce1-4440-91ff-a3ecf2ff007e","ios":"levelo://app?vid=c4706891-6ce1-4440-91ff-a3ecf2ff007e"},"vehicle_type_id":"4","last_reported":1758208200,"current_range_meters":20400,"station_id":"","pricing_plan_id":"cebpf4jnsgd1na2vs0mg"},{"bike_id":"a0a76531-5f1b-4b69-9ce0-bec523f8d1ae","system_id":"levelo_inurba_marseille","lat":43.23184,"lon":5.35567,"is_reserved":false,"is_disabled":false,"rental_uris":{"android":"levelo://app?vid=a0a76531-5f1b-4b69-9ce0-bec523f8d1ae","ios":"levelo://app?vid=a0a76531-5f1b-4b69-9ce0-bec523f8d1ae"},"vehicle_type_id":"4","last_reported":1758208200,"current_range_meters":20400,"station_id":"ce4bhu92rcd13ifvqi70","pricing_plan_id":"cebpf4jnsgd1na2vs0mg"},{"bike_id":"835975a0-27c7-47e7-bc1c-b8ba0b505127","system_id":"levelo_inurba_marseille","lat":43.32576,"lon":5.37777,"is_reserved":false,"is_disabled":false,"rental_uris":{"android":"levelo://app?vid=835975a0-27c7-47e7-bc1c-b8ba0b505127","ios":"levelo://app?vid=835975a0-27c7-47e7-bc1c-b8ba0b505127"},"vehicle_type_id":"4","last_reported":1758208200,"current_range_meters":20400,"station_id":"","pricing_plan_id":"cebpf4jnsgd1na2vs0mg"},{"bike_id":"89412606-afee-4e64-b242-eead1b31e697","system_id":"levelo_inurba_marseille","lat":43.27915,"lon":5.39579,"is_reserved":false,"is_disabled":false,"rental_uris":{"android":"levelo://app?vid=89412606-afee-4e64-b242-eead1b31e697","ios":"levelo://app?vid=89412606-afee-4e64-b242-eead1b31e697"},"vehicle_type_id":"4","last_reported":1758208200,"current_range_meters":20400,"station_id":"ce4bhf92rcd13ifvqf40","pricing_plan_id":"cebpf4jnsgd1na2vs0mg"},{"bike_id":"31550384-8f30-499e-ae9d-9fd23ec43027","system_id":"levelo_inurba_marseille","lat":43.29003,"lon":5.35615,"is_reserved":false,"is_disabled":false,"rental_uris":{"android":"levelo://app?vid=31550384-8f30-499e-ae9d-9fd23ec43027","ios":"levelo://app?vid=31550384-8f30-499e-ae9d-9fd23ec43027"},"vehicle_type_id":"4","last_reported":1758208200,"current_range_meters":20800,"station_id":"ce4bhb92rcd13ifvqen0","pricing_plan_id":"cebpf4jnsgd1na2vs0mg"},{"bike_id":"38e46d26-b2e2-45a1-a298-d9eeaf3e3d9e","system_id":"levelo_inurba_marseille","lat":43.270665,"lon":5.422813,"is_reserved":false,"is_disabled":false,"rental_uris":{"android":"levelo://app?vid=38e46d26-b2e2-45a1-a298-d9eeaf3e3d9e","ios":"levelo://app?vid=38e46d26-b2e2-45a1-a298-d9eeaf3e3d9e"},"vehicle_type_id":"4","last_reported":1758208200,"current_range_meters":20800,"station_id":"ce4bhk92rcd13ifvqgb0","pricing_plan_id":"cebpf4jnsgd1na2vs0mg"},{"bike_id":"a839ff5a-b098-4851-8356-b3f8c0dba6cf","system_id":"levelo_inurba_marseille","lat":43.26026,"lon":5.37552,"is_reserved":false,"is_disabled":false,"rental_uris":{"android":"levelo://app?vid=a839ff5a-b098-4851-8356-b3f8c0dba6cf","ios":"levelo://app?vid=a839ff5a-b098-4851-8356-b3f8c0dba6cf"},"vehicle_type_id":"4","last_reported":1758208200,"current_range_meters":20800,"station_id":"ce4bhgh2rcd13ifvqfa0","pricing_plan_id":"cebpf4jnsgd1na2vs0mg"},{"bike_id":"f2eee7a3-d59d-4dc9-9e2d-02a01d012ba6","system_id":"levelo_inurba_marseille","lat":43.30143,"lon":5.38774,"is_reserved":false,"is_disabled":false,"rental_uris":{"android":"levelo://app?vid=f2eee7a3-d59d-4dc9-9e2d-02a01d012ba6","ios":"levelo://app?vid=f2eee7a3-d59d-4dc9-9e2d-02a01d012ba6"},"vehicle_type_id":"4","last_reported":1758208200,"current_range_meters":20800,"station_id":"ce4bghh2rcd13ifvqb60","pricing_plan_id":"cebpf4jnsgd1na2vs0mg"},{"bike_id":"fb5035cd-6a3b-475f-a072-c3aa442e2bd3","system_id":"levelo_inurba_marseille","lat":43.25869,"lon":5.39893,"is_reserved":false,"is_disabled":false,"rental_uris":{"android":"levelo://app?vid=fb5035cd-6a3b-475f-a072-c3aa442e2bd3","ios":"levelo://app?vid=fb5035cd-6a3b-475f-a072-c3aa442e2bd3"},"vehicle_type_id":"4","last_reported":1758208200,"current_range_meters":20400,"station_id":"ce4bhl92rcd13ifvqghg","pricing_plan_id":"cebpf4jnsgd1na2vs0mg"},{"bike_id":"7acef77e-dd9a-457a-bb97-f3e10516cf40","system_id":"levelo_inurba_marseille","lat":43.28262,"lon":5.35055,"is_reserved":false,"is_disabled":false,"rental_uris":{"android":"levelo://app?vid=7acef77e-dd9a-457a-bb97-f3e10516cf40","ios":"levelo://app?vid=7acef77e-dd9a-457a-bb97-f3e10516cf40"},"vehicle_type_id":"4","last_reported":1758208200,"current_range_meters":20800,"station_id":"ce4bhbp2rcd13ifvqerg","pricing_plan_id":"cebpf4jnsgd1na2vs0mg"},{"bike_id":"e8b78dd0-c0f3-4f96-a22f-ae63745d4b7c","system_id":"levelo_inurba_marseille","lat":43.25487,"lon":5.37647,"is_reserved":false,"is_disabled":false,"rental_uris":{"android":"levelo://app?vid=e8b78dd0-c0f3-4f96-a22f-ae63745d4b7c","ios":"levelo://app?vid=e8b78dd0-c0f3-4f96-a22f-ae63745d4b7c"},"vehicle_type_id":"4","last_reported":1758208200,"current_range_meters":20800,"station_id":"ce4bhh12rcd13ifvqff0","pricing_plan_id":"cebpf4jnsgd1na2vs0mg"},{"bike_id":"fc60bf97-055d-47d0-b29c-328ef703be39","system_id":"levelo_inurba_marseille","lat":43.27965,"lon":5.38752,"is_reserved":false,"is_disabled":false,"rental_uris":{"android":"levelo://app?vid=fc60bf97-055d-47d0-b29c-328ef703be39","ios":"levelo://app?vid=fc60bf97-055d-47d0-b29c-328ef703be39"},"vehicle_type_id":"4","last_reported":1758208200,"current_range_meters":22000,"station_id":"ce4bhg12rcd13ifvqf80","pricing_plan_id":"cebpf4jnsgd1na2vs0mg"},{"bike_id":"8039f3ca-a1e8-490c-9d8c-00a202b822f1","system_id":"levelo_inurba_marseille","lat":43.25865,"lon":5.39894,"is_reserved":false,"is_disabled":false,"rental_uris":{"android":"levelo://app?vid=8039f3ca-a1e8-490c-9d8c-00a202b822f1","ios":"levelo://app?vid=8039f3ca-a1e8-490c-9d8c-00a202b822f1"},"vehicle_type_id":"4","last_reported":1758208200,"current_range_meters":20800,"station_id":"ce4bhl92rcd13ifvqghg","pricing_plan_id":"cebpf4jnsgd1na2vs0mg"},{"bike_id":"af92115d-6f7a-49ce-a65e-77f9182df835","system_id":"levelo_inurba_marseille","lat":43.21747,"lon":5.34556,"is_reserved":false,"is_disabled":true,"rental_uris":{"android":"levelo://app?vid=af92115d-6f7a-49ce-a65e-77f9182df835","ios":"levelo://app?vid=af92115d-6f7a-49ce-a65e-77f9182df835"},"vehicle_type_id":"4","last_reported":1758208200,"current_range_meters":21600,"station_id":"st_cvj6r9ubvosntc0bgbag","pricing_plan_id":"cebpf4jnsgd1na2vs0mg"},{"bike_id":"6631739d-ad2b-4a6f-b845-faa3d068bbb7","system_id":"levelo_inurba_marseille","lat":43.30232,"lon":5.37681,"is_reserved":false,"is_disabled":false,"rental_uris":{"android":"levelo://app?vid=6631739d-ad2b-4a6f-b845-faa3d068bbb7","ios":"levelo://app?vid=6631739d-ad2b-4a6f-b845-faa3d068bbb7"},"vehicle_type_id":"4","last_reported":1758208200,"current_range_meters":21600,"station_id":"","pricing_plan_id":"cebpf4jnsgd1na2vs0mg"},{"bike_id":"676728c4-3ea8-4dd5-aa61-a21c27b9eddb","system_id":"levelo_inurba_marseille","lat":43.231887,"lon":5.399735,"is_reserved":false,"is_disabled":false,"rental_uris":{"android":"levelo://app?vid=676728c4-3ea8-4dd5-aa61-a21c27b9eddb","ios":"levelo://app?vid=676728c4-3ea8-4dd5-aa61-a21c27b9eddb"},"vehicle_type_id":"4","last_reported":1758208200,"current_range_meters":21600,"station_id":"ce4bhn12rcd13ifvqgqg","pricing_plan_id":"cebpf4jnsgd1na2vs0mg"},{"bike_id":"415c1d6c-0e6c-4202-b960-de1c837d39f6","system_id":"levelo_inurba_marseille","lat":43.29192,"lon":5.35808,"is_reserved":false,"is_disabled":false,"rental_uris":{"android":"levelo://app?vid=415c1d6c-0e6c-4202-b960-de1c837d39f6","ios":"levelo://app?vid=415c1d6c-0e6c-4202-b960-de1c837d39f6"},"vehicle_type_id":"4","last_reported":1758208200,"current_range_meters":20800,"station_id":"ce4bhb12rcd13ifvqel0","pricing_plan_id":"cebpf4jnsgd1na2vs0mg"},{"bike_id":"dd70e106-2afb-4cf7-a3cf-034132ac431b","system_id":"levelo_inurba_marseille","lat":43.31995,"lon":5.38162,"is_reserved":false,"is_disabled":false,"rental_uris":{"android":"levelo://app?vid=dd70e106-2afb-4cf7-a3cf-034132ac431b","ios":"levelo://app?vid=dd70e106-2afb-4cf7-a3cf-034132ac431b"},"vehicle_type_id":"4","last_reported":1758208200,"current_range_meters":21600,"station_id":"ce4bhr12rcd13ifvqhpg","pricing_plan_id":"cebpf4jnsgd1na2vs0mg"},{"bike_id":"f9ed84ec-a81d-499d-b0ac-1f17b48e4405","system_id":"levelo_inurba_marseille","lat":43.24646,"lon":5.38891,"is_reserved":false,"is_disabled":false,"rental_uris":{"android":"levelo://app?vid=f9ed84ec-a81d-499d-b0ac-1f17b48e4405","ios":"levelo://app?vid=f9ed84ec-a81d-499d-b0ac-1f17b48e4405"},"vehicle_type_id":"4","last_reported":1758208200,"current_range_meters":22000,"station_id":"ce4bhg12rcd13ifvqf60","pricing_plan_id":"cebpf4jnsgd1na2vs0mg"},{"bike_id":"5304049e-91d5-46c7-b1ae-caae14291e88","system_id":"levelo_inurba_marseille","lat":43.29252,"lon":5.37631,"is_reserved":false,"is_disabled":true,"rental_uris":{"android":"levelo://app?vid=5304049e-91d5-46c7-b1ae-caae14291e88","ios":"levelo://app?vid=5304049e-91d5-46c7-b1ae-caae14291e88"},"vehicle_type_id":"4","last_reported":1758208200,"current_range_meters":22000,"station_id":"ce4bgi12rcd13ifvqb80","pricing_plan_id":"cebpf4jnsgd1na2vs0mg"},{"bike_id":"77517afa-93ff-43d6-86e0-5d62dfd96c87","system_id":"levelo_inurba_marseille","lat":43.225372,"lon":5.348461,"is_reserved":false,"is_disabled":false,"rental_uris":{"android":"levelo://app?vid=77517afa-93ff-43d6-86e0-5d62dfd96c87","ios":"levelo://app?vid=77517afa-93ff-43d6-86e0-5d62dfd96c87"},"vehicle_type_id":"4","last_reported":1758208200,"current_range_meters":22000,"station_id":"","pricing_plan_id":"cebpf4jnsgd1na2vs0mg"},{"bike_id":"d67c7605-79aa-40b2-a2ea-b96bbe40729c","system_id":"levelo_inurba_marseille","lat":43.231937,"lon":5.355521,"is_reserved":false,"is_disabled":false,"rental_uris":{"android":"levelo://app?vid=d67c7605-79aa-40b2-a2ea-b96bbe40729c","ios":"levelo://app?vid=d67c7605-79aa-40b2-a2ea-b96bbe40729c"},"vehicle_type_id":"4","last_reported":1758208200,"current_range_meters":21600,"station_id":"ce4bhu92rcd13ifvqi70","pricing_plan_id":"cebpf4jnsgd1na2vs0mg"},{"bike_id":"173ba937-9945-4051-b272-e40dd4b3b69b","system_id":"levelo_inurba_marseille","lat":43.29517,"lon":5.39022,"is_reserved":false,"is_disabled":false,"rental_uris":{"android":"levelo://app?vid=173ba937-9945-4051-b272-e40dd4b3b69b","ios":"levelo://app?vid=173ba937-9945-4051-b272-e40dd4b3b69b"},"vehicle_type_id":"4","last_reported":1758208200,"current_range_meters":22000,"station_id":"ce4bh3p2rcd13ifvqdp0","pricing_plan_id":"cebpf4jnsgd1na2vs0mg"},{"bike_id":"40508977-7d47-4bc4-845d-abb5ab1dd174","system_id":"levelo_inurba_marseille","lat":43.29222,"lon":5.36071,"is_reserved":false,"is_disabled":false,"rental_uris":{"android":"levelo://app?vid=40508977-7d47-4bc4-845d-abb5ab1dd174","ios":"levelo://app?vid=40508977-7d47-4bc4-845d-abb5ab1dd174"},"vehicle_type_id":"4","last_reported":1758208200,"current_range_meters":22000,"station_id":"ce4bhbh2rcd13ifvqeqg","pricing_plan_id":"cebpf4jnsgd1na2vs0mg"},{"bike_id":"5613f75e-13dd-421b-b027-149ea8b149c7","system_id":"levelo_inurba_marseille","lat":43.246337,"lon":5.431451,"is_reserved":false,"is_disabled":false,"rental_uris":{"android":"levelo://app?vid=5613f75e-13dd-421b-b027-149ea8b149c7","ios":"levelo://app?vid=5613f75e-13dd-421b-b027-149ea8b149c7"},"vehicle_type_id":"4","last_reported":1758208200,"current_range_meters":22000,"station_id":"st_d2m6c4gdas8pm72e190g","pricing_plan_id":"cebpf4jnsgd1na2vs0mg"},{"bike_id":"2836ce26-b1f8-4176-8d47-1ab6bd539431","system_id":"levelo_inurba_marseille","lat":43.32349,"lon":5.40619,"is_reserved":false,"is_disabled":false,"rental_uris":{"android":"levelo://app?vid=2836ce26-b1f8-4176-8d47-1ab6bd539431","ios":"levelo://app?vid=2836ce26-b1f8-4176-8d47-1ab6bd539431"},"vehicle_type_id":"4","last_reported":1758208200,"current_range_meters":22000,"station_id":"ce4bhq92rcd13ifvqhjg","pricing_plan_id":"cebpf4jnsgd1na2vs0mg"},{"bike_id":"a8e2cfd7-9242-409b-bc55-7224082bbb9f","system_id":"levelo_inurba_marseille","lat":43.28429,"lon":5.34975,"is_reserved":false,"is_disabled":false,"rental_uris":{"android":"levelo://app?vid=a8e2cfd7-9242-409b-bc55-7224082bbb9f","ios":"levelo://app?vid=a8e2cfd7-9242-409b-bc55-7224082bbb9f"},"vehicle_type_id":"4","last_reported":1758208200,"current_range_meters":22400,"station_id":"ce4bhbh2rcd13ifvqepg","pricing_plan_id":"cebpf4jnsgd1na2vs0mg"},{"bike_id":"b810ec46-97ab-4356-95f9-0c9d02506d5a","system_id":"levelo_inurba_marseille","lat":43.24458,"lon":5.39039,"is_reserved":false,"is_disabled":false,"rental_uris":{"android":"levelo://app?vid=b810ec46-97ab-4356-95f9-0c9d02506d5a","ios":"levelo://app?vid=b810ec46-97ab-4356-95f9-0c9d02506d5a"},"vehicle_type_id":"4","last_reported":1758208200,"current_range_meters":22400,"station_id":"","pricing_plan_id":"cebpf4jnsgd1na2vs0mg"},{"bike_id":"af0490b6-c1c9-4895-8a15-568d23e0a730","system_id":"levelo_inurba_marseille","lat":43.28067,"lon":5.40783,"is_reserved":false,"is_disabled":false,"rental_uris":{"android":"levelo://app?vid=af0490b6-c1c9-4895-8a15-568d23e0a730","ios":"levelo://app?vid=af0490b6-c1c9-4895-8a15-568d23e0a730"},"vehicle_type_id":"4","last_reported":1758208200,"current_range_meters":22400,"station_id":"","pricing_plan_id":"cebpf4jnsgd1na2vs0mg"},{"bike_id":"fa04fbd4-83e8-40b3-968d-fa7925a28ab2","system_id":"levelo_inurba_marseille","lat":43.225335,"lon":5.348288,"is_reserved":false,"is_disabled":false,"rental_uris":{"android":"levelo://app?vid=fa04fbd4-83e8-40b3-968d-fa7925a28ab2","ios":"levelo://app?vid=fa04fbd4-83e8-40b3-968d-fa7925a28ab2"},"vehicle_type_id":"4","last_reported":1758208200,"current_range_meters":22400,"station_id":"","pricing_plan_id":"cebpf4jnsgd1na2vs0mg"},{"bike_id":"67df8158-2909-41b3-8de5-88ec92603a08","system_id":"levelo_inurba_marseille","lat":43.293422,"lon":5.377594,"is_reserved":false,"is_disabled":false,"rental_uris":{"android":"levelo://app?vid=67df8158-2909-41b3-8de5-88ec92603a08","ios":"levelo://app?vid=67df8158-2909-41b3-8de5-88ec92603a08"},"vehicle_type_id":"4","last_reported":1758208200,"current_range_meters":22400,"station_id":"","pricing_plan_id":"cebpf4jnsgd1na2vs0mg"},{"bike_id":"3d158a28-bece-4b10-9f82-ab3eb3313408","system_id":"levelo_inurba_marseille","lat":43.337485,"lon":5.374512,"is_reserved":false,"is_disabled":false,"rental_uris":{"android":"levelo://app?vid=3d158a28-bece-4b10-9f82-ab3eb3313408","ios":"levelo://app?vid=3d158a28-bece-4b10-9f82-ab3eb3313408"},"vehicle_type_id":"4","last_reported":1758208200,"current_range_meters":22400,"station_id":"","pricing_plan_id":"cebpf4jnsgd1na2vs0mg"},{"bike_id":"3c646fe9-9239-4718-8cc7-1510c8647be6","system_id":"levelo_inurba_marseille","lat":43.29276,"lon":5.36842,"is_reserved":false,"is_disabled":false,"rental_uris":{"android":"levelo://app?vid=3c646fe9-9239-4718-8cc7-1510c8647be6","ios":"levelo://app?vid=3c646fe9-9239-4718-8cc7-1510c8647be6"},"vehicle_type_id":"4","last_reported":1758208200,"current_range_meters":22400,"station_id":"ce4bhbp2rcd13ifvqesg","pricing_plan_id":"cebpf4jnsgd1na2vs0mg"},{"bike_id":"43656096-3901-4c1c-ba91-d79ba028e521","system_id":"levelo_inurba_marseille","lat":43.27488,"lon":5.42458,"is_reserved":false,"is_disabled":true,"rental_uris":{"android":"levelo://app?vid=43656096-3901-4c1c-ba91-d79ba028e521","ios":"levelo://app?vid=43656096-3901-4c1c-ba91-d79ba028e521"},"vehicle_type_id":"4","last_reported":1758208200,"current_range_meters":22800,"station_id":"ce4bhn92rcd13ifvqgrg","pricing_plan_id":"cebpf4jnsgd1na2vs0mg"},{"bike_id":"ca6cfb19-1dc3-4908-b50d-fcb1e1ef8339","system_id":"levelo_inurba_marseille","lat":43.273648,"lon":5.362608,"is_reserved":false,"is_disabled":false,"rental_uris":{"android":"levelo://app?vid=ca6cfb19-1dc3-4908-b50d-fcb1e1ef8339","ios":"levelo://app?vid=ca6cfb19-1dc3-4908-b50d-fcb1e1ef8339"},"vehicle_type_id":"4","last_reported":1758208200,"current_range_meters":22800,"station_id":"ce4bhbh2rcd13ifvqeo0","pricing_plan_id":"cebpf4jnsgd1na2vs0mg"},{"bike_id":"b36aa12b-deaf-40c9-8453-fa6a27e9fd50","system_id":"levelo_inurba_marseille","lat":43.26057,"lon":5.39398,"is_reserved":false,"is_disabled":false,"rental_uris":{"android":"levelo://app?vid=b36aa12b-deaf-40c9-8453-fa6a27e9fd50","ios":"levelo://app?vid=b36aa12b-deaf-40c9-8453-fa6a27e9fd50"},"vehicle_type_id":"4","last_reported":1758208200,"current_range_meters":22800,"station_id":"ce4bhh92rcd13ifvqfj0","pricing_plan_id":"cebpf4jnsgd1na2vs0mg"},{"bike_id":"830b9b55-b582-49a9-8acf-457ace5fb670","system_id":"levelo_inurba_marseille","lat":43.22556,"lon":5.4163,"is_reserved":false,"is_disabled":false,"rental_uris":{"android":"levelo://app?vid=830b9b55-b582-49a9-8acf-457ace5fb670","ios":"levelo://app?vid=830b9b55-b582-49a9-8acf-457ace5fb670"},"vehicle_type_id":"4","last_reported":1758208200,"current_range_meters":22800,"station_id":"st_d2o4gvlbi1j2169b742g","pricing_plan_id":"cebpf4jnsgd1na2vs0mg"},{"bike_id":"2e5c7846-e9e2-4ea6-a9d3-f9aeaf18e050","system_id":"levelo_inurba_marseille","lat":43.27619,"lon":5.36108,"is_reserved":false,"is_disabled":false,"rental_uris":{"android":"levelo://app?vid=2e5c7846-e9e2-4ea6-a9d3-f9aeaf18e050","ios":"levelo://app?vid=2e5c7846-e9e2-4ea6-a9d3-f9aeaf18e050"},"vehicle_type_id":"4","last_reported":1758208200,"current_range_meters":22000,"station_id":"ce4bgj92rcd13ifvqbe0","pricing_plan_id":"cebpf4jnsgd1na2vs0mg"},{"bike_id":"0f7caa9f-1d1a-40d7-9b4a-2f8720e63681","system_id":"levelo_inurba_marseille","lat":43.30863,"lon":5.37518,"is_reserved":false,"is_disabled":false,"rental_uris":{"android":"levelo://app?vid=0f7caa9f-1d1a-40d7-9b4a-2f8720e63681","ios":"levelo://app?vid=0f7caa9f-1d1a-40d7-9b4a-2f8720e63681"},"vehicle_type_id":"4","last_reported":1758208200,"current_range_meters":23200,"station_id":"","pricing_plan_id":"cebpf4jnsgd1na2vs0mg"},{"bike_id":"2c734c36-442f-468e-ab47-e34ad5183e32","system_id":"levelo_inurba_marseille","lat":43.25772,"lon":5.41047,"is_reserved":false,"is_disabled":false,"rental_uris":{"android":"levelo://app?vid=2c734c36-442f-468e-ab47-e34ad5183e32","ios":"levelo://app?vid=2c734c36-442f-468e-ab47-e34ad5183e32"},"vehicle_type_id":"4","last_reported":1758208200,"current_range_meters":23200,"station_id":"","pricing_plan_id":"cebpf4jnsgd1na2vs0mg"},{"bike_id":"a0826990-c8da-4478-b081-3c0239354bc0","system_id":"levelo_inurba_marseille","lat":43.28558,"lon":5.37793,"is_reserved":false,"is_disabled":false,"rental_uris":{"android":"levelo://app?vid=a0826990-c8da-4478-b081-3c0239354bc0","ios":"levelo://app?vid=a0826990-c8da-4478-b081-3c0239354bc0"},"vehicle_type_id":"4","last_reported":1758208200,"current_range_meters":23200,"station_id":"","pricing_plan_id":"cebpf4jnsgd1na2vs0mg"},{"bike_id":"a07a513e-e5a9-4481-8592-d991379bc662","system_id":"levelo_inurba_marseille","lat":43.337536,"lon":5.374536,"is_reserved":false,"is_disabled":false,"rental_uris":{"android":"levelo://app?vid=a07a513e-e5a9-4481-8592-d991379bc662","ios":"levelo://app?vid=a07a513e-e5a9-4481-8592-d991379bc662"},"vehicle_type_id":"4","last_reported":1758208200,"current_range_meters":23200,"station_id":"","pricing_plan_id":"cebpf4jnsgd1na2vs0mg"},{"bike_id":"b54d06bf-82d9-48cb-ae8d-065a5bec2925","system_id":"levelo_inurba_marseille","lat":43.2683,"lon":5.40285,"is_reserved":false,"is_disabled":false,"rental_uris":{"android":"levelo://app?vid=b54d06bf-82d9-48cb-ae8d-065a5bec2925","ios":"levelo://app?vid=b54d06bf-82d9-48cb-ae8d-065a5bec2925"},"vehicle_type_id":"4","last_reported":1758208200,"current_range_meters":24000,"station_id":"ce501612rcd8frsf0b60","pricing_plan_id":"cebpf4jnsgd1na2vs0mg"},{"bike_id":"e7e51501-dfd3-4b3f-a123-02c58adb66d9","system_id":"levelo_inurba_marseille","lat":43.25483,"lon":5.37657,"is_reserved":false,"is_disabled":false,"rental_uris":{"android":"levelo://app?vid=e7e51501-dfd3-4b3f-a123-02c58adb66d9","ios":"levelo://app?vid=e7e51501-dfd3-4b3f-a123-02c58adb66d9"},"vehicle_type_id":"4","last_reported":1758208200,"current_range_meters":24000,"station_id":"ce4bhh12rcd13ifvqff0","pricing_plan_id":"cebpf4jnsgd1na2vs0mg"},{"bike_id":"3edab8b5-08ab-4bd7-a8e3-46e14fec2b69","system_id":"levelo_inurba_marseille","lat":43.22572,"lon":5.41605,"is_reserved":false,"is_disabled":false,"rental_uris":{"android":"levelo://app?vid=3edab8b5-08ab-4bd7-a8e3-46e14fec2b69","ios":"levelo://app?vid=3edab8b5-08ab-4bd7-a8e3-46e14fec2b69"},"vehicle_type_id":"4","last_reported":1758208200,"current_range_meters":24000,"station_id":"st_d2o4gvlbi1j2169b742g","pricing_plan_id":"cebpf4jnsgd1na2vs0mg"},{"bike_id":"f14e36dd-fd4e-445a-bf8e-09a77db2aeb3","system_id":"levelo_inurba_marseille","lat":43.23197,"lon":5.35549,"is_reserved":false,"is_disabled":false,"rental_uris":{"android":"levelo://app?vid=f14e36dd-fd4e-445a-bf8e-09a77db2aeb3","ios":"levelo://app?vid=f14e36dd-fd4e-445a-bf8e-09a77db2aeb3"},"vehicle_type_id":"4","last_reported":1758208200,"current_range_meters":24000,"station_id":"ce4bhu92rcd13ifvqi70","pricing_plan_id":"cebpf4jnsgd1na2vs0mg"},{"bike_id":"d8bc7ead-753b-4987-ad2d-860e532bb6b6","system_id":"levelo_inurba_marseille","lat":43.25337,"lon":5.42167,"is_reserved":false,"is_disabled":false,"rental_uris":{"android":"levelo://app?vid=d8bc7ead-753b-4987-ad2d-860e532bb6b6","ios":"levelo://app?vid=d8bc7ead-753b-4987-ad2d-860e532bb6b6"},"vehicle_type_id":"4","last_reported":1758208200,"current_range_meters":24400,"station_id":"st_d2m65c5bi1j21697t3ng","pricing_plan_id":"cebpf4jnsgd1na2vs0mg"},{"bike_id":"68adab37-f5ad-4072-b58a-fe6c68285ca6","system_id":"levelo_inurba_marseille","lat":43.30635,"lon":5.37721,"is_reserved":false,"is_disabled":false,"rental_uris":{"android":"levelo://app?vid=68adab37-f5ad-4072-b58a-fe6c68285ca6","ios":"levelo://app?vid=68adab37-f5ad-4072-b58a-fe6c68285ca6"},"vehicle_type_id":"4","last_reported":1758208200,"current_range_meters":24400,"station_id":"","pricing_plan_id":"cebpf4jnsgd1na2vs0mg"},{"bike_id":"e381a9e1-9822-4506-89a6-fa6ad978a183","system_id":"levelo_inurba_marseille","lat":43.22549,"lon":5.34837,"is_reserved":false,"is_disabled":false,"rental_uris":{"android":"levelo://app?vid=e381a9e1-9822-4506-89a6-fa6ad978a183","ios":"levelo://app?vid=e381a9e1-9822-4506-89a6-fa6ad978a183"},"vehicle_type_id":"4","last_reported":1758208200,"current_range_meters":24400,"station_id":"","pricing_plan_id":"cebpf4jnsgd1na2vs0mg"},{"bike_id":"3436bd28-6895-47e6-9a06-187276a14c8d","system_id":"levelo_inurba_marseille","lat":43.29038,"lon":5.39966,"is_reserved":false,"is_disabled":false,"rental_uris":{"android":"levelo://app?vid=3436bd28-6895-47e6-9a06-187276a14c8d","ios":"levelo://app?vid=3436bd28-6895-47e6-9a06-187276a14c8d"},"vehicle_type_id":"4","last_reported":1758208200,"current_range_meters":22400,"station_id":"ce4bh392rcd13ifvqdm0","pricing_plan_id":"cebpf4jnsgd1na2vs0mg"},{"bike_id":"144d124f-d799-4381-9862-018e599f1537","system_id":"levelo_inurba_marseille","lat":43.28666,"lon":5.38672,"is_reserved":false,"is_disabled":false,"rental_uris":{"android":"levelo://app?vid=144d124f-d799-4381-9862-018e599f1537","ios":"levelo://app?vid=144d124f-d799-4381-9862-018e599f1537"},"vehicle_type_id":"4","last_reported":1758208200,"current_range_meters":24400,"station_id":"ce4bh492rcd13ifvqdug","pricing_plan_id":"cebpf4jnsgd1na2vs0mg"},{"bike_id":"d3ec3e9f-2cce-47bf-9350-c21d686b4932","system_id":"levelo_inurba_marseille","lat":43.24168,"lon":5.36406,"is_reserved":false,"is_disabled":false,"rental_uris":{"android":"levelo://app?vid=d3ec3e9f-2cce-47bf-9350-c21d686b4932","ios":"levelo://app?vid=d3ec3e9f-2cce-47bf-9350-c21d686b4932"},"vehicle_type_id":"4","last_reported":1758208200,"current_range_meters":24800,"station_id":"cpo36qri1sfpv3e86is0","pricing_plan_id":"cebpf4jnsgd1na2vs0mg"},{"bike_id":"97514a44-1f4d-4ae1-a270-04ca7b75c621","system_id":"levelo_inurba_marseille","lat":43.28869,"lon":5.42528,"is_reserved":false,"is_disabled":false,"rental_uris":{"android":"levelo://app?vid=97514a44-1f4d-4ae1-a270-04ca7b75c621","ios":"levelo://app?vid=97514a44-1f4d-4ae1-a270-04ca7b75c621"},"vehicle_type_id":"4","last_reported":1758208200,"current_range_meters":24800,"station_id":"","pricing_plan_id":"cebpf4jnsgd1na2vs0mg"},{"bike_id":"2c14a0db-da1e-478a-b7fc-bccd94aff04f","system_id":"levelo_inurba_marseille","lat":43.27371,"lon":5.36266,"is_reserved":false,"is_disabled":false,"rental_uris":{"android":"levelo://app?vid=2c14a0db-da1e-478a-b7fc-bccd94aff04f","ios":"levelo://app?vid=2c14a0db-da1e-478a-b7fc-bccd94aff04f"},"vehicle_type_id":"4","last_reported":1758208200,"current_range_meters":24800,"station_id":"ce4bhbh2rcd13ifvqeo0","pricing_plan_id":"cebpf4jnsgd1na2vs0mg"},{"bike_id":"661b7b30-1c6e-4b5a-9dce-a36169c22975","system_id":"levelo_inurba_marseille","lat":43.26932,"lon":5.40254,"is_reserved":false,"is_disabled":false,"rental_uris":{"android":"levelo://app?vid=661b7b30-1c6e-4b5a-9dce-a36169c22975","ios":"levelo://app?vid=661b7b30-1c6e-4b5a-9dce-a36169c22975"},"vehicle_type_id":"4","last_reported":1758208200,"current_range_meters":24800,"station_id":"cjm6bp8fraef2m0cb0m0","pricing_plan_id":"cebpf4jnsgd1na2vs0mg"},{"bike_id":"e1e2a9f9-7327-4e85-8ca0-200483d8964e","system_id":"levelo_inurba_marseille","lat":43.24081,"lon":5.37752,"is_reserved":false,"is_disabled":false,"rental_uris":{"android":"levelo://app?vid=e1e2a9f9-7327-4e85-8ca0-200483d8964e","ios":"levelo://app?vid=e1e2a9f9-7327-4e85-8ca0-200483d8964e"},"vehicle_type_id":"4","last_reported":1758208200,"current_range_meters":22800,"station_id":"ce4bhnp2rcd13ifvqgvg","pricing_plan_id":"cebpf4jnsgd1na2vs0mg"},{"bike_id":"d0db706a-10fd-484f-9355-af4c2ece8bc9","system_id":"levelo_inurba_marseille","lat":43.22925,"lon":5.35367,"is_reserved":false,"is_disabled":false,"rental_uris":{"android":"levelo://app?vid=d0db706a-10fd-484f-9355-af4c2ece8bc9","ios":"levelo://app?vid=d0db706a-10fd-484f-9355-af4c2ece8bc9"},"vehicle_type_id":"4","last_reported":1758208200,"current_range_meters":24800,"station_id":"cpo3532slgdg3j2ikp40","pricing_plan_id":"cebpf4jnsgd1na2vs0mg"},{"bike_id":"b8af4056-fb36-4e39-a4f0-5cd179383459","system_id":"levelo_inurba_marseille","lat":43.32918,"lon":5.38949,"is_reserved":false,"is_disabled":false,"rental_uris":{"android":"levelo://app?vid=b8af4056-fb36-4e39-a4f0-5cd179383459","ios":"levelo://app?vid=b8af4056-fb36-4e39-a4f0-5cd179383459"},"vehicle_type_id":"4","last_reported":1758208200,"current_range_meters":24800,"station_id":"","pricing_plan_id":"cebpf4jnsgd1na2vs0mg"},{"bike_id":"cfe6dec4-7099-43b3-9e41-3212cd5eeadd","system_id":"levelo_inurba_marseille","lat":43.29603,"lon":5.37725,"is_reserved":false,"is_disabled":true,"rental_uris":{"android":"levelo://app?vid=cfe6dec4-7099-43b3-9e41-3212cd5eeadd","ios":"levelo://app?vid=cfe6dec4-7099-43b3-9e41-3212cd5eeadd"},"vehicle_type_id":"4","last_reported":1758208200,"current_range_meters":25200,"station_id":"","pricing_plan_id":"cebpf4jnsgd1na2vs0mg"},{"bike_id":"932aaedf-dd17-4047-8c0a-8fa28c4ede96","system_id":"levelo_inurba_marseille","lat":43.33773,"lon":5.37466,"is_reserved":false,"is_disabled":false,"rental_uris":{"android":"levelo://app?vid=932aaedf-dd17-4047-8c0a-8fa28c4ede96","ios":"levelo://app?vid=932aaedf-dd17-4047-8c0a-8fa28c4ede96"},"vehicle_type_id":"4","last_reported":1758208200,"current_range_meters":25200,"station_id":"","pricing_plan_id":"cebpf4jnsgd1na2vs0mg"},{"bike_id":"ce5eebfb-f89a-4680-92e0-9b0f8b1831a6","system_id":"levelo_inurba_marseille","lat":43.29618,"lon":5.37709,"is_reserved":false,"is_disabled":true,"rental_uris":{"android":"levelo://app?vid=ce5eebfb-f89a-4680-92e0-9b0f8b1831a6","ios":"levelo://app?vid=ce5eebfb-f89a-4680-92e0-9b0f8b1831a6"},"vehicle_type_id":"4","last_reported":1758208200,"current_range_meters":25200,"station_id":"","pricing_plan_id":"cebpf4jnsgd1na2vs0mg"},{"bike_id":"a5e55bdb-5278-492d-a344-4539eeff20a1","system_id":"levelo_inurba_marseille","lat":43.25486,"lon":5.37653,"is_reserved":false,"is_disabled":false,"rental_uris":{"android":"levelo://app?vid=a5e55bdb-5278-492d-a344-4539eeff20a1","ios":"levelo://app?vid=a5e55bdb-5278-492d-a344-4539eeff20a1"},"vehicle_type_id":"4","last_reported":1758208200,"current_range_meters":25200,"station_id":"ce4bhh12rcd13ifvqff0","pricing_plan_id":"cebpf4jnsgd1na2vs0mg"},{"bike_id":"1192a0bd-9791-4eaf-9d36-ac669ebdb713","system_id":"levelo_inurba_marseille","lat":43.2827,"lon":5.35069,"is_reserved":false,"is_disabled":false,"rental_uris":{"android":"levelo://app?vid=1192a0bd-9791-4eaf-9d36-ac669ebdb713","ios":"levelo://app?vid=1192a0bd-9791-4eaf-9d36-ac669ebdb713"},"vehicle_type_id":"4","last_reported":1758208200,"current_range_meters":25200,"station_id":"ce4bhbp2rcd13ifvqerg","pricing_plan_id":"cebpf4jnsgd1na2vs0mg"},{"bike_id":"349b8738-ade9-49ea-896f-09d052896828","system_id":"levelo_inurba_marseille","lat":43.29873,"lon":5.39743,"is_reserved":false,"is_disabled":false,"rental_uris":{"android":"levelo://app?vid=349b8738-ade9-49ea-896f-09d052896828","ios":"levelo://app?vid=349b8738-ade9-49ea-896f-09d052896828"},"vehicle_type_id":"4","last_reported":1758208200,"current_range_meters":25200,"station_id":"ce4bh0h2rcd13ifvqd50","pricing_plan_id":"cebpf4jnsgd1na2vs0mg"},{"bike_id":"37f99d20-8b7f-45c6-94aa-9a4143897022","system_id":"levelo_inurba_marseille","lat":43.30924,"lon":5.40131,"is_reserved":false,"is_disabled":false,"rental_uris":{"android":"levelo://app?vid=37f99d20-8b7f-45c6-94aa-9a4143897022","ios":"levelo://app?vid=37f99d20-8b7f-45c6-94aa-9a4143897022"},"vehicle_type_id":"4","last_reported":1758208200,"current_range_meters":25200,"station_id":"","pricing_plan_id":"cebpf4jnsgd1na2vs0mg"},{"bike_id":"76bbf107-7ec5-4826-b296-ab629ecd14ab","system_id":"levelo_inurba_marseille","lat":43.29831,"lon":5.42018,"is_reserved":false,"is_disabled":false,"rental_uris":{"android":"levelo://app?vid=76bbf107-7ec5-4826-b296-ab629ecd14ab","ios":"levelo://app?vid=76bbf107-7ec5-4826-b296-ab629ecd14ab"},"vehicle_type_id":"4","last_reported":1758208200,"current_range_meters":25200,"station_id":"","pricing_plan_id":"cebpf4jnsgd1na2vs0mg"},{"bike_id":"28fe2fb8-f5a0-4c09-b79a-8193276c19a8","system_id":"levelo_inurba_marseille","lat":43.292335,"lon":5.383546,"is_reserved":false,"is_disabled":false,"rental_uris":{"android":"levelo://app?vid=28fe2fb8-f5a0-4c09-b79a-8193276c19a8","ios":"levelo://app?vid=28fe2fb8-f5a0-4c09-b79a-8193276c19a8"},"vehicle_type_id":"4","last_reported":1758208200,"current_range_meters":25600,"station_id":"ce4bh692rcd13ifvqea0","pricing_plan_id":"cebpf4jnsgd1na2vs0mg"},{"bike_id":"1d0b5d60-568f-4170-98dc-84bbc30b1c4e","system_id":"levelo_inurba_marseille","lat":43.28356,"lon":5.43841,"is_reserved":false,"is_disabled":false,"rental_uris":{"android":"levelo://app?vid=1d0b5d60-568f-4170-98dc-84bbc30b1c4e","ios":"levelo://app?vid=1d0b5d60-568f-4170-98dc-84bbc30b1c4e"},"vehicle_type_id":"4","last_reported":1758208200,"current_range_meters":25600,"station_id":"","pricing_plan_id":"cebpf4jnsgd1na2vs0mg"},