{"last_updated":1717787219,"ttl":30,"version":"2.2","data":{"bikes":[{"bike_id":"989b4237-f677-4dc1-8ad6-390f08bd532d","system_id":"levelo_inurba_marseille","lat":43.31341,"lon":5.367098,"is_reserved":false,"is_disabled":false,"rental_uris":{"android":"levelo://app?vid=989b4237-f677-4dc1-8ad6-390f08bd532d","ios":"levelo://app?vid=989b4237-f677-4dc1-8ad6-390f08bd532d"},"vehicle_type_id":"4","last_reported":1717787219,"current_range_meters":14800,"station_id":"ce4bgr92rcd13ifvqc6g","pricing_plan_id":"cebpf4jnsgd1na2vs0mg"},{"bike_id":"006d3d26-349b-4763-a6a1-264a625ee360","system_id":"levelo_inurba_marseille","lat":43.314811,"lon":5.373104,"is_reserved":false,"is_disabled":false,"rental_uris":{"android":"levelo://app?vid=006d3d26-349b-4763-a6a1-264a625ee360","ios":"levelo://app?vid=006d3d26-349b-4763-a6a1-264a625ee360"},"vehicle_type_id":"4","last_reported":1717787219,"current_range_meters":26000,"station_id":"ce4bgt12rcd13ifvqcd0","pricing_plan_id":"cebpf4jnsgd1na2vs0mg"},{"bike_id":"cc14175d-15d4-4ab4-b02f-7d1fb32a6e30","system_id":"levelo_inurba_marseille","lat":43.309076,"lon":5.368465,"is_reserved":false,"is_disabled":false,"rental_uris":{"android":"levelo://app?vid=cc14175d-15d4-4ab4-b02f-7d1fb32a6e30","ios":"levelo://app?vid=cc14175d-15d4-4ab4-b02f-7d1fb32a6e30"},"vehicle_type_id":"4","last_reported":1717787219,"current_range_meters":25600,"station_id":"ce4bgn92rcd13ifvqbvg","pricing_plan_id":"cebpf4jnsgd1na2vs0mg"},{"bike_id":"dc9de2c4-9f50-463b-8657-bbefdb68b2c8","system_id":"levelo_inurba_marseille","lat":43.309076,"lon":5.368465,"is_reserved":false,"is_disabled":false,"rental_uris":{"android":"levelo://app?vid=dc9de2c4-9f50-463b-8657-bbefdb68b2c8","ios":"levelo://app?vid=dc9de2c4-9f50-463b-8657-bbefdb68b2c8"},"vehicle_type_id":"4","last_reported":1717787219,"current_range_meters":15200,"station_id":"ce4bgn92rcd13ifvqbvg","pricing_plan_id":"cebpf4jnsgd1na2vs0mg"},{"bike_id":"9b9fb426-cf77-44a6-87b4-f80ca133fc49","system_id":"levelo_inurba_marseille","lat":43.309076,"lon":5.368465,"is_reserved":false,"is_disabled":false,"rental_uris":{"android":"levelo://app?vid=9b9fb426-cf77-44a6-87b4-f80ca133fc49","ios":"levelo://app?vid=9b9fb426-cf77-44a6-87b4-f80ca133fc49"},"vehicle_type_id":"4","last_reported":1717787219,"current_range_meters":10800,"station_id":"ce4bgn92rcd13ifvqbvg","pricing_plan_id":"cebpf4jnsgd1na2vs0mg"},{"bike_id":"c10ccc4a-e29f-4972-984a-4d0b8f0df0db","system_id":"levelo_inurba_marseille","lat":43.30907,"lon":5.36845,"is_reserved":false,"is_disabled":false,"rental_uris":{"android":"levelo://app?vid=c10ccc4a-e29f-4972-984a-4d0b8f0df0db","ios":"levelo://app?vid=c10ccc4a-e29f-4972-984a-4d0b8f0df0db"},"vehicle_type_id":"4","last_reported":1717787219,"current_range_meters":21600,"station_id":"","pricing_plan_id":"cebpf4jnsgd1na2vs0mg"},{"bike_id":"2465dab8-e690-46a7-9b9a-783576b07359","system_id":"levelo_inurba_marseille","lat":43.309076,"lon":5.368465,"is_reserved":false,"is_disabled":false,"rental_uris":{"android":"levelo://app?vid=2465dab8-e690-46a7-9b9a-783576b07359","ios":"levelo://app?vid=2465dab8-e690-46a7-9b9a-783576b07359"},"vehicle_type_id":"4","last_reported":1717787219,"current_range_meters":31200,"station_id":"ce4bgn92rcd13ifvqbvg","pricing_plan_id":"cebpf4jnsgd1na2vs0mg"},{"bike_id":"7adbf23d-9317-4291-bc91-c06e408f0ddb","system_id":"levelo_inurba_marseille","lat":43.31487,"lon":5.37312,"is_reserved":false,"is_disabled":false,"rental_uris":{"android":"levelo://app?vid=7adbf23d-9317-4291-bc91-c06e408f0ddb","ios":"levelo://app?vid=7adbf23d-9317-4291-bc91-c06e408f0ddb"},"vehicle_type_id":"4","last_reported":1717787219,"current_range_meters":2400,"station_id":"ce4bgt12rcd13ifvqcd0","pricing_plan_id":"cebpf4jnsgd1na2vs0mg"},{"bike_id":"bb5abd1e-8548-4086-b9fb-8fe8ec3a03ae","system_id":"levelo_inurba_marseille","lat":43.314811,"lon":5.373104,"is_reserved":false,"is_disabled":false,"rental_uris":{"android":"levelo://app?vid=bb5abd1e-8548-4086-b9fb-8fe8ec3a03ae","ios":"levelo://app?vid=bb5abd1e-8548-4086-b9fb-8fe8ec3a03ae"},"vehicle_type_id":"4","last_reported":1717787219,"current_range_meters":16000,"station_id":"ce4bgt12rcd13ifvqcd0","pricing_plan_id":"cebpf4jnsgd1na2vs0mg"},{"bike_id":"99469266-f532-4869-a4db-02604ba6cc3e","system_id":"levelo_inurba_marseille","lat":43.30911,"lon":5.37204,"is_reserved":false,"is_disabled":false,"rental_uris":{"android":"levelo://app?vid=99469266-f532-4869-a4db-02604ba6cc3e","ios":"levelo://app?vid=99469266-f532-4869-a4db-02604ba6cc3e"},"vehicle_type_id":"4","last_reported":1717787219,"current_range_meters":3600,"station_id":"ce4bguh2rcd13ifvqckg","pricing_plan_id":"cebpf4jnsgd1na2vs0mg"},{"bike_id":"6711a720-4be1-4766-9812-54d9f67bc267","system_id":"levelo_inurba_marseille","lat":43.31823,"lon":5.37344,"is_reserved":false,"is_disabled":false,"rental_uris":{"android":"levelo://app?vid=6711a720-4be1-4766-9812-54d9f67bc267","ios":"levelo://app?vid=6711a720-4be1-4766-9812-54d9f67bc267"},"vehicle_type_id":"4","last_reported":1717787219,"current_range_meters":14800,"station_id":"","pricing_plan_id":"cebpf4jnsgd1na2vs0mg"},{"bike_id":"b77c47d8-1c8a-464a-95be-68e0705f624c","system_id":"levelo_inurba_marseille","lat":43.305485,"lon":5.365535,"is_reserved":false,"is_disabled":false,"rental_uris":{"android":"levelo://app?vid=b77c47d8-1c8a-464a-95be-68e0705f624c","ios":"levelo://app?vid=b77c47d8-1c8a-464a-95be-68e0705f624c"},"vehicle_type_id":"4","last_reported":1717787219,"current_range_meters":0,"station_id":"ce4bgs12rcd13ifvqcag","pricing_plan_id":"cebpf4jnsgd1na2vs0mg"},{"bike_id":"53295028-3f58-42d0-84d8-686ed73f20d0","system_id":"levelo_inurba_marseille","lat":43.31188,"lon":5.37695,"is_reserved":false,"is_disabled":false,"rental_uris":{"android":"levelo://app?vid=53295028-3f58-42d0-84d8-686ed73f20d0","ios":"levelo://app?vid=53295028-3f58-42d0-84d8-686ed73f20d0"},"vehicle_type_id":"4","last_reported":1717787219,"current_range_meters":18400,"station_id":"","pricing_plan_id":"cebpf4jnsgd1na2vs0mg"},{"bike_id":"3824ec5b-643d-411f-a1ba-568501460ad4","system_id":"levelo_inurba_marseille","lat":43.305714,"lon":5.365633,"is_reserved":false,"is_disabled":false,"rental_uris":{"android":"levelo://app?vid=3824ec5b-643d-411f-a1ba-568501460ad4","ios":"levelo://app?vid=3824ec5b-643d-411f-a1ba-568501460ad4"},"vehicle_type_id":"4","last_reported":1717787219,"current_range_meters":2400,"station_id":"ce4bgs12rcd13ifvqcag","pricing_plan_id":"cebpf4jnsgd1na2vs0mg"},{"bike_id":"2b85ad0f-23cb-459d-b5d3-69ac3679ee6b","system_id":"levelo_inurba_marseille","lat":43.305706,"lon":5.365654,"is_reserved":false,"is_disabled":false,"rental_uris":{"android":"levelo://app?vid=2b85ad0f-23cb-459d-b5d3-69ac3679ee6b","ios":"levelo://app?vid=2b85ad0f-23cb-459d-b5d3-69ac3679ee6b"},"vehicle_type_id":"4","last_reported":1717787219,"current_range_meters":27600,"station_id":"ce4bgs12rcd13ifvqcag","pricing_plan_id":"cebpf4jnsgd1na2vs0mg"},{"bike_id":"3321f09c-1e38-4cb3-8d12-f4e4b20a4e47","system_id":"levelo_inurba_marseille","lat":43.31837,"lon":5.37368,"is_reserved":false,"is_disabled":false,"rental_uris":{"android":"levelo://app?vid=3321f09c-1e38-4cb3-8d12-f4e4b20a4e47","ios":"levelo://app?vid=3321f09c-1e38-4cb3-8d12-f4e4b20a4e47"},"vehicle_type_id":"4","last_reported":1717787219,"current_range_meters":0,"station_id":"","pricing_plan_id":"cebpf4jnsgd1na2vs0mg"},{"bike_id":"5957d33c-7985-4026-ab4e-fca8d7d152b1","system_id":"levelo_inurba_marseille","lat":43.311131,"lon":5.377651,"is_reserved":false,"is_disabled":false,"rental_uris":{"android":"levelo://app?vid=5957d33c-7985-4026-ab4e-fca8d7d152b1","ios":"levelo://app?vid=5957d33c-7985-4026-ab4e-fca8d7d152b1"},"vehicle_type_id":"4","last_reported":1717787219,"current_range_meters":12400,"station_id":"ce4bgt92rcd13ifvqcg0","pricing_plan_id":"cebpf4jnsgd1na2vs0mg"},{"bike_id":"cc3f4c10-27b1-4ac0-9061-44f9d20be4ca","system_id":"levelo_inurba_marseille","lat":43.311125,"lon":5.377624,"is_reserved":false,"is_disabled":false,"rental_uris":{"android":"levelo://app?vid=cc3f4c10-27b1-4ac0-9061-44f9d20be4ca","ios":"levelo://app?vid=cc3f4c10-27b1-4ac0-9061-44f9d20be4ca"},"vehicle_type_id":"4","last_reported":1717787219,"current_range_meters":18400,"station_id":"ce4bgt92rcd13ifvqcg0","pricing_plan_id":"cebpf4jnsgd1na2vs0mg"},{"bike_id":"d7700ad6-8a35-4dbd-a608-2d285f842e15","system_id":"levelo_inurba_marseille","lat":43.311125,"lon":5.377624,"is_reserved":false,"is_disabled":false,"rental_uris":{"android":"levelo://app?vid=d7700ad6-8a35-4dbd-a608-2d285f842e15","ios":"levelo://app?vid=d7700ad6-8a35-4dbd-a608-2d285f842e15"},"vehicle_type_id":"4","last_reported":1717787219,"current_range_meters":2800,"station_id":"ce4bgt92rcd13ifvqcg0","pricing_plan_id":"cebpf4jnsgd1na2vs0mg"},{"bike_id":"6eef5a74-c000-40c9-b601-79eb8146d770","system_id":"levelo_inurba_marseille","lat":43.311131,"lon":5.377651,"is_reserved":false,"is_disabled":false,"rental_uris":{"android":"levelo://app?vid=6eef5a74-c000-40c9-b601-79eb8146d770","ios":"levelo://app?vid=6eef5a74-c000-40c9-b601-79eb8146d770"},"vehicle_type_id":"4","last_reported":1717787219,"current_range_meters":0,"station_id":"ce4bgt92rcd13ifvqcg0","pricing_plan_id":"cebpf4jnsgd1na2vs0mg"},{"bike_id":"3f6dbfa3-164c-43fa-9b68-ac8fc8b2eab9","system_id":"levelo_inurba_marseille","lat":43.311131,"lon":5.377651,"is_reserved":false,"is_disabled":false,"rental_uris":{"android":"levelo://app?vid=3f6dbfa3-164c-43fa-9b68-ac8fc8b2eab9","ios":"levelo://app?vid=3f6dbfa3-164c-43fa-9b68-ac8fc8b2eab9"},"vehicle_type_id":"4","last_reported":1717787219,"current_range_meters":14000,"station_id":"ce4bgt92rcd13ifvqcg0","pricing_plan_id":"cebpf4jnsgd1na2vs0mg"},{"bike_id":"d1b34386-a446-4779-a48c-a7f99a3c8759","system_id":"levelo_inurba_marseille","lat":43.317075,"lon":5.377367,"is_reserved":false,"is_disabled":false,"rental_uris":{"android":"levelo://app?vid=d1b34386-a446-4779-a48c-a7f99a3c8759","ios":"levelo://app?vid=d1b34386-a446-4779-a48c-a7f99a3c8759"},"vehicle_type_id":"4","last_reported":1717787219,"current_range_meters":0,"station_id":"ce4bgth2rcd13ifvqch0","pricing_plan_id":"cebpf4jnsgd1na2vs0mg"},{"bike_id":"23f7d586-dbc2-48e8-b500-0e7921230d53","system_id":"levelo_inurba_marseille","lat":43.30363,"lon":5.366863,"is_reserved":false,"is_disabled":false,"rental_uris":{"android":"levelo://app?vid=23f7d586-dbc2-48e8-b500-0e7921230d53","ios":"levelo://app?vid=23f7d586-dbc2-48e8-b500-0e7921230d53"},"vehicle_type_id":"4","last_reported":1717787219,"current_range_meters":2400,"station_id":"","pricing_plan_id":"cebpf4jnsgd1na2vs0mg"},{"bike_id":"9332e345-ba81-402e-8e3b-0f02d0d60d63","system_id":"levelo_inurba_marseille","lat":43.311131,"lon":5.377651,"is_reserved":false,"is_disabled":false,"rental_uris":{"android":"levelo://app?vid=9332e345-ba81-402e-8e3b-0f02d0d60d63","ios":"levelo://app?vid=9332e345-ba81-402e-8e3b-0f02d0d60d63"},"vehicle_type_id":"4","last_reported":1717787219,"current_range_meters":2000,"station_id":"ce4bgt92rcd13ifvqcg0","pricing_plan_id":"cebpf4jnsgd1na2vs0mg"},{"bike_id":"ca6f8cbc-a945-47e1-bd16-95cd22969f2d","system_id":"levelo_inurba_marseille","lat":43.303193,"lon":5.366004,"is_reserved":false,"is_disabled":false,"rental_uris":{"android":"levelo://app?vid=ca6f8cbc-a945-47e1-bd16-95cd22969f2d","ios":"levelo://app?vid=ca6f8cbc-a945-47e1-bd16-95cd22969f2d"},"vehicle_type_id":"4","last_reported":1717787219,"current_range_meters":0,"station_id":"","pricing_plan_id":"cebpf4jnsgd1na2vs0mg"},{"bike_id":"1e9c72e9-043a-4fa0-bae6-8af3a57ed73e","system_id":"levelo_inurba_marseille","lat":43.303046,"lon":5.368981,"is_reserved":false,"is_disabled":false,"rental_uris":{"android":"levelo://app?vid=1e9c72e9-043a-4fa0-bae6-8af3a57ed73e","ios":"levelo://app?vid=1e9c72e9-043a-4fa0-bae6-8af3a57ed73e"},"vehicle_type_id":"4","last_reported":1717787219,"current_range_meters":17200,"station_id":"ce4bgqh2rcd13ifvqc5g","pricing_plan_id":"cebpf4jnsgd1na2vs0mg"},{"bike_id":"797597f6-2785-46cf-aad7-7e3ae14d1cd9","system_id":"levelo_inurba_marseille","lat":43.303046,"lon":5.368981,"is_reserved":false,"is_disabled":false,"rental_uris":{"android":"levelo://app?vid=797597f6-2785-46cf-aad7-7e3ae14d1cd9","ios":"levelo://app?vid=797597f6-2785-46cf-aad7-7e3ae14d1cd9"},"vehicle_type_id":"4","last_reported":1717787219,"current_range_meters":9600,"station_id":"ce4bgqh2rcd13ifvqc5g","pricing_plan_id":"cebpf4jnsgd1na2vs0mg"},{"bike_id":"bfe33d00-22be-4fcb-b412-bf8809def526","system_id":"levelo_inurba_marseille","lat":43.322653,"lon":5.374821,"is_reserved":false,"is_disabled":false,"rental_uris":{"android":"levelo://app?vid=bfe33d00-22be-4fcb-b412-bf8809def526","ios":"levelo://app?vid=bfe33d00-22be-4fcb-b412-bf8809def526"},"vehicle_type_id":"4","last_reported":1717787219,"current_range_meters":16400,"station_id":"","pricing_plan_id":"cebpf4jnsgd1na2vs0mg"},{"bike_id":"b29a8607-d4ee-4254-8d54-39e6ae8631f5","system_id":"levelo_inurba_marseille","lat":43.308012,"lon":5.381511,"is_reserved":false,"is_disabled":false,"rental_uris":{"android":"levelo://app?vid=b29a8607-d4ee-4254-8d54-39e6ae8631f5","ios":"levelo://app?vid=b29a8607-d4ee-4254-8d54-39e6ae8631f5"},"vehicle_type_id":"4","last_reported":1717787219,"current_range_meters":14800,"station_id":"ce4bgt12rcd13ifvqce0","pricing_plan_id":"cebpf4jnsgd1na2vs0mg"},{"bike_id":"21efc9f7-6d69-482b-9d03-5fb80a2e4aae","system_id":"levelo_inurba_marseille","lat":43.308012,"lon":5.381511,"is_reserved":false,"is_disabled":false,"rental_uris":{"android":"levelo://app?vid=21efc9f7-6d69-482b-9d03-5fb80a2e4aae","ios":"levelo://app?vid=21efc9f7-6d69-482b-9d03-5fb80a2e4aae"},"vehicle_type_id":"4","last_reported":1717787219,"current_range_meters":12000,"station_id":"ce4bgt12rcd13ifvqce0","pricing_plan_id":"cebpf4jnsgd1na2vs0mg"},{"bike_id":"96e358e6-5d4e-45d4-a76b-4ccfb5683b69","system_id":"levelo_inurba_marseille","lat":43.308012,"lon":5.381511,"is_reserved":false,"is_disabled":false,"rental_uris":{"android":"levelo://app?vid=96e358e6-5d4e-45d4-a76b-4ccfb5683b69","ios":"levelo://app?vid=96e358e6-5d4e-45d4-a76b-4ccfb5683b69"},"vehicle_type_id":"4","last_reported":1717787219,"current_range_meters":0,"station_id":"ce4bgt12rcd13ifvqce0","pricing_plan_id":"cebpf4jnsgd1na2vs0mg"},{"bike_id":"52529180-7cd4-4d7c-9642-2994f4b92e17","system_id":"levelo_inurba_marseille","lat":43.304606,"lon":5.379026,"is_reserved":false,"is_disabled":false,"rental_uris":{"android":"levelo://app?vid=52529180-7cd4-4d7c-9642-2994f4b92e17","ios":"levelo://app?vid=52529180-7cd4-4d7c-9642-2994f4b92e17"},"vehicle_type_id":"4","last_reported":1717787219,"current_range_meters":7200,"station_id":"ce4bgup2rcd13ifvqcn0","pricing_plan_id":"cebpf4jnsgd1na2vs0mg"},{"bike_id":"776e0e41-9ce4-4d50-9ddd-cf24b16d4b16","system_id":"levelo_inurba_marseille","lat":43.304606,"lon":5.379026,"is_reserved":false,"is_disabled":false,"rental_uris":{"android":"levelo://app?vid=776e0e41-9ce4-4d50-9ddd-cf24b16d4b16","ios":"levelo://app?vid=776e0e41-9ce4-4d50-9ddd-cf24b16d4b16"},"vehicle_type_id":"4","last_reported":1717787219,"current_range_meters":22400,"station_id":"ce4bgup2rcd13ifvqcn0","pricing_plan_id":"cebpf4jnsgd1na2vs0mg"},{"bike_id":"ec547e95-d7dd-4eb6-9084-4a53be377daa","system_id":"levelo_inurba_marseille","lat":43.304606,"lon":5.379026,"is_reserved":false,"is_disabled":false,"rental_uris":{"android":"levelo://app?vid=ec547e95-d7dd-4eb6-9084-4a53be377daa","ios":"levelo://app?vid=ec547e95-d7dd-4eb6-9084-4a53be377daa"},"vehicle_type_id":"4","last_reported":1717787219,"current_range_meters":0,"station_id":"ce4bgup2rcd13ifvqcn0","pricing_plan_id":"cebpf4jnsgd1na2vs0mg"},{"bike_id":"894f2e7c-b546-4dd8-822e-af22c417f4c4","system_id":"levelo_inurba_marseille","lat":43.304606,"lon":5.379026,"is_reserved":false,"is_disabled":false,"rental_uris":{"android":"levelo://app?vid=894f2e7c-b546-4dd8-822e-af22c417f4c4","ios":"levelo://app?vid=894f2e7c-b546-4dd8-822e-af22c417f4c4"},"vehicle_type_id":"4","last_reported":1717787219,"current_range_meters":10400,"station_id":"ce4bgup2rcd13ifvqcn0","pricing_plan_id":"cebpf4jnsgd1na2vs0mg"},{"bike_id":"2d5f7b73-7291-43b0-a330-b7ec435749f2","system_id":"levelo_inurba_marseille","lat":43.324771,"lon":5.36557,"is_reserved":false,"is_disabled":false,"rental_uris":{"android":"levelo://app?vid=2d5f7b73-7291-43b0-a330-b7ec435749f2","ios":"levelo://app?vid=2d5f7b73-7291-43b0-a330-b7ec435749f2"},"vehicle_type_id":"4","last_reported":1717787219,"current_range_meters":14400,"station_id":"ce4bhs12rcd13ifvqhvg","pricing_plan_id":"cebpf4jnsgd1na2vs0mg"},{"bike_id":"9f29cb93-a8c8-46f1-9c14-ecc7885faeca","system_id":"levelo_inurba_marseille","lat":43.324771,"lon":5.36557,"is_reserved":false,"is_disabled":false,"rental_uris":{"android":"levelo://app?vid=9f29cb93-a8c8-46f1-9c14-ecc7885faeca","ios":"levelo://app?vid=9f29cb93-a8c8-46f1-9c14-ecc7885faeca"},"vehicle_type_id":"4","last_reported":1717787219,"current_range_meters":12400,"station_id":"ce4bhs12rcd13ifvqhvg","pricing_plan_id":"cebpf4jnsgd1na2vs0mg"},{"bike_id":"38c8c3e7-8e73-486e-b7e1-c26165fdb211","system_id":"levelo_inurba_marseille","lat":43.324771,"lon":5.36557,"is_reserved":false,"is_disabled":false,"rental_uris":{"android":"levelo://app?vid=38c8c3e7-8e73-486e-b7e1-c26165fdb211","ios":"levelo://app?vid=38c8c3e7-8e73-486e-b7e1-c26165fdb211"},"vehicle_type_id":"4","last_reported":1717787219,"current_range_meters":18800,"station_id":"ce4bhs12rcd13ifvqhvg","pricing_plan_id":"cebpf4jnsgd1na2vs0mg"},{"bike_id":"7c8efc3e-0ec4-409b-88e6-eeb79d5efaf6","system_id":"levelo_inurba_marseille","lat":43.324771,"lon":5.36557,"is_reserved":false,"is_disabled":false,"rental_uris":{"android":"levelo://app?vid=7c8efc3e-0ec4-409b-88e6-eeb79d5efaf6","ios":"levelo://app?vid=7c8efc3e-0ec4-409b-88e6-eeb79d5efaf6"},"vehicle_type_id":"4","last_reported":1717787219,"current_range_meters":2800,"station_id":"ce4bhs12rcd13ifvqhvg","pricing_plan_id":"cebpf4jnsgd1na2vs0mg"},{"bike_id":"ff4fc13e-3e67-4371-bc39-dc09c17ddfef","system_id":"levelo_inurba_marseille","lat":43.310804,"lon":5.38359,"is_reserved":false,"is_disabled":false,"rental_uris":{"android":"levelo://app?vid=ff4fc13e-3e67-4371-bc39-dc09c17ddfef","ios":"levelo://app?vid=ff4fc13e-3e67-4371-bc39-dc09c17ddfef"},"vehicle_type_id":"4","last_reported":1717787219,"current_range_meters":14000,"station_id":"ce4bgv92rcd13ifvqcr0","pricing_plan_id":"cebpf4jnsgd1na2vs0mg"},{"bike_id":"deb4d2cc-bcf8-4c40-9b7c-53928f047508","system_id":"levelo_inurba_marseille","lat":43.324771,"lon":5.36557,"is_reserved":false,"is_disabled":false,"rental_uris":{"android":"levelo://app?vid=deb4d2cc-bcf8-4c40-9b7c-53928f047508","ios":"levelo://app?vid=deb4d2cc-bcf8-4c40-9b7c-53928f047508"},"vehicle_type_id":"4","last_reported":1717787219,"current_range_meters":7200,"station_id":"ce4bhs12rcd13ifvqhvg","pricing_plan_id":"cebpf4jnsgd1na2vs0mg"},{"bike_id":"b7ca7cc0-2c94-4c87-9ead-59eaad1158df","system_id":"levelo_inurba_marseille","lat":43.310804,"lon":5.38359,"is_reserved":false,"is_disabled":false,"rental_uris":{"android":"levelo://app?vid=b7ca7cc0-2c94-4c87-9ead-59eaad1158df","ios":"levelo://app?vid=b7ca7cc0-2c94-4c87-9ead-59eaad1158df"},"vehicle_type_id":"4","last_reported":1717787219,"current_range_meters":0,"station_id":"ce4bgv92rcd13ifvqcr0","pricing_plan_id":"cebpf4jnsgd1na2vs0mg"},{"bike_id":"4f4a25d8-dc3d-44e6-9a1a-5f5ce708610b","system_id":"levelo_inurba_marseille","lat":43.310804,"lon":5.38359,"is_reserved":false,"is_disabled":false,"rental_uris":{"android":"levelo://app?vid=4f4a25d8-dc3d-44e6-9a1a-5f5ce708610b","ios":"levelo://app?vid=4f4a25d8-dc3d-44e6-9a1a-5f5ce708610b"},"vehicle_type_id":"4","last_reported":1717787219,"current_range_meters":6000,"station_id":"ce4bgv92rcd13ifvqcr0","pricing_plan_id":"cebpf4jnsgd1na2vs0mg"},{"bike_id":"e8187182-4f0d-4f89-9164-9b108c14c1a1","system_id":"levelo_inurba_marseille","lat":43.31079,"lon":5.38356,"is_reserved":false,"is_disabled":false,"rental_uris":{"android":"levelo://app?vid=e8187182-4f0d-4f89-9164-9b108c14c1a1","ios":"levelo://app?vid=e8187182-4f0d-4f89-9164-9b108c14c1a1"},"vehicle_type_id":"4","last_reported":1717787219,"current_range_meters":0,"station_id":"ce4bgv92rcd13ifvqcr0","pricing_plan_id":"cebpf4jnsgd1na2vs0mg"},{"bike_id":"89882134-1d24-43e4-9d1b-07b3a28e54d2","system_id":"levelo_inurba_marseille","lat":43.310804,"lon":5.38359,"is_reserved":false,"is_disabled":false,"rental_uris":{"android":"levelo://app?vid=89882134-1d24-43e4-9d1b-07b3a28e54d2","ios":"levelo://app?vid=89882134-1d24-43e4-9d1b-07b3a28e54d2"},"vehicle_type_id":"4","last_reported":1717787219,"current_range_meters":20400,"station_id":"ce4bgv92rcd13ifvqcr0","pricing_plan_id":"cebpf4jnsgd1na2vs0mg"},{"bike_id":"699c1570-326e-425c-bcac-af01ccfc73c6","system_id":"levelo_inurba_marseille","lat":43.319935,"lon":5.381699,"is_reserved":false,"is_disabled":false,"rental_uris":{"android":"levelo://app?vid=699c1570-326e-425c-bcac-af01ccfc73c6","ios":"levelo://app?vid=699c1570-326e-425c-bcac-af01ccfc73c6"},"vehicle_type_id":"4","last_reported":1717787219,"current_range_meters":8400,"station_id":"ce4bhr12rcd13ifvqhpg","pricing_plan_id":"cebpf4jnsgd1na2vs0mg"},{"bike_id":"bb3b560f-d19f-4f7d-aea2-e2f47b092836","system_id":"levelo_inurba_marseille","lat":43.302784,"lon":5.377158,"is_reserved":false,"is_disabled":false,"rental_uris":{"android":"levelo://app?vid=bb3b560f-d19f-4f7d-aea2-e2f47b092836","ios":"levelo://app?vid=bb3b560f-d19f-4f7d-aea2-e2f47b092836"},"vehicle_type_id":"4","last_reported":1717787219,"current_range_meters":30800,"station_id":"ce4bguh2rcd13ifvqcj0","pricing_plan_id":"cebpf4jnsgd1na2vs0mg"},{"bike_id":"fdb7e0bd-7410-44fd-b633-d47f06529107","system_id":"levelo_inurba_marseille","lat":43.30143,"lon":5.37413,"is_reserved":false,"is_disabled":false,"rental_uris":{"android":"levelo://app?vid=fdb7e0bd-7410-44fd-b633-d47f06529107","ios":"levelo://app?vid=fdb7e0bd-7410-44fd-b633-d47f06529107"},"vehicle_type_id":"4","last_reported":1717787219,"current_range_meters":23200,"station_id":"ce4bgs92rcd13ifvqcc0","pricing_plan_id":"cebpf4jnsgd1na2vs0mg"},{"bike_id":"243b48c8-7e37-453b-ba41-1943acf78afb","system_id":"levelo_inurba_marseille","lat":43.32004,"lon":5.38168,"is_reserved":false,"is_disabled":false,"rental_uris":{"android":"levelo://app?vid=243b48c8-7e37-453b-ba41-1943acf78afb","ios":"levelo://app?vid=243b48c8-7e37-453b-ba41-1943acf78afb"},"vehicle_type_id":"4","last_reported":1717787219,"current_range_meters":16000,"station_id":"ce4bhr12rcd13ifvqhpg","pricing_plan_id":"cebpf4jnsgd1na2vs0mg"},{"bike_id":"df330f33-300d-4a5d-becb-69e06b5fdf0f","system_id":"levelo_inurba_marseille","lat":43.313571,"lon":5.384829,"is_reserved":false,"is_disabled":false,"rental_uris":{"android":"levelo://app?vid=df330f33-300d-4a5d-becb-69e06b5fdf0f","ios":"levelo://app?vid=df330f33-300d-4a5d-becb-69e06b5fdf0f"},"vehicle_type_id":"4","last_reported":1717787219,"current_range_meters":7200,"station_id":"ce4bgt92rcd13ifvqcf0","pricing_plan_id":"cebpf4jnsgd1na2vs0mg"},{"bike_id":"eed5ed25-fcff-48d8-a4b5-171027e48444","system_id":"levelo_inurba_marseille","lat":43.313571,"lon":5.384829,"is_reserved":false,"is_disabled":false,"rental_uris":{"android":"levelo://app?vid=eed5ed25-fcff-48d8-a4b5-171027e48444","ios":"levelo://app?vid=eed5ed25-fcff-48d8-a4b5-171027e48444"},"vehicle_type_id":"4","last_reported":1717787219,"current_range_meters":27200,"station_id":"ce4bgt92rcd13ifvqcf0","pricing_plan_id":"cebpf4jnsgd1na2vs0mg"},{"bike_id":"941433b2-07e5-48d3-968a-df41686bfb21","system_id":"levelo_inurba_marseille","lat":43.313571,"lon":5.384829,"is_reserved":false,"is_disabled":false,"rental_uris":{"android":"levelo://app?vid=941433b2-07e5-48d3-968a-df41686bfb21","ios":"levelo://app?vid=941433b2-07e5-48d3-968a-df41686bfb21"},"vehicle_type_id":"4","last_reported":1717787219,"current_range_meters":24800,"station_id":"ce4bgt92rcd13ifvqcf0","pricing_plan_id":"cebpf4jnsgd1na2vs0mg"},{"bike_id":"7a482897-b87a-4206-b8ba-ee8e3a7b47a8","system_id":"levelo_inurba_marseille","lat":43.313792,"lon":5.384906,"is_reserved":false,"is_disabled":false,"rental_uris":{"android":"levelo://app?vid=7a482897-b87a-4206-b8ba-ee8e3a7b47a8","ios":"levelo://app?vid=7a482897-b87a-4206-b8ba-ee8e3a7b47a8"},"vehicle_type_id":"4","last_reported":1717787219,"current_range_meters":30000,"station_id":"ce4bgt92rcd13ifvqcf0","pricing_plan_id":"cebpf4jnsgd1na2vs0mg"},{"bike_id":"e2e03605-12c0-49f5-8d5a-1b938dcd90f5","system_id":"levelo_inurba_marseille","lat":43.313613,"lon":5.38495,"is_reserved":false,"is_disabled":false,"rental_uris":{"android":"levelo://app?vid=e2e03605-12c0-49f5-8d5a-1b938dcd90f5","ios":"levelo://app?vid=e2e03605-12c0-49f5-8d5a-1b938dcd90f5"},"vehicle_type_id":"4","last_reported":1717787219,"current_range_meters":31200,"station_id":"ce4bgt92rcd13ifvqcf0","pricing_plan_id":"cebpf4jnsgd1na2vs0mg"},{"bike_id":"22dcb091-bee8-44be-9df5-96b48910c499","system_id":"levelo_inurba_marseille","lat":43.313587,"lon":5.384977,"is_reserved":false,"is_disabled":false,"rental_uris":{"android":"levelo://app?vid=22dcb091-bee8-44be-9df5-96b48910c499","ios":"levelo://app?vid=22dcb091-bee8-44be-9df5-96b48910c499"},"vehicle_type_id":"4","last_reported":1717787219,"current_range_meters":31200,"station_id":"ce4bgt92rcd13ifvqcf0","pricing_plan_id":"cebpf4jnsgd1na2vs0mg"},{"bike_id":"21ce2f64-677d-4d18-9f26-dd8663a3635f","system_id":"levelo_inurba_marseille","lat":43.2968,"lon":5.37291,"is_reserved":false,"is_disabled":false,"rental_uris":{"android":"levelo://app?vid=21ce2f64-677d-4d18-9f26-dd8663a3635f","ios":"levelo://app?vid=21ce2f64-677d-4d18-9f26-dd8663a3635f"},"vehicle_type_id":"4","last_reported":1717787219,"current_range_meters":4800,"station_id":"ce4bgk12rcd13ifvqbj0","pricing_plan_id":"cebpf4jnsgd1na2vs0mg"},{"bike_id":"d29a8e95-38ff-473a-8ee8-00c6ea11770b","system_id":"levelo_inurba_marseille","lat":43.299222,"lon":5.365554,"is_reserved":false,"is_disabled":false,"rental_uris":{"android":"levelo://app?vid=d29a8e95-38ff-473a-8ee8-00c6ea11770b","ios":"levelo://app?vid=d29a8e95-38ff-473a-8ee8-00c6ea11770b"},"vehicle_type_id":"4","last_reported":1717787219,"current_range_meters":0,"station_id":"ce4bgm92rcd13ifvqbr0","pricing_plan_id":"cebpf4jnsgd1na2vs0mg"},{"bike_id":"3c9fe599-11ef-4904-ac9f-222bc966a693","system_id":"levelo_inurba_marseille","lat":43.305721,"lon":5.383496,"is_reserved":false,"is_disabled":false,"rental_uris":{"android":"levelo://app?vid=3c9fe599-11ef-4904-ac9f-222bc966a693","ios":"levelo://app?vid=3c9fe599-11ef-4904-ac9f-222bc966a693"},"vehicle_type_id":"4","last_reported":1717787219,"current_range_meters":5600,"station_id":"","pricing_plan_id":"cebpf4jnsgd1na2vs0mg"},{"bike_id":"3fb914ac-921e-4fbc-86b2-27ad42308e94","system_id":"levelo_inurba_marseille","lat":43.298433,"lon":5.362774,"is_reserved":false,"is_disabled":false,"rental_uris":{"android":"levelo://app?vid=3fb914ac-921e-4fbc-86b2-27ad42308e94","ios":"levelo://app?vid=3fb914ac-921e-4fbc-86b2-27ad42308e94"},"vehicle_type_id":"4","last_reported":1717787219,"current_range_meters":2400,"station_id":"ce4bgpp2rcd13ifvqc3g","pricing_plan_id":"cebpf4jnsgd1na2vs0mg"},{"bike_id":"79f2b3e8-19c6-4ac0-88c4-faf80d7dd65d","system_id":"levelo_inurba_marseille","lat":43.298463,"lon":5.36274,"is_reserved":false,"is_disabled":false,"rental_uris":{"android":"levelo://app?vid=79f2b3e8-19c6-4ac0-88c4-faf80d7dd65d","ios":"levelo://app?vid=79f2b3e8-19c6-4ac0-88c4-faf80d7dd65d"},"vehicle_type_id":"4","last_reported":1717787219,"current_range_meters":6800,"station_id":"ce4bgpp2rcd13ifvqc3g","pricing_plan_id":"cebpf4jnsgd1na2vs0mg"},{"bike_id":"21e25498-b45b-4486-bfa8-73153581192f","system_id":"levelo_inurba_marseille","lat":43.298433,"lon":5.362774,"is_reserved":false,"is_disabled":false,"rental_uris":{"android":"levelo://app?vid=21e25498-b45b-4486-bfa8-73153581192f","ios":"levelo://app?vid=21e25498-b45b-4486-bfa8-73153581192f"},"vehicle_type_id":"4","last_reported":1717787219,"current_range_meters":2000,"station_id":"ce4bgpp2rcd13ifvqc3g","pricing_plan_id":"cebpf4jnsgd1na2vs0mg"},{"bike_id":"5eb984ac-ff1f-4abf-8c3b-d39a0a1226c1","system_id":"levelo_inurba_marseille","lat":43.298433,"lon":5.362774,"is_reserved":false,"is_disabled":false,"rental_uris":{"android":"levelo://app?vid=5eb984ac-ff1f-4abf-8c3b-d39a0a1226c1","ios":"levelo://app?vid=5eb984ac-ff1f-4abf-8c3b-d39a0a1226c1"},"vehicle_type_id":"4","last_reported":1717787219,"current_range_meters":0,"station_id":"ce4bgpp2rcd13ifvqc3g","pricing_plan_id":"cebpf4jnsgd1na2vs0mg"},{"bike_id":"f0fe4fb1-8b8e-4722-9657-f76e45c8ce9c","system_id":"levelo_inurba_marseille","lat":43.299243,"lon":5.374807,"is_reserved":false,"is_disabled":false,"rental_uris":{"android":"levelo://app?vid=f0fe4fb1-8b8e-4722-9657-f76e45c8ce9c","ios":"levelo://app?vid=f0fe4fb1-8b8e-4722-9657-f76e45c8ce9c"},"vehicle_type_id":"4","last_reported":1717787219,"current_range_meters":0,"station_id":"ce4bgjh2rcd13ifvqbg0","pricing_plan_id":"cebpf4jnsgd1na2vs0mg"},{"bike_id":"c991d918-bbcd-4821-a766-48bd775a4a25","system_id":"levelo_inurba_marseille","lat":43.298433,"lon":5.362774,"is_reserved":false,"is_disabled":false,"rental_uris":{"android":"levelo://app?vid=c991d918-bbcd-4821-a766-48bd775a4a25","ios":"levelo://app?vid=c991d918-bbcd-4821-a766-48bd775a4a25"},"vehicle_type_id":"4","last_reported":1717787219,"current_range_meters":29600,"station_id":"ce4bgpp2rcd13ifvqc3g","pricing_plan_id":"cebpf4jnsgd1na2vs0mg"},{"bike_id":"451496d4-b73d-4849-a11e-ffb5445a92ba","system_id":"levelo_inurba_marseille","lat":43.305364,"lon":5.384119,"is_reserved":false,"is_disabled":false,"rental_uris":{"android":"levelo://app?vid=451496d4-b73d-4849-a11e-ffb5445a92ba","ios":"levelo://app?vid=451496d4-b73d-4849-a11e-ffb5445a92ba"},"vehicle_type_id":"4","last_reported":1717787219,"current_range_meters":31200,"station_id":"ce4bgg92rcd13ifvqb30","pricing_plan_id":"cebpf4jnsgd1na2vs0mg"},{"bike_id":"4ba8edcd-e326-4504-97f6-572ab2b076f1","system_id":"levelo_inurba_marseille","lat":43.299243,"lon":5.374807,"is_reserved":false,"is_disabled":false,"rental_uris":{"android":"levelo://app?vid=4ba8edcd-e326-4504-97f6-572ab2b076f1","ios":"levelo://app?vid=4ba8edcd-e326-4504-97f6-572ab2b076f1"},"vehicle_type_id":"4","last_reported":1717787219,"current_range_meters":0,"station_id":"ce4bgjh2rcd13ifvqbg0","pricing_plan_id":"cebpf4jnsgd1na2vs0mg"},{"bike_id":"3d29f5ac-cb30-4f99-836e-09cd7f7e16d6","system_id":"levelo_inurba_marseille","lat":43.299243,"lon":5.37481,"is_reserved":false,"is_disabled":false,"rental_uris":{"android":"levelo://app?vid=3d29f5ac-cb30-4f99-836e-09cd7f7e16d6","ios":"levelo://app?vid=3d29f5ac-cb30-4f99-836e-09cd7f7e16d6"},"vehicle_type_id":"4","last_reported":1717787219,"current_range_meters":800,"station_id":"ce4bgjh2rcd13ifvqbg0","pricing_plan_id":"cebpf4jnsgd1na2vs0mg"},{"bike_id":"77201d94-06b7-4b2d-a3f2-4ac4dab85408","system_id":"levelo_inurba_marseille","lat":43.311722,"lon":5.387247,"is_reserved":false,"is_disabled":false,"rental_uris":{"android":"levelo://app?vid=77201d94-06b7-4b2d-a3f2-4ac4dab85408","ios":"levelo://app?vid=77201d94-06b7-4b2d-a3f2-4ac4dab85408"},"vehicle_type_id":"4","last_reported":1717787219,"current_range_meters":0,"station_id":"ce4bgv12rcd13ifvqcp0","pricing_plan_id":"cebpf4jnsgd1na2vs0mg"},{"bike_id":"c8510c06-87e9-47cd-af77-bd0881d217a9","system_id":"levelo_inurba_marseille","lat":43.311722,"lon":5.387247,"is_reserved":false,"is_disabled":false,"rental_uris":{"android":"levelo://app?vid=c8510c06-87e9-47cd-af77-bd0881d217a9","ios":"levelo://app?vid=c8510c06-87e9-47cd-af77-bd0881d217a9"},"vehicle_type_id":"4","last_reported":1717787219,"current_range_meters":12400,"station_id":"ce4bgv12rcd13ifvqcp0","pricing_plan_id":"cebpf4jnsgd1na2vs0mg"},{"bike_id":"a6bcc4bb-ac69-4268-826f-ffbdf6e72122","system_id":"levelo_inurba_marseille","lat":43.299243,"lon":5.37481,"is_reserved":false,"is_disabled":false,"rental_uris":{"android":"levelo://app?vid=a6bcc4bb-ac69-4268-826f-ffbdf6e72122","ios":"levelo://app?vid=a6bcc4bb-ac69-4268-826f-ffbdf6e72122"},"vehicle_type_id":"4","last_reported":1717787219,"current_range_meters":0,"station_id":"ce4bgjh2rcd13ifvqbg0","pricing_plan_id":"cebpf4jnsgd1na2vs0mg"},{"bike_id":"cc7b57fd-304f-4cf5-9d0e-41c2a6841156","system_id":"levelo_inurba_marseille","lat":43.299243,"lon":5.37481,"is_reserved":false,"is_disabled":false,"rental_uris":{"android":"levelo://app?vid=cc7b57fd-304f-4cf5-9d0e-41c2a6841156","ios":"levelo://app?vid=cc7b57fd-304f-4cf5-9d0e-41c2a6841156"},"vehicle_type_id":"4","last_reported":1717787219,"current_range_meters":0,"station_id":"ce4bgjh2rcd13ifvqbg0","pricing_plan_id":"cebpf4jnsgd1na2vs0mg"},{"bike_id":"3822c748-4d5e-42a0-adcf-41f4eb922248","system_id":"levelo_inurba_marseille","lat":43.29785,"lon":5.37097,"is_reserved":false,"is_disabled":false,"rental_uris":{"android":"levelo://app?vid=3822c748-4d5e-42a0-adcf-41f4eb922248","ios":"levelo://app?vid=3822c748-4d5e-42a0-adcf-41f4eb922248"},"vehicle_type_id":"4","last_reported":1717787219,"current_range_meters":400,"station_id":"ce4bgop2rcd13ifvqc1g","pricing_plan_id":"cebpf4jnsgd1na2vs0mg"},{"bike_id":"87258cf9-9a3f-4a6c-a5e6-b8c80533beee","system_id":"levelo_inurba_marseille","lat":43.297774,"lon":5.370875,"is_reserved":false,"is_disabled":false,"rental_uris":{"android":"levelo://app?vid=87258cf9-9a3f-4a6c-a5e6-b8c80533beee","ios":"levelo://app?vid=87258cf9-9a3f-4a6c-a5e6-b8c80533beee"},"vehicle_type_id":"4","last_reported":1717787219,"current_range_meters":26800,"station_id":"ce4bgop2rcd13ifvqc1g","pricing_plan_id":"cebpf4jnsgd1na2vs0mg"},{"bike_id":"827c2fda-ade6-4815-b7d5-dedc2b68644c","system_id":"levelo_inurba_marseille","lat":43.297774,"lon":5.370875,"is_reserved":false,"is_disabled":false,"rental_uris":{"android":"levelo://app?vid=827c2fda-ade6-4815-b7d5-dedc2b68644c","ios":"levelo://app?vid=827c2fda-ade6-4815-b7d5-dedc2b68644c"},"vehicle_type_id":"4","last_reported":1717787219,"current_range_meters":18800,"station_id":"ce4bgop2rcd13ifvqc1g","pricing_plan_id":"cebpf4jnsgd1na2vs0mg"},{"bike_id":"78e24f65-8640-48bf-b76c-9e82e0350dde","system_id":"levelo_inurba_marseille","lat":43.322931,"lon":5.38257,"is_reserved":false,"is_disabled":false,"rental_uris":{"android":"levelo://app?vid=78e24f65-8640-48bf-b76c-9e82e0350dde","ios":"levelo://app?vid=78e24f65-8640-48bf-b76c-9e82e0350dde"},"vehicle_type_id":"4","last_reported":1717787219,"current_range_meters":8800,"station_id":"ce4bhr12rcd13ifvqhqg","pricing_plan_id":"cebpf4jnsgd1na2vs0mg"},{"bike_id":"5540a9ee-bf36-47d7-b4fa-9e44f79dfdd1","system_id":"levelo_inurba_marseille","lat":43.32285,"lon":5.382817,"is_reserved":false,"is_disabled":false,"rental_uris":{"android":"levelo://app?vid=5540a9ee-bf36-47d7-b4fa-9e44f79dfdd1","ios":"levelo://app?vid=5540a9ee-bf36-47d7-b4fa-9e44f79dfdd1"},"vehicle_type_id":"4","last_reported":1717787219,"current_range_meters":19600,"station_id":"ce4bhr12rcd13ifvqhqg","pricing_plan_id":"cebpf4jnsgd1na2vs0mg"},{"bike_id":"eecff279-029d-4aeb-b256-5405f226927c","system_id":"levelo_inurba_marseille","lat":43.322872,"lon":5.382756,"is_reserved":false,"is_disabled":false,"rental_uris":{"android":"levelo://app?vid=eecff279-029d-4aeb-b256-5405f226927c","ios":"levelo://app?vid=eecff279-029d-4aeb-b256-5405f226927c"},"vehicle_type_id":"4","last_reported":1717787219,"current_range_meters":31200,"station_id":"ce4bhr12rcd13ifvqhqg","pricing_plan_id":"cebpf4jnsgd1na2vs0mg"},{"bike_id":"80e0493b-b3f2-4773-a32f-ac3a2f954636","system_id":"levelo_inurba_marseille","lat":43.297163,"lon":5.365866,"is_reserved":false,"is_disabled":false,"rental_uris":{"android":"levelo://app?vid=80e0493b-b3f2-4773-a32f-ac3a2f954636","ios":"levelo://app?vid=80e0493b-b3f2-4773-a32f-ac3a2f954636"},"vehicle_type_id":"4","last_reported":1717787219,"current_range_meters":6000,"station_id":"ce4bgn12rcd13ifvqbt0","pricing_plan_id":"cebpf4jnsgd1na2vs0mg"},{"bike_id":"c89ffe25-46a9-4fcd-8735-dba891abd237","system_id":"levelo_inurba_marseille","lat":43.297163,"lon":5.365866,"is_reserved":false,"is_disabled":false,"rental_uris":{"android":"levelo://app?vid=c89ffe25-46a9-4fcd-8735-dba891abd237","ios":"levelo://app?vid=c89ffe25-46a9-4fcd-8735-dba891abd237"},"vehicle_type_id":"4","last_reported":1717787219,"current_range_meters":9200,"station_id":"ce4bgn12rcd13ifvqbt0","pricing_plan_id":"cebpf4jnsgd1na2vs0mg"},{"bike_id":"f946c49f-8ba3-41d9-9a69-087d1282cd00","system_id":"levelo_inurba_marseille","lat":43.297774,"lon":5.370875,"is_reserved":false,"is_disabled":false,"rental_uris":{"android":"levelo://app?vid=f946c49f-8ba3-41d9-9a69-087d1282cd00","ios":"levelo://app?vid=f946c49f-8ba3-41d9-9a69-087d1282cd00"},"vehicle_type_id":"4","last_reported":1717787219,"current_range_meters":24800,"station_id":"ce4bgop2rcd13ifvqc1g","pricing_plan_id":"cebpf4jnsgd1na2vs0mg"},{"bike_id":"942b5518-fc24-41b7-a26d-b23715ca8d54","system_id":"levelo_inurba_marseille","lat":43.29702,"lon":5.3596,"is_reserved":false,"is_disabled":false,"rental_uris":{"android":"levelo://app?vid=942b5518-fc24-41b7-a26d-b23715ca8d54","ios":"levelo://app?vid=942b5518-fc24-41b7-a26d-b23715ca8d54"},"vehicle_type_id":"4","last_reported":1717787219,"current_range_meters":13600,"station_id":"","pricing_plan_id":"cebpf4jnsgd1na2vs0mg"},{"bike_id":"0630808b-b6d9-4138-8f3d-e0a6375eb3c1","system_id":"levelo_inurba_marseille","lat":43.32147,"lon":5.38685,"is_reserved":false,"is_disabled":false,"rental_uris":{"android":"levelo://app?vid=0630808b-b6d9-4138-8f3d-e0a6375eb3c1","ios":"levelo://app?vid=0630808b-b6d9-4138-8f3d-e0a6375eb3c1"},"vehicle_type_id":"4","last_reported":1717787219,"current_range_meters":4800,"station_id":"","pricing_plan_id":"cebpf4jnsgd1na2vs0mg"},{"bike_id":"0488ef29-f637-4180-bbc2-c90728fc346f","system_id":"levelo_inurba_marseille","lat":43.296921,"lon":5.376579,"is_reserved":false,"is_disabled":false,"rental_uris":{"android":"levelo://app?vid=0488ef29-f637-4180-bbc2-c90728fc346f","ios":"levelo://app?vid=0488ef29-f637-4180-bbc2-c90728fc346f"},"vehicle_type_id":"4","last_reported":1717787219,"current_range_meters":6400,"station_id":"ce4bgkh2rcd13ifvqbl0","pricing_plan_id":"cebpf4jnsgd1na2vs0mg"},{"bike_id":"85379b2d-1e86-4415-8bf3-e8a89940f227","system_id":"levelo_inurba_marseille","lat":43.296935,"lon":5.376544,"is_reserved":false,"is_disabled":false,"rental_uris":{"android":"levelo://app?vid=85379b2d-1e86-4415-8bf3-e8a89940f227","ios":"levelo://app?vid=85379b2d-1e86-4415-8bf3-e8a89940f227"},"vehicle_type_id":"4","last_reported":1717787219,"current_range_meters":22800,"station_id":"ce4bgkh2rcd13ifvqbl0","pricing_plan_id":"cebpf4jnsgd1na2vs0mg"},{"bike_id":"c6dd91d7-6648-4ffb-bbbe-3939778347b6","system_id":"levelo_inurba_marseille","lat":43.311722,"lon":5.387247,"is_reserved":false,"is_disabled":false,"rental_uris":{"android":"levelo://app?vid=c6dd91d7-6648-4ffb-bbbe-3939778347b6","ios":"levelo://app?vid=c6dd91d7-6648-4ffb-bbbe-3939778347b6"},"vehicle_type_id":"4","last_reported":1717787219,"current_range_meters":22400,"station_id":"ce4bgv12rcd13ifvqcp0","pricing_plan_id":"cebpf4jnsgd1na2vs0mg"},{"bike_id":"11df4160-bfdb-43b5-8301-c92a50d2b925","system_id":"levelo_inurba_marseille","lat":43.296935,"lon":5.376544,"is_reserved":false,"is_disabled":false,"rental_uris":{"android":"levelo://app?vid=11df4160-bfdb-43b5-8301-c92a50d2b925","ios":"levelo://app?vid=11df4160-bfdb-43b5-8301-c92a50d2b925"},"vehicle_type_id":"4","last_reported":1717787219,"current_range_meters":5600,"station_id":"ce4bgkh2rcd13ifvqbl0","pricing_plan_id":"cebpf4jnsgd1na2vs0mg"},{"bike_id":"e72919b5-7638-4c86-9564-c618d41575c4","system_id":"levelo_inurba_marseille","lat":43.299028,"lon":5.381509,"is_reserved":false,"is_disabled":false,"rental_uris":{"android":"levelo://app?vid=e72919b5-7638-4c86-9564-c618d41575c4","ios":"levelo://app?vid=e72919b5-7638-4c86-9564-c618d41575c4"},"vehicle_type_id":"4","last_reported":1717787219,"current_range_meters":0,"station_id":"ce4bgj12rcd13ifvqbc0","pricing_plan_id":"cebpf4jnsgd1na2vs0mg"},{"bike_id":"1afe6a85-3be9-4c11-890a-90cf67946e81","system_id":"levelo_inurba_marseille","lat":43.309589,"lon":5.390258,"is_reserved":false,"is_disabled":false,"rental_uris":{"android":"levelo://app?vid=1afe6a85-3be9-4c11-890a-90cf67946e81","ios":"levelo://app?vid=1afe6a85-3be9-4c11-890a-90cf67946e81"},"vehicle_type_id":"4","last_reported":1717787219,"current_range_meters":31200,"station_id":"ce4bgup2rcd13ifvqco0","pricing_plan_id":"cebpf4jnsgd1na2vs0mg"},{"bike_id":"a720cfd8-f7dc-4e4f-adbe-b99a0ca640c7","system_id":"levelo_inurba_marseille","lat":43.309589,"lon":5.390258,"is_reserved":false,"is_disabled":false,"rental_uris":{"android":"levelo://app?vid=a720cfd8-f7dc-4e4f-adbe-b99a0ca640c7","ios":"levelo://app?vid=a720cfd8-f7dc-4e4f-adbe-b99a0ca640c7"},"vehicle_type_id":"4","last_reported":1717787219,"current_range_meters":7600,"station_id":"ce4bgup2rcd13ifvqco0","pricing_plan_id":"cebpf4jnsgd1na2vs0mg"},{"bike_id":"afba980f-ec54-4c40-a99a-3ba7aad154ce","system_id":"levelo_inurba_marseille","lat":43.30956,"lon":5.3903,"is_reserved":false,"is_disabled":false,"rental_uris":{"android":"levelo://app?vid=afba980f-ec54-4c40-a99a-3ba7aad154ce","ios":"levelo://app?vid=afba980f-ec54-4c40-a99a-3ba7aad154ce"},"vehicle_type_id":"4","last_reported":1717787219,"current_range_meters":31200,"station_id":"ce4bgup2rcd13ifvqco0","pricing_plan_id":"cebpf4jnsgd1na2vs0mg"},{"bike_id":"b24b34c9-1ffd-47dc-bdfd-396b064f9156","system_id":"levelo_inurba_marseille","lat":43.309589,"lon":5.390258,"is_reserved":false,"is_disabled":false,"rental_uris":{"android":"levelo://app?vid=b24b34c9-1ffd-47dc-bdfd-396b064f9156","ios":"levelo://app?vid=b24b34c9-1ffd-47dc-bdfd-396b064f9156"},"vehicle_type_id":"4","last_reported":1717787219,"current_range_meters":31200,"station_id":"ce4bgup2rcd13ifvqco0","pricing_plan_id":"cebpf4jnsgd1na2vs0mg"},{"bike_id":"94944ccc-9870-491a-8abe-0e17b32a865b","system_id":"levelo_inurba_marseille","lat":43.309589,"lon":5.390258,"is_reserved":false,"is_disabled":false,"rental_uris":{"android":"levelo://app?vid=94944ccc-9870-491a-8abe-0e17b32a865b","ios":"levelo://app?vid=94944ccc-9870-491a-8abe-0e17b32a865b"},"vehicle_type_id":"4","last_reported":1717787219,"current_range_meters":13200,"station_id":"ce4bgup2rcd13ifvqco0","pricing_plan_id":"cebpf4jnsgd1na2vs0mg"},{"bike_id":"46bff0ef-db64-4f97-9cf2-b9c5d66f0969","system_id":"levelo_inurba_marseille","lat":43.309589,"lon":5.390258,"is_reserved":false,"is_disabled":false,"rental_uris":{"android":"levelo://app?vid=46bff0ef-db64-4f97-9cf2-b9c5d66f0969","ios":"levelo://app?vid=46bff0ef-db64-4f97-9cf2-b9c5d66f0969"},"vehicle_type_id":"4","last_reported":1717787219,"current_range_meters":25600,"station_id":"ce4bgup2rcd13ifvqco0","pricing_plan_id":"cebpf4jnsgd1na2vs0mg"},{"bike_id":"0f8eb537-1855-43eb-bb41-4946de5de16b","system_id":"levelo_inurba_marseille","lat":43.30949,"lon":5.39031,"is_reserved":false,"is_disabled":false,"rental_uris":{"android":"levelo://app?vid=0f8eb537-1855-43eb-bb41-4946de5de16b","ios":"levelo://app?vid=0f8eb537-1855-43eb-bb41-4946de5de16b"},"vehicle_type_id":"4","last_reported":1717787219,"current_range_meters":400,"station_id":"ce4bgup2rcd13ifvqco0","pricing_plan_id":"cebpf4jnsgd1na2vs0mg"},{"bike_id":"a324e1c9-1f8f-4546-9cc9-2efb68df0ae8","system_id":"levelo_inurba_marseille","lat":43.309589,"lon":5.390258,"is_reserved":false,"is_disabled":false,"rental_uris":{"android":"levelo://app?vid=a324e1c9-1f8f-4546-9cc9-2efb68df0ae8","ios":"levelo://app?vid=a324e1c9-1f8f-4546-9cc9-2efb68df0ae8"},"vehicle_type_id":"4","last_reported":1717787219,"current_range_meters":31200,"station_id":"ce4bgup2rcd13ifvqco0","pricing_plan_id":"cebpf4jnsgd1na2vs0mg"},{"bike_id":"a6a69be3-201a-41c7-baaa-18dda468dee8","system_id":"levelo_inurba_marseille","lat":43.309589,"lon":5.390258,"is_reserved":false,"is_disabled":false,"rental_uris":{"android":"levelo://app?vid=a6a69be3-201a-41c7-baaa-18dda468dee8","ios":"levelo://app?vid=a6a69be3-201a-41c7-baaa-18dda468dee8"},"vehicle_type_id":"4","last_reported":1717787219,"current_range_meters":3600,"station_id":"ce4bgup2rcd13ifvqco0","pricing_plan_id":"cebpf4jnsgd1na2vs0mg"},{"bike_id":"6a411c2e-d744-4c55-9faa-b5cf69b34775","system_id":"levelo_inurba_marseille","lat":43.309589,"lon":5.390258,"is_reserved":false,"is_disabled":false,"rental_uris":{"android":"levelo://app?vid=6a411c2e-d744-4c55-9faa-b5cf69b34775","ios":"levelo://app?vid=6a411c2e-d744-4c55-9faa-b5cf69b34775"},"vehicle_type_id":"4","last_reported":1717787219,"current_range_meters":15600,"station_id":"ce4bgup2rcd13ifvqco0","pricing_plan_id":"cebpf4jnsgd1na2vs0mg"},{"bike_id":"ce8f3a0d-e5d4-49f6-bb05-40d32dcdfaca","system_id":"levelo_inurba_marseille","lat":43.309589,"lon":5.390258,"is_reserved":false,"is_disabled":false,"rental_uris":{"android":"levelo://app?vid=ce8f3a0d-e5d4-49f6-bb05-40d32dcdfaca","ios":"levelo://app?vid=ce8f3a0d-e5d4-49f6-bb05-40d32dcdfaca"},"vehicle_type_id":"4","last_reported":1717787219,"current_range_meters":26400,"station_id":"ce4bgup2rcd13ifvqco0","pricing_plan_id":"cebpf4jnsgd1na2vs0mg"},{"bike_id":"1135842f-f408-4fae-a93f-3d3a54b6134b","system_id":"levelo_inurba_marseille","lat":43.309612,"lon":5.390376,"is_reserved":false,"is_disabled":false,"rental_uris":{"android":"levelo://app?vid=1135842f-f408-4fae-a93f-3d3a54b6134b","ios":"levelo://app?vid=1135842f-f408-4fae-a93f-3d3a54b6134b"},"vehicle_type_id":"4","last_reported":1717787219,"current_range_meters":26800,"station_id":"ce4bgup2rcd13ifvqco0","pricing_plan_id":"cebpf4jnsgd1na2vs0mg"},{"bike_id":"b7dc7591-80b6-4daa-814d-0220313c30e9","system_id":"levelo_inurba_marseille","lat":43.309589,"lon":5.390258,"is_reserved":false,"is_disabled":false,"rental_uris":{"android":"levelo://app?vid=b7dc7591-80b6-4daa-814d-0220313c30e9","ios":"levelo://app?vid=b7dc7591-80b6-4daa-814d-0220313c30e9"},"vehicle_type_id":"4","last_reported":1717787219,"current_range_meters":20000,"station_id":"ce4bgup2rcd13ifvqco0","pricing_plan_id":"cebpf4jnsgd1na2vs0mg"},{"bike_id":"a03d7f0c-a2b5-4b27-9602-49e4b1af5c16","system_id":"levelo_inurba_marseille","lat":43.309589,"lon":5.390258,"is_reserved":false,"is_disabled":false,"rental_uris":{"android":"levelo://app?vid=a03d7f0c-a2b5-4b27-9602-49e4b1af5c16","ios":"levelo://app?vid=a03d7f0c-a2b5-4b27-9602-49e4b1af5c16"},"vehicle_type_id":"4","last_reported":1717787219,"current_range_meters":16000,"station_id":"ce4bgup2rcd13ifvqco0","pricing_plan_id":"cebpf4jnsgd1na2vs0mg"},{"bike_id":"14a73c23-cba6-4b7f-a40a-251f756265a4","system_id":"levelo_inurba_marseille","lat":43.30959,"lon":5.39038,"is_reserved":false,"is_disabled":false,"rental_uris":{"android":"levelo://app?vid=14a73c23-cba6-4b7f-a40a-251f756265a4","ios":"levelo://app?vid=14a73c23-cba6-4b7f-a40a-251f756265a4"},"vehicle_type_id":"4","last_reported":1717787219,"current_range_meters":0,"station_id":"ce4bgup2rcd13ifvqco0","pricing_plan_id":"cebpf4jnsgd1na2vs0mg"},{"bike_id":"9b85d55a-e93b-4662-bf4c-c48cd17d4650","system_id":"levelo_inurba_marseille","lat":43.309589,"lon":5.390258,"is_reserved":false,"is_disabled":false,"rental_uris":{"android":"levelo://app?vid=9b85d55a-e93b-4662-bf4c-c48cd17d4650","ios":"levelo://app?vid=9b85d55a-e93b-4662-bf4c-c48cd17d4650"},"vehicle_type_id":"4","last_reported":1717787219,"current_range_meters":28800,"station_id":"ce4bgup2rcd13ifvqco0","pricing_plan_id":"cebpf4jnsgd1na2vs0mg"},{"bike_id":"1269574f-8c53-456c-8ff2-665364b750d5","system_id":"levelo_inurba_marseille","lat":43.309589,"lon":5.390258,"is_reserved":false,"is_disabled":false,"rental_uris":{"android":"levelo://app?vid=1269574f-8c53-456c-8ff2-665364b750d5","ios":"levelo://app?vid=1269574f-8c53-456c-8ff2-665364b750d5"},"vehicle_type_id":"4","last_reported":1717787219,"current_range_meters":31200,"station_id":"ce4bgup2rcd13ifvqco0","pricing_plan_id":"cebpf4jnsgd1na2vs0mg"},{"bike_id":"dc96faa4-6373-4ea0-9598-d4003e84d7d5","system_id":"levelo_inurba_marseille","lat":43.309589,"lon":5.390258,"is_reserved":false,"is_disabled":false,"rental_uris":{"android":"levelo://app?vid=dc96faa4-6373-4ea0-9598-d4003e84d7d5","ios":"levelo://app?vid=dc96faa4-6373-4ea0-9598-d4003e84d7d5"},"vehicle_type_id":"4","last_reported":1717787219,"current_range_meters":21600,"station_id":"ce4bgup2rcd13ifvqco0","pricing_plan_id":"cebpf4jnsgd1na2vs0mg"},{"bike_id":"e1cbd813-f5ae-40a0-b268-c04bd49d6fe8","system_id":"levelo_inurba_marseille","lat":43.309589,"lon":5.390258,"is_reserved":false,"is_disabled":false,"rental_uris":{"android":"levelo://app?vid=e1cbd813-f5ae-40a0-b268-c04bd49d6fe8","ios":"levelo://app?vid=e1cbd813-f5ae-40a0-b268-c04bd49d6fe8"},"vehicle_type_id":"4","last_reported":1717787219,"current_range_meters":24800,"station_id":"ce4bgup2rcd13ifvqco0","pricing_plan_id":"cebpf4jnsgd1na2vs0mg"},{"bike_id":"d514c6d9-b1d6-490b-9808-0671d642d987","system_id":"levelo_inurba_marseille","lat":43.309589,"lon":5.390258,"is_reserved":false,"is_disabled":false,"rental_uris":{"android":"levelo://app?vid=d514c6d9-b1d6-490b-9808-0671d642d987","ios":"levelo://app?vid=d514c6d9-b1d6-490b-9808-0671d642d987"},"vehicle_type_id":"4","last_reported":1717787219,"current_range_meters":7200,"station_id":"ce4bgup2rcd13ifvqco0","pricing_plan_id":"cebpf4jnsgd1na2vs0mg"},{"bike_id":"29821003-1a64-49ee-b2cd-2c1a5ff7de9d","system_id":"levelo_inurba_marseille","lat":43.30954,"lon":5.39041,"is_reserved":false,"is_disabled":false,"rental_uris":{"android":"levelo://app?vid=29821003-1a64-49ee-b2cd-2c1a5ff7de9d","ios":"levelo://app?vid=29821003-1a64-49ee-b2cd-2c1a5ff7de9d"},"vehicle_type_id":"4","last_reported":1717787219,"current_range_meters":31200,"station_id":"ce4bgup2rcd13ifvqco0","pricing_plan_id":"cebpf4jnsgd1na2vs0mg"},{"bike_id":"4f22ce07-6bfd-498c-886a-309490030430","system_id":"levelo_inurba_marseille","lat":43.299028,"lon":5.381509,"is_reserved":false,"is_disabled":false,"rental_uris":{"android":"levelo://app?vid=4f22ce07-6bfd-498c-886a-309490030430","ios":"levelo://app?vid=4f22ce07-6bfd-498c-886a-309490030430"},"vehicle_type_id":"4","last_reported":1717787219,"current_range_meters":4800,"station_id":"ce4bgj12rcd13ifvqbc0","pricing_plan_id":"cebpf4jnsgd1na2vs0mg"},{"bike_id":"7b16f83f-0321-4309-82df-d52cd625e063","system_id":"levelo_inurba_marseille","lat":43.309589,"lon":5.390258,"is_reserved":false,"is_disabled":false,"rental_uris":{"android":"levelo://app?vid=7b16f83f-0321-4309-82df-d52cd625e063","ios":"levelo://app?vid=7b16f83f-0321-4309-82df-d52cd625e063"},"vehicle_type_id":"4","last_reported":1717787219,"current_range_meters":0,"station_id":"ce4bgup2rcd13ifvqco0","pricing_plan_id":"cebpf4jnsgd1na2vs0mg"},{"bike_id":"0df81fb3-9976-4161-8cd2-c223ec45fb14","system_id":"levelo_inurba_marseille","lat":43.30962,"lon":5.39046,"is_reserved":false,"is_disabled":false,"rental_uris":{"android":"levelo://app?vid=0df81fb3-9976-4161-8cd2-c223ec45fb14","ios":"levelo://app?vid=0df81fb3-9976-4161-8cd2-c223ec45fb14"},"vehicle_type_id":"4","last_reported":1717787219,"current_range_meters":8000,"station_id":"ce4bgup2rcd13ifvqco0","pricing_plan_id":"cebpf4jnsgd1na2vs0mg"},{"bike_id":"c5f62262-3650-46ea-8f59-f8e5e39d43f1","system_id":"levelo_inurba_marseille","lat":43.309517,"lon":5.390447,"is_reserved":false,"is_disabled":false,"rental_uris":{"android":"levelo://app?vid=c5f62262-3650-46ea-8f59-f8e5e39d43f1","ios":"levelo://app?vid=c5f62262-3650-46ea-8f59-f8e5e39d43f1"},"vehicle_type_id":"4","last_reported":1717787219,"current_range_meters":26000,"station_id":"ce4bgup2rcd13ifvqco0","pricing_plan_id":"cebpf4jnsgd1na2vs0mg"},{"bike_id":"d8e98145-915f-44c6-a9c7-1bf60f284baf","system_id":"levelo_inurba_marseille","lat":43.31757,"lon":5.39018,"is_reserved":false,"is_disabled":false,"rental_uris":{"android":"levelo://app?vid=d8e98145-915f-44c6-a9c7-1bf60f284baf","ios":"levelo://app?vid=d8e98145-915f-44c6-a9c7-1bf60f284baf"},"vehicle_type_id":"4","last_reported":1717787219,"current_range_meters":3200,"station_id":"ce4bhqp2rcd13ifvqhng","pricing_plan_id":"cebpf4jnsgd1na2vs0mg"},{"bike_id":"17fe99b6-9c29-49b1-82c3-ddc9221959ff","system_id":"levelo_inurba_marseille","lat":43.31761,"lon":5.39018,"is_reserved":false,"is_disabled":false,"rental_uris":{"android":"levelo://app?vid=17fe99b6-9c29-49b1-82c3-ddc9221959ff","ios":"levelo://app?vid=17fe99b6-9c29-49b1-82c3-ddc9221959ff"},"vehicle_type_id":"4","last_reported":1717787219,"current_range_meters":29600,"station_id":"ce4bhqp2rcd13ifvqhng","pricing_plan_id":"cebpf4jnsgd1na2vs0mg"},{"bike_id":"2327a2b2-7912-4975-80b7-76661ca7f663","system_id":"levelo_inurba_marseille","lat":43.295748,"lon":5.37522,"is_reserved":false,"is_disabled":false,"rental_uris":{"android":"levelo://app?vid=2327a2b2-7912-4975-80b7-76661ca7f663","ios":"levelo://app?vid=2327a2b2-7912-4975-80b7-76661ca7f663"},"vehicle_type_id":"4","last_reported":1717787219,"current_range_meters":0,"station_id":"ce4bgh92rcd13ifvqb50","pricing_plan_id":"cebpf4jnsgd1na2vs0mg"},{"bike_id":"73198b61-8b73-400e-8811-8c65adad9a38","system_id":"levelo_inurba_marseille","lat":43.304274,"lon":5.388873,"is_reserved":false,"is_disabled":false,"rental_uris":{"android":"levelo://app?vid=73198b61-8b73-400e-8811-8c65adad9a38","ios":"levelo://app?vid=73198b61-8b73-400e-8811-8c65adad9a38"},"vehicle_type_id":"4","last_reported":1717787219,"current_range_meters":19200,"station_id":"ce4bgk12rcd13ifvqbi0","pricing_plan_id":"cebpf4jnsgd1na2vs0mg"},{"bike_id":"1e3c2d6d-dc12-4f23-953e-98943cdd9aed","system_id":"levelo_inurba_marseille","lat":43.296263,"lon":5.377094,"is_reserved":false,"is_disabled":false,"rental_uris":{"android":"levelo://app?vid=1e3c2d6d-dc12-4f23-953e-98943cdd9aed","ios":"levelo://app?vid=1e3c2d6d-dc12-4f23-953e-98943cdd9aed"},"vehicle_type_id":"4","last_reported":1717787219,"current_range_meters":31200,"station_id":"ce4bgi92rcd13ifvqb90","pricing_plan_id":"cebpf4jnsgd1na2vs0mg"},{"bike_id":"fcaf1610-61c1-4940-b8f8-9745b3185db0","system_id":"levelo_inurba_marseille","lat":43.295279,"lon":5.375048,"is_reserved":false,"is_disabled":false,"rental_uris":{"android":"levelo://app?vid=fcaf1610-61c1-4940-b8f8-9745b3185db0","ios":"levelo://app?vid=fcaf1610-61c1-4940-b8f8-9745b3185db0"},"vehicle_type_id":"4","last_reported":1717787219,"current_range_meters":6000,"station_id":"ce4bgkp2rcd13ifvqbmg","pricing_plan_id":"cebpf4jnsgd1na2vs0mg"},{"bike_id":"727815f7-77f4-473f-9235-9f5a98e58c24","system_id":"levelo_inurba_marseille","lat":43.295279,"lon":5.375048,"is_reserved":false,"is_disabled":false,"rental_uris":{"android":"levelo://app?vid=727815f7-77f4-473f-9235-9f5a98e58c24","ios":"levelo://app?vid=727815f7-77f4-473f-9235-9f5a98e58c24"},"vehicle_type_id":"4","last_reported":1717787219,"current_range_meters":6800,"station_id":"ce4bgkp2rcd13ifvqbmg","pricing_plan_id":"cebpf4jnsgd1na2vs0mg"},{"bike_id":"ee0805fa-a981-43d3-93af-e5febbc3aa88","system_id":"levelo_inurba_marseille","lat":43.29973,"lon":5.38494,"is_reserved":false,"is_disabled":false,"rental_uris":{"android":"levelo://app?vid=ee0805fa-a981-43d3-93af-e5febbc3aa88","ios":"levelo://app?vid=ee0805fa-a981-43d3-93af-e5febbc3aa88"},"vehicle_type_id":"4","last_reported":1717787219,"current_range_meters":0,"station_id":"ce4bgj92rcd13ifvqbd0","pricing_plan_id":"cebpf4jnsgd1na2vs0mg"},{"bike_id":"20cbc97e-713d-4de4-8df6-6e2e74096754","system_id":"levelo_inurba_marseille","lat":43.29524,"lon":5.37506,"is_reserved":false,"is_disabled":false,"rental_uris":{"android":"levelo://app?vid=20cbc97e-713d-4de4-8df6-6e2e74096754","ios":"levelo://app?vid=20cbc97e-713d-4de4-8df6-6e2e74096754"},"vehicle_type_id":"4","last_reported":1717787219,"current_range_meters":26800,"station_id":"ce4bgkp2rcd13ifvqbmg","pricing_plan_id":"cebpf4jnsgd1na2vs0mg"},{"bike_id":"41f640c7-e54b-40b6-8821-66e23505b80d","system_id":"levelo_inurba_marseille","lat":43.299717,"lon":5.384845,"is_reserved":false,"is_disabled":false,"rental_uris":{"android":"levelo://app?vid=41f640c7-e54b-40b6-8821-66e23505b80d","ios":"levelo://app?vid=41f640c7-e54b-40b6-8821-66e23505b80d"},"vehicle_type_id":"4","last_reported":1717787219,"current_range_meters":14000,"station_id":"ce4bgj92rcd13ifvqbd0","pricing_plan_id":"cebpf4jnsgd1na2vs0mg"},{"bike_id":"701a915f-e806-46b8-993e-3436f9d242bb","system_id":"levelo_inurba_marseille","lat":43.299717,"lon":5.384845,"is_reserved":false,"is_disabled":false,"rental_uris":{"android":"levelo://app?vid=701a915f-e806-46b8-993e-3436f9d242bb","ios":"levelo://app?vid=701a915f-e806-46b8-993e-3436f9d242bb"},"vehicle_type_id":"4","last_reported":1717787219,"current_range_meters":2000,"station_id":"ce4bgj92rcd13ifvqbd0","pricing_plan_id":"cebpf4jnsgd1na2vs0mg"},{"bike_id":"daecf4b8-fcc1-409c-abb7-6bb0b3f29f01","system_id":"levelo_inurba_marseille","lat":43.309589,"lon":5.390258,"is_reserved":false,"is_disabled":false,"rental_uris":{"android":"levelo://app?vid=daecf4b8-fcc1-409c-abb7-6bb0b3f29f01","ios":"levelo://app?vid=daecf4b8-fcc1-409c-abb7-6bb0b3f29f01"},"vehicle_type_id":"4","last_reported":1717787219,"current_range_meters":4000,"station_id":"ce4bgup2rcd13ifvqco0","pricing_plan_id":"cebpf4jnsgd1na2vs0mg"},{"bike_id":"f77e708e-7fbd-4a09-8149-f05e71e9a262","system_id":"levelo_inurba_marseille","lat":43.32367,"lon":5.388836,"is_reserved":false,"is_disabled":false,"rental_uris":{"android":"levelo://app?vid=f77e708e-7fbd-4a09-8149-f05e71e9a262","ios":"levelo://app?vid=f77e708e-7fbd-4a09-8149-f05e71e9a262"},"vehicle_type_id":"4","last_reported":1717787219,"current_range_meters":31200,"station_id":"ce4bhqp2rcd13ifvqhog","pricing_plan_id":"cebpf4jnsgd1na2vs0mg"},{"bike_id":"bae7593d-2fdc-4231-921e-00360e6fbcde","system_id":"levelo_inurba_marseille","lat":43.32368,"lon":5.3888,"is_reserved":false,"is_disabled":false,"rental_uris":{"android":"levelo://app?vid=bae7593d-2fdc-4231-921e-00360e6fbcde","ios":"levelo://app?vid=bae7593d-2fdc-4231-921e-00360e6fbcde"},"vehicle_type_id":"4","last_reported":1717787219,"current_range_meters":5200,"station_id":"ce4bhqp2rcd13ifvqhog","pricing_plan_id":"cebpf4jnsgd1na2vs0mg"},{"bike_id":"02b4ba97-09e4-4e84-833c-94cab57d37fa","system_id":"levelo_inurba_marseille","lat":43.32367,"lon":5.38881,"is_reserved":false,"is_disabled":false,"rental_uris":{"android":"levelo://app?vid=02b4ba97-09e4-4e84-833c-94cab57d37fa","ios":"levelo://app?vid=02b4ba97-09e4-4e84-833c-94cab57d37fa"},"vehicle_type_id":"4","last_reported":1717787219,"current_range_meters":12800,"station_id":"ce4bhqp2rcd13ifvqhog","pricing_plan_id":"cebpf4jnsgd1na2vs0mg"},{"bike_id":"60a10db0-5d2f-48fa-82f7-f67c7d5a9872","system_id":"levelo_inurba_marseille","lat":43.3237,"lon":5.3888,"is_reserved":false,"is_disabled":false,"rental_uris":{"android":"levelo://app?vid=60a10db0-5d2f-48fa-82f7-f67c7d5a9872","ios":"levelo://app?vid=60a10db0-5d2f-48fa-82f7-f67c7d5a9872"},"vehicle_type_id":"4","last_reported":1717787219,"current_range_meters":3600,"station_id":"ce4bhqp2rcd13ifvqhog","pricing_plan_id":"cebpf4jnsgd1na2vs0mg"},{"bike_id":"97029bd3-db37-4487-8eb8-0eef77ae5512","system_id":"levelo_inurba_marseille","lat":43.32368,"lon":5.38885,"is_reserved":false,"is_disabled":false,"rental_uris":{"android":"levelo://app?vid=97029bd3-db37-4487-8eb8-0eef77ae5512","ios":"levelo://app?vid=97029bd3-db37-4487-8eb8-0eef77ae5512"},"vehicle_type_id":"4","last_reported":1717787219,"current_range_meters":0,"station_id":"ce4bhqp2rcd13ifvqhog","pricing_plan_id":"cebpf4jnsgd1na2vs0mg"},{"bike_id":"e67d070d-7952-4026-91e4-a2336b118f33","system_id":"levelo_inurba_marseille","lat":43.32368,"lon":5.38885,"is_reserved":false,"is_disabled":false,"rental_uris":{"android":"levelo://app?vid=e67d070d-7952-4026-91e4-a2336b118f33","ios":"levelo://app?vid=e67d070d-7952-4026-91e4-a2336b118f33"},"vehicle_type_id":"4","last_reported":1717787219,"current_range_meters":1600,"station_id":"ce4bhqp2rcd13ifvqhog","pricing_plan_id":"cebpf4jnsgd1na2vs0mg"},{"bike_id":"d9bce988-721c-4a67-89ee-f5fd43880410","system_id":"levelo_inurba_marseille","lat":43.29602,"lon":5.381084,"is_reserved":false,"is_disabled":false,"rental_uris":{"android":"levelo://app?vid=d9bce988-721c-4a67-89ee-f5fd43880410","ios":"levelo://app?vid=d9bce988-721c-4a67-89ee-f5fd43880410"},"vehicle_type_id":"4","last_reported":1717787219,"current_range_meters":8000,"station_id":"ce4bgl12rcd13ifvqbo0","pricing_plan_id":"cebpf4jnsgd1na2vs0mg"},{"bike_id":"a7efef2a-f4e4-42e7-a342-8acc9ef926bf","system_id":"levelo_inurba_marseille","lat":43.29602,"lon":5.381084,"is_reserved":false,"is_disabled":false,"rental_uris":{"android":"levelo://app?vid=a7efef2a-f4e4-42e7-a342-8acc9ef926bf","ios":"levelo://app?vid=a7efef2a-f4e4-42e7-a342-8acc9ef926bf"},"vehicle_type_id":"4","last_reported":1717787219,"current_range_meters":23200,"station_id":"ce4bgl12rcd13ifvqbo0","pricing_plan_id":"cebpf4jnsgd1na2vs0mg"},{"bike_id":"c6ef599b-a33c-477a-a0cd-2fd7d8981e22","system_id":"levelo_inurba_marseille","lat":43.293259,"lon":5.371586,"is_reserved":false,"is_disabled":false,"rental_uris":{"android":"levelo://app?vid=c6ef599b-a33c-477a-a0cd-2fd7d8981e22","ios":"levelo://app?vid=c6ef599b-a33c-477a-a0cd-2fd7d8981e22"},"vehicle_type_id":"4","last_reported":1717787219,"current_range_meters":29600,"station_id":"ce4bgh92rcd13ifvqb40","pricing_plan_id":"cebpf4jnsgd1na2vs0mg"},{"bike_id":"9e98f7b5-fbfc-4c65-afaf-b03f9a3d93a9","system_id":"levelo_inurba_marseille","lat":43.293259,"lon":5.371586,"is_reserved":false,"is_disabled":false,"rental_uris":{"android":"levelo://app?vid=9e98f7b5-fbfc-4c65-afaf-b03f9a3d93a9","ios":"levelo://app?vid=9e98f7b5-fbfc-4c65-afaf-b03f9a3d93a9"},"vehicle_type_id":"4","last_reported":1717787219,"current_range_meters":7600,"station_id":"ce4bgh92rcd13ifvqb40","pricing_plan_id":"cebpf4jnsgd1na2vs0mg"},{"bike_id":"809750cb-5fde-4a65-ae25-a06449fe7c6c","system_id":"levelo_inurba_marseille","lat":43.29276,"lon":5.3685,"is_reserved":false,"is_disabled":false,"rental_uris":{"android":"levelo://app?vid=809750cb-5fde-4a65-ae25-a06449fe7c6c","ios":"levelo://app?vid=809750cb-5fde-4a65-ae25-a06449fe7c6c"},"vehicle_type_id":"4","last_reported":1717787219,"current_range_meters":0,"station_id":"ce4bhbp2rcd13ifvqesg","pricing_plan_id":"cebpf4jnsgd1na2vs0mg"},{"bike_id":"57416c75-93c5-45c2-a758-813367ca240d","system_id":"levelo_inurba_marseille","lat":43.293009,"lon":5.374584,"is_reserved":false,"is_disabled":false,"rental_uris":{"android":"levelo://app?vid=57416c75-93c5-45c2-a758-813367ca240d","ios":"levelo://app?vid=57416c75-93c5-45c2-a758-813367ca240d"},"vehicle_type_id":"4","last_reported":1717787219,"current_range_meters":0,"station_id":"ce4bgi12rcd13ifvqb70","pricing_plan_id":"cebpf4jnsgd1na2vs0mg"},{"bike_id":"73df7b0d-b292-40b6-b931-ab26921d5779","system_id":"levelo_inurba_marseille","lat":43.293009,"lon":5.374584,"is_reserved":false,"is_disabled":false,"rental_uris":{"android":"levelo://app?vid=73df7b0d-b292-40b6-b931-ab26921d5779","ios":"levelo://app?vid=73df7b0d-b292-40b6-b931-ab26921d5779"},"vehicle_type_id":"4","last_reported":1717787219,"current_range_meters":11200,"station_id":"ce4bgi12rcd13ifvqb70","pricing_plan_id":"cebpf4jnsgd1na2vs0mg"},{"bike_id":"8d48b37b-5f16-44e4-ab59-b479bb24421d","system_id":"levelo_inurba_marseille","lat":43.293009,"lon":5.374584,"is_reserved":false,"is_disabled":false,"rental_uris":{"android":"levelo://app?vid=8d48b37b-5f16-44e4-ab59-b479bb24421d","ios":"levelo://app?vid=8d48b37b-5f16-44e4-ab59-b479bb24421d"},"vehicle_type_id":"4","last_reported":1717787219,"current_range_meters":20800,"station_id":"ce4bgi12rcd13ifvqb70","pricing_plan_id":"cebpf4jnsgd1na2vs0mg"},{"bike_id":"38e46061-8f74-48bd-99be-1620499a7a90","system_id":"levelo_inurba_marseille","lat":43.293009,"lon":5.374584,"is_reserved":false,"is_disabled":false,"rental_uris":{"android":"levelo://app?vid=38e46061-8f74-48bd-99be-1620499a7a90","ios":"levelo://app?vid=38e46061-8f74-48bd-99be-1620499a7a90"},"vehicle_type_id":"4","last_reported":1717787219,"current_range_meters":0,"station_id":"ce4bgi12rcd13ifvqb70","pricing_plan_id":"cebpf4jnsgd1na2vs0mg"},{"bike_id":"dd99b6f3-13bf-4740-9b97-95af9500bf0f","system_id":"levelo_inurba_marseille","lat":43.305994,"lon":5.393687,"is_reserved":false,"is_disabled":false,"rental_uris":{"android":"levelo://app?vid=dd99b6f3-13bf-4740-9b97-95af9500bf0f","ios":"levelo://app?vid=dd99b6f3-13bf-4740-9b97-95af9500bf0f"},"vehicle_type_id":"4","last_reported":1717787219,"current_range_meters":0,"station_id":"ce4bh0p2rcd13ifvqd80","pricing_plan_id":"cebpf4jnsgd1na2vs0mg"},{"bike_id":"bbc3b0cb-740c-4cdc-9a51-83347aeb09bb","system_id":"levelo_inurba_marseille","lat":43.293009,"lon":5.374584,"is_reserved":false,"is_disabled":false,"rental_uris":{"android":"levelo://app?vid=bbc3b0cb-740c-4cdc-9a51-83347aeb09bb","ios":"levelo://app?vid=bbc3b0cb-740c-4cdc-9a51-83347aeb09bb"},"vehicle_type_id":"4","last_reported":1717787219,"current_range_meters":25200,"station_id":"ce4bgi12rcd13ifvqb70","pricing_plan_id":"cebpf4jnsgd1na2vs0mg"},{"bike_id":"8031d8c4-b5a3-49ca-b568-6bd52ca0a211","system_id":"levelo_inurba_marseille","lat":43.30595,"lon":5.39358,"is_reserved":false,"is_disabled":false,"rental_uris":{"android":"levelo://app?vid=8031d8c4-b5a3-49ca-b568-6bd52ca0a211","ios":"levelo://app?vid=8031d8c4-b5a3-49ca-b568-6bd52ca0a211"},"vehicle_type_id":"4","last_reported":1717787219,"current_range_meters":10800,"station_id":"ce4bh0p2rcd13ifvqd80","pricing_plan_id":"cebpf4jnsgd1na2vs0mg"},{"bike_id":"137c1f6a-a470-4a17-b7f8-4905f62488df","system_id":"levelo_inurba_marseille","lat":43.293009,"lon":5.374584,"is_reserved":false,"is_disabled":false,"rental_uris":{"android":"levelo://app?vid=137c1f6a-a470-4a17-b7f8-4905f62488df","ios":"levelo://app?vid=137c1f6a-a470-4a17-b7f8-4905f62488df"},"vehicle_type_id":"4","last_reported":1717787219,"current_range_meters":6400,"station_id":"ce4bgi12rcd13ifvqb70","pricing_plan_id":"cebpf4jnsgd1na2vs0mg"},{"bike_id":"8699586d-2f5b-44a9-a2c3-ba3d6ecea0f8","system_id":"levelo_inurba_marseille","lat":43.303002,"lon":5.392142,"is_reserved":false,"is_disabled":false,"rental_uris":{"android":"levelo://app?vid=8699586d-2f5b-44a9-a2c3-ba3d6ecea0f8","ios":"levelo://app?vid=8699586d-2f5b-44a9-a2c3-ba3d6ecea0f8"},"vehicle_type_id":"4","last_reported":1717787219,"current_range_meters":0,"station_id":"ce4bgkh2rcd13ifvqbk0","pricing_plan_id":"cebpf4jnsgd1na2vs0mg"},{"bike_id":"999caff6-a566-4940-8d4f-7d06959302ce","system_id":"levelo_inurba_marseille","lat":43.2936,"lon":5.37835,"is_reserved":false,"is_disabled":false,"rental_uris":{"android":"levelo://app?vid=999caff6-a566-4940-8d4f-7d06959302ce","ios":"levelo://app?vid=999caff6-a566-4940-8d4f-7d06959302ce"},"vehicle_type_id":"4","last_reported":1717787219,"current_range_meters":800,"station_id":"ce4bgjh2rcd13ifvqbf0","pricing_plan_id":"cebpf4jnsgd1na2vs0mg"},{"bike_id":"6ce8f884-7c70-4bfe-965f-891f98acee39","system_id":"levelo_inurba_marseille","lat":43.2936,"lon":5.37835,"is_reserved":false,"is_disabled":false,"rental_uris":{"android":"levelo://app?vid=6ce8f884-7c70-4bfe-965f-891f98acee39","ios":"levelo://app?vid=6ce8f884-7c70-4bfe-965f-891f98acee39"},"vehicle_type_id":"4","last_reported":1717787219,"current_range_meters":12800,"station_id":"ce4bgjh2rcd13ifvqbf0","pricing_plan_id":"cebpf4jnsgd1na2vs0mg"},{"bike_id":"da94a0a5-7b95-47f7-8fbb-ac63ef6b52a4","system_id":"levelo_inurba_marseille","lat":43.292311,"lon":5.360731,"is_reserved":false,"is_disabled":false,"rental_uris":{"android":"levelo://app?vid=da94a0a5-7b95-47f7-8fbb-ac63ef6b52a4","ios":"levelo://app?vid=da94a0a5-7b95-47f7-8fbb-ac63ef6b52a4"},"vehicle_type_id":"4","last_reported":1717787219,"current_range_meters":24400,"station_id":"ce4bhbh2rcd13ifvqeqg","pricing_plan_id":"cebpf4jnsgd1na2vs0mg"},{"bike_id":"03603091-0cbc-4b0e-8443-c5e194dd2fdd","system_id":"levelo_inurba_marseille","lat":43.292311,"lon":5.360731,"is_reserved":false,"is_disabled":false,"rental_uris":{"android":"levelo://app?vid=03603091-0cbc-4b0e-8443-c5e194dd2fdd","ios":"levelo://app?vid=03603091-0cbc-4b0e-8443-c5e194dd2fdd"},"vehicle_type_id":"4","last_reported":1717787219,"current_range_meters":14000,"station_id":"ce4bhbh2rcd13ifvqeqg","pricing_plan_id":"cebpf4jnsgd1na2vs0mg"},{"bike_id":"a8fd3d33-7bd8-4777-8f06-84d83dc04eb7","system_id":"levelo_inurba_marseille","lat":43.30085,"lon":5.390856,"is_reserved":false,"is_disabled":false,"rental_uris":{"android":"levelo://app?vid=a8fd3d33-7bd8-4777-8f06-84d83dc04eb7","ios":"levelo://app?vid=a8fd3d33-7bd8-4777-8f06-84d83dc04eb7"},"vehicle_type_id":"4","last_reported":1717787219,"current_range_meters":8400,"station_id":"ce4bh192rcd13ifvqdb0","pricing_plan_id":"cebpf4jnsgd1na2vs0mg"},{"bike_id":"ae1ce5f4-3f64-4bba-9718-4e3ab45057e6","system_id":"levelo_inurba_marseille","lat":43.292311,"lon":5.360731,"is_reserved":false,"is_disabled":false,"rental_uris":{"android":"levelo://app?vid=ae1ce5f4-3f64-4bba-9718-4e3ab45057e6","ios":"levelo://app?vid=ae1ce5f4-3f64-4bba-9718-4e3ab45057e6"},"vehicle_type_id":"4","last_reported":1717787219,"current_range_meters":28800,"station_id":"ce4bhbh2rcd13ifvqeqg","pricing_plan_id":"cebpf4jnsgd1na2vs0mg"},{"bike_id":"eab8e99e-f766-420e-af1a-cd886073229c","system_id":"levelo_inurba_marseille","lat":43.292311,"lon":5.360731,"is_reserved":false,"is_disabled":false,"rental_uris":{"android":"levelo://app?vid=eab8e99e-f766-420e-af1a-cd886073229c","ios":"levelo://app?vid=eab8e99e-f766-420e-af1a-cd886073229c"},"vehicle_type_id":"4","last_reported":1717787219,"current_range_meters":10000,"station_id":"ce4bhbh2rcd13ifvqeqg","pricing_plan_id":"cebpf4jnsgd1na2vs0mg"},{"bike_id":"1add293a-7f4c-4a68-9066-daca56a2eb83","system_id":"levelo_inurba_marseille","lat":43.291671,"lon":5.371575,"is_reserved":false,"is_disabled":false,"rental_uris":{"android":"levelo://app?vid=1add293a-7f4c-4a68-9066-daca56a2eb83","ios":"levelo://app?vid=1add293a-7f4c-4a68-9066-daca56a2eb83"},"vehicle_type_id":"4","last_reported":1717787219,"current_range_meters":0,"station_id":"ce4bha92rcd13ifvqeh0","pricing_plan_id":"cebpf4jnsgd1na2vs0mg"},{"bike_id":"4f3eb763-7173-4a25-bdf2-fa0067072bab","system_id":"levelo_inurba_marseille","lat":43.303002,"lon":5.392142,"is_reserved":false,"is_disabled":false,"rental_uris":{"android":"levelo://app?vid=4f3eb763-7173-4a25-bdf2-fa0067072bab","ios":"levelo://app?vid=4f3eb763-7173-4a25-bdf2-fa0067072bab"},"vehicle_type_id":"4","last_reported":1717787219,"current_range_meters":9600,"station_id":"ce4bgkh2rcd13ifvqbk0","pricing_plan_id":"cebpf4jnsgd1na2vs0mg"},{"bike_id":"1faf7cdc-c518-4c44-b875-9fe86f182dcc","system_id":"levelo_inurba_marseille","lat":43.2917,"lon":5.37156,"is_reserved":false,"is_disabled":false,"rental_uris":{"android":"levelo://app?vid=1faf7cdc-c518-4c44-b875-9fe86f182dcc","ios":"levelo://app?vid=1faf7cdc-c518-4c44-b875-9fe86f182dcc"},"vehicle_type_id":"4","last_reported":1717787219,"current_range_meters":0,"station_id":"ce4bha92rcd13ifvqeh0","pricing_plan_id":"cebpf4jnsgd1na2vs0mg"},{"bike_id":"cde61f99-22f8-490c-aa9f-74c8d7d984b7","system_id":"levelo_inurba_marseille","lat":43.291671,"lon":5.371575,"is_reserved":false,"is_disabled":false,"rental_uris":{"android":"levelo://app?vid=cde61f99-22f8-490c-aa9f-74c8d7d984b7","ios":"levelo://app?vid=cde61f99-22f8-490c-aa9f-74c8d7d984b7"},"vehicle_type_id":"4","last_reported":1717787219,"current_range_meters":17200,"station_id":"ce4bha92rcd13ifvqeh0","pricing_plan_id":"cebpf4jnsgd1na2vs0mg"},{"bike_id":"731642e9-8fe0-48b8-b76c-e0781c6ec046","system_id":"levelo_inurba_marseille","lat":43.291675,"lon":5.371583,"is_reserved":false,"is_disabled":false,"rental_uris":{"android":"levelo://app?vid=731642e9-8fe0-48b8-b76c-e0781c6ec046","ios":"levelo://app?vid=731642e9-8fe0-48b8-b76c-e0781c6ec046"},"vehicle_type_id":"4","last_reported":1717787219,"current_range_meters":4000,"station_id":"ce4bha92rcd13ifvqeh0","pricing_plan_id":"cebpf4jnsgd1na2vs0mg"},{"bike_id":"100f0243-15f6-49eb-9555-c44e75ce498e","system_id":"levelo_inurba_marseille","lat":43.291671,"lon":5.371575,"is_reserved":false,"is_disabled":false,"rental_uris":{"android":"levelo://app?vid=100f0243-15f6-49eb-9555-c44e75ce498e","ios":"levelo://app?vid=100f0243-15f6-49eb-9555-c44e75ce498e"},"vehicle_type_id":"4","last_reported":1717787219,"current_range_meters":20000,"station_id":"ce4bha92rcd13ifvqeh0","pricing_plan_id":"cebpf4jnsgd1na2vs0mg"},{"bike_id":"67aea5a2-2b59-4413-8b73-8b41906ac907","system_id":"levelo_inurba_marseille","lat":43.309038,"lon":5.396546,"is_reserved":false,"is_disabled":false,"rental_uris":{"android":"levelo://app?vid=67aea5a2-2b59-4413-8b73-8b41906ac907","ios":"levelo://app?vid=67aea5a2-2b59-4413-8b73-8b41906ac907"},"vehicle_type_id":"4","last_reported":1717787219,"current_range_meters":2000,"station_id":"ce4bh012rcd13ifvqcv0","pricing_plan_id":"cebpf4jnsgd1na2vs0mg"},{"bike_id":"ea58e26c-4ac8-4772-8a81-fb79926fd16c","system_id":"levelo_inurba_marseille","lat":43.309038,"lon":5.396546,"is_reserved":false,"is_disabled":false,"rental_uris":{"android":"levelo://app?vid=ea58e26c-4ac8-4772-8a81-fb79926fd16c","ios":"levelo://app?vid=ea58e26c-4ac8-4772-8a81-fb79926fd16c"},"vehicle_type_id":"4","last_reported":1717787219,"current_range_meters":4800,"station_id":"ce4bh012rcd13ifvqcv0","pricing_plan_id":"cebpf4jnsgd1na2vs0mg"},{"bike_id":"cf4982ad-de46-42bc-b0f1-662c39c43b2e","system_id":"levelo_inurba_marseille","lat":43.313291,"lon":5.396838,"is_reserved":false,"is_disabled":false,"rental_uris":{"android":"levelo://app?vid=cf4982ad-de46-42bc-b0f1-662c39c43b2e","ios":"levelo://app?vid=cf4982ad-de46-42bc-b0f1-662c39c43b2e"},"vehicle_type_id":"4","last_reported":1717787219,"current_range_meters":18800,"station_id":"ce4bgvp2rcd13ifvqcu0","pricing_plan_id":"cebpf4jnsgd1na2vs0mg"},{"bike_id":"2b7a3e63-b059-4f7e-b1aa-dd3039144ba6","system_id":"levelo_inurba_marseille","lat":43.313291,"lon":5.396838,"is_reserved":false,"is_disabled":false,"rental_uris":{"android":"levelo://app?vid=2b7a3e63-b059-4f7e-b1aa-dd3039144ba6","ios":"levelo://app?vid=2b7a3e63-b059-4f7e-b1aa-dd3039144ba6"},"vehicle_type_id":"4","last_reported":1717787219,"current_range_meters":27200,"station_id":"ce4bgvp2rcd13ifvqcu0","pricing_plan_id":"cebpf4jnsgd1na2vs0mg"},{"bike_id":"d097d347-0654-497b-96d6-a69275617c4b","system_id":"levelo_inurba_marseille","lat":43.309047,"lon":5.396551,"is_reserved":false,"is_disabled":false,"rental_uris":{"android":"levelo://app?vid=d097d347-0654-497b-96d6-a69275617c4b","ios":"levelo://app?vid=d097d347-0654-497b-96d6-a69275617c4b"},"vehicle_type_id":"4","last_reported":1717787219,"current_range_meters":0,"station_id":"ce4bh012rcd13ifvqcv0","pricing_plan_id":"cebpf4jnsgd1na2vs0mg"},{"bike_id":"f1532dae-6afa-46cb-989c-e7297892b552","system_id":"levelo_inurba_marseille","lat":43.313291,"lon":5.396838,"is_reserved":false,"is_disabled":false,"rental_uris":{"android":"levelo://app?vid=f1532dae-6afa-46cb-989c-e7297892b552","ios":"levelo://app?vid=f1532dae-6afa-46cb-989c-e7297892b552"},"vehicle_type_id":"4","last_reported":1717787219,"current_range_meters":28800,"station_id":"ce4bgvp2rcd13ifvqcu0","pricing_plan_id":"cebpf4jnsgd1na2vs0mg"},{"bike_id":"de746d53-58de-4271-8c10-af2e5b8edaab","system_id":"levelo_inurba_marseille","lat":43.313291,"lon":5.396838,"is_reserved":false,"is_disabled":false,"rental_uris":{"android":"levelo://app?vid=de746d53-58de-4271-8c10-af2e5b8edaab","ios":"levelo://app?vid=de746d53-58de-4271-8c10-af2e5b8edaab"},"vehicle_type_id":"4","last_reported":1717787219,"current_range_meters":27200,"station_id":"ce4bgvp2rcd13ifvqcu0","pricing_plan_id":"cebpf4jnsgd1na2vs0mg"},{"bike_id":"2e6fd7ed-7746-4570-a014-9cbe112354b2","system_id":"levelo_inurba_marseille","lat":43.309047,"lon":5.396551,"is_reserved":false,"is_disabled":false,"rental_uris":{"android":"levelo://app?vid=2e6fd7ed-7746-4570-a014-9cbe112354b2","ios":"levelo://app?vid=2e6fd7ed-7746-4570-a014-9cbe112354b2"},"vehicle_type_id":"4","last_reported":1717787219,"current_range_meters":8800,"station_id":"ce4bh012rcd13ifvqcv0","pricing_plan_id":"cebpf4jnsgd1na2vs0mg"},{"bike_id":"9ece43fe-1ec2-4e8c-95ee-dd6235f1362e","system_id":"levelo_inurba_marseille","lat":43.313291,"lon":5.396838,"is_reserved":false,"is_disabled":false,"rental_uris":{"android":"levelo://app?vid=9ece43fe-1ec2-4e8c-95ee-dd6235f1362e","ios":"levelo://app?vid=9ece43fe-1ec2-4e8c-95ee-dd6235f1362e"},"vehicle_type_id":"4","last_reported":1717787219,"current_range_meters":21200,"station_id":"ce4bgvp2rcd13ifvqcu0","pricing_plan_id":"cebpf4jnsgd1na2vs0mg"},{"bike_id":"ae72e937-5b25-4c74-b8ea-f23fb9fe4ff5","system_id":"levelo_inurba_marseille","lat":43.309038,"lon":5.396546,"is_reserved":false,"is_disabled":false,"rental_uris":{"android":"levelo://app?vid=ae72e937-5b25-4c74-b8ea-f23fb9fe4ff5","ios":"levelo://app?vid=ae72e937-5b25-4c74-b8ea-f23fb9fe4ff5"},"vehicle_type_id":"4","last_reported":1717787219,"current_range_meters":16400,"station_id":"ce4bh012rcd13ifvqcv0","pricing_plan_id":"cebpf4jnsgd1na2vs0mg"},{"bike_id":"a2b47cf1-a2e8-47cd-af20-e97256b41de5","system_id":"levelo_inurba_marseille","lat":43.309047,"lon":5.396551,"is_reserved":false,"is_disabled":false,"rental_uris":{"android":"levelo://app?vid=a2b47cf1-a2e8-47cd-af20-e97256b41de5","ios":"levelo://app?vid=a2b47cf1-a2e8-47cd-af20-e97256b41de5"},"vehicle_type_id":"4","last_reported":1717787219,"current_range_meters":400,"station_id":"ce4bh012rcd13ifvqcv0","pricing_plan_id":"cebpf4jnsgd1na2vs0mg"},{"bike_id":"610c251a-d109-433a-bdff-d81fb52ee909","system_id":"levelo_inurba_marseille","lat":43.292645,"lon":5.379057,"is_reserved":false,"is_disabled":false,"rental_uris":{"android":"levelo://app?vid=610c251a-d109-433a-bdff-d81fb52ee909","ios":"levelo://app?vid=610c251a-d109-433a-bdff-d81fb52ee909"},"vehicle_type_id":"4","last_reported":1717787219,"current_range_meters":0,"station_id":"ce4bgjh2rcd13ifvqbf0","pricing_plan_id":"cebpf4jnsgd1na2vs0mg"},{"bike_id":"b5b9b9bb-e890-4a4c-8cfb-b8484c4f02c0","system_id":"levelo_inurba_marseille","lat":43.29529,"lon":5.385581,"is_reserved":false,"is_disabled":false,"rental_uris":{"android":"levelo://app?vid=b5b9b9bb-e890-4a4c-8cfb-b8484c4f02c0","ios":"levelo://app?vid=b5b9b9bb-e890-4a4c-8cfb-b8484c4f02c0"},"vehicle_type_id":"4","last_reported":1717787219,"current_range_meters":0,"station_id":"ce4bgih2rcd13ifvqba0","pricing_plan_id":"cebpf4jnsgd1na2vs0mg"},{"bike_id":"863381f2-33e2-40b4-ac95-84596b0e5c04","system_id":"levelo_inurba_marseille","lat":43.29529,"lon":5.385581,"is_reserved":false,"is_disabled":false,"rental_uris":{"android":"levelo://app?vid=863381f2-33e2-40b4-ac95-84596b0e5c04","ios":"levelo://app?vid=863381f2-33e2-40b4-ac95-84596b0e5c04"},"vehicle_type_id":"4","last_reported":1717787219,"current_range_meters":0,"station_id":"ce4bgih2rcd13ifvqba0","pricing_plan_id":"cebpf4jnsgd1na2vs0mg"},{"bike_id":"c1f6cb03-6d92-4998-91dd-9b1be27e401f","system_id":"levelo_inurba_marseille","lat":43.295139,"lon":5.385632,"is_reserved":false,"is_disabled":false,"rental_uris":{"android":"levelo://app?vid=c1f6cb03-6d92-4998-91dd-9b1be27e401f","ios":"levelo://app?vid=c1f6cb03-6d92-4998-91dd-9b1be27e401f"},"vehicle_type_id":"4","last_reported":1717787219,"current_range_meters":400,"station_id":"ce4bgih2rcd13ifvqba0","pricing_plan_id":"cebpf4jnsgd1na2vs0mg"},{"bike_id":"7d58691e-9d7b-487e-b0a8-95507676a675","system_id":"levelo_inurba_marseille","lat":43.290779,"lon":5.371482,"is_reserved":false,"is_disabled":false,"rental_uris":{"android":"levelo://app?vid=7d58691e-9d7b-487e-b0a8-95507676a675","ios":"levelo://app?vid=7d58691e-9d7b-487e-b0a8-95507676a675"},"vehicle_type_id":"4","last_reported":1717787219,"current_range_meters":5600,"station_id":"ce4bh5p2rcd13ifvqe4g","pricing_plan_id":"cebpf4jnsgd1na2vs0mg"},{"bike_id":"0c3c8c55-9ce8-4cce-8ed6-1a193a8029e5","system_id":"levelo_inurba_marseille","lat":43.290779,"lon":5.371482,"is_reserved":false,"is_disabled":false,"rental_uris":{"android":"levelo://app?vid=0c3c8c55-9ce8-4cce-8ed6-1a193a8029e5","ios":"levelo://app?vid=0c3c8c55-9ce8-4cce-8ed6-1a193a8029e5"},"vehicle_type_id":"4","last_reported":1717787219,"current_range_meters":800,"station_id":"ce4bh5p2rcd13ifvqe4g","pricing_plan_id":"cebpf4jnsgd1na2vs0mg"},{"bike_id":"4cfc1e28-0242-47ad-bb56-9af7c4efabe3","system_id":"levelo_inurba_marseille","lat":43.29063,"lon":5.37158,"is_reserved":false,"is_disabled":false,"rental_uris":{"android":"levelo://app?vid=4cfc1e28-0242-47ad-bb56-9af7c4efabe3","ios":"levelo://app?vid=4cfc1e28-0242-47ad-bb56-9af7c4efabe3"},"vehicle_type_id":"4","last_reported":1717787219,"current_range_meters":1200,"station_id":"ce4bh5p2rcd13ifvqe4g","pricing_plan_id":"cebpf4jnsgd1na2vs0mg"},{"bike_id":"c917e88c-b353-478f-82d3-571605f56daf","system_id":"levelo_inurba_marseille","lat":43.290779,"lon":5.371482,"is_reserved":false,"is_disabled":false,"rental_uris":{"android":"levelo://app?vid=c917e88c-b353-478f-82d3-571605f56daf","ios":"levelo://app?vid=c917e88c-b353-478f-82d3-571605f56daf"},"vehicle_type_id":"4","last_reported":1717787219,"current_range_meters":0,"station_id":"ce4bh5p2rcd13ifvqe4g","pricing_plan_id":"cebpf4jnsgd1na2vs0mg"},{"bike_id":"98db5c90-cffb-4642-995d-5d667ca970c7","system_id":"levelo_inurba_marseille","lat":43.302008,"lon":5.394694,"is_reserved":false,"is_disabled":false,"rental_uris":{"android":"levelo://app?vid=98db5c90-cffb-4642-995d-5d667ca970c7","ios":"levelo://app?vid=98db5c90-cffb-4642-995d-5d667ca970c7"},"vehicle_type_id":"4","last_reported":1717787219,"current_range_meters":6800,"station_id":"ce4bh0p2rcd13ifvqd70","pricing_plan_id":"cebpf4jnsgd1na2vs0mg"},{"bike_id":"3d0e8b4b-140f-4541-bc45-28de87a028ff","system_id":"levelo_inurba_marseille","lat":43.302008,"lon":5.394694,"is_reserved":false,"is_disabled":false,"rental_uris":{"android":"levelo://app?vid=3d0e8b4b-140f-4541-bc45-28de87a028ff","ios":"levelo://app?vid=3d0e8b4b-140f-4541-bc45-28de87a028ff"},"vehicle_type_id":"4","last_reported":1717787219,"current_range_meters":1200,"station_id":"ce4bh0p2rcd13ifvqd70","pricing_plan_id":"cebpf4jnsgd1na2vs0mg"},{"bike_id":"bbf2f19d-4bd2-4a27-8565-dc290556e5c8","system_id":"levelo_inurba_marseille","lat":43.290624,"lon":5.359245,"is_reserved":false,"is_disabled":false,"rental_uris":{"android":"levelo://app?vid=bbf2f19d-4bd2-4a27-8565-dc290556e5c8","ios":"levelo://app?vid=bbf2f19d-4bd2-4a27-8565-dc290556e5c8"},"vehicle_type_id":"4","last_reported":1717787219,"current_range_meters":23600,"station_id":"ce4bha92rcd13ifvqeg0","pricing_plan_id":"cebpf4jnsgd1na2vs0mg"},{"bike_id":"42106739-3fe5-4736-bc27-d6aae19424af","system_id":"levelo_inurba_marseille","lat":43.290624,"lon":5.359245,"is_reserved":false,"is_disabled":false,"rental_uris":{"android":"levelo://app?vid=42106739-3fe5-4736-bc27-d6aae19424af","ios":"levelo://app?vid=42106739-3fe5-4736-bc27-d6aae19424af"},"vehicle_type_id":"4","last_reported":1717787219,"current_range_meters":26000,"station_id":"ce4bha92rcd13ifvqeg0","pricing_plan_id":"cebpf4jnsgd1na2vs0mg"},{"bike_id":"3473f7df-a857-4ce2-88fe-e8154a367595","system_id":"levelo_inurba_marseille","lat":43.290624,"lon":5.359245,"is_reserved":false,"is_disabled":false,"rental_uris":{"android":"levelo://app?vid=3473f7df-a857-4ce2-88fe-e8154a367595","ios":"levelo://app?vid=3473f7df-a857-4ce2-88fe-e8154a367595"},"vehicle_type_id":"4","last_reported":1717787219,"current_range_meters":5200,"station_id":"ce4bha92rcd13ifvqeg0","pricing_plan_id":"cebpf4jnsgd1na2vs0mg"},{"bike_id":"0945a07c-93c7-4991-9ea4-9f088a562cae","system_id":"levelo_inurba_marseille","lat":43.29423,"lon":5.38615,"is_reserved":false,"is_disabled":false,"rental_uris":{"android":"levelo://app?vid=0945a07c-93c7-4991-9ea4-9f088a562cae","ios":"levelo://app?vid=0945a07c-93c7-4991-9ea4-9f088a562cae"},"vehicle_type_id":"4","last_reported":1717787219,"current_range_meters":15200,"station_id":"ce4bh2h2rcd13ifvqdh0","pricing_plan_id":"cebpf4jnsgd1na2vs0mg"},{"bike_id":"91f8a9ce-dcfa-4498-9946-7dce8ffae3b5","system_id":"levelo_inurba_marseille","lat":43.29422,"lon":5.38616,"is_reserved":false,"is_disabled":false,"rental_uris":{"android":"levelo://app?vid=91f8a9ce-dcfa-4498-9946-7dce8ffae3b5","ios":"levelo://app?vid=91f8a9ce-dcfa-4498-9946-7dce8ffae3b5"},"vehicle_type_id":"4","last_reported":1717787219,"current_range_meters":0,"station_id":"ce4bh2h2rcd13ifvqdh0","pricing_plan_id":"cebpf4jnsgd1na2vs0mg"},{"bike_id":"4794add3-55d7-44b4-b096-02c5f73845de","system_id":"levelo_inurba_marseille","lat":43.29419,"lon":5.38615,"is_reserved":false,"is_disabled":false,"rental_uris":{"android":"levelo://app?vid=4794add3-55d7-44b4-b096-02c5f73845de","ios":"levelo://app?vid=4794add3-55d7-44b4-b096-02c5f73845de"},"vehicle_type_id":"4","last_reported":1717787219,"current_range_meters":3600,"station_id":"ce4bh2h2rcd13ifvqdh0","pricing_plan_id":"cebpf4jnsgd1na2vs0mg"},{"bike_id":"92a38872-2a70-43ee-9c3c-7bdec6cc2972","system_id":"levelo_inurba_marseille","lat":43.28949,"lon":5.36645,"is_reserved":false,"is_disabled":false,"rental_uris":{"android":"levelo://app?vid=92a38872-2a70-43ee-9c3c-7bdec6cc2972","ios":"levelo://app?vid=92a38872-2a70-43ee-9c3c-7bdec6cc2972"},"vehicle_type_id":"4","last_reported":1717787219,"current_range_meters":400,"station_id":"ce4bhap2rcd13ifvqek0","pricing_plan_id":"cebpf4jnsgd1na2vs0mg"},{"bike_id":"c6ca12d3-8a5c-4f0b-9eb2-44108b0064f6","system_id":"levelo_inurba_marseille","lat":43.290319,"lon":5.375732,"is_reserved":false,"is_disabled":false,"rental_uris":{"android":"levelo://app?vid=c6ca12d3-8a5c-4f0b-9eb2-44108b0064f6","ios":"levelo://app?vid=c6ca12d3-8a5c-4f0b-9eb2-44108b0064f6"},"vehicle_type_id":"4","last_reported":1717787219,"current_range_meters":0,"station_id":"ce4bh692rcd13ifvqe90","pricing_plan_id":"cebpf4jnsgd1na2vs0mg"},{"bike_id":"b17822c2-e212-4542-9b60-9e7bf0652254","system_id":"levelo_inurba_marseille","lat":43.29419,"lon":5.38622,"is_reserved":false,"is_disabled":false,"rental_uris":{"android":"levelo://app?vid=b17822c2-e212-4542-9b60-9e7bf0652254","ios":"levelo://app?vid=b17822c2-e212-4542-9b60-9e7bf0652254"},"vehicle_type_id":"4","last_reported":1717787219,"current_range_meters":0,"station_id":"ce4bh2h2rcd13ifvqdh0","pricing_plan_id":"cebpf4jnsgd1na2vs0mg"},{"bike_id":"242e50ef-feee-430c-a0a0-49a3347109bb","system_id":"levelo_inurba_marseille","lat":43.290327,"lon":5.375711,"is_reserved":false,"is_disabled":false,"rental_uris":{"android":"levelo://app?vid=242e50ef-feee-430c-a0a0-49a3347109bb","ios":"levelo://app?vid=242e50ef-feee-430c-a0a0-49a3347109bb"},"vehicle_type_id":"4","last_reported":1717787219,"current_range_meters":800,"station_id":"ce4bh692rcd13ifvqe90","pricing_plan_id":"cebpf4jnsgd1na2vs0mg"},{"bike_id":"86709cb3-fe32-4ffd-87f4-8358b67b6b73","system_id":"levelo_inurba_marseille","lat":43.29415,"lon":5.38615,"is_reserved":false,"is_disabled":false,"rental_uris":{"android":"levelo://app?vid=86709cb3-fe32-4ffd-87f4-8358b67b6b73","ios":"levelo://app?vid=86709cb3-fe32-4ffd-87f4-8358b67b6b73"},"vehicle_type_id":"4","last_reported":1717787219,"current_range_meters":12400,"station_id":"ce4bh2h2rcd13ifvqdh0","pricing_plan_id":"cebpf4jnsgd1na2vs0mg"},{"bike_id":"eb47f97f-ba16-4392-a32e-df4f4a2026f4","system_id":"levelo_inurba_marseille","lat":43.289468,"lon":5.363719,"is_reserved":false,"is_disabled":false,"rental_uris":{"android":"levelo://app?vid=eb47f97f-ba16-4392-a32e-df4f4a2026f4","ios":"levelo://app?vid=eb47f97f-ba16-4392-a32e-df4f4a2026f4"},"vehicle_type_id":"4","last_reported":1717787219,"current_range_meters":13200,"station_id":"ce4bhc92rcd13ifvqetg","pricing_plan_id":"cebpf4jnsgd1na2vs0mg"},{"bike_id":"f17fd6c0-2891-45d1-b8ba-53d4adbe26bb","system_id":"levelo_inurba_marseille","lat":43.29418,"lon":5.38623,"is_reserved":false,"is_disabled":false,"rental_uris":{"android":"levelo://app?vid=f17fd6c0-2891-45d1-b8ba-53d4adbe26bb","ios":"levelo://app?vid=f17fd6c0-2891-45d1-b8ba-53d4adbe26bb"},"vehicle_type_id":"4","last_reported":1717787219,"current_range_meters":0,"station_id":"ce4bh2h2rcd13ifvqdh0","pricing_plan_id":"cebpf4jnsgd1na2vs0mg"},{"bike_id":"f1e463a5-473e-4214-b960-62d833be7d2d","system_id":"levelo_inurba_marseille","lat":43.294153,"lon":5.386305,"is_reserved":false,"is_disabled":false,"rental_uris":{"android":"levelo://app?vid=f1e463a5-473e-4214-b960-62d833be7d2d","ios":"levelo://app?vid=f1e463a5-473e-4214-b960-62d833be7d2d"},"vehicle_type_id":"4","last_reported":1717787219,"current_range_meters":1600,"station_id":"ce4bh2h2rcd13ifvqdh0","pricing_plan_id":"cebpf4jnsgd1na2vs0mg"},{"bike_id":"cc9123e6-a288-4ffe-8ae5-2568331a630e","system_id":"levelo_inurba_marseille","lat":43.29419,"lon":5.38626,"is_reserved":false,"is_disabled":false,"rental_uris":{"android":"levelo://app?vid=cc9123e6-a288-4ffe-8ae5-2568331a630e","ios":"levelo://app?vid=cc9123e6-a288-4ffe-8ae5-2568331a630e"},"vehicle_type_id":"4","last_reported":1717787219,"current_range_meters":0,"station_id":"ce4bh2h2rcd13ifvqdh0","pricing_plan_id":"cebpf4jnsgd1na2vs0mg"},{"bike_id":"c74190ca-c383-4471-b9fc-ff3e54c7b2e0","system_id":"levelo_inurba_marseille","lat":43.29415,"lon":5.38621,"is_reserved":false,"is_disabled":false,"rental_uris":{"android":"levelo://app?vid=c74190ca-c383-4471-b9fc-ff3e54c7b2e0","ios":"levelo://app?vid=c74190ca-c383-4471-b9fc-ff3e54c7b2e0"},"vehicle_type_id":"4","last_reported":1717787219,"current_range_meters":7600,"station_id":"ce4bh2h2rcd13ifvqdh0","pricing_plan_id":"cebpf4jnsgd1na2vs0mg"},{"bike_id":"754d28d8-c997-4417-b2b8-1d6d9c3f42a8","system_id":"levelo_inurba_marseille","lat":43.294162,"lon":5.386292,"is_reserved":false,"is_disabled":false,"rental_uris":{"android":"levelo://app?vid=754d28d8-c997-4417-b2b8-1d6d9c3f42a8","ios":"levelo://app?vid=754d28d8-c997-4417-b2b8-1d6d9c3f42a8"},"vehicle_type_id":"4","last_reported":1717787219,"current_range_meters":0,"station_id":"ce4bh2h2rcd13ifvqdh0","pricing_plan_id":"cebpf4jnsgd1na2vs0mg"},{"bike_id":"54f4d9b0-4275-4792-9f14-cfbb40d9060f","system_id":"levelo_inurba_marseille","lat":43.29418,"lon":5.38627,"is_reserved":false,"is_disabled":false,"rental_uris":{"android":"levelo://app?vid=54f4d9b0-4275-4792-9f14-cfbb40d9060f","ios":"levelo://app?vid=54f4d9b0-4275-4792-9f14-cfbb40d9060f"},"vehicle_type_id":"4","last_reported":1717787219,"current_range_meters":4800,"station_id":"ce4bh2h2rcd13ifvqdh0","pricing_plan_id":"cebpf4jnsgd1na2vs0mg"},{"bike_id":"72da276a-b436-46f3-a91c-785852d9847e","system_id":"levelo_inurba_marseille","lat":43.29418,"lon":5.38627,"is_reserved":false,"is_disabled":false,"rental_uris":{"android":"levelo://app?vid=72da276a-b436-46f3-a91c-785852d9847e","ios":"levelo://app?vid=72da276a-b436-46f3-a91c-785852d9847e"},"vehicle_type_id":"4","last_reported":1717787219,"current_range_meters":0,"station_id":"ce4bh2h2rcd13ifvqdh0","pricing_plan_id":"cebpf4jnsgd1na2vs0mg"},{"bike_id":"2045ebb1-5fdb-486f-9ea1-e707b4f3b33c","system_id":"levelo_inurba_marseille","lat":43.28943,"lon":5.36625,"is_reserved":false,"is_disabled":false,"rental_uris":{"android":"levelo://app?vid=2045ebb1-5fdb-486f-9ea1-e707b4f3b33c","ios":"levelo://app?vid=2045ebb1-5fdb-486f-9ea1-e707b4f3b33c"},"vehicle_type_id":"4","last_reported":1717787219,"current_range_meters":25600,"station_id":"ce4bhap2rcd13ifvqek0","pricing_plan_id":"cebpf4jnsgd1na2vs0mg"},{"bike_id":"1d9fd772-8272-485a-b640-017e4f61c6b6","system_id":"levelo_inurba_marseille","lat":43.294162,"lon":5.386292,"is_reserved":false,"is_disabled":false,"rental_uris":{"android":"levelo://app?vid=1d9fd772-8272-485a-b640-017e4f61c6b6","ios":"levelo://app?vid=1d9fd772-8272-485a-b640-017e4f61c6b6"},"vehicle_type_id":"4","last_reported":1717787219,"current_range_meters":0,"station_id":"ce4bh2h2rcd13ifvqdh0","pricing_plan_id":"cebpf4jnsgd1na2vs0mg"},{"bike_id":"2db822d0-1676-44b2-93c8-26b87d18e990","system_id":"levelo_inurba_marseille","lat":43.29028,"lon":5.37567,"is_reserved":false,"is_disabled":false,"rental_uris":{"android":"levelo://app?vid=2db822d0-1676-44b2-93c8-26b87d18e990","ios":"levelo://app?vid=2db822d0-1676-44b2-93c8-26b87d18e990"},"vehicle_type_id":"4","last_reported":1717787219,"current_range_meters":0,"station_id":"ce4bh692rcd13ifvqe90","pricing_plan_id":"cebpf4jnsgd1na2vs0mg"},{"bike_id":"bae8f681-657c-4f8b-9b58-e57a30e28658","system_id":"levelo_inurba_marseille","lat":43.29441,"lon":5.38681,"is_reserved":false,"is_disabled":false,"rental_uris":{"android":"levelo://app?vid=bae8f681-657c-4f8b-9b58-e57a30e28658","ios":"levelo://app?vid=bae8f681-657c-4f8b-9b58-e57a30e28658"},"vehicle_type_id":"4","last_reported":1717787219,"current_range_meters":14000,"station_id":"ce4bh2h2rcd13ifvqdh0","pricing_plan_id":"cebpf4jnsgd1na2vs0mg"},{"bike_id":"65dfff3b-bc2e-4ae3-b46a-f40f94abaecd","system_id":"levelo_inurba_marseille","lat":43.289184,"lon":5.366408,"is_reserved":false,"is_disabled":false,"rental_uris":{"android":"levelo://app?vid=65dfff3b-bc2e-4ae3-b46a-f40f94abaecd","ios":"levelo://app?vid=65dfff3b-bc2e-4ae3-b46a-f40f94abaecd"},"vehicle_type_id":"4","last_reported":1717787219,"current_range_meters":2400,"station_id":"ce4bhap2rcd13ifvqek0","pricing_plan_id":"cebpf4jnsgd1na2vs0mg"},{"bike_id":"d142bbf7-8ca0-4823-9f26-d027ed13cf11","system_id":"levelo_inurba_marseille","lat":43.289184,"lon":5.366408,"is_reserved":false,"is_disabled":false,"rental_uris":{"android":"levelo://app?vid=d142bbf7-8ca0-4823-9f26-d027ed13cf11","ios":"levelo://app?vid=d142bbf7-8ca0-4823-9f26-d027ed13cf11"},"vehicle_type_id":"4","last_reported":1717787219,"current_range_meters":20400,"station_id":"ce4bhap2rcd13ifvqek0","pricing_plan_id":"cebpf4jnsgd1na2vs0mg"},{"bike_id":"48ad7799-a72a-4bad-9a95-ec9f8dd46d60","system_id":"levelo_inurba_marseille","lat":43.304296,"lon":5.397513,"is_reserved":false,"is_disabled":false,"rental_uris":{"android":"levelo://app?vid=48ad7799-a72a-4bad-9a95-ec9f8dd46d60","ios":"levelo://app?vid=48ad7799-a72a-4bad-9a95-ec9f8dd46d60"},"vehicle_type_id":"4","last_reported":1717787219,"current_range_meters":2800,"station_id":"ce4bh092rcd13ifvqd20","pricing_plan_id":"cebpf4jnsgd1na2vs0mg"},{"bike_id":"dc7626d4-9bcc-45c8-8268-61a12dcaac10","system_id":"levelo_inurba_marseille","lat":43.2927,"lon":5.38438,"is_reserved":false,"is_disabled":false,"rental_uris":{"android":"levelo://app?vid=dc7626d4-9bcc-45c8-8268-61a12dcaac10","ios":"levelo://app?vid=dc7626d4-9bcc-45c8-8268-61a12dcaac10"},"vehicle_type_id":"4","last_reported":1717787219,"current_range_meters":1200,"station_id":"ce4bh692rcd13ifvqea0","pricing_plan_id":"cebpf4jnsgd1na2vs0mg"},{"bike_id":"ab9eb6a7-4341-41fd-a3e8-e94131aa9947","system_id":"levelo_inurba_marseille","lat":43.292644,"lon":5.384257,"is_reserved":false,"is_disabled":false,"rental_uris":{"android":"levelo://app?vid=ab9eb6a7-4341-41fd-a3e8-e94131aa9947","ios":"levelo://app?vid=ab9eb6a7-4341-41fd-a3e8-e94131aa9947"},"vehicle_type_id":"4","last_reported":1717787219,"current_range_meters":31200,"station_id":"ce4bh692rcd13ifvqea0","pricing_plan_id":"cebpf4jnsgd1na2vs0mg"},{"bike_id":"f3a85102-5e56-40f7-b7db-491d1eceea52","system_id":"levelo_inurba_marseille","lat":43.29272,"lon":5.3845,"is_reserved":false,"is_disabled":false,"rental_uris":{"android":"levelo://app?vid=f3a85102-5e56-40f7-b7db-491d1eceea52","ios":"levelo://app?vid=f3a85102-5e56-40f7-b7db-491d1eceea52"},"vehicle_type_id":"4","last_reported":1717787219,"current_range_meters":15200,"station_id":"ce4bh692rcd13ifvqea0","pricing_plan_id":"cebpf4jnsgd1na2vs0mg"},{"bike_id":"b690c1bb-d121-4f9a-99d9-f627ca464ed2","system_id":"levelo_inurba_marseille","lat":43.292642,"lon":5.384254,"is_reserved":false,"is_disabled":false,"rental_uris":{"android":"levelo://app?vid=b690c1bb-d121-4f9a-99d9-f627ca464ed2","ios":"levelo://app?vid=b690c1bb-d121-4f9a-99d9-f627ca464ed2"},"vehicle_type_id":"4","last_reported":1717787219,"current_range_meters":6000,"station_id":"ce4bh692rcd13ifvqea0","pricing_plan_id":"cebpf4jnsgd1na2vs0mg"},{"bike_id":"fb933214-0f60-44d6-ab7c-9d757f51fb32","system_id":"levelo_inurba_marseille","lat":43.292644,"lon":5.384257,"is_reserved":false,"is_disabled":false,"rental_uris":{"android":"levelo://app?vid=fb933214-0f60-44d6-ab7c-9d757f51fb32","ios":"levelo://app?vid=fb933214-0f60-44d6-ab7c-9d757f51fb32"},"vehicle_type_id":"4","last_reported":1717787219,"current_range_meters":5200,"station_id":"ce4bh692rcd13ifvqea0","pricing_plan_id":"cebpf4jnsgd1na2vs0mg"},{"bike_id":"36f9e31c-045f-4286-ad7a-9a5d7fc95b26","system_id":"levelo_inurba_marseille","lat":43.29267,"lon":5.38442,"is_reserved":false,"is_disabled":false,"rental_uris":{"android":"levelo://app?vid=36f9e31c-045f-4286-ad7a-9a5d7fc95b26","ios":"levelo://app?vid=36f9e31c-045f-4286-ad7a-9a5d7fc95b26"},"vehicle_type_id":"4","last_reported":1717787219,"current_range_meters":24800,"station_id":"ce4bh692rcd13ifvqea0","pricing_plan_id":"cebpf4jnsgd1na2vs0mg"},{"bike_id":"36889cf6-bdb9-414f-90e2-4f7e952d2548","system_id":"levelo_inurba_marseille","lat":43.292642,"lon":5.384254,"is_reserved":false,"is_disabled":false,"rental_uris":{"android":"levelo://app?vid=36889cf6-bdb9-414f-90e2-4f7e952d2548","ios":"levelo://app?vid=36889cf6-bdb9-414f-90e2-4f7e952d2548"},"vehicle_type_id":"4","last_reported":1717787219,"current_range_meters":2800,"station_id":"ce4bh692rcd13ifvqea0","pricing_plan_id":"cebpf4jnsgd1na2vs0mg"},{"bike_id":"fa61c6ac-b105-4bb9-bfa3-ade9fec3c587","system_id":"levelo_inurba_marseille","lat":43.2927,"lon":5.38456,"is_reserved":false,"is_disabled":false,"rental_uris":{"android":"levelo://app?vid=fa61c6ac-b105-4bb9-bfa3-ade9fec3c587","ios":"levelo://app?vid=fa61c6ac-b105-4bb9-bfa3-ade9fec3c587"},"vehicle_type_id":"4","last_reported":1717787219,"current_range_meters":29200,"station_id":"ce4bh692rcd13ifvqea0","pricing_plan_id":"cebpf4jnsgd1na2vs0mg"},{"bike_id":"606f80bc-98a6-46a0-bdf6-35d98c0fbd1d","system_id":"levelo_inurba_marseille","lat":43.29262,"lon":5.3844,"is_reserved":false,"is_disabled":false,"rental_uris":{"android":"levelo://app?vid=606f80bc-98a6-46a0-bdf6-35d98c0fbd1d","ios":"levelo://app?vid=606f80bc-98a6-46a0-bdf6-35d98c0fbd1d"},"vehicle_type_id":"4","last_reported":1717787219,"current_range_meters":6800,"station_id":"ce4bh692rcd13ifvqea0","pricing_plan_id":"cebpf4jnsgd1na2vs0mg"},{"bike_id":"4efadb60-2c38-49ac-9128-5bb8490bec2f","system_id":"levelo_inurba_marseille","lat":43.292642,"lon":5.384254,"is_reserved":false,"is_disabled":false,"rental_uris":{"android":"levelo://app?vid=4efadb60-2c38-49ac-9128-5bb8490bec2f","ios":"levelo://app?vid=4efadb60-2c38-49ac-9128-5bb8490bec2f"},"vehicle_type_id":"4","last_reported":1717787219,"current_range_meters":30800,"station_id":"ce4bh692rcd13ifvqea0","pricing_plan_id":"cebpf4jnsgd1na2vs0mg"},{"bike_id":"39afd0da-496a-4412-898d-1fba66228f2a","system_id":"levelo_inurba_marseille","lat":43.29268,"lon":5.38455,"is_reserved":false,"is_disabled":false,"rental_uris":{"android":"levelo://app?vid=39afd0da-496a-4412-898d-1fba66228f2a","ios":"levelo://app?vid=39afd0da-496a-4412-898d-1fba66228f2a"},"vehicle_type_id":"4","last_reported":1717787219,"current_range_meters":31200,"station_id":"ce4bh692rcd13ifvqea0","pricing_plan_id":"cebpf4jnsgd1na2vs0mg"},{"bike_id":"255e0348-b8a3-48ec-a66b-5c833d50f4c3","system_id":"levelo_inurba_marseille","lat":43.29266,"lon":5.38451,"is_reserved":false,"is_disabled":false,"rental_uris":{"android":"levelo://app?vid=255e0348-b8a3-48ec-a66b-5c833d50f4c3","ios":"levelo://app?vid=255e0348-b8a3-48ec-a66b-5c833d50f4c3"},"vehicle_type_id":"4","last_reported":1717787219,"current_range_meters":29200,"station_id":"ce4bh692rcd13ifvqea0","pricing_plan_id":"cebpf4jnsgd1na2vs0mg"},{"bike_id":"e5e62931-97c1-4522-8aa2-98ec23a587ec","system_id":"levelo_inurba_marseille","lat":43.29261,"lon":5.38444,"is_reserved":false,"is_disabled":false,"rental_uris":{"android":"levelo://app?vid=e5e62931-97c1-4522-8aa2-98ec23a587ec","ios":"levelo://app?vid=e5e62931-97c1-4522-8aa2-98ec23a587ec"},"vehicle_type_id":"4","last_reported":1717787219,"current_range_meters":20800,"station_id":"ce4bh692rcd13ifvqea0","pricing_plan_id":"cebpf4jnsgd1na2vs0mg"},{"bike_id":"e2147445-80d7-482e-bbe6-22001511e30f","system_id":"levelo_inurba_marseille","lat":43.29573,"lon":5.367355,"is_reserved":false,"is_disabled":false,"rental_uris":{"android":"levelo://app?vid=e2147445-80d7-482e-bbe6-22001511e30f","ios":"levelo://app?vid=e2147445-80d7-482e-bbe6-22001511e30f"},"vehicle_type_id":"4","last_reported":1717787219,"current_range_meters":2400,"station_id":"ce4bgph2rcd13ifvqc2g","pricing_plan_id":"cebpf4jnsgd1na2vs0mg"},{"bike_id":"a429a70a-993b-42d3-acef-5bbac36f4e98","system_id":"levelo_inurba_marseille","lat":43.292642,"lon":5.384254,"is_reserved":false,"is_disabled":false,"rental_uris":{"android":"levelo://app?vid=a429a70a-993b-42d3-acef-5bbac36f4e98","ios":"levelo://app?vid=a429a70a-993b-42d3-acef-5bbac36f4e98"},"vehicle_type_id":"4","last_reported":1717787219,"current_range_meters":31200,"station_id":"ce4bh692rcd13ifvqea0","pricing_plan_id":"cebpf4jnsgd1na2vs0mg"},