{"last_updated":1733213608,"ttl":60,"version":"2.2","data":{"bikes":[{"bike_id":"c6fcab72-3b24-4c75-b975-ad816d9a147b","system_id":"levelo_inurba_marseille","lat":43.24074,"lon":5.37755,"is_reserved":false,"is_disabled":true,"rental_uris":{"android":"levelo://app?vid=c6fcab72-3b24-4c75-b975-ad816d9a147b","ios":"levelo://app?vid=c6fcab72-3b24-4c75-b975-ad816d9a147b"},"vehicle_type_id":"4","last_reported":1733213608,"current_range_meters":0,"station_id":"ce4bhnp2rcd13ifvqgvg","pricing_plan_id":"cebpf4jnsgd1na2vs0mg"},{"bike_id":"54de3303-c6e0-4800-ad4e-22c247ab2926","system_id":"levelo_inurba_marseille","lat":43.30264,"lon":5.37727,"is_reserved":false,"is_disabled":false,"rental_uris":{"android":"levelo://app?vid=54de3303-c6e0-4800-ad4e-22c247ab2926","ios":"levelo://app?vid=54de3303-c6e0-4800-ad4e-22c247ab2926"},"vehicle_type_id":"4","last_reported":1733213608,"current_range_meters":28400,"station_id":"ce4bguh2rcd13ifvqcj0","pricing_plan_id":"cebpf4jnsgd1na2vs0mg"},{"bike_id":"7ebd64b2-3b0f-4222-ad9d-20406989239b","system_id":"levelo_inurba_marseille","lat":43.30152,"lon":5.38102,"is_reserved":false,"is_disabled":true,"rental_uris":{"android":"levelo://app?vid=7ebd64b2-3b0f-4222-ad9d-20406989239b","ios":"levelo://app?vid=7ebd64b2-3b0f-4222-ad9d-20406989239b"},"vehicle_type_id":"4","last_reported":1733213608,"current_range_meters":0,"station_id":"ce4bgjp2rcd13ifvqbh0","pricing_plan_id":"cebpf4jnsgd1na2vs0mg"},{"bike_id":"df479c2c-35ac-44ad-b9d6-81c89ed769ce","system_id":"levelo_inurba_marseille","lat":43.29682,"lon":5.37061,"is_reserved":false,"is_disabled":true,"rental_uris":{"android":"levelo://app?vid=df479c2c-35ac-44ad-b9d6-81c89ed769ce","ios":"levelo://app?vid=df479c2c-35ac-44ad-b9d6-81c89ed769ce"},"vehicle_type_id":"4","last_reported":1733213608,"current_range_meters":0,"station_id":"","pricing_plan_id":"cebpf4jnsgd1na2vs0mg"},{"bike_id":"8e029eaf-e104-4c5d-858d-6cd39de73d09","system_id":"levelo_inurba_marseille","lat":43.241663,"lon":5.364104,"is_reserved":false,"is_disabled":false,"rental_uris":{"android":"levelo://app?vid=8e029eaf-e104-4c5d-858d-6cd39de73d09","ios":"levelo://app?vid=8e029eaf-e104-4c5d-858d-6cd39de73d09"},"vehicle_type_id":"4","last_reported":1733213608,"current_range_meters":16000,"station_id":"cpo36qri1sfpv3e86is0","pricing_plan_id":"cebpf4jnsgd1na2vs0mg"},{"bike_id":"bd8cd1c7-abef-42cd-bb74-c23362a9f370","system_id":"levelo_inurba_marseille","lat":43.2942,"lon":5.38619,"is_reserved":false,"is_disabled":true,"rental_uris":{"android":"levelo://app?vid=bd8cd1c7-abef-42cd-bb74-c23362a9f370","ios":"levelo://app?vid=bd8cd1c7-abef-42cd-bb74-c23362a9f370"},"vehicle_type_id":"4","last_reported":1733213608,"current_range_meters":17600,"station_id":"ce4bh2h2rcd13ifvqdh0","pricing_plan_id":"cebpf4jnsgd1na2vs0mg"},{"bike_id":"fd85f247-bc9f-4512-8957-89e7641ccdee","system_id":"levelo_inurba_marseille","lat":43.32481,"lon":5.36572,"is_reserved":false,"is_disabled":false,"rental_uris":{"android":"levelo://app?vid=fd85f247-bc9f-4512-8957-89e7641ccdee","ios":"levelo://app?vid=fd85f247-bc9f-4512-8957-89e7641ccdee"},"vehicle_type_id":"4","last_reported":1733213608,"current_range_meters":39200,"station_id":"ce4bhs12rcd13ifvqhvg","pricing_plan_id":"cebpf4jnsgd1na2vs0mg"},{"bike_id":"3d4f3e6d-e673-4ae5-9630-cf4eb59955a3","system_id":"levelo_inurba_marseille","lat":43.26947,"lon":5.38645,"is_reserved":false,"is_disabled":false,"rental_uris":{"android":"levelo://app?vid=3d4f3e6d-e673-4ae5-9630-cf4eb59955a3","ios":"levelo://app?vid=3d4f3e6d-e673-4ae5-9630-cf4eb59955a3"},"vehicle_type_id":"4","last_reported":1733213608,"current_range_meters":27200,"station_id":"ce4bhh92rcd13ifvqfh0","pricing_plan_id":"cebpf4jnsgd1na2vs0mg"},{"bike_id":"12652c73-7b25-4805-92ca-4c9bb1159096","system_id":"levelo_inurba_marseille","lat":43.27616,"lon":5.36099,"is_reserved":false,"is_disabled":true,"rental_uris":{"android":"levelo://app?vid=12652c73-7b25-4805-92ca-4c9bb1159096","ios":"levelo://app?vid=12652c73-7b25-4805-92ca-4c9bb1159096"},"vehicle_type_id":"4","last_reported":1733213608,"current_range_meters":38800,"station_id":"ce4bgj92rcd13ifvqbe0","pricing_plan_id":"cebpf4jnsgd1na2vs0mg"},{"bike_id":"4c49a6ec-87f1-469b-b46c-51fa3d37c9d3","system_id":"levelo_inurba_marseille","lat":43.31591,"lon":5.38135,"is_reserved":false,"is_disabled":false,"rental_uris":{"android":"levelo://app?vid=4c49a6ec-87f1-469b-b46c-51fa3d37c9d3","ios":"levelo://app?vid=4c49a6ec-87f1-469b-b46c-51fa3d37c9d3"},"vehicle_type_id":"4","last_reported":1733213608,"current_range_meters":38800,"station_id":"","pricing_plan_id":"cebpf4jnsgd1na2vs0mg"},{"bike_id":"9dfb3ae0-2ee3-42e6-bc73-2b1ac76e82bc","system_id":"levelo_inurba_marseille","lat":43.3046,"lon":5.37899,"is_reserved":false,"is_disabled":true,"rental_uris":{"android":"levelo://app?vid=9dfb3ae0-2ee3-42e6-bc73-2b1ac76e82bc","ios":"levelo://app?vid=9dfb3ae0-2ee3-42e6-bc73-2b1ac76e82bc"},"vehicle_type_id":"4","last_reported":1733213608,"current_range_meters":0,"station_id":"ce4bgup2rcd13ifvqcn0","pricing_plan_id":"cebpf4jnsgd1na2vs0mg"},{"bike_id":"6b8af10b-9bad-493f-8078-b0d3c76e53db","system_id":"levelo_inurba_marseille","lat":43.30901,"lon":5.37185,"is_reserved":false,"is_disabled":false,"rental_uris":{"android":"levelo://app?vid=6b8af10b-9bad-493f-8078-b0d3c76e53db","ios":"levelo://app?vid=6b8af10b-9bad-493f-8078-b0d3c76e53db"},"vehicle_type_id":"4","last_reported":1733213608,"current_range_meters":31200,"station_id":"ce4bguh2rcd13ifvqckg","pricing_plan_id":"cebpf4jnsgd1na2vs0mg"},{"bike_id":"95100176-7ead-4230-932c-4b0bbddddb86","system_id":"levelo_inurba_marseille","lat":43.32493,"lon":5.36564,"is_reserved":false,"is_disabled":false,"rental_uris":{"android":"levelo://app?vid=95100176-7ead-4230-932c-4b0bbddddb86","ios":"levelo://app?vid=95100176-7ead-4230-932c-4b0bbddddb86"},"vehicle_type_id":"4","last_reported":1733213608,"current_range_meters":5600,"station_id":"ce4bhs12rcd13ifvqhvg","pricing_plan_id":"cebpf4jnsgd1na2vs0mg"},{"bike_id":"02f5618e-66bf-4911-a327-d72d361f58c9","system_id":"levelo_inurba_marseille","lat":43.30174,"lon":5.36619,"is_reserved":false,"is_disabled":false,"rental_uris":{"android":"levelo://app?vid=02f5618e-66bf-4911-a327-d72d361f58c9","ios":"levelo://app?vid=02f5618e-66bf-4911-a327-d72d361f58c9"},"vehicle_type_id":"4","last_reported":1733213608,"current_range_meters":38800,"station_id":"ce4bgrh2rcd13ifvqc8g","pricing_plan_id":"cebpf4jnsgd1na2vs0mg"},{"bike_id":"7d6771eb-b81f-40e5-9970-c744b4660133","system_id":"levelo_inurba_marseille","lat":43.24171,"lon":5.3972,"is_reserved":false,"is_disabled":false,"rental_uris":{"android":"levelo://app?vid=7d6771eb-b81f-40e5-9970-c744b4660133","ios":"levelo://app?vid=7d6771eb-b81f-40e5-9970-c744b4660133"},"vehicle_type_id":"4","last_reported":1733213608,"current_range_meters":26000,"station_id":"ce4bhn12rcd13ifvqgpg","pricing_plan_id":"cebpf4jnsgd1na2vs0mg"},{"bike_id":"8bd642b2-0279-44c7-9ee2-fc3b57332c83","system_id":"levelo_inurba_marseille","lat":43.27455,"lon":5.40073,"is_reserved":false,"is_disabled":true,"rental_uris":{"android":"levelo://app?vid=8bd642b2-0279-44c7-9ee2-fc3b57332c83","ios":"levelo://app?vid=8bd642b2-0279-44c7-9ee2-fc3b57332c83"},"vehicle_type_id":"4","last_reported":1733213608,"current_range_meters":0,"station_id":"","pricing_plan_id":"cebpf4jnsgd1na2vs0mg"},{"bike_id":"83437d36-78d2-42fa-99fb-a4a968b35ce8","system_id":"levelo_inurba_marseille","lat":43.28143,"lon":5.42649,"is_reserved":false,"is_disabled":false,"rental_uris":{"android":"levelo://app?vid=83437d36-78d2-42fa-99fb-a4a968b35ce8","ios":"levelo://app?vid=83437d36-78d2-42fa-99fb-a4a968b35ce8"},"vehicle_type_id":"4","last_reported":1733213608,"current_range_meters":39200,"station_id":"ce4bhnh2rcd13ifvqgug","pricing_plan_id":"cebpf4jnsgd1na2vs0mg"},{"bike_id":"6450ee6a-f283-4027-878c-a49d7da239d1","system_id":"levelo_inurba_marseille","lat":43.24076,"lon":5.37763,"is_reserved":false,"is_disabled":false,"rental_uris":{"android":"levelo://app?vid=6450ee6a-f283-4027-878c-a49d7da239d1","ios":"levelo://app?vid=6450ee6a-f283-4027-878c-a49d7da239d1"},"vehicle_type_id":"4","last_reported":1733213608,"current_range_meters":24800,"station_id":"ce4bhnp2rcd13ifvqgvg","pricing_plan_id":"cebpf4jnsgd1na2vs0mg"},{"bike_id":"f4cc507a-ccac-409f-bfee-46a316df316f","system_id":"levelo_inurba_marseille","lat":43.29265,"lon":5.36847,"is_reserved":false,"is_disabled":false,"rental_uris":{"android":"levelo://app?vid=f4cc507a-ccac-409f-bfee-46a316df316f","ios":"levelo://app?vid=f4cc507a-ccac-409f-bfee-46a316df316f"},"vehicle_type_id":"4","last_reported":1733213608,"current_range_meters":19200,"station_id":"ce4bhbp2rcd13ifvqesg","pricing_plan_id":"cebpf4jnsgd1na2vs0mg"},{"bike_id":"6fbc2816-a0f9-48a3-bb75-5053a9cf04da","system_id":"levelo_inurba_marseille","lat":43.29279,"lon":5.36851,"is_reserved":false,"is_disabled":false,"rental_uris":{"android":"levelo://app?vid=6fbc2816-a0f9-48a3-bb75-5053a9cf04da","ios":"levelo://app?vid=6fbc2816-a0f9-48a3-bb75-5053a9cf04da"},"vehicle_type_id":"4","last_reported":1733213608,"current_range_meters":5600,"station_id":"ce4bhbp2rcd13ifvqesg","pricing_plan_id":"cebpf4jnsgd1na2vs0mg"},{"bike_id":"c0bec7ea-31af-49de-8a97-a7d6bf5d8bb8","system_id":"levelo_inurba_marseille","lat":43.2905,"lon":5.35915,"is_reserved":false,"is_disabled":true,"rental_uris":{"android":"levelo://app?vid=c0bec7ea-31af-49de-8a97-a7d6bf5d8bb8","ios":"levelo://app?vid=c0bec7ea-31af-49de-8a97-a7d6bf5d8bb8"},"vehicle_type_id":"4","last_reported":1733213608,"current_range_meters":38800,"station_id":"ce4bha92rcd13ifvqeg0","pricing_plan_id":"cebpf4jnsgd1na2vs0mg"},{"bike_id":"6bb72144-ae81-4147-8990-dcfa4f7af830","system_id":"levelo_inurba_marseille","lat":43.30469,"lon":5.37906,"is_reserved":false,"is_disabled":false,"rental_uris":{"android":"levelo://app?vid=6bb72144-ae81-4147-8990-dcfa4f7af830","ios":"levelo://app?vid=6bb72144-ae81-4147-8990-dcfa4f7af830"},"vehicle_type_id":"4","last_reported":1733213608,"current_range_meters":38000,"station_id":"ce4bgup2rcd13ifvqcn0","pricing_plan_id":"cebpf4jnsgd1na2vs0mg"},{"bike_id":"a705c847-00e0-4371-9439-cd7bb591162e","system_id":"levelo_inurba_marseille","lat":43.24641,"lon":5.3889,"is_reserved":false,"is_disabled":true,"rental_uris":{"android":"levelo://app?vid=a705c847-00e0-4371-9439-cd7bb591162e","ios":"levelo://app?vid=a705c847-00e0-4371-9439-cd7bb591162e"},"vehicle_type_id":"4","last_reported":1733213608,"current_range_meters":0,"station_id":"ce4bhg12rcd13ifvqf60","pricing_plan_id":"cebpf4jnsgd1na2vs0mg"},{"bike_id":"e4984d1b-78ce-4e40-acb4-8ed7321d274d","system_id":"levelo_inurba_marseille","lat":43.30933,"lon":5.40144,"is_reserved":false,"is_disabled":false,"rental_uris":{"android":"levelo://app?vid=e4984d1b-78ce-4e40-acb4-8ed7321d274d","ios":"levelo://app?vid=e4984d1b-78ce-4e40-acb4-8ed7321d274d"},"vehicle_type_id":"4","last_reported":1733213608,"current_range_meters":38800,"station_id":"ce4bgvp2rcd13ifvqct0","pricing_plan_id":"cebpf4jnsgd1na2vs0mg"},{"bike_id":"5945b40e-6cb4-4d47-a5ed-db0cdcd2a556","system_id":"levelo_inurba_marseille","lat":43.25934,"lon":5.40905,"is_reserved":false,"is_disabled":false,"rental_uris":{"android":"levelo://app?vid=5945b40e-6cb4-4d47-a5ed-db0cdcd2a556","ios":"levelo://app?vid=5945b40e-6cb4-4d47-a5ed-db0cdcd2a556"},"vehicle_type_id":"4","last_reported":1733213608,"current_range_meters":26800,"station_id":"ce4bhm92rcd13ifvqglg","pricing_plan_id":"cebpf4jnsgd1na2vs0mg"},{"bike_id":"b3f478ac-3b05-4edf-bdbf-76399090f8e9","system_id":"levelo_inurba_marseille","lat":43.30002,"lon":5.37647,"is_reserved":false,"is_disabled":true,"rental_uris":{"android":"levelo://app?vid=b3f478ac-3b05-4edf-bdbf-76399090f8e9","ios":"levelo://app?vid=b3f478ac-3b05-4edf-bdbf-76399090f8e9"},"vehicle_type_id":"4","last_reported":1733213608,"current_range_meters":0,"station_id":"","pricing_plan_id":"cebpf4jnsgd1na2vs0mg"},{"bike_id":"c3587c28-5435-41c6-a9b7-aa468e6b19aa","system_id":"levelo_inurba_marseille","lat":43.29746,"lon":5.37916,"is_reserved":false,"is_disabled":true,"rental_uris":{"android":"levelo://app?vid=c3587c28-5435-41c6-a9b7-aa468e6b19aa","ios":"levelo://app?vid=c3587c28-5435-41c6-a9b7-aa468e6b19aa"},"vehicle_type_id":"4","last_reported":1733213608,"current_range_meters":0,"station_id":"","pricing_plan_id":"cebpf4jnsgd1na2vs0mg"},{"bike_id":"4dd4e57a-22bb-4bd8-94dc-dd683308d373","system_id":"levelo_inurba_marseille","lat":43.31077,"lon":5.42435,"is_reserved":false,"is_disabled":false,"rental_uris":{"android":"levelo://app?vid=4dd4e57a-22bb-4bd8-94dc-dd683308d373","ios":"levelo://app?vid=4dd4e57a-22bb-4bd8-94dc-dd683308d373"},"vehicle_type_id":"4","last_reported":1733213608,"current_range_meters":30400,"station_id":"ce4bhp92rcd13ifvqhag","pricing_plan_id":"cebpf4jnsgd1na2vs0mg"},{"bike_id":"fd30964c-7b67-4e87-9cf3-20dccc1e1a48","system_id":"levelo_inurba_marseille","lat":43.31337,"lon":5.36706,"is_reserved":false,"is_disabled":false,"rental_uris":{"android":"levelo://app?vid=fd30964c-7b67-4e87-9cf3-20dccc1e1a48","ios":"levelo://app?vid=fd30964c-7b67-4e87-9cf3-20dccc1e1a48"},"vehicle_type_id":"4","last_reported":1733213608,"current_range_meters":9200,"station_id":"ce4bgr92rcd13ifvqc6g","pricing_plan_id":"cebpf4jnsgd1na2vs0mg"},{"bike_id":"e8d9fcd3-6c4c-4c2e-a87e-41c5e4dfa6d0","system_id":"levelo_inurba_marseille","lat":43.25438,"lon":5.38158,"is_reserved":false,"is_disabled":true,"rental_uris":{"android":"levelo://app?vid=e8d9fcd3-6c4c-4c2e-a87e-41c5e4dfa6d0","ios":"levelo://app?vid=e8d9fcd3-6c4c-4c2e-a87e-41c5e4dfa6d0"},"vehicle_type_id":"4","last_reported":1733213608,"current_range_meters":0,"station_id":"","pricing_plan_id":"cebpf4jnsgd1na2vs0mg"},{"bike_id":"e7c2b082-ef91-42b1-9ef0-9e4329cee9cb","system_id":"levelo_inurba_marseille","lat":43.29849,"lon":5.40349,"is_reserved":false,"is_disabled":true,"rental_uris":{"android":"levelo://app?vid=e7c2b082-ef91-42b1-9ef0-9e4329cee9cb","ios":"levelo://app?vid=e7c2b082-ef91-42b1-9ef0-9e4329cee9cb"},"vehicle_type_id":"4","last_reported":1733213608,"current_range_meters":0,"station_id":"","pricing_plan_id":"cebpf4jnsgd1na2vs0mg"},{"bike_id":"101e72cb-5bc1-49ec-be2d-1e8628e565f6","system_id":"levelo_inurba_marseille","lat":43.31504,"lon":5.37299,"is_reserved":false,"is_disabled":true,"rental_uris":{"android":"levelo://app?vid=101e72cb-5bc1-49ec-be2d-1e8628e565f6","ios":"levelo://app?vid=101e72cb-5bc1-49ec-be2d-1e8628e565f6"},"vehicle_type_id":"4","last_reported":1733213608,"current_range_meters":33600,"station_id":"ce4bgt12rcd13ifvqcd0","pricing_plan_id":"cebpf4jnsgd1na2vs0mg"},{"bike_id":"4673f8d8-8295-437d-8f1d-a884bed9d1e4","system_id":"levelo_inurba_marseille","lat":43.23147,"lon":5.437194,"is_reserved":false,"is_disabled":false,"rental_uris":{"android":"levelo://app?vid=4673f8d8-8295-437d-8f1d-a884bed9d1e4","ios":"levelo://app?vid=4673f8d8-8295-437d-8f1d-a884bed9d1e4"},"vehicle_type_id":"4","last_reported":1733213608,"current_range_meters":39200,"station_id":"ce4bhmp2rcd13ifvqgog","pricing_plan_id":"cebpf4jnsgd1na2vs0mg"},{"bike_id":"2c72c098-30be-41a7-b757-57da4dff24e1","system_id":"levelo_inurba_marseille","lat":43.24177,"lon":5.39733,"is_reserved":false,"is_disabled":false,"rental_uris":{"android":"levelo://app?vid=2c72c098-30be-41a7-b757-57da4dff24e1","ios":"levelo://app?vid=2c72c098-30be-41a7-b757-57da4dff24e1"},"vehicle_type_id":"4","last_reported":1733213608,"current_range_meters":21600,"station_id":"ce4bhn12rcd13ifvqgpg","pricing_plan_id":"cebpf4jnsgd1na2vs0mg"},{"bike_id":"c8434105-f78e-4aab-af16-9f7de171fa08","system_id":"levelo_inurba_marseille","lat":43.32484,"lon":5.36566,"is_reserved":false,"is_disabled":false,"rental_uris":{"android":"levelo://app?vid=c8434105-f78e-4aab-af16-9f7de171fa08","ios":"levelo://app?vid=c8434105-f78e-4aab-af16-9f7de171fa08"},"vehicle_type_id":"4","last_reported":1733213608,"current_range_meters":35600,"station_id":"ce4bhs12rcd13ifvqhvg","pricing_plan_id":"cebpf4jnsgd1na2vs0mg"},{"bike_id":"4648f0b4-9aae-4ee8-bd15-1c51dbb71432","system_id":"levelo_inurba_marseille","lat":43.30152,"lon":5.38079,"is_reserved":false,"is_disabled":false,"rental_uris":{"android":"levelo://app?vid=4648f0b4-9aae-4ee8-bd15-1c51dbb71432","ios":"levelo://app?vid=4648f0b4-9aae-4ee8-bd15-1c51dbb71432"},"vehicle_type_id":"4","last_reported":1733213608,"current_range_meters":38800,"station_id":"ce4bgjp2rcd13ifvqbh0","pricing_plan_id":"cebpf4jnsgd1na2vs0mg"},{"bike_id":"96693db7-b597-448a-8bfe-613a90735916","system_id":"levelo_inurba_marseille","lat":43.28009,"lon":5.40007,"is_reserved":false,"is_disabled":false,"rental_uris":{"android":"levelo://app?vid=96693db7-b597-448a-8bfe-613a90735916","ios":"levelo://app?vid=96693db7-b597-448a-8bfe-613a90735916"},"vehicle_type_id":"4","last_reported":1733213608,"current_range_meters":30800,"station_id":"ce4bho92rcd13ifvqh4g","pricing_plan_id":"cebpf4jnsgd1na2vs0mg"},{"bike_id":"052a1e58-88fa-43c4-a493-9df8526488c7","system_id":"levelo_inurba_marseille","lat":43.29199,"lon":5.39314,"is_reserved":false,"is_disabled":true,"rental_uris":{"android":"levelo://app?vid=052a1e58-88fa-43c4-a493-9df8526488c7","ios":"levelo://app?vid=052a1e58-88fa-43c4-a493-9df8526488c7"},"vehicle_type_id":"4","last_reported":1733213608,"current_range_meters":8800,"station_id":"ce4bh192rcd13ifvqdd0","pricing_plan_id":"cebpf4jnsgd1na2vs0mg"},{"bike_id":"34ed7b16-e707-4c30-bb65-0c88ea055863","system_id":"levelo_inurba_marseille","lat":43.30806,"lon":5.43522,"is_reserved":false,"is_disabled":true,"rental_uris":{"android":"levelo://app?vid=34ed7b16-e707-4c30-bb65-0c88ea055863","ios":"levelo://app?vid=34ed7b16-e707-4c30-bb65-0c88ea055863"},"vehicle_type_id":"4","last_reported":1733213608,"current_range_meters":11200,"station_id":"ce4bhph2rcd13ifvqheg","pricing_plan_id":"cebpf4jnsgd1na2vs0mg"},{"bike_id":"13991815-9084-4a7d-84db-014cb8cdec66","system_id":"levelo_inurba_marseille","lat":43.29021,"lon":5.39965,"is_reserved":false,"is_disabled":false,"rental_uris":{"android":"levelo://app?vid=13991815-9084-4a7d-84db-014cb8cdec66","ios":"levelo://app?vid=13991815-9084-4a7d-84db-014cb8cdec66"},"vehicle_type_id":"4","last_reported":1733213608,"current_range_meters":34800,"station_id":"ce4bh392rcd13ifvqdm0","pricing_plan_id":"cebpf4jnsgd1na2vs0mg"},{"bike_id":"7f9f3d2e-2c33-4e9f-af7d-e28e797af1e6","system_id":"levelo_inurba_marseille","lat":43.28154,"lon":5.42643,"is_reserved":false,"is_disabled":false,"rental_uris":{"android":"levelo://app?vid=7f9f3d2e-2c33-4e9f-af7d-e28e797af1e6","ios":"levelo://app?vid=7f9f3d2e-2c33-4e9f-af7d-e28e797af1e6"},"vehicle_type_id":"4","last_reported":1733213608,"current_range_meters":38800,"station_id":"ce4bhnh2rcd13ifvqgug","pricing_plan_id":"cebpf4jnsgd1na2vs0mg"},{"bike_id":"66be51ea-e4b0-4ae8-91ab-649c9fc82df9","system_id":"levelo_inurba_marseille","lat":43.28147,"lon":5.42641,"is_reserved":false,"is_disabled":false,"rental_uris":{"android":"levelo://app?vid=66be51ea-e4b0-4ae8-91ab-649c9fc82df9","ios":"levelo://app?vid=66be51ea-e4b0-4ae8-91ab-649c9fc82df9"},"vehicle_type_id":"4","last_reported":1733213608,"current_range_meters":13600,"station_id":"ce4bhnh2rcd13ifvqgug","pricing_plan_id":"cebpf4jnsgd1na2vs0mg"},{"bike_id":"460edbbc-7a55-43f3-bf55-b9fec7ea3a39","system_id":"levelo_inurba_marseille","lat":43.31322,"lon":5.36647,"is_reserved":false,"is_disabled":false,"rental_uris":{"android":"levelo://app?vid=460edbbc-7a55-43f3-bf55-b9fec7ea3a39","ios":"levelo://app?vid=460edbbc-7a55-43f3-bf55-b9fec7ea3a39"},"vehicle_type_id":"4","last_reported":1733213608,"current_range_meters":8400,"station_id":"","pricing_plan_id":"cebpf4jnsgd1na2vs0mg"},{"bike_id":"0f14652d-084e-4c19-8586-135ef442e46f","system_id":"levelo_inurba_marseille","lat":43.26943,"lon":5.3863,"is_reserved":false,"is_disabled":false,"rental_uris":{"android":"levelo://app?vid=0f14652d-084e-4c19-8586-135ef442e46f","ios":"levelo://app?vid=0f14652d-084e-4c19-8586-135ef442e46f"},"vehicle_type_id":"4","last_reported":1733213608,"current_range_meters":36800,"station_id":"ce4bhh92rcd13ifvqfh0","pricing_plan_id":"cebpf4jnsgd1na2vs0mg"},{"bike_id":"16bea42d-3248-41fd-8b51-39fb3d7ec2c4","system_id":"levelo_inurba_marseille","lat":43.2647,"lon":5.38529,"is_reserved":false,"is_disabled":true,"rental_uris":{"android":"levelo://app?vid=16bea42d-3248-41fd-8b51-39fb3d7ec2c4","ios":"levelo://app?vid=16bea42d-3248-41fd-8b51-39fb3d7ec2c4"},"vehicle_type_id":"4","last_reported":1733213608,"current_range_meters":0,"station_id":"","pricing_plan_id":"cebpf4jnsgd1na2vs0mg"},{"bike_id":"21d0c3c4-d980-4f5f-b80b-ac5ea02d4220","system_id":"levelo_inurba_marseille","lat":43.24067,"lon":5.3776,"is_reserved":false,"is_disabled":false,"rental_uris":{"android":"levelo://app?vid=21d0c3c4-d980-4f5f-b80b-ac5ea02d4220","ios":"levelo://app?vid=21d0c3c4-d980-4f5f-b80b-ac5ea02d4220"},"vehicle_type_id":"4","last_reported":1733213608,"current_range_meters":39200,"station_id":"ce4bhnp2rcd13ifvqgvg","pricing_plan_id":"cebpf4jnsgd1na2vs0mg"},{"bike_id":"2b54ddc5-0583-4fc9-accb-0a4c7f0b096a","system_id":"levelo_inurba_marseille","lat":43.26686,"lon":5.38272,"is_reserved":false,"is_disabled":false,"rental_uris":{"android":"levelo://app?vid=2b54ddc5-0583-4fc9-accb-0a4c7f0b096a","ios":"levelo://app?vid=2b54ddc5-0583-4fc9-accb-0a4c7f0b096a"},"vehicle_type_id":"4","last_reported":1733213608,"current_range_meters":27200,"station_id":"ce4bhg92rcd13ifvqf90","pricing_plan_id":"cebpf4jnsgd1na2vs0mg"},{"bike_id":"eaa73896-04a8-4ef6-a4c7-4d4e56920b82","system_id":"levelo_inurba_marseille","lat":43.29291,"lon":5.37446,"is_reserved":false,"is_disabled":true,"rental_uris":{"android":"levelo://app?vid=eaa73896-04a8-4ef6-a4c7-4d4e56920b82","ios":"levelo://app?vid=eaa73896-04a8-4ef6-a4c7-4d4e56920b82"},"vehicle_type_id":"4","last_reported":1733213608,"current_range_meters":0,"station_id":"ce4bgi12rcd13ifvqb70","pricing_plan_id":"cebpf4jnsgd1na2vs0mg"},{"bike_id":"db3d52c9-fc2c-4bbd-9a14-2692077e7416","system_id":"levelo_inurba_marseille","lat":43.27816,"lon":5.40717,"is_reserved":false,"is_disabled":false,"rental_uris":{"android":"levelo://app?vid=db3d52c9-fc2c-4bbd-9a14-2692077e7416","ios":"levelo://app?vid=db3d52c9-fc2c-4bbd-9a14-2692077e7416"},"vehicle_type_id":"4","last_reported":1733213608,"current_range_meters":10800,"station_id":"ce4bhnh2rcd13ifvqgtg","pricing_plan_id":"cebpf4jnsgd1na2vs0mg"},{"bike_id":"f343a832-b6b0-4a03-b073-92a5c4223d7e","system_id":"levelo_inurba_marseille","lat":43.31351,"lon":5.3672,"is_reserved":false,"is_disabled":false,"rental_uris":{"android":"levelo://app?vid=f343a832-b6b0-4a03-b073-92a5c4223d7e","ios":"levelo://app?vid=f343a832-b6b0-4a03-b073-92a5c4223d7e"},"vehicle_type_id":"4","last_reported":1733213608,"current_range_meters":32800,"station_id":"ce4bgr92rcd13ifvqc6g","pricing_plan_id":"cebpf4jnsgd1na2vs0mg"},{"bike_id":"f6cc9804-8427-412d-b1e6-763226da6ed7","system_id":"levelo_inurba_marseille","lat":43.312757,"lon":5.401647,"is_reserved":false,"is_disabled":true,"rental_uris":{"android":"levelo://app?vid=f6cc9804-8427-412d-b1e6-763226da6ed7","ios":"levelo://app?vid=f6cc9804-8427-412d-b1e6-763226da6ed7"},"vehicle_type_id":"4","last_reported":1733213608,"current_range_meters":0,"station_id":"ce4bh092rcd13ifvqd30","pricing_plan_id":"cebpf4jnsgd1na2vs0mg"},{"bike_id":"d1635867-d647-434e-b017-c94e961e2357","system_id":"levelo_inurba_marseille","lat":43.24069,"lon":5.37743,"is_reserved":false,"is_disabled":false,"rental_uris":{"android":"levelo://app?vid=d1635867-d647-434e-b017-c94e961e2357","ios":"levelo://app?vid=d1635867-d647-434e-b017-c94e961e2357"},"vehicle_type_id":"4","last_reported":1733213608,"current_range_meters":10800,"station_id":"ce4bhnp2rcd13ifvqgvg","pricing_plan_id":"cebpf4jnsgd1na2vs0mg"},{"bike_id":"933fffb5-f90f-4eb1-8729-0bbb0d4e76f5","system_id":"levelo_inurba_marseille","lat":43.31345,"lon":5.36711,"is_reserved":false,"is_disabled":false,"rental_uris":{"android":"levelo://app?vid=933fffb5-f90f-4eb1-8729-0bbb0d4e76f5","ios":"levelo://app?vid=933fffb5-f90f-4eb1-8729-0bbb0d4e76f5"},"vehicle_type_id":"4","last_reported":1733213608,"current_range_meters":29600,"station_id":"ce4bgr92rcd13ifvqc6g","pricing_plan_id":"cebpf4jnsgd1na2vs0mg"},{"bike_id":"729c22fd-a73f-4f2f-9049-05e0eb554392","system_id":"levelo_inurba_marseille","lat":43.2902,"lon":5.39931,"is_reserved":false,"is_disabled":true,"rental_uris":{"android":"levelo://app?vid=729c22fd-a73f-4f2f-9049-05e0eb554392","ios":"levelo://app?vid=729c22fd-a73f-4f2f-9049-05e0eb554392"},"vehicle_type_id":"4","last_reported":1733213608,"current_range_meters":1200,"station_id":"ce4bh392rcd13ifvqdm0","pricing_plan_id":"cebpf4jnsgd1na2vs0mg"},{"bike_id":"c30a7751-51da-4928-9b3c-3a4813d84714","system_id":"levelo_inurba_marseille","lat":43.28933,"lon":5.36642,"is_reserved":false,"is_disabled":true,"rental_uris":{"android":"levelo://app?vid=c30a7751-51da-4928-9b3c-3a4813d84714","ios":"levelo://app?vid=c30a7751-51da-4928-9b3c-3a4813d84714"},"vehicle_type_id":"4","last_reported":1733213608,"current_range_meters":12400,"station_id":"ce4bhap2rcd13ifvqek0","pricing_plan_id":"cebpf4jnsgd1na2vs0mg"},{"bike_id":"8a44faba-a7bd-47f9-a430-f9c718142c22","system_id":"levelo_inurba_marseille","lat":43.30532,"lon":5.36709,"is_reserved":false,"is_disabled":false,"rental_uris":{"android":"levelo://app?vid=8a44faba-a7bd-47f9-a430-f9c718142c22","ios":"levelo://app?vid=8a44faba-a7bd-47f9-a430-f9c718142c22"},"vehicle_type_id":"4","last_reported":1733213608,"current_range_meters":38800,"station_id":"ce4bgrp2rcd13ifvqc9g","pricing_plan_id":"cebpf4jnsgd1na2vs0mg"},{"bike_id":"7932e894-60e4-4259-ad2b-e25a6bbb7ae7","system_id":"levelo_inurba_marseille","lat":43.2841,"lon":5.37514,"is_reserved":false,"is_disabled":true,"rental_uris":{"android":"levelo://app?vid=7932e894-60e4-4259-ad2b-e25a6bbb7ae7","ios":"levelo://app?vid=7932e894-60e4-4259-ad2b-e25a6bbb7ae7"},"vehicle_type_id":"4","last_reported":1733213608,"current_range_meters":24800,"station_id":"ce4bh412rcd13ifvqds0","pricing_plan_id":"cebpf4jnsgd1na2vs0mg"},{"bike_id":"d5693ac5-3ec9-405c-a17f-20872ddd50cf","system_id":"levelo_inurba_marseille","lat":43.28272,"lon":5.35062,"is_reserved":false,"is_disabled":false,"rental_uris":{"android":"levelo://app?vid=d5693ac5-3ec9-405c-a17f-20872ddd50cf","ios":"levelo://app?vid=d5693ac5-3ec9-405c-a17f-20872ddd50cf"},"vehicle_type_id":"4","last_reported":1733213608,"current_range_meters":4400,"station_id":"ce4bhbp2rcd13ifvqerg","pricing_plan_id":"cebpf4jnsgd1na2vs0mg"},{"bike_id":"32de5c00-decc-40d9-893a-c317572d599d","system_id":"levelo_inurba_marseille","lat":43.29924,"lon":5.37476,"is_reserved":false,"is_disabled":true,"rental_uris":{"android":"levelo://app?vid=32de5c00-decc-40d9-893a-c317572d599d","ios":"levelo://app?vid=32de5c00-decc-40d9-893a-c317572d599d"},"vehicle_type_id":"4","last_reported":1733213608,"current_range_meters":4800,"station_id":"","pricing_plan_id":"cebpf4jnsgd1na2vs0mg"},{"bike_id":"98fdf3e5-2f29-4353-9392-a1a204bdead2","system_id":"levelo_inurba_marseille","lat":43.2952,"lon":5.3904,"is_reserved":false,"is_disabled":true,"rental_uris":{"android":"levelo://app?vid=98fdf3e5-2f29-4353-9392-a1a204bdead2","ios":"levelo://app?vid=98fdf3e5-2f29-4353-9392-a1a204bdead2"},"vehicle_type_id":"4","last_reported":1733213608,"current_range_meters":10000,"station_id":"ce4bh3p2rcd13ifvqdp0","pricing_plan_id":"cebpf4jnsgd1na2vs0mg"},{"bike_id":"763a15e5-5c0c-4db3-84a6-87cc9fff8ea4","system_id":"levelo_inurba_marseille","lat":43.2798,"lon":5.44211,"is_reserved":false,"is_disabled":false,"rental_uris":{"android":"levelo://app?vid=763a15e5-5c0c-4db3-84a6-87cc9fff8ea4","ios":"levelo://app?vid=763a15e5-5c0c-4db3-84a6-87cc9fff8ea4"},"vehicle_type_id":"4","last_reported":1733213608,"current_range_meters":18800,"station_id":"","pricing_plan_id":"cebpf4jnsgd1na2vs0mg"},{"bike_id":"20597529-c5b4-4b06-8e49-bd0c0851632d","system_id":"levelo_inurba_marseille","lat":43.30952,"lon":5.39029,"is_reserved":false,"is_disabled":true,"rental_uris":{"android":"levelo://app?vid=20597529-c5b4-4b06-8e49-bd0c0851632d","ios":"levelo://app?vid=20597529-c5b4-4b06-8e49-bd0c0851632d"},"vehicle_type_id":"4","last_reported":1733213608,"current_range_meters":0,"station_id":"ce4bgup2rcd13ifvqco0","pricing_plan_id":"cebpf4jnsgd1na2vs0mg"},{"bike_id":"3b774bd9-166a-490d-a0d3-ee14aebb6292","system_id":"levelo_inurba_marseille","lat":43.29566,"lon":5.37514,"is_reserved":false,"is_disabled":true,"rental_uris":{"android":"levelo://app?vid=3b774bd9-166a-490d-a0d3-ee14aebb6292","ios":"levelo://app?vid=3b774bd9-166a-490d-a0d3-ee14aebb6292"},"vehicle_type_id":"4","last_reported":1733213608,"current_range_meters":0,"station_id":"ce4bgh92rcd13ifvqb50","pricing_plan_id":"cebpf4jnsgd1na2vs0mg"},{"bike_id":"e77a1f13-7254-456c-ad70-7c7494b0633b","system_id":"levelo_inurba_marseille","lat":43.337444,"lon":5.374475,"is_reserved":false,"is_disabled":false,"rental_uris":{"android":"levelo://app?vid=e77a1f13-7254-456c-ad70-7c7494b0633b","ios":"levelo://app?vid=e77a1f13-7254-456c-ad70-7c7494b0633b"},"vehicle_type_id":"4","last_reported":1733213608,"current_range_meters":34000,"station_id":"","pricing_plan_id":"cebpf4jnsgd1na2vs0mg"},{"bike_id":"24fdc168-ebb3-455e-9a84-fc7b79cc9f1c","system_id":"levelo_inurba_marseille","lat":43.29275,"lon":5.36853,"is_reserved":false,"is_disabled":true,"rental_uris":{"android":"levelo://app?vid=24fdc168-ebb3-455e-9a84-fc7b79cc9f1c","ios":"levelo://app?vid=24fdc168-ebb3-455e-9a84-fc7b79cc9f1c"},"vehicle_type_id":"4","last_reported":1733213608,"current_range_meters":23200,"station_id":"","pricing_plan_id":"cebpf4jnsgd1na2vs0mg"},{"bike_id":"45ff3798-a743-4ffc-962c-fbce8ce4e073","system_id":"levelo_inurba_marseille","lat":43.23152,"lon":5.43713,"is_reserved":false,"is_disabled":false,"rental_uris":{"android":"levelo://app?vid=45ff3798-a743-4ffc-962c-fbce8ce4e073","ios":"levelo://app?vid=45ff3798-a743-4ffc-962c-fbce8ce4e073"},"vehicle_type_id":"4","last_reported":1733213608,"current_range_meters":13600,"station_id":"ce4bhmp2rcd13ifvqgog","pricing_plan_id":"cebpf4jnsgd1na2vs0mg"},{"bike_id":"b6bf0fc6-e8dd-4244-b189-4fd4fe6327fb","system_id":"levelo_inurba_marseille","lat":43.30556,"lon":5.36553,"is_reserved":false,"is_disabled":false,"rental_uris":{"android":"levelo://app?vid=b6bf0fc6-e8dd-4244-b189-4fd4fe6327fb","ios":"levelo://app?vid=b6bf0fc6-e8dd-4244-b189-4fd4fe6327fb"},"vehicle_type_id":"4","last_reported":1733213608,"current_range_meters":38400,"station_id":"ce4bgs12rcd13ifvqcag","pricing_plan_id":"cebpf4jnsgd1na2vs0mg"},{"bike_id":"1494d6fb-79ff-43a8-9d3e-6f93eacd0425","system_id":"levelo_inurba_marseille","lat":43.29931,"lon":5.36544,"is_reserved":false,"is_disabled":false,"rental_uris":{"android":"levelo://app?vid=1494d6fb-79ff-43a8-9d3e-6f93eacd0425","ios":"levelo://app?vid=1494d6fb-79ff-43a8-9d3e-6f93eacd0425"},"vehicle_type_id":"4","last_reported":1733213608,"current_range_meters":38800,"station_id":"ce4bgm92rcd13ifvqbr0","pricing_plan_id":"cebpf4jnsgd1na2vs0mg"},{"bike_id":"95f60bf8-91e0-4861-ba40-220672d1a64a","system_id":"levelo_inurba_marseille","lat":43.31319,"lon":5.37522,"is_reserved":false,"is_disabled":false,"rental_uris":{"android":"levelo://app?vid=95f60bf8-91e0-4861-ba40-220672d1a64a","ios":"levelo://app?vid=95f60bf8-91e0-4861-ba40-220672d1a64a"},"vehicle_type_id":"4","last_reported":1733213608,"current_range_meters":9600,"station_id":"","pricing_plan_id":"cebpf4jnsgd1na2vs0mg"},{"bike_id":"cdfe6590-4984-4014-86c8-6dd70747c27a","system_id":"levelo_inurba_marseille","lat":43.29737,"lon":5.37434,"is_reserved":false,"is_disabled":true,"rental_uris":{"android":"levelo://app?vid=cdfe6590-4984-4014-86c8-6dd70747c27a","ios":"levelo://app?vid=cdfe6590-4984-4014-86c8-6dd70747c27a"},"vehicle_type_id":"4","last_reported":1733213608,"current_range_meters":0,"station_id":"","pricing_plan_id":"cebpf4jnsgd1na2vs0mg"},{"bike_id":"cf8df58c-e115-4cf3-af8d-09e9aabde49d","system_id":"levelo_inurba_marseille","lat":43.263899,"lon":5.377442,"is_reserved":false,"is_disabled":false,"rental_uris":{"android":"levelo://app?vid=cf8df58c-e115-4cf3-af8d-09e9aabde49d","ios":"levelo://app?vid=cf8df58c-e115-4cf3-af8d-09e9aabde49d"},"vehicle_type_id":"4","last_reported":1733213608,"current_range_meters":18000,"station_id":"","pricing_plan_id":"cebpf4jnsgd1na2vs0mg"},{"bike_id":"6d49e805-8267-45a3-b0b5-e36c45a11b74","system_id":"levelo_inurba_marseille","lat":43.3136,"lon":5.36723,"is_reserved":false,"is_disabled":false,"rental_uris":{"android":"levelo://app?vid=6d49e805-8267-45a3-b0b5-e36c45a11b74","ios":"levelo://app?vid=6d49e805-8267-45a3-b0b5-e36c45a11b74"},"vehicle_type_id":"4","last_reported":1733213608,"current_range_meters":15200,"station_id":"ce4bgr92rcd13ifvqc6g","pricing_plan_id":"cebpf4jnsgd1na2vs0mg"},{"bike_id":"2d223975-18c1-4337-9b66-de44fe6788f3","system_id":"levelo_inurba_marseille","lat":43.30779,"lon":5.37658,"is_reserved":false,"is_disabled":false,"rental_uris":{"android":"levelo://app?vid=2d223975-18c1-4337-9b66-de44fe6788f3","ios":"levelo://app?vid=2d223975-18c1-4337-9b66-de44fe6788f3"},"vehicle_type_id":"4","last_reported":1733213608,"current_range_meters":37600,"station_id":"ce4bgv92rcd13ifvqcq0","pricing_plan_id":"cebpf4jnsgd1na2vs0mg"},{"bike_id":"36142e23-8ff6-4096-ad19-b039c8156b69","system_id":"levelo_inurba_marseille","lat":43.28656,"lon":5.36354,"is_reserved":false,"is_disabled":true,"rental_uris":{"android":"levelo://app?vid=36142e23-8ff6-4096-ad19-b039c8156b69","ios":"levelo://app?vid=36142e23-8ff6-4096-ad19-b039c8156b69"},"vehicle_type_id":"4","last_reported":1733213608,"current_range_meters":32400,"station_id":"ce4bhah2rcd13ifvqej0","pricing_plan_id":"cebpf4jnsgd1na2vs0mg"},{"bike_id":"3e762295-e52d-483f-8654-ca00b8495b74","system_id":"levelo_inurba_marseille","lat":43.27438,"lon":5.40716,"is_reserved":false,"is_disabled":false,"rental_uris":{"android":"levelo://app?vid=3e762295-e52d-483f-8654-ca00b8495b74","ios":"levelo://app?vid=3e762295-e52d-483f-8654-ca00b8495b74"},"vehicle_type_id":"4","last_reported":1733213608,"current_range_meters":8800,"station_id":"","pricing_plan_id":"cebpf4jnsgd1na2vs0mg"},{"bike_id":"e0449ad3-6fa0-4664-b0f3-6ea1dced967e","system_id":"levelo_inurba_marseille","lat":43.28153,"lon":5.42625,"is_reserved":false,"is_disabled":true,"rental_uris":{"android":"levelo://app?vid=e0449ad3-6fa0-4664-b0f3-6ea1dced967e","ios":"levelo://app?vid=e0449ad3-6fa0-4664-b0f3-6ea1dced967e"},"vehicle_type_id":"4","last_reported":1733213608,"current_range_meters":21600,"station_id":"ce4bhnh2rcd13ifvqgug","pricing_plan_id":"cebpf4jnsgd1na2vs0mg"},{"bike_id":"6e9b2190-d6d9-4744-8ffe-756c40463c6e","system_id":"levelo_inurba_marseille","lat":43.25939,"lon":5.40898,"is_reserved":false,"is_disabled":false,"rental_uris":{"android":"levelo://app?vid=6e9b2190-d6d9-4744-8ffe-756c40463c6e","ios":"levelo://app?vid=6e9b2190-d6d9-4744-8ffe-756c40463c6e"},"vehicle_type_id":"4","last_reported":1733213608,"current_range_meters":14000,"station_id":"ce4bhm92rcd13ifvqglg","pricing_plan_id":"cebpf4jnsgd1na2vs0mg"},{"bike_id":"4c3fb316-febe-4764-b0a1-d58fd67e3e9a","system_id":"levelo_inurba_marseille","lat":43.2819,"lon":5.38297,"is_reserved":false,"is_disabled":true,"rental_uris":{"android":"levelo://app?vid=4c3fb316-febe-4764-b0a1-d58fd67e3e9a","ios":"levelo://app?vid=4c3fb316-febe-4764-b0a1-d58fd67e3e9a"},"vehicle_type_id":"4","last_reported":1733213608,"current_range_meters":27600,"station_id":"","pricing_plan_id":"cebpf4jnsgd1na2vs0mg"},{"bike_id":"987a5ab4-d60c-480c-94b6-7cab38975402","system_id":"levelo_inurba_marseille","lat":43.29748,"lon":5.37971,"is_reserved":false,"is_disabled":true,"rental_uris":{"android":"levelo://app?vid=987a5ab4-d60c-480c-94b6-7cab38975402","ios":"levelo://app?vid=987a5ab4-d60c-480c-94b6-7cab38975402"},"vehicle_type_id":"4","last_reported":1733213608,"current_range_meters":0,"station_id":"","pricing_plan_id":"cebpf4jnsgd1na2vs0mg"},{"bike_id":"c971ede0-41c7-461a-bc29-ae50a8251821","system_id":"levelo_inurba_marseille","lat":43.32294,"lon":5.38258,"is_reserved":false,"is_disabled":false,"rental_uris":{"android":"levelo://app?vid=c971ede0-41c7-461a-bc29-ae50a8251821","ios":"levelo://app?vid=c971ede0-41c7-461a-bc29-ae50a8251821"},"vehicle_type_id":"4","last_reported":1733213608,"current_range_meters":14000,"station_id":"ce4bhr12rcd13ifvqhqg","pricing_plan_id":"cebpf4jnsgd1na2vs0mg"},{"bike_id":"2c4596ad-0ad9-4016-b92b-0093349de2b4","system_id":"levelo_inurba_marseille","lat":43.30713,"lon":5.38242,"is_reserved":false,"is_disabled":true,"rental_uris":{"android":"levelo://app?vid=2c4596ad-0ad9-4016-b92b-0093349de2b4","ios":"levelo://app?vid=2c4596ad-0ad9-4016-b92b-0093349de2b4"},"vehicle_type_id":"4","last_reported":1733213608,"current_range_meters":0,"station_id":"","pricing_plan_id":"cebpf4jnsgd1na2vs0mg"},{"bike_id":"7d983c55-9658-4810-b4fd-d68e94d0e0d8","system_id":"levelo_inurba_marseille","lat":43.30533,"lon":5.36548,"is_reserved":false,"is_disabled":false,"rental_uris":{"android":"levelo://app?vid=7d983c55-9658-4810-b4fd-d68e94d0e0d8","ios":"levelo://app?vid=7d983c55-9658-4810-b4fd-d68e94d0e0d8"},"vehicle_type_id":"4","last_reported":1733213608,"current_range_meters":28000,"station_id":"ce4bgs12rcd13ifvqcag","pricing_plan_id":"cebpf4jnsgd1na2vs0mg"},{"bike_id":"1f28300c-d8be-4d08-b5ea-d3aadf1e301d","system_id":"levelo_inurba_marseille","lat":43.2626,"lon":5.42115,"is_reserved":false,"is_disabled":false,"rental_uris":{"android":"levelo://app?vid=1f28300c-d8be-4d08-b5ea-d3aadf1e301d","ios":"levelo://app?vid=1f28300c-d8be-4d08-b5ea-d3aadf1e301d"},"vehicle_type_id":"4","last_reported":1733213608,"current_range_meters":19200,"station_id":"","pricing_plan_id":"cebpf4jnsgd1na2vs0mg"},{"bike_id":"b7ab8c01-033f-4395-8276-23c850ad3d02","system_id":"levelo_inurba_marseille","lat":43.303305,"lon":5.365857,"is_reserved":false,"is_disabled":true,"rental_uris":{"android":"levelo://app?vid=b7ab8c01-033f-4395-8276-23c850ad3d02","ios":"levelo://app?vid=b7ab8c01-033f-4395-8276-23c850ad3d02"},"vehicle_type_id":"4","last_reported":1733213608,"current_range_meters":0,"station_id":"","pricing_plan_id":"cebpf4jnsgd1na2vs0mg"},{"bike_id":"596bdf78-f717-49dd-a2c1-845c111f4a1f","system_id":"levelo_inurba_marseille","lat":43.29435,"lon":5.39745,"is_reserved":false,"is_disabled":true,"rental_uris":{"android":"levelo://app?vid=596bdf78-f717-49dd-a2c1-845c111f4a1f","ios":"levelo://app?vid=596bdf78-f717-49dd-a2c1-845c111f4a1f"},"vehicle_type_id":"4","last_reported":1733213608,"current_range_meters":4400,"station_id":"ce4bh3h2rcd13ifvqdo0","pricing_plan_id":"cebpf4jnsgd1na2vs0mg"},{"bike_id":"efc10c65-714a-47e9-9389-a4ee320dad02","system_id":"levelo_inurba_marseille","lat":43.30803,"lon":5.3816,"is_reserved":false,"is_disabled":false,"rental_uris":{"android":"levelo://app?vid=efc10c65-714a-47e9-9389-a4ee320dad02","ios":"levelo://app?vid=efc10c65-714a-47e9-9389-a4ee320dad02"},"vehicle_type_id":"4","last_reported":1733213608,"current_range_meters":15200,"station_id":"ce4bgt12rcd13ifvqce0","pricing_plan_id":"cebpf4jnsgd1na2vs0mg"},{"bike_id":"fd93d3e3-b136-446d-aa26-631a9233dc8d","system_id":"levelo_inurba_marseille","lat":43.2956,"lon":5.37538,"is_reserved":false,"is_disabled":false,"rental_uris":{"android":"levelo://app?vid=fd93d3e3-b136-446d-aa26-631a9233dc8d","ios":"levelo://app?vid=fd93d3e3-b136-446d-aa26-631a9233dc8d"},"vehicle_type_id":"4","last_reported":1733213608,"current_range_meters":37600,"station_id":"ce4bgh92rcd13ifvqb50","pricing_plan_id":"cebpf4jnsgd1na2vs0mg"},{"bike_id":"6b2b901e-5d96-4afc-b9a5-a7594ae72748","system_id":"levelo_inurba_marseille","lat":43.27278,"lon":5.39191,"is_reserved":false,"is_disabled":true,"rental_uris":{"android":"levelo://app?vid=6b2b901e-5d96-4afc-b9a5-a7594ae72748","ios":"levelo://app?vid=6b2b901e-5d96-4afc-b9a5-a7594ae72748"},"vehicle_type_id":"4","last_reported":1733213608,"current_range_meters":0,"station_id":"","pricing_plan_id":"cebpf4jnsgd1na2vs0mg"},{"bike_id":"6cc6805f-c0ca-4585-bdf1-b5a0339762b0","system_id":"levelo_inurba_marseille","lat":43.29015,"lon":5.42811,"is_reserved":false,"is_disabled":false,"rental_uris":{"android":"levelo://app?vid=6cc6805f-c0ca-4585-bdf1-b5a0339762b0","ios":"levelo://app?vid=6cc6805f-c0ca-4585-bdf1-b5a0339762b0"},"vehicle_type_id":"4","last_reported":1733213608,"current_range_meters":5600,"station_id":"","pricing_plan_id":"cebpf4jnsgd1na2vs0mg"},{"bike_id":"bf2dddfd-fcac-4ab9-9900-0783b7dfc160","system_id":"levelo_inurba_marseille","lat":43.28615,"lon":5.35104,"is_reserved":false,"is_disabled":false,"rental_uris":{"android":"levelo://app?vid=bf2dddfd-fcac-4ab9-9900-0783b7dfc160","ios":"levelo://app?vid=bf2dddfd-fcac-4ab9-9900-0783b7dfc160"},"vehicle_type_id":"4","last_reported":1733213608,"current_range_meters":14400,"station_id":"ce4bhch2rcd13ifvqeug","pricing_plan_id":"cebpf4jnsgd1na2vs0mg"},{"bike_id":"1e21ee7c-ab02-4877-817e-5d83de000297","system_id":"levelo_inurba_marseille","lat":43.30907,"lon":5.36856,"is_reserved":false,"is_disabled":true,"rental_uris":{"android":"levelo://app?vid=1e21ee7c-ab02-4877-817e-5d83de000297","ios":"levelo://app?vid=1e21ee7c-ab02-4877-817e-5d83de000297"},"vehicle_type_id":"4","last_reported":1733213608,"current_range_meters":38000,"station_id":"ce4bgn92rcd13ifvqbvg","pricing_plan_id":"cebpf4jnsgd1na2vs0mg"},{"bike_id":"8d1c8b92-79bb-4181-b0d2-5e94db1a14d0","system_id":"levelo_inurba_marseille","lat":43.30012,"lon":5.38268,"is_reserved":false,"is_disabled":true,"rental_uris":{"android":"levelo://app?vid=8d1c8b92-79bb-4181-b0d2-5e94db1a14d0","ios":"levelo://app?vid=8d1c8b92-79bb-4181-b0d2-5e94db1a14d0"},"vehicle_type_id":"4","last_reported":1733213608,"current_range_meters":0,"station_id":"","pricing_plan_id":"cebpf4jnsgd1na2vs0mg"},{"bike_id":"b393e343-ccc2-4e09-a3d5-b33fb6d87dbf","system_id":"levelo_inurba_marseille","lat":43.30142,"lon":5.38783,"is_reserved":false,"is_disabled":true,"rental_uris":{"android":"levelo://app?vid=b393e343-ccc2-4e09-a3d5-b33fb6d87dbf","ios":"levelo://app?vid=b393e343-ccc2-4e09-a3d5-b33fb6d87dbf"},"vehicle_type_id":"4","last_reported":1733213608,"current_range_meters":29600,"station_id":"ce4bghh2rcd13ifvqb60","pricing_plan_id":"cebpf4jnsgd1na2vs0mg"},{"bike_id":"8d48911e-4258-46d9-8be6-e1795bbd0617","system_id":"levelo_inurba_marseille","lat":43.30465,"lon":5.37916,"is_reserved":false,"is_disabled":false,"rental_uris":{"android":"levelo://app?vid=8d48911e-4258-46d9-8be6-e1795bbd0617","ios":"levelo://app?vid=8d48911e-4258-46d9-8be6-e1795bbd0617"},"vehicle_type_id":"4","last_reported":1733213608,"current_range_meters":30400,"station_id":"ce4bgup2rcd13ifvqcn0","pricing_plan_id":"cebpf4jnsgd1na2vs0mg"},{"bike_id":"80265f62-f148-484a-9a78-db0ff37fec19","system_id":"levelo_inurba_marseille","lat":43.30151,"lon":5.38082,"is_reserved":false,"is_disabled":false,"rental_uris":{"android":"levelo://app?vid=80265f62-f148-484a-9a78-db0ff37fec19","ios":"levelo://app?vid=80265f62-f148-484a-9a78-db0ff37fec19"},"vehicle_type_id":"4","last_reported":1733213608,"current_range_meters":25200,"station_id":"ce4bgjp2rcd13ifvqbh0","pricing_plan_id":"cebpf4jnsgd1na2vs0mg"},{"bike_id":"66af6c49-242f-463e-a9fa-e038221766e6","system_id":"levelo_inurba_marseille","lat":43.29551,"lon":5.4229,"is_reserved":false,"is_disabled":false,"rental_uris":{"android":"levelo://app?vid=66af6c49-242f-463e-a9fa-e038221766e6","ios":"levelo://app?vid=66af6c49-242f-463e-a9fa-e038221766e6"},"vehicle_type_id":"4","last_reported":1733213608,"current_range_meters":38800,"station_id":"ce4bhph2rcd13ifvqhdg","pricing_plan_id":"cebpf4jnsgd1na2vs0mg"},{"bike_id":"d692109b-ad98-49bc-9d0b-2573b84dfc5e","system_id":"levelo_inurba_marseille","lat":43.23144,"lon":5.43724,"is_reserved":false,"is_disabled":false,"rental_uris":{"android":"levelo://app?vid=d692109b-ad98-49bc-9d0b-2573b84dfc5e","ios":"levelo://app?vid=d692109b-ad98-49bc-9d0b-2573b84dfc5e"},"vehicle_type_id":"4","last_reported":1733213608,"current_range_meters":9200,"station_id":"ce4bhmp2rcd13ifvqgog","pricing_plan_id":"cebpf4jnsgd1na2vs0mg"},{"bike_id":"a617e044-2beb-44d6-a1b9-0d089a160289","system_id":"levelo_inurba_marseille","lat":43.298434,"lon":5.362711,"is_reserved":false,"is_disabled":true,"rental_uris":{"android":"levelo://app?vid=a617e044-2beb-44d6-a1b9-0d089a160289","ios":"levelo://app?vid=a617e044-2beb-44d6-a1b9-0d089a160289"},"vehicle_type_id":"4","last_reported":1733213608,"current_range_meters":36000,"station_id":"ce4bgpp2rcd13ifvqc3g","pricing_plan_id":"cebpf4jnsgd1na2vs0mg"},{"bike_id":"d513df2e-cd3b-4fd4-9f58-93a78bd51f1e","system_id":"levelo_inurba_marseille","lat":43.32288,"lon":5.3827,"is_reserved":false,"is_disabled":false,"rental_uris":{"android":"levelo://app?vid=d513df2e-cd3b-4fd4-9f58-93a78bd51f1e","ios":"levelo://app?vid=d513df2e-cd3b-4fd4-9f58-93a78bd51f1e"},"vehicle_type_id":"4","last_reported":1733213608,"current_range_meters":4800,"station_id":"ce4bhr12rcd13ifvqhqg","pricing_plan_id":"cebpf4jnsgd1na2vs0mg"},{"bike_id":"3ef40d5d-ae60-4919-a60f-c93a84da1612","system_id":"levelo_inurba_marseille","lat":43.30175,"lon":5.36641,"is_reserved":false,"is_disabled":false,"rental_uris":{"android":"levelo://app?vid=3ef40d5d-ae60-4919-a60f-c93a84da1612","ios":"levelo://app?vid=3ef40d5d-ae60-4919-a60f-c93a84da1612"},"vehicle_type_id":"4","last_reported":1733213608,"current_range_meters":25600,"station_id":"ce4bgrh2rcd13ifvqc8g","pricing_plan_id":"cebpf4jnsgd1na2vs0mg"},{"bike_id":"45891de7-8812-4ec2-a7c4-56ca81dd5332","system_id":"levelo_inurba_marseille","lat":43.2306,"lon":5.35489,"is_reserved":false,"is_disabled":false,"rental_uris":{"android":"levelo://app?vid=45891de7-8812-4ec2-a7c4-56ca81dd5332","ios":"levelo://app?vid=45891de7-8812-4ec2-a7c4-56ca81dd5332"},"vehicle_type_id":"4","last_reported":1733213608,"current_range_meters":25200,"station_id":"cpo3342slgdg3j2ifvpg","pricing_plan_id":"cebpf4jnsgd1na2vs0mg"},{"bike_id":"ca60cc63-7166-4fc9-bbc3-122fc186c7c2","system_id":"levelo_inurba_marseille","lat":43.29557,"lon":5.42294,"is_reserved":false,"is_disabled":false,"rental_uris":{"android":"levelo://app?vid=ca60cc63-7166-4fc9-bbc3-122fc186c7c2","ios":"levelo://app?vid=ca60cc63-7166-4fc9-bbc3-122fc186c7c2"},"vehicle_type_id":"4","last_reported":1733213608,"current_range_meters":14000,"station_id":"ce4bhph2rcd13ifvqhdg","pricing_plan_id":"cebpf4jnsgd1na2vs0mg"},{"bike_id":"01ac64e6-1f1f-4196-a4f5-2ab0b372a75f","system_id":"levelo_inurba_marseille","lat":43.28699,"lon":5.37932,"is_reserved":false,"is_disabled":true,"rental_uris":{"android":"levelo://app?vid=01ac64e6-1f1f-4196-a4f5-2ab0b372a75f","ios":"levelo://app?vid=01ac64e6-1f1f-4196-a4f5-2ab0b372a75f"},"vehicle_type_id":"4","last_reported":1733213608,"current_range_meters":38800,"station_id":"ce4bh9p2rcd13ifvqec0","pricing_plan_id":"cebpf4jnsgd1na2vs0mg"},{"bike_id":"502a96ab-17c2-4054-85b0-d3158c661de7","system_id":"levelo_inurba_marseille","lat":43.29195,"lon":5.39314,"is_reserved":false,"is_disabled":false,"rental_uris":{"android":"levelo://app?vid=502a96ab-17c2-4054-85b0-d3158c661de7","ios":"levelo://app?vid=502a96ab-17c2-4054-85b0-d3158c661de7"},"vehicle_type_id":"4","last_reported":1733213608,"current_range_meters":14800,"station_id":"ce4bh192rcd13ifvqdd0","pricing_plan_id":"cebpf4jnsgd1na2vs0mg"},{"bike_id":"64b321cb-c55c-40ab-9985-479d45091f3f","system_id":"levelo_inurba_marseille","lat":43.31692,"lon":5.40473,"is_reserved":false,"is_disabled":true,"rental_uris":{"android":"levelo://app?vid=64b321cb-c55c-40ab-9985-479d45091f3f","ios":"levelo://app?vid=64b321cb-c55c-40ab-9985-479d45091f3f"},"vehicle_type_id":"4","last_reported":1733213608,"current_range_meters":37600,"station_id":"ce4bh012rcd13ifvqd00","pricing_plan_id":"cebpf4jnsgd1na2vs0mg"},{"bike_id":"16af1b15-50a2-43f6-8577-4df460f88a37","system_id":"levelo_inurba_marseille","lat":43.30531,"lon":5.36706,"is_reserved":false,"is_disabled":false,"rental_uris":{"android":"levelo://app?vid=16af1b15-50a2-43f6-8577-4df460f88a37","ios":"levelo://app?vid=16af1b15-50a2-43f6-8577-4df460f88a37"},"vehicle_type_id":"4","last_reported":1733213608,"current_range_meters":12400,"station_id":"ce4bgrp2rcd13ifvqc9g","pricing_plan_id":"cebpf4jnsgd1na2vs0mg"},{"bike_id":"e4365ae8-6104-481a-bf55-2b8c62d90d7c","system_id":"levelo_inurba_marseille","lat":43.262,"lon":5.37931,"is_reserved":false,"is_disabled":true,"rental_uris":{"android":"levelo://app?vid=e4365ae8-6104-481a-bf55-2b8c62d90d7c","ios":"levelo://app?vid=e4365ae8-6104-481a-bf55-2b8c62d90d7c"},"vehicle_type_id":"4","last_reported":1733213608,"current_range_meters":8800,"station_id":"ce4bhjp2rcd13ifvqg90","pricing_plan_id":"cebpf4jnsgd1na2vs0mg"},{"bike_id":"570c5a31-9e18-464d-8264-39a2e3667705","system_id":"levelo_inurba_marseille","lat":43.27936,"lon":5.41042,"is_reserved":false,"is_disabled":false,"rental_uris":{"android":"levelo://app?vid=570c5a31-9e18-464d-8264-39a2e3667705","ios":"levelo://app?vid=570c5a31-9e18-464d-8264-39a2e3667705"},"vehicle_type_id":"4","last_reported":1733213608,"current_range_meters":38400,"station_id":"ce4bhnp2rcd13ifvqh0g","pricing_plan_id":"cebpf4jnsgd1na2vs0mg"},{"bike_id":"8b941c00-4e3f-4c03-93d3-15390d39d3a5","system_id":"levelo_inurba_marseille","lat":43.28649,"lon":5.38668,"is_reserved":false,"is_disabled":true,"rental_uris":{"android":"levelo://app?vid=8b941c00-4e3f-4c03-93d3-15390d39d3a5","ios":"levelo://app?vid=8b941c00-4e3f-4c03-93d3-15390d39d3a5"},"vehicle_type_id":"4","last_reported":1733213608,"current_range_meters":36800,"station_id":"ce4bh492rcd13ifvqdug","pricing_plan_id":"cebpf4jnsgd1na2vs0mg"},{"bike_id":"a68d7a81-b093-4b83-abc2-a4f1054dabc5","system_id":"levelo_inurba_marseille","lat":43.27501,"lon":5.42448,"is_reserved":false,"is_disabled":false,"rental_uris":{"android":"levelo://app?vid=a68d7a81-b093-4b83-abc2-a4f1054dabc5","ios":"levelo://app?vid=a68d7a81-b093-4b83-abc2-a4f1054dabc5"},"vehicle_type_id":"4","last_reported":1733213608,"current_range_meters":32800,"station_id":"ce4bhn92rcd13ifvqgrg","pricing_plan_id":"cebpf4jnsgd1na2vs0mg"},{"bike_id":"9f4deee7-7f31-4c2e-82c6-46a38d5aa3cf","system_id":"levelo_inurba_marseille","lat":43.29842,"lon":5.36267,"is_reserved":false,"is_disabled":false,"rental_uris":{"android":"levelo://app?vid=9f4deee7-7f31-4c2e-82c6-46a38d5aa3cf","ios":"levelo://app?vid=9f4deee7-7f31-4c2e-82c6-46a38d5aa3cf"},"vehicle_type_id":"4","last_reported":1733213608,"current_range_meters":36000,"station_id":"ce4bgpp2rcd13ifvqc3g","pricing_plan_id":"cebpf4jnsgd1na2vs0mg"},{"bike_id":"1ad1c1c4-5d06-4d0c-af90-58e0b45a7218","system_id":"levelo_inurba_marseille","lat":43.2792,"lon":5.3957,"is_reserved":false,"is_disabled":true,"rental_uris":{"android":"levelo://app?vid=1ad1c1c4-5d06-4d0c-af90-58e0b45a7218","ios":"levelo://app?vid=1ad1c1c4-5d06-4d0c-af90-58e0b45a7218"},"vehicle_type_id":"4","last_reported":1733213608,"current_range_meters":37600,"station_id":"ce4bhf92rcd13ifvqf40","pricing_plan_id":"cebpf4jnsgd1na2vs0mg"},{"bike_id":"9c77a68d-2e99-44e9-b903-950fb6644d35","system_id":"levelo_inurba_marseille","lat":43.25272,"lon":5.39457,"is_reserved":false,"is_disabled":true,"rental_uris":{"android":"levelo://app?vid=9c77a68d-2e99-44e9-b903-950fb6644d35","ios":"levelo://app?vid=9c77a68d-2e99-44e9-b903-950fb6644d35"},"vehicle_type_id":"4","last_reported":1733213608,"current_range_meters":0,"station_id":"","pricing_plan_id":"cebpf4jnsgd1na2vs0mg"},{"bike_id":"7f97fcd2-117f-458c-a261-845c336c5904","system_id":"levelo_inurba_marseille","lat":43.25,"lon":5.38927,"is_reserved":false,"is_disabled":false,"rental_uris":{"android":"levelo://app?vid=7f97fcd2-117f-458c-a261-845c336c5904","ios":"levelo://app?vid=7f97fcd2-117f-458c-a261-845c336c5904"},"vehicle_type_id":"4","last_reported":1733213608,"current_range_meters":36400,"station_id":"ce4bhgp2rcd13ifvqfd0","pricing_plan_id":"cebpf4jnsgd1na2vs0mg"},{"bike_id":"18a04b91-15af-4548-bc85-5162a9b37938","system_id":"levelo_inurba_marseille","lat":43.32022,"lon":5.4142,"is_reserved":false,"is_disabled":false,"rental_uris":{"android":"levelo://app?vid=18a04b91-15af-4548-bc85-5162a9b37938","ios":"levelo://app?vid=18a04b91-15af-4548-bc85-5162a9b37938"},"vehicle_type_id":"4","last_reported":1733213608,"current_range_meters":18800,"station_id":"ce4bhqh2rcd13ifvqhmg","pricing_plan_id":"cebpf4jnsgd1na2vs0mg"},{"bike_id":"d343be82-d45b-4580-9267-ab2a574eac02","system_id":"levelo_inurba_marseille","lat":43.30799,"lon":5.43528,"is_reserved":false,"is_disabled":true,"rental_uris":{"android":"levelo://app?vid=d343be82-d45b-4580-9267-ab2a574eac02","ios":"levelo://app?vid=d343be82-d45b-4580-9267-ab2a574eac02"},"vehicle_type_id":"4","last_reported":1733213608,"current_range_meters":0,"station_id":"ce4bhph2rcd13ifvqheg","pricing_plan_id":"cebpf4jnsgd1na2vs0mg"},{"bike_id":"ce631c26-6e09-4ece-9c16-701bf3a6ddbf","system_id":"levelo_inurba_marseille","lat":43.34146,"lon":5.40907,"is_reserved":false,"is_disabled":false,"rental_uris":{"android":"levelo://app?vid=ce631c26-6e09-4ece-9c16-701bf3a6ddbf","ios":"levelo://app?vid=ce631c26-6e09-4ece-9c16-701bf3a6ddbf"},"vehicle_type_id":"4","last_reported":1733213608,"current_range_meters":24800,"station_id":"ce4bhqh2rcd13ifvqhlg","pricing_plan_id":"cebpf4jnsgd1na2vs0mg"},{"bike_id":"b506175b-e3b3-4ff6-94de-89fbcaee662e","system_id":"levelo_inurba_marseille","lat":43.30847,"lon":5.38171,"is_reserved":false,"is_disabled":false,"rental_uris":{"android":"levelo://app?vid=b506175b-e3b3-4ff6-94de-89fbcaee662e","ios":"levelo://app?vid=b506175b-e3b3-4ff6-94de-89fbcaee662e"},"vehicle_type_id":"4","last_reported":1733213608,"current_range_meters":16400,"station_id":"","pricing_plan_id":"cebpf4jnsgd1na2vs0mg"},{"bike_id":"4ea402f6-45b0-4846-84f5-29270e62c818","system_id":"levelo_inurba_marseille","lat":43.30826,"lon":5.37401,"is_reserved":false,"is_disabled":true,"rental_uris":{"android":"levelo://app?vid=4ea402f6-45b0-4846-84f5-29270e62c818","ios":"levelo://app?vid=4ea402f6-45b0-4846-84f5-29270e62c818"},"vehicle_type_id":"4","last_reported":1733213608,"current_range_meters":0,"station_id":"","pricing_plan_id":"cebpf4jnsgd1na2vs0mg"},{"bike_id":"83985555-c848-4b28-808f-8a7e7cf8519e","system_id":"levelo_inurba_marseille","lat":43.28115,"lon":5.44168,"is_reserved":false,"is_disabled":true,"rental_uris":{"android":"levelo://app?vid=83985555-c848-4b28-808f-8a7e7cf8519e","ios":"levelo://app?vid=83985555-c848-4b28-808f-8a7e7cf8519e"},"vehicle_type_id":"4","last_reported":1733213608,"current_range_meters":0,"station_id":"","pricing_plan_id":"cebpf4jnsgd1na2vs0mg"},{"bike_id":"9358be79-5896-4930-bace-855b71c250b3","system_id":"levelo_inurba_marseille","lat":43.32279,"lon":5.38292,"is_reserved":false,"is_disabled":true,"rental_uris":{"android":"levelo://app?vid=9358be79-5896-4930-bace-855b71c250b3","ios":"levelo://app?vid=9358be79-5896-4930-bace-855b71c250b3"},"vehicle_type_id":"4","last_reported":1733213608,"current_range_meters":39200,"station_id":"ce4bhr12rcd13ifvqhqg","pricing_plan_id":"cebpf4jnsgd1na2vs0mg"},{"bike_id":"af1fd391-0bbf-48d3-9ade-588f0a2d2bf3","system_id":"levelo_inurba_marseille","lat":43.2407,"lon":5.37762,"is_reserved":false,"is_disabled":false,"rental_uris":{"android":"levelo://app?vid=af1fd391-0bbf-48d3-9ade-588f0a2d2bf3","ios":"levelo://app?vid=af1fd391-0bbf-48d3-9ade-588f0a2d2bf3"},"vehicle_type_id":"4","last_reported":1733213608,"current_range_meters":27600,"station_id":"ce4bhnp2rcd13ifvqgvg","pricing_plan_id":"cebpf4jnsgd1na2vs0mg"},{"bike_id":"941eeae1-8936-4a86-b31a-ea87d84b2048","system_id":"levelo_inurba_marseille","lat":43.280505,"lon":5.356318,"is_reserved":false,"is_disabled":false,"rental_uris":{"android":"levelo://app?vid=941eeae1-8936-4a86-b31a-ea87d84b2048","ios":"levelo://app?vid=941eeae1-8936-4a86-b31a-ea87d84b2048"},"vehicle_type_id":"4","last_reported":1733213608,"current_range_meters":8000,"station_id":"","pricing_plan_id":"cebpf4jnsgd1na2vs0mg"},{"bike_id":"0c5d5ecc-56e5-4627-9e97-d7c2f0aaa2ba","system_id":"levelo_inurba_marseille","lat":43.29033,"lon":5.39965,"is_reserved":false,"is_disabled":false,"rental_uris":{"android":"levelo://app?vid=0c5d5ecc-56e5-4627-9e97-d7c2f0aaa2ba","ios":"levelo://app?vid=0c5d5ecc-56e5-4627-9e97-d7c2f0aaa2ba"},"vehicle_type_id":"4","last_reported":1733213608,"current_range_meters":18000,"station_id":"ce4bh392rcd13ifvqdm0","pricing_plan_id":"cebpf4jnsgd1na2vs0mg"},{"bike_id":"1176e033-efc4-474e-af61-8d3a0d5f5ccf","system_id":"levelo_inurba_marseille","lat":43.25886,"lon":5.39954,"is_reserved":false,"is_disabled":true,"rental_uris":{"android":"levelo://app?vid=1176e033-efc4-474e-af61-8d3a0d5f5ccf","ios":"levelo://app?vid=1176e033-efc4-474e-af61-8d3a0d5f5ccf"},"vehicle_type_id":"4","last_reported":1733213608,"current_range_meters":0,"station_id":"","pricing_plan_id":"cebpf4jnsgd1na2vs0mg"},{"bike_id":"355f9b9d-f767-4c7c-b2c2-99f45fb7404f","system_id":"levelo_inurba_marseille","lat":43.3079,"lon":5.37659,"is_reserved":false,"is_disabled":false,"rental_uris":{"android":"levelo://app?vid=355f9b9d-f767-4c7c-b2c2-99f45fb7404f","ios":"levelo://app?vid=355f9b9d-f767-4c7c-b2c2-99f45fb7404f"},"vehicle_type_id":"4","last_reported":1733213608,"current_range_meters":32800,"station_id":"ce4bgv92rcd13ifvqcq0","pricing_plan_id":"cebpf4jnsgd1na2vs0mg"},{"bike_id":"d1a8240c-6717-4129-b791-865274eca2a9","system_id":"levelo_inurba_marseille","lat":43.30546,"lon":5.36549,"is_reserved":false,"is_disabled":false,"rental_uris":{"android":"levelo://app?vid=d1a8240c-6717-4129-b791-865274eca2a9","ios":"levelo://app?vid=d1a8240c-6717-4129-b791-865274eca2a9"},"vehicle_type_id":"4","last_reported":1733213608,"current_range_meters":36400,"station_id":"ce4bgs12rcd13ifvqcag","pricing_plan_id":"cebpf4jnsgd1na2vs0mg"},{"bike_id":"d968385f-de2b-44eb-96a8-54efc707caa9","system_id":"levelo_inurba_marseille","lat":43.23195,"lon":5.35544,"is_reserved":false,"is_disabled":false,"rental_uris":{"android":"levelo://app?vid=d968385f-de2b-44eb-96a8-54efc707caa9","ios":"levelo://app?vid=d968385f-de2b-44eb-96a8-54efc707caa9"},"vehicle_type_id":"4","last_reported":1733213608,"current_range_meters":38800,"station_id":"ce4bhu92rcd13ifvqi70","pricing_plan_id":"cebpf4jnsgd1na2vs0mg"},{"bike_id":"def36fc9-a666-402e-a192-72262579376f","system_id":"levelo_inurba_marseille","lat":43.30155,"lon":5.3808,"is_reserved":false,"is_disabled":false,"rental_uris":{"android":"levelo://app?vid=def36fc9-a666-402e-a192-72262579376f","ios":"levelo://app?vid=def36fc9-a666-402e-a192-72262579376f"},"vehicle_type_id":"4","last_reported":1733213608,"current_range_meters":34800,"station_id":"ce4bgjp2rcd13ifvqbh0","pricing_plan_id":"cebpf4jnsgd1na2vs0mg"},{"bike_id":"e218f52a-3c8a-490a-99d9-5af7196625b0","system_id":"levelo_inurba_marseille","lat":43.23192,"lon":5.3555,"is_reserved":false,"is_disabled":false,"rental_uris":{"android":"levelo://app?vid=e218f52a-3c8a-490a-99d9-5af7196625b0","ios":"levelo://app?vid=e218f52a-3c8a-490a-99d9-5af7196625b0"},"vehicle_type_id":"4","last_reported":1733213608,"current_range_meters":37600,"station_id":"ce4bhu92rcd13ifvqi70","pricing_plan_id":"cebpf4jnsgd1na2vs0mg"},{"bike_id":"307ca336-3f57-4d5b-849b-5b9df48faeaf","system_id":"levelo_inurba_marseille","lat":43.30026,"lon":5.3888,"is_reserved":false,"is_disabled":true,"rental_uris":{"android":"levelo://app?vid=307ca336-3f57-4d5b-849b-5b9df48faeaf","ios":"levelo://app?vid=307ca336-3f57-4d5b-849b-5b9df48faeaf"},"vehicle_type_id":"4","last_reported":1733213608,"current_range_meters":0,"station_id":"","pricing_plan_id":"cebpf4jnsgd1na2vs0mg"},{"bike_id":"506c09f4-6c9b-4fb3-996c-4c7f86dd75a8","system_id":"levelo_inurba_marseille","lat":43.24557,"lon":5.37351,"is_reserved":false,"is_disabled":true,"rental_uris":{"android":"levelo://app?vid=506c09f4-6c9b-4fb3-996c-4c7f86dd75a8","ios":"levelo://app?vid=506c09f4-6c9b-4fb3-996c-4c7f86dd75a8"},"vehicle_type_id":"4","last_reported":1733213608,"current_range_meters":0,"station_id":"","pricing_plan_id":"cebpf4jnsgd1na2vs0mg"},{"bike_id":"4392f2a9-7711-4f77-a0f1-3f0e991c8b6e","system_id":"levelo_inurba_marseille","lat":43.29422,"lon":5.3862,"is_reserved":false,"is_disabled":false,"rental_uris":{"android":"levelo://app?vid=4392f2a9-7711-4f77-a0f1-3f0e991c8b6e","ios":"levelo://app?vid=4392f2a9-7711-4f77-a0f1-3f0e991c8b6e"},"vehicle_type_id":"4","last_reported":1733213608,"current_range_meters":29600,"station_id":"ce4bh2h2rcd13ifvqdh0","pricing_plan_id":"cebpf4jnsgd1na2vs0mg"},{"bike_id":"9202c63e-372c-4469-a5c1-8e35757d1940","system_id":"levelo_inurba_marseille","lat":43.30053,"lon":5.38832,"is_reserved":false,"is_disabled":true,"rental_uris":{"android":"levelo://app?vid=9202c63e-372c-4469-a5c1-8e35757d1940","ios":"levelo://app?vid=9202c63e-372c-4469-a5c1-8e35757d1940"},"vehicle_type_id":"4","last_reported":1733213608,"current_range_meters":0,"station_id":"","pricing_plan_id":"cebpf4jnsgd1na2vs0mg"},{"bike_id":"91ad2bcd-5352-42d1-801e-bc5e3f31ad29","system_id":"levelo_inurba_marseille","lat":43.29594,"lon":5.38098,"is_reserved":false,"is_disabled":false,"rental_uris":{"android":"levelo://app?vid=91ad2bcd-5352-42d1-801e-bc5e3f31ad29","ios":"levelo://app?vid=91ad2bcd-5352-42d1-801e-bc5e3f31ad29"},"vehicle_type_id":"4","last_reported":1733213608,"current_range_meters":27200,"station_id":"ce4bgl12rcd13ifvqbo0","pricing_plan_id":"cebpf4jnsgd1na2vs0mg"},{"bike_id":"7ce87540-068e-40a8-8b73-bc4713996526","system_id":"levelo_inurba_marseille","lat":43.3029,"lon":5.37696,"is_reserved":false,"is_disabled":true,"rental_uris":{"android":"levelo://app?vid=7ce87540-068e-40a8-8b73-bc4713996526","ios":"levelo://app?vid=7ce87540-068e-40a8-8b73-bc4713996526"},"vehicle_type_id":"4","last_reported":1733213608,"current_range_meters":0,"station_id":"ce4bguh2rcd13ifvqcj0","pricing_plan_id":"cebpf4jnsgd1na2vs0mg"},{"bike_id":"16e13872-2a5d-4ac5-a68a-0147e9b4c0f2","system_id":"levelo_inurba_marseille","lat":43.33601,"lon":5.41027,"is_reserved":false,"is_disabled":false,"rental_uris":{"android":"levelo://app?vid=16e13872-2a5d-4ac5-a68a-0147e9b4c0f2","ios":"levelo://app?vid=16e13872-2a5d-4ac5-a68a-0147e9b4c0f2"},"vehicle_type_id":"4","last_reported":1733213608,"current_range_meters":34800,"station_id":"ce4bhqh2rcd13ifvqhmg","pricing_plan_id":"cebpf4jnsgd1na2vs0mg"},{"bike_id":"1d65471b-f176-4b0b-b41d-d9591f88d0e8","system_id":"levelo_inurba_marseille","lat":43.24078,"lon":5.37755,"is_reserved":false,"is_disabled":true,"rental_uris":{"android":"levelo://app?vid=1d65471b-f176-4b0b-b41d-d9591f88d0e8","ios":"levelo://app?vid=1d65471b-f176-4b0b-b41d-d9591f88d0e8"},"vehicle_type_id":"4","last_reported":1733213608,"current_range_meters":2000,"station_id":"ce4bhnp2rcd13ifvqgvg","pricing_plan_id":"cebpf4jnsgd1na2vs0mg"},{"bike_id":"6e49b6f3-be34-4041-b571-4c2e12dbac4f","system_id":"levelo_inurba_marseille","lat":43.26956,"lon":5.38631,"is_reserved":false,"is_disabled":false,"rental_uris":{"android":"levelo://app?vid=6e49b6f3-be34-4041-b571-4c2e12dbac4f","ios":"levelo://app?vid=6e49b6f3-be34-4041-b571-4c2e12dbac4f"},"vehicle_type_id":"4","last_reported":1733213608,"current_range_meters":39200,"station_id":"ce4bhh92rcd13ifvqfh0","pricing_plan_id":"cebpf4jnsgd1na2vs0mg"},{"bike_id":"586734c9-f4b0-49e7-b1eb-e1b3f291af8a","system_id":"levelo_inurba_marseille","lat":43.30529,"lon":5.36709,"is_reserved":false,"is_disabled":false,"rental_uris":{"android":"levelo://app?vid=586734c9-f4b0-49e7-b1eb-e1b3f291af8a","ios":"levelo://app?vid=586734c9-f4b0-49e7-b1eb-e1b3f291af8a"},"vehicle_type_id":"4","last_reported":1733213608,"current_range_meters":26800,"station_id":"ce4bgrp2rcd13ifvqc9g","pricing_plan_id":"cebpf4jnsgd1na2vs0mg"},{"bike_id":"4c87974a-4682-4258-b942-766c6585361c","system_id":"levelo_inurba_marseille","lat":43.30149,"lon":5.38081,"is_reserved":false,"is_disabled":false,"rental_uris":{"android":"levelo://app?vid=4c87974a-4682-4258-b942-766c6585361c","ios":"levelo://app?vid=4c87974a-4682-4258-b942-766c6585361c"},"vehicle_type_id":"4","last_reported":1733213608,"current_range_meters":31200,"station_id":"ce4bgjp2rcd13ifvqbh0","pricing_plan_id":"cebpf4jnsgd1na2vs0mg"},{"bike_id":"8cbb1876-809e-4922-953b-40d493b437d4","system_id":"levelo_inurba_marseille","lat":43.32339,"lon":5.4062,"is_reserved":false,"is_disabled":false,"rental_uris":{"android":"levelo://app?vid=8cbb1876-809e-4922-953b-40d493b437d4","ios":"levelo://app?vid=8cbb1876-809e-4922-953b-40d493b437d4"},"vehicle_type_id":"4","last_reported":1733213608,"current_range_meters":24400,"station_id":"ce4bhq92rcd13ifvqhjg","pricing_plan_id":"cebpf4jnsgd1na2vs0mg"},{"bike_id":"29e5a72a-1f12-4815-9cbd-7b8f7c59d95d","system_id":"levelo_inurba_marseille","lat":43.23148,"lon":5.43721,"is_reserved":false,"is_disabled":false,"rental_uris":{"android":"levelo://app?vid=29e5a72a-1f12-4815-9cbd-7b8f7c59d95d","ios":"levelo://app?vid=29e5a72a-1f12-4815-9cbd-7b8f7c59d95d"},"vehicle_type_id":"4","last_reported":1733213608,"current_range_meters":28000,"station_id":"ce4bhmp2rcd13ifvqgog","pricing_plan_id":"cebpf4jnsgd1na2vs0mg"},{"bike_id":"b4533f45-219d-4b8a-a4d0-be61d17d39f4","system_id":"levelo_inurba_marseille","lat":43.337444,"lon":5.374475,"is_reserved":false,"is_disabled":false,"rental_uris":{"android":"levelo://app?vid=b4533f45-219d-4b8a-a4d0-be61d17d39f4","ios":"levelo://app?vid=b4533f45-219d-4b8a-a4d0-be61d17d39f4"},"vehicle_type_id":"4","last_reported":1733213608,"current_range_meters":38800,"station_id":"","pricing_plan_id":"cebpf4jnsgd1na2vs0mg"},{"bike_id":"14aa00cd-9ded-48be-bfaf-f00f1d8a5b3c","system_id":"levelo_inurba_marseille","lat":43.25931,"lon":5.409,"is_reserved":false,"is_disabled":false,"rental_uris":{"android":"levelo://app?vid=14aa00cd-9ded-48be-bfaf-f00f1d8a5b3c","ios":"levelo://app?vid=14aa00cd-9ded-48be-bfaf-f00f1d8a5b3c"},"vehicle_type_id":"4","last_reported":1733213608,"current_range_meters":27200,"station_id":"ce4bhm92rcd13ifvqglg","pricing_plan_id":"cebpf4jnsgd1na2vs0mg"},{"bike_id":"719e509a-25e4-4b1b-9830-f708d85d7593","system_id":"levelo_inurba_marseille","lat":43.29569,"lon":5.37512,"is_reserved":false,"is_disabled":true,"rental_uris":{"android":"levelo://app?vid=719e509a-25e4-4b1b-9830-f708d85d7593","ios":"levelo://app?vid=719e509a-25e4-4b1b-9830-f708d85d7593"},"vehicle_type_id":"4","last_reported":1733213608,"current_range_meters":0,"station_id":"ce4bgh92rcd13ifvqb50","pricing_plan_id":"cebpf4jnsgd1na2vs0mg"},{"bike_id":"a1298e2d-e3b2-4846-a441-b12d343fb45a","system_id":"levelo_inurba_marseille","lat":43.24079,"lon":5.37756,"is_reserved":false,"is_disabled":false,"rental_uris":{"android":"levelo://app?vid=a1298e2d-e3b2-4846-a441-b12d343fb45a","ios":"levelo://app?vid=a1298e2d-e3b2-4846-a441-b12d343fb45a"},"vehicle_type_id":"4","last_reported":1733213608,"current_range_meters":32400,"station_id":"ce4bhnp2rcd13ifvqgvg","pricing_plan_id":"cebpf4jnsgd1na2vs0mg"},{"bike_id":"b8c4c32e-75d5-42c2-ae07-2a3da3c2053b","system_id":"levelo_inurba_marseille","lat":43.27491,"lon":5.42457,"is_reserved":false,"is_disabled":true,"rental_uris":{"android":"levelo://app?vid=b8c4c32e-75d5-42c2-ae07-2a3da3c2053b","ios":"levelo://app?vid=b8c4c32e-75d5-42c2-ae07-2a3da3c2053b"},"vehicle_type_id":"4","last_reported":1733213608,"current_range_meters":30000,"station_id":"ce4bhn92rcd13ifvqgrg","pricing_plan_id":"cebpf4jnsgd1na2vs0mg"},{"bike_id":"c87738fb-428a-4b9a-8678-f41fc9a17a1b","system_id":"levelo_inurba_marseille","lat":43.33024,"lon":5.39045,"is_reserved":false,"is_disabled":false,"rental_uris":{"android":"levelo://app?vid=c87738fb-428a-4b9a-8678-f41fc9a17a1b","ios":"levelo://app?vid=c87738fb-428a-4b9a-8678-f41fc9a17a1b"},"vehicle_type_id":"4","last_reported":1733213608,"current_range_meters":36800,"station_id":"ce4bhr92rcd13ifvqhrg","pricing_plan_id":"cebpf4jnsgd1na2vs0mg"},{"bike_id":"5d7c9e24-fecf-49f1-afd0-481a24a26cee","system_id":"levelo_inurba_marseille","lat":43.24069,"lon":5.3776,"is_reserved":false,"is_disabled":false,"rental_uris":{"android":"levelo://app?vid=5d7c9e24-fecf-49f1-afd0-481a24a26cee","ios":"levelo://app?vid=5d7c9e24-fecf-49f1-afd0-481a24a26cee"},"vehicle_type_id":"4","last_reported":1733213608,"current_range_meters":37600,"station_id":"ce4bhnp2rcd13ifvqgvg","pricing_plan_id":"cebpf4jnsgd1na2vs0mg"},{"bike_id":"2cf65095-36e5-4949-abae-c54c2895d97b","system_id":"levelo_inurba_marseille","lat":43.32591,"lon":5.4138,"is_reserved":false,"is_disabled":true,"rental_uris":{"android":"levelo://app?vid=2cf65095-36e5-4949-abae-c54c2895d97b","ios":"levelo://app?vid=2cf65095-36e5-4949-abae-c54c2895d97b"},"vehicle_type_id":"4","last_reported":1733213608,"current_range_meters":0,"station_id":"","pricing_plan_id":"cebpf4jnsgd1na2vs0mg"},{"bike_id":"7eeb5ac6-a3ab-4724-a0d1-17bed7e385e6","system_id":"levelo_inurba_marseille","lat":43.27996,"lon":5.41665,"is_reserved":false,"is_disabled":false,"rental_uris":{"android":"levelo://app?vid=7eeb5ac6-a3ab-4724-a0d1-17bed7e385e6","ios":"levelo://app?vid=7eeb5ac6-a3ab-4724-a0d1-17bed7e385e6"},"vehicle_type_id":"4","last_reported":1733213608,"current_range_meters":32400,"station_id":"ce4bho12rcd13ifvqh1g","pricing_plan_id":"cebpf4jnsgd1na2vs0mg"},{"bike_id":"a185488a-92c0-4e03-80e6-d8de8ffeef23","system_id":"levelo_inurba_marseille","lat":43.33161,"lon":5.38702,"is_reserved":false,"is_disabled":false,"rental_uris":{"android":"levelo://app?vid=a185488a-92c0-4e03-80e6-d8de8ffeef23","ios":"levelo://app?vid=a185488a-92c0-4e03-80e6-d8de8ffeef23"},"vehicle_type_id":"4","last_reported":1733213608,"current_range_meters":38400,"station_id":"","pricing_plan_id":"cebpf4jnsgd1na2vs0mg"},{"bike_id":"c01acf7d-441d-4ca0-afb9-496a1286b8a2","system_id":"levelo_inurba_marseille","lat":43.33601,"lon":5.41031,"is_reserved":false,"is_disabled":false,"rental_uris":{"android":"levelo://app?vid=c01acf7d-441d-4ca0-afb9-496a1286b8a2","ios":"levelo://app?vid=c01acf7d-441d-4ca0-afb9-496a1286b8a2"},"vehicle_type_id":"4","last_reported":1733213608,"current_range_meters":18800,"station_id":"ce4bhqh2rcd13ifvqhmg","pricing_plan_id":"cebpf4jnsgd1na2vs0mg"},{"bike_id":"1765576d-ad21-4bb0-85a8-4c7cde4f5294","system_id":"levelo_inurba_marseille","lat":43.29626,"lon":5.37149,"is_reserved":false,"is_disabled":true,"rental_uris":{"android":"levelo://app?vid=1765576d-ad21-4bb0-85a8-4c7cde4f5294","ios":"levelo://app?vid=1765576d-ad21-4bb0-85a8-4c7cde4f5294"},"vehicle_type_id":"4","last_reported":1733213608,"current_range_meters":7200,"station_id":"ce4bgnh2rcd13ifvqc0g","pricing_plan_id":"cebpf4jnsgd1na2vs0mg"},{"bike_id":"73ba13fd-8fd1-40e4-9f91-6c2959c7ffcf","system_id":"levelo_inurba_marseille","lat":43.28277,"lon":5.3507,"is_reserved":false,"is_disabled":false,"rental_uris":{"android":"levelo://app?vid=73ba13fd-8fd1-40e4-9f91-6c2959c7ffcf","ios":"levelo://app?vid=73ba13fd-8fd1-40e4-9f91-6c2959c7ffcf"},"vehicle_type_id":"4","last_reported":1733213608,"current_range_meters":17600,"station_id":"ce4bhbp2rcd13ifvqerg","pricing_plan_id":"cebpf4jnsgd1na2vs0mg"},{"bike_id":"ff5604fe-38b8-40cc-942e-642b7ff521ca","system_id":"levelo_inurba_marseille","lat":43.25934,"lon":5.40907,"is_reserved":false,"is_disabled":false,"rental_uris":{"android":"levelo://app?vid=ff5604fe-38b8-40cc-942e-642b7ff521ca","ios":"levelo://app?vid=ff5604fe-38b8-40cc-942e-642b7ff521ca"},"vehicle_type_id":"4","last_reported":1733213608,"current_range_meters":28000,"station_id":"ce4bhm92rcd13ifvqglg","pricing_plan_id":"cebpf4jnsgd1na2vs0mg"},{"bike_id":"fa38f102-e81b-4ead-abd6-e2f1ae536b0b","system_id":"levelo_inurba_marseille","lat":43.240603,"lon":5.377577,"is_reserved":false,"is_disabled":false,"rental_uris":{"android":"levelo://app?vid=fa38f102-e81b-4ead-abd6-e2f1ae536b0b","ios":"levelo://app?vid=fa38f102-e81b-4ead-abd6-e2f1ae536b0b"},"vehicle_type_id":"4","last_reported":1733213608,"current_range_meters":8800,"station_id":"ce4bhnp2rcd13ifvqgvg","pricing_plan_id":"cebpf4jnsgd1na2vs0mg"},{"bike_id":"66b1eb52-58a6-4de9-a47c-c45493ee9a08","system_id":"levelo_inurba_marseille","lat":43.30154,"lon":5.38092,"is_reserved":false,"is_disabled":false,"rental_uris":{"android":"levelo://app?vid=66b1eb52-58a6-4de9-a47c-c45493ee9a08","ios":"levelo://app?vid=66b1eb52-58a6-4de9-a47c-c45493ee9a08"},"vehicle_type_id":"4","last_reported":1733213608,"current_range_meters":33200,"station_id":"ce4bgjp2rcd13ifvqbh0","pricing_plan_id":"cebpf4jnsgd1na2vs0mg"},{"bike_id":"25a77f1a-f298-42be-804b-a4c979ded697","system_id":"levelo_inurba_marseille","lat":43.292695,"lon":5.384458,"is_reserved":false,"is_disabled":false,"rental_uris":{"android":"levelo://app?vid=25a77f1a-f298-42be-804b-a4c979ded697","ios":"levelo://app?vid=25a77f1a-f298-42be-804b-a4c979ded697"},"vehicle_type_id":"4","last_reported":1733213608,"current_range_meters":19200,"station_id":"ce4bh692rcd13ifvqea0","pricing_plan_id":"cebpf4jnsgd1na2vs0mg"},{"bike_id":"cce4929b-ec72-4a27-8354-4062904b82be","system_id":"levelo_inurba_marseille","lat":43.26936,"lon":5.38637,"is_reserved":false,"is_disabled":true,"rental_uris":{"android":"levelo://app?vid=cce4929b-ec72-4a27-8354-4062904b82be","ios":"levelo://app?vid=cce4929b-ec72-4a27-8354-4062904b82be"},"vehicle_type_id":"4","last_reported":1733213608,"current_range_meters":18000,"station_id":"ce4bhh92rcd13ifvqfh0","pricing_plan_id":"cebpf4jnsgd1na2vs0mg"},{"bike_id":"39ce6899-c2cd-4abb-8c4c-6f99bead7314","system_id":"levelo_inurba_marseille","lat":43.30087,"lon":5.39079,"is_reserved":false,"is_disabled":false,"rental_uris":{"android":"levelo://app?vid=39ce6899-c2cd-4abb-8c4c-6f99bead7314","ios":"levelo://app?vid=39ce6899-c2cd-4abb-8c4c-6f99bead7314"},"vehicle_type_id":"4","last_reported":1733213608,"current_range_meters":38800,"station_id":"ce4bh192rcd13ifvqdb0","pricing_plan_id":"cebpf4jnsgd1na2vs0mg"},{"bike_id":"e8779c8a-d656-4815-9895-db772e5354c1","system_id":"levelo_inurba_marseille","lat":43.30491,"lon":5.37902,"is_reserved":false,"is_disabled":true,"rental_uris":{"android":"levelo://app?vid=e8779c8a-d656-4815-9895-db772e5354c1","ios":"levelo://app?vid=e8779c8a-d656-4815-9895-db772e5354c1"},"vehicle_type_id":"4","last_reported":1733213608,"current_range_meters":26800,"station_id":"ce4bgup2rcd13ifvqcn0","pricing_plan_id":"cebpf4jnsgd1na2vs0mg"},{"bike_id":"19caac7f-17c0-44f1-b123-1909cc6d89c1","system_id":"levelo_inurba_marseille","lat":43.29972,"lon":5.37177,"is_reserved":false,"is_disabled":false,"rental_uris":{"android":"levelo://app?vid=19caac7f-17c0-44f1-b123-1909cc6d89c1","ios":"levelo://app?vid=19caac7f-17c0-44f1-b123-1909cc6d89c1"},"vehicle_type_id":"4","last_reported":1733213608,"current_range_meters":30400,"station_id":"ce4bgr92rcd13ifvqc7g","pricing_plan_id":"cebpf4jnsgd1na2vs0mg"},{"bike_id":"8a9ac844-4cd9-4a4f-98af-5cd4e132a472","system_id":"levelo_inurba_marseille","lat":43.30463,"lon":5.37908,"is_reserved":false,"is_disabled":false,"rental_uris":{"android":"levelo://app?vid=8a9ac844-4cd9-4a4f-98af-5cd4e132a472","ios":"levelo://app?vid=8a9ac844-4cd9-4a4f-98af-5cd4e132a472"},"vehicle_type_id":"4","last_reported":1733213608,"current_range_meters":38800,"station_id":"ce4bgup2rcd13ifvqcn0","pricing_plan_id":"cebpf4jnsgd1na2vs0mg"},{"bike_id":"29b0ed5f-1a1f-40d6-81f3-cd188edac674","system_id":"levelo_inurba_marseille","lat":43.29701,"lon":5.37695,"is_reserved":false,"is_disabled":false,"rental_uris":{"android":"levelo://app?vid=29b0ed5f-1a1f-40d6-81f3-cd188edac674","ios":"levelo://app?vid=29b0ed5f-1a1f-40d6-81f3-cd188edac674"},"vehicle_type_id":"4","last_reported":1733213608,"current_range_meters":34800,"station_id":"ce4bgkh2rcd13ifvqbl0","pricing_plan_id":"cebpf4jnsgd1na2vs0mg"},{"bike_id":"00f24adf-e904-4879-a295-07bd2f907933","system_id":"levelo_inurba_marseille","lat":43.24075,"lon":5.3776,"is_reserved":false,"is_disabled":false,"rental_uris":{"android":"levelo://app?vid=00f24adf-e904-4879-a295-07bd2f907933","ios":"levelo://app?vid=00f24adf-e904-4879-a295-07bd2f907933"},"vehicle_type_id":"4","last_reported":1733213608,"current_range_meters":33600,"station_id":"ce4bhnp2rcd13ifvqgvg","pricing_plan_id":"cebpf4jnsgd1na2vs0mg"},{"bike_id":"a8470222-8fc2-465c-8f1d-616d899efbab","system_id":"levelo_inurba_marseille","lat":43.25926,"lon":5.40916,"is_reserved":false,"is_disabled":false,"rental_uris":{"android":"levelo://app?vid=a8470222-8fc2-465c-8f1d-616d899efbab","ios":"levelo://app?vid=a8470222-8fc2-465c-8f1d-616d899efbab"},"vehicle_type_id":"4","last_reported":1733213608,"current_range_meters":28800,"station_id":"ce4bhm92rcd13ifvqglg","pricing_plan_id":"cebpf4jnsgd1na2vs0mg"},{"bike_id":"ebdcd2a0-d47c-4ff7-8f11-d514986e5e6d","system_id":"levelo_inurba_marseille","lat":43.3237,"lon":5.38884,"is_reserved":false,"is_disabled":false,"rental_uris":{"android":"levelo://app?vid=ebdcd2a0-d47c-4ff7-8f11-d514986e5e6d","ios":"levelo://app?vid=ebdcd2a0-d47c-4ff7-8f11-d514986e5e6d"},"vehicle_type_id":"4","last_reported":1733213608,"current_range_meters":22800,"station_id":"ce4bhqp2rcd13ifvqhog","pricing_plan_id":"cebpf4jnsgd1na2vs0mg"},{"bike_id":"79c8ea6d-5102-4a1e-b941-afdabc095945","system_id":"levelo_inurba_marseille","lat":43.29068,"lon":5.38338,"is_reserved":false,"is_disabled":true,"rental_uris":{"android":"levelo://app?vid=79c8ea6d-5102-4a1e-b941-afdabc095945","ios":"levelo://app?vid=79c8ea6d-5102-4a1e-b941-afdabc095945"},"vehicle_type_id":"4","last_reported":1733213608,"current_range_meters":26000,"station_id":"","pricing_plan_id":"cebpf4jnsgd1na2vs0mg"},{"bike_id":"8e927bbb-5066-42b7-8164-6ebe56ea8ad0","system_id":"levelo_inurba_marseille","lat":43.33603,"lon":5.41026,"is_reserved":false,"is_disabled":false,"rental_uris":{"android":"levelo://app?vid=8e927bbb-5066-42b7-8164-6ebe56ea8ad0","ios":"levelo://app?vid=8e927bbb-5066-42b7-8164-6ebe56ea8ad0"},"vehicle_type_id":"4","last_reported":1733213608,"current_range_meters":39200,"station_id":"ce4bhqh2rcd13ifvqhmg","pricing_plan_id":"cebpf4jnsgd1na2vs0mg"},{"bike_id":"00e63d3b-a6ed-41f9-aa3b-70572b0e1439","system_id":"levelo_inurba_marseille","lat":43.2903,"lon":5.39981,"is_reserved":false,"is_disabled":false,"rental_uris":{"android":"levelo://app?vid=00e63d3b-a6ed-41f9-aa3b-70572b0e1439","ios":"levelo://app?vid=00e63d3b-a6ed-41f9-aa3b-70572b0e1439"},"vehicle_type_id":"4","last_reported":1733213608,"current_range_meters":35200,"station_id":"ce4bh392rcd13ifvqdm0","pricing_plan_id":"cebpf4jnsgd1na2vs0mg"},{"bike_id":"52466af8-be26-4528-be5e-df98d7c8297e","system_id":"levelo_inurba_marseille","lat":43.337444,"lon":5.374475,"is_reserved":false,"is_disabled":false,"rental_uris":{"android":"levelo://app?vid=52466af8-be26-4528-be5e-df98d7c8297e","ios":"levelo://app?vid=52466af8-be26-4528-be5e-df98d7c8297e"},"vehicle_type_id":"4","last_reported":1733213608,"current_range_meters":16400,"station_id":"ce4bho92rcd13ifvqh4g","pricing_plan_id":"cebpf4jnsgd1na2vs0mg"},{"bike_id":"defb2e66-a1a2-47b0-ab69-2600758b4bc7","system_id":"levelo_inurba_marseille","lat":43.255749,"lon":5.382416,"is_reserved":false,"is_disabled":false,"rental_uris":{"android":"levelo://app?vid=defb2e66-a1a2-47b0-ab69-2600758b4bc7","ios":"levelo://app?vid=defb2e66-a1a2-47b0-ab69-2600758b4bc7"},"vehicle_type_id":"4","last_reported":1733213608,"current_range_meters":38800,"station_id":"ce4bhih2rcd13ifvqfs0","pricing_plan_id":"cebpf4jnsgd1na2vs0mg"},{"bike_id":"d337693b-82b2-4f65-ad74-9a2472a5f9cd","system_id":"levelo_inurba_marseille","lat":43.29791,"lon":5.38107,"is_reserved":false,"is_disabled":true,"rental_uris":{"android":"levelo://app?vid=d337693b-82b2-4f65-ad74-9a2472a5f9cd","ios":"levelo://app?vid=d337693b-82b2-4f65-ad74-9a2472a5f9cd"},"vehicle_type_id":"4","last_reported":1733213608,"current_range_meters":36800,"station_id":"ce4bgip2rcd13ifvqbb0","pricing_plan_id":"cebpf4jnsgd1na2vs0mg"},{"bike_id":"45651a3a-8cc9-42eb-9928-7ab1e6ad7318","system_id":"levelo_inurba_marseille","lat":43.29533,"lon":5.37501,"is_reserved":false,"is_disabled":false,"rental_uris":{"android":"levelo://app?vid=45651a3a-8cc9-42eb-9928-7ab1e6ad7318","ios":"levelo://app?vid=45651a3a-8cc9-42eb-9928-7ab1e6ad7318"},"vehicle_type_id":"4","last_reported":1733213608,"current_range_meters":33200,"station_id":"ce4bgkp2rcd13ifvqbmg","pricing_plan_id":"cebpf4jnsgd1na2vs0mg"},{"bike_id":"ea924999-ad0c-4479-8dd5-2c37d17212a3","system_id":"levelo_inurba_marseille","lat":43.30278,"lon":5.37707,"is_reserved":false,"is_disabled":false,"rental_uris":{"android":"levelo://app?vid=ea924999-ad0c-4479-8dd5-2c37d17212a3","ios":"levelo://app?vid=ea924999-ad0c-4479-8dd5-2c37d17212a3"},"vehicle_type_id":"4","last_reported":1733213608,"current_range_meters":24400,"station_id":"ce4bguh2rcd13ifvqcj0","pricing_plan_id":"cebpf4jnsgd1na2vs0mg"},{"bike_id":"01e5ce77-4366-4ea3-b4a8-a34ffe26e9a9","system_id":"levelo_inurba_marseille","lat":43.25933,"lon":5.40917,"is_reserved":false,"is_disabled":false,"rental_uris":{"android":"levelo://app?vid=01e5ce77-4366-4ea3-b4a8-a34ffe26e9a9","ios":"levelo://app?vid=01e5ce77-4366-4ea3-b4a8-a34ffe26e9a9"},"vehicle_type_id":"4","last_reported":1733213608,"current_range_meters":28800,"station_id":"ce4bhm92rcd13ifvqglg","pricing_plan_id":"cebpf4jnsgd1na2vs0mg"},{"bike_id":"427d7497-fe79-4531-b7d6-69d2614ceec1","system_id":"levelo_inurba_marseille","lat":43.29192,"lon":5.38493,"is_reserved":false,"is_disabled":true,"rental_uris":{"android":"levelo://app?vid=427d7497-fe79-4531-b7d6-69d2614ceec1","ios":"levelo://app?vid=427d7497-fe79-4531-b7d6-69d2614ceec1"},"vehicle_type_id":"4","last_reported":1733213608,"current_range_meters":9600,"station_id":"","pricing_plan_id":"cebpf4jnsgd1na2vs0mg"},{"bike_id":"58745024-055b-4c1b-b90f-3161671a49a0","system_id":"levelo_inurba_marseille","lat":43.25731,"lon":5.41113,"is_reserved":false,"is_disabled":false,"rental_uris":{"android":"levelo://app?vid=58745024-055b-4c1b-b90f-3161671a49a0","ios":"levelo://app?vid=58745024-055b-4c1b-b90f-3161671a49a0"},"vehicle_type_id":"4","last_reported":1733213608,"current_range_meters":38800,"station_id":"ce4bhkp2rcd13ifvqgd0","pricing_plan_id":"cebpf4jnsgd1na2vs0mg"},{"bike_id":"bdd10113-aee4-4824-84df-837e10ebad1e","system_id":"levelo_inurba_marseille","lat":43.29094,"lon":5.38155,"is_reserved":false,"is_disabled":true,"rental_uris":{"android":"levelo://app?vid=bdd10113-aee4-4824-84df-837e10ebad1e","ios":"levelo://app?vid=bdd10113-aee4-4824-84df-837e10ebad1e"},"vehicle_type_id":"4","last_reported":1733213608,"current_range_meters":6000,"station_id":"ce4bh512rcd13ifvqe2g","pricing_plan_id":"cebpf4jnsgd1na2vs0mg"},{"bike_id":"daa64a8d-65e1-48f3-89e8-4d94f47a6133","system_id":"levelo_inurba_marseille","lat":43.30534,"lon":5.36552,"is_reserved":false,"is_disabled":false,"rental_uris":{"android":"levelo://app?vid=daa64a8d-65e1-48f3-89e8-4d94f47a6133","ios":"levelo://app?vid=daa64a8d-65e1-48f3-89e8-4d94f47a6133"},"vehicle_type_id":"4","last_reported":1733213608,"current_range_meters":20800,"station_id":"ce4bgs12rcd13ifvqcag","pricing_plan_id":"cebpf4jnsgd1na2vs0mg"},{"bike_id":"a4b9e425-64b8-4ce2-a5ab-5fcc5d1230a4","system_id":"levelo_inurba_marseille","lat":43.32109,"lon":5.36767,"is_reserved":false,"is_disabled":false,"rental_uris":{"android":"levelo://app?vid=a4b9e425-64b8-4ce2-a5ab-5fcc5d1230a4","ios":"levelo://app?vid=a4b9e425-64b8-4ce2-a5ab-5fcc5d1230a4"},"vehicle_type_id":"4","last_reported":1733213608,"current_range_meters":11600,"station_id":"ce4bhrh2rcd13ifvqhug","pricing_plan_id":"cebpf4jnsgd1na2vs0mg"},{"bike_id":"484a67fa-495e-4099-85bc-5e0cded92f5a","system_id":"levelo_inurba_marseille","lat":43.29794,"lon":5.38094,"is_reserved":false,"is_disabled":false,"rental_uris":{"android":"levelo://app?vid=484a67fa-495e-4099-85bc-5e0cded92f5a","ios":"levelo://app?vid=484a67fa-495e-4099-85bc-5e0cded92f5a"},"vehicle_type_id":"4","last_reported":1733213608,"current_range_meters":38800,"station_id":"ce4bgip2rcd13ifvqbb0","pricing_plan_id":"cebpf4jnsgd1na2vs0mg"},{"bike_id":"e7593ea2-ec58-4888-b050-c3efd4c6660c","system_id":"levelo_inurba_marseille","lat":43.24076,"lon":5.37757,"is_reserved":false,"is_disabled":false,"rental_uris":{"android":"levelo://app?vid=e7593ea2-ec58-4888-b050-c3efd4c6660c","ios":"levelo://app?vid=e7593ea2-ec58-4888-b050-c3efd4c6660c"},"vehicle_type_id":"4","last_reported":1733213608,"current_range_meters":9600,"station_id":"ce4bhnp2rcd13ifvqgvg","pricing_plan_id":"cebpf4jnsgd1na2vs0mg"},{"bike_id":"0468344b-060f-445c-a271-87a992ad6680","system_id":"levelo_inurba_marseille","lat":43.25574,"lon":5.3823,"is_reserved":false,"is_disabled":false,"rental_uris":{"android":"levelo://app?vid=0468344b-060f-445c-a271-87a992ad6680","ios":"levelo://app?vid=0468344b-060f-445c-a271-87a992ad6680"},"vehicle_type_id":"4","last_reported":1733213608,"current_range_meters":30400,"station_id":"ce4bhih2rcd13ifvqfs0","pricing_plan_id":"cebpf4jnsgd1na2vs0mg"},{"bike_id":"b1e6b49b-359d-4791-b1ed-8e1b7d5c7a6e","system_id":"levelo_inurba_marseille","lat":43.337444,"lon":5.374475,"is_reserved":false,"is_disabled":false,"rental_uris":{"android":"levelo://app?vid=b1e6b49b-359d-4791-b1ed-8e1b7d5c7a6e","ios":"levelo://app?vid=b1e6b49b-359d-4791-b1ed-8e1b7d5c7a6e"},"vehicle_type_id":"4","last_reported":1733213608,"current_range_meters":12000,"station_id":"","pricing_plan_id":"cebpf4jnsgd1na2vs0mg"},{"bike_id":"ea4a063a-aaf0-4786-badd-db5183dc0fbc","system_id":"levelo_inurba_marseille","lat":43.24079,"lon":5.37754,"is_reserved":false,"is_disabled":false,"rental_uris":{"android":"levelo://app?vid=ea4a063a-aaf0-4786-badd-db5183dc0fbc","ios":"levelo://app?vid=ea4a063a-aaf0-4786-badd-db5183dc0fbc"},"vehicle_type_id":"4","last_reported":1733213608,"current_range_meters":4400,"station_id":"ce4bhnp2rcd13ifvqgvg","pricing_plan_id":"cebpf4jnsgd1na2vs0mg"},{"bike_id":"216616ff-f59a-4303-9300-a50b08bc08b0","system_id":"levelo_inurba_marseille","lat":43.30305,"lon":5.39207,"is_reserved":false,"is_disabled":true,"rental_uris":{"android":"levelo://app?vid=216616ff-f59a-4303-9300-a50b08bc08b0","ios":"levelo://app?vid=216616ff-f59a-4303-9300-a50b08bc08b0"},"vehicle_type_id":"4","last_reported":1733213608,"current_range_meters":6000,"station_id":"ce4bgkh2rcd13ifvqbk0","pricing_plan_id":"cebpf4jnsgd1na2vs0mg"},{"bike_id":"cf411c2a-cc80-4aeb-9c99-a3d88fef5d8f","system_id":"levelo_inurba_marseille","lat":43.29582,"lon":5.37736,"is_reserved":false,"is_disabled":true,"rental_uris":{"android":"levelo://app?vid=cf411c2a-cc80-4aeb-9c99-a3d88fef5d8f","ios":"levelo://app?vid=cf411c2a-cc80-4aeb-9c99-a3d88fef5d8f"},"vehicle_type_id":"4","last_reported":1733213608,"current_range_meters":9600,"station_id":"","pricing_plan_id":"cebpf4jnsgd1na2vs0mg"},{"bike_id":"185605e4-bd28-4a9e-9875-c0331c263d67","system_id":"levelo_inurba_marseille","lat":43.31401,"lon":5.36715,"is_reserved":false,"is_disabled":false,"rental_uris":{"android":"levelo://app?vid=185605e4-bd28-4a9e-9875-c0331c263d67","ios":"levelo://app?vid=185605e4-bd28-4a9e-9875-c0331c263d67"},"vehicle_type_id":"4","last_reported":1733213608,"current_range_meters":10000,"station_id":"","pricing_plan_id":"cebpf4jnsgd1na2vs0mg"},{"bike_id":"9f6372a6-065a-4e4e-a232-8f126a87f16a","system_id":"levelo_inurba_marseille","lat":43.27925,"lon":5.39565,"is_reserved":false,"is_disabled":false,"rental_uris":{"android":"levelo://app?vid=9f6372a6-065a-4e4e-a232-8f126a87f16a","ios":"levelo://app?vid=9f6372a6-065a-4e4e-a232-8f126a87f16a"},"vehicle_type_id":"4","last_reported":1733213608,"current_range_meters":36800,"station_id":"ce4bhf92rcd13ifvqf40","pricing_plan_id":"cebpf4jnsgd1na2vs0mg"},{"bike_id":"4a5dc23a-914a-483a-9fd9-11c316d3acb1","system_id":"levelo_inurba_marseille","lat":43.25936,"lon":5.40911,"is_reserved":false,"is_disabled":true,"rental_uris":{"android":"levelo://app?vid=4a5dc23a-914a-483a-9fd9-11c316d3acb1","ios":"levelo://app?vid=4a5dc23a-914a-483a-9fd9-11c316d3acb1"},"vehicle_type_id":"4","last_reported":1733213608,"current_range_meters":38800,"station_id":"ce4bhm92rcd13ifvqglg","pricing_plan_id":"cebpf4jnsgd1na2vs0mg"},{"bike_id":"7caca3ca-4ad5-4e41-ba66-df02bee491aa","system_id":"levelo_inurba_marseille","lat":43.29933,"lon":5.36534,"is_reserved":false,"is_disabled":true,"rental_uris":{"android":"levelo://app?vid=7caca3ca-4ad5-4e41-ba66-df02bee491aa","ios":"levelo://app?vid=7caca3ca-4ad5-4e41-ba66-df02bee491aa"},"vehicle_type_id":"4","last_reported":1733213608,"current_range_meters":6800,"station_id":"ce4bgm92rcd13ifvqbr0","pricing_plan_id":"cebpf4jnsgd1na2vs0mg"},{"bike_id":"00bcecab-17a3-4e2b-98f0-454b6df3cd87","system_id":"levelo_inurba_marseille","lat":43.28001,"lon":5.41671,"is_reserved":false,"is_disabled":false,"rental_uris":{"android":"levelo://app?vid=00bcecab-17a3-4e2b-98f0-454b6df3cd87","ios":"levelo://app?vid=00bcecab-17a3-4e2b-98f0-454b6df3cd87"},"vehicle_type_id":"4","last_reported":1733213608,"current_range_meters":38800,"station_id":"ce4bho12rcd13ifvqh1g","pricing_plan_id":"cebpf4jnsgd1na2vs0mg"},{"bike_id":"b5a03233-d31f-4598-84c4-07d6d6043f52","system_id":"levelo_inurba_marseille","lat":43.28164,"lon":5.42639,"is_reserved":false,"is_disabled":false,"rental_uris":{"android":"levelo://app?vid=b5a03233-d31f-4598-84c4-07d6d6043f52","ios":"levelo://app?vid=b5a03233-d31f-4598-84c4-07d6d6043f52"},"vehicle_type_id":"4","last_reported":1733213608,"current_range_meters":36800,"station_id":"ce4bhnh2rcd13ifvqgug","pricing_plan_id":"cebpf4jnsgd1na2vs0mg"},{"bike_id":"b5aecf4d-8f03-4c41-a394-676685d9a453","system_id":"levelo_inurba_marseille","lat":43.33603,"lon":5.41031,"is_reserved":false,"is_disabled":false,"rental_uris":{"android":"levelo://app?vid=b5aecf4d-8f03-4c41-a394-676685d9a453","ios":"levelo://app?vid=b5aecf4d-8f03-4c41-a394-676685d9a453"},"vehicle_type_id":"4","last_reported":1733213608,"current_range_meters":16400,"station_id":"ce4bhqh2rcd13ifvqhmg","pricing_plan_id":"cebpf4jnsgd1na2vs0mg"},{"bike_id":"5e160b8e-5c83-4423-b051-bd2cf577003d","system_id":"levelo_inurba_marseille","lat":43.23189,"lon":5.35549,"is_reserved":false,"is_disabled":false,"rental_uris":{"android":"levelo://app?vid=5e160b8e-5c83-4423-b051-bd2cf577003d","ios":"levelo://app?vid=5e160b8e-5c83-4423-b051-bd2cf577003d"},"vehicle_type_id":"4","last_reported":1733213608,"current_range_meters":38800,"station_id":"ce4bhu92rcd13ifvqi70","pricing_plan_id":"cebpf4jnsgd1na2vs0mg"},{"bike_id":"322cf6fe-0822-422b-95a4-35c4bd952f62","system_id":"levelo_inurba_marseille","lat":43.27178,"lon":5.4099,"is_reserved":false,"is_disabled":false,"rental_uris":{"android":"levelo://app?vid=322cf6fe-0822-422b-95a4-35c4bd952f62","ios":"levelo://app?vid=322cf6fe-0822-422b-95a4-35c4bd952f62"},"vehicle_type_id":"4","last_reported":1733213608,"current_range_meters":25200,"station_id":"ce4bhl12rcd13ifvqgf0","pricing_plan_id":"cebpf4jnsgd1na2vs0mg"},{"bike_id":"ede89064-1ef0-4ec7-b935-09d4604f3c24","system_id":"levelo_inurba_marseille","lat":43.29021,"lon":5.38139,"is_reserved":false,"is_disabled":false,"rental_uris":{"android":"levelo://app?vid=ede89064-1ef0-4ec7-b935-09d4604f3c24","ios":"levelo://app?vid=ede89064-1ef0-4ec7-b935-09d4604f3c24"},"vehicle_type_id":"4","last_reported":1733213608,"current_range_meters":38800,"station_id":"ce4bh4p2rcd13ifvqe1g","pricing_plan_id":"cebpf4jnsgd1na2vs0mg"},{"bike_id":"dba4200f-3de8-4dcc-b2bd-a0831fac8af1","system_id":"levelo_inurba_marseille","lat":43.33604,"lon":5.41024,"is_reserved":false,"is_disabled":false,"rental_uris":{"android":"levelo://app?vid=dba4200f-3de8-4dcc-b2bd-a0831fac8af1","ios":"levelo://app?vid=dba4200f-3de8-4dcc-b2bd-a0831fac8af1"},"vehicle_type_id":"4","last_reported":1733213608,"current_range_meters":24400,"station_id":"ce4bhqh2rcd13ifvqhmg","pricing_plan_id":"cebpf4jnsgd1na2vs0mg"},{"bike_id":"0ecfd779-5539-47af-aacd-2f9643bc2006","system_id":"levelo_inurba_marseille","lat":43.30145,"lon":5.38085,"is_reserved":false,"is_disabled":false,"rental_uris":{"android":"levelo://app?vid=0ecfd779-5539-47af-aacd-2f9643bc2006","ios":"levelo://app?vid=0ecfd779-5539-47af-aacd-2f9643bc2006"},"vehicle_type_id":"4","last_reported":1733213608,"current_range_meters":30400,"station_id":"ce4bgjp2rcd13ifvqbh0","pricing_plan_id":"cebpf4jnsgd1na2vs0mg"},{"bike_id":"4eff8ac3-a105-42b8-9434-085a522d716a","system_id":"levelo_inurba_marseille","lat":43.33011,"lon":5.39028,"is_reserved":false,"is_disabled":false,"rental_uris":{"android":"levelo://app?vid=4eff8ac3-a105-42b8-9434-085a522d716a","ios":"levelo://app?vid=4eff8ac3-a105-42b8-9434-085a522d716a"},"vehicle_type_id":"4","last_reported":1733213608,"current_range_meters":28000,"station_id":"ce4bhr92rcd13ifvqhrg","pricing_plan_id":"cebpf4jnsgd1na2vs0mg"},{"bike_id":"c1eb454e-620f-4e79-8168-15d09fc90680","system_id":"levelo_inurba_marseille","lat":43.29364,"lon":5.37833,"is_reserved":false,"is_disabled":false,"rental_uris":{"android":"levelo://app?vid=c1eb454e-620f-4e79-8168-15d09fc90680","ios":"levelo://app?vid=c1eb454e-620f-4e79-8168-15d09fc90680"},"vehicle_type_id":"4","last_reported":1733213608,"current_range_meters":29600,"station_id":"ce4bgjh2rcd13ifvqbf0","pricing_plan_id":"cebpf4jnsgd1na2vs0mg"},{"bike_id":"dff91f48-f591-4ce0-8568-ae20c53ff6d4","system_id":"levelo_inurba_marseille","lat":43.30526,"lon":5.36704,"is_reserved":false,"is_disabled":false,"rental_uris":{"android":"levelo://app?vid=dff91f48-f591-4ce0-8568-ae20c53ff6d4","ios":"levelo://app?vid=dff91f48-f591-4ce0-8568-ae20c53ff6d4"},"vehicle_type_id":"4","last_reported":1733213608,"current_range_meters":38800,"station_id":"ce4bgrp2rcd13ifvqc9g","pricing_plan_id":"cebpf4jnsgd1na2vs0mg"},{"bike_id":"aac537f6-11ba-4961-887b-0169e6d8c3bf","system_id":"levelo_inurba_marseille","lat":43.32293,"lon":5.38277,"is_reserved":false,"is_disabled":true,"rental_uris":{"android":"levelo://app?vid=aac537f6-11ba-4961-887b-0169e6d8c3bf","ios":"levelo://app?vid=aac537f6-11ba-4961-887b-0169e6d8c3bf"},"vehicle_type_id":"4","last_reported":1733213608,"current_range_meters":33600,"station_id":"ce4bhr12rcd13ifvqhqg","pricing_plan_id":"cebpf4jnsgd1na2vs0mg"},{"bike_id":"364ca233-6c10-4419-a704-fd9ff87e21f0","system_id":"levelo_inurba_marseille","lat":43.24074,"lon":5.37757,"is_reserved":false,"is_disabled":false,"rental_uris":{"android":"levelo://app?vid=364ca233-6c10-4419-a704-fd9ff87e21f0","ios":"levelo://app?vid=364ca233-6c10-4419-a704-fd9ff87e21f0"},"vehicle_type_id":"4","last_reported":1733213608,"current_range_meters":34800,"station_id":"ce4bhnp2rcd13ifvqgvg","pricing_plan_id":"cebpf4jnsgd1na2vs0mg"},{"bike_id":"e63aa962-a242-44bd-8328-31cf6c0d9d3d","system_id":"levelo_inurba_marseille","lat":43.29305,"lon":5.37175,"is_reserved":false,"is_disabled":true,"rental_uris":{"android":"levelo://app?vid=e63aa962-a242-44bd-8328-31cf6c0d9d3d","ios":"levelo://app?vid=e63aa962-a242-44bd-8328-31cf6c0d9d3d"},"vehicle_type_id":"4","last_reported":1733213608,"current_range_meters":0,"station_id":"ce4bgh92rcd13ifvqb40","pricing_plan_id":"cebpf4jnsgd1na2vs0mg"},{"bike_id":"f8bcc820-9a1c-492a-9f26-6a6b26934b17","system_id":"levelo_inurba_marseille","lat":43.28611,"lon":5.37056,"is_reserved":false,"is_disabled":true,"rental_uris":{"android":"levelo://app?vid=f8bcc820-9a1c-492a-9f26-6a6b26934b17","ios":"levelo://app?vid=f8bcc820-9a1c-492a-9f26-6a6b26934b17"},"vehicle_type_id":"4","last_reported":1733213608,"current_range_meters":0,"station_id":"ce4bht12rcd13ifvqi60","pricing_plan_id":"cebpf4jnsgd1na2vs0mg"},{"bike_id":"aa598945-95fb-41cc-bce7-c5d2db9ce741","system_id":"levelo_inurba_marseille","lat":43.27489,"lon":5.42449,"is_reserved":false,"is_disabled":false,"rental_uris":{"android":"levelo://app?vid=aa598945-95fb-41cc-bce7-c5d2db9ce741","ios":"levelo://app?vid=aa598945-95fb-41cc-bce7-c5d2db9ce741"},"vehicle_type_id":"4","last_reported":1733213608,"current_range_meters":32800,"station_id":"ce4bhn92rcd13ifvqgrg","pricing_plan_id":"cebpf4jnsgd1na2vs0mg"},{"bike_id":"262c1b85-a6e0-4f4c-aeee-1f7460279db2","system_id":"levelo_inurba_marseille","lat":43.31224,"lon":5.36871,"is_reserved":false,"is_disabled":true,"rental_uris":{"android":"levelo://app?vid=262c1b85-a6e0-4f4c-aeee-1f7460279db2","ios":"levelo://app?vid=262c1b85-a6e0-4f4c-aeee-1f7460279db2"},"vehicle_type_id":"4","last_reported":1733213608,"current_range_meters":2000,"station_id":"ce4bgl92rcd13ifvqbq0","pricing_plan_id":"cebpf4jnsgd1na2vs0mg"},{"bike_id":"3a9149f3-357c-4d0a-859b-18382ef024a5","system_id":"levelo_inurba_marseille","lat":43.32112,"lon":5.36775,"is_reserved":false,"is_disabled":false,"rental_uris":{"android":"levelo://app?vid=3a9149f3-357c-4d0a-859b-18382ef024a5","ios":"levelo://app?vid=3a9149f3-357c-4d0a-859b-18382ef024a5"},"vehicle_type_id":"4","last_reported":1733213608,"current_range_meters":33200,"station_id":"ce4bhrh2rcd13ifvqhug","pricing_plan_id":"cebpf4jnsgd1na2vs0mg"},{"bike_id":"7162aa44-86d7-4628-93e4-c9d3f5365eb9","system_id":"levelo_inurba_marseille","lat":43.30246,"lon":5.40068,"is_reserved":false,"is_disabled":true,"rental_uris":{"android":"levelo://app?vid=7162aa44-86d7-4628-93e4-c9d3f5365eb9","ios":"levelo://app?vid=7162aa44-86d7-4628-93e4-c9d3f5365eb9"},"vehicle_type_id":"4","last_reported":1733213608,"current_range_meters":38800,"station_id":"ce4bgvh2rcd13ifvqcs0","pricing_plan_id":"cebpf4jnsgd1na2vs0mg"},{"bike_id":"8564107b-4c5f-48f9-a8fe-2cf2332c218d","system_id":"levelo_inurba_marseille","lat":43.28414,"lon":5.34989,"is_reserved":false,"is_disabled":false,"rental_uris":{"android":"levelo://app?vid=8564107b-4c5f-48f9-a8fe-2cf2332c218d","ios":"levelo://app?vid=8564107b-4c5f-48f9-a8fe-2cf2332c218d"},"vehicle_type_id":"4","last_reported":1733213608,"current_range_meters":35600,"station_id":"ce4bhbh2rcd13ifvqepg","pricing_plan_id":"cebpf4jnsgd1na2vs0mg"},{"bike_id":"284516f3-1d20-45be-a6cc-533671ed0124","system_id":"levelo_inurba_marseille","lat":43.26693,"lon":5.38264,"is_reserved":false,"is_disabled":false,"rental_uris":{"android":"levelo://app?vid=284516f3-1d20-45be-a6cc-533671ed0124","ios":"levelo://app?vid=284516f3-1d20-45be-a6cc-533671ed0124"},"vehicle_type_id":"4","last_reported":1733213608,"current_range_meters":9200,"station_id":"ce4bhg92rcd13ifvqf90","pricing_plan_id":"cebpf4jnsgd1na2vs0mg"},{"bike_id":"da6a7a1d-e653-4950-af8c-8137b06f7d40","system_id":"levelo_inurba_marseille","lat":43.3004,"lon":5.37551,"is_reserved":false,"is_disabled":true,"rental_uris":{"android":"levelo://app?vid=da6a7a1d-e653-4950-af8c-8137b06f7d40","ios":"levelo://app?vid=da6a7a1d-e653-4950-af8c-8137b06f7d40"},"vehicle_type_id":"4","last_reported":1733213608,"current_range_meters":0,"station_id":"","pricing_plan_id":"cebpf4jnsgd1na2vs0mg"},{"bike_id":"09942c37-43e8-4187-bc77-33a866378639","system_id":"levelo_inurba_marseille","lat":43.30535,"lon":5.36704,"is_reserved":false,"is_disabled":false,"rental_uris":{"android":"levelo://app?vid=09942c37-43e8-4187-bc77-33a866378639","ios":"levelo://app?vid=09942c37-43e8-4187-bc77-33a866378639"},"vehicle_type_id":"4","last_reported":1733213608,"current_range_meters":28400,"station_id":"ce4bgrp2rcd13ifvqc9g","pricing_plan_id":"cebpf4jnsgd1na2vs0mg"},{"bike_id":"e6bbbf53-985a-487e-a0c4-ee284d44b44d","system_id":"levelo_inurba_marseille","lat":43.28839,"lon":5.39333,"is_reserved":false,"is_disabled":true,"rental_uris":{"android":"levelo://app?vid=e6bbbf53-985a-487e-a0c4-ee284d44b44d","ios":"levelo://app?vid=e6bbbf53-985a-487e-a0c4-ee284d44b44d"},"vehicle_type_id":"4","last_reported":1733213608,"current_range_meters":30800,"station_id":"ce4bh2p2rcd13ifvqdi0","pricing_plan_id":"cebpf4jnsgd1na2vs0mg"},{"bike_id":"a7731e05-cba9-4a45-b914-fcc1d8863b3d","system_id":"levelo_inurba_marseille","lat":43.31066,"lon":5.38342,"is_reserved":false,"is_disabled":false,"rental_uris":{"android":"levelo://app?vid=a7731e05-cba9-4a45-b914-fcc1d8863b3d","ios":"levelo://app?vid=a7731e05-cba9-4a45-b914-fcc1d8863b3d"},"vehicle_type_id":"4","last_reported":1733213608,"current_range_meters":37600,"station_id":"ce4bgv92rcd13ifvqcr0","pricing_plan_id":"cebpf4jnsgd1na2vs0mg"},{"bike_id":"499188aa-6de9-41bf-b76c-5b4f419acce7","system_id":"levelo_inurba_marseille","lat":43.26565,"lon":5.39023,"is_reserved":false,"is_disabled":false,"rental_uris":{"android":"levelo://app?vid=499188aa-6de9-41bf-b76c-5b4f419acce7","ios":"levelo://app?vid=499188aa-6de9-41bf-b76c-5b4f419acce7"},"vehicle_type_id":"4","last_reported":1733213608,"current_range_meters":24400,"station_id":"ce4bhe12rcd13ifvqf30","pricing_plan_id":"cebpf4jnsgd1na2vs0mg"},{"bike_id":"c2db69d9-cbdf-4b27-9a18-d0b4de37f6d9","system_id":"levelo_inurba_marseille","lat":43.31495,"lon":5.37308,"is_reserved":false,"is_disabled":false,"rental_uris":{"android":"levelo://app?vid=c2db69d9-cbdf-4b27-9a18-d0b4de37f6d9","ios":"levelo://app?vid=c2db69d9-cbdf-4b27-9a18-d0b4de37f6d9"},"vehicle_type_id":"4","last_reported":1733213608,"current_range_meters":36800,"station_id":"ce4bgt12rcd13ifvqcd0","pricing_plan_id":"cebpf4jnsgd1na2vs0mg"},