{"last_updated":1746702549,"ttl":60,"version":"2.2","data":{"bikes":[{"bike_id":"66b646b3-6352-44bb-9bfb-21570512e3e5","system_id":"levelo_inurba_marseille","lat":43.28103,"lon":5.40398,"is_reserved":false,"is_disabled":true,"rental_uris":{"android":"levelo://app?vid=66b646b3-6352-44bb-9bfb-21570512e3e5","ios":"levelo://app?vid=66b646b3-6352-44bb-9bfb-21570512e3e5"},"vehicle_type_id":"4","last_reported":1746702549,"current_range_meters":0,"station_id":"","pricing_plan_id":"cebpf4jnsgd1na2vs0mg"},{"bike_id":"b56eeeb9-9ded-4dd2-9efa-c8d4f8a5e387","system_id":"levelo_inurba_marseille","lat":43.273863,"lon":5.422426,"is_reserved":false,"is_disabled":true,"rental_uris":{"android":"levelo://app?vid=b56eeeb9-9ded-4dd2-9efa-c8d4f8a5e387","ios":"levelo://app?vid=b56eeeb9-9ded-4dd2-9efa-c8d4f8a5e387"},"vehicle_type_id":"4","last_reported":1746702549,"current_range_meters":0,"station_id":"","pricing_plan_id":"cebpf4jnsgd1na2vs0mg"},{"bike_id":"88c3c6c1-a33a-48ed-b2a4-48c16332184c","system_id":"levelo_inurba_marseille","lat":43.27934,"lon":5.37391,"is_reserved":false,"is_disabled":true,"rental_uris":{"android":"levelo://app?vid=88c3c6c1-a33a-48ed-b2a4-48c16332184c","ios":"levelo://app?vid=88c3c6c1-a33a-48ed-b2a4-48c16332184c"},"vehicle_type_id":"4","last_reported":1746702549,"current_range_meters":0,"station_id":"","pricing_plan_id":"cebpf4jnsgd1na2vs0mg"},{"bike_id":"2d251c8d-e9d0-476f-8622-cb88831f30c3","system_id":"levelo_inurba_marseille","lat":43.26992,"lon":5.38784,"is_reserved":false,"is_disabled":true,"rental_uris":{"android":"levelo://app?vid=2d251c8d-e9d0-476f-8622-cb88831f30c3","ios":"levelo://app?vid=2d251c8d-e9d0-476f-8622-cb88831f30c3"},"vehicle_type_id":"4","last_reported":1746702549,"current_range_meters":0,"station_id":"","pricing_plan_id":"cebpf4jnsgd1na2vs0mg"},{"bike_id":"718447f3-b6d2-4455-9edd-b1cf56662f96","system_id":"levelo_inurba_marseille","lat":43.31841,"lon":5.42387,"is_reserved":false,"is_disabled":true,"rental_uris":{"android":"levelo://app?vid=718447f3-b6d2-4455-9edd-b1cf56662f96","ios":"levelo://app?vid=718447f3-b6d2-4455-9edd-b1cf56662f96"},"vehicle_type_id":"4","last_reported":1746702549,"current_range_meters":0,"station_id":"","pricing_plan_id":"cebpf4jnsgd1na2vs0mg"},{"bike_id":"1d0bb150-d58e-4150-bb8b-63acc87a1c55","system_id":"levelo_inurba_marseille","lat":43.30885,"lon":5.39645,"is_reserved":false,"is_disabled":true,"rental_uris":{"android":"levelo://app?vid=1d0bb150-d58e-4150-bb8b-63acc87a1c55","ios":"levelo://app?vid=1d0bb150-d58e-4150-bb8b-63acc87a1c55"},"vehicle_type_id":"4","last_reported":1746702549,"current_range_meters":0,"station_id":"ce4bh012rcd13ifvqcv0","pricing_plan_id":"cebpf4jnsgd1na2vs0mg"},{"bike_id":"568f7ab5-7959-4fe1-a3a6-3d865932450e","system_id":"levelo_inurba_marseille","lat":43.23153,"lon":5.43719,"is_reserved":false,"is_disabled":true,"rental_uris":{"android":"levelo://app?vid=568f7ab5-7959-4fe1-a3a6-3d865932450e","ios":"levelo://app?vid=568f7ab5-7959-4fe1-a3a6-3d865932450e"},"vehicle_type_id":"4","last_reported":1746702549,"current_range_meters":0,"station_id":"ce4bhmp2rcd13ifvqgog","pricing_plan_id":"cebpf4jnsgd1na2vs0mg"},{"bike_id":"281f2361-8416-40b2-936d-824e678e17f3","system_id":"levelo_inurba_marseille","lat":43.23194,"lon":5.35553,"is_reserved":false,"is_disabled":true,"rental_uris":{"android":"levelo://app?vid=281f2361-8416-40b2-936d-824e678e17f3","ios":"levelo://app?vid=281f2361-8416-40b2-936d-824e678e17f3"},"vehicle_type_id":"4","last_reported":1746702549,"current_range_meters":0,"station_id":"ce4bhu92rcd13ifvqi70","pricing_plan_id":"cebpf4jnsgd1na2vs0mg"},{"bike_id":"ad0ee211-9444-46c9-b656-fd38d3209d81","system_id":"levelo_inurba_marseille","lat":43.30731,"lon":5.42449,"is_reserved":false,"is_disabled":true,"rental_uris":{"android":"levelo://app?vid=ad0ee211-9444-46c9-b656-fd38d3209d81","ios":"levelo://app?vid=ad0ee211-9444-46c9-b656-fd38d3209d81"},"vehicle_type_id":"4","last_reported":1746702549,"current_range_meters":0,"station_id":"st_cvj6ca6bvosntc0bfgr0","pricing_plan_id":"cebpf4jnsgd1na2vs0mg"},{"bike_id":"1fac5a91-4f5c-4622-978e-2c5cc05d0643","system_id":"levelo_inurba_marseille","lat":43.28842,"lon":5.39307,"is_reserved":false,"is_disabled":true,"rental_uris":{"android":"levelo://app?vid=1fac5a91-4f5c-4622-978e-2c5cc05d0643","ios":"levelo://app?vid=1fac5a91-4f5c-4622-978e-2c5cc05d0643"},"vehicle_type_id":"4","last_reported":1746702549,"current_range_meters":400,"station_id":"ce4bh2p2rcd13ifvqdi0","pricing_plan_id":"cebpf4jnsgd1na2vs0mg"},{"bike_id":"1a533c77-1ac4-4101-b033-c997a21103b8","system_id":"levelo_inurba_marseille","lat":43.24184,"lon":5.39713,"is_reserved":false,"is_disabled":true,"rental_uris":{"android":"levelo://app?vid=1a533c77-1ac4-4101-b033-c997a21103b8","ios":"levelo://app?vid=1a533c77-1ac4-4101-b033-c997a21103b8"},"vehicle_type_id":"4","last_reported":1746702549,"current_range_meters":400,"station_id":"ce4bhn12rcd13ifvqgpg","pricing_plan_id":"cebpf4jnsgd1na2vs0mg"},{"bike_id":"498332a6-aad7-4e8a-8090-1d7139cb6bb6","system_id":"levelo_inurba_marseille","lat":43.25702,"lon":5.41119,"is_reserved":false,"is_disabled":true,"rental_uris":{"android":"levelo://app?vid=498332a6-aad7-4e8a-8090-1d7139cb6bb6","ios":"levelo://app?vid=498332a6-aad7-4e8a-8090-1d7139cb6bb6"},"vehicle_type_id":"4","last_reported":1746702549,"current_range_meters":800,"station_id":"ce4bhkp2rcd13ifvqgd0","pricing_plan_id":"cebpf4jnsgd1na2vs0mg"},{"bike_id":"a44bd095-b3f2-422f-a04d-0926fb6886f1","system_id":"levelo_inurba_marseille","lat":43.30136,"lon":5.39871,"is_reserved":false,"is_disabled":true,"rental_uris":{"android":"levelo://app?vid=a44bd095-b3f2-422f-a04d-0926fb6886f1","ios":"levelo://app?vid=a44bd095-b3f2-422f-a04d-0926fb6886f1"},"vehicle_type_id":"4","last_reported":1746702549,"current_range_meters":1200,"station_id":"ce4bh0h2rcd13ifvqd40","pricing_plan_id":"cebpf4jnsgd1na2vs0mg"},{"bike_id":"21635b8c-493c-4cae-9439-ef46e634b03c","system_id":"levelo_inurba_marseille","lat":43.26266,"lon":5.4046,"is_reserved":false,"is_disabled":true,"rental_uris":{"android":"levelo://app?vid=21635b8c-493c-4cae-9439-ef46e634b03c","ios":"levelo://app?vid=21635b8c-493c-4cae-9439-ef46e634b03c"},"vehicle_type_id":"4","last_reported":1746702549,"current_range_meters":1200,"station_id":"ce4bhmh2rcd13ifvqgmg","pricing_plan_id":"cebpf4jnsgd1na2vs0mg"},{"bike_id":"c9592205-9409-4f74-aed1-7c4141a58caa","system_id":"levelo_inurba_marseille","lat":43.27132,"lon":5.36362,"is_reserved":false,"is_disabled":true,"rental_uris":{"android":"levelo://app?vid=c9592205-9409-4f74-aed1-7c4141a58caa","ios":"levelo://app?vid=c9592205-9409-4f74-aed1-7c4141a58caa"},"vehicle_type_id":"4","last_reported":1746702549,"current_range_meters":1600,"station_id":"","pricing_plan_id":"cebpf4jnsgd1na2vs0mg"},{"bike_id":"49bb95ae-5998-4f46-97d0-829f8b2b9e32","system_id":"levelo_inurba_marseille","lat":43.232,"lon":5.35546,"is_reserved":false,"is_disabled":true,"rental_uris":{"android":"levelo://app?vid=49bb95ae-5998-4f46-97d0-829f8b2b9e32","ios":"levelo://app?vid=49bb95ae-5998-4f46-97d0-829f8b2b9e32"},"vehicle_type_id":"4","last_reported":1746702549,"current_range_meters":1600,"station_id":"ce4bhu92rcd13ifvqi70","pricing_plan_id":"cebpf4jnsgd1na2vs0mg"},{"bike_id":"7d9fdd93-de51-45cd-8862-c8aeb422ef3e","system_id":"levelo_inurba_marseille","lat":43.21737,"lon":5.345963,"is_reserved":false,"is_disabled":true,"rental_uris":{"android":"levelo://app?vid=7d9fdd93-de51-45cd-8862-c8aeb422ef3e","ios":"levelo://app?vid=7d9fdd93-de51-45cd-8862-c8aeb422ef3e"},"vehicle_type_id":"4","last_reported":1746702549,"current_range_meters":1600,"station_id":"st_cvj6r9ubvosntc0bgbag","pricing_plan_id":"cebpf4jnsgd1na2vs0mg"},{"bike_id":"44e660ac-7f24-41d7-9367-e824a2e77d4c","system_id":"levelo_inurba_marseille","lat":43.29526,"lon":5.39004,"is_reserved":false,"is_disabled":true,"rental_uris":{"android":"levelo://app?vid=44e660ac-7f24-41d7-9367-e824a2e77d4c","ios":"levelo://app?vid=44e660ac-7f24-41d7-9367-e824a2e77d4c"},"vehicle_type_id":"4","last_reported":1746702549,"current_range_meters":2000,"station_id":"ce4bh3p2rcd13ifvqdp0","pricing_plan_id":"cebpf4jnsgd1na2vs0mg"},{"bike_id":"63545b37-7777-453c-937d-d7435b252b20","system_id":"levelo_inurba_marseille","lat":43.22937,"lon":5.35379,"is_reserved":false,"is_disabled":true,"rental_uris":{"android":"levelo://app?vid=63545b37-7777-453c-937d-d7435b252b20","ios":"levelo://app?vid=63545b37-7777-453c-937d-d7435b252b20"},"vehicle_type_id":"4","last_reported":1746702549,"current_range_meters":2000,"station_id":"cpo3532slgdg3j2ikp40","pricing_plan_id":"cebpf4jnsgd1na2vs0mg"},{"bike_id":"ed8c2adf-08ad-46a8-bdda-93def5d52b92","system_id":"levelo_inurba_marseille","lat":43.25431,"lon":5.38241,"is_reserved":false,"is_disabled":false,"rental_uris":{"android":"levelo://app?vid=ed8c2adf-08ad-46a8-bdda-93def5d52b92","ios":"levelo://app?vid=ed8c2adf-08ad-46a8-bdda-93def5d52b92"},"vehicle_type_id":"4","last_reported":1746702549,"current_range_meters":2800,"station_id":"","pricing_plan_id":"cebpf4jnsgd1na2vs0mg"},{"bike_id":"c6e59d0e-3149-49b4-b820-84db3dcfc9a8","system_id":"levelo_inurba_marseille","lat":43.239656,"lon":5.36626,"is_reserved":false,"is_disabled":false,"rental_uris":{"android":"levelo://app?vid=c6e59d0e-3149-49b4-b820-84db3dcfc9a8","ios":"levelo://app?vid=c6e59d0e-3149-49b4-b820-84db3dcfc9a8"},"vehicle_type_id":"4","last_reported":1746702549,"current_range_meters":2800,"station_id":"ce4bhi12rcd13ifvqfp0","pricing_plan_id":"cebpf4jnsgd1na2vs0mg"},{"bike_id":"13e05214-e755-40ef-98ca-7a56891889c3","system_id":"levelo_inurba_marseille","lat":43.2175,"lon":5.34605,"is_reserved":false,"is_disabled":false,"rental_uris":{"android":"levelo://app?vid=13e05214-e755-40ef-98ca-7a56891889c3","ios":"levelo://app?vid=13e05214-e755-40ef-98ca-7a56891889c3"},"vehicle_type_id":"4","last_reported":1746702549,"current_range_meters":3200,"station_id":"st_cvj6r9ubvosntc0bgbag","pricing_plan_id":"cebpf4jnsgd1na2vs0mg"},{"bike_id":"7a8b6116-3b8b-4491-a6eb-3007c722add6","system_id":"levelo_inurba_marseille","lat":43.30959,"lon":5.3904,"is_reserved":false,"is_disabled":false,"rental_uris":{"android":"levelo://app?vid=7a8b6116-3b8b-4491-a6eb-3007c722add6","ios":"levelo://app?vid=7a8b6116-3b8b-4491-a6eb-3007c722add6"},"vehicle_type_id":"4","last_reported":1746702549,"current_range_meters":3600,"station_id":"ce4bgup2rcd13ifvqco0","pricing_plan_id":"cebpf4jnsgd1na2vs0mg"},{"bike_id":"397509d8-c8f0-434f-81b1-bf5094f7d37c","system_id":"levelo_inurba_marseille","lat":43.27997,"lon":5.41669,"is_reserved":false,"is_disabled":false,"rental_uris":{"android":"levelo://app?vid=397509d8-c8f0-434f-81b1-bf5094f7d37c","ios":"levelo://app?vid=397509d8-c8f0-434f-81b1-bf5094f7d37c"},"vehicle_type_id":"4","last_reported":1746702549,"current_range_meters":3600,"station_id":"ce4bho12rcd13ifvqh1g","pricing_plan_id":"cebpf4jnsgd1na2vs0mg"},{"bike_id":"0f8afcfd-1d3e-4c1c-843a-1824e2d06ea6","system_id":"levelo_inurba_marseille","lat":43.30884,"lon":5.39636,"is_reserved":false,"is_disabled":false,"rental_uris":{"android":"levelo://app?vid=0f8afcfd-1d3e-4c1c-843a-1824e2d06ea6","ios":"levelo://app?vid=0f8afcfd-1d3e-4c1c-843a-1824e2d06ea6"},"vehicle_type_id":"4","last_reported":1746702549,"current_range_meters":4000,"station_id":"ce4bh012rcd13ifvqcv0","pricing_plan_id":"cebpf4jnsgd1na2vs0mg"},{"bike_id":"e3110e56-4e4f-4cc1-b216-cb8208bd31fb","system_id":"levelo_inurba_marseille","lat":43.27569,"lon":5.3842,"is_reserved":false,"is_disabled":false,"rental_uris":{"android":"levelo://app?vid=e3110e56-4e4f-4cc1-b216-cb8208bd31fb","ios":"levelo://app?vid=e3110e56-4e4f-4cc1-b216-cb8208bd31fb"},"vehicle_type_id":"4","last_reported":1746702549,"current_range_meters":4000,"station_id":"ce4bhh92rcd13ifvqfi0","pricing_plan_id":"cebpf4jnsgd1na2vs0mg"},{"bike_id":"f3226eec-e418-4614-87fe-117a8d2a222a","system_id":"levelo_inurba_marseille","lat":43.23154,"lon":5.43713,"is_reserved":false,"is_disabled":false,"rental_uris":{"android":"levelo://app?vid=f3226eec-e418-4614-87fe-117a8d2a222a","ios":"levelo://app?vid=f3226eec-e418-4614-87fe-117a8d2a222a"},"vehicle_type_id":"4","last_reported":1746702549,"current_range_meters":4000,"station_id":"ce4bhmp2rcd13ifvqgog","pricing_plan_id":"cebpf4jnsgd1na2vs0mg"},{"bike_id":"8b85b2ff-5279-4adc-a184-35c512b8ca4b","system_id":"levelo_inurba_marseille","lat":43.26226,"lon":5.40446,"is_reserved":false,"is_disabled":false,"rental_uris":{"android":"levelo://app?vid=8b85b2ff-5279-4adc-a184-35c512b8ca4b","ios":"levelo://app?vid=8b85b2ff-5279-4adc-a184-35c512b8ca4b"},"vehicle_type_id":"4","last_reported":1746702549,"current_range_meters":4400,"station_id":"","pricing_plan_id":"cebpf4jnsgd1na2vs0mg"},{"bike_id":"0ce36e92-519a-43ab-b8b1-6b9ad31998ba","system_id":"levelo_inurba_marseille","lat":43.26606,"lon":5.39558,"is_reserved":false,"is_disabled":false,"rental_uris":{"android":"levelo://app?vid=0ce36e92-519a-43ab-b8b1-6b9ad31998ba","ios":"levelo://app?vid=0ce36e92-519a-43ab-b8b1-6b9ad31998ba"},"vehicle_type_id":"4","last_reported":1746702549,"current_range_meters":4400,"station_id":"","pricing_plan_id":"cebpf4jnsgd1na2vs0mg"},{"bike_id":"cf7ab48d-19d5-446d-b14e-14d9766ef510","system_id":"levelo_inurba_marseille","lat":43.2827,"lon":5.35062,"is_reserved":false,"is_disabled":false,"rental_uris":{"android":"levelo://app?vid=cf7ab48d-19d5-446d-b14e-14d9766ef510","ios":"levelo://app?vid=cf7ab48d-19d5-446d-b14e-14d9766ef510"},"vehicle_type_id":"4","last_reported":1746702549,"current_range_meters":4400,"station_id":"ce4bhbp2rcd13ifvqerg","pricing_plan_id":"cebpf4jnsgd1na2vs0mg"},{"bike_id":"b56d5ade-0de2-44f1-90b1-fb52a39fc442","system_id":"levelo_inurba_marseille","lat":43.29257,"lon":5.37593,"is_reserved":false,"is_disabled":false,"rental_uris":{"android":"levelo://app?vid=b56d5ade-0de2-44f1-90b1-fb52a39fc442","ios":"levelo://app?vid=b56d5ade-0de2-44f1-90b1-fb52a39fc442"},"vehicle_type_id":"4","last_reported":1746702549,"current_range_meters":4800,"station_id":"ce4bgi12rcd13ifvqb80","pricing_plan_id":"cebpf4jnsgd1na2vs0mg"},{"bike_id":"1288522c-f5a2-4fa0-a334-2414344481f2","system_id":"levelo_inurba_marseille","lat":43.309311,"lon":5.401376,"is_reserved":false,"is_disabled":false,"rental_uris":{"android":"levelo://app?vid=1288522c-f5a2-4fa0-a334-2414344481f2","ios":"levelo://app?vid=1288522c-f5a2-4fa0-a334-2414344481f2"},"vehicle_type_id":"4","last_reported":1746702549,"current_range_meters":4800,"station_id":"ce4bgvp2rcd13ifvqct0","pricing_plan_id":"cebpf4jnsgd1na2vs0mg"},{"bike_id":"c40f0210-1c11-4cfc-94c7-520bd6a4579c","system_id":"levelo_inurba_marseille","lat":43.30591,"lon":5.39349,"is_reserved":false,"is_disabled":false,"rental_uris":{"android":"levelo://app?vid=c40f0210-1c11-4cfc-94c7-520bd6a4579c","ios":"levelo://app?vid=c40f0210-1c11-4cfc-94c7-520bd6a4579c"},"vehicle_type_id":"4","last_reported":1746702549,"current_range_meters":4800,"station_id":"ce4bh0p2rcd13ifvqd80","pricing_plan_id":"cebpf4jnsgd1na2vs0mg"},{"bike_id":"00c74c59-98b8-4917-8d36-3021337670e8","system_id":"levelo_inurba_marseille","lat":43.32104,"lon":5.36767,"is_reserved":false,"is_disabled":false,"rental_uris":{"android":"levelo://app?vid=00c74c59-98b8-4917-8d36-3021337670e8","ios":"levelo://app?vid=00c74c59-98b8-4917-8d36-3021337670e8"},"vehicle_type_id":"4","last_reported":1746702549,"current_range_meters":4800,"station_id":"ce4bhrh2rcd13ifvqhug","pricing_plan_id":"cebpf4jnsgd1na2vs0mg"},{"bike_id":"a9f3c931-d45d-4d3c-a1dc-04cd7b247917","system_id":"levelo_inurba_marseille","lat":43.22607,"lon":5.34834,"is_reserved":false,"is_disabled":false,"rental_uris":{"android":"levelo://app?vid=a9f3c931-d45d-4d3c-a1dc-04cd7b247917","ios":"levelo://app?vid=a9f3c931-d45d-4d3c-a1dc-04cd7b247917"},"vehicle_type_id":"4","last_reported":1746702549,"current_range_meters":5600,"station_id":"","pricing_plan_id":"cebpf4jnsgd1na2vs0mg"},{"bike_id":"50cc5a53-6b49-4c36-bcc4-f834136d424d","system_id":"levelo_inurba_marseille","lat":43.23966,"lon":5.36637,"is_reserved":false,"is_disabled":false,"rental_uris":{"android":"levelo://app?vid=50cc5a53-6b49-4c36-bcc4-f834136d424d","ios":"levelo://app?vid=50cc5a53-6b49-4c36-bcc4-f834136d424d"},"vehicle_type_id":"4","last_reported":1746702549,"current_range_meters":5600,"station_id":"ce4bhi12rcd13ifvqfp0","pricing_plan_id":"cebpf4jnsgd1na2vs0mg"},{"bike_id":"082b5772-10bb-4282-bdbf-aa00094bbf28","system_id":"levelo_inurba_marseille","lat":43.27056,"lon":5.40272,"is_reserved":false,"is_disabled":false,"rental_uris":{"android":"levelo://app?vid=082b5772-10bb-4282-bdbf-aa00094bbf28","ios":"levelo://app?vid=082b5772-10bb-4282-bdbf-aa00094bbf28"},"vehicle_type_id":"4","last_reported":1746702549,"current_range_meters":5600,"station_id":"ce4bhk92rcd13ifvqgc0","pricing_plan_id":"cebpf4jnsgd1na2vs0mg"},{"bike_id":"ea2fdb18-3ac0-4870-8438-24d22048fcc4","system_id":"levelo_inurba_marseille","lat":43.29912,"lon":5.38163,"is_reserved":false,"is_disabled":false,"rental_uris":{"android":"levelo://app?vid=ea2fdb18-3ac0-4870-8438-24d22048fcc4","ios":"levelo://app?vid=ea2fdb18-3ac0-4870-8438-24d22048fcc4"},"vehicle_type_id":"4","last_reported":1746702549,"current_range_meters":6000,"station_id":"ce4bgj12rcd13ifvqbc0","pricing_plan_id":"cebpf4jnsgd1na2vs0mg"},{"bike_id":"2b5d70ee-5951-45a7-934e-12a0713e03b2","system_id":"levelo_inurba_marseille","lat":43.27375,"lon":5.36259,"is_reserved":false,"is_disabled":false,"rental_uris":{"android":"levelo://app?vid=2b5d70ee-5951-45a7-934e-12a0713e03b2","ios":"levelo://app?vid=2b5d70ee-5951-45a7-934e-12a0713e03b2"},"vehicle_type_id":"4","last_reported":1746702549,"current_range_meters":6000,"station_id":"ce4bhbh2rcd13ifvqeo0","pricing_plan_id":"cebpf4jnsgd1na2vs0mg"},{"bike_id":"31faf169-fbc7-4462-b263-e599aaa9a95a","system_id":"levelo_inurba_marseille","lat":43.28265,"lon":5.35061,"is_reserved":false,"is_disabled":false,"rental_uris":{"android":"levelo://app?vid=31faf169-fbc7-4462-b263-e599aaa9a95a","ios":"levelo://app?vid=31faf169-fbc7-4462-b263-e599aaa9a95a"},"vehicle_type_id":"4","last_reported":1746702549,"current_range_meters":6000,"station_id":"ce4bhbp2rcd13ifvqerg","pricing_plan_id":"cebpf4jnsgd1na2vs0mg"},{"bike_id":"93ec18cb-d6c9-4894-a11a-ab85a693a084","system_id":"levelo_inurba_marseille","lat":43.23962,"lon":5.36628,"is_reserved":false,"is_disabled":false,"rental_uris":{"android":"levelo://app?vid=93ec18cb-d6c9-4894-a11a-ab85a693a084","ios":"levelo://app?vid=93ec18cb-d6c9-4894-a11a-ab85a693a084"},"vehicle_type_id":"4","last_reported":1746702549,"current_range_meters":6000,"station_id":"ce4bhi12rcd13ifvqfp0","pricing_plan_id":"cebpf4jnsgd1na2vs0mg"},{"bike_id":"c72e9ab1-a289-41a0-a26c-6ae657643ab4","system_id":"levelo_inurba_marseille","lat":43.23149,"lon":5.43711,"is_reserved":false,"is_disabled":false,"rental_uris":{"android":"levelo://app?vid=c72e9ab1-a289-41a0-a26c-6ae657643ab4","ios":"levelo://app?vid=c72e9ab1-a289-41a0-a26c-6ae657643ab4"},"vehicle_type_id":"4","last_reported":1746702549,"current_range_meters":6000,"station_id":"ce4bhmp2rcd13ifvqgog","pricing_plan_id":"cebpf4jnsgd1na2vs0mg"},{"bike_id":"9d03e3b9-cc02-47cb-8220-42e752a6ad34","system_id":"levelo_inurba_marseille","lat":43.28149,"lon":5.42638,"is_reserved":false,"is_disabled":false,"rental_uris":{"android":"levelo://app?vid=9d03e3b9-cc02-47cb-8220-42e752a6ad34","ios":"levelo://app?vid=9d03e3b9-cc02-47cb-8220-42e752a6ad34"},"vehicle_type_id":"4","last_reported":1746702549,"current_range_meters":6000,"station_id":"ce4bhnh2rcd13ifvqgug","pricing_plan_id":"cebpf4jnsgd1na2vs0mg"},{"bike_id":"1c7991ab-637c-4c8f-90e0-51080924fddc","system_id":"levelo_inurba_marseille","lat":43.26556,"lon":5.37288,"is_reserved":false,"is_disabled":false,"rental_uris":{"android":"levelo://app?vid=1c7991ab-637c-4c8f-90e0-51080924fddc","ios":"levelo://app?vid=1c7991ab-637c-4c8f-90e0-51080924fddc"},"vehicle_type_id":"4","last_reported":1746702549,"current_range_meters":6400,"station_id":"ce4bhg12rcd13ifvqf70","pricing_plan_id":"cebpf4jnsgd1na2vs0mg"},{"bike_id":"afdcd27f-4fa5-425d-bcbd-f35a2ae74443","system_id":"levelo_inurba_marseille","lat":43.21753,"lon":5.34606,"is_reserved":false,"is_disabled":false,"rental_uris":{"android":"levelo://app?vid=afdcd27f-4fa5-425d-bcbd-f35a2ae74443","ios":"levelo://app?vid=afdcd27f-4fa5-425d-bcbd-f35a2ae74443"},"vehicle_type_id":"4","last_reported":1746702549,"current_range_meters":6400,"station_id":"st_cvj6r9ubvosntc0bgbag","pricing_plan_id":"cebpf4jnsgd1na2vs0mg"},{"bike_id":"a297e50c-bb28-4d8d-97f5-57738833cd8f","system_id":"levelo_inurba_marseille","lat":43.337444,"lon":5.374475,"is_reserved":false,"is_disabled":false,"rental_uris":{"android":"levelo://app?vid=a297e50c-bb28-4d8d-97f5-57738833cd8f","ios":"levelo://app?vid=a297e50c-bb28-4d8d-97f5-57738833cd8f"},"vehicle_type_id":"4","last_reported":1746702549,"current_range_meters":6800,"station_id":"","pricing_plan_id":"cebpf4jnsgd1na2vs0mg"},{"bike_id":"b7bdbe3a-b7ec-4256-908f-dfa71835a5d1","system_id":"levelo_inurba_marseille","lat":43.288768,"lon":5.371376,"is_reserved":false,"is_disabled":false,"rental_uris":{"android":"levelo://app?vid=b7bdbe3a-b7ec-4256-908f-dfa71835a5d1","ios":"levelo://app?vid=b7bdbe3a-b7ec-4256-908f-dfa71835a5d1"},"vehicle_type_id":"4","last_reported":1746702549,"current_range_meters":7200,"station_id":"","pricing_plan_id":"cebpf4jnsgd1na2vs0mg"},{"bike_id":"00614754-1559-4e27-b0c7-655a8c8ccf71","system_id":"levelo_inurba_marseille","lat":43.28941,"lon":5.36639,"is_reserved":false,"is_disabled":false,"rental_uris":{"android":"levelo://app?vid=00614754-1559-4e27-b0c7-655a8c8ccf71","ios":"levelo://app?vid=00614754-1559-4e27-b0c7-655a8c8ccf71"},"vehicle_type_id":"4","last_reported":1746702549,"current_range_meters":7200,"station_id":"ce4bhap2rcd13ifvqek0","pricing_plan_id":"cebpf4jnsgd1na2vs0mg"},{"bike_id":"ddda1e7e-2780-4187-b2fe-c09599a440f7","system_id":"levelo_inurba_marseille","lat":43.23152,"lon":5.43714,"is_reserved":false,"is_disabled":false,"rental_uris":{"android":"levelo://app?vid=ddda1e7e-2780-4187-b2fe-c09599a440f7","ios":"levelo://app?vid=ddda1e7e-2780-4187-b2fe-c09599a440f7"},"vehicle_type_id":"4","last_reported":1746702549,"current_range_meters":7200,"station_id":"ce4bhmp2rcd13ifvqgog","pricing_plan_id":"cebpf4jnsgd1na2vs0mg"},{"bike_id":"5966a493-613f-4419-a9c9-06aa5a23dfad","system_id":"levelo_inurba_marseille","lat":43.23179,"lon":5.3999,"is_reserved":false,"is_disabled":false,"rental_uris":{"android":"levelo://app?vid=5966a493-613f-4419-a9c9-06aa5a23dfad","ios":"levelo://app?vid=5966a493-613f-4419-a9c9-06aa5a23dfad"},"vehicle_type_id":"4","last_reported":1746702549,"current_range_meters":7200,"station_id":"ce4bhn12rcd13ifvqgqg","pricing_plan_id":"cebpf4jnsgd1na2vs0mg"},{"bike_id":"be3a2ed9-e107-46dc-8066-89cfcff50847","system_id":"levelo_inurba_marseille","lat":43.292382,"lon":5.37138,"is_reserved":false,"is_disabled":false,"rental_uris":{"android":"levelo://app?vid=be3a2ed9-e107-46dc-8066-89cfcff50847","ios":"levelo://app?vid=be3a2ed9-e107-46dc-8066-89cfcff50847"},"vehicle_type_id":"4","last_reported":1746702549,"current_range_meters":8000,"station_id":"","pricing_plan_id":"cebpf4jnsgd1na2vs0mg"},{"bike_id":"022c0d43-c83d-47e4-8043-81a4a4aaaa3c","system_id":"levelo_inurba_marseille","lat":43.27423,"lon":5.39413,"is_reserved":false,"is_disabled":false,"rental_uris":{"android":"levelo://app?vid=022c0d43-c83d-47e4-8043-81a4a4aaaa3c","ios":"levelo://app?vid=022c0d43-c83d-47e4-8043-81a4a4aaaa3c"},"vehicle_type_id":"4","last_reported":1746702549,"current_range_meters":8000,"station_id":"ce4bhdp2rcd13ifvqf20","pricing_plan_id":"cebpf4jnsgd1na2vs0mg"},{"bike_id":"390aa0d2-9c92-434c-a013-adc31ef68eee","system_id":"levelo_inurba_marseille","lat":43.27057,"lon":5.40267,"is_reserved":false,"is_disabled":false,"rental_uris":{"android":"levelo://app?vid=390aa0d2-9c92-434c-a013-adc31ef68eee","ios":"levelo://app?vid=390aa0d2-9c92-434c-a013-adc31ef68eee"},"vehicle_type_id":"4","last_reported":1746702549,"current_range_meters":8000,"station_id":"ce4bhk92rcd13ifvqgc0","pricing_plan_id":"cebpf4jnsgd1na2vs0mg"},{"bike_id":"b6d468ef-fe36-499e-bae0-dc2fa2a80ebf","system_id":"levelo_inurba_marseille","lat":43.31361,"lon":5.38501,"is_reserved":false,"is_disabled":false,"rental_uris":{"android":"levelo://app?vid=b6d468ef-fe36-499e-bae0-dc2fa2a80ebf","ios":"levelo://app?vid=b6d468ef-fe36-499e-bae0-dc2fa2a80ebf"},"vehicle_type_id":"4","last_reported":1746702549,"current_range_meters":8400,"station_id":"ce4bgt92rcd13ifvqcf0","pricing_plan_id":"cebpf4jnsgd1na2vs0mg"},{"bike_id":"da5acb55-b45c-4e68-998a-c47ceb7b59bf","system_id":"levelo_inurba_marseille","lat":43.28412,"lon":5.34988,"is_reserved":false,"is_disabled":false,"rental_uris":{"android":"levelo://app?vid=da5acb55-b45c-4e68-998a-c47ceb7b59bf","ios":"levelo://app?vid=da5acb55-b45c-4e68-998a-c47ceb7b59bf"},"vehicle_type_id":"4","last_reported":1746702549,"current_range_meters":8400,"station_id":"ce4bhbh2rcd13ifvqepg","pricing_plan_id":"cebpf4jnsgd1na2vs0mg"},{"bike_id":"f2265f2b-0eb3-47c5-81df-72d4c60e9b77","system_id":"levelo_inurba_marseille","lat":43.2319,"lon":5.39958,"is_reserved":false,"is_disabled":false,"rental_uris":{"android":"levelo://app?vid=f2265f2b-0eb3-47c5-81df-72d4c60e9b77","ios":"levelo://app?vid=f2265f2b-0eb3-47c5-81df-72d4c60e9b77"},"vehicle_type_id":"4","last_reported":1746702549,"current_range_meters":8400,"station_id":"ce4bhn12rcd13ifvqgqg","pricing_plan_id":"cebpf4jnsgd1na2vs0mg"},{"bike_id":"edc14644-b89f-4204-b3b6-7edbbb1f0191","system_id":"levelo_inurba_marseille","lat":43.33121,"lon":5.38633,"is_reserved":false,"is_disabled":false,"rental_uris":{"android":"levelo://app?vid=edc14644-b89f-4204-b3b6-7edbbb1f0191","ios":"levelo://app?vid=edc14644-b89f-4204-b3b6-7edbbb1f0191"},"vehicle_type_id":"4","last_reported":1746702549,"current_range_meters":9200,"station_id":"","pricing_plan_id":"cebpf4jnsgd1na2vs0mg"},{"bike_id":"b15fe93b-1059-4d75-abd3-040e349ce402","system_id":"levelo_inurba_marseille","lat":43.30124,"lon":5.37045,"is_reserved":false,"is_disabled":false,"rental_uris":{"android":"levelo://app?vid=b15fe93b-1059-4d75-abd3-040e349ce402","ios":"levelo://app?vid=b15fe93b-1059-4d75-abd3-040e349ce402"},"vehicle_type_id":"4","last_reported":1746702549,"current_range_meters":9200,"station_id":"","pricing_plan_id":"cebpf4jnsgd1na2vs0mg"},{"bike_id":"104a1b86-4528-401b-8564-59e508d25e77","system_id":"levelo_inurba_marseille","lat":43.29637,"lon":5.40598,"is_reserved":false,"is_disabled":false,"rental_uris":{"android":"levelo://app?vid=104a1b86-4528-401b-8564-59e508d25e77","ios":"levelo://app?vid=104a1b86-4528-401b-8564-59e508d25e77"},"vehicle_type_id":"4","last_reported":1746702549,"current_range_meters":9200,"station_id":"ce4bh0h2rcd13ifvqd60","pricing_plan_id":"cebpf4jnsgd1na2vs0mg"},{"bike_id":"dfdf744f-8f34-4721-90ca-93404bb4f446","system_id":"levelo_inurba_marseille","lat":43.28248,"lon":5.35068,"is_reserved":false,"is_disabled":false,"rental_uris":{"android":"levelo://app?vid=dfdf744f-8f34-4721-90ca-93404bb4f446","ios":"levelo://app?vid=dfdf744f-8f34-4721-90ca-93404bb4f446"},"vehicle_type_id":"4","last_reported":1746702549,"current_range_meters":9200,"station_id":"ce4bhbp2rcd13ifvqerg","pricing_plan_id":"cebpf4jnsgd1na2vs0mg"},{"bike_id":"dcc56f7b-7e79-42fa-8aa2-e9c1fff2e9fb","system_id":"levelo_inurba_marseille","lat":43.25929,"lon":5.409,"is_reserved":false,"is_disabled":false,"rental_uris":{"android":"levelo://app?vid=dcc56f7b-7e79-42fa-8aa2-e9c1fff2e9fb","ios":"levelo://app?vid=dcc56f7b-7e79-42fa-8aa2-e9c1fff2e9fb"},"vehicle_type_id":"4","last_reported":1746702549,"current_range_meters":9200,"station_id":"ce4bhm92rcd13ifvqglg","pricing_plan_id":"cebpf4jnsgd1na2vs0mg"},{"bike_id":"f629d37e-db2b-496b-a0ae-fbd6b5d3fc2e","system_id":"levelo_inurba_marseille","lat":43.30693,"lon":5.40951,"is_reserved":false,"is_disabled":false,"rental_uris":{"android":"levelo://app?vid=f629d37e-db2b-496b-a0ae-fbd6b5d3fc2e","ios":"levelo://app?vid=f629d37e-db2b-496b-a0ae-fbd6b5d3fc2e"},"vehicle_type_id":"4","last_reported":1746702549,"current_range_meters":9600,"station_id":"","pricing_plan_id":"cebpf4jnsgd1na2vs0mg"},{"bike_id":"b31d77b6-5379-4ac0-b9e6-3845673c971e","system_id":"levelo_inurba_marseille","lat":43.29626,"lon":5.37722,"is_reserved":false,"is_disabled":false,"rental_uris":{"android":"levelo://app?vid=b31d77b6-5379-4ac0-b9e6-3845673c971e","ios":"levelo://app?vid=b31d77b6-5379-4ac0-b9e6-3845673c971e"},"vehicle_type_id":"4","last_reported":1746702549,"current_range_meters":9600,"station_id":"ce4bgi92rcd13ifvqb90","pricing_plan_id":"cebpf4jnsgd1na2vs0mg"},{"bike_id":"95d3627e-cb6b-4c6d-88b7-e3eaf501bc3b","system_id":"levelo_inurba_marseille","lat":43.29574,"lon":5.3753,"is_reserved":false,"is_disabled":false,"rental_uris":{"android":"levelo://app?vid=95d3627e-cb6b-4c6d-88b7-e3eaf501bc3b","ios":"levelo://app?vid=95d3627e-cb6b-4c6d-88b7-e3eaf501bc3b"},"vehicle_type_id":"4","last_reported":1746702549,"current_range_meters":10000,"station_id":"ce4bgh92rcd13ifvqb50","pricing_plan_id":"cebpf4jnsgd1na2vs0mg"},{"bike_id":"d1b07d55-dac9-4e84-9689-e885bf7b8735","system_id":"levelo_inurba_marseille","lat":43.31083,"lon":5.38348,"is_reserved":false,"is_disabled":false,"rental_uris":{"android":"levelo://app?vid=d1b07d55-dac9-4e84-9689-e885bf7b8735","ios":"levelo://app?vid=d1b07d55-dac9-4e84-9689-e885bf7b8735"},"vehicle_type_id":"4","last_reported":1746702549,"current_range_meters":10000,"station_id":"ce4bgv92rcd13ifvqcr0","pricing_plan_id":"cebpf4jnsgd1na2vs0mg"},{"bike_id":"e290cbb0-ebbf-49ec-ba26-c60a35ee9191","system_id":"levelo_inurba_marseille","lat":43.292389,"lon":5.360581,"is_reserved":false,"is_disabled":false,"rental_uris":{"android":"levelo://app?vid=e290cbb0-ebbf-49ec-ba26-c60a35ee9191","ios":"levelo://app?vid=e290cbb0-ebbf-49ec-ba26-c60a35ee9191"},"vehicle_type_id":"4","last_reported":1746702549,"current_range_meters":10800,"station_id":"ce4bhbh2rcd13ifvqeqg","pricing_plan_id":"cebpf4jnsgd1na2vs0mg"},{"bike_id":"73838e34-9969-42be-9d61-7ab22559386a","system_id":"levelo_inurba_marseille","lat":43.28269,"lon":5.35069,"is_reserved":false,"is_disabled":false,"rental_uris":{"android":"levelo://app?vid=73838e34-9969-42be-9d61-7ab22559386a","ios":"levelo://app?vid=73838e34-9969-42be-9d61-7ab22559386a"},"vehicle_type_id":"4","last_reported":1746702549,"current_range_meters":10800,"station_id":"ce4bhbp2rcd13ifvqerg","pricing_plan_id":"cebpf4jnsgd1na2vs0mg"},{"bike_id":"5453c7c8-d7df-431d-98db-167d3c16d978","system_id":"levelo_inurba_marseille","lat":43.3136,"lon":5.38489,"is_reserved":false,"is_disabled":false,"rental_uris":{"android":"levelo://app?vid=5453c7c8-d7df-431d-98db-167d3c16d978","ios":"levelo://app?vid=5453c7c8-d7df-431d-98db-167d3c16d978"},"vehicle_type_id":"4","last_reported":1746702549,"current_range_meters":11200,"station_id":"ce4bgt92rcd13ifvqcf0","pricing_plan_id":"cebpf4jnsgd1na2vs0mg"},{"bike_id":"587b85dc-29f3-455b-ac01-71df315fbae5","system_id":"levelo_inurba_marseille","lat":43.27203,"lon":5.39176,"is_reserved":false,"is_disabled":false,"rental_uris":{"android":"levelo://app?vid=587b85dc-29f3-455b-ac01-71df315fbae5","ios":"levelo://app?vid=587b85dc-29f3-455b-ac01-71df315fbae5"},"vehicle_type_id":"4","last_reported":1746702549,"current_range_meters":11200,"station_id":"ce4bhhp2rcd13ifvqfm0","pricing_plan_id":"cebpf4jnsgd1na2vs0mg"},{"bike_id":"aff43df0-65f8-4f71-895a-d67ae1e3e42f","system_id":"levelo_inurba_marseille","lat":43.302038,"lon":5.366163,"is_reserved":false,"is_disabled":false,"rental_uris":{"android":"levelo://app?vid=aff43df0-65f8-4f71-895a-d67ae1e3e42f","ios":"levelo://app?vid=aff43df0-65f8-4f71-895a-d67ae1e3e42f"},"vehicle_type_id":"4","last_reported":1746702549,"current_range_meters":11600,"station_id":"","pricing_plan_id":"cebpf4jnsgd1na2vs0mg"},{"bike_id":"f6637528-f17f-4bf3-b190-b9ce6b298a5b","system_id":"levelo_inurba_marseille","lat":43.31491,"lon":5.37308,"is_reserved":false,"is_disabled":false,"rental_uris":{"android":"levelo://app?vid=f6637528-f17f-4bf3-b190-b9ce6b298a5b","ios":"levelo://app?vid=f6637528-f17f-4bf3-b190-b9ce6b298a5b"},"vehicle_type_id":"4","last_reported":1746702549,"current_range_meters":11600,"station_id":"ce4bgt12rcd13ifvqcd0","pricing_plan_id":"cebpf4jnsgd1na2vs0mg"},{"bike_id":"0a8451b0-7a14-4721-b34c-24dca5643bb0","system_id":"levelo_inurba_marseille","lat":43.31695,"lon":5.40472,"is_reserved":false,"is_disabled":false,"rental_uris":{"android":"levelo://app?vid=0a8451b0-7a14-4721-b34c-24dca5643bb0","ios":"levelo://app?vid=0a8451b0-7a14-4721-b34c-24dca5643bb0"},"vehicle_type_id":"4","last_reported":1746702549,"current_range_meters":11600,"station_id":"ce4bh012rcd13ifvqd00","pricing_plan_id":"cebpf4jnsgd1na2vs0mg"},{"bike_id":"7da0ded8-1052-4ac8-8ddb-452e1aa15a27","system_id":"levelo_inurba_marseille","lat":43.26783,"lon":5.39412,"is_reserved":false,"is_disabled":false,"rental_uris":{"android":"levelo://app?vid=7da0ded8-1052-4ac8-8ddb-452e1aa15a27","ios":"levelo://app?vid=7da0ded8-1052-4ac8-8ddb-452e1aa15a27"},"vehicle_type_id":"4","last_reported":1746702549,"current_range_meters":11600,"station_id":"ce4bhh12rcd13ifvqfg0","pricing_plan_id":"cebpf4jnsgd1na2vs0mg"},{"bike_id":"cb54f1a2-ce2d-4da1-a872-73eefe8d20b0","system_id":"levelo_inurba_marseille","lat":43.25113,"lon":5.40324,"is_reserved":false,"is_disabled":false,"rental_uris":{"android":"levelo://app?vid=cb54f1a2-ce2d-4da1-a872-73eefe8d20b0","ios":"levelo://app?vid=cb54f1a2-ce2d-4da1-a872-73eefe8d20b0"},"vehicle_type_id":"4","last_reported":1746702549,"current_range_meters":11600,"station_id":"ce4bhlh2rcd13ifvqgig","pricing_plan_id":"cebpf4jnsgd1na2vs0mg"},{"bike_id":"764f7530-c324-4cb7-bc97-9325e8135a76","system_id":"levelo_inurba_marseille","lat":43.23185,"lon":5.39984,"is_reserved":false,"is_disabled":false,"rental_uris":{"android":"levelo://app?vid=764f7530-c324-4cb7-bc97-9325e8135a76","ios":"levelo://app?vid=764f7530-c324-4cb7-bc97-9325e8135a76"},"vehicle_type_id":"4","last_reported":1746702549,"current_range_meters":11600,"station_id":"ce4bhn12rcd13ifvqgqg","pricing_plan_id":"cebpf4jnsgd1na2vs0mg"},{"bike_id":"dad6753f-a11d-47dc-8922-200d72862450","system_id":"levelo_inurba_marseille","lat":43.23181,"lon":5.3999,"is_reserved":false,"is_disabled":false,"rental_uris":{"android":"levelo://app?vid=dad6753f-a11d-47dc-8922-200d72862450","ios":"levelo://app?vid=dad6753f-a11d-47dc-8922-200d72862450"},"vehicle_type_id":"4","last_reported":1746702549,"current_range_meters":11600,"station_id":"ce4bhn12rcd13ifvqgqg","pricing_plan_id":"cebpf4jnsgd1na2vs0mg"},{"bike_id":"b993bfc3-7b06-4f3c-acf1-d5ff0d7234ba","system_id":"levelo_inurba_marseille","lat":43.21749,"lon":5.346,"is_reserved":false,"is_disabled":false,"rental_uris":{"android":"levelo://app?vid=b993bfc3-7b06-4f3c-acf1-d5ff0d7234ba","ios":"levelo://app?vid=b993bfc3-7b06-4f3c-acf1-d5ff0d7234ba"},"vehicle_type_id":"4","last_reported":1746702549,"current_range_meters":11600,"station_id":"st_cvj6r9ubvosntc0bgbag","pricing_plan_id":"cebpf4jnsgd1na2vs0mg"},{"bike_id":"e945a495-d359-4bb7-bb94-1340aff95955","system_id":"levelo_inurba_marseille","lat":43.28146,"lon":5.40612,"is_reserved":false,"is_disabled":false,"rental_uris":{"android":"levelo://app?vid=e945a495-d359-4bb7-bb94-1340aff95955","ios":"levelo://app?vid=e945a495-d359-4bb7-bb94-1340aff95955"},"vehicle_type_id":"4","last_reported":1746702549,"current_range_meters":12000,"station_id":"","pricing_plan_id":"cebpf4jnsgd1na2vs0mg"},{"bike_id":"809c8673-c032-46b9-aa07-62c38e26d44e","system_id":"levelo_inurba_marseille","lat":43.25047,"lon":5.38793,"is_reserved":false,"is_disabled":false,"rental_uris":{"android":"levelo://app?vid=809c8673-c032-46b9-aa07-62c38e26d44e","ios":"levelo://app?vid=809c8673-c032-46b9-aa07-62c38e26d44e"},"vehicle_type_id":"4","last_reported":1746702549,"current_range_meters":12400,"station_id":"","pricing_plan_id":"cebpf4jnsgd1na2vs0mg"},{"bike_id":"27cf1fce-b003-4a1c-9ab2-2a5f82eceaa8","system_id":"levelo_inurba_marseille","lat":43.29622,"lon":5.37167,"is_reserved":false,"is_disabled":false,"rental_uris":{"android":"levelo://app?vid=27cf1fce-b003-4a1c-9ab2-2a5f82eceaa8","ios":"levelo://app?vid=27cf1fce-b003-4a1c-9ab2-2a5f82eceaa8"},"vehicle_type_id":"4","last_reported":1746702549,"current_range_meters":12400,"station_id":"ce4bgnh2rcd13ifvqc0g","pricing_plan_id":"cebpf4jnsgd1na2vs0mg"},{"bike_id":"30e5ab38-f869-4da8-97dc-ab71d289c60a","system_id":"levelo_inurba_marseille","lat":43.25105,"lon":5.40327,"is_reserved":false,"is_disabled":false,"rental_uris":{"android":"levelo://app?vid=30e5ab38-f869-4da8-97dc-ab71d289c60a","ios":"levelo://app?vid=30e5ab38-f869-4da8-97dc-ab71d289c60a"},"vehicle_type_id":"4","last_reported":1746702549,"current_range_meters":12400,"station_id":"ce4bhlh2rcd13ifvqgig","pricing_plan_id":"cebpf4jnsgd1na2vs0mg"},{"bike_id":"7fb5113b-f0db-4ff6-bea4-cecb8c205393","system_id":"levelo_inurba_marseille","lat":43.23155,"lon":5.43713,"is_reserved":false,"is_disabled":false,"rental_uris":{"android":"levelo://app?vid=7fb5113b-f0db-4ff6-bea4-cecb8c205393","ios":"levelo://app?vid=7fb5113b-f0db-4ff6-bea4-cecb8c205393"},"vehicle_type_id":"4","last_reported":1746702549,"current_range_meters":12400,"station_id":"ce4bhmp2rcd13ifvqgog","pricing_plan_id":"cebpf4jnsgd1na2vs0mg"},{"bike_id":"f6c88190-a87b-4313-a4bb-cfb2c20661df","system_id":"levelo_inurba_marseille","lat":43.26561,"lon":5.37284,"is_reserved":false,"is_disabled":false,"rental_uris":{"android":"levelo://app?vid=f6c88190-a87b-4313-a4bb-cfb2c20661df","ios":"levelo://app?vid=f6c88190-a87b-4313-a4bb-cfb2c20661df"},"vehicle_type_id":"4","last_reported":1746702549,"current_range_meters":12800,"station_id":"ce4bhg12rcd13ifvqf70","pricing_plan_id":"cebpf4jnsgd1na2vs0mg"},{"bike_id":"6971f759-8594-489e-a8f6-9153c9a9c438","system_id":"levelo_inurba_marseille","lat":43.27674,"lon":5.41983,"is_reserved":false,"is_disabled":false,"rental_uris":{"android":"levelo://app?vid=6971f759-8594-489e-a8f6-9153c9a9c438","ios":"levelo://app?vid=6971f759-8594-489e-a8f6-9153c9a9c438"},"vehicle_type_id":"4","last_reported":1746702549,"current_range_meters":13600,"station_id":"","pricing_plan_id":"cebpf4jnsgd1na2vs0mg"},{"bike_id":"96447b94-98e3-485b-8f17-45d5b4d923f4","system_id":"levelo_inurba_marseille","lat":43.3014,"lon":5.38058,"is_reserved":false,"is_disabled":false,"rental_uris":{"android":"levelo://app?vid=96447b94-98e3-485b-8f17-45d5b4d923f4","ios":"levelo://app?vid=96447b94-98e3-485b-8f17-45d5b4d923f4"},"vehicle_type_id":"4","last_reported":1746702549,"current_range_meters":13600,"station_id":"ce4bgjp2rcd13ifvqbh0","pricing_plan_id":"cebpf4jnsgd1na2vs0mg"},{"bike_id":"f4ce33b6-4e2d-4b9b-9cc3-00e2ad436454","system_id":"levelo_inurba_marseille","lat":43.27207,"lon":5.39177,"is_reserved":false,"is_disabled":false,"rental_uris":{"android":"levelo://app?vid=f4ce33b6-4e2d-4b9b-9cc3-00e2ad436454","ios":"levelo://app?vid=f4ce33b6-4e2d-4b9b-9cc3-00e2ad436454"},"vehicle_type_id":"4","last_reported":1746702549,"current_range_meters":13600,"station_id":"ce4bhhp2rcd13ifvqfm0","pricing_plan_id":"cebpf4jnsgd1na2vs0mg"},{"bike_id":"caccb556-2ad0-45b8-84b8-819024dd44e6","system_id":"levelo_inurba_marseille","lat":43.298,"lon":5.3679,"is_reserved":false,"is_disabled":false,"rental_uris":{"android":"levelo://app?vid=caccb556-2ad0-45b8-84b8-819024dd44e6","ios":"levelo://app?vid=caccb556-2ad0-45b8-84b8-819024dd44e6"},"vehicle_type_id":"4","last_reported":1746702549,"current_range_meters":14400,"station_id":"","pricing_plan_id":"cebpf4jnsgd1na2vs0mg"},{"bike_id":"ffeef7a4-c3b2-4359-9f2a-dcf5eb75b935","system_id":"levelo_inurba_marseille","lat":43.30157,"lon":5.38083,"is_reserved":false,"is_disabled":false,"rental_uris":{"android":"levelo://app?vid=ffeef7a4-c3b2-4359-9f2a-dcf5eb75b935","ios":"levelo://app?vid=ffeef7a4-c3b2-4359-9f2a-dcf5eb75b935"},"vehicle_type_id":"4","last_reported":1746702549,"current_range_meters":14400,"station_id":"ce4bgjp2rcd13ifvqbh0","pricing_plan_id":"cebpf4jnsgd1na2vs0mg"},{"bike_id":"972fdc2d-4f74-49e1-8df1-2adff920a4ea","system_id":"levelo_inurba_marseille","lat":43.25499,"lon":5.376505,"is_reserved":false,"is_disabled":false,"rental_uris":{"android":"levelo://app?vid=972fdc2d-4f74-49e1-8df1-2adff920a4ea","ios":"levelo://app?vid=972fdc2d-4f74-49e1-8df1-2adff920a4ea"},"vehicle_type_id":"4","last_reported":1746702549,"current_range_meters":14400,"station_id":"ce4bhh12rcd13ifvqff0","pricing_plan_id":"cebpf4jnsgd1na2vs0mg"},{"bike_id":"e0054ea4-f393-4fc7-a473-4b8516966379","system_id":"levelo_inurba_marseille","lat":43.23145,"lon":5.43712,"is_reserved":false,"is_disabled":false,"rental_uris":{"android":"levelo://app?vid=e0054ea4-f393-4fc7-a473-4b8516966379","ios":"levelo://app?vid=e0054ea4-f393-4fc7-a473-4b8516966379"},"vehicle_type_id":"4","last_reported":1746702549,"current_range_meters":14400,"station_id":"ce4bhmp2rcd13ifvqgog","pricing_plan_id":"cebpf4jnsgd1na2vs0mg"},{"bike_id":"e66b33fa-3cb1-4964-8d9e-65703fc28e65","system_id":"levelo_inurba_marseille","lat":43.31757,"lon":5.3902,"is_reserved":false,"is_disabled":false,"rental_uris":{"android":"levelo://app?vid=e66b33fa-3cb1-4964-8d9e-65703fc28e65","ios":"levelo://app?vid=e66b33fa-3cb1-4964-8d9e-65703fc28e65"},"vehicle_type_id":"4","last_reported":1746702549,"current_range_meters":14400,"station_id":"ce4bhqp2rcd13ifvqhng","pricing_plan_id":"cebpf4jnsgd1na2vs0mg"},{"bike_id":"a2309e80-b2ba-42c9-9c60-147f0babf9f9","system_id":"levelo_inurba_marseille","lat":43.30851,"lon":5.37023,"is_reserved":false,"is_disabled":false,"rental_uris":{"android":"levelo://app?vid=a2309e80-b2ba-42c9-9c60-147f0babf9f9","ios":"levelo://app?vid=a2309e80-b2ba-42c9-9c60-147f0babf9f9"},"vehicle_type_id":"4","last_reported":1746702549,"current_range_meters":14800,"station_id":"","pricing_plan_id":"cebpf4jnsgd1na2vs0mg"},{"bike_id":"e6282093-23fb-41a9-859d-c0d9ad966535","system_id":"levelo_inurba_marseille","lat":43.31724,"lon":5.377105,"is_reserved":false,"is_disabled":false,"rental_uris":{"android":"levelo://app?vid=e6282093-23fb-41a9-859d-c0d9ad966535","ios":"levelo://app?vid=e6282093-23fb-41a9-859d-c0d9ad966535"},"vehicle_type_id":"4","last_reported":1746702549,"current_range_meters":14800,"station_id":"ce4bgth2rcd13ifvqch0","pricing_plan_id":"cebpf4jnsgd1na2vs0mg"},{"bike_id":"855e571c-85cb-4469-afcf-9c3baddb71ed","system_id":"levelo_inurba_marseille","lat":43.25085,"lon":5.39527,"is_reserved":false,"is_disabled":false,"rental_uris":{"android":"levelo://app?vid=855e571c-85cb-4469-afcf-9c3baddb71ed","ios":"levelo://app?vid=855e571c-85cb-4469-afcf-9c3baddb71ed"},"vehicle_type_id":"4","last_reported":1746702549,"current_range_meters":15200,"station_id":"ce4bhm12rcd13ifvqgkg","pricing_plan_id":"cebpf4jnsgd1na2vs0mg"},{"bike_id":"b3d5f702-96b7-4836-83bf-bbca60f76380","system_id":"levelo_inurba_marseille","lat":43.23181,"lon":5.39989,"is_reserved":false,"is_disabled":false,"rental_uris":{"android":"levelo://app?vid=b3d5f702-96b7-4836-83bf-bbca60f76380","ios":"levelo://app?vid=b3d5f702-96b7-4836-83bf-bbca60f76380"},"vehicle_type_id":"4","last_reported":1746702549,"current_range_meters":15200,"station_id":"ce4bhn12rcd13ifvqgqg","pricing_plan_id":"cebpf4jnsgd1na2vs0mg"},{"bike_id":"bedd69d2-832c-4a49-96e6-0dbb0c788f2f","system_id":"levelo_inurba_marseille","lat":43.28709,"lon":5.39991,"is_reserved":false,"is_disabled":false,"rental_uris":{"android":"levelo://app?vid=bedd69d2-832c-4a49-96e6-0dbb0c788f2f","ios":"levelo://app?vid=bedd69d2-832c-4a49-96e6-0dbb0c788f2f"},"vehicle_type_id":"4","last_reported":1746702549,"current_range_meters":16000,"station_id":"ce4bho92rcd13ifvqh3g","pricing_plan_id":"cebpf4jnsgd1na2vs0mg"},{"bike_id":"371221a8-db0b-4468-985f-872d5b34ff32","system_id":"levelo_inurba_marseille","lat":43.23198,"lon":5.35551,"is_reserved":false,"is_disabled":false,"rental_uris":{"android":"levelo://app?vid=371221a8-db0b-4468-985f-872d5b34ff32","ios":"levelo://app?vid=371221a8-db0b-4468-985f-872d5b34ff32"},"vehicle_type_id":"4","last_reported":1746702549,"current_range_meters":16000,"station_id":"ce4bhu92rcd13ifvqi70","pricing_plan_id":"cebpf4jnsgd1na2vs0mg"},{"bike_id":"568ade89-84eb-46d8-b9a2-cf4e4d6171d9","system_id":"levelo_inurba_marseille","lat":43.22504,"lon":5.34784,"is_reserved":false,"is_disabled":false,"rental_uris":{"android":"levelo://app?vid=568ade89-84eb-46d8-b9a2-cf4e4d6171d9","ios":"levelo://app?vid=568ade89-84eb-46d8-b9a2-cf4e4d6171d9"},"vehicle_type_id":"4","last_reported":1746702549,"current_range_meters":16000,"station_id":"st_cvj5dfep6f1abm77gieg","pricing_plan_id":"cebpf4jnsgd1na2vs0mg"},{"bike_id":"579169cd-fd04-4495-a109-f2f1a71bf9a4","system_id":"levelo_inurba_marseille","lat":43.21746,"lon":5.34603,"is_reserved":false,"is_disabled":false,"rental_uris":{"android":"levelo://app?vid=579169cd-fd04-4495-a109-f2f1a71bf9a4","ios":"levelo://app?vid=579169cd-fd04-4495-a109-f2f1a71bf9a4"},"vehicle_type_id":"4","last_reported":1746702549,"current_range_meters":16000,"station_id":"st_cvj6r9ubvosntc0bgbag","pricing_plan_id":"cebpf4jnsgd1na2vs0mg"},{"bike_id":"cb66b0bb-b708-4c07-af18-bb5249a5bfe1","system_id":"levelo_inurba_marseille","lat":43.21739,"lon":5.34601,"is_reserved":false,"is_disabled":false,"rental_uris":{"android":"levelo://app?vid=cb66b0bb-b708-4c07-af18-bb5249a5bfe1","ios":"levelo://app?vid=cb66b0bb-b708-4c07-af18-bb5249a5bfe1"},"vehicle_type_id":"4","last_reported":1746702549,"current_range_meters":16000,"station_id":"st_cvj6r9ubvosntc0bgbag","pricing_plan_id":"cebpf4jnsgd1na2vs0mg"},{"bike_id":"86fe7c71-8a8f-4687-9308-74d45bc987c8","system_id":"levelo_inurba_marseille","lat":43.27221,"lon":5.39171,"is_reserved":false,"is_disabled":false,"rental_uris":{"android":"levelo://app?vid=86fe7c71-8a8f-4687-9308-74d45bc987c8","ios":"levelo://app?vid=86fe7c71-8a8f-4687-9308-74d45bc987c8"},"vehicle_type_id":"4","last_reported":1746702549,"current_range_meters":16400,"station_id":"ce4bhhp2rcd13ifvqfm0","pricing_plan_id":"cebpf4jnsgd1na2vs0mg"},{"bike_id":"70a29a45-574c-4ff1-aca3-740aa0e705be","system_id":"levelo_inurba_marseille","lat":43.241686,"lon":5.364009,"is_reserved":false,"is_disabled":false,"rental_uris":{"android":"levelo://app?vid=70a29a45-574c-4ff1-aca3-740aa0e705be","ios":"levelo://app?vid=70a29a45-574c-4ff1-aca3-740aa0e705be"},"vehicle_type_id":"4","last_reported":1746702549,"current_range_meters":16400,"station_id":"cpo36qri1sfpv3e86is0","pricing_plan_id":"cebpf4jnsgd1na2vs0mg"},{"bike_id":"72553864-f2da-400f-8f16-2f9101f28a1a","system_id":"levelo_inurba_marseille","lat":43.2706,"lon":5.40259,"is_reserved":false,"is_disabled":false,"rental_uris":{"android":"levelo://app?vid=72553864-f2da-400f-8f16-2f9101f28a1a","ios":"levelo://app?vid=72553864-f2da-400f-8f16-2f9101f28a1a"},"vehicle_type_id":"4","last_reported":1746702549,"current_range_meters":16800,"station_id":"ce4bhk92rcd13ifvqgc0","pricing_plan_id":"cebpf4jnsgd1na2vs0mg"},{"bike_id":"e9135506-ad92-4336-9c8f-389560d4b052","system_id":"levelo_inurba_marseille","lat":43.31362,"lon":5.38484,"is_reserved":false,"is_disabled":false,"rental_uris":{"android":"levelo://app?vid=e9135506-ad92-4336-9c8f-389560d4b052","ios":"levelo://app?vid=e9135506-ad92-4336-9c8f-389560d4b052"},"vehicle_type_id":"4","last_reported":1746702549,"current_range_meters":17200,"station_id":"ce4bgt92rcd13ifvqcf0","pricing_plan_id":"cebpf4jnsgd1na2vs0mg"},{"bike_id":"dd204b93-4d5b-41db-af04-055144640131","system_id":"levelo_inurba_marseille","lat":43.25086,"lon":5.39522,"is_reserved":false,"is_disabled":false,"rental_uris":{"android":"levelo://app?vid=dd204b93-4d5b-41db-af04-055144640131","ios":"levelo://app?vid=dd204b93-4d5b-41db-af04-055144640131"},"vehicle_type_id":"4","last_reported":1746702549,"current_range_meters":17200,"station_id":"ce4bhm12rcd13ifvqgkg","pricing_plan_id":"cebpf4jnsgd1na2vs0mg"},{"bike_id":"15627664-6881-4bce-a4c0-dff5a438a35c","system_id":"levelo_inurba_marseille","lat":43.307993,"lon":5.435212,"is_reserved":false,"is_disabled":false,"rental_uris":{"android":"levelo://app?vid=15627664-6881-4bce-a4c0-dff5a438a35c","ios":"levelo://app?vid=15627664-6881-4bce-a4c0-dff5a438a35c"},"vehicle_type_id":"4","last_reported":1746702549,"current_range_meters":17200,"station_id":"ce4bhph2rcd13ifvqheg","pricing_plan_id":"cebpf4jnsgd1na2vs0mg"},{"bike_id":"af64d386-63bf-45ac-a4f1-bee048001ab3","system_id":"levelo_inurba_marseille","lat":43.23966,"lon":5.36639,"is_reserved":false,"is_disabled":false,"rental_uris":{"android":"levelo://app?vid=af64d386-63bf-45ac-a4f1-bee048001ab3","ios":"levelo://app?vid=af64d386-63bf-45ac-a4f1-bee048001ab3"},"vehicle_type_id":"4","last_reported":1746702549,"current_range_meters":17600,"station_id":"ce4bhi12rcd13ifvqfp0","pricing_plan_id":"cebpf4jnsgd1na2vs0mg"},{"bike_id":"a71a0dfc-7de8-44ee-9bb2-1e81dadd19e0","system_id":"levelo_inurba_marseille","lat":43.317095,"lon":5.437085,"is_reserved":false,"is_disabled":false,"rental_uris":{"android":"levelo://app?vid=a71a0dfc-7de8-44ee-9bb2-1e81dadd19e0","ios":"levelo://app?vid=a71a0dfc-7de8-44ee-9bb2-1e81dadd19e0"},"vehicle_type_id":"4","last_reported":1746702549,"current_range_meters":17600,"station_id":"ce4bhp92rcd13ifvqhcg","pricing_plan_id":"cebpf4jnsgd1na2vs0mg"},{"bike_id":"cb5561fb-3ed2-49bf-bd58-7c8862116c78","system_id":"levelo_inurba_marseille","lat":43.21188,"lon":5.3508,"is_reserved":false,"is_disabled":false,"rental_uris":{"android":"levelo://app?vid=cb5561fb-3ed2-49bf-bd58-7c8862116c78","ios":"levelo://app?vid=cb5561fb-3ed2-49bf-bd58-7c8862116c78"},"vehicle_type_id":"4","last_reported":1746702549,"current_range_meters":17600,"station_id":"st_cvj6sg6p6f1abm77japg","pricing_plan_id":"cebpf4jnsgd1na2vs0mg"},{"bike_id":"ff807334-3ad3-4e40-bbde-648eb2b1c45b","system_id":"levelo_inurba_marseille","lat":43.21196,"lon":5.35078,"is_reserved":false,"is_disabled":false,"rental_uris":{"android":"levelo://app?vid=ff807334-3ad3-4e40-bbde-648eb2b1c45b","ios":"levelo://app?vid=ff807334-3ad3-4e40-bbde-648eb2b1c45b"},"vehicle_type_id":"4","last_reported":1746702549,"current_range_meters":17600,"station_id":"st_cvj6sg6p6f1abm77japg","pricing_plan_id":"cebpf4jnsgd1na2vs0mg"},{"bike_id":"60b02c41-e104-488c-b83a-52391d3bb132","system_id":"levelo_inurba_marseille","lat":43.30165,"lon":5.38091,"is_reserved":false,"is_disabled":false,"rental_uris":{"android":"levelo://app?vid=60b02c41-e104-488c-b83a-52391d3bb132","ios":"levelo://app?vid=60b02c41-e104-488c-b83a-52391d3bb132"},"vehicle_type_id":"4","last_reported":1746702549,"current_range_meters":18000,"station_id":"ce4bgjp2rcd13ifvqbh0","pricing_plan_id":"cebpf4jnsgd1na2vs0mg"},{"bike_id":"56be998c-eef3-4772-bd34-6e65a7e0ffdf","system_id":"levelo_inurba_marseille","lat":43.30795,"lon":5.435261,"is_reserved":false,"is_disabled":false,"rental_uris":{"android":"levelo://app?vid=56be998c-eef3-4772-bd34-6e65a7e0ffdf","ios":"levelo://app?vid=56be998c-eef3-4772-bd34-6e65a7e0ffdf"},"vehicle_type_id":"4","last_reported":1746702549,"current_range_meters":18000,"station_id":"ce4bhph2rcd13ifvqheg","pricing_plan_id":"cebpf4jnsgd1na2vs0mg"},{"bike_id":"13dcf47e-4a64-4b90-9425-15abaa7b6175","system_id":"levelo_inurba_marseille","lat":43.21193,"lon":5.35075,"is_reserved":false,"is_disabled":false,"rental_uris":{"android":"levelo://app?vid=13dcf47e-4a64-4b90-9425-15abaa7b6175","ios":"levelo://app?vid=13dcf47e-4a64-4b90-9425-15abaa7b6175"},"vehicle_type_id":"4","last_reported":1746702549,"current_range_meters":18000,"station_id":"st_cvj6sg6p6f1abm77japg","pricing_plan_id":"cebpf4jnsgd1na2vs0mg"},{"bike_id":"c821e32e-d925-441c-80d2-d5a984744aba","system_id":"levelo_inurba_marseille","lat":43.21197,"lon":5.35095,"is_reserved":false,"is_disabled":false,"rental_uris":{"android":"levelo://app?vid=c821e32e-d925-441c-80d2-d5a984744aba","ios":"levelo://app?vid=c821e32e-d925-441c-80d2-d5a984744aba"},"vehicle_type_id":"4","last_reported":1746702549,"current_range_meters":18000,"station_id":"st_cvj6sg6p6f1abm77japg","pricing_plan_id":"cebpf4jnsgd1na2vs0mg"},{"bike_id":"8909d45b-5ec6-4b31-bbb7-55e12301d5eb","system_id":"levelo_inurba_marseille","lat":43.21191,"lon":5.35073,"is_reserved":false,"is_disabled":false,"rental_uris":{"android":"levelo://app?vid=8909d45b-5ec6-4b31-bbb7-55e12301d5eb","ios":"levelo://app?vid=8909d45b-5ec6-4b31-bbb7-55e12301d5eb"},"vehicle_type_id":"4","last_reported":1746702549,"current_range_meters":18000,"station_id":"st_cvj6sg6p6f1abm77japg","pricing_plan_id":"cebpf4jnsgd1na2vs0mg"},{"bike_id":"95407fdd-6b53-4c42-85f7-ee3e66f21b13","system_id":"levelo_inurba_marseille","lat":43.24331,"lon":5.38005,"is_reserved":false,"is_disabled":false,"rental_uris":{"android":"levelo://app?vid=95407fdd-6b53-4c42-85f7-ee3e66f21b13","ios":"levelo://app?vid=95407fdd-6b53-4c42-85f7-ee3e66f21b13"},"vehicle_type_id":"4","last_reported":1746702549,"current_range_meters":18800,"station_id":"","pricing_plan_id":"cebpf4jnsgd1na2vs0mg"},{"bike_id":"74254253-eb6a-401d-a5eb-fcb613235ff1","system_id":"levelo_inurba_marseille","lat":43.30871,"lon":5.39637,"is_reserved":false,"is_disabled":false,"rental_uris":{"android":"levelo://app?vid=74254253-eb6a-401d-a5eb-fcb613235ff1","ios":"levelo://app?vid=74254253-eb6a-401d-a5eb-fcb613235ff1"},"vehicle_type_id":"4","last_reported":1746702549,"current_range_meters":18800,"station_id":"ce4bh012rcd13ifvqcv0","pricing_plan_id":"cebpf4jnsgd1na2vs0mg"},{"bike_id":"90dd7ece-e0e3-4e3f-8585-4f4f345a0f96","system_id":"levelo_inurba_marseille","lat":43.3169,"lon":5.40473,"is_reserved":false,"is_disabled":false,"rental_uris":{"android":"levelo://app?vid=90dd7ece-e0e3-4e3f-8585-4f4f345a0f96","ios":"levelo://app?vid=90dd7ece-e0e3-4e3f-8585-4f4f345a0f96"},"vehicle_type_id":"4","last_reported":1746702549,"current_range_meters":18800,"station_id":"ce4bh012rcd13ifvqd00","pricing_plan_id":"cebpf4jnsgd1na2vs0mg"},{"bike_id":"c00b4dc3-faff-4d5a-88c8-7b701ca8bbe6","system_id":"levelo_inurba_marseille","lat":43.31699,"lon":5.404375,"is_reserved":false,"is_disabled":false,"rental_uris":{"android":"levelo://app?vid=c00b4dc3-faff-4d5a-88c8-7b701ca8bbe6","ios":"levelo://app?vid=c00b4dc3-faff-4d5a-88c8-7b701ca8bbe6"},"vehicle_type_id":"4","last_reported":1746702549,"current_range_meters":18800,"station_id":"ce4bh012rcd13ifvqd00","pricing_plan_id":"cebpf4jnsgd1na2vs0mg"},{"bike_id":"73524c42-da04-49c0-bc70-ea366b118bc4","system_id":"levelo_inurba_marseille","lat":43.30644,"lon":5.40081,"is_reserved":false,"is_disabled":false,"rental_uris":{"android":"levelo://app?vid=73524c42-da04-49c0-bc70-ea366b118bc4","ios":"levelo://app?vid=73524c42-da04-49c0-bc70-ea366b118bc4"},"vehicle_type_id":"4","last_reported":1746702549,"current_range_meters":18800,"station_id":"ce4bh112rcd13ifvqda0","pricing_plan_id":"cebpf4jnsgd1na2vs0mg"},{"bike_id":"a5e93638-fd65-4041-acd2-1fa408a23755","system_id":"levelo_inurba_marseille","lat":43.30631,"lon":5.37196,"is_reserved":false,"is_disabled":false,"rental_uris":{"android":"levelo://app?vid=a5e93638-fd65-4041-acd2-1fa408a23755","ios":"levelo://app?vid=a5e93638-fd65-4041-acd2-1fa408a23755"},"vehicle_type_id":"4","last_reported":1746702549,"current_range_meters":19200,"station_id":"ce4bgqh2rcd13ifvqc4g","pricing_plan_id":"cebpf4jnsgd1na2vs0mg"},{"bike_id":"6bdf54e4-6502-4a65-959c-571b198a8462","system_id":"levelo_inurba_marseille","lat":43.28672,"lon":5.38661,"is_reserved":false,"is_disabled":false,"rental_uris":{"android":"levelo://app?vid=6bdf54e4-6502-4a65-959c-571b198a8462","ios":"levelo://app?vid=6bdf54e4-6502-4a65-959c-571b198a8462"},"vehicle_type_id":"4","last_reported":1746702549,"current_range_meters":19200,"station_id":"ce4bh492rcd13ifvqdug","pricing_plan_id":"cebpf4jnsgd1na2vs0mg"},{"bike_id":"79b32b18-e4d3-49f7-87ba-51fa86567522","system_id":"levelo_inurba_marseille","lat":43.23964,"lon":5.36635,"is_reserved":false,"is_disabled":false,"rental_uris":{"android":"levelo://app?vid=79b32b18-e4d3-49f7-87ba-51fa86567522","ios":"levelo://app?vid=79b32b18-e4d3-49f7-87ba-51fa86567522"},"vehicle_type_id":"4","last_reported":1746702549,"current_range_meters":19200,"station_id":"ce4bhi12rcd13ifvqfp0","pricing_plan_id":"cebpf4jnsgd1na2vs0mg"},{"bike_id":"5a334376-2555-4500-bd3b-48a654431f9f","system_id":"levelo_inurba_marseille","lat":43.23196,"lon":5.35552,"is_reserved":false,"is_disabled":false,"rental_uris":{"android":"levelo://app?vid=5a334376-2555-4500-bd3b-48a654431f9f","ios":"levelo://app?vid=5a334376-2555-4500-bd3b-48a654431f9f"},"vehicle_type_id":"4","last_reported":1746702549,"current_range_meters":19200,"station_id":"ce4bhu92rcd13ifvqi70","pricing_plan_id":"cebpf4jnsgd1na2vs0mg"},{"bike_id":"0abbab51-139a-4311-9127-a7590c41c6f1","system_id":"levelo_inurba_marseille","lat":43.23196,"lon":5.35567,"is_reserved":false,"is_disabled":false,"rental_uris":{"android":"levelo://app?vid=0abbab51-139a-4311-9127-a7590c41c6f1","ios":"levelo://app?vid=0abbab51-139a-4311-9127-a7590c41c6f1"},"vehicle_type_id":"4","last_reported":1746702549,"current_range_meters":19200,"station_id":"ce4bhu92rcd13ifvqi70","pricing_plan_id":"cebpf4jnsgd1na2vs0mg"},{"bike_id":"5a66b016-8425-4ea9-ad57-b6177cc96802","system_id":"levelo_inurba_marseille","lat":43.315701,"lon":5.388979,"is_reserved":false,"is_disabled":false,"rental_uris":{"android":"levelo://app?vid=5a66b016-8425-4ea9-ad57-b6177cc96802","ios":"levelo://app?vid=5a66b016-8425-4ea9-ad57-b6177cc96802"},"vehicle_type_id":"4","last_reported":1746702549,"current_range_meters":19600,"station_id":"","pricing_plan_id":"cebpf4jnsgd1na2vs0mg"},{"bike_id":"72c714fe-a0de-42e3-a30e-f198dc7536fd","system_id":"levelo_inurba_marseille","lat":43.21741,"lon":5.34604,"is_reserved":false,"is_disabled":false,"rental_uris":{"android":"levelo://app?vid=72c714fe-a0de-42e3-a30e-f198dc7536fd","ios":"levelo://app?vid=72c714fe-a0de-42e3-a30e-f198dc7536fd"},"vehicle_type_id":"4","last_reported":1746702549,"current_range_meters":19600,"station_id":"st_cvj6r9ubvosntc0bgbag","pricing_plan_id":"cebpf4jnsgd1na2vs0mg"},{"bike_id":"aa1aa29c-464b-4a04-87e8-91920390751f","system_id":"levelo_inurba_marseille","lat":43.28926,"lon":5.38392,"is_reserved":false,"is_disabled":false,"rental_uris":{"android":"levelo://app?vid=aa1aa29c-464b-4a04-87e8-91920390751f","ios":"levelo://app?vid=aa1aa29c-464b-4a04-87e8-91920390751f"},"vehicle_type_id":"4","last_reported":1746702549,"current_range_meters":20000,"station_id":"ce4bh612rcd13ifvqe6g","pricing_plan_id":"cebpf4jnsgd1na2vs0mg"},{"bike_id":"eda44a72-7742-4476-9ad3-db9c5dd05fd8","system_id":"levelo_inurba_marseille","lat":43.24388,"lon":5.37056,"is_reserved":false,"is_disabled":false,"rental_uris":{"android":"levelo://app?vid=eda44a72-7742-4476-9ad3-db9c5dd05fd8","ios":"levelo://app?vid=eda44a72-7742-4476-9ad3-db9c5dd05fd8"},"vehicle_type_id":"4","last_reported":1746702549,"current_range_meters":20000,"station_id":"ce4bhhh2rcd13ifvqfk0","pricing_plan_id":"cebpf4jnsgd1na2vs0mg"},{"bike_id":"a4fcbb3b-f554-443f-a672-cec2fba9b975","system_id":"levelo_inurba_marseille","lat":43.25111,"lon":5.40308,"is_reserved":false,"is_disabled":false,"rental_uris":{"android":"levelo://app?vid=a4fcbb3b-f554-443f-a672-cec2fba9b975","ios":"levelo://app?vid=a4fcbb3b-f554-443f-a672-cec2fba9b975"},"vehicle_type_id":"4","last_reported":1746702549,"current_range_meters":20000,"station_id":"ce4bhlh2rcd13ifvqgig","pricing_plan_id":"cebpf4jnsgd1na2vs0mg"},{"bike_id":"fbdc470a-f9f3-40c7-9bda-da42f0f6d12e","system_id":"levelo_inurba_marseille","lat":43.313633,"lon":5.385092,"is_reserved":false,"is_disabled":false,"rental_uris":{"android":"levelo://app?vid=fbdc470a-f9f3-40c7-9bda-da42f0f6d12e","ios":"levelo://app?vid=fbdc470a-f9f3-40c7-9bda-da42f0f6d12e"},"vehicle_type_id":"4","last_reported":1746702549,"current_range_meters":20400,"station_id":"ce4bgt92rcd13ifvqcf0","pricing_plan_id":"cebpf4jnsgd1na2vs0mg"},{"bike_id":"2c9b7bd9-0691-4736-a0a6-b8cccb104766","system_id":"levelo_inurba_marseille","lat":43.23963,"lon":5.36626,"is_reserved":false,"is_disabled":false,"rental_uris":{"android":"levelo://app?vid=2c9b7bd9-0691-4736-a0a6-b8cccb104766","ios":"levelo://app?vid=2c9b7bd9-0691-4736-a0a6-b8cccb104766"},"vehicle_type_id":"4","last_reported":1746702549,"current_range_meters":20400,"station_id":"ce4bhi12rcd13ifvqfp0","pricing_plan_id":"cebpf4jnsgd1na2vs0mg"},{"bike_id":"4057c94e-3384-425c-974e-d5a1504c85ce","system_id":"levelo_inurba_marseille","lat":43.337444,"lon":5.374475,"is_reserved":false,"is_disabled":false,"rental_uris":{"android":"levelo://app?vid=4057c94e-3384-425c-974e-d5a1504c85ce","ios":"levelo://app?vid=4057c94e-3384-425c-974e-d5a1504c85ce"},"vehicle_type_id":"4","last_reported":1746702549,"current_range_meters":20800,"station_id":"","pricing_plan_id":"cebpf4jnsgd1na2vs0mg"},{"bike_id":"f1dd7bf4-aed1-47a1-a798-92e38ddd2af5","system_id":"levelo_inurba_marseille","lat":43.26568,"lon":5.37294,"is_reserved":false,"is_disabled":false,"rental_uris":{"android":"levelo://app?vid=f1dd7bf4-aed1-47a1-a798-92e38ddd2af5","ios":"levelo://app?vid=f1dd7bf4-aed1-47a1-a798-92e38ddd2af5"},"vehicle_type_id":"4","last_reported":1746702549,"current_range_meters":20800,"station_id":"ce4bhg12rcd13ifvqf70","pricing_plan_id":"cebpf4jnsgd1na2vs0mg"},{"bike_id":"a82e1a91-c593-48f2-a81c-2541d2bbc825","system_id":"levelo_inurba_marseille","lat":43.23185,"lon":5.39987,"is_reserved":false,"is_disabled":false,"rental_uris":{"android":"levelo://app?vid=a82e1a91-c593-48f2-a81c-2541d2bbc825","ios":"levelo://app?vid=a82e1a91-c593-48f2-a81c-2541d2bbc825"},"vehicle_type_id":"4","last_reported":1746702549,"current_range_meters":20800,"station_id":"ce4bhn12rcd13ifvqgqg","pricing_plan_id":"cebpf4jnsgd1na2vs0mg"},{"bike_id":"10311233-12d8-492b-84ff-5b1f9fad1989","system_id":"levelo_inurba_marseille","lat":43.33023,"lon":5.39041,"is_reserved":false,"is_disabled":false,"rental_uris":{"android":"levelo://app?vid=10311233-12d8-492b-84ff-5b1f9fad1989","ios":"levelo://app?vid=10311233-12d8-492b-84ff-5b1f9fad1989"},"vehicle_type_id":"4","last_reported":1746702549,"current_range_meters":20800,"station_id":"ce4bhr92rcd13ifvqhrg","pricing_plan_id":"cebpf4jnsgd1na2vs0mg"},{"bike_id":"8e1f30d9-bb21-4482-9811-ac1d7d71c326","system_id":"levelo_inurba_marseille","lat":43.21746,"lon":5.346,"is_reserved":false,"is_disabled":false,"rental_uris":{"android":"levelo://app?vid=8e1f30d9-bb21-4482-9811-ac1d7d71c326","ios":"levelo://app?vid=8e1f30d9-bb21-4482-9811-ac1d7d71c326"},"vehicle_type_id":"4","last_reported":1746702549,"current_range_meters":20800,"station_id":"st_cvj6r9ubvosntc0bgbag","pricing_plan_id":"cebpf4jnsgd1na2vs0mg"},{"bike_id":"04609754-5029-4972-bf29-71bd7290268c","system_id":"levelo_inurba_marseille","lat":43.24808,"lon":5.37465,"is_reserved":false,"is_disabled":false,"rental_uris":{"android":"levelo://app?vid=04609754-5029-4972-bf29-71bd7290268c","ios":"levelo://app?vid=04609754-5029-4972-bf29-71bd7290268c"},"vehicle_type_id":"4","last_reported":1746702549,"current_range_meters":21600,"station_id":"ce4bhgh2rcd13ifvqfb0","pricing_plan_id":"cebpf4jnsgd1na2vs0mg"},{"bike_id":"27970d28-9131-48af-9079-62162fe15977","system_id":"levelo_inurba_marseille","lat":43.21745,"lon":5.34605,"is_reserved":false,"is_disabled":false,"rental_uris":{"android":"levelo://app?vid=27970d28-9131-48af-9079-62162fe15977","ios":"levelo://app?vid=27970d28-9131-48af-9079-62162fe15977"},"vehicle_type_id":"4","last_reported":1746702549,"current_range_meters":21600,"station_id":"st_cvj6r9ubvosntc0bgbag","pricing_plan_id":"cebpf4jnsgd1na2vs0mg"},{"bike_id":"f597e4b6-c723-45d1-a62d-164b4d4c53ce","system_id":"levelo_inurba_marseille","lat":43.31364,"lon":5.3849,"is_reserved":false,"is_disabled":false,"rental_uris":{"android":"levelo://app?vid=f597e4b6-c723-45d1-a62d-164b4d4c53ce","ios":"levelo://app?vid=f597e4b6-c723-45d1-a62d-164b4d4c53ce"},"vehicle_type_id":"4","last_reported":1746702549,"current_range_meters":22000,"station_id":"ce4bgt92rcd13ifvqcf0","pricing_plan_id":"cebpf4jnsgd1na2vs0mg"},{"bike_id":"4c6d34c6-ee8f-49a3-b531-60f5fc09e09d","system_id":"levelo_inurba_marseille","lat":43.31079,"lon":5.3837,"is_reserved":false,"is_disabled":false,"rental_uris":{"android":"levelo://app?vid=4c6d34c6-ee8f-49a3-b531-60f5fc09e09d","ios":"levelo://app?vid=4c6d34c6-ee8f-49a3-b531-60f5fc09e09d"},"vehicle_type_id":"4","last_reported":1746702549,"current_range_meters":22000,"station_id":"ce4bgv92rcd13ifvqcr0","pricing_plan_id":"cebpf4jnsgd1na2vs0mg"},{"bike_id":"5d5ced08-ceb2-4472-9ca5-3e1a45cf3494","system_id":"levelo_inurba_marseille","lat":43.28416,"lon":5.34994,"is_reserved":false,"is_disabled":false,"rental_uris":{"android":"levelo://app?vid=5d5ced08-ceb2-4472-9ca5-3e1a45cf3494","ios":"levelo://app?vid=5d5ced08-ceb2-4472-9ca5-3e1a45cf3494"},"vehicle_type_id":"4","last_reported":1746702549,"current_range_meters":22000,"station_id":"ce4bhbh2rcd13ifvqepg","pricing_plan_id":"cebpf4jnsgd1na2vs0mg"},{"bike_id":"b9fe601f-e096-42e3-9a12-1c2e7e997794","system_id":"levelo_inurba_marseille","lat":43.28263,"lon":5.35064,"is_reserved":false,"is_disabled":false,"rental_uris":{"android":"levelo://app?vid=b9fe601f-e096-42e3-9a12-1c2e7e997794","ios":"levelo://app?vid=b9fe601f-e096-42e3-9a12-1c2e7e997794"},"vehicle_type_id":"4","last_reported":1746702549,"current_range_meters":22000,"station_id":"ce4bhbp2rcd13ifvqerg","pricing_plan_id":"cebpf4jnsgd1na2vs0mg"},{"bike_id":"6a6132cb-6c39-4e08-8342-be582ceda672","system_id":"levelo_inurba_marseille","lat":43.245728,"lon":5.394654,"is_reserved":false,"is_disabled":false,"rental_uris":{"android":"levelo://app?vid=6a6132cb-6c39-4e08-8342-be582ceda672","ios":"levelo://app?vid=6a6132cb-6c39-4e08-8342-be582ceda672"},"vehicle_type_id":"4","last_reported":1746702549,"current_range_meters":22000,"station_id":"ce4bhlp2rcd13ifvqgjg","pricing_plan_id":"cebpf4jnsgd1na2vs0mg"},{"bike_id":"00292f1f-00c5-4c0a-b1cb-2ced84e22501","system_id":"levelo_inurba_marseille","lat":43.28722,"lon":5.36086,"is_reserved":false,"is_disabled":false,"rental_uris":{"android":"levelo://app?vid=00292f1f-00c5-4c0a-b1cb-2ced84e22501","ios":"levelo://app?vid=00292f1f-00c5-4c0a-b1cb-2ced84e22501"},"vehicle_type_id":"4","last_reported":1746702549,"current_range_meters":22000,"station_id":"cki0cbj6b192h4jlfktg","pricing_plan_id":"cebpf4jnsgd1na2vs0mg"},{"bike_id":"c1041c9f-2085-470a-b13c-f88fd8323115","system_id":"levelo_inurba_marseille","lat":43.2775,"lon":5.38675,"is_reserved":false,"is_disabled":false,"rental_uris":{"android":"levelo://app?vid=c1041c9f-2085-470a-b13c-f88fd8323115","ios":"levelo://app?vid=c1041c9f-2085-470a-b13c-f88fd8323115"},"vehicle_type_id":"4","last_reported":1746702549,"current_range_meters":22400,"station_id":"","pricing_plan_id":"cebpf4jnsgd1na2vs0mg"},{"bike_id":"d1107ecd-be4f-458d-a1cd-17553b1323a8","system_id":"levelo_inurba_marseille","lat":43.21476,"lon":5.3481,"is_reserved":false,"is_disabled":false,"rental_uris":{"android":"levelo://app?vid=d1107ecd-be4f-458d-a1cd-17553b1323a8","ios":"levelo://app?vid=d1107ecd-be4f-458d-a1cd-17553b1323a8"},"vehicle_type_id":"4","last_reported":1746702549,"current_range_meters":22400,"station_id":"","pricing_plan_id":"cebpf4jnsgd1na2vs0mg"},{"bike_id":"2944fb34-51d3-4c9c-b888-71bde3e333b7","system_id":"levelo_inurba_marseille","lat":43.26556,"lon":5.37289,"is_reserved":false,"is_disabled":false,"rental_uris":{"android":"levelo://app?vid=2944fb34-51d3-4c9c-b888-71bde3e333b7","ios":"levelo://app?vid=2944fb34-51d3-4c9c-b888-71bde3e333b7"},"vehicle_type_id":"4","last_reported":1746702549,"current_range_meters":22400,"station_id":"ce4bhg12rcd13ifvqf70","pricing_plan_id":"cebpf4jnsgd1na2vs0mg"},{"bike_id":"8cf63b8b-32d2-4320-b90d-274240a281d1","system_id":"levelo_inurba_marseille","lat":43.25124,"lon":5.40331,"is_reserved":false,"is_disabled":false,"rental_uris":{"android":"levelo://app?vid=8cf63b8b-32d2-4320-b90d-274240a281d1","ios":"levelo://app?vid=8cf63b8b-32d2-4320-b90d-274240a281d1"},"vehicle_type_id":"4","last_reported":1746702549,"current_range_meters":22400,"station_id":"ce4bhlh2rcd13ifvqgig","pricing_plan_id":"cebpf4jnsgd1na2vs0mg"},{"bike_id":"83a50b95-d68b-4f37-b42f-f4b6d18160f2","system_id":"levelo_inurba_marseille","lat":43.25935,"lon":5.40905,"is_reserved":false,"is_disabled":false,"rental_uris":{"android":"levelo://app?vid=83a50b95-d68b-4f37-b42f-f4b6d18160f2","ios":"levelo://app?vid=83a50b95-d68b-4f37-b42f-f4b6d18160f2"},"vehicle_type_id":"4","last_reported":1746702549,"current_range_meters":22400,"station_id":"ce4bhm92rcd13ifvqglg","pricing_plan_id":"cebpf4jnsgd1na2vs0mg"},{"bike_id":"9e7a78d4-eef9-4b7c-87c7-c04c2619c32e","system_id":"levelo_inurba_marseille","lat":43.29176,"lon":5.382663,"is_reserved":false,"is_disabled":false,"rental_uris":{"android":"levelo://app?vid=9e7a78d4-eef9-4b7c-87c7-c04c2619c32e","ios":"levelo://app?vid=9e7a78d4-eef9-4b7c-87c7-c04c2619c32e"},"vehicle_type_id":"4","last_reported":1746702549,"current_range_meters":22800,"station_id":"ce4bh4p2rcd13ifvqe0g","pricing_plan_id":"cebpf4jnsgd1na2vs0mg"},{"bike_id":"081e31e4-a568-4d25-a88e-83085c5e0d76","system_id":"levelo_inurba_marseille","lat":43.26559,"lon":5.37283,"is_reserved":false,"is_disabled":false,"rental_uris":{"android":"levelo://app?vid=081e31e4-a568-4d25-a88e-83085c5e0d76","ios":"levelo://app?vid=081e31e4-a568-4d25-a88e-83085c5e0d76"},"vehicle_type_id":"4","last_reported":1746702549,"current_range_meters":22800,"station_id":"ce4bhg12rcd13ifvqf70","pricing_plan_id":"cebpf4jnsgd1na2vs0mg"},{"bike_id":"ae78d22c-01f1-43c3-bc3a-b893d06ddce0","system_id":"levelo_inurba_marseille","lat":43.31712,"lon":5.43717,"is_reserved":false,"is_disabled":false,"rental_uris":{"android":"levelo://app?vid=ae78d22c-01f1-43c3-bc3a-b893d06ddce0","ios":"levelo://app?vid=ae78d22c-01f1-43c3-bc3a-b893d06ddce0"},"vehicle_type_id":"4","last_reported":1746702549,"current_range_meters":22800,"station_id":"ce4bhp92rcd13ifvqhcg","pricing_plan_id":"cebpf4jnsgd1na2vs0mg"},{"bike_id":"db135363-de23-4704-b3a2-384149a5ee19","system_id":"levelo_inurba_marseille","lat":43.28411,"lon":5.3498,"is_reserved":false,"is_disabled":false,"rental_uris":{"android":"levelo://app?vid=db135363-de23-4704-b3a2-384149a5ee19","ios":"levelo://app?vid=db135363-de23-4704-b3a2-384149a5ee19"},"vehicle_type_id":"4","last_reported":1746702549,"current_range_meters":23200,"station_id":"ce4bhbh2rcd13ifvqepg","pricing_plan_id":"cebpf4jnsgd1na2vs0mg"},{"bike_id":"7a10e0df-73f1-443a-96f1-d2a30310cccc","system_id":"levelo_inurba_marseille","lat":43.24646,"lon":5.38893,"is_reserved":false,"is_disabled":false,"rental_uris":{"android":"levelo://app?vid=7a10e0df-73f1-443a-96f1-d2a30310cccc","ios":"levelo://app?vid=7a10e0df-73f1-443a-96f1-d2a30310cccc"},"vehicle_type_id":"4","last_reported":1746702549,"current_range_meters":23200,"station_id":"ce4bhg12rcd13ifvqf60","pricing_plan_id":"cebpf4jnsgd1na2vs0mg"},{"bike_id":"4076eeea-a3e9-47bb-afe9-25b7f6bd9bd9","system_id":"levelo_inurba_marseille","lat":43.25004,"lon":5.38923,"is_reserved":false,"is_disabled":false,"rental_uris":{"android":"levelo://app?vid=4076eeea-a3e9-47bb-afe9-25b7f6bd9bd9","ios":"levelo://app?vid=4076eeea-a3e9-47bb-afe9-25b7f6bd9bd9"},"vehicle_type_id":"4","last_reported":1746702549,"current_range_meters":23200,"station_id":"ce4bhgp2rcd13ifvqfd0","pricing_plan_id":"cebpf4jnsgd1na2vs0mg"},{"bike_id":"61c16500-c0d9-4838-96d6-b63b1f89bcd5","system_id":"levelo_inurba_marseille","lat":43.25491,"lon":5.37646,"is_reserved":false,"is_disabled":false,"rental_uris":{"android":"levelo://app?vid=61c16500-c0d9-4838-96d6-b63b1f89bcd5","ios":"levelo://app?vid=61c16500-c0d9-4838-96d6-b63b1f89bcd5"},"vehicle_type_id":"4","last_reported":1746702549,"current_range_meters":23200,"station_id":"ce4bhh12rcd13ifvqff0","pricing_plan_id":"cebpf4jnsgd1na2vs0mg"},{"bike_id":"7639b5e2-6f71-4ae9-84fd-0eedb5faa5c6","system_id":"levelo_inurba_marseille","lat":43.23151,"lon":5.43711,"is_reserved":false,"is_disabled":false,"rental_uris":{"android":"levelo://app?vid=7639b5e2-6f71-4ae9-84fd-0eedb5faa5c6","ios":"levelo://app?vid=7639b5e2-6f71-4ae9-84fd-0eedb5faa5c6"},"vehicle_type_id":"4","last_reported":1746702549,"current_range_meters":23200,"station_id":"ce4bhmp2rcd13ifvqgog","pricing_plan_id":"cebpf4jnsgd1na2vs0mg"},{"bike_id":"4cda7b65-879b-4ca5-ab8a-cb6d16e54e13","system_id":"levelo_inurba_marseille","lat":43.232,"lon":5.35562,"is_reserved":false,"is_disabled":false,"rental_uris":{"android":"levelo://app?vid=4cda7b65-879b-4ca5-ab8a-cb6d16e54e13","ios":"levelo://app?vid=4cda7b65-879b-4ca5-ab8a-cb6d16e54e13"},"vehicle_type_id":"4","last_reported":1746702549,"current_range_meters":23200,"station_id":"ce4bhu92rcd13ifvqi70","pricing_plan_id":"cebpf4jnsgd1na2vs0mg"},{"bike_id":"2eb8dc8a-5422-4a49-9e5b-7b1ea59dd4ea","system_id":"levelo_inurba_marseille","lat":43.21747,"lon":5.34596,"is_reserved":false,"is_disabled":false,"rental_uris":{"android":"levelo://app?vid=2eb8dc8a-5422-4a49-9e5b-7b1ea59dd4ea","ios":"levelo://app?vid=2eb8dc8a-5422-4a49-9e5b-7b1ea59dd4ea"},"vehicle_type_id":"4","last_reported":1746702549,"current_range_meters":23200,"station_id":"st_cvj6r9ubvosntc0bgbag","pricing_plan_id":"cebpf4jnsgd1na2vs0mg"},{"bike_id":"52631938-a29e-4c80-9b6e-6eaf75695676","system_id":"levelo_inurba_marseille","lat":43.2119,"lon":5.3507,"is_reserved":false,"is_disabled":false,"rental_uris":{"android":"levelo://app?vid=52631938-a29e-4c80-9b6e-6eaf75695676","ios":"levelo://app?vid=52631938-a29e-4c80-9b6e-6eaf75695676"},"vehicle_type_id":"4","last_reported":1746702549,"current_range_meters":23200,"station_id":"st_cvj6sg6p6f1abm77japg","pricing_plan_id":"cebpf4jnsgd1na2vs0mg"},{"bike_id":"545e5687-b7df-4883-81be-75a8925d5f91","system_id":"levelo_inurba_marseille","lat":43.337444,"lon":5.374475,"is_reserved":false,"is_disabled":false,"rental_uris":{"android":"levelo://app?vid=545e5687-b7df-4883-81be-75a8925d5f91","ios":"levelo://app?vid=545e5687-b7df-4883-81be-75a8925d5f91"},"vehicle_type_id":"4","last_reported":1746702549,"current_range_meters":24000,"station_id":"","pricing_plan_id":"cebpf4jnsgd1na2vs0mg"},{"bike_id":"e6c78a5f-38c0-461c-be9c-4ec508342459","system_id":"levelo_inurba_marseille","lat":43.28423,"lon":5.34993,"is_reserved":false,"is_disabled":false,"rental_uris":{"android":"levelo://app?vid=e6c78a5f-38c0-461c-be9c-4ec508342459","ios":"levelo://app?vid=e6c78a5f-38c0-461c-be9c-4ec508342459"},"vehicle_type_id":"4","last_reported":1746702549,"current_range_meters":24000,"station_id":"ce4bhbh2rcd13ifvqepg","pricing_plan_id":"cebpf4jnsgd1na2vs0mg"},{"bike_id":"832db053-d170-40a5-bb95-87fd05d85bd1","system_id":"levelo_inurba_marseille","lat":43.25504,"lon":5.37651,"is_reserved":false,"is_disabled":false,"rental_uris":{"android":"levelo://app?vid=832db053-d170-40a5-bb95-87fd05d85bd1","ios":"levelo://app?vid=832db053-d170-40a5-bb95-87fd05d85bd1"},"vehicle_type_id":"4","last_reported":1746702549,"current_range_meters":24000,"station_id":"ce4bhh12rcd13ifvqff0","pricing_plan_id":"cebpf4jnsgd1na2vs0mg"},{"bike_id":"bb0eec77-aef9-4f95-b2af-5492c470f8eb","system_id":"levelo_inurba_marseille","lat":43.23072,"lon":5.35497,"is_reserved":false,"is_disabled":false,"rental_uris":{"android":"levelo://app?vid=bb0eec77-aef9-4f95-b2af-5492c470f8eb","ios":"levelo://app?vid=bb0eec77-aef9-4f95-b2af-5492c470f8eb"},"vehicle_type_id":"4","last_reported":1746702549,"current_range_meters":24000,"station_id":"cpo3342slgdg3j2ifvpg","pricing_plan_id":"cebpf4jnsgd1na2vs0mg"},{"bike_id":"056c83f3-adc3-4a77-b698-387d321e3755","system_id":"levelo_inurba_marseille","lat":43.22925,"lon":5.35381,"is_reserved":false,"is_disabled":false,"rental_uris":{"android":"levelo://app?vid=056c83f3-adc3-4a77-b698-387d321e3755","ios":"levelo://app?vid=056c83f3-adc3-4a77-b698-387d321e3755"},"vehicle_type_id":"4","last_reported":1746702549,"current_range_meters":24000,"station_id":"cpo3532slgdg3j2ikp40","pricing_plan_id":"cebpf4jnsgd1na2vs0mg"},{"bike_id":"e8276874-83f7-43f0-acd6-9e22aaad119c","system_id":"levelo_inurba_marseille","lat":43.31223,"lon":5.36887,"is_reserved":false,"is_disabled":false,"rental_uris":{"android":"levelo://app?vid=e8276874-83f7-43f0-acd6-9e22aaad119c","ios":"levelo://app?vid=e8276874-83f7-43f0-acd6-9e22aaad119c"},"vehicle_type_id":"4","last_reported":1746702549,"current_range_meters":24400,"station_id":"ce4bgl92rcd13ifvqbq0","pricing_plan_id":"cebpf4jnsgd1na2vs0mg"},{"bike_id":"9f4b7aed-5565-44f0-b35d-83d3c928baa5","system_id":"levelo_inurba_marseille","lat":43.297791,"lon":5.371088,"is_reserved":false,"is_disabled":false,"rental_uris":{"android":"levelo://app?vid=9f4b7aed-5565-44f0-b35d-83d3c928baa5","ios":"levelo://app?vid=9f4b7aed-5565-44f0-b35d-83d3c928baa5"},"vehicle_type_id":"4","last_reported":1746702549,"current_range_meters":24400,"station_id":"ce4bgop2rcd13ifvqc1g","pricing_plan_id":"cebpf4jnsgd1na2vs0mg"},{"bike_id":"b441d786-7de2-44ea-b2d9-0c0fd38f3d58","system_id":"levelo_inurba_marseille","lat":43.29972,"lon":5.37183,"is_reserved":false,"is_disabled":false,"rental_uris":{"android":"levelo://app?vid=b441d786-7de2-44ea-b2d9-0c0fd38f3d58","ios":"levelo://app?vid=b441d786-7de2-44ea-b2d9-0c0fd38f3d58"},"vehicle_type_id":"4","last_reported":1746702549,"current_range_meters":24400,"station_id":"ce4bgr92rcd13ifvqc7g","pricing_plan_id":"cebpf4jnsgd1na2vs0mg"},{"bike_id":"a6f4ad41-e482-4042-9e7c-580c1bdb55ea","system_id":"levelo_inurba_marseille","lat":43.309483,"lon":5.390346,"is_reserved":false,"is_disabled":false,"rental_uris":{"android":"levelo://app?vid=a6f4ad41-e482-4042-9e7c-580c1bdb55ea","ios":"levelo://app?vid=a6f4ad41-e482-4042-9e7c-580c1bdb55ea"},"vehicle_type_id":"4","last_reported":1746702549,"current_range_meters":24400,"station_id":"ce4bgup2rcd13ifvqco0","pricing_plan_id":"cebpf4jnsgd1na2vs0mg"},{"bike_id":"b8a9e724-6360-451b-a47e-d3cd3c6dab78","system_id":"levelo_inurba_marseille","lat":43.31177,"lon":5.38713,"is_reserved":false,"is_disabled":false,"rental_uris":{"android":"levelo://app?vid=b8a9e724-6360-451b-a47e-d3cd3c6dab78","ios":"levelo://app?vid=b8a9e724-6360-451b-a47e-d3cd3c6dab78"},"vehicle_type_id":"4","last_reported":1746702549,"current_range_meters":24400,"station_id":"ce4bgv12rcd13ifvqcp0","pricing_plan_id":"cebpf4jnsgd1na2vs0mg"},{"bike_id":"9118f16e-2a29-4b74-8215-112edfce0f20","system_id":"levelo_inurba_marseille","lat":43.26595,"lon":5.37334,"is_reserved":false,"is_disabled":false,"rental_uris":{"android":"levelo://app?vid=9118f16e-2a29-4b74-8215-112edfce0f20","ios":"levelo://app?vid=9118f16e-2a29-4b74-8215-112edfce0f20"},"vehicle_type_id":"4","last_reported":1746702549,"current_range_meters":24400,"station_id":"ce4bhg12rcd13ifvqf70","pricing_plan_id":"cebpf4jnsgd1na2vs0mg"},{"bike_id":"85378e12-7a57-4628-bffe-e8b807bb1dd4","system_id":"levelo_inurba_marseille","lat":43.25101,"lon":5.40332,"is_reserved":false,"is_disabled":false,"rental_uris":{"android":"levelo://app?vid=85378e12-7a57-4628-bffe-e8b807bb1dd4","ios":"levelo://app?vid=85378e12-7a57-4628-bffe-e8b807bb1dd4"},"vehicle_type_id":"4","last_reported":1746702549,"current_range_meters":24400,"station_id":"ce4bhlh2rcd13ifvqgig","pricing_plan_id":"cebpf4jnsgd1na2vs0mg"},{"bike_id":"4b12119b-886f-455b-b2ae-8814b17b579d","system_id":"levelo_inurba_marseille","lat":43.24194,"lon":5.39707,"is_reserved":false,"is_disabled":false,"rental_uris":{"android":"levelo://app?vid=4b12119b-886f-455b-b2ae-8814b17b579d","ios":"levelo://app?vid=4b12119b-886f-455b-b2ae-8814b17b579d"},"vehicle_type_id":"4","last_reported":1746702549,"current_range_meters":24400,"station_id":"ce4bhn12rcd13ifvqgpg","pricing_plan_id":"cebpf4jnsgd1na2vs0mg"},{"bike_id":"2b5f1332-cfd2-4f8a-9fd1-9c1b6062e31b","system_id":"levelo_inurba_marseille","lat":43.21749,"lon":5.34606,"is_reserved":false,"is_disabled":false,"rental_uris":{"android":"levelo://app?vid=2b5f1332-cfd2-4f8a-9fd1-9c1b6062e31b","ios":"levelo://app?vid=2b5f1332-cfd2-4f8a-9fd1-9c1b6062e31b"},"vehicle_type_id":"4","last_reported":1746702549,"current_range_meters":24400,"station_id":"st_cvj6r9ubvosntc0bgbag","pricing_plan_id":"cebpf4jnsgd1na2vs0mg"},{"bike_id":"cfcf0a27-3831-4e84-9bea-34b38798a087","system_id":"levelo_inurba_marseille","lat":43.21185,"lon":5.35074,"is_reserved":false,"is_disabled":false,"rental_uris":{"android":"levelo://app?vid=cfcf0a27-3831-4e84-9bea-34b38798a087","ios":"levelo://app?vid=cfcf0a27-3831-4e84-9bea-34b38798a087"},"vehicle_type_id":"4","last_reported":1746702549,"current_range_meters":24400,"station_id":"st_cvj6sg6p6f1abm77japg","pricing_plan_id":"cebpf4jnsgd1na2vs0mg"},{"bike_id":"07da6f96-fb88-4a40-9077-290e24dde904","system_id":"levelo_inurba_marseille","lat":43.21189,"lon":5.35069,"is_reserved":false,"is_disabled":false,"rental_uris":{"android":"levelo://app?vid=07da6f96-fb88-4a40-9077-290e24dde904","ios":"levelo://app?vid=07da6f96-fb88-4a40-9077-290e24dde904"},"vehicle_type_id":"4","last_reported":1746702549,"current_range_meters":24400,"station_id":"st_cvj6sg6p6f1abm77japg","pricing_plan_id":"cebpf4jnsgd1na2vs0mg"},{"bike_id":"66d39f5f-1aac-423b-9ea7-bf9c1b0e5079","system_id":"levelo_inurba_marseille","lat":43.275066,"lon":5.411266,"is_reserved":false,"is_disabled":false,"rental_uris":{"android":"levelo://app?vid=66d39f5f-1aac-423b-9ea7-bf9c1b0e5079","ios":"levelo://app?vid=66d39f5f-1aac-423b-9ea7-bf9c1b0e5079"},"vehicle_type_id":"4","last_reported":1746702549,"current_range_meters":24800,"station_id":"","pricing_plan_id":"cebpf4jnsgd1na2vs0mg"},{"bike_id":"7b63e515-92d7-448a-8a44-ce4075cb2694","system_id":"levelo_inurba_marseille","lat":43.313653,"lon":5.38495,"is_reserved":false,"is_disabled":false,"rental_uris":{"android":"levelo://app?vid=7b63e515-92d7-448a-8a44-ce4075cb2694","ios":"levelo://app?vid=7b63e515-92d7-448a-8a44-ce4075cb2694"},"vehicle_type_id":"4","last_reported":1746702549,"current_range_meters":24800,"station_id":"ce4bgt92rcd13ifvqcf0","pricing_plan_id":"cebpf4jnsgd1na2vs0mg"},{"bike_id":"f2b1e45d-f98c-4e9b-b680-c124c66299df","system_id":"levelo_inurba_marseille","lat":43.29159,"lon":5.37152,"is_reserved":false,"is_disabled":false,"rental_uris":{"android":"levelo://app?vid=f2b1e45d-f98c-4e9b-b680-c124c66299df","ios":"levelo://app?vid=f2b1e45d-f98c-4e9b-b680-c124c66299df"},"vehicle_type_id":"4","last_reported":1746702549,"current_range_meters":24800,"station_id":"ce4bha92rcd13ifvqeh0","pricing_plan_id":"cebpf4jnsgd1na2vs0mg"},{"bike_id":"32ec615e-94db-41f5-9f55-9ba60877b677","system_id":"levelo_inurba_marseille","lat":43.28413,"lon":5.34981,"is_reserved":false,"is_disabled":false,"rental_uris":{"android":"levelo://app?vid=32ec615e-94db-41f5-9f55-9ba60877b677","ios":"levelo://app?vid=32ec615e-94db-41f5-9f55-9ba60877b677"},"vehicle_type_id":"4","last_reported":1746702549,"current_range_meters":24800,"station_id":"ce4bhbh2rcd13ifvqepg","pricing_plan_id":"cebpf4jnsgd1na2vs0mg"},{"bike_id":"9c0c8c72-0a9d-46ca-9053-a6c54d28dd55","system_id":"levelo_inurba_marseille","lat":43.28272,"lon":5.35084,"is_reserved":false,"is_disabled":false,"rental_uris":{"android":"levelo://app?vid=9c0c8c72-0a9d-46ca-9053-a6c54d28dd55","ios":"levelo://app?vid=9c0c8c72-0a9d-46ca-9053-a6c54d28dd55"},"vehicle_type_id":"4","last_reported":1746702549,"current_range_meters":24800,"station_id":"ce4bhbp2rcd13ifvqerg","pricing_plan_id":"cebpf4jnsgd1na2vs0mg"},{"bike_id":"ecd09c2b-f0a7-447a-8883-9b6b6322c433","system_id":"levelo_inurba_marseille","lat":43.27053,"lon":5.40259,"is_reserved":false,"is_disabled":false,"rental_uris":{"android":"levelo://app?vid=ecd09c2b-f0a7-447a-8883-9b6b6322c433","ios":"levelo://app?vid=ecd09c2b-f0a7-447a-8883-9b6b6322c433"},"vehicle_type_id":"4","last_reported":1746702549,"current_range_meters":24800,"station_id":"ce4bhk92rcd13ifvqgc0","pricing_plan_id":"cebpf4jnsgd1na2vs0mg"},{"bike_id":"320445d7-aaf7-43ec-baaf-4e67030e8b62","system_id":"levelo_inurba_marseille","lat":43.2714,"lon":5.40426,"is_reserved":false,"is_disabled":false,"rental_uris":{"android":"levelo://app?vid=320445d7-aaf7-43ec-baaf-4e67030e8b62","ios":"levelo://app?vid=320445d7-aaf7-43ec-baaf-4e67030e8b62"},"vehicle_type_id":"4","last_reported":1746702549,"current_range_meters":25200,"station_id":"","pricing_plan_id":"cebpf4jnsgd1na2vs0mg"},{"bike_id":"d6fe9a5e-4588-4c7d-97b3-4e3550c1c80d","system_id":"levelo_inurba_marseille","lat":43.30157,"lon":5.3809,"is_reserved":false,"is_disabled":false,"rental_uris":{"android":"levelo://app?vid=d6fe9a5e-4588-4c7d-97b3-4e3550c1c80d","ios":"levelo://app?vid=d6fe9a5e-4588-4c7d-97b3-4e3550c1c80d"},"vehicle_type_id":"4","last_reported":1746702549,"current_range_meters":25200,"station_id":"ce4bgjp2rcd13ifvqbh0","pricing_plan_id":"cebpf4jnsgd1na2vs0mg"},{"bike_id":"a1e02f05-a61d-489c-b681-03a9671f347c","system_id":"levelo_inurba_marseille","lat":43.31125,"lon":5.37763,"is_reserved":false,"is_disabled":false,"rental_uris":{"android":"levelo://app?vid=a1e02f05-a61d-489c-b681-03a9671f347c","ios":"levelo://app?vid=a1e02f05-a61d-489c-b681-03a9671f347c"},"vehicle_type_id":"4","last_reported":1746702549,"current_range_meters":25200,"station_id":"ce4bgt92rcd13ifvqcg0","pricing_plan_id":"cebpf4jnsgd1na2vs0mg"},{"bike_id":"996bb67f-cf24-4ba4-a6ca-31f1cccced57","system_id":"levelo_inurba_marseille","lat":43.286133,"lon":5.351046,"is_reserved":false,"is_disabled":false,"rental_uris":{"android":"levelo://app?vid=996bb67f-cf24-4ba4-a6ca-31f1cccced57","ios":"levelo://app?vid=996bb67f-cf24-4ba4-a6ca-31f1cccced57"},"vehicle_type_id":"4","last_reported":1746702549,"current_range_meters":25200,"station_id":"ce4bhch2rcd13ifvqeug","pricing_plan_id":"cebpf4jnsgd1na2vs0mg"},{"bike_id":"ecf0bb74-358e-476f-85c4-525acb5855ed","system_id":"levelo_inurba_marseille","lat":43.26025,"lon":5.37543,"is_reserved":false,"is_disabled":false,"rental_uris":{"android":"levelo://app?vid=ecf0bb74-358e-476f-85c4-525acb5855ed","ios":"levelo://app?vid=ecf0bb74-358e-476f-85c4-525acb5855ed"},"vehicle_type_id":"4","last_reported":1746702549,"current_range_meters":25200,"station_id":"ce4bhgh2rcd13ifvqfa0","pricing_plan_id":"cebpf4jnsgd1na2vs0mg"},{"bike_id":"b38e69d5-ba7d-455f-b575-aa4130f572a1","system_id":"levelo_inurba_marseille","lat":43.22504,"lon":5.3479,"is_reserved":false,"is_disabled":false,"rental_uris":{"android":"levelo://app?vid=b38e69d5-ba7d-455f-b575-aa4130f572a1","ios":"levelo://app?vid=b38e69d5-ba7d-455f-b575-aa4130f572a1"},"vehicle_type_id":"4","last_reported":1746702549,"current_range_meters":25200,"station_id":"st_cvj5dfep6f1abm77gieg","pricing_plan_id":"cebpf4jnsgd1na2vs0mg"},{"bike_id":"7dd541b9-e858-4734-8b38-bf5cec4a45d8","system_id":"levelo_inurba_marseille","lat":43.30125,"lon":5.37157,"is_reserved":false,"is_disabled":false,"rental_uris":{"android":"levelo://app?vid=7dd541b9-e858-4734-8b38-bf5cec4a45d8","ios":"levelo://app?vid=7dd541b9-e858-4734-8b38-bf5cec4a45d8"},"vehicle_type_id":"4","last_reported":1746702549,"current_range_meters":25600,"station_id":"","pricing_plan_id":"cebpf4jnsgd1na2vs0mg"},{"bike_id":"2f439cd2-0261-4158-a62c-ec08a3465adb","system_id":"levelo_inurba_marseille","lat":43.29965,"lon":5.38509,"is_reserved":false,"is_disabled":false,"rental_uris":{"android":"levelo://app?vid=2f439cd2-0261-4158-a62c-ec08a3465adb","ios":"levelo://app?vid=2f439cd2-0261-4158-a62c-ec08a3465adb"},"vehicle_type_id":"4","last_reported":1746702549,"current_range_meters":25600,"station_id":"ce4bgj92rcd13ifvqbd0","pricing_plan_id":"cebpf4jnsgd1na2vs0mg"},{"bike_id":"5277f59b-4ffe-4c82-ab67-b73ddff4f598","system_id":"levelo_inurba_marseille","lat":43.26554,"lon":5.39007,"is_reserved":false,"is_disabled":false,"rental_uris":{"android":"levelo://app?vid=5277f59b-4ffe-4c82-ab67-b73ddff4f598","ios":"levelo://app?vid=5277f59b-4ffe-4c82-ab67-b73ddff4f598"},"vehicle_type_id":"4","last_reported":1746702549,"current_range_meters":25600,"station_id":"ce4bhe12rcd13ifvqf30","pricing_plan_id":"cebpf4jnsgd1na2vs0mg"},{"bike_id":"56c4bae4-ecf0-4046-8bd7-bd30eacb41b4","system_id":"levelo_inurba_marseille","lat":43.25492,"lon":5.37658,"is_reserved":false,"is_disabled":false,"rental_uris":{"android":"levelo://app?vid=56c4bae4-ecf0-4046-8bd7-bd30eacb41b4","ios":"levelo://app?vid=56c4bae4-ecf0-4046-8bd7-bd30eacb41b4"},"vehicle_type_id":"4","last_reported":1746702549,"current_range_meters":25600,"station_id":"ce4bhh12rcd13ifvqff0","pricing_plan_id":"cebpf4jnsgd1na2vs0mg"},{"bike_id":"6556585e-ce44-46dd-9edb-eea520b00e07","system_id":"levelo_inurba_marseille","lat":43.27072,"lon":5.42281,"is_reserved":false,"is_disabled":false,"rental_uris":{"android":"levelo://app?vid=6556585e-ce44-46dd-9edb-eea520b00e07","ios":"levelo://app?vid=6556585e-ce44-46dd-9edb-eea520b00e07"},"vehicle_type_id":"4","last_reported":1746702549,"current_range_meters":25600,"station_id":"ce4bhk92rcd13ifvqgb0","pricing_plan_id":"cebpf4jnsgd1na2vs0mg"},{"bike_id":"323f8057-7fbe-44d1-aafb-f91eaf5170e7","system_id":"levelo_inurba_marseille","lat":43.336198,"lon":5.410246,"is_reserved":false,"is_disabled":false,"rental_uris":{"android":"levelo://app?vid=323f8057-7fbe-44d1-aafb-f91eaf5170e7","ios":"levelo://app?vid=323f8057-7fbe-44d1-aafb-f91eaf5170e7"},"vehicle_type_id":"4","last_reported":1746702549,"current_range_meters":25600,"station_id":"ce4bhqh2rcd13ifvqhmg","pricing_plan_id":"cebpf4jnsgd1na2vs0mg"},{"bike_id":"6ca5e6dd-2f54-438c-a4ff-6955e743ee77","system_id":"levelo_inurba_marseille","lat":43.2175,"lon":5.34601,"is_reserved":false,"is_disabled":false,"rental_uris":{"android":"levelo://app?vid=6ca5e6dd-2f54-438c-a4ff-6955e743ee77","ios":"levelo://app?vid=6ca5e6dd-2f54-438c-a4ff-6955e743ee77"},"vehicle_type_id":"4","last_reported":1746702549,"current_range_meters":25600,"station_id":"st_cvj6r9ubvosntc0bgbag","pricing_plan_id":"cebpf4jnsgd1na2vs0mg"},{"bike_id":"8c56e2c1-f343-448d-b2aa-8b58d6eab8ff","system_id":"levelo_inurba_marseille","lat":43.29271,"lon":5.37634,"is_reserved":false,"is_disabled":false,"rental_uris":{"android":"levelo://app?vid=8c56e2c1-f343-448d-b2aa-8b58d6eab8ff","ios":"levelo://app?vid=8c56e2c1-f343-448d-b2aa-8b58d6eab8ff"},"vehicle_type_id":"4","last_reported":1746702549,"current_range_meters":26000,"station_id":"ce4bgi12rcd13ifvqb80","pricing_plan_id":"cebpf4jnsgd1na2vs0mg"},{"bike_id":"0ba8250e-7150-4c3c-b4a9-796c5cf1ca93","system_id":"levelo_inurba_marseille","lat":43.324861,"lon":5.365644,"is_reserved":false,"is_disabled":false,"rental_uris":{"android":"levelo://app?vid=0ba8250e-7150-4c3c-b4a9-796c5cf1ca93","ios":"levelo://app?vid=0ba8250e-7150-4c3c-b4a9-796c5cf1ca93"},"vehicle_type_id":"4","last_reported":1746702549,"current_range_meters":26000,"station_id":"ce4bhs12rcd13ifvqhvg","pricing_plan_id":"cebpf4jnsgd1na2vs0mg"},{"bike_id":"32fd77c2-c958-45d6-9a9a-0ed0e0206e55","system_id":"levelo_inurba_marseille","lat":43.30799,"lon":5.38149,"is_reserved":false,"is_disabled":false,"rental_uris":{"android":"levelo://app?vid=32fd77c2-c958-45d6-9a9a-0ed0e0206e55","ios":"levelo://app?vid=32fd77c2-c958-45d6-9a9a-0ed0e0206e55"},"vehicle_type_id":"4","last_reported":1746702549,"current_range_meters":26800,"station_id":"ce4bgt12rcd13ifvqce0","pricing_plan_id":"cebpf4jnsgd1na2vs0mg"},{"bike_id":"3792dc04-5966-4dfe-bac2-13ad4e9b1b5c","system_id":"levelo_inurba_marseille","lat":43.28421,"lon":5.37513,"is_reserved":false,"is_disabled":false,"rental_uris":{"android":"levelo://app?vid=3792dc04-5966-4dfe-bac2-13ad4e9b1b5c","ios":"levelo://app?vid=3792dc04-5966-4dfe-bac2-13ad4e9b1b5c"},"vehicle_type_id":"4","last_reported":1746702549,"current_range_meters":26800,"station_id":"ce4bh412rcd13ifvqds0","pricing_plan_id":"cebpf4jnsgd1na2vs0mg"},{"bike_id":"14185999-c6fc-4ec7-97d0-783f3d711b51","system_id":"levelo_inurba_marseille","lat":43.26556,"lon":5.37295,"is_reserved":false,"is_disabled":false,"rental_uris":{"android":"levelo://app?vid=14185999-c6fc-4ec7-97d0-783f3d711b51","ios":"levelo://app?vid=14185999-c6fc-4ec7-97d0-783f3d711b51"},"vehicle_type_id":"4","last_reported":1746702549,"current_range_meters":26800,"station_id":"ce4bhg12rcd13ifvqf70","pricing_plan_id":"cebpf4jnsgd1na2vs0mg"},{"bike_id":"36e5f1f8-088e-4628-8d61-2fdc8e032259","system_id":"levelo_inurba_marseille","lat":43.25002,"lon":5.38928,"is_reserved":false,"is_disabled":false,"rental_uris":{"android":"levelo://app?vid=36e5f1f8-088e-4628-8d61-2fdc8e032259","ios":"levelo://app?vid=36e5f1f8-088e-4628-8d61-2fdc8e032259"},"vehicle_type_id":"4","last_reported":1746702549,"current_range_meters":26800,"station_id":"ce4bhgp2rcd13ifvqfd0","pricing_plan_id":"cebpf4jnsgd1na2vs0mg"},{"bike_id":"f0deccb7-a270-4fd4-a51e-39844e0ae45a","system_id":"levelo_inurba_marseille","lat":43.34769,"lon":5.34963,"is_reserved":false,"is_disabled":false,"rental_uris":{"android":"levelo://app?vid=f0deccb7-a270-4fd4-a51e-39844e0ae45a","ios":"levelo://app?vid=f0deccb7-a270-4fd4-a51e-39844e0ae45a"},"vehicle_type_id":"4","last_reported":1746702549,"current_range_meters":27200,"station_id":"","pricing_plan_id":"cebpf4jnsgd1na2vs0mg"},{"bike_id":"edfce8a7-59a7-49c4-be46-2873b05c4067","system_id":"levelo_inurba_marseille","lat":43.29262,"lon":5.37636,"is_reserved":false,"is_disabled":false,"rental_uris":{"android":"levelo://app?vid=edfce8a7-59a7-49c4-be46-2873b05c4067","ios":"levelo://app?vid=edfce8a7-59a7-49c4-be46-2873b05c4067"},"vehicle_type_id":"4","last_reported":1746702549,"current_range_meters":27200,"station_id":"ce4bgi12rcd13ifvqb80","pricing_plan_id":"cebpf4jnsgd1na2vs0mg"},{"bike_id":"cf4a639a-a543-457c-b4ce-17fef2a468f3","system_id":"levelo_inurba_marseille","lat":43.26213,"lon":5.3744,"is_reserved":false,"is_disabled":false,"rental_uris":{"android":"levelo://app?vid=cf4a639a-a543-457c-b4ce-17fef2a468f3","ios":"levelo://app?vid=cf4a639a-a543-457c-b4ce-17fef2a468f3"},"vehicle_type_id":"4","last_reported":1746702549,"current_range_meters":27200,"station_id":"ce4bhgp2rcd13ifvqfc0","pricing_plan_id":"cebpf4jnsgd1na2vs0mg"},{"bike_id":"3c89cc1d-1749-4495-9184-686611282d9c","system_id":"levelo_inurba_marseille","lat":43.27062,"lon":5.40262,"is_reserved":false,"is_disabled":false,"rental_uris":{"android":"levelo://app?vid=3c89cc1d-1749-4495-9184-686611282d9c","ios":"levelo://app?vid=3c89cc1d-1749-4495-9184-686611282d9c"},"vehicle_type_id":"4","last_reported":1746702549,"current_range_meters":27200,"station_id":"ce4bhk92rcd13ifvqgc0","pricing_plan_id":"cebpf4jnsgd1na2vs0mg"},{"bike_id":"d102547c-2fc8-457b-9026-fb2fce934c54","system_id":"levelo_inurba_marseille","lat":43.25134,"lon":5.40309,"is_reserved":false,"is_disabled":false,"rental_uris":{"android":"levelo://app?vid=d102547c-2fc8-457b-9026-fb2fce934c54","ios":"levelo://app?vid=d102547c-2fc8-457b-9026-fb2fce934c54"},"vehicle_type_id":"4","last_reported":1746702549,"current_range_meters":27200,"station_id":"ce4bhlh2rcd13ifvqgig","pricing_plan_id":"cebpf4jnsgd1na2vs0mg"},{"bike_id":"2c11b640-817e-4020-a00b-64dfd6abfcc5","system_id":"levelo_inurba_marseille","lat":43.28173,"lon":5.42619,"is_reserved":false,"is_disabled":false,"rental_uris":{"android":"levelo://app?vid=2c11b640-817e-4020-a00b-64dfd6abfcc5","ios":"levelo://app?vid=2c11b640-817e-4020-a00b-64dfd6abfcc5"},"vehicle_type_id":"4","last_reported":1746702549,"current_range_meters":27200,"station_id":"ce4bhnh2rcd13ifvqgug","pricing_plan_id":"cebpf4jnsgd1na2vs0mg"},{"bike_id":"6a942811-3e0e-4806-a7e4-13b6910ff31d","system_id":"levelo_inurba_marseille","lat":43.2971,"lon":5.36598,"is_reserved":false,"is_disabled":false,"rental_uris":{"android":"levelo://app?vid=6a942811-3e0e-4806-a7e4-13b6910ff31d","ios":"levelo://app?vid=6a942811-3e0e-4806-a7e4-13b6910ff31d"},"vehicle_type_id":"4","last_reported":1746702549,"current_range_meters":27600,"station_id":"ce4bgn12rcd13ifvqbt0","pricing_plan_id":"cebpf4jnsgd1na2vs0mg"},{"bike_id":"7d8f7712-7d69-4a36-bf59-6e7f1bd73aa8","system_id":"levelo_inurba_marseille","lat":43.2868,"lon":5.3866,"is_reserved":false,"is_disabled":false,"rental_uris":{"android":"levelo://app?vid=7d8f7712-7d69-4a36-bf59-6e7f1bd73aa8","ios":"levelo://app?vid=7d8f7712-7d69-4a36-bf59-6e7f1bd73aa8"},"vehicle_type_id":"4","last_reported":1746702549,"current_range_meters":27600,"station_id":"ce4bh492rcd13ifvqdug","pricing_plan_id":"cebpf4jnsgd1na2vs0mg"},{"bike_id":"e8ca233f-0e69-4500-9c53-1cdea653dc40","system_id":"levelo_inurba_marseille","lat":43.28415,"lon":5.34977,"is_reserved":false,"is_disabled":false,"rental_uris":{"android":"levelo://app?vid=e8ca233f-0e69-4500-9c53-1cdea653dc40","ios":"levelo://app?vid=e8ca233f-0e69-4500-9c53-1cdea653dc40"},"vehicle_type_id":"4","last_reported":1746702549,"current_range_meters":27600,"station_id":"ce4bhbh2rcd13ifvqepg","pricing_plan_id":"cebpf4jnsgd1na2vs0mg"},{"bike_id":"f51b3e9b-b529-4746-b31d-ded684da9b01","system_id":"levelo_inurba_marseille","lat":43.28425,"lon":5.34992,"is_reserved":false,"is_disabled":false,"rental_uris":{"android":"levelo://app?vid=f51b3e9b-b529-4746-b31d-ded684da9b01","ios":"levelo://app?vid=f51b3e9b-b529-4746-b31d-ded684da9b01"},"vehicle_type_id":"4","last_reported":1746702549,"current_range_meters":27600,"station_id":"ce4bhbh2rcd13ifvqepg","pricing_plan_id":"cebpf4jnsgd1na2vs0mg"},{"bike_id":"76d5cbb3-51ad-4a72-a747-c662e33acb15","system_id":"levelo_inurba_marseille","lat":43.24808,"lon":5.37469,"is_reserved":false,"is_disabled":false,"rental_uris":{"android":"levelo://app?vid=76d5cbb3-51ad-4a72-a747-c662e33acb15","ios":"levelo://app?vid=76d5cbb3-51ad-4a72-a747-c662e33acb15"},"vehicle_type_id":"4","last_reported":1746702549,"current_range_meters":27600,"station_id":"ce4bhgh2rcd13ifvqfb0","pricing_plan_id":"cebpf4jnsgd1na2vs0mg"},{"bike_id":"eb066fe8-5dfd-422b-b181-6afe33137936","system_id":"levelo_inurba_marseille","lat":43.23963,"lon":5.36628,"is_reserved":false,"is_disabled":false,"rental_uris":{"android":"levelo://app?vid=eb066fe8-5dfd-422b-b181-6afe33137936","ios":"levelo://app?vid=eb066fe8-5dfd-422b-b181-6afe33137936"},"vehicle_type_id":"4","last_reported":1746702549,"current_range_meters":27600,"station_id":"ce4bhi12rcd13ifvqfp0","pricing_plan_id":"cebpf4jnsgd1na2vs0mg"},{"bike_id":"2f7204e4-aba0-4ac4-806d-39a4adcd808b","system_id":"levelo_inurba_marseille","lat":43.28183,"lon":5.42654,"is_reserved":false,"is_disabled":false,"rental_uris":{"android":"levelo://app?vid=2f7204e4-aba0-4ac4-806d-39a4adcd808b","ios":"levelo://app?vid=2f7204e4-aba0-4ac4-806d-39a4adcd808b"},"vehicle_type_id":"4","last_reported":1746702549,"current_range_meters":27600,"station_id":"ce4bhnh2rcd13ifvqgug","pricing_plan_id":"cebpf4jnsgd1na2vs0mg"},{"bike_id":"759c39d9-39ce-4ee5-a198-990584f95920","system_id":"levelo_inurba_marseille","lat":43.26806,"lon":5.40266,"is_reserved":false,"is_disabled":false,"rental_uris":{"android":"levelo://app?vid=759c39d9-39ce-4ee5-a198-990584f95920","ios":"levelo://app?vid=759c39d9-39ce-4ee5-a198-990584f95920"},"vehicle_type_id":"4","last_reported":1746702549,"current_range_meters":27600,"station_id":"ce501612rcd8frsf0b60","pricing_plan_id":"cebpf4jnsgd1na2vs0mg"},{"bike_id":"7b643cdc-69a5-45df-8baf-de88d3683dce","system_id":"levelo_inurba_marseille","lat":43.290159,"lon":5.381299,"is_reserved":false,"is_disabled":false,"rental_uris":{"android":"levelo://app?vid=7b643cdc-69a5-45df-8baf-de88d3683dce","ios":"levelo://app?vid=7b643cdc-69a5-45df-8baf-de88d3683dce"},"vehicle_type_id":"4","last_reported":1746702549,"current_range_meters":28000,"station_id":"","pricing_plan_id":"cebpf4jnsgd1na2vs0mg"},{"bike_id":"3b14e2e9-7f28-4936-98dc-a5361a810e23","system_id":"levelo_inurba_marseille","lat":43.3136,"lon":5.3851,"is_reserved":false,"is_disabled":false,"rental_uris":{"android":"levelo://app?vid=3b14e2e9-7f28-4936-98dc-a5361a810e23","ios":"levelo://app?vid=3b14e2e9-7f28-4936-98dc-a5361a810e23"},"vehicle_type_id":"4","last_reported":1746702549,"current_range_meters":28000,"station_id":"ce4bgt92rcd13ifvqcf0","pricing_plan_id":"cebpf4jnsgd1na2vs0mg"},{"bike_id":"fb536b91-5d73-4c6d-bcff-db6b5520a422","system_id":"levelo_inurba_marseille","lat":43.31123,"lon":5.37765,"is_reserved":false,"is_disabled":false,"rental_uris":{"android":"levelo://app?vid=fb536b91-5d73-4c6d-bcff-db6b5520a422","ios":"levelo://app?vid=fb536b91-5d73-4c6d-bcff-db6b5520a422"},"vehicle_type_id":"4","last_reported":1746702549,"current_range_meters":28000,"station_id":"ce4bgt92rcd13ifvqcg0","pricing_plan_id":"cebpf4jnsgd1na2vs0mg"},{"bike_id":"b9f91d85-fd30-49a2-bf3f-ba35a128ce7f","system_id":"levelo_inurba_marseille","lat":43.309533,"lon":5.39036,"is_reserved":false,"is_disabled":false,"rental_uris":{"android":"levelo://app?vid=b9f91d85-fd30-49a2-bf3f-ba35a128ce7f","ios":"levelo://app?vid=b9f91d85-fd30-49a2-bf3f-ba35a128ce7f"},"vehicle_type_id":"4","last_reported":1746702549,"current_range_meters":28000,"station_id":"ce4bgup2rcd13ifvqco0","pricing_plan_id":"cebpf4jnsgd1na2vs0mg"},