{"last_updated":1738102119,"ttl":60,"version":"2.2","data":{"bikes":[{"bike_id":"c98c10ad-2c59-465b-9626-e2f31164a824","system_id":"levelo_inurba_marseille","lat":43.23182,"lon":5.35561,"is_reserved":false,"is_disabled":false,"rental_uris":{"android":"levelo://app?vid=c98c10ad-2c59-465b-9626-e2f31164a824","ios":"levelo://app?vid=c98c10ad-2c59-465b-9626-e2f31164a824"},"vehicle_type_id":"4","last_reported":1738102119,"current_range_meters":28000,"station_id":"ce4bhu92rcd13ifvqi70","pricing_plan_id":"cebpf4jnsgd1na2vs0mg"},{"bike_id":"9748ed37-7ad5-4512-a93e-74c6ef3629b0","system_id":"levelo_inurba_marseille","lat":43.2846,"lon":5.35892,"is_reserved":false,"is_disabled":false,"rental_uris":{"android":"levelo://app?vid=9748ed37-7ad5-4512-a93e-74c6ef3629b0","ios":"levelo://app?vid=9748ed37-7ad5-4512-a93e-74c6ef3629b0"},"vehicle_type_id":"4","last_reported":1738102119,"current_range_meters":27200,"station_id":"ce4bhah2rcd13ifvqei0","pricing_plan_id":"cebpf4jnsgd1na2vs0mg"},{"bike_id":"23f8ca48-f2fa-4410-880d-26db1f284e23","system_id":"levelo_inurba_marseille","lat":43.28187,"lon":5.4262,"is_reserved":false,"is_disabled":false,"rental_uris":{"android":"levelo://app?vid=23f8ca48-f2fa-4410-880d-26db1f284e23","ios":"levelo://app?vid=23f8ca48-f2fa-4410-880d-26db1f284e23"},"vehicle_type_id":"4","last_reported":1738102119,"current_range_meters":16000,"station_id":"ce4bhnh2rcd13ifvqgug","pricing_plan_id":"cebpf4jnsgd1na2vs0mg"},{"bike_id":"6e0d659d-5a0e-4e21-92fa-770d4be6c514","system_id":"levelo_inurba_marseille","lat":43.31683,"lon":5.3779,"is_reserved":false,"is_disabled":false,"rental_uris":{"android":"levelo://app?vid=6e0d659d-5a0e-4e21-92fa-770d4be6c514","ios":"levelo://app?vid=6e0d659d-5a0e-4e21-92fa-770d4be6c514"},"vehicle_type_id":"4","last_reported":1738102119,"current_range_meters":12000,"station_id":"","pricing_plan_id":"cebpf4jnsgd1na2vs0mg"},{"bike_id":"f7f8117f-03ef-415e-85c6-2eeaf165e4f2","system_id":"levelo_inurba_marseille","lat":43.26226,"lon":5.4043,"is_reserved":false,"is_disabled":true,"rental_uris":{"android":"levelo://app?vid=f7f8117f-03ef-415e-85c6-2eeaf165e4f2","ios":"levelo://app?vid=f7f8117f-03ef-415e-85c6-2eeaf165e4f2"},"vehicle_type_id":"4","last_reported":1738102119,"current_range_meters":31200,"station_id":"ce4bhmh2rcd13ifvqgmg","pricing_plan_id":"cebpf4jnsgd1na2vs0mg"},{"bike_id":"45226d1a-6602-4547-9f5f-cb36e591a81b","system_id":"levelo_inurba_marseille","lat":43.26047,"lon":5.39407,"is_reserved":false,"is_disabled":false,"rental_uris":{"android":"levelo://app?vid=45226d1a-6602-4547-9f5f-cb36e591a81b","ios":"levelo://app?vid=45226d1a-6602-4547-9f5f-cb36e591a81b"},"vehicle_type_id":"4","last_reported":1738102119,"current_range_meters":38400,"station_id":"ce4bhh92rcd13ifvqfj0","pricing_plan_id":"cebpf4jnsgd1na2vs0mg"},{"bike_id":"f7eeff0b-3639-4079-b20d-6264b393d68b","system_id":"levelo_inurba_marseille","lat":43.2782,"lon":5.40721,"is_reserved":false,"is_disabled":false,"rental_uris":{"android":"levelo://app?vid=f7eeff0b-3639-4079-b20d-6264b393d68b","ios":"levelo://app?vid=f7eeff0b-3639-4079-b20d-6264b393d68b"},"vehicle_type_id":"4","last_reported":1738102119,"current_range_meters":28800,"station_id":"ce4bhnh2rcd13ifvqgtg","pricing_plan_id":"cebpf4jnsgd1na2vs0mg"},{"bike_id":"60b94ec1-a2e5-42fc-ad7c-d66b2ada9c44","system_id":"levelo_inurba_marseille","lat":43.23965,"lon":5.36632,"is_reserved":false,"is_disabled":false,"rental_uris":{"android":"levelo://app?vid=60b94ec1-a2e5-42fc-ad7c-d66b2ada9c44","ios":"levelo://app?vid=60b94ec1-a2e5-42fc-ad7c-d66b2ada9c44"},"vehicle_type_id":"4","last_reported":1738102119,"current_range_meters":6800,"station_id":"ce4bhi12rcd13ifvqfp0","pricing_plan_id":"cebpf4jnsgd1na2vs0mg"},{"bike_id":"15a8edd6-9f8c-4776-99d7-7dc1f4f51b93","system_id":"levelo_inurba_marseille","lat":43.30611,"lon":5.37225,"is_reserved":false,"is_disabled":false,"rental_uris":{"android":"levelo://app?vid=15a8edd6-9f8c-4776-99d7-7dc1f4f51b93","ios":"levelo://app?vid=15a8edd6-9f8c-4776-99d7-7dc1f4f51b93"},"vehicle_type_id":"4","last_reported":1738102119,"current_range_meters":38800,"station_id":"ce4bgqh2rcd13ifvqc4g","pricing_plan_id":"cebpf4jnsgd1na2vs0mg"},{"bike_id":"d77faba5-2b0c-430f-ad22-bcf40b90e74c","system_id":"levelo_inurba_marseille","lat":43.27817,"lon":5.40714,"is_reserved":false,"is_disabled":true,"rental_uris":{"android":"levelo://app?vid=d77faba5-2b0c-430f-ad22-bcf40b90e74c","ios":"levelo://app?vid=d77faba5-2b0c-430f-ad22-bcf40b90e74c"},"vehicle_type_id":"4","last_reported":1738102119,"current_range_meters":37600,"station_id":"ce4bhnh2rcd13ifvqgtg","pricing_plan_id":"cebpf4jnsgd1na2vs0mg"},{"bike_id":"50e4fac4-766e-4079-9d8c-c3d927ccbadf","system_id":"levelo_inurba_marseille","lat":43.2995,"lon":5.38433,"is_reserved":false,"is_disabled":false,"rental_uris":{"android":"levelo://app?vid=50e4fac4-766e-4079-9d8c-c3d927ccbadf","ios":"levelo://app?vid=50e4fac4-766e-4079-9d8c-c3d927ccbadf"},"vehicle_type_id":"4","last_reported":1738102119,"current_range_meters":28400,"station_id":"ce4bgj92rcd13ifvqbd0","pricing_plan_id":"cebpf4jnsgd1na2vs0mg"},{"bike_id":"57422b90-1442-4d8a-922e-1cfa7d14e2c2","system_id":"levelo_inurba_marseille","lat":43.2904,"lon":5.37567,"is_reserved":false,"is_disabled":false,"rental_uris":{"android":"levelo://app?vid=57422b90-1442-4d8a-922e-1cfa7d14e2c2","ios":"levelo://app?vid=57422b90-1442-4d8a-922e-1cfa7d14e2c2"},"vehicle_type_id":"4","last_reported":1738102119,"current_range_meters":39200,"station_id":"ce4bh692rcd13ifvqe90","pricing_plan_id":"cebpf4jnsgd1na2vs0mg"},{"bike_id":"5d0ede01-1185-4e24-99ce-15c92415d12e","system_id":"levelo_inurba_marseille","lat":43.3058,"lon":5.39363,"is_reserved":false,"is_disabled":false,"rental_uris":{"android":"levelo://app?vid=5d0ede01-1185-4e24-99ce-15c92415d12e","ios":"levelo://app?vid=5d0ede01-1185-4e24-99ce-15c92415d12e"},"vehicle_type_id":"4","last_reported":1738102119,"current_range_meters":33600,"station_id":"ce4bh0p2rcd13ifvqd80","pricing_plan_id":"cebpf4jnsgd1na2vs0mg"},{"bike_id":"02cef228-7c82-4d63-b29e-7deed950ebd1","system_id":"levelo_inurba_marseille","lat":43.31164,"lon":5.38725,"is_reserved":false,"is_disabled":false,"rental_uris":{"android":"levelo://app?vid=02cef228-7c82-4d63-b29e-7deed950ebd1","ios":"levelo://app?vid=02cef228-7c82-4d63-b29e-7deed950ebd1"},"vehicle_type_id":"4","last_reported":1738102119,"current_range_meters":39200,"station_id":"ce4bgv12rcd13ifvqcp0","pricing_plan_id":"cebpf4jnsgd1na2vs0mg"},{"bike_id":"58e72295-f362-4387-8a27-14a7c991b4f9","system_id":"levelo_inurba_marseille","lat":43.27382,"lon":5.36223,"is_reserved":false,"is_disabled":false,"rental_uris":{"android":"levelo://app?vid=58e72295-f362-4387-8a27-14a7c991b4f9","ios":"levelo://app?vid=58e72295-f362-4387-8a27-14a7c991b4f9"},"vehicle_type_id":"4","last_reported":1738102119,"current_range_meters":37600,"station_id":"ce4bhbh2rcd13ifvqeo0","pricing_plan_id":"cebpf4jnsgd1na2vs0mg"},{"bike_id":"bfe7bbc1-ecb4-402b-afaf-027113b773cc","system_id":"levelo_inurba_marseille","lat":43.31054,"lon":5.38348,"is_reserved":false,"is_disabled":false,"rental_uris":{"android":"levelo://app?vid=bfe7bbc1-ecb4-402b-afaf-027113b773cc","ios":"levelo://app?vid=bfe7bbc1-ecb4-402b-afaf-027113b773cc"},"vehicle_type_id":"4","last_reported":1738102119,"current_range_meters":38400,"station_id":"ce4bgv92rcd13ifvqcr0","pricing_plan_id":"cebpf4jnsgd1na2vs0mg"},{"bike_id":"96c6d005-88bb-4fd6-98f4-0a014c553eb8","system_id":"levelo_inurba_marseille","lat":43.33018,"lon":5.39025,"is_reserved":false,"is_disabled":false,"rental_uris":{"android":"levelo://app?vid=96c6d005-88bb-4fd6-98f4-0a014c553eb8","ios":"levelo://app?vid=96c6d005-88bb-4fd6-98f4-0a014c553eb8"},"vehicle_type_id":"4","last_reported":1738102119,"current_range_meters":38800,"station_id":"ce4bhr92rcd13ifvqhrg","pricing_plan_id":"cebpf4jnsgd1na2vs0mg"},{"bike_id":"d0f1b83c-9011-4852-9b29-f04b40f95b7b","system_id":"levelo_inurba_marseille","lat":43.3014,"lon":5.38768,"is_reserved":false,"is_disabled":false,"rental_uris":{"android":"levelo://app?vid=d0f1b83c-9011-4852-9b29-f04b40f95b7b","ios":"levelo://app?vid=d0f1b83c-9011-4852-9b29-f04b40f95b7b"},"vehicle_type_id":"4","last_reported":1738102119,"current_range_meters":17200,"station_id":"ce4bghh2rcd13ifvqb60","pricing_plan_id":"cebpf4jnsgd1na2vs0mg"},{"bike_id":"5c388708-e3f2-4bbd-88d9-c199a31e81f9","system_id":"levelo_inurba_marseille","lat":43.28718,"lon":5.40002,"is_reserved":false,"is_disabled":true,"rental_uris":{"android":"levelo://app?vid=5c388708-e3f2-4bbd-88d9-c199a31e81f9","ios":"levelo://app?vid=5c388708-e3f2-4bbd-88d9-c199a31e81f9"},"vehicle_type_id":"4","last_reported":1738102119,"current_range_meters":34800,"station_id":"ce4bho92rcd13ifvqh3g","pricing_plan_id":"cebpf4jnsgd1na2vs0mg"},{"bike_id":"4fee5b2c-113a-4e93-8885-ff5a6a124d4d","system_id":"levelo_inurba_marseille","lat":43.27507,"lon":5.42451,"is_reserved":false,"is_disabled":false,"rental_uris":{"android":"levelo://app?vid=4fee5b2c-113a-4e93-8885-ff5a6a124d4d","ios":"levelo://app?vid=4fee5b2c-113a-4e93-8885-ff5a6a124d4d"},"vehicle_type_id":"4","last_reported":1738102119,"current_range_meters":10800,"station_id":"ce4bhn92rcd13ifvqgrg","pricing_plan_id":"cebpf4jnsgd1na2vs0mg"},{"bike_id":"99f052ce-e5d4-4959-9f96-077a48f3f1c5","system_id":"levelo_inurba_marseille","lat":43.27199,"lon":5.4097,"is_reserved":false,"is_disabled":false,"rental_uris":{"android":"levelo://app?vid=99f052ce-e5d4-4959-9f96-077a48f3f1c5","ios":"levelo://app?vid=99f052ce-e5d4-4959-9f96-077a48f3f1c5"},"vehicle_type_id":"4","last_reported":1738102119,"current_range_meters":38000,"station_id":"ce4bhl12rcd13ifvqgf0","pricing_plan_id":"cebpf4jnsgd1na2vs0mg"},{"bike_id":"f57593df-b459-413e-9715-708e0bf4fb20","system_id":"levelo_inurba_marseille","lat":43.29174,"lon":5.37151,"is_reserved":false,"is_disabled":false,"rental_uris":{"android":"levelo://app?vid=f57593df-b459-413e-9715-708e0bf4fb20","ios":"levelo://app?vid=f57593df-b459-413e-9715-708e0bf4fb20"},"vehicle_type_id":"4","last_reported":1738102119,"current_range_meters":38800,"station_id":"ce4bha92rcd13ifvqeh0","pricing_plan_id":"cebpf4jnsgd1na2vs0mg"},{"bike_id":"874aea7d-7edc-43cb-8bc9-2175029864ba","system_id":"levelo_inurba_marseille","lat":43.28552,"lon":5.395,"is_reserved":false,"is_disabled":false,"rental_uris":{"android":"levelo://app?vid=874aea7d-7edc-43cb-8bc9-2175029864ba","ios":"levelo://app?vid=874aea7d-7edc-43cb-8bc9-2175029864ba"},"vehicle_type_id":"4","last_reported":1738102119,"current_range_meters":34000,"station_id":"ce4bh292rcd13ifvqdg0","pricing_plan_id":"cebpf4jnsgd1na2vs0mg"},{"bike_id":"4bc1c7a2-fe02-4a81-9fbf-e5d28633c3f2","system_id":"levelo_inurba_marseille","lat":43.29201,"lon":5.39308,"is_reserved":false,"is_disabled":false,"rental_uris":{"android":"levelo://app?vid=4bc1c7a2-fe02-4a81-9fbf-e5d28633c3f2","ios":"levelo://app?vid=4bc1c7a2-fe02-4a81-9fbf-e5d28633c3f2"},"vehicle_type_id":"4","last_reported":1738102119,"current_range_meters":35200,"station_id":"ce4bh192rcd13ifvqdd0","pricing_plan_id":"cebpf4jnsgd1na2vs0mg"},{"bike_id":"0a35e13e-7ac4-41c5-852f-a143f236e88c","system_id":"levelo_inurba_marseille","lat":43.30949,"lon":5.39042,"is_reserved":false,"is_disabled":false,"rental_uris":{"android":"levelo://app?vid=0a35e13e-7ac4-41c5-852f-a143f236e88c","ios":"levelo://app?vid=0a35e13e-7ac4-41c5-852f-a143f236e88c"},"vehicle_type_id":"4","last_reported":1738102119,"current_range_meters":23200,"station_id":"ce4bgup2rcd13ifvqco0","pricing_plan_id":"cebpf4jnsgd1na2vs0mg"},{"bike_id":"ce67ae32-7450-4c44-96df-497237dc6471","system_id":"levelo_inurba_marseille","lat":43.29934,"lon":5.37465,"is_reserved":false,"is_disabled":false,"rental_uris":{"android":"levelo://app?vid=ce67ae32-7450-4c44-96df-497237dc6471","ios":"levelo://app?vid=ce67ae32-7450-4c44-96df-497237dc6471"},"vehicle_type_id":"4","last_reported":1738102119,"current_range_meters":12800,"station_id":"ce4bgjh2rcd13ifvqbg0","pricing_plan_id":"cebpf4jnsgd1na2vs0mg"},{"bike_id":"c152bb1b-3ed6-4a3e-b006-0b443bfbc2a0","system_id":"levelo_inurba_marseille","lat":43.23188,"lon":5.39982,"is_reserved":false,"is_disabled":false,"rental_uris":{"android":"levelo://app?vid=c152bb1b-3ed6-4a3e-b006-0b443bfbc2a0","ios":"levelo://app?vid=c152bb1b-3ed6-4a3e-b006-0b443bfbc2a0"},"vehicle_type_id":"4","last_reported":1738102119,"current_range_meters":38000,"station_id":"ce4bhn12rcd13ifvqgqg","pricing_plan_id":"cebpf4jnsgd1na2vs0mg"},{"bike_id":"e0e1a9b1-c826-46b6-aaed-fcc1500fd352","system_id":"levelo_inurba_marseille","lat":43.30229,"lon":5.40049,"is_reserved":false,"is_disabled":false,"rental_uris":{"android":"levelo://app?vid=e0e1a9b1-c826-46b6-aaed-fcc1500fd352","ios":"levelo://app?vid=e0e1a9b1-c826-46b6-aaed-fcc1500fd352"},"vehicle_type_id":"4","last_reported":1738102119,"current_range_meters":10800,"station_id":"ce4bgvh2rcd13ifvqcs0","pricing_plan_id":"cebpf4jnsgd1na2vs0mg"},{"bike_id":"4e59fd0a-089e-4c96-90a5-c343717c58e8","system_id":"levelo_inurba_marseille","lat":43.30539,"lon":5.38436,"is_reserved":false,"is_disabled":false,"rental_uris":{"android":"levelo://app?vid=4e59fd0a-089e-4c96-90a5-c343717c58e8","ios":"levelo://app?vid=4e59fd0a-089e-4c96-90a5-c343717c58e8"},"vehicle_type_id":"4","last_reported":1738102119,"current_range_meters":35200,"station_id":"ce4bgg92rcd13ifvqb30","pricing_plan_id":"cebpf4jnsgd1na2vs0mg"},{"bike_id":"25364637-1aab-40b5-913b-73845838954b","system_id":"levelo_inurba_marseille","lat":43.31164,"lon":5.38724,"is_reserved":false,"is_disabled":false,"rental_uris":{"android":"levelo://app?vid=25364637-1aab-40b5-913b-73845838954b","ios":"levelo://app?vid=25364637-1aab-40b5-913b-73845838954b"},"vehicle_type_id":"4","last_reported":1738102119,"current_range_meters":28400,"station_id":"ce4bgv12rcd13ifvqcp0","pricing_plan_id":"cebpf4jnsgd1na2vs0mg"},{"bike_id":"069b705e-258c-450c-88dc-0d2ac3a8269c","system_id":"levelo_inurba_marseille","lat":43.31383,"lon":5.38516,"is_reserved":false,"is_disabled":false,"rental_uris":{"android":"levelo://app?vid=069b705e-258c-450c-88dc-0d2ac3a8269c","ios":"levelo://app?vid=069b705e-258c-450c-88dc-0d2ac3a8269c"},"vehicle_type_id":"4","last_reported":1738102119,"current_range_meters":38800,"station_id":"ce4bgt92rcd13ifvqcf0","pricing_plan_id":"cebpf4jnsgd1na2vs0mg"},{"bike_id":"5d4915e0-4a9f-4c36-821a-8bde58abc3cd","system_id":"levelo_inurba_marseille","lat":43.25112,"lon":5.40327,"is_reserved":false,"is_disabled":true,"rental_uris":{"android":"levelo://app?vid=5d4915e0-4a9f-4c36-821a-8bde58abc3cd","ios":"levelo://app?vid=5d4915e0-4a9f-4c36-821a-8bde58abc3cd"},"vehicle_type_id":"4","last_reported":1738102119,"current_range_meters":12800,"station_id":"ce4bhlh2rcd13ifvqgig","pricing_plan_id":"cebpf4jnsgd1na2vs0mg"},{"bike_id":"8d99a130-dfc1-4efb-9b2a-052a7e8c2499","system_id":"levelo_inurba_marseille","lat":43.29864,"lon":5.39756,"is_reserved":false,"is_disabled":false,"rental_uris":{"android":"levelo://app?vid=8d99a130-dfc1-4efb-9b2a-052a7e8c2499","ios":"levelo://app?vid=8d99a130-dfc1-4efb-9b2a-052a7e8c2499"},"vehicle_type_id":"4","last_reported":1738102119,"current_range_meters":38800,"station_id":"ce4bh0h2rcd13ifvqd50","pricing_plan_id":"cebpf4jnsgd1na2vs0mg"},{"bike_id":"75f78423-7bb1-46bc-9291-8f61438106b2","system_id":"levelo_inurba_marseille","lat":43.33024,"lon":5.39057,"is_reserved":false,"is_disabled":false,"rental_uris":{"android":"levelo://app?vid=75f78423-7bb1-46bc-9291-8f61438106b2","ios":"levelo://app?vid=75f78423-7bb1-46bc-9291-8f61438106b2"},"vehicle_type_id":"4","last_reported":1738102119,"current_range_meters":28400,"station_id":"ce4bhr92rcd13ifvqhrg","pricing_plan_id":"cebpf4jnsgd1na2vs0mg"},{"bike_id":"7250d302-ebd9-4a4b-acfe-a6570b70f9c8","system_id":"levelo_inurba_marseille","lat":43.27906,"lon":5.38024,"is_reserved":false,"is_disabled":false,"rental_uris":{"android":"levelo://app?vid=7250d302-ebd9-4a4b-acfe-a6570b70f9c8","ios":"levelo://app?vid=7250d302-ebd9-4a4b-acfe-a6570b70f9c8"},"vehicle_type_id":"4","last_reported":1738102119,"current_range_meters":38800,"station_id":"ce4bhf92rcd13ifvqf50","pricing_plan_id":"cebpf4jnsgd1na2vs0mg"},{"bike_id":"6d7b0dc5-1e27-4819-9cd5-e4a58462c9de","system_id":"levelo_inurba_marseille","lat":43.32353,"lon":5.3889,"is_reserved":false,"is_disabled":false,"rental_uris":{"android":"levelo://app?vid=6d7b0dc5-1e27-4819-9cd5-e4a58462c9de","ios":"levelo://app?vid=6d7b0dc5-1e27-4819-9cd5-e4a58462c9de"},"vehicle_type_id":"4","last_reported":1738102119,"current_range_meters":24000,"station_id":"ce4bhqp2rcd13ifvqhog","pricing_plan_id":"cebpf4jnsgd1na2vs0mg"},{"bike_id":"8906b01c-c546-42d8-8a71-d3e4c23c32f6","system_id":"levelo_inurba_marseille","lat":43.244,"lon":5.37046,"is_reserved":false,"is_disabled":false,"rental_uris":{"android":"levelo://app?vid=8906b01c-c546-42d8-8a71-d3e4c23c32f6","ios":"levelo://app?vid=8906b01c-c546-42d8-8a71-d3e4c23c32f6"},"vehicle_type_id":"4","last_reported":1738102119,"current_range_meters":38800,"station_id":"ce4bhhh2rcd13ifvqfk0","pricing_plan_id":"cebpf4jnsgd1na2vs0mg"},{"bike_id":"da7ba8e5-f778-4ede-91e7-c38d6ca8bff8","system_id":"levelo_inurba_marseille","lat":43.28695,"lon":5.36191,"is_reserved":false,"is_disabled":false,"rental_uris":{"android":"levelo://app?vid=da7ba8e5-f778-4ede-91e7-c38d6ca8bff8","ios":"levelo://app?vid=da7ba8e5-f778-4ede-91e7-c38d6ca8bff8"},"vehicle_type_id":"4","last_reported":1738102119,"current_range_meters":16000,"station_id":"cki0cbj6b192h4jlfktg","pricing_plan_id":"cebpf4jnsgd1na2vs0mg"},{"bike_id":"7ab78636-20bf-4f13-aca2-a4a98f6ebc82","system_id":"levelo_inurba_marseille","lat":43.29769,"lon":5.38111,"is_reserved":false,"is_disabled":false,"rental_uris":{"android":"levelo://app?vid=7ab78636-20bf-4f13-aca2-a4a98f6ebc82","ios":"levelo://app?vid=7ab78636-20bf-4f13-aca2-a4a98f6ebc82"},"vehicle_type_id":"4","last_reported":1738102119,"current_range_meters":28000,"station_id":"ce4bgip2rcd13ifvqbb0","pricing_plan_id":"cebpf4jnsgd1na2vs0mg"},{"bike_id":"1d9c2f3c-e7a5-4c5a-a836-c08a3178a384","system_id":"levelo_inurba_marseille","lat":43.2738,"lon":5.36241,"is_reserved":false,"is_disabled":false,"rental_uris":{"android":"levelo://app?vid=1d9c2f3c-e7a5-4c5a-a836-c08a3178a384","ios":"levelo://app?vid=1d9c2f3c-e7a5-4c5a-a836-c08a3178a384"},"vehicle_type_id":"4","last_reported":1738102119,"current_range_meters":38800,"station_id":"ce4bhbh2rcd13ifvqeo0","pricing_plan_id":"cebpf4jnsgd1na2vs0mg"},{"bike_id":"c8bc68d8-caaa-480c-8b25-ca1db6b559e7","system_id":"levelo_inurba_marseille","lat":43.27927,"lon":5.39579,"is_reserved":false,"is_disabled":false,"rental_uris":{"android":"levelo://app?vid=c8bc68d8-caaa-480c-8b25-ca1db6b559e7","ios":"levelo://app?vid=c8bc68d8-caaa-480c-8b25-ca1db6b559e7"},"vehicle_type_id":"4","last_reported":1738102119,"current_range_meters":12800,"station_id":"ce4bhf92rcd13ifvqf40","pricing_plan_id":"cebpf4jnsgd1na2vs0mg"},{"bike_id":"df226aeb-f508-4c7a-9e65-ac5758ec5c58","system_id":"levelo_inurba_marseille","lat":43.28606,"lon":5.35088,"is_reserved":false,"is_disabled":false,"rental_uris":{"android":"levelo://app?vid=df226aeb-f508-4c7a-9e65-ac5758ec5c58","ios":"levelo://app?vid=df226aeb-f508-4c7a-9e65-ac5758ec5c58"},"vehicle_type_id":"4","last_reported":1738102119,"current_range_meters":14400,"station_id":"ce4bhch2rcd13ifvqeug","pricing_plan_id":"cebpf4jnsgd1na2vs0mg"},{"bike_id":"1d3d6cfb-1973-4ef0-b19e-3b4fa3b6b11c","system_id":"levelo_inurba_marseille","lat":43.23956,"lon":5.36634,"is_reserved":false,"is_disabled":false,"rental_uris":{"android":"levelo://app?vid=1d3d6cfb-1973-4ef0-b19e-3b4fa3b6b11c","ios":"levelo://app?vid=1d3d6cfb-1973-4ef0-b19e-3b4fa3b6b11c"},"vehicle_type_id":"4","last_reported":1738102119,"current_range_meters":9200,"station_id":"ce4bhi12rcd13ifvqfp0","pricing_plan_id":"cebpf4jnsgd1na2vs0mg"},{"bike_id":"aa292867-ec34-4f9e-af74-19c1fdf17e9c","system_id":"levelo_inurba_marseille","lat":43.28704,"lon":5.37408,"is_reserved":false,"is_disabled":false,"rental_uris":{"android":"levelo://app?vid=aa292867-ec34-4f9e-af74-19c1fdf17e9c","ios":"levelo://app?vid=aa292867-ec34-4f9e-af74-19c1fdf17e9c"},"vehicle_type_id":"4","last_reported":1738102119,"current_range_meters":39200,"station_id":"ce4bh3p2rcd13ifvqdq0","pricing_plan_id":"cebpf4jnsgd1na2vs0mg"},{"bike_id":"d443175e-c838-4f0e-90a6-eae26a0b1d17","system_id":"levelo_inurba_marseille","lat":43.26933,"lon":5.40268,"is_reserved":false,"is_disabled":false,"rental_uris":{"android":"levelo://app?vid=d443175e-c838-4f0e-90a6-eae26a0b1d17","ios":"levelo://app?vid=d443175e-c838-4f0e-90a6-eae26a0b1d17"},"vehicle_type_id":"4","last_reported":1738102119,"current_range_meters":29600,"station_id":"cjm6bp8fraef2m0cb0m0","pricing_plan_id":"cebpf4jnsgd1na2vs0mg"},{"bike_id":"ab7769da-f316-47cb-89d6-5a54360f22ca","system_id":"levelo_inurba_marseille","lat":43.26936,"lon":5.40253,"is_reserved":false,"is_disabled":false,"rental_uris":{"android":"levelo://app?vid=ab7769da-f316-47cb-89d6-5a54360f22ca","ios":"levelo://app?vid=ab7769da-f316-47cb-89d6-5a54360f22ca"},"vehicle_type_id":"4","last_reported":1738102119,"current_range_meters":20000,"station_id":"cjm6bp8fraef2m0cb0m0","pricing_plan_id":"cebpf4jnsgd1na2vs0mg"},{"bike_id":"17ce0d9c-21b4-475e-bc10-60f978ae3a74","system_id":"levelo_inurba_marseille","lat":43.27492,"lon":5.42473,"is_reserved":false,"is_disabled":false,"rental_uris":{"android":"levelo://app?vid=17ce0d9c-21b4-475e-bc10-60f978ae3a74","ios":"levelo://app?vid=17ce0d9c-21b4-475e-bc10-60f978ae3a74"},"vehicle_type_id":"4","last_reported":1738102119,"current_range_meters":37600,"station_id":"ce4bhn92rcd13ifvqgrg","pricing_plan_id":"cebpf4jnsgd1na2vs0mg"},{"bike_id":"2e41790e-7510-44ab-86b2-1693c47c84ea","system_id":"levelo_inurba_marseille","lat":43.301,"lon":5.39074,"is_reserved":false,"is_disabled":false,"rental_uris":{"android":"levelo://app?vid=2e41790e-7510-44ab-86b2-1693c47c84ea","ios":"levelo://app?vid=2e41790e-7510-44ab-86b2-1693c47c84ea"},"vehicle_type_id":"4","last_reported":1738102119,"current_range_meters":35200,"station_id":"ce4bh192rcd13ifvqdb0","pricing_plan_id":"cebpf4jnsgd1na2vs0mg"},{"bike_id":"c8a3a0ed-dff2-4f3c-87dc-2e6b47b1ad28","system_id":"levelo_inurba_marseille","lat":43.337444,"lon":5.374475,"is_reserved":false,"is_disabled":true,"rental_uris":{"android":"levelo://app?vid=c8a3a0ed-dff2-4f3c-87dc-2e6b47b1ad28","ios":"levelo://app?vid=c8a3a0ed-dff2-4f3c-87dc-2e6b47b1ad28"},"vehicle_type_id":"4","last_reported":1738102119,"current_range_meters":3600,"station_id":"","pricing_plan_id":"cebpf4jnsgd1na2vs0mg"},{"bike_id":"7037e7a9-1342-416c-9141-9365a6fb85d9","system_id":"levelo_inurba_marseille","lat":43.30793,"lon":5.38143,"is_reserved":false,"is_disabled":false,"rental_uris":{"android":"levelo://app?vid=7037e7a9-1342-416c-9141-9365a6fb85d9","ios":"levelo://app?vid=7037e7a9-1342-416c-9141-9365a6fb85d9"},"vehicle_type_id":"4","last_reported":1738102119,"current_range_meters":38000,"station_id":"ce4bgt12rcd13ifvqce0","pricing_plan_id":"cebpf4jnsgd1na2vs0mg"},{"bike_id":"061a807c-1db8-46c7-beec-da6308b151ea","system_id":"levelo_inurba_marseille","lat":43.296,"lon":5.38101,"is_reserved":false,"is_disabled":true,"rental_uris":{"android":"levelo://app?vid=061a807c-1db8-46c7-beec-da6308b151ea","ios":"levelo://app?vid=061a807c-1db8-46c7-beec-da6308b151ea"},"vehicle_type_id":"4","last_reported":1738102119,"current_range_meters":30400,"station_id":"ce4bgl12rcd13ifvqbo0","pricing_plan_id":"cebpf4jnsgd1na2vs0mg"},{"bike_id":"a89d31b6-ccf1-438d-a4b6-afb1dafdc044","system_id":"levelo_inurba_marseille","lat":43.2904,"lon":5.39968,"is_reserved":false,"is_disabled":false,"rental_uris":{"android":"levelo://app?vid=a89d31b6-ccf1-438d-a4b6-afb1dafdc044","ios":"levelo://app?vid=a89d31b6-ccf1-438d-a4b6-afb1dafdc044"},"vehicle_type_id":"4","last_reported":1738102119,"current_range_meters":28400,"station_id":"ce4bh392rcd13ifvqdm0","pricing_plan_id":"cebpf4jnsgd1na2vs0mg"},{"bike_id":"eb1e4ea0-bbbe-45dc-8e9a-c9f54a2dbf77","system_id":"levelo_inurba_marseille","lat":43.28852,"lon":5.35892,"is_reserved":false,"is_disabled":false,"rental_uris":{"android":"levelo://app?vid=eb1e4ea0-bbbe-45dc-8e9a-c9f54a2dbf77","ios":"levelo://app?vid=eb1e4ea0-bbbe-45dc-8e9a-c9f54a2dbf77"},"vehicle_type_id":"4","last_reported":1738102119,"current_range_meters":31200,"station_id":"ce4bhb12rcd13ifvqem0","pricing_plan_id":"cebpf4jnsgd1na2vs0mg"},{"bike_id":"8553c0a6-deb9-456c-9106-193b2eb9bd09","system_id":"levelo_inurba_marseille","lat":43.3302,"lon":5.39057,"is_reserved":false,"is_disabled":false,"rental_uris":{"android":"levelo://app?vid=8553c0a6-deb9-456c-9106-193b2eb9bd09","ios":"levelo://app?vid=8553c0a6-deb9-456c-9106-193b2eb9bd09"},"vehicle_type_id":"4","last_reported":1738102119,"current_range_meters":21600,"station_id":"ce4bhr92rcd13ifvqhrg","pricing_plan_id":"cebpf4jnsgd1na2vs0mg"},{"bike_id":"4d09985f-ba74-40e9-9c49-e4c3c882bc80","system_id":"levelo_inurba_marseille","lat":43.2587,"lon":5.39894,"is_reserved":false,"is_disabled":false,"rental_uris":{"android":"levelo://app?vid=4d09985f-ba74-40e9-9c49-e4c3c882bc80","ios":"levelo://app?vid=4d09985f-ba74-40e9-9c49-e4c3c882bc80"},"vehicle_type_id":"4","last_reported":1738102119,"current_range_meters":33600,"station_id":"ce4bhl92rcd13ifvqghg","pricing_plan_id":"cebpf4jnsgd1na2vs0mg"},{"bike_id":"e055110e-8e50-4402-9b32-8745c1542d21","system_id":"levelo_inurba_marseille","lat":43.23964,"lon":5.3663,"is_reserved":false,"is_disabled":false,"rental_uris":{"android":"levelo://app?vid=e055110e-8e50-4402-9b32-8745c1542d21","ios":"levelo://app?vid=e055110e-8e50-4402-9b32-8745c1542d21"},"vehicle_type_id":"4","last_reported":1738102119,"current_range_meters":38800,"station_id":"ce4bhi12rcd13ifvqfp0","pricing_plan_id":"cebpf4jnsgd1na2vs0mg"},{"bike_id":"fe85483f-b447-45f9-a6fe-387c2f728415","system_id":"levelo_inurba_marseille","lat":43.29197,"lon":5.35798,"is_reserved":false,"is_disabled":false,"rental_uris":{"android":"levelo://app?vid=fe85483f-b447-45f9-a6fe-387c2f728415","ios":"levelo://app?vid=fe85483f-b447-45f9-a6fe-387c2f728415"},"vehicle_type_id":"4","last_reported":1738102119,"current_range_meters":38800,"station_id":"ce4bhb12rcd13ifvqel0","pricing_plan_id":"cebpf4jnsgd1na2vs0mg"},{"bike_id":"99fa3790-0d68-4307-a71b-38d225c09cc4","system_id":"levelo_inurba_marseille","lat":43.31117,"lon":5.37768,"is_reserved":false,"is_disabled":false,"rental_uris":{"android":"levelo://app?vid=99fa3790-0d68-4307-a71b-38d225c09cc4","ios":"levelo://app?vid=99fa3790-0d68-4307-a71b-38d225c09cc4"},"vehicle_type_id":"4","last_reported":1738102119,"current_range_meters":35600,"station_id":"ce4bgt92rcd13ifvqcg0","pricing_plan_id":"cebpf4jnsgd1na2vs0mg"},{"bike_id":"fff6f411-d2ed-4224-887f-e6e7eadfc1b7","system_id":"levelo_inurba_marseille","lat":43.313252,"lon":5.397036,"is_reserved":false,"is_disabled":false,"rental_uris":{"android":"levelo://app?vid=fff6f411-d2ed-4224-887f-e6e7eadfc1b7","ios":"levelo://app?vid=fff6f411-d2ed-4224-887f-e6e7eadfc1b7"},"vehicle_type_id":"4","last_reported":1738102119,"current_range_meters":36400,"station_id":"ce4bgvp2rcd13ifvqcu0","pricing_plan_id":"cebpf4jnsgd1na2vs0mg"},{"bike_id":"a99754b0-533c-4b68-ad89-42118685fbc7","system_id":"levelo_inurba_marseille","lat":43.27991,"lon":5.41668,"is_reserved":false,"is_disabled":true,"rental_uris":{"android":"levelo://app?vid=a99754b0-533c-4b68-ad89-42118685fbc7","ios":"levelo://app?vid=a99754b0-533c-4b68-ad89-42118685fbc7"},"vehicle_type_id":"4","last_reported":1738102119,"current_range_meters":1200,"station_id":"ce4bho12rcd13ifvqh1g","pricing_plan_id":"cebpf4jnsgd1na2vs0mg"},{"bike_id":"38809154-7d58-4375-bff8-ff011db40762","system_id":"levelo_inurba_marseille","lat":43.28102,"lon":5.37834,"is_reserved":false,"is_disabled":false,"rental_uris":{"android":"levelo://app?vid=38809154-7d58-4375-bff8-ff011db40762","ios":"levelo://app?vid=38809154-7d58-4375-bff8-ff011db40762"},"vehicle_type_id":"4","last_reported":1738102119,"current_range_meters":38800,"station_id":"ce4bha12rcd13ifvqee0","pricing_plan_id":"cebpf4jnsgd1na2vs0mg"},{"bike_id":"5b3233ab-dded-42d1-a805-3278eb23fcd8","system_id":"levelo_inurba_marseille","lat":43.30199,"lon":5.36609,"is_reserved":false,"is_disabled":true,"rental_uris":{"android":"levelo://app?vid=5b3233ab-dded-42d1-a805-3278eb23fcd8","ios":"levelo://app?vid=5b3233ab-dded-42d1-a805-3278eb23fcd8"},"vehicle_type_id":"4","last_reported":1738102119,"current_range_meters":38400,"station_id":"ce4bgrh2rcd13ifvqc8g","pricing_plan_id":"cebpf4jnsgd1na2vs0mg"},{"bike_id":"465cc6a9-be8a-4a45-b21a-29526c542e1c","system_id":"levelo_inurba_marseille","lat":43.29626,"lon":5.40585,"is_reserved":false,"is_disabled":false,"rental_uris":{"android":"levelo://app?vid=465cc6a9-be8a-4a45-b21a-29526c542e1c","ios":"levelo://app?vid=465cc6a9-be8a-4a45-b21a-29526c542e1c"},"vehicle_type_id":"4","last_reported":1738102119,"current_range_meters":15200,"station_id":"ce4bh0h2rcd13ifvqd60","pricing_plan_id":"cebpf4jnsgd1na2vs0mg"},{"bike_id":"165cefd3-aba0-463c-ba0d-d46d8e704fee","system_id":"levelo_inurba_marseille","lat":43.27986,"lon":5.40015,"is_reserved":false,"is_disabled":false,"rental_uris":{"android":"levelo://app?vid=165cefd3-aba0-463c-ba0d-d46d8e704fee","ios":"levelo://app?vid=165cefd3-aba0-463c-ba0d-d46d8e704fee"},"vehicle_type_id":"4","last_reported":1738102119,"current_range_meters":11200,"station_id":"ce4bho92rcd13ifvqh4g","pricing_plan_id":"cebpf4jnsgd1na2vs0mg"},{"bike_id":"e730b719-c3ce-4703-8a3d-4e97ddcef0b4","system_id":"levelo_inurba_marseille","lat":43.28101,"lon":5.37838,"is_reserved":false,"is_disabled":false,"rental_uris":{"android":"levelo://app?vid=e730b719-c3ce-4703-8a3d-4e97ddcef0b4","ios":"levelo://app?vid=e730b719-c3ce-4703-8a3d-4e97ddcef0b4"},"vehicle_type_id":"4","last_reported":1738102119,"current_range_meters":16800,"station_id":"ce4bha12rcd13ifvqee0","pricing_plan_id":"cebpf4jnsgd1na2vs0mg"},{"bike_id":"9838cc78-2b53-49d3-ae13-82df62c4fd64","system_id":"levelo_inurba_marseille","lat":43.28412,"lon":5.40934,"is_reserved":false,"is_disabled":true,"rental_uris":{"android":"levelo://app?vid=9838cc78-2b53-49d3-ae13-82df62c4fd64","ios":"levelo://app?vid=9838cc78-2b53-49d3-ae13-82df62c4fd64"},"vehicle_type_id":"4","last_reported":1738102119,"current_range_meters":0,"station_id":"","pricing_plan_id":"cebpf4jnsgd1na2vs0mg"},{"bike_id":"11f70921-b04a-4cdd-83e2-24b869bfe246","system_id":"levelo_inurba_marseille","lat":43.28975,"lon":5.37847,"is_reserved":false,"is_disabled":true,"rental_uris":{"android":"levelo://app?vid=11f70921-b04a-4cdd-83e2-24b869bfe246","ios":"levelo://app?vid=11f70921-b04a-4cdd-83e2-24b869bfe246"},"vehicle_type_id":"4","last_reported":1738102119,"current_range_meters":38800,"station_id":"ce4bh9p2rcd13ifvqed0","pricing_plan_id":"cebpf4jnsgd1na2vs0mg"},{"bike_id":"61ac3e69-6b09-41d4-a1b8-84745cc43cb7","system_id":"levelo_inurba_marseille","lat":43.23188,"lon":5.39967,"is_reserved":false,"is_disabled":false,"rental_uris":{"android":"levelo://app?vid=61ac3e69-6b09-41d4-a1b8-84745cc43cb7","ios":"levelo://app?vid=61ac3e69-6b09-41d4-a1b8-84745cc43cb7"},"vehicle_type_id":"4","last_reported":1738102119,"current_range_meters":36000,"station_id":"ce4bhn12rcd13ifvqgqg","pricing_plan_id":"cebpf4jnsgd1na2vs0mg"},{"bike_id":"44d70056-f722-4d8f-80f9-afd89c389591","system_id":"levelo_inurba_marseille","lat":43.33021,"lon":5.39039,"is_reserved":false,"is_disabled":false,"rental_uris":{"android":"levelo://app?vid=44d70056-f722-4d8f-80f9-afd89c389591","ios":"levelo://app?vid=44d70056-f722-4d8f-80f9-afd89c389591"},"vehicle_type_id":"4","last_reported":1738102119,"current_range_meters":19600,"station_id":"ce4bhr92rcd13ifvqhrg","pricing_plan_id":"cebpf4jnsgd1na2vs0mg"},{"bike_id":"cb4b9878-96ef-4892-8d93-336dc7a1cc89","system_id":"levelo_inurba_marseille","lat":43.340316,"lon":5.35375,"is_reserved":false,"is_disabled":false,"rental_uris":{"android":"levelo://app?vid=cb4b9878-96ef-4892-8d93-336dc7a1cc89","ios":"levelo://app?vid=cb4b9878-96ef-4892-8d93-336dc7a1cc89"},"vehicle_type_id":"4","last_reported":1738102119,"current_range_meters":34800,"station_id":"","pricing_plan_id":"cebpf4jnsgd1na2vs0mg"},{"bike_id":"58101d95-a4cf-4bac-9526-961f9b76b2f5","system_id":"levelo_inurba_marseille","lat":43.30822,"lon":5.43542,"is_reserved":false,"is_disabled":false,"rental_uris":{"android":"levelo://app?vid=58101d95-a4cf-4bac-9526-961f9b76b2f5","ios":"levelo://app?vid=58101d95-a4cf-4bac-9526-961f9b76b2f5"},"vehicle_type_id":"4","last_reported":1738102119,"current_range_meters":32000,"station_id":"ce4bhph2rcd13ifvqheg","pricing_plan_id":"cebpf4jnsgd1na2vs0mg"},{"bike_id":"cebc1cc3-2475-48cb-aa41-05d47858d44e","system_id":"levelo_inurba_marseille","lat":43.29903,"lon":5.43656,"is_reserved":false,"is_disabled":false,"rental_uris":{"android":"levelo://app?vid=cebc1cc3-2475-48cb-aa41-05d47858d44e","ios":"levelo://app?vid=cebc1cc3-2475-48cb-aa41-05d47858d44e"},"vehicle_type_id":"4","last_reported":1738102119,"current_range_meters":28800,"station_id":"ce4bhpp2rcd13ifvqhfg","pricing_plan_id":"cebpf4jnsgd1na2vs0mg"},{"bike_id":"455bb1ca-1858-4c87-b959-663700e0eacf","system_id":"levelo_inurba_marseille","lat":43.279917,"lon":5.386921,"is_reserved":false,"is_disabled":false,"rental_uris":{"android":"levelo://app?vid=455bb1ca-1858-4c87-b959-663700e0eacf","ios":"levelo://app?vid=455bb1ca-1858-4c87-b959-663700e0eacf"},"vehicle_type_id":"4","last_reported":1738102119,"current_range_meters":26000,"station_id":"ce4bhg12rcd13ifvqf80","pricing_plan_id":"cebpf4jnsgd1na2vs0mg"},{"bike_id":"f03ea1a6-1f7a-4f44-9a9a-41c99d27e8b6","system_id":"levelo_inurba_marseille","lat":43.31394,"lon":5.38503,"is_reserved":false,"is_disabled":false,"rental_uris":{"android":"levelo://app?vid=f03ea1a6-1f7a-4f44-9a9a-41c99d27e8b6","ios":"levelo://app?vid=f03ea1a6-1f7a-4f44-9a9a-41c99d27e8b6"},"vehicle_type_id":"4","last_reported":1738102119,"current_range_meters":25200,"station_id":"ce4bgt92rcd13ifvqcf0","pricing_plan_id":"cebpf4jnsgd1na2vs0mg"},{"bike_id":"8d198b1c-d183-4e75-867d-bee140abe05c","system_id":"levelo_inurba_marseille","lat":43.30849,"lon":5.43526,"is_reserved":false,"is_disabled":false,"rental_uris":{"android":"levelo://app?vid=8d198b1c-d183-4e75-867d-bee140abe05c","ios":"levelo://app?vid=8d198b1c-d183-4e75-867d-bee140abe05c"},"vehicle_type_id":"4","last_reported":1738102119,"current_range_meters":16000,"station_id":"ce4bhph2rcd13ifvqheg","pricing_plan_id":"cebpf4jnsgd1na2vs0mg"},{"bike_id":"1bd43cf7-915c-4655-8ec8-429536dd8909","system_id":"levelo_inurba_marseille","lat":43.31717,"lon":5.42411,"is_reserved":false,"is_disabled":false,"rental_uris":{"android":"levelo://app?vid=1bd43cf7-915c-4655-8ec8-429536dd8909","ios":"levelo://app?vid=1bd43cf7-915c-4655-8ec8-429536dd8909"},"vehicle_type_id":"4","last_reported":1738102119,"current_range_meters":37600,"station_id":"ce4bhp92rcd13ifvqhbg","pricing_plan_id":"cebpf4jnsgd1na2vs0mg"},{"bike_id":"2fc6aff4-93b6-4668-ad28-8c3f271862ad","system_id":"levelo_inurba_marseille","lat":43.2655,"lon":5.37303,"is_reserved":false,"is_disabled":false,"rental_uris":{"android":"levelo://app?vid=2fc6aff4-93b6-4668-ad28-8c3f271862ad","ios":"levelo://app?vid=2fc6aff4-93b6-4668-ad28-8c3f271862ad"},"vehicle_type_id":"4","last_reported":1738102119,"current_range_meters":14000,"station_id":"ce4bhg12rcd13ifvqf70","pricing_plan_id":"cebpf4jnsgd1na2vs0mg"},{"bike_id":"10d867d0-346b-4268-b4c3-60fd5321132c","system_id":"levelo_inurba_marseille","lat":43.29439,"lon":5.38589,"is_reserved":false,"is_disabled":false,"rental_uris":{"android":"levelo://app?vid=10d867d0-346b-4268-b4c3-60fd5321132c","ios":"levelo://app?vid=10d867d0-346b-4268-b4c3-60fd5321132c"},"vehicle_type_id":"4","last_reported":1738102119,"current_range_meters":21600,"station_id":"ce4bh2h2rcd13ifvqdh0","pricing_plan_id":"cebpf4jnsgd1na2vs0mg"},{"bike_id":"269eea7b-f0ec-4ee8-9140-13cdab06674c","system_id":"levelo_inurba_marseille","lat":43.31062,"lon":5.38369,"is_reserved":false,"is_disabled":false,"rental_uris":{"android":"levelo://app?vid=269eea7b-f0ec-4ee8-9140-13cdab06674c","ios":"levelo://app?vid=269eea7b-f0ec-4ee8-9140-13cdab06674c"},"vehicle_type_id":"4","last_reported":1738102119,"current_range_meters":34000,"station_id":"ce4bgv92rcd13ifvqcr0","pricing_plan_id":"cebpf4jnsgd1na2vs0mg"},{"bike_id":"2e0a8b86-b457-48a0-8577-213b01080398","system_id":"levelo_inurba_marseille","lat":43.23204,"lon":5.35534,"is_reserved":false,"is_disabled":false,"rental_uris":{"android":"levelo://app?vid=2e0a8b86-b457-48a0-8577-213b01080398","ios":"levelo://app?vid=2e0a8b86-b457-48a0-8577-213b01080398"},"vehicle_type_id":"4","last_reported":1738102119,"current_range_meters":39200,"station_id":"ce4bhu92rcd13ifvqi70","pricing_plan_id":"cebpf4jnsgd1na2vs0mg"},{"bike_id":"a277d5ba-79dc-4980-ae8c-8d090716a0b3","system_id":"levelo_inurba_marseille","lat":43.279685,"lon":5.387293,"is_reserved":false,"is_disabled":true,"rental_uris":{"android":"levelo://app?vid=a277d5ba-79dc-4980-ae8c-8d090716a0b3","ios":"levelo://app?vid=a277d5ba-79dc-4980-ae8c-8d090716a0b3"},"vehicle_type_id":"4","last_reported":1738102119,"current_range_meters":0,"station_id":"ce4bhg12rcd13ifvqf80","pricing_plan_id":"cebpf4jnsgd1na2vs0mg"},{"bike_id":"d979d8d2-ec65-47af-9229-e4270aab279a","system_id":"levelo_inurba_marseille","lat":43.23061,"lon":5.35487,"is_reserved":false,"is_disabled":false,"rental_uris":{"android":"levelo://app?vid=d979d8d2-ec65-47af-9229-e4270aab279a","ios":"levelo://app?vid=d979d8d2-ec65-47af-9229-e4270aab279a"},"vehicle_type_id":"4","last_reported":1738102119,"current_range_meters":22800,"station_id":"cpo3342slgdg3j2ifvpg","pricing_plan_id":"cebpf4jnsgd1na2vs0mg"},{"bike_id":"beec82ff-6bac-4064-befa-4bdf4421761b","system_id":"levelo_inurba_marseille","lat":43.31711,"lon":5.42448,"is_reserved":false,"is_disabled":false,"rental_uris":{"android":"levelo://app?vid=beec82ff-6bac-4064-befa-4bdf4421761b","ios":"levelo://app?vid=beec82ff-6bac-4064-befa-4bdf4421761b"},"vehicle_type_id":"4","last_reported":1738102119,"current_range_meters":38000,"station_id":"ce4bhp92rcd13ifvqhbg","pricing_plan_id":"cebpf4jnsgd1na2vs0mg"},{"bike_id":"22d31f87-465c-41a2-9e72-62eb49b5f60f","system_id":"levelo_inurba_marseille","lat":43.30894,"lon":5.36853,"is_reserved":false,"is_disabled":true,"rental_uris":{"android":"levelo://app?vid=22d31f87-465c-41a2-9e72-62eb49b5f60f","ios":"levelo://app?vid=22d31f87-465c-41a2-9e72-62eb49b5f60f"},"vehicle_type_id":"4","last_reported":1738102119,"current_range_meters":39200,"station_id":"ce4bgn92rcd13ifvqbvg","pricing_plan_id":"cebpf4jnsgd1na2vs0mg"},{"bike_id":"784bccce-d998-49c5-aad0-61143a45a92b","system_id":"levelo_inurba_marseille","lat":43.28856,"lon":5.39307,"is_reserved":false,"is_disabled":false,"rental_uris":{"android":"levelo://app?vid=784bccce-d998-49c5-aad0-61143a45a92b","ios":"levelo://app?vid=784bccce-d998-49c5-aad0-61143a45a92b"},"vehicle_type_id":"4","last_reported":1738102119,"current_range_meters":22800,"station_id":"ce4bh2p2rcd13ifvqdi0","pricing_plan_id":"cebpf4jnsgd1na2vs0mg"},{"bike_id":"882ba410-1499-4764-8199-d4f86befc7a6","system_id":"levelo_inurba_marseille","lat":43.27918,"lon":5.39564,"is_reserved":false,"is_disabled":false,"rental_uris":{"android":"levelo://app?vid=882ba410-1499-4764-8199-d4f86befc7a6","ios":"levelo://app?vid=882ba410-1499-4764-8199-d4f86befc7a6"},"vehicle_type_id":"4","last_reported":1738102119,"current_range_meters":34800,"station_id":"ce4bhf92rcd13ifvqf40","pricing_plan_id":"cebpf4jnsgd1na2vs0mg"},{"bike_id":"c92f3ed1-1832-45b1-95ae-e066a3c304bb","system_id":"levelo_inurba_marseille","lat":43.33,"lon":5.39019,"is_reserved":false,"is_disabled":false,"rental_uris":{"android":"levelo://app?vid=c92f3ed1-1832-45b1-95ae-e066a3c304bb","ios":"levelo://app?vid=c92f3ed1-1832-45b1-95ae-e066a3c304bb"},"vehicle_type_id":"4","last_reported":1738102119,"current_range_meters":37600,"station_id":"ce4bhr92rcd13ifvqhrg","pricing_plan_id":"cebpf4jnsgd1na2vs0mg"},{"bike_id":"87e38ff3-c8f7-4c54-8bf8-14d771da3e66","system_id":"levelo_inurba_marseille","lat":43.31716,"lon":5.42409,"is_reserved":false,"is_disabled":false,"rental_uris":{"android":"levelo://app?vid=87e38ff3-c8f7-4c54-8bf8-14d771da3e66","ios":"levelo://app?vid=87e38ff3-c8f7-4c54-8bf8-14d771da3e66"},"vehicle_type_id":"4","last_reported":1738102119,"current_range_meters":14400,"station_id":"ce4bhp92rcd13ifvqhbg","pricing_plan_id":"cebpf4jnsgd1na2vs0mg"},{"bike_id":"ae07214e-9684-4bc4-a2a4-c169bbd589c3","system_id":"levelo_inurba_marseille","lat":43.30938,"lon":5.4014,"is_reserved":false,"is_disabled":false,"rental_uris":{"android":"levelo://app?vid=ae07214e-9684-4bc4-a2a4-c169bbd589c3","ios":"levelo://app?vid=ae07214e-9684-4bc4-a2a4-c169bbd589c3"},"vehicle_type_id":"4","last_reported":1738102119,"current_range_meters":22000,"station_id":"ce4bgvp2rcd13ifvqct0","pricing_plan_id":"cebpf4jnsgd1na2vs0mg"},{"bike_id":"75214a19-3086-4aab-8ba6-a177978da634","system_id":"levelo_inurba_marseille","lat":43.299,"lon":5.43651,"is_reserved":false,"is_disabled":false,"rental_uris":{"android":"levelo://app?vid=75214a19-3086-4aab-8ba6-a177978da634","ios":"levelo://app?vid=75214a19-3086-4aab-8ba6-a177978da634"},"vehicle_type_id":"4","last_reported":1738102119,"current_range_meters":35600,"station_id":"ce4bhpp2rcd13ifvqhfg","pricing_plan_id":"cebpf4jnsgd1na2vs0mg"},{"bike_id":"d8b1c3f9-ff6e-4179-8423-4ba0d2a2af0e","system_id":"levelo_inurba_marseille","lat":43.33731,"lon":5.39184,"is_reserved":false,"is_disabled":false,"rental_uris":{"android":"levelo://app?vid=d8b1c3f9-ff6e-4179-8423-4ba0d2a2af0e","ios":"levelo://app?vid=d8b1c3f9-ff6e-4179-8423-4ba0d2a2af0e"},"vehicle_type_id":"4","last_reported":1738102119,"current_range_meters":38800,"station_id":"ce4bhr92rcd13ifvqhsg","pricing_plan_id":"cebpf4jnsgd1na2vs0mg"},{"bike_id":"ec4e1b41-004b-4ba0-8815-2155424efc7c","system_id":"levelo_inurba_marseille","lat":43.26049,"lon":5.39413,"is_reserved":false,"is_disabled":false,"rental_uris":{"android":"levelo://app?vid=ec4e1b41-004b-4ba0-8815-2155424efc7c","ios":"levelo://app?vid=ec4e1b41-004b-4ba0-8815-2155424efc7c"},"vehicle_type_id":"4","last_reported":1738102119,"current_range_meters":14400,"station_id":"ce4bhh92rcd13ifvqfj0","pricing_plan_id":"cebpf4jnsgd1na2vs0mg"},{"bike_id":"b5409e27-250f-4525-8058-ef21c8db7076","system_id":"levelo_inurba_marseille","lat":43.27372,"lon":5.36237,"is_reserved":false,"is_disabled":false,"rental_uris":{"android":"levelo://app?vid=b5409e27-250f-4525-8058-ef21c8db7076","ios":"levelo://app?vid=b5409e27-250f-4525-8058-ef21c8db7076"},"vehicle_type_id":"4","last_reported":1738102119,"current_range_meters":24000,"station_id":"ce4bhbh2rcd13ifvqeo0","pricing_plan_id":"cebpf4jnsgd1na2vs0mg"},{"bike_id":"ddeeb021-3aa5-4692-ac65-d696b9db8d28","system_id":"levelo_inurba_marseille","lat":43.33033,"lon":5.39021,"is_reserved":false,"is_disabled":false,"rental_uris":{"android":"levelo://app?vid=ddeeb021-3aa5-4692-ac65-d696b9db8d28","ios":"levelo://app?vid=ddeeb021-3aa5-4692-ac65-d696b9db8d28"},"vehicle_type_id":"4","last_reported":1738102119,"current_range_meters":38000,"station_id":"ce4bhr92rcd13ifvqhrg","pricing_plan_id":"cebpf4jnsgd1na2vs0mg"},{"bike_id":"cf7e0791-9a1c-44a4-a4ad-89ae4eea746c","system_id":"levelo_inurba_marseille","lat":43.3133,"lon":5.39684,"is_reserved":false,"is_disabled":true,"rental_uris":{"android":"levelo://app?vid=cf7e0791-9a1c-44a4-a4ad-89ae4eea746c","ios":"levelo://app?vid=cf7e0791-9a1c-44a4-a4ad-89ae4eea746c"},"vehicle_type_id":"4","last_reported":1738102119,"current_range_meters":2000,"station_id":"ce4bgvp2rcd13ifvqcu0","pricing_plan_id":"cebpf4jnsgd1na2vs0mg"},{"bike_id":"df246887-6ea4-401b-b1c5-149bfd21ae45","system_id":"levelo_inurba_marseille","lat":43.3107,"lon":5.40079,"is_reserved":false,"is_disabled":false,"rental_uris":{"android":"levelo://app?vid=df246887-6ea4-401b-b1c5-149bfd21ae45","ios":"levelo://app?vid=df246887-6ea4-401b-b1c5-149bfd21ae45"},"vehicle_type_id":"4","last_reported":1738102119,"current_range_meters":18000,"station_id":"","pricing_plan_id":"cebpf4jnsgd1na2vs0mg"},{"bike_id":"908ef657-2774-46ca-a58e-7bada025e828","system_id":"levelo_inurba_marseille","lat":43.29026,"lon":5.37572,"is_reserved":false,"is_disabled":false,"rental_uris":{"android":"levelo://app?vid=908ef657-2774-46ca-a58e-7bada025e828","ios":"levelo://app?vid=908ef657-2774-46ca-a58e-7bada025e828"},"vehicle_type_id":"4","last_reported":1738102119,"current_range_meters":38000,"station_id":"ce4bh692rcd13ifvqe90","pricing_plan_id":"cebpf4jnsgd1na2vs0mg"},{"bike_id":"ee1a29b5-bf27-4ed4-80ab-8de86681f638","system_id":"levelo_inurba_marseille","lat":43.28626,"lon":5.35113,"is_reserved":false,"is_disabled":false,"rental_uris":{"android":"levelo://app?vid=ee1a29b5-bf27-4ed4-80ab-8de86681f638","ios":"levelo://app?vid=ee1a29b5-bf27-4ed4-80ab-8de86681f638"},"vehicle_type_id":"4","last_reported":1738102119,"current_range_meters":38000,"station_id":"ce4bhch2rcd13ifvqeug","pricing_plan_id":"cebpf4jnsgd1na2vs0mg"},{"bike_id":"3c9c9088-9c27-4609-bc62-8218c0dc2be8","system_id":"levelo_inurba_marseille","lat":43.23199,"lon":5.35564,"is_reserved":false,"is_disabled":false,"rental_uris":{"android":"levelo://app?vid=3c9c9088-9c27-4609-bc62-8218c0dc2be8","ios":"levelo://app?vid=3c9c9088-9c27-4609-bc62-8218c0dc2be8"},"vehicle_type_id":"4","last_reported":1738102119,"current_range_meters":31200,"station_id":"ce4bhu92rcd13ifvqi70","pricing_plan_id":"cebpf4jnsgd1na2vs0mg"},{"bike_id":"8841e318-08e5-4f99-b8cb-ed847086d135","system_id":"levelo_inurba_marseille","lat":43.29424,"lon":5.39762,"is_reserved":false,"is_disabled":false,"rental_uris":{"android":"levelo://app?vid=8841e318-08e5-4f99-b8cb-ed847086d135","ios":"levelo://app?vid=8841e318-08e5-4f99-b8cb-ed847086d135"},"vehicle_type_id":"4","last_reported":1738102119,"current_range_meters":34800,"station_id":"ce4bh3h2rcd13ifvqdo0","pricing_plan_id":"cebpf4jnsgd1na2vs0mg"},{"bike_id":"1672a0cd-2a68-4581-bf36-fe2b0d644157","system_id":"levelo_inurba_marseille","lat":43.28436,"lon":5.39185,"is_reserved":false,"is_disabled":false,"rental_uris":{"android":"levelo://app?vid=1672a0cd-2a68-4581-bf36-fe2b0d644157","ios":"levelo://app?vid=1672a0cd-2a68-4581-bf36-fe2b0d644157"},"vehicle_type_id":"4","last_reported":1738102119,"current_range_meters":36400,"station_id":"ce4bhoh2rcd13ifvqh5g","pricing_plan_id":"cebpf4jnsgd1na2vs0mg"},{"bike_id":"4421a099-0299-4f7b-9a00-78de9b2dde53","system_id":"levelo_inurba_marseille","lat":43.28706,"lon":5.37371,"is_reserved":false,"is_disabled":false,"rental_uris":{"android":"levelo://app?vid=4421a099-0299-4f7b-9a00-78de9b2dde53","ios":"levelo://app?vid=4421a099-0299-4f7b-9a00-78de9b2dde53"},"vehicle_type_id":"4","last_reported":1738102119,"current_range_meters":35600,"station_id":"ce4bh3p2rcd13ifvqdq0","pricing_plan_id":"cebpf4jnsgd1na2vs0mg"},{"bike_id":"2070f1a1-c99f-41bd-9455-3e94630d9548","system_id":"levelo_inurba_marseille","lat":43.2872,"lon":5.36121,"is_reserved":false,"is_disabled":false,"rental_uris":{"android":"levelo://app?vid=2070f1a1-c99f-41bd-9455-3e94630d9548","ios":"levelo://app?vid=2070f1a1-c99f-41bd-9455-3e94630d9548"},"vehicle_type_id":"4","last_reported":1738102119,"current_range_meters":21600,"station_id":"cki0cbj6b192h4jlfktg","pricing_plan_id":"cebpf4jnsgd1na2vs0mg"},{"bike_id":"15af56a0-50cc-4287-938a-57061c15f0c6","system_id":"levelo_inurba_marseille","lat":43.33027,"lon":5.3905,"is_reserved":false,"is_disabled":false,"rental_uris":{"android":"levelo://app?vid=15af56a0-50cc-4287-938a-57061c15f0c6","ios":"levelo://app?vid=15af56a0-50cc-4287-938a-57061c15f0c6"},"vehicle_type_id":"4","last_reported":1738102119,"current_range_meters":34000,"station_id":"ce4bhr92rcd13ifvqhrg","pricing_plan_id":"cebpf4jnsgd1na2vs0mg"},{"bike_id":"ca9c9b90-ab08-4721-a324-2cac637ff6d9","system_id":"levelo_inurba_marseille","lat":43.30785,"lon":5.38152,"is_reserved":false,"is_disabled":false,"rental_uris":{"android":"levelo://app?vid=ca9c9b90-ab08-4721-a324-2cac637ff6d9","ios":"levelo://app?vid=ca9c9b90-ab08-4721-a324-2cac637ff6d9"},"vehicle_type_id":"4","last_reported":1738102119,"current_range_meters":38800,"station_id":"ce4bgt12rcd13ifvqce0","pricing_plan_id":"cebpf4jnsgd1na2vs0mg"},{"bike_id":"1a6a4d5f-fb20-4894-8f51-bb6e303912bf","system_id":"levelo_inurba_marseille","lat":43.292623,"lon":5.384413,"is_reserved":false,"is_disabled":false,"rental_uris":{"android":"levelo://app?vid=1a6a4d5f-fb20-4894-8f51-bb6e303912bf","ios":"levelo://app?vid=1a6a4d5f-fb20-4894-8f51-bb6e303912bf"},"vehicle_type_id":"4","last_reported":1738102119,"current_range_meters":38800,"station_id":"ce4bh0h2rcd13ifvqd60","pricing_plan_id":"cebpf4jnsgd1na2vs0mg"},{"bike_id":"7156cab0-668f-4557-a92c-f351fb294cd4","system_id":"levelo_inurba_marseille","lat":43.24381,"lon":5.37064,"is_reserved":false,"is_disabled":false,"rental_uris":{"android":"levelo://app?vid=7156cab0-668f-4557-a92c-f351fb294cd4","ios":"levelo://app?vid=7156cab0-668f-4557-a92c-f351fb294cd4"},"vehicle_type_id":"4","last_reported":1738102119,"current_range_meters":39200,"station_id":"ce4bhhh2rcd13ifvqfk0","pricing_plan_id":"cebpf4jnsgd1na2vs0mg"},{"bike_id":"53d46465-1c69-4274-9bb5-d6a4feb5e603","system_id":"levelo_inurba_marseille","lat":43.31363,"lon":5.36716,"is_reserved":false,"is_disabled":false,"rental_uris":{"android":"levelo://app?vid=53d46465-1c69-4274-9bb5-d6a4feb5e603","ios":"levelo://app?vid=53d46465-1c69-4274-9bb5-d6a4feb5e603"},"vehicle_type_id":"4","last_reported":1738102119,"current_range_meters":38800,"station_id":"ce4bgr92rcd13ifvqc6g","pricing_plan_id":"cebpf4jnsgd1na2vs0mg"},{"bike_id":"8bd10011-2cfa-4a5d-93cb-01e04119491a","system_id":"levelo_inurba_marseille","lat":43.32355,"lon":5.38905,"is_reserved":false,"is_disabled":false,"rental_uris":{"android":"levelo://app?vid=8bd10011-2cfa-4a5d-93cb-01e04119491a","ios":"levelo://app?vid=8bd10011-2cfa-4a5d-93cb-01e04119491a"},"vehicle_type_id":"4","last_reported":1738102119,"current_range_meters":16000,"station_id":"ce4bhqp2rcd13ifvqhog","pricing_plan_id":"cebpf4jnsgd1na2vs0mg"},{"bike_id":"062acaa4-8533-423f-9d09-91cd05437850","system_id":"levelo_inurba_marseille","lat":43.33003,"lon":5.39037,"is_reserved":false,"is_disabled":false,"rental_uris":{"android":"levelo://app?vid=062acaa4-8533-423f-9d09-91cd05437850","ios":"levelo://app?vid=062acaa4-8533-423f-9d09-91cd05437850"},"vehicle_type_id":"4","last_reported":1738102119,"current_range_meters":8800,"station_id":"ce4bhr92rcd13ifvqhrg","pricing_plan_id":"cebpf4jnsgd1na2vs0mg"},{"bike_id":"0928d7c6-291b-465e-a26d-59a12315b1a9","system_id":"levelo_inurba_marseille","lat":43.31325,"lon":5.39709,"is_reserved":false,"is_disabled":false,"rental_uris":{"android":"levelo://app?vid=0928d7c6-291b-465e-a26d-59a12315b1a9","ios":"levelo://app?vid=0928d7c6-291b-465e-a26d-59a12315b1a9"},"vehicle_type_id":"4","last_reported":1738102119,"current_range_meters":28800,"station_id":"ce4bgvp2rcd13ifvqcu0","pricing_plan_id":"cebpf4jnsgd1na2vs0mg"},{"bike_id":"731da263-a70c-4e1f-9833-f280ab9ff851","system_id":"levelo_inurba_marseille","lat":43.28691,"lon":5.37363,"is_reserved":false,"is_disabled":false,"rental_uris":{"android":"levelo://app?vid=731da263-a70c-4e1f-9833-f280ab9ff851","ios":"levelo://app?vid=731da263-a70c-4e1f-9833-f280ab9ff851"},"vehicle_type_id":"4","last_reported":1738102119,"current_range_meters":38800,"station_id":"ce4bh3p2rcd13ifvqdq0","pricing_plan_id":"cebpf4jnsgd1na2vs0mg"},{"bike_id":"ac928eed-dbf9-4385-9a81-80cba59e220e","system_id":"levelo_inurba_marseille","lat":43.29887,"lon":5.38912,"is_reserved":false,"is_disabled":false,"rental_uris":{"android":"levelo://app?vid=ac928eed-dbf9-4385-9a81-80cba59e220e","ios":"levelo://app?vid=ac928eed-dbf9-4385-9a81-80cba59e220e"},"vehicle_type_id":"4","last_reported":1738102119,"current_range_meters":30000,"station_id":"ce4bh392rcd13ifvqdl0","pricing_plan_id":"cebpf4jnsgd1na2vs0mg"},{"bike_id":"c004ae54-2ede-4268-b5e6-549048b57c37","system_id":"levelo_inurba_marseille","lat":43.28469,"lon":5.3592,"is_reserved":false,"is_disabled":false,"rental_uris":{"android":"levelo://app?vid=c004ae54-2ede-4268-b5e6-549048b57c37","ios":"levelo://app?vid=c004ae54-2ede-4268-b5e6-549048b57c37"},"vehicle_type_id":"4","last_reported":1738102119,"current_range_meters":38400,"station_id":"ce4bhah2rcd13ifvqei0","pricing_plan_id":"cebpf4jnsgd1na2vs0mg"},{"bike_id":"4055047e-0c4f-4698-b155-f0ccf6649608","system_id":"levelo_inurba_marseille","lat":43.29503,"lon":5.3939,"is_reserved":false,"is_disabled":true,"rental_uris":{"android":"levelo://app?vid=4055047e-0c4f-4698-b155-f0ccf6649608","ios":"levelo://app?vid=4055047e-0c4f-4698-b155-f0ccf6649608"},"vehicle_type_id":"4","last_reported":1738102119,"current_range_meters":29600,"station_id":"ce4bh292rcd13ifvqdf0","pricing_plan_id":"cebpf4jnsgd1na2vs0mg"},{"bike_id":"2256710f-428a-4b6c-afaf-f485da875c48","system_id":"levelo_inurba_marseille","lat":43.286189,"lon":5.351004,"is_reserved":false,"is_disabled":false,"rental_uris":{"android":"levelo://app?vid=2256710f-428a-4b6c-afaf-f485da875c48","ios":"levelo://app?vid=2256710f-428a-4b6c-afaf-f485da875c48"},"vehicle_type_id":"4","last_reported":1738102119,"current_range_meters":13600,"station_id":"ce4bhch2rcd13ifvqeug","pricing_plan_id":"cebpf4jnsgd1na2vs0mg"},{"bike_id":"ab2c796a-c23b-4a3a-9534-777b873d6a05","system_id":"levelo_inurba_marseille","lat":43.24173,"lon":5.36401,"is_reserved":false,"is_disabled":false,"rental_uris":{"android":"levelo://app?vid=ab2c796a-c23b-4a3a-9534-777b873d6a05","ios":"levelo://app?vid=ab2c796a-c23b-4a3a-9534-777b873d6a05"},"vehicle_type_id":"4","last_reported":1738102119,"current_range_meters":18800,"station_id":"cpo36qri1sfpv3e86is0","pricing_plan_id":"cebpf4jnsgd1na2vs0mg"},{"bike_id":"cf14396d-2607-4b74-b464-9bf8d326d05d","system_id":"levelo_inurba_marseille","lat":43.28926,"lon":5.36388,"is_reserved":false,"is_disabled":false,"rental_uris":{"android":"levelo://app?vid=cf14396d-2607-4b74-b464-9bf8d326d05d","ios":"levelo://app?vid=cf14396d-2607-4b74-b464-9bf8d326d05d"},"vehicle_type_id":"4","last_reported":1738102119,"current_range_meters":11200,"station_id":"ce4bhc92rcd13ifvqetg","pricing_plan_id":"cebpf4jnsgd1na2vs0mg"},{"bike_id":"d649c18e-0d3b-494a-b8ac-102dfa9b6b68","system_id":"levelo_inurba_marseille","lat":43.2655,"lon":5.37271,"is_reserved":false,"is_disabled":false,"rental_uris":{"android":"levelo://app?vid=d649c18e-0d3b-494a-b8ac-102dfa9b6b68","ios":"levelo://app?vid=d649c18e-0d3b-494a-b8ac-102dfa9b6b68"},"vehicle_type_id":"4","last_reported":1738102119,"current_range_meters":2800,"station_id":"ce4bhg12rcd13ifvqf70","pricing_plan_id":"cebpf4jnsgd1na2vs0mg"},{"bike_id":"787f4146-d570-4c2c-936b-74f37dc80718","system_id":"levelo_inurba_marseille","lat":43.25821,"lon":5.39444,"is_reserved":false,"is_disabled":false,"rental_uris":{"android":"levelo://app?vid=787f4146-d570-4c2c-936b-74f37dc80718","ios":"levelo://app?vid=787f4146-d570-4c2c-936b-74f37dc80718"},"vehicle_type_id":"4","last_reported":1738102119,"current_range_meters":32400,"station_id":"ce4bhip2rcd13ifvqft0","pricing_plan_id":"cebpf4jnsgd1na2vs0mg"},{"bike_id":"529f1ab7-390e-41c3-9180-30692697770e","system_id":"levelo_inurba_marseille","lat":43.28587,"lon":5.35149,"is_reserved":false,"is_disabled":false,"rental_uris":{"android":"levelo://app?vid=529f1ab7-390e-41c3-9180-30692697770e","ios":"levelo://app?vid=529f1ab7-390e-41c3-9180-30692697770e"},"vehicle_type_id":"4","last_reported":1738102119,"current_range_meters":11600,"station_id":"","pricing_plan_id":"cebpf4jnsgd1na2vs0mg"},{"bike_id":"e92aa3e0-b0c4-4db7-a8f9-528211185866","system_id":"levelo_inurba_marseille","lat":43.29977,"lon":5.37187,"is_reserved":false,"is_disabled":false,"rental_uris":{"android":"levelo://app?vid=e92aa3e0-b0c4-4db7-a8f9-528211185866","ios":"levelo://app?vid=e92aa3e0-b0c4-4db7-a8f9-528211185866"},"vehicle_type_id":"4","last_reported":1738102119,"current_range_meters":20800,"station_id":"ce4bgr92rcd13ifvqc7g","pricing_plan_id":"cebpf4jnsgd1na2vs0mg"},{"bike_id":"24d4f5ef-361b-4b35-a071-0fe3b8f26f07","system_id":"levelo_inurba_marseille","lat":43.27499,"lon":5.42458,"is_reserved":false,"is_disabled":false,"rental_uris":{"android":"levelo://app?vid=24d4f5ef-361b-4b35-a071-0fe3b8f26f07","ios":"levelo://app?vid=24d4f5ef-361b-4b35-a071-0fe3b8f26f07"},"vehicle_type_id":"4","last_reported":1738102119,"current_range_meters":38800,"station_id":"ce4bhn92rcd13ifvqgrg","pricing_plan_id":"cebpf4jnsgd1na2vs0mg"},{"bike_id":"db044992-3250-4510-8cf9-faa44eccf4c7","system_id":"levelo_inurba_marseille","lat":43.27942,"lon":5.41045,"is_reserved":false,"is_disabled":false,"rental_uris":{"android":"levelo://app?vid=db044992-3250-4510-8cf9-faa44eccf4c7","ios":"levelo://app?vid=db044992-3250-4510-8cf9-faa44eccf4c7"},"vehicle_type_id":"4","last_reported":1738102119,"current_range_meters":25200,"station_id":"ce4bhnp2rcd13ifvqh0g","pricing_plan_id":"cebpf4jnsgd1na2vs0mg"},{"bike_id":"b539d7ec-8a8e-42db-88da-6134ef5eb529","system_id":"levelo_inurba_marseille","lat":43.29012,"lon":5.35611,"is_reserved":false,"is_disabled":false,"rental_uris":{"android":"levelo://app?vid=b539d7ec-8a8e-42db-88da-6134ef5eb529","ios":"levelo://app?vid=b539d7ec-8a8e-42db-88da-6134ef5eb529"},"vehicle_type_id":"4","last_reported":1738102119,"current_range_meters":29600,"station_id":"ce4bhb92rcd13ifvqen0","pricing_plan_id":"cebpf4jnsgd1na2vs0mg"},{"bike_id":"cbacff53-b569-4358-8d11-4b56096865df","system_id":"levelo_inurba_marseille","lat":43.3081,"lon":5.43506,"is_reserved":false,"is_disabled":false,"rental_uris":{"android":"levelo://app?vid=cbacff53-b569-4358-8d11-4b56096865df","ios":"levelo://app?vid=cbacff53-b569-4358-8d11-4b56096865df"},"vehicle_type_id":"4","last_reported":1738102119,"current_range_meters":17600,"station_id":"ce4bhph2rcd13ifvqheg","pricing_plan_id":"cebpf4jnsgd1na2vs0mg"},{"bike_id":"4a8b9b28-ce37-4eab-b39f-58f061275fb6","system_id":"levelo_inurba_marseille","lat":43.30543,"lon":5.38436,"is_reserved":false,"is_disabled":false,"rental_uris":{"android":"levelo://app?vid=4a8b9b28-ce37-4eab-b39f-58f061275fb6","ios":"levelo://app?vid=4a8b9b28-ce37-4eab-b39f-58f061275fb6"},"vehicle_type_id":"4","last_reported":1738102119,"current_range_meters":38800,"station_id":"ce4bgg92rcd13ifvqb30","pricing_plan_id":"cebpf4jnsgd1na2vs0mg"},{"bike_id":"aefa3b58-5280-4eb9-97ee-8c130e0aa227","system_id":"levelo_inurba_marseille","lat":43.279964,"lon":5.400104,"is_reserved":false,"is_disabled":false,"rental_uris":{"android":"levelo://app?vid=aefa3b58-5280-4eb9-97ee-8c130e0aa227","ios":"levelo://app?vid=aefa3b58-5280-4eb9-97ee-8c130e0aa227"},"vehicle_type_id":"4","last_reported":1738102119,"current_range_meters":16800,"station_id":"ce4bho92rcd13ifvqh4g","pricing_plan_id":"cebpf4jnsgd1na2vs0mg"},{"bike_id":"0cc10bbf-dc64-4848-973b-fd8a95a94afc","system_id":"levelo_inurba_marseille","lat":43.29057,"lon":5.37182,"is_reserved":false,"is_disabled":false,"rental_uris":{"android":"levelo://app?vid=0cc10bbf-dc64-4848-973b-fd8a95a94afc","ios":"levelo://app?vid=0cc10bbf-dc64-4848-973b-fd8a95a94afc"},"vehicle_type_id":"4","last_reported":1738102119,"current_range_meters":34000,"station_id":"ce4bh5p2rcd13ifvqe4g","pricing_plan_id":"cebpf4jnsgd1na2vs0mg"},{"bike_id":"16ab1691-8f4e-47c7-b61c-e5f6af4e6a96","system_id":"levelo_inurba_marseille","lat":43.30945,"lon":5.39059,"is_reserved":false,"is_disabled":false,"rental_uris":{"android":"levelo://app?vid=16ab1691-8f4e-47c7-b61c-e5f6af4e6a96","ios":"levelo://app?vid=16ab1691-8f4e-47c7-b61c-e5f6af4e6a96"},"vehicle_type_id":"4","last_reported":1738102119,"current_range_meters":38000,"station_id":"ce4bgup2rcd13ifvqco0","pricing_plan_id":"cebpf4jnsgd1na2vs0mg"},{"bike_id":"3afe2907-14fe-40b0-8ce8-247215ed16c8","system_id":"levelo_inurba_marseille","lat":43.26954,"lon":5.38913,"is_reserved":false,"is_disabled":true,"rental_uris":{"android":"levelo://app?vid=3afe2907-14fe-40b0-8ce8-247215ed16c8","ios":"levelo://app?vid=3afe2907-14fe-40b0-8ce8-247215ed16c8"},"vehicle_type_id":"4","last_reported":1738102119,"current_range_meters":7200,"station_id":"ce4bhhh2rcd13ifvqfl0","pricing_plan_id":"cebpf4jnsgd1na2vs0mg"},{"bike_id":"e8e1f7c6-d773-4c38-bfcc-4a6d773355ce","system_id":"levelo_inurba_marseille","lat":43.22913,"lon":5.35414,"is_reserved":false,"is_disabled":false,"rental_uris":{"android":"levelo://app?vid=e8e1f7c6-d773-4c38-bfcc-4a6d773355ce","ios":"levelo://app?vid=e8e1f7c6-d773-4c38-bfcc-4a6d773355ce"},"vehicle_type_id":"4","last_reported":1738102119,"current_range_meters":38800,"station_id":"cpo3532slgdg3j2ikp40","pricing_plan_id":"cebpf4jnsgd1na2vs0mg"},{"bike_id":"12fcadb7-05ad-46a0-8b01-299958c42265","system_id":"levelo_inurba_marseille","lat":43.24175,"lon":5.39711,"is_reserved":false,"is_disabled":false,"rental_uris":{"android":"levelo://app?vid=12fcadb7-05ad-46a0-8b01-299958c42265","ios":"levelo://app?vid=12fcadb7-05ad-46a0-8b01-299958c42265"},"vehicle_type_id":"4","last_reported":1738102119,"current_range_meters":20800,"station_id":"ce4bhn12rcd13ifvqgpg","pricing_plan_id":"cebpf4jnsgd1na2vs0mg"},{"bike_id":"d9dff8ef-ddbf-4c21-9ea8-0fcf91a06fce","system_id":"levelo_inurba_marseille","lat":43.30932,"lon":5.40143,"is_reserved":false,"is_disabled":false,"rental_uris":{"android":"levelo://app?vid=d9dff8ef-ddbf-4c21-9ea8-0fcf91a06fce","ios":"levelo://app?vid=d9dff8ef-ddbf-4c21-9ea8-0fcf91a06fce"},"vehicle_type_id":"4","last_reported":1738102119,"current_range_meters":24400,"station_id":"ce4bgvp2rcd13ifvqct0","pricing_plan_id":"cebpf4jnsgd1na2vs0mg"},{"bike_id":"008b9974-fa0d-4623-839f-98194d116fcb","system_id":"levelo_inurba_marseille","lat":43.26941,"lon":5.4025,"is_reserved":false,"is_disabled":false,"rental_uris":{"android":"levelo://app?vid=008b9974-fa0d-4623-839f-98194d116fcb","ios":"levelo://app?vid=008b9974-fa0d-4623-839f-98194d116fcb"},"vehicle_type_id":"4","last_reported":1738102119,"current_range_meters":28000,"station_id":"cjm6bp8fraef2m0cb0m0","pricing_plan_id":"cebpf4jnsgd1na2vs0mg"},{"bike_id":"cc26c524-9981-41d6-9e25-17cb40d9e550","system_id":"levelo_inurba_marseille","lat":43.24822,"lon":5.37446,"is_reserved":false,"is_disabled":false,"rental_uris":{"android":"levelo://app?vid=cc26c524-9981-41d6-9e25-17cb40d9e550","ios":"levelo://app?vid=cc26c524-9981-41d6-9e25-17cb40d9e550"},"vehicle_type_id":"4","last_reported":1738102119,"current_range_meters":25600,"station_id":"ce4bhgh2rcd13ifvqfb0","pricing_plan_id":"cebpf4jnsgd1na2vs0mg"},{"bike_id":"8b6a2e22-7314-494c-be31-0722e29d3f36","system_id":"levelo_inurba_marseille","lat":43.27995,"lon":5.40016,"is_reserved":false,"is_disabled":true,"rental_uris":{"android":"levelo://app?vid=8b6a2e22-7314-494c-be31-0722e29d3f36","ios":"levelo://app?vid=8b6a2e22-7314-494c-be31-0722e29d3f36"},"vehicle_type_id":"4","last_reported":1738102119,"current_range_meters":6400,"station_id":"ce4bho92rcd13ifvqh4g","pricing_plan_id":"cebpf4jnsgd1na2vs0mg"},{"bike_id":"760d43bb-007a-41b2-bcfb-af38d386d7bb","system_id":"levelo_inurba_marseille","lat":43.29779,"lon":5.393467,"is_reserved":false,"is_disabled":false,"rental_uris":{"android":"levelo://app?vid=760d43bb-007a-41b2-bcfb-af38d386d7bb","ios":"levelo://app?vid=760d43bb-007a-41b2-bcfb-af38d386d7bb"},"vehicle_type_id":"4","last_reported":1738102119,"current_range_meters":22000,"station_id":"chh1huq6cuj3fo74tm60","pricing_plan_id":"cebpf4jnsgd1na2vs0mg"},{"bike_id":"8ffdaebb-c55d-4511-9e51-b887c69bc7df","system_id":"levelo_inurba_marseille","lat":43.30263,"lon":5.3971,"is_reserved":false,"is_disabled":false,"rental_uris":{"android":"levelo://app?vid=8ffdaebb-c55d-4511-9e51-b887c69bc7df","ios":"levelo://app?vid=8ffdaebb-c55d-4511-9e51-b887c69bc7df"},"vehicle_type_id":"4","last_reported":1738102119,"current_range_meters":38000,"station_id":"ce4bgvh2rcd13ifvqcs0","pricing_plan_id":"cebpf4jnsgd1na2vs0mg"},{"bike_id":"dd195832-ff3f-4763-a260-74003ef7ff4c","system_id":"levelo_inurba_marseille","lat":43.29186,"lon":5.3611,"is_reserved":false,"is_disabled":true,"rental_uris":{"android":"levelo://app?vid=dd195832-ff3f-4763-a260-74003ef7ff4c","ios":"levelo://app?vid=dd195832-ff3f-4763-a260-74003ef7ff4c"},"vehicle_type_id":"4","last_reported":1738102119,"current_range_meters":36800,"station_id":"","pricing_plan_id":"cebpf4jnsgd1na2vs0mg"},{"bike_id":"504dea5b-3c2a-489e-8275-d8db04b04cbd","system_id":"levelo_inurba_marseille","lat":43.28718,"lon":5.3839,"is_reserved":false,"is_disabled":false,"rental_uris":{"android":"levelo://app?vid=504dea5b-3c2a-489e-8275-d8db04b04cbd","ios":"levelo://app?vid=504dea5b-3c2a-489e-8275-d8db04b04cbd"},"vehicle_type_id":"4","last_reported":1738102119,"current_range_meters":36800,"station_id":"","pricing_plan_id":"cebpf4jnsgd1na2vs0mg"},{"bike_id":"ce8d2e7d-9589-48c0-bd6b-cfdf28ff366f","system_id":"levelo_inurba_marseille","lat":43.28703,"lon":5.3739,"is_reserved":false,"is_disabled":false,"rental_uris":{"android":"levelo://app?vid=ce8d2e7d-9589-48c0-bd6b-cfdf28ff366f","ios":"levelo://app?vid=ce8d2e7d-9589-48c0-bd6b-cfdf28ff366f"},"vehicle_type_id":"4","last_reported":1738102119,"current_range_meters":19200,"station_id":"ce4bh3p2rcd13ifvqdq0","pricing_plan_id":"cebpf4jnsgd1na2vs0mg"},{"bike_id":"0ba66904-dc2a-45c6-8746-f6b15ae063ca","system_id":"levelo_inurba_marseille","lat":43.28931,"lon":5.36383,"is_reserved":false,"is_disabled":false,"rental_uris":{"android":"levelo://app?vid=0ba66904-dc2a-45c6-8746-f6b15ae063ca","ios":"levelo://app?vid=0ba66904-dc2a-45c6-8746-f6b15ae063ca"},"vehicle_type_id":"4","last_reported":1738102119,"current_range_meters":38800,"station_id":"ce4bhc92rcd13ifvqetg","pricing_plan_id":"cebpf4jnsgd1na2vs0mg"},{"bike_id":"b6bef37c-07cc-4cdc-973f-1cf1c78f0ee3","system_id":"levelo_inurba_marseille","lat":43.267762,"lon":5.394189,"is_reserved":false,"is_disabled":true,"rental_uris":{"android":"levelo://app?vid=b6bef37c-07cc-4cdc-973f-1cf1c78f0ee3","ios":"levelo://app?vid=b6bef37c-07cc-4cdc-973f-1cf1c78f0ee3"},"vehicle_type_id":"4","last_reported":1738102119,"current_range_meters":0,"station_id":"ce4bhh12rcd13ifvqfg0","pricing_plan_id":"cebpf4jnsgd1na2vs0mg"},{"bike_id":"8a75c218-745e-4d5a-8531-47bf77bd2d40","system_id":"levelo_inurba_marseille","lat":43.24656,"lon":5.38923,"is_reserved":false,"is_disabled":false,"rental_uris":{"android":"levelo://app?vid=8a75c218-745e-4d5a-8531-47bf77bd2d40","ios":"levelo://app?vid=8a75c218-745e-4d5a-8531-47bf77bd2d40"},"vehicle_type_id":"4","last_reported":1738102119,"current_range_meters":30000,"station_id":"ce4bhg12rcd13ifvqf60","pricing_plan_id":"cebpf4jnsgd1na2vs0mg"},{"bike_id":"71f34f72-d3b7-46a5-9bd4-1fe057b3152f","system_id":"levelo_inurba_marseille","lat":43.22942,"lon":5.35372,"is_reserved":false,"is_disabled":false,"rental_uris":{"android":"levelo://app?vid=71f34f72-d3b7-46a5-9bd4-1fe057b3152f","ios":"levelo://app?vid=71f34f72-d3b7-46a5-9bd4-1fe057b3152f"},"vehicle_type_id":"4","last_reported":1738102119,"current_range_meters":39200,"station_id":"cpo3532slgdg3j2ikp40","pricing_plan_id":"cebpf4jnsgd1na2vs0mg"},{"bike_id":"4923aee7-71d0-4098-8b82-11b619dcf2d0","system_id":"levelo_inurba_marseille","lat":43.30604,"lon":5.37241,"is_reserved":false,"is_disabled":false,"rental_uris":{"android":"levelo://app?vid=4923aee7-71d0-4098-8b82-11b619dcf2d0","ios":"levelo://app?vid=4923aee7-71d0-4098-8b82-11b619dcf2d0"},"vehicle_type_id":"4","last_reported":1738102119,"current_range_meters":24000,"station_id":"ce4bgqh2rcd13ifvqc4g","pricing_plan_id":"cebpf4jnsgd1na2vs0mg"},{"bike_id":"20029bdd-9f9c-4ff9-86e4-5ba6ed30f46a","system_id":"levelo_inurba_marseille","lat":43.23135,"lon":5.43731,"is_reserved":false,"is_disabled":true,"rental_uris":{"android":"levelo://app?vid=20029bdd-9f9c-4ff9-86e4-5ba6ed30f46a","ios":"levelo://app?vid=20029bdd-9f9c-4ff9-86e4-5ba6ed30f46a"},"vehicle_type_id":"4","last_reported":1738102119,"current_range_meters":0,"station_id":"ce4bhmp2rcd13ifvqgog","pricing_plan_id":"cebpf4jnsgd1na2vs0mg"},{"bike_id":"a1e9ea9a-e681-4867-9abc-c1bdcd9eed05","system_id":"levelo_inurba_marseille","lat":43.29964,"lon":5.41314,"is_reserved":false,"is_disabled":false,"rental_uris":{"android":"levelo://app?vid=a1e9ea9a-e681-4867-9abc-c1bdcd9eed05","ios":"levelo://app?vid=a1e9ea9a-e681-4867-9abc-c1bdcd9eed05"},"vehicle_type_id":"4","last_reported":1738102119,"current_range_meters":24800,"station_id":"ce4bhp12rcd13ifvqh9g","pricing_plan_id":"cebpf4jnsgd1na2vs0mg"},{"bike_id":"c1709d9f-ce43-4fc8-94d2-255fa0787b9a","system_id":"levelo_inurba_marseille","lat":43.27619,"lon":5.36127,"is_reserved":false,"is_disabled":false,"rental_uris":{"android":"levelo://app?vid=c1709d9f-ce43-4fc8-94d2-255fa0787b9a","ios":"levelo://app?vid=c1709d9f-ce43-4fc8-94d2-255fa0787b9a"},"vehicle_type_id":"4","last_reported":1738102119,"current_range_meters":38800,"station_id":"ce4bgj92rcd13ifvqbe0","pricing_plan_id":"cebpf4jnsgd1na2vs0mg"},{"bike_id":"2e003583-b2a5-4f99-ba64-ee4456cc2f4c","system_id":"levelo_inurba_marseille","lat":43.26495,"lon":5.39567,"is_reserved":false,"is_disabled":false,"rental_uris":{"android":"levelo://app?vid=2e003583-b2a5-4f99-ba64-ee4456cc2f4c","ios":"levelo://app?vid=2e003583-b2a5-4f99-ba64-ee4456cc2f4c"},"vehicle_type_id":"4","last_reported":1738102119,"current_range_meters":36400,"station_id":"ce4bhi12rcd13ifvqfq0","pricing_plan_id":"cebpf4jnsgd1na2vs0mg"},{"bike_id":"974345af-4158-47d1-a78e-cbee7401fd53","system_id":"levelo_inurba_marseille","lat":43.29004,"lon":5.35609,"is_reserved":false,"is_disabled":false,"rental_uris":{"android":"levelo://app?vid=974345af-4158-47d1-a78e-cbee7401fd53","ios":"levelo://app?vid=974345af-4158-47d1-a78e-cbee7401fd53"},"vehicle_type_id":"4","last_reported":1738102119,"current_range_meters":38400,"station_id":"ce4bhb92rcd13ifvqen0","pricing_plan_id":"cebpf4jnsgd1na2vs0mg"},{"bike_id":"01c346e4-7211-4b0a-9252-8b8a59a9b82f","system_id":"levelo_inurba_marseille","lat":43.28847,"lon":5.35862,"is_reserved":false,"is_disabled":true,"rental_uris":{"android":"levelo://app?vid=01c346e4-7211-4b0a-9252-8b8a59a9b82f","ios":"levelo://app?vid=01c346e4-7211-4b0a-9252-8b8a59a9b82f"},"vehicle_type_id":"4","last_reported":1738102119,"current_range_meters":37600,"station_id":"ce4bhb12rcd13ifvqem0","pricing_plan_id":"cebpf4jnsgd1na2vs0mg"},{"bike_id":"2d76eec1-0b3b-4dbc-b00a-b439704973f7","system_id":"levelo_inurba_marseille","lat":43.29305,"lon":5.37473,"is_reserved":false,"is_disabled":false,"rental_uris":{"android":"levelo://app?vid=2d76eec1-0b3b-4dbc-b00a-b439704973f7","ios":"levelo://app?vid=2d76eec1-0b3b-4dbc-b00a-b439704973f7"},"vehicle_type_id":"4","last_reported":1738102119,"current_range_meters":36000,"station_id":"ce4bgi12rcd13ifvqb70","pricing_plan_id":"cebpf4jnsgd1na2vs0mg"},{"bike_id":"c1132413-fb6f-4b53-ab60-34a0c7b41d69","system_id":"levelo_inurba_marseille","lat":43.29909,"lon":5.37499,"is_reserved":false,"is_disabled":false,"rental_uris":{"android":"levelo://app?vid=c1132413-fb6f-4b53-ab60-34a0c7b41d69","ios":"levelo://app?vid=c1132413-fb6f-4b53-ab60-34a0c7b41d69"},"vehicle_type_id":"4","last_reported":1738102119,"current_range_meters":18800,"station_id":"ce4bgjh2rcd13ifvqbg0","pricing_plan_id":"cebpf4jnsgd1na2vs0mg"},{"bike_id":"3fb74e29-7f1d-4c67-8af5-0bb8332df870","system_id":"levelo_inurba_marseille","lat":43.24399,"lon":5.37035,"is_reserved":false,"is_disabled":false,"rental_uris":{"android":"levelo://app?vid=3fb74e29-7f1d-4c67-8af5-0bb8332df870","ios":"levelo://app?vid=3fb74e29-7f1d-4c67-8af5-0bb8332df870"},"vehicle_type_id":"4","last_reported":1738102119,"current_range_meters":24800,"station_id":"ce4bhhh2rcd13ifvqfk0","pricing_plan_id":"cebpf4jnsgd1na2vs0mg"},{"bike_id":"6543d157-4c86-4954-a20d-5ff1654b92fc","system_id":"levelo_inurba_marseille","lat":43.30193,"lon":5.36635,"is_reserved":false,"is_disabled":false,"rental_uris":{"android":"levelo://app?vid=6543d157-4c86-4954-a20d-5ff1654b92fc","ios":"levelo://app?vid=6543d157-4c86-4954-a20d-5ff1654b92fc"},"vehicle_type_id":"4","last_reported":1738102119,"current_range_meters":36800,"station_id":"ce4bgrh2rcd13ifvqc8g","pricing_plan_id":"cebpf4jnsgd1na2vs0mg"},{"bike_id":"51c8493b-5e44-4e55-8625-0373a8442058","system_id":"levelo_inurba_marseille","lat":43.29879,"lon":5.39774,"is_reserved":false,"is_disabled":false,"rental_uris":{"android":"levelo://app?vid=51c8493b-5e44-4e55-8625-0373a8442058","ios":"levelo://app?vid=51c8493b-5e44-4e55-8625-0373a8442058"},"vehicle_type_id":"4","last_reported":1738102119,"current_range_meters":29600,"station_id":"ce4bh0h2rcd13ifvqd50","pricing_plan_id":"cebpf4jnsgd1na2vs0mg"},{"bike_id":"a1f25abd-5197-4524-ac53-ad8743bef105","system_id":"levelo_inurba_marseille","lat":43.29901,"lon":5.43653,"is_reserved":false,"is_disabled":true,"rental_uris":{"android":"levelo://app?vid=a1f25abd-5197-4524-ac53-ad8743bef105","ios":"levelo://app?vid=a1f25abd-5197-4524-ac53-ad8743bef105"},"vehicle_type_id":"4","last_reported":1738102119,"current_range_meters":36800,"station_id":"ce4bhpp2rcd13ifvqhfg","pricing_plan_id":"cebpf4jnsgd1na2vs0mg"},{"bike_id":"5b4f2f8c-2a9b-4cc2-b6cc-1ff207bf40f1","system_id":"levelo_inurba_marseille","lat":43.30281,"lon":5.37702,"is_reserved":false,"is_disabled":false,"rental_uris":{"android":"levelo://app?vid=5b4f2f8c-2a9b-4cc2-b6cc-1ff207bf40f1","ios":"levelo://app?vid=5b4f2f8c-2a9b-4cc2-b6cc-1ff207bf40f1"},"vehicle_type_id":"4","last_reported":1738102119,"current_range_meters":11600,"station_id":"ce4bguh2rcd13ifvqcj0","pricing_plan_id":"cebpf4jnsgd1na2vs0mg"},{"bike_id":"4365e0ec-5391-441d-b48a-d28d4416b4eb","system_id":"levelo_inurba_marseille","lat":43.26808,"lon":5.40266,"is_reserved":false,"is_disabled":false,"rental_uris":{"android":"levelo://app?vid=4365e0ec-5391-441d-b48a-d28d4416b4eb","ios":"levelo://app?vid=4365e0ec-5391-441d-b48a-d28d4416b4eb"},"vehicle_type_id":"4","last_reported":1738102119,"current_range_meters":8800,"station_id":"ce501612rcd8frsf0b60","pricing_plan_id":"cebpf4jnsgd1na2vs0mg"},{"bike_id":"d2720e1a-503c-493a-a400-fc47b5a1c2f3","system_id":"levelo_inurba_marseille","lat":43.28093,"lon":5.39634,"is_reserved":false,"is_disabled":false,"rental_uris":{"android":"levelo://app?vid=d2720e1a-503c-493a-a400-fc47b5a1c2f3","ios":"levelo://app?vid=d2720e1a-503c-493a-a400-fc47b5a1c2f3"},"vehicle_type_id":"4","last_reported":1738102119,"current_range_meters":28400,"station_id":"ce4bho12rcd13ifvqh2g","pricing_plan_id":"cebpf4jnsgd1na2vs0mg"},{"bike_id":"ff68af14-5554-4f8d-a3de-4549d987f602","system_id":"levelo_inurba_marseille","lat":43.29894,"lon":5.43644,"is_reserved":false,"is_disabled":false,"rental_uris":{"android":"levelo://app?vid=ff68af14-5554-4f8d-a3de-4549d987f602","ios":"levelo://app?vid=ff68af14-5554-4f8d-a3de-4549d987f602"},"vehicle_type_id":"4","last_reported":1738102119,"current_range_meters":34800,"station_id":"ce4bhpp2rcd13ifvqhfg","pricing_plan_id":"cebpf4jnsgd1na2vs0mg"},{"bike_id":"296acca2-a355-4830-bc97-a6939a85f573","system_id":"levelo_inurba_marseille","lat":43.25561,"lon":5.38232,"is_reserved":false,"is_disabled":false,"rental_uris":{"android":"levelo://app?vid=296acca2-a355-4830-bc97-a6939a85f573","ios":"levelo://app?vid=296acca2-a355-4830-bc97-a6939a85f573"},"vehicle_type_id":"4","last_reported":1738102119,"current_range_meters":26800,"station_id":"ce4bhih2rcd13ifvqfs0","pricing_plan_id":"cebpf4jnsgd1na2vs0mg"},{"bike_id":"e2aa4144-f725-4497-81a8-6271243a9220","system_id":"levelo_inurba_marseille","lat":43.28301,"lon":5.40818,"is_reserved":false,"is_disabled":false,"rental_uris":{"android":"levelo://app?vid=e2aa4144-f725-4497-81a8-6271243a9220","ios":"levelo://app?vid=e2aa4144-f725-4497-81a8-6271243a9220"},"vehicle_type_id":"4","last_reported":1738102119,"current_range_meters":28800,"station_id":"","pricing_plan_id":"cebpf4jnsgd1na2vs0mg"},{"bike_id":"a62cb2ee-9791-4e39-842b-6b5a3e57e4d7","system_id":"levelo_inurba_marseille","lat":43.30149,"lon":5.38781,"is_reserved":false,"is_disabled":false,"rental_uris":{"android":"levelo://app?vid=a62cb2ee-9791-4e39-842b-6b5a3e57e4d7","ios":"levelo://app?vid=a62cb2ee-9791-4e39-842b-6b5a3e57e4d7"},"vehicle_type_id":"4","last_reported":1738102119,"current_range_meters":16800,"station_id":"ce4bghh2rcd13ifvqb60","pricing_plan_id":"cebpf4jnsgd1na2vs0mg"},{"bike_id":"103bf1f3-ca8c-4e84-a2e4-e3f7fc301cac","system_id":"levelo_inurba_marseille","lat":43.28432,"lon":5.39186,"is_reserved":false,"is_disabled":false,"rental_uris":{"android":"levelo://app?vid=103bf1f3-ca8c-4e84-a2e4-e3f7fc301cac","ios":"levelo://app?vid=103bf1f3-ca8c-4e84-a2e4-e3f7fc301cac"},"vehicle_type_id":"4","last_reported":1738102119,"current_range_meters":38800,"station_id":"ce4bhoh2rcd13ifvqh5g","pricing_plan_id":"cebpf4jnsgd1na2vs0mg"},{"bike_id":"2a642678-8e8c-47fe-ade5-fae5a2238505","system_id":"levelo_inurba_marseille","lat":43.31882,"lon":5.40734,"is_reserved":false,"is_disabled":false,"rental_uris":{"android":"levelo://app?vid=2a642678-8e8c-47fe-ade5-fae5a2238505","ios":"levelo://app?vid=2a642678-8e8c-47fe-ade5-fae5a2238505"},"vehicle_type_id":"4","last_reported":1738102119,"current_range_meters":38000,"station_id":"ce4bhq12rcd13ifvqhig","pricing_plan_id":"cebpf4jnsgd1na2vs0mg"},{"bike_id":"f6a37afb-46f4-467b-8e7a-93a51698bb2e","system_id":"levelo_inurba_marseille","lat":43.28842,"lon":5.35867,"is_reserved":false,"is_disabled":false,"rental_uris":{"android":"levelo://app?vid=f6a37afb-46f4-467b-8e7a-93a51698bb2e","ios":"levelo://app?vid=f6a37afb-46f4-467b-8e7a-93a51698bb2e"},"vehicle_type_id":"4","last_reported":1738102119,"current_range_meters":27200,"station_id":"ce4bhb12rcd13ifvqem0","pricing_plan_id":"cebpf4jnsgd1na2vs0mg"},{"bike_id":"3d95239f-7aae-4c5a-bf4d-ca1ab46f24f8","system_id":"levelo_inurba_marseille","lat":43.27808,"lon":5.40702,"is_reserved":false,"is_disabled":false,"rental_uris":{"android":"levelo://app?vid=3d95239f-7aae-4c5a-bf4d-ca1ab46f24f8","ios":"levelo://app?vid=3d95239f-7aae-4c5a-bf4d-ca1ab46f24f8"},"vehicle_type_id":"4","last_reported":1738102119,"current_range_meters":30000,"station_id":"ce4bhnh2rcd13ifvqgtg","pricing_plan_id":"cebpf4jnsgd1na2vs0mg"},{"bike_id":"43919733-0116-4bda-953e-fee30a8c550f","system_id":"levelo_inurba_marseille","lat":43.25126,"lon":5.40309,"is_reserved":false,"is_disabled":false,"rental_uris":{"android":"levelo://app?vid=43919733-0116-4bda-953e-fee30a8c550f","ios":"levelo://app?vid=43919733-0116-4bda-953e-fee30a8c550f"},"vehicle_type_id":"4","last_reported":1738102119,"current_range_meters":39200,"station_id":"ce4bhlh2rcd13ifvqgig","pricing_plan_id":"cebpf4jnsgd1na2vs0mg"},{"bike_id":"c51fdcf5-aa05-4fab-b82e-fcd4468f8c52","system_id":"levelo_inurba_marseille","lat":43.28086,"lon":5.37838,"is_reserved":false,"is_disabled":false,"rental_uris":{"android":"levelo://app?vid=c51fdcf5-aa05-4fab-b82e-fcd4468f8c52","ios":"levelo://app?vid=c51fdcf5-aa05-4fab-b82e-fcd4468f8c52"},"vehicle_type_id":"4","last_reported":1738102119,"current_range_meters":37600,"station_id":"ce4bha12rcd13ifvqee0","pricing_plan_id":"cebpf4jnsgd1na2vs0mg"},{"bike_id":"07a61ecf-ae34-45de-afc6-311f2f0c014e","system_id":"levelo_inurba_marseille","lat":43.29686,"lon":5.3663,"is_reserved":false,"is_disabled":false,"rental_uris":{"android":"levelo://app?vid=07a61ecf-ae34-45de-afc6-311f2f0c014e","ios":"levelo://app?vid=07a61ecf-ae34-45de-afc6-311f2f0c014e"},"vehicle_type_id":"4","last_reported":1738102119,"current_range_meters":22400,"station_id":"ce4bgn12rcd13ifvqbt0","pricing_plan_id":"cebpf4jnsgd1na2vs0mg"},{"bike_id":"baa76bc6-f0c1-4b5b-a044-5bb9f8eccfd5","system_id":"levelo_inurba_marseille","lat":43.271999,"lon":5.409912,"is_reserved":false,"is_disabled":false,"rental_uris":{"android":"levelo://app?vid=baa76bc6-f0c1-4b5b-a044-5bb9f8eccfd5","ios":"levelo://app?vid=baa76bc6-f0c1-4b5b-a044-5bb9f8eccfd5"},"vehicle_type_id":"4","last_reported":1738102119,"current_range_meters":38000,"station_id":"ce4bhl12rcd13ifvqgf0","pricing_plan_id":"cebpf4jnsgd1na2vs0mg"},{"bike_id":"e3c5a10e-948d-477c-91ce-8c835a7fe362","system_id":"levelo_inurba_marseille","lat":43.28103,"lon":5.39657,"is_reserved":false,"is_disabled":true,"rental_uris":{"android":"levelo://app?vid=e3c5a10e-948d-477c-91ce-8c835a7fe362","ios":"levelo://app?vid=e3c5a10e-948d-477c-91ce-8c835a7fe362"},"vehicle_type_id":"4","last_reported":1738102119,"current_range_meters":0,"station_id":"ce4bho12rcd13ifvqh2g","pricing_plan_id":"cebpf4jnsgd1na2vs0mg"},{"bike_id":"7fc34398-d3b8-48de-93ad-2c00907a0510","system_id":"levelo_inurba_marseille","lat":43.25077,"lon":5.40354,"is_reserved":false,"is_disabled":false,"rental_uris":{"android":"levelo://app?vid=7fc34398-d3b8-48de-93ad-2c00907a0510","ios":"levelo://app?vid=7fc34398-d3b8-48de-93ad-2c00907a0510"},"vehicle_type_id":"4","last_reported":1738102119,"current_range_meters":10000,"station_id":"ce4bhlh2rcd13ifvqgig","pricing_plan_id":"cebpf4jnsgd1na2vs0mg"},{"bike_id":"1e7882da-a016-4654-9a16-4361fd531dc2","system_id":"levelo_inurba_marseille","lat":43.27177,"lon":5.40992,"is_reserved":false,"is_disabled":false,"rental_uris":{"android":"levelo://app?vid=1e7882da-a016-4654-9a16-4361fd531dc2","ios":"levelo://app?vid=1e7882da-a016-4654-9a16-4361fd531dc2"},"vehicle_type_id":"4","last_reported":1738102119,"current_range_meters":27600,"station_id":"ce4bhl12rcd13ifvqgf0","pricing_plan_id":"cebpf4jnsgd1na2vs0mg"},{"bike_id":"9f018113-1138-458d-9938-2357ae09399b","system_id":"levelo_inurba_marseille","lat":43.28598,"lon":5.35103,"is_reserved":false,"is_disabled":false,"rental_uris":{"android":"levelo://app?vid=9f018113-1138-458d-9938-2357ae09399b","ios":"levelo://app?vid=9f018113-1138-458d-9938-2357ae09399b"},"vehicle_type_id":"4","last_reported":1738102119,"current_range_meters":37600,"station_id":"ce4bhch2rcd13ifvqeug","pricing_plan_id":"cebpf4jnsgd1na2vs0mg"},{"bike_id":"c7a8870d-bede-4eb1-9699-df9061ea988c","system_id":"levelo_inurba_marseille","lat":43.284599,"lon":5.383928,"is_reserved":false,"is_disabled":false,"rental_uris":{"android":"levelo://app?vid=c7a8870d-bede-4eb1-9699-df9061ea988c","ios":"levelo://app?vid=c7a8870d-bede-4eb1-9699-df9061ea988c"},"vehicle_type_id":"4","last_reported":1738102119,"current_range_meters":38800,"station_id":"ce4bh512rcd13ifvqe3g","pricing_plan_id":"cebpf4jnsgd1na2vs0mg"},{"bike_id":"f846d495-effa-4e8f-ae39-f2d7b1fc0ba3","system_id":"levelo_inurba_marseille","lat":43.26814,"lon":5.40251,"is_reserved":false,"is_disabled":false,"rental_uris":{"android":"levelo://app?vid=f846d495-effa-4e8f-ae39-f2d7b1fc0ba3","ios":"levelo://app?vid=f846d495-effa-4e8f-ae39-f2d7b1fc0ba3"},"vehicle_type_id":"4","last_reported":1738102119,"current_range_meters":38800,"station_id":"ce501612rcd8frsf0b60","pricing_plan_id":"cebpf4jnsgd1na2vs0mg"},{"bike_id":"78bc61bf-426e-4c8b-af21-b3b451435e49","system_id":"levelo_inurba_marseille","lat":43.29197,"lon":5.35809,"is_reserved":false,"is_disabled":false,"rental_uris":{"android":"levelo://app?vid=78bc61bf-426e-4c8b-af21-b3b451435e49","ios":"levelo://app?vid=78bc61bf-426e-4c8b-af21-b3b451435e49"},"vehicle_type_id":"4","last_reported":1738102119,"current_range_meters":16800,"station_id":"ce4bhb12rcd13ifvqel0","pricing_plan_id":"cebpf4jnsgd1na2vs0mg"},{"bike_id":"dc7c1c67-58fd-4b23-90e5-a1f21ef47cbc","system_id":"levelo_inurba_marseille","lat":43.29592,"lon":5.36721,"is_reserved":false,"is_disabled":true,"rental_uris":{"android":"levelo://app?vid=dc7c1c67-58fd-4b23-90e5-a1f21ef47cbc","ios":"levelo://app?vid=dc7c1c67-58fd-4b23-90e5-a1f21ef47cbc"},"vehicle_type_id":"4","last_reported":1738102119,"current_range_meters":3200,"station_id":"ce4bgph2rcd13ifvqc2g","pricing_plan_id":"cebpf4jnsgd1na2vs0mg"},{"bike_id":"ddbfe7d0-a6f0-4e27-8c41-b60c2e038dd3","system_id":"levelo_inurba_marseille","lat":43.31552,"lon":5.38034,"is_reserved":false,"is_disabled":false,"rental_uris":{"android":"levelo://app?vid=ddbfe7d0-a6f0-4e27-8c41-b60c2e038dd3","ios":"levelo://app?vid=ddbfe7d0-a6f0-4e27-8c41-b60c2e038dd3"},"vehicle_type_id":"4","last_reported":1738102119,"current_range_meters":38000,"station_id":"ce4bhsp2rcd13ifvqi50","pricing_plan_id":"cebpf4jnsgd1na2vs0mg"},{"bike_id":"06ab4b33-5497-4ede-bc3a-65a01e3bb68f","system_id":"levelo_inurba_marseille","lat":43.2972,"lon":5.36626,"is_reserved":false,"is_disabled":false,"rental_uris":{"android":"levelo://app?vid=06ab4b33-5497-4ede-bc3a-65a01e3bb68f","ios":"levelo://app?vid=06ab4b33-5497-4ede-bc3a-65a01e3bb68f"},"vehicle_type_id":"4","last_reported":1738102119,"current_range_meters":8000,"station_id":"ce4bgn12rcd13ifvqbt0","pricing_plan_id":"cebpf4jnsgd1na2vs0mg"},{"bike_id":"f9173de2-2fa5-436f-a76b-3c96bd571284","system_id":"levelo_inurba_marseille","lat":43.29796,"lon":5.40416,"is_reserved":false,"is_disabled":true,"rental_uris":{"android":"levelo://app?vid=f9173de2-2fa5-436f-a76b-3c96bd571284","ios":"levelo://app?vid=f9173de2-2fa5-436f-a76b-3c96bd571284"},"vehicle_type_id":"4","last_reported":1738102119,"current_range_meters":35600,"station_id":"ce4bh112rcd13ifvqd90","pricing_plan_id":"cebpf4jnsgd1na2vs0mg"},{"bike_id":"8f1fc58a-f1e0-4997-82d7-d2e187f0e836","system_id":"levelo_inurba_marseille","lat":43.31087,"lon":5.42423,"is_reserved":false,"is_disabled":false,"rental_uris":{"android":"levelo://app?vid=8f1fc58a-f1e0-4997-82d7-d2e187f0e836","ios":"levelo://app?vid=8f1fc58a-f1e0-4997-82d7-d2e187f0e836"},"vehicle_type_id":"4","last_reported":1738102119,"current_range_meters":38800,"station_id":"ce4bhp92rcd13ifvqhag","pricing_plan_id":"cebpf4jnsgd1na2vs0mg"},{"bike_id":"bcea4f48-29cd-4c3d-a2c0-a6477ca78475","system_id":"levelo_inurba_marseille","lat":43.28033,"lon":5.36959,"is_reserved":false,"is_disabled":false,"rental_uris":{"android":"levelo://app?vid=bcea4f48-29cd-4c3d-a2c0-a6477ca78475","ios":"levelo://app?vid=bcea4f48-29cd-4c3d-a2c0-a6477ca78475"},"vehicle_type_id":"4","last_reported":1738102119,"current_range_meters":30800,"station_id":"ce4bha12rcd13ifvqef0","pricing_plan_id":"cebpf4jnsgd1na2vs0mg"},{"bike_id":"1932502a-a386-4bd4-8041-b68d3b661876","system_id":"levelo_inurba_marseille","lat":43.23204,"lon":5.35546,"is_reserved":false,"is_disabled":false,"rental_uris":{"android":"levelo://app?vid=1932502a-a386-4bd4-8041-b68d3b661876","ios":"levelo://app?vid=1932502a-a386-4bd4-8041-b68d3b661876"},"vehicle_type_id":"4","last_reported":1738102119,"current_range_meters":24400,"station_id":"ce4bhu92rcd13ifvqi70","pricing_plan_id":"cebpf4jnsgd1na2vs0mg"},{"bike_id":"d2f08ce9-194e-43c4-a9f1-3260fde37c7e","system_id":"levelo_inurba_marseille","lat":43.27951,"lon":5.41047,"is_reserved":false,"is_disabled":false,"rental_uris":{"android":"levelo://app?vid=d2f08ce9-194e-43c4-a9f1-3260fde37c7e","ios":"levelo://app?vid=d2f08ce9-194e-43c4-a9f1-3260fde37c7e"},"vehicle_type_id":"4","last_reported":1738102119,"current_range_meters":16400,"station_id":"ce4bhnp2rcd13ifvqh0g","pricing_plan_id":"cebpf4jnsgd1na2vs0mg"},{"bike_id":"8d269557-33de-4093-8844-8d55a3bec913","system_id":"levelo_inurba_marseille","lat":43.30907,"lon":5.36854,"is_reserved":false,"is_disabled":false,"rental_uris":{"android":"levelo://app?vid=8d269557-33de-4093-8844-8d55a3bec913","ios":"levelo://app?vid=8d269557-33de-4093-8844-8d55a3bec913"},"vehicle_type_id":"4","last_reported":1738102119,"current_range_meters":10800,"station_id":"ce4bgn92rcd13ifvqbvg","pricing_plan_id":"cebpf4jnsgd1na2vs0mg"},{"bike_id":"c71d9a58-79c2-4121-bc4b-958cbabc75f1","system_id":"levelo_inurba_marseille","lat":43.29226,"lon":5.4018,"is_reserved":false,"is_disabled":true,"rental_uris":{"android":"levelo://app?vid=c71d9a58-79c2-4121-bc4b-958cbabc75f1","ios":"levelo://app?vid=c71d9a58-79c2-4121-bc4b-958cbabc75f1"},"vehicle_type_id":"4","last_reported":1738102119,"current_range_meters":6400,"station_id":"ce4bh312rcd13ifvqdk0","pricing_plan_id":"cebpf4jnsgd1na2vs0mg"},{"bike_id":"cd68e35b-e291-4244-8751-8931f1c888e6","system_id":"levelo_inurba_marseille","lat":43.244,"lon":5.37052,"is_reserved":false,"is_disabled":false,"rental_uris":{"android":"levelo://app?vid=cd68e35b-e291-4244-8751-8931f1c888e6","ios":"levelo://app?vid=cd68e35b-e291-4244-8751-8931f1c888e6"},"vehicle_type_id":"4","last_reported":1738102119,"current_range_meters":16400,"station_id":"ce4bhhh2rcd13ifvqfk0","pricing_plan_id":"cebpf4jnsgd1na2vs0mg"},{"bike_id":"4efc21d0-1ed7-4b14-b806-9fedf9d3c529","system_id":"levelo_inurba_marseille","lat":43.323349,"lon":5.406209,"is_reserved":false,"is_disabled":false,"rental_uris":{"android":"levelo://app?vid=4efc21d0-1ed7-4b14-b806-9fedf9d3c529","ios":"levelo://app?vid=4efc21d0-1ed7-4b14-b806-9fedf9d3c529"},"vehicle_type_id":"4","last_reported":1738102119,"current_range_meters":22400,"station_id":"ce4bhq92rcd13ifvqhjg","pricing_plan_id":"cebpf4jnsgd1na2vs0mg"},{"bike_id":"ae2c8842-6ea5-4914-8b4f-8f46ba50c128","system_id":"levelo_inurba_marseille","lat":43.29908,"lon":5.3747,"is_reserved":false,"is_disabled":false,"rental_uris":{"android":"levelo://app?vid=ae2c8842-6ea5-4914-8b4f-8f46ba50c128","ios":"levelo://app?vid=ae2c8842-6ea5-4914-8b4f-8f46ba50c128"},"vehicle_type_id":"4","last_reported":1738102119,"current_range_meters":30400,"station_id":"ce4bgjh2rcd13ifvqbg0","pricing_plan_id":"cebpf4jnsgd1na2vs0mg"},{"bike_id":"38406c4f-f465-463a-8917-08b734d2865e","system_id":"levelo_inurba_marseille","lat":43.28082,"lon":5.3963,"is_reserved":false,"is_disabled":false,"rental_uris":{"android":"levelo://app?vid=38406c4f-f465-463a-8917-08b734d2865e","ios":"levelo://app?vid=38406c4f-f465-463a-8917-08b734d2865e"},"vehicle_type_id":"4","last_reported":1738102119,"current_range_meters":32000,"station_id":"ce4bho12rcd13ifvqh2g","pricing_plan_id":"cebpf4jnsgd1na2vs0mg"},{"bike_id":"e5171e38-fbd8-48a8-8900-ffeb261a164a","system_id":"levelo_inurba_marseille","lat":43.28664,"lon":5.36349,"is_reserved":false,"is_disabled":false,"rental_uris":{"android":"levelo://app?vid=e5171e38-fbd8-48a8-8900-ffeb261a164a","ios":"levelo://app?vid=e5171e38-fbd8-48a8-8900-ffeb261a164a"},"vehicle_type_id":"4","last_reported":1738102119,"current_range_meters":38800,"station_id":"ce4bhah2rcd13ifvqej0","pricing_plan_id":"cebpf4jnsgd1na2vs0mg"},{"bike_id":"5db1114c-8044-4d39-8b54-bc9610487a91","system_id":"levelo_inurba_marseille","lat":43.31322,"lon":5.3971,"is_reserved":false,"is_disabled":false,"rental_uris":{"android":"levelo://app?vid=5db1114c-8044-4d39-8b54-bc9610487a91","ios":"levelo://app?vid=5db1114c-8044-4d39-8b54-bc9610487a91"},"vehicle_type_id":"4","last_reported":1738102119,"current_range_meters":12800,"station_id":"ce4bgvp2rcd13ifvqcu0","pricing_plan_id":"cebpf4jnsgd1na2vs0mg"},{"bike_id":"c9242e06-810e-49f1-b440-56548629c43f","system_id":"levelo_inurba_marseille","lat":43.28409,"lon":5.3752,"is_reserved":false,"is_disabled":false,"rental_uris":{"android":"levelo://app?vid=c9242e06-810e-49f1-b440-56548629c43f","ios":"levelo://app?vid=c9242e06-810e-49f1-b440-56548629c43f"},"vehicle_type_id":"4","last_reported":1738102119,"current_range_meters":37600,"station_id":"ce4bh412rcd13ifvqds0","pricing_plan_id":"cebpf4jnsgd1na2vs0mg"},{"bike_id":"642c128b-5936-43e1-a3d1-7ce190f71190","system_id":"levelo_inurba_marseille","lat":43.25869,"lon":5.39905,"is_reserved":false,"is_disabled":false,"rental_uris":{"android":"levelo://app?vid=642c128b-5936-43e1-a3d1-7ce190f71190","ios":"levelo://app?vid=642c128b-5936-43e1-a3d1-7ce190f71190"},"vehicle_type_id":"4","last_reported":1738102119,"current_range_meters":38400,"station_id":"ce4bhl92rcd13ifvqghg","pricing_plan_id":"cebpf4jnsgd1na2vs0mg"},{"bike_id":"283c25d8-9fc5-495b-9825-5a72a68442bd","system_id":"levelo_inurba_marseille","lat":43.29255,"lon":5.40909,"is_reserved":false,"is_disabled":true,"rental_uris":{"android":"levelo://app?vid=283c25d8-9fc5-495b-9825-5a72a68442bd","ios":"levelo://app?vid=283c25d8-9fc5-495b-9825-5a72a68442bd"},"vehicle_type_id":"4","last_reported":1738102119,"current_range_meters":38800,"station_id":"ce4bh192rcd13ifvqdc0","pricing_plan_id":"cebpf4jnsgd1na2vs0mg"},{"bike_id":"77f3bf21-63b8-49a8-935c-8a5687b8349a","system_id":"levelo_inurba_marseille","lat":43.32944,"lon":5.38951,"is_reserved":false,"is_disabled":false,"rental_uris":{"android":"levelo://app?vid=77f3bf21-63b8-49a8-935c-8a5687b8349a","ios":"levelo://app?vid=77f3bf21-63b8-49a8-935c-8a5687b8349a"},"vehicle_type_id":"4","last_reported":1738102119,"current_range_meters":16800,"station_id":"","pricing_plan_id":"cebpf4jnsgd1na2vs0mg"},{"bike_id":"e3e26aee-15e1-425c-a48f-db58aa520742","system_id":"levelo_inurba_marseille","lat":43.23064,"lon":5.35523,"is_reserved":false,"is_disabled":false,"rental_uris":{"android":"levelo://app?vid=e3e26aee-15e1-425c-a48f-db58aa520742","ios":"levelo://app?vid=e3e26aee-15e1-425c-a48f-db58aa520742"},"vehicle_type_id":"4","last_reported":1738102119,"current_range_meters":36400,"station_id":"cpo3342slgdg3j2ifvpg","pricing_plan_id":"cebpf4jnsgd1na2vs0mg"},{"bike_id":"566e23ec-1d41-4cca-b6b1-4c286a9b4684","system_id":"levelo_inurba_marseille","lat":43.25718,"lon":5.41109,"is_reserved":false,"is_disabled":false,"rental_uris":{"android":"levelo://app?vid=566e23ec-1d41-4cca-b6b1-4c286a9b4684","ios":"levelo://app?vid=566e23ec-1d41-4cca-b6b1-4c286a9b4684"},"vehicle_type_id":"4","last_reported":1738102119,"current_range_meters":38800,"station_id":"ce4bhkp2rcd13ifvqgd0","pricing_plan_id":"cebpf4jnsgd1na2vs0mg"},{"bike_id":"2f721776-a64e-4635-b65d-4f02e23630ab","system_id":"levelo_inurba_marseille","lat":43.29209,"lon":5.36066,"is_reserved":false,"is_disabled":false,"rental_uris":{"android":"levelo://app?vid=2f721776-a64e-4635-b65d-4f02e23630ab","ios":"levelo://app?vid=2f721776-a64e-4635-b65d-4f02e23630ab"},"vehicle_type_id":"4","last_reported":1738102119,"current_range_meters":32400,"station_id":"ce4bhbh2rcd13ifvqeqg","pricing_plan_id":"cebpf4jnsgd1na2vs0mg"},{"bike_id":"bf81ccdb-746e-43b8-9227-df99d5d4c562","system_id":"levelo_inurba_marseille","lat":43.25002,"lon":5.38951,"is_reserved":false,"is_disabled":false,"rental_uris":{"android":"levelo://app?vid=bf81ccdb-746e-43b8-9227-df99d5d4c562","ios":"levelo://app?vid=bf81ccdb-746e-43b8-9227-df99d5d4c562"},"vehicle_type_id":"4","last_reported":1738102119,"current_range_meters":38800,"station_id":"ce4bhgp2rcd13ifvqfd0","pricing_plan_id":"cebpf4jnsgd1na2vs0mg"},{"bike_id":"df2653fe-4fdf-43fd-a7c1-0f1c8d8556c5","system_id":"levelo_inurba_marseille","lat":43.33043,"lon":5.39061,"is_reserved":false,"is_disabled":false,"rental_uris":{"android":"levelo://app?vid=df2653fe-4fdf-43fd-a7c1-0f1c8d8556c5","ios":"levelo://app?vid=df2653fe-4fdf-43fd-a7c1-0f1c8d8556c5"},"vehicle_type_id":"4","last_reported":1738102119,"current_range_meters":38000,"station_id":"ce4bhr92rcd13ifvqhrg","pricing_plan_id":"cebpf4jnsgd1na2vs0mg"},{"bike_id":"7c78a755-c7f5-4f07-a96b-621451d47948","system_id":"levelo_inurba_marseille","lat":43.29905,"lon":5.43661,"is_reserved":false,"is_disabled":false,"rental_uris":{"android":"levelo://app?vid=7c78a755-c7f5-4f07-a96b-621451d47948","ios":"levelo://app?vid=7c78a755-c7f5-4f07-a96b-621451d47948"},"vehicle_type_id":"4","last_reported":1738102119,"current_range_meters":21600,"station_id":"ce4bhpp2rcd13ifvqhfg","pricing_plan_id":"cebpf4jnsgd1na2vs0mg"},{"bike_id":"c77700e7-1edb-4c3c-aeff-eb28df744e37","system_id":"levelo_inurba_marseille","lat":43.30652,"lon":5.39304,"is_reserved":false,"is_disabled":false,"rental_uris":{"android":"levelo://app?vid=c77700e7-1edb-4c3c-aeff-eb28df744e37","ios":"levelo://app?vid=c77700e7-1edb-4c3c-aeff-eb28df744e37"},"vehicle_type_id":"4","last_reported":1738102119,"current_range_meters":36400,"station_id":"ce4bghh2rcd13ifvqb60","pricing_plan_id":"cebpf4jnsgd1na2vs0mg"},{"bike_id":"3d1fcd99-fa1f-402d-be1e-7639922ccd47","system_id":"levelo_inurba_marseille","lat":43.22929,"lon":5.35378,"is_reserved":false,"is_disabled":false,"rental_uris":{"android":"levelo://app?vid=3d1fcd99-fa1f-402d-be1e-7639922ccd47","ios":"levelo://app?vid=3d1fcd99-fa1f-402d-be1e-7639922ccd47"},"vehicle_type_id":"4","last_reported":1738102119,"current_range_meters":38000,"station_id":"cpo3532slgdg3j2ikp40","pricing_plan_id":"cebpf4jnsgd1na2vs0mg"},{"bike_id":"409231ee-d438-41db-8576-1da7468c5edd","system_id":"levelo_inurba_marseille","lat":43.28407,"lon":5.37516,"is_reserved":false,"is_disabled":false,"rental_uris":{"android":"levelo://app?vid=409231ee-d438-41db-8576-1da7468c5edd","ios":"levelo://app?vid=409231ee-d438-41db-8576-1da7468c5edd"},"vehicle_type_id":"4","last_reported":1738102119,"current_range_meters":38000,"station_id":"ce4bh412rcd13ifvqds0","pricing_plan_id":"cebpf4jnsgd1na2vs0mg"},{"bike_id":"7791b0d5-d697-4967-a9ad-86a6a63f5a5b","system_id":"levelo_inurba_marseille","lat":43.28663,"lon":5.36347,"is_reserved":false,"is_disabled":false,"rental_uris":{"android":"levelo://app?vid=7791b0d5-d697-4967-a9ad-86a6a63f5a5b","ios":"levelo://app?vid=7791b0d5-d697-4967-a9ad-86a6a63f5a5b"},"vehicle_type_id":"4","last_reported":1738102119,"current_range_meters":38800,"station_id":"ce4bhah2rcd13ifvqej0","pricing_plan_id":"cebpf4jnsgd1na2vs0mg"},{"bike_id":"803e03d8-7d2e-4feb-ac46-774902d16dee","system_id":"levelo_inurba_marseille","lat":43.33743,"lon":5.37446,"is_reserved":false,"is_disabled":true,"rental_uris":{"android":"levelo://app?vid=803e03d8-7d2e-4feb-ac46-774902d16dee","ios":"levelo://app?vid=803e03d8-7d2e-4feb-ac46-774902d16dee"},"vehicle_type_id":"4","last_reported":1738102119,"current_range_meters":36400,"station_id":"","pricing_plan_id":"cebpf4jnsgd1na2vs0mg"},{"bike_id":"28aff257-a41f-41b4-b492-84a82ec49355","system_id":"levelo_inurba_marseille","lat":43.32463,"lon":5.3659,"is_reserved":false,"is_disabled":false,"rental_uris":{"android":"levelo://app?vid=28aff257-a41f-41b4-b492-84a82ec49355","ios":"levelo://app?vid=28aff257-a41f-41b4-b492-84a82ec49355"},"vehicle_type_id":"4","last_reported":1738102119,"current_range_meters":38400,"station_id":"ce4bhs12rcd13ifvqhvg","pricing_plan_id":"cebpf4jnsgd1na2vs0mg"},{"bike_id":"ff1e303e-f01b-45b4-953d-3439c6552787","system_id":"levelo_inurba_marseille","lat":43.2693,"lon":5.40259,"is_reserved":false,"is_disabled":false,"rental_uris":{"android":"levelo://app?vid=ff1e303e-f01b-45b4-953d-3439c6552787","ios":"levelo://app?vid=ff1e303e-f01b-45b4-953d-3439c6552787"},"vehicle_type_id":"4","last_reported":1738102119,"current_range_meters":32000,"station_id":"cjm6bp8fraef2m0cb0m0","pricing_plan_id":"cebpf4jnsgd1na2vs0mg"},{"bike_id":"70e60ad6-ef20-4b17-bf61-dc343f8741d5","system_id":"levelo_inurba_marseille","lat":43.27818,"lon":5.40711,"is_reserved":false,"is_disabled":false,"rental_uris":{"android":"levelo://app?vid=70e60ad6-ef20-4b17-bf61-dc343f8741d5","ios":"levelo://app?vid=70e60ad6-ef20-4b17-bf61-dc343f8741d5"},"vehicle_type_id":"4","last_reported":1738102119,"current_range_meters":39200,"station_id":"ce4bhnh2rcd13ifvqgtg","pricing_plan_id":"cebpf4jnsgd1na2vs0mg"},{"bike_id":"7f762cad-14d3-4378-9c59-c304651b7679","system_id":"levelo_inurba_marseille","lat":43.29574,"lon":5.39949,"is_reserved":false,"is_disabled":true,"rental_uris":{"android":"levelo://app?vid=7f762cad-14d3-4378-9c59-c304651b7679","ios":"levelo://app?vid=7f762cad-14d3-4378-9c59-c304651b7679"},"vehicle_type_id":"4","last_reported":1738102119,"current_range_meters":28000,"station_id":"ce4bh312rcd13ifvqdj0","pricing_plan_id":"cebpf4jnsgd1na2vs0mg"},{"bike_id":"772c38ae-72c4-4555-84c9-637dd33f66b3","system_id":"levelo_inurba_marseille","lat":43.30796,"lon":5.38186,"is_reserved":false,"is_disabled":false,"rental_uris":{"android":"levelo://app?vid=772c38ae-72c4-4555-84c9-637dd33f66b3","ios":"levelo://app?vid=772c38ae-72c4-4555-84c9-637dd33f66b3"},"vehicle_type_id":"4","last_reported":1738102119,"current_range_meters":20800,"station_id":"ce4bgt12rcd13ifvqce0","pricing_plan_id":"cebpf4jnsgd1na2vs0mg"},{"bike_id":"84d39699-f039-4bf6-9aed-f2958a6d0e4f","system_id":"levelo_inurba_marseille","lat":43.27945,"lon":5.41036,"is_reserved":false,"is_disabled":false,"rental_uris":{"android":"levelo://app?vid=84d39699-f039-4bf6-9aed-f2958a6d0e4f","ios":"levelo://app?vid=84d39699-f039-4bf6-9aed-f2958a6d0e4f"},"vehicle_type_id":"4","last_reported":1738102119,"current_range_meters":25600,"station_id":"ce4bhnp2rcd13ifvqh0g","pricing_plan_id":"cebpf4jnsgd1na2vs0mg"},{"bike_id":"a12b22ac-215d-407e-afe9-25d2d23a5540","system_id":"levelo_inurba_marseille","lat":43.32661,"lon":5.40991,"is_reserved":false,"is_disabled":true,"rental_uris":{"android":"levelo://app?vid=a12b22ac-215d-407e-afe9-25d2d23a5540","ios":"levelo://app?vid=a12b22ac-215d-407e-afe9-25d2d23a5540"},"vehicle_type_id":"4","last_reported":1738102119,"current_range_meters":1600,"station_id":"ce4bhpp2rcd13ifvqhgg","pricing_plan_id":"cebpf4jnsgd1na2vs0mg"},