{"last_updated":1716228608,"ttl":30,"version":"2.2","data":{"bikes":[{"bike_id":"06653af9-e17f-4e2b-84e8-23e1042d65e6","system_id":"levelo_inurba_marseille","lat":43.31341,"lon":5.367098,"is_reserved":false,"is_disabled":false,"rental_uris":{"android":"levelo://app?vid=06653af9-e17f-4e2b-84e8-23e1042d65e6","ios":"levelo://app?vid=06653af9-e17f-4e2b-84e8-23e1042d65e6"},"vehicle_type_id":"4","last_reported":1716228608,"current_range_meters":19200,"station_id":"ce4bgr92rcd13ifvqc6g","pricing_plan_id":"cebpf4jnsgd1na2vs0mg"},{"bike_id":"2d57e607-a37c-4491-89fd-f3e94c7f240e","system_id":"levelo_inurba_marseille","lat":43.313391,"lon":5.36706,"is_reserved":false,"is_disabled":false,"rental_uris":{"android":"levelo://app?vid=2d57e607-a37c-4491-89fd-f3e94c7f240e","ios":"levelo://app?vid=2d57e607-a37c-4491-89fd-f3e94c7f240e"},"vehicle_type_id":"4","last_reported":1716228608,"current_range_meters":30800,"station_id":"ce4bgr92rcd13ifvqc6g","pricing_plan_id":"cebpf4jnsgd1na2vs0mg"},{"bike_id":"c12d325b-6678-4f0f-b4fe-7dc561708753","system_id":"levelo_inurba_marseille","lat":43.313649,"lon":5.367185,"is_reserved":false,"is_disabled":false,"rental_uris":{"android":"levelo://app?vid=c12d325b-6678-4f0f-b4fe-7dc561708753","ios":"levelo://app?vid=c12d325b-6678-4f0f-b4fe-7dc561708753"},"vehicle_type_id":"4","last_reported":1716228608,"current_range_meters":23600,"station_id":"ce4bgr92rcd13ifvqc6g","pricing_plan_id":"cebpf4jnsgd1na2vs0mg"},{"bike_id":"daa61f29-b38e-498f-a9aa-0fdedae27b7b","system_id":"levelo_inurba_marseille","lat":43.312239,"lon":5.368562,"is_reserved":false,"is_disabled":false,"rental_uris":{"android":"levelo://app?vid=daa61f29-b38e-498f-a9aa-0fdedae27b7b","ios":"levelo://app?vid=daa61f29-b38e-498f-a9aa-0fdedae27b7b"},"vehicle_type_id":"4","last_reported":1716228608,"current_range_meters":1600,"station_id":"ce4bgl92rcd13ifvqbq0","pricing_plan_id":"cebpf4jnsgd1na2vs0mg"},{"bike_id":"261f641c-11c1-4c9e-b8be-123cafa0ed9c","system_id":"levelo_inurba_marseille","lat":43.311125,"lon":5.377624,"is_reserved":false,"is_disabled":false,"rental_uris":{"android":"levelo://app?vid=261f641c-11c1-4c9e-b8be-123cafa0ed9c","ios":"levelo://app?vid=261f641c-11c1-4c9e-b8be-123cafa0ed9c"},"vehicle_type_id":"4","last_reported":1716228608,"current_range_meters":3200,"station_id":"ce4bgt92rcd13ifvqcg0","pricing_plan_id":"cebpf4jnsgd1na2vs0mg"},{"bike_id":"971147b0-98a0-4743-88f5-cacf88853697","system_id":"levelo_inurba_marseille","lat":43.309076,"lon":5.368465,"is_reserved":false,"is_disabled":false,"rental_uris":{"android":"levelo://app?vid=971147b0-98a0-4743-88f5-cacf88853697","ios":"levelo://app?vid=971147b0-98a0-4743-88f5-cacf88853697"},"vehicle_type_id":"4","last_reported":1716228608,"current_range_meters":1200,"station_id":"ce4bgn92rcd13ifvqbvg","pricing_plan_id":"cebpf4jnsgd1na2vs0mg"},{"bike_id":"79796289-f91e-49e8-8caf-da11381ffe12","system_id":"levelo_inurba_marseille","lat":43.309076,"lon":5.368465,"is_reserved":false,"is_disabled":false,"rental_uris":{"android":"levelo://app?vid=79796289-f91e-49e8-8caf-da11381ffe12","ios":"levelo://app?vid=79796289-f91e-49e8-8caf-da11381ffe12"},"vehicle_type_id":"4","last_reported":1716228608,"current_range_meters":0,"station_id":"ce4bgn92rcd13ifvqbvg","pricing_plan_id":"cebpf4jnsgd1na2vs0mg"},{"bike_id":"c662a90b-2667-4cb1-a408-d3a70db59c26","system_id":"levelo_inurba_marseille","lat":43.309076,"lon":5.368465,"is_reserved":false,"is_disabled":false,"rental_uris":{"android":"levelo://app?vid=c662a90b-2667-4cb1-a408-d3a70db59c26","ios":"levelo://app?vid=c662a90b-2667-4cb1-a408-d3a70db59c26"},"vehicle_type_id":"4","last_reported":1716228608,"current_range_meters":30000,"station_id":"ce4bgn92rcd13ifvqbvg","pricing_plan_id":"cebpf4jnsgd1na2vs0mg"},{"bike_id":"d708bf73-474b-4e0f-8818-399d8592c219","system_id":"levelo_inurba_marseille","lat":43.30898,"lon":5.368451,"is_reserved":false,"is_disabled":false,"rental_uris":{"android":"levelo://app?vid=d708bf73-474b-4e0f-8818-399d8592c219","ios":"levelo://app?vid=d708bf73-474b-4e0f-8818-399d8592c219"},"vehicle_type_id":"4","last_reported":1716228608,"current_range_meters":5200,"station_id":"ce4bgn92rcd13ifvqbvg","pricing_plan_id":"cebpf4jnsgd1na2vs0mg"},{"bike_id":"56f3b279-d1c4-40bb-9f30-958eca5c1d1d","system_id":"levelo_inurba_marseille","lat":43.314811,"lon":5.373103,"is_reserved":false,"is_disabled":false,"rental_uris":{"android":"levelo://app?vid=56f3b279-d1c4-40bb-9f30-958eca5c1d1d","ios":"levelo://app?vid=56f3b279-d1c4-40bb-9f30-958eca5c1d1d"},"vehicle_type_id":"4","last_reported":1716228608,"current_range_meters":800,"station_id":"ce4bgt12rcd13ifvqcd0","pricing_plan_id":"cebpf4jnsgd1na2vs0mg"},{"bike_id":"0713d823-d284-4ea9-94d7-b4f0c6f0ab05","system_id":"levelo_inurba_marseille","lat":43.314811,"lon":5.373103,"is_reserved":false,"is_disabled":false,"rental_uris":{"android":"levelo://app?vid=0713d823-d284-4ea9-94d7-b4f0c6f0ab05","ios":"levelo://app?vid=0713d823-d284-4ea9-94d7-b4f0c6f0ab05"},"vehicle_type_id":"4","last_reported":1716228608,"current_range_meters":5600,"station_id":"ce4bgt12rcd13ifvqcd0","pricing_plan_id":"cebpf4jnsgd1na2vs0mg"},{"bike_id":"6aa56a35-27b9-4bbb-9fb8-8f98d4be8dfe","system_id":"levelo_inurba_marseille","lat":43.314811,"lon":5.373104,"is_reserved":false,"is_disabled":false,"rental_uris":{"android":"levelo://app?vid=6aa56a35-27b9-4bbb-9fb8-8f98d4be8dfe","ios":"levelo://app?vid=6aa56a35-27b9-4bbb-9fb8-8f98d4be8dfe"},"vehicle_type_id":"4","last_reported":1716228608,"current_range_meters":14400,"station_id":"ce4bgt12rcd13ifvqcd0","pricing_plan_id":"cebpf4jnsgd1na2vs0mg"},{"bike_id":"5b098cd5-0830-4cbd-8e04-db0e814f8651","system_id":"levelo_inurba_marseille","lat":43.314811,"lon":5.373103,"is_reserved":false,"is_disabled":false,"rental_uris":{"android":"levelo://app?vid=5b098cd5-0830-4cbd-8e04-db0e814f8651","ios":"levelo://app?vid=5b098cd5-0830-4cbd-8e04-db0e814f8651"},"vehicle_type_id":"4","last_reported":1716228608,"current_range_meters":22000,"station_id":"ce4bgt12rcd13ifvqcd0","pricing_plan_id":"cebpf4jnsgd1na2vs0mg"},{"bike_id":"41d2aec3-964a-470e-ba44-5f876d27faaf","system_id":"levelo_inurba_marseille","lat":43.309034,"lon":5.371783,"is_reserved":false,"is_disabled":false,"rental_uris":{"android":"levelo://app?vid=41d2aec3-964a-470e-ba44-5f876d27faaf","ios":"levelo://app?vid=41d2aec3-964a-470e-ba44-5f876d27faaf"},"vehicle_type_id":"4","last_reported":1716228608,"current_range_meters":0,"station_id":"ce4bguh2rcd13ifvqckg","pricing_plan_id":"cebpf4jnsgd1na2vs0mg"},{"bike_id":"e4632e7a-2deb-48a7-808d-6c5307f12802","system_id":"levelo_inurba_marseille","lat":43.31672,"lon":5.3722,"is_reserved":false,"is_disabled":false,"rental_uris":{"android":"levelo://app?vid=e4632e7a-2deb-48a7-808d-6c5307f12802","ios":"levelo://app?vid=e4632e7a-2deb-48a7-808d-6c5307f12802"},"vehicle_type_id":"4","last_reported":1716228608,"current_range_meters":17600,"station_id":"","pricing_plan_id":"cebpf4jnsgd1na2vs0mg"},{"bike_id":"6e054a2d-fec8-4e6f-85d5-a94481591460","system_id":"levelo_inurba_marseille","lat":43.31653,"lon":5.372929,"is_reserved":false,"is_disabled":false,"rental_uris":{"android":"levelo://app?vid=6e054a2d-fec8-4e6f-85d5-a94481591460","ios":"levelo://app?vid=6e054a2d-fec8-4e6f-85d5-a94481591460"},"vehicle_type_id":"4","last_reported":1716228608,"current_range_meters":30800,"station_id":"","pricing_plan_id":"cebpf4jnsgd1na2vs0mg"},{"bike_id":"33262ae0-cc47-4682-9c1b-6052f999953d","system_id":"levelo_inurba_marseille","lat":43.305368,"lon":5.367343,"is_reserved":false,"is_disabled":false,"rental_uris":{"android":"levelo://app?vid=33262ae0-cc47-4682-9c1b-6052f999953d","ios":"levelo://app?vid=33262ae0-cc47-4682-9c1b-6052f999953d"},"vehicle_type_id":"4","last_reported":1716228608,"current_range_meters":1600,"station_id":"ce4bgrp2rcd13ifvqc9g","pricing_plan_id":"cebpf4jnsgd1na2vs0mg"},{"bike_id":"0e80bedc-06f2-4c92-8f6b-f479e5be3c67","system_id":"levelo_inurba_marseille","lat":43.314811,"lon":5.373103,"is_reserved":false,"is_disabled":false,"rental_uris":{"android":"levelo://app?vid=0e80bedc-06f2-4c92-8f6b-f479e5be3c67","ios":"levelo://app?vid=0e80bedc-06f2-4c92-8f6b-f479e5be3c67"},"vehicle_type_id":"4","last_reported":1716228608,"current_range_meters":5600,"station_id":"ce4bgt12rcd13ifvqcd0","pricing_plan_id":"cebpf4jnsgd1na2vs0mg"},{"bike_id":"d50ac615-3fb0-4570-9667-9099c4fdee1f","system_id":"levelo_inurba_marseille","lat":43.307945,"lon":5.376487,"is_reserved":false,"is_disabled":false,"rental_uris":{"android":"levelo://app?vid=d50ac615-3fb0-4570-9667-9099c4fdee1f","ios":"levelo://app?vid=d50ac615-3fb0-4570-9667-9099c4fdee1f"},"vehicle_type_id":"4","last_reported":1716228608,"current_range_meters":10800,"station_id":"ce4bgv92rcd13ifvqcq0","pricing_plan_id":"cebpf4jnsgd1na2vs0mg"},{"bike_id":"32416bf5-95b5-4232-ab40-8c6713fb100a","system_id":"levelo_inurba_marseille","lat":43.307945,"lon":5.376487,"is_reserved":false,"is_disabled":false,"rental_uris":{"android":"levelo://app?vid=32416bf5-95b5-4232-ab40-8c6713fb100a","ios":"levelo://app?vid=32416bf5-95b5-4232-ab40-8c6713fb100a"},"vehicle_type_id":"4","last_reported":1716228608,"current_range_meters":9600,"station_id":"ce4bgv92rcd13ifvqcq0","pricing_plan_id":"cebpf4jnsgd1na2vs0mg"},{"bike_id":"4aed50b3-14e6-4c16-bf4a-562412ee672c","system_id":"levelo_inurba_marseille","lat":43.307945,"lon":5.376487,"is_reserved":false,"is_disabled":false,"rental_uris":{"android":"levelo://app?vid=4aed50b3-14e6-4c16-bf4a-562412ee672c","ios":"levelo://app?vid=4aed50b3-14e6-4c16-bf4a-562412ee672c"},"vehicle_type_id":"4","last_reported":1716228608,"current_range_meters":8000,"station_id":"ce4bgv92rcd13ifvqcq0","pricing_plan_id":"cebpf4jnsgd1na2vs0mg"},{"bike_id":"64923f40-89d5-4795-bf16-e5419f1d81d2","system_id":"levelo_inurba_marseille","lat":43.307945,"lon":5.376487,"is_reserved":false,"is_disabled":false,"rental_uris":{"android":"levelo://app?vid=64923f40-89d5-4795-bf16-e5419f1d81d2","ios":"levelo://app?vid=64923f40-89d5-4795-bf16-e5419f1d81d2"},"vehicle_type_id":"4","last_reported":1716228608,"current_range_meters":15200,"station_id":"ce4bgv92rcd13ifvqcq0","pricing_plan_id":"cebpf4jnsgd1na2vs0mg"},{"bike_id":"0228e0b2-26e6-44a7-a7c5-d840e01c3c89","system_id":"levelo_inurba_marseille","lat":43.307945,"lon":5.376487,"is_reserved":false,"is_disabled":false,"rental_uris":{"android":"levelo://app?vid=0228e0b2-26e6-44a7-a7c5-d840e01c3c89","ios":"levelo://app?vid=0228e0b2-26e6-44a7-a7c5-d840e01c3c89"},"vehicle_type_id":"4","last_reported":1716228608,"current_range_meters":15600,"station_id":"ce4bgv92rcd13ifvqcq0","pricing_plan_id":"cebpf4jnsgd1na2vs0mg"},{"bike_id":"77f7d561-427e-4aab-baab-669a79cc52af","system_id":"levelo_inurba_marseille","lat":43.30319,"lon":5.36489,"is_reserved":false,"is_disabled":false,"rental_uris":{"android":"levelo://app?vid=77f7d561-427e-4aab-baab-669a79cc52af","ios":"levelo://app?vid=77f7d561-427e-4aab-baab-669a79cc52af"},"vehicle_type_id":"4","last_reported":1716228608,"current_range_meters":17600,"station_id":"","pricing_plan_id":"cebpf4jnsgd1na2vs0mg"},{"bike_id":"0721a754-1972-4fd1-8091-cb74731eb7ce","system_id":"levelo_inurba_marseille","lat":43.30304,"lon":5.368987,"is_reserved":false,"is_disabled":false,"rental_uris":{"android":"levelo://app?vid=0721a754-1972-4fd1-8091-cb74731eb7ce","ios":"levelo://app?vid=0721a754-1972-4fd1-8091-cb74731eb7ce"},"vehicle_type_id":"4","last_reported":1716228608,"current_range_meters":11200,"station_id":"ce4bgqh2rcd13ifvqc5g","pricing_plan_id":"cebpf4jnsgd1na2vs0mg"},{"bike_id":"fbdb693f-eb78-418d-ba26-3c9dc3dc2d1c","system_id":"levelo_inurba_marseille","lat":43.303046,"lon":5.368981,"is_reserved":false,"is_disabled":false,"rental_uris":{"android":"levelo://app?vid=fbdb693f-eb78-418d-ba26-3c9dc3dc2d1c","ios":"levelo://app?vid=fbdb693f-eb78-418d-ba26-3c9dc3dc2d1c"},"vehicle_type_id":"4","last_reported":1716228608,"current_range_meters":15200,"station_id":"ce4bgqh2rcd13ifvqc5g","pricing_plan_id":"cebpf4jnsgd1na2vs0mg"},{"bike_id":"79f6ce24-1393-4167-b356-96aaa14637d9","system_id":"levelo_inurba_marseille","lat":43.316367,"lon":5.379877,"is_reserved":false,"is_disabled":false,"rental_uris":{"android":"levelo://app?vid=79f6ce24-1393-4167-b356-96aaa14637d9","ios":"levelo://app?vid=79f6ce24-1393-4167-b356-96aaa14637d9"},"vehicle_type_id":"4","last_reported":1716228608,"current_range_meters":14400,"station_id":"","pricing_plan_id":"cebpf4jnsgd1na2vs0mg"},{"bike_id":"b811c45d-f527-42ea-859f-f4ad14be1967","system_id":"levelo_inurba_marseille","lat":43.301939,"lon":5.366286,"is_reserved":false,"is_disabled":false,"rental_uris":{"android":"levelo://app?vid=b811c45d-f527-42ea-859f-f4ad14be1967","ios":"levelo://app?vid=b811c45d-f527-42ea-859f-f4ad14be1967"},"vehicle_type_id":"4","last_reported":1716228608,"current_range_meters":3600,"station_id":"ce4bgrh2rcd13ifvqc8g","pricing_plan_id":"cebpf4jnsgd1na2vs0mg"},{"bike_id":"a670be5a-ab1c-4412-bf6b-38c4392f6fe0","system_id":"levelo_inurba_marseille","lat":43.301939,"lon":5.366286,"is_reserved":false,"is_disabled":false,"rental_uris":{"android":"levelo://app?vid=a670be5a-ab1c-4412-bf6b-38c4392f6fe0","ios":"levelo://app?vid=a670be5a-ab1c-4412-bf6b-38c4392f6fe0"},"vehicle_type_id":"4","last_reported":1716228608,"current_range_meters":24000,"station_id":"ce4bgrh2rcd13ifvqc8g","pricing_plan_id":"cebpf4jnsgd1na2vs0mg"},{"bike_id":"58dbd84f-2d92-4e09-9fa4-28bb801b229a","system_id":"levelo_inurba_marseille","lat":43.308012,"lon":5.381511,"is_reserved":false,"is_disabled":false,"rental_uris":{"android":"levelo://app?vid=58dbd84f-2d92-4e09-9fa4-28bb801b229a","ios":"levelo://app?vid=58dbd84f-2d92-4e09-9fa4-28bb801b229a"},"vehicle_type_id":"4","last_reported":1716228608,"current_range_meters":0,"station_id":"ce4bgt12rcd13ifvqce0","pricing_plan_id":"cebpf4jnsgd1na2vs0mg"},{"bike_id":"f5a40247-d87b-4952-b902-b0945ddc366c","system_id":"levelo_inurba_marseille","lat":43.308012,"lon":5.381511,"is_reserved":false,"is_disabled":false,"rental_uris":{"android":"levelo://app?vid=f5a40247-d87b-4952-b902-b0945ddc366c","ios":"levelo://app?vid=f5a40247-d87b-4952-b902-b0945ddc366c"},"vehicle_type_id":"4","last_reported":1716228608,"current_range_meters":3200,"station_id":"ce4bgt12rcd13ifvqce0","pricing_plan_id":"cebpf4jnsgd1na2vs0mg"},{"bike_id":"12b3dea3-5b35-4d50-bd1a-1e2e6daa6196","system_id":"levelo_inurba_marseille","lat":43.308012,"lon":5.381511,"is_reserved":false,"is_disabled":false,"rental_uris":{"android":"levelo://app?vid=12b3dea3-5b35-4d50-bd1a-1e2e6daa6196","ios":"levelo://app?vid=12b3dea3-5b35-4d50-bd1a-1e2e6daa6196"},"vehicle_type_id":"4","last_reported":1716228608,"current_range_meters":27200,"station_id":"ce4bgt12rcd13ifvqce0","pricing_plan_id":"cebpf4jnsgd1na2vs0mg"},{"bike_id":"ba93a08d-f7fd-4ff0-a247-ece5244a0341","system_id":"levelo_inurba_marseille","lat":43.308012,"lon":5.381511,"is_reserved":false,"is_disabled":false,"rental_uris":{"android":"levelo://app?vid=ba93a08d-f7fd-4ff0-a247-ece5244a0341","ios":"levelo://app?vid=ba93a08d-f7fd-4ff0-a247-ece5244a0341"},"vehicle_type_id":"4","last_reported":1716228608,"current_range_meters":20800,"station_id":"ce4bgt12rcd13ifvqce0","pricing_plan_id":"cebpf4jnsgd1na2vs0mg"},{"bike_id":"75ab9317-d2aa-4161-a85e-14f2795f58c7","system_id":"levelo_inurba_marseille","lat":43.324563,"lon":5.366292,"is_reserved":false,"is_disabled":false,"rental_uris":{"android":"levelo://app?vid=75ab9317-d2aa-4161-a85e-14f2795f58c7","ios":"levelo://app?vid=75ab9317-d2aa-4161-a85e-14f2795f58c7"},"vehicle_type_id":"4","last_reported":1716228608,"current_range_meters":13200,"station_id":"ce4bhs12rcd13ifvqhvg","pricing_plan_id":"cebpf4jnsgd1na2vs0mg"},{"bike_id":"02f7daf2-737e-4fc8-a62d-4adcaa4f6fc0","system_id":"levelo_inurba_marseille","lat":43.308012,"lon":5.381511,"is_reserved":false,"is_disabled":false,"rental_uris":{"android":"levelo://app?vid=02f7daf2-737e-4fc8-a62d-4adcaa4f6fc0","ios":"levelo://app?vid=02f7daf2-737e-4fc8-a62d-4adcaa4f6fc0"},"vehicle_type_id":"4","last_reported":1716228608,"current_range_meters":24000,"station_id":"ce4bgt12rcd13ifvqce0","pricing_plan_id":"cebpf4jnsgd1na2vs0mg"},{"bike_id":"03b2d0ac-4855-463a-a2f0-be21041dc802","system_id":"levelo_inurba_marseille","lat":43.304606,"lon":5.379026,"is_reserved":false,"is_disabled":false,"rental_uris":{"android":"levelo://app?vid=03b2d0ac-4855-463a-a2f0-be21041dc802","ios":"levelo://app?vid=03b2d0ac-4855-463a-a2f0-be21041dc802"},"vehicle_type_id":"4","last_reported":1716228608,"current_range_meters":28000,"station_id":"ce4bgup2rcd13ifvqcn0","pricing_plan_id":"cebpf4jnsgd1na2vs0mg"},{"bike_id":"db815a5c-db8b-4502-8dae-0b38f82a5306","system_id":"levelo_inurba_marseille","lat":43.304606,"lon":5.379026,"is_reserved":false,"is_disabled":false,"rental_uris":{"android":"levelo://app?vid=db815a5c-db8b-4502-8dae-0b38f82a5306","ios":"levelo://app?vid=db815a5c-db8b-4502-8dae-0b38f82a5306"},"vehicle_type_id":"4","last_reported":1716228608,"current_range_meters":10000,"station_id":"ce4bgup2rcd13ifvqcn0","pricing_plan_id":"cebpf4jnsgd1na2vs0mg"},{"bike_id":"6f1ba964-bda1-4be4-9d0c-b661fa143980","system_id":"levelo_inurba_marseille","lat":43.324771,"lon":5.36557,"is_reserved":false,"is_disabled":false,"rental_uris":{"android":"levelo://app?vid=6f1ba964-bda1-4be4-9d0c-b661fa143980","ios":"levelo://app?vid=6f1ba964-bda1-4be4-9d0c-b661fa143980"},"vehicle_type_id":"4","last_reported":1716228608,"current_range_meters":0,"station_id":"ce4bhs12rcd13ifvqhvg","pricing_plan_id":"cebpf4jnsgd1na2vs0mg"},{"bike_id":"45f3e636-9264-4745-a0d6-3a8db05764ae","system_id":"levelo_inurba_marseille","lat":43.300739,"lon":5.36524,"is_reserved":false,"is_disabled":false,"rental_uris":{"android":"levelo://app?vid=45f3e636-9264-4745-a0d6-3a8db05764ae","ios":"levelo://app?vid=45f3e636-9264-4745-a0d6-3a8db05764ae"},"vehicle_type_id":"4","last_reported":1716228608,"current_range_meters":6000,"station_id":"","pricing_plan_id":"cebpf4jnsgd1na2vs0mg"},{"bike_id":"e47bcb64-aec4-4fcd-96fc-83ec348237d4","system_id":"levelo_inurba_marseille","lat":43.324771,"lon":5.36557,"is_reserved":false,"is_disabled":false,"rental_uris":{"android":"levelo://app?vid=e47bcb64-aec4-4fcd-96fc-83ec348237d4","ios":"levelo://app?vid=e47bcb64-aec4-4fcd-96fc-83ec348237d4"},"vehicle_type_id":"4","last_reported":1716228608,"current_range_meters":21200,"station_id":"ce4bhs12rcd13ifvqhvg","pricing_plan_id":"cebpf4jnsgd1na2vs0mg"},{"bike_id":"b99aa1e8-09cd-4123-9ef7-7c407553b0f6","system_id":"levelo_inurba_marseille","lat":43.324771,"lon":5.36557,"is_reserved":false,"is_disabled":false,"rental_uris":{"android":"levelo://app?vid=b99aa1e8-09cd-4123-9ef7-7c407553b0f6","ios":"levelo://app?vid=b99aa1e8-09cd-4123-9ef7-7c407553b0f6"},"vehicle_type_id":"4","last_reported":1716228608,"current_range_meters":18800,"station_id":"ce4bhs12rcd13ifvqhvg","pricing_plan_id":"cebpf4jnsgd1na2vs0mg"},{"bike_id":"15619fa8-6a3e-49a4-a4eb-33ce7d274f9c","system_id":"levelo_inurba_marseille","lat":43.310804,"lon":5.38359,"is_reserved":false,"is_disabled":false,"rental_uris":{"android":"levelo://app?vid=15619fa8-6a3e-49a4-a4eb-33ce7d274f9c","ios":"levelo://app?vid=15619fa8-6a3e-49a4-a4eb-33ce7d274f9c"},"vehicle_type_id":"4","last_reported":1716228608,"current_range_meters":20000,"station_id":"ce4bgv92rcd13ifvqcr0","pricing_plan_id":"cebpf4jnsgd1na2vs0mg"},{"bike_id":"e44b5bb4-546d-4c2b-aa15-036e616ec8d8","system_id":"levelo_inurba_marseille","lat":43.310804,"lon":5.38359,"is_reserved":false,"is_disabled":false,"rental_uris":{"android":"levelo://app?vid=e44b5bb4-546d-4c2b-aa15-036e616ec8d8","ios":"levelo://app?vid=e44b5bb4-546d-4c2b-aa15-036e616ec8d8"},"vehicle_type_id":"4","last_reported":1716228608,"current_range_meters":14800,"station_id":"ce4bgv92rcd13ifvqcr0","pricing_plan_id":"cebpf4jnsgd1na2vs0mg"},{"bike_id":"8d19f1f7-399c-4660-a909-af251e74e49d","system_id":"levelo_inurba_marseille","lat":43.310804,"lon":5.38359,"is_reserved":false,"is_disabled":false,"rental_uris":{"android":"levelo://app?vid=8d19f1f7-399c-4660-a909-af251e74e49d","ios":"levelo://app?vid=8d19f1f7-399c-4660-a909-af251e74e49d"},"vehicle_type_id":"4","last_reported":1716228608,"current_range_meters":2800,"station_id":"ce4bgv92rcd13ifvqcr0","pricing_plan_id":"cebpf4jnsgd1na2vs0mg"},{"bike_id":"64ac31c0-9fd4-45a3-b155-d4ce7b4f67ae","system_id":"levelo_inurba_marseille","lat":43.30143,"lon":5.37413,"is_reserved":false,"is_disabled":false,"rental_uris":{"android":"levelo://app?vid=64ac31c0-9fd4-45a3-b155-d4ce7b4f67ae","ios":"levelo://app?vid=64ac31c0-9fd4-45a3-b155-d4ce7b4f67ae"},"vehicle_type_id":"4","last_reported":1716228608,"current_range_meters":28000,"station_id":"ce4bgs92rcd13ifvqcc0","pricing_plan_id":"cebpf4jnsgd1na2vs0mg"},{"bike_id":"b08d8d82-e351-4dc8-85b1-e2e59014b0ae","system_id":"levelo_inurba_marseille","lat":43.302784,"lon":5.377158,"is_reserved":false,"is_disabled":false,"rental_uris":{"android":"levelo://app?vid=b08d8d82-e351-4dc8-85b1-e2e59014b0ae","ios":"levelo://app?vid=b08d8d82-e351-4dc8-85b1-e2e59014b0ae"},"vehicle_type_id":"4","last_reported":1716228608,"current_range_meters":0,"station_id":"ce4bguh2rcd13ifvqcj0","pricing_plan_id":"cebpf4jnsgd1na2vs0mg"},{"bike_id":"1fcfe788-1755-4416-b984-b44808552ee7","system_id":"levelo_inurba_marseille","lat":43.302784,"lon":5.377158,"is_reserved":false,"is_disabled":false,"rental_uris":{"android":"levelo://app?vid=1fcfe788-1755-4416-b984-b44808552ee7","ios":"levelo://app?vid=1fcfe788-1755-4416-b984-b44808552ee7"},"vehicle_type_id":"4","last_reported":1716228608,"current_range_meters":20800,"station_id":"ce4bguh2rcd13ifvqcj0","pricing_plan_id":"cebpf4jnsgd1na2vs0mg"},{"bike_id":"25637a46-59e5-476d-ab77-227bc9c43f67","system_id":"levelo_inurba_marseille","lat":43.30143,"lon":5.37413,"is_reserved":false,"is_disabled":false,"rental_uris":{"android":"levelo://app?vid=25637a46-59e5-476d-ab77-227bc9c43f67","ios":"levelo://app?vid=25637a46-59e5-476d-ab77-227bc9c43f67"},"vehicle_type_id":"4","last_reported":1716228608,"current_range_meters":21200,"station_id":"ce4bgs92rcd13ifvqcc0","pricing_plan_id":"cebpf4jnsgd1na2vs0mg"},{"bike_id":"ad80f050-caaf-4b31-b592-22a6396f8efb","system_id":"levelo_inurba_marseille","lat":43.301429,"lon":5.37413,"is_reserved":false,"is_disabled":false,"rental_uris":{"android":"levelo://app?vid=ad80f050-caaf-4b31-b592-22a6396f8efb","ios":"levelo://app?vid=ad80f050-caaf-4b31-b592-22a6396f8efb"},"vehicle_type_id":"4","last_reported":1716228608,"current_range_meters":12000,"station_id":"ce4bgs92rcd13ifvqcc0","pricing_plan_id":"cebpf4jnsgd1na2vs0mg"},{"bike_id":"0d7aa2ea-b87e-409c-873c-8fd16113138d","system_id":"levelo_inurba_marseille","lat":43.319935,"lon":5.381699,"is_reserved":false,"is_disabled":false,"rental_uris":{"android":"levelo://app?vid=0d7aa2ea-b87e-409c-873c-8fd16113138d","ios":"levelo://app?vid=0d7aa2ea-b87e-409c-873c-8fd16113138d"},"vehicle_type_id":"4","last_reported":1716228608,"current_range_meters":800,"station_id":"ce4bhr12rcd13ifvqhpg","pricing_plan_id":"cebpf4jnsgd1na2vs0mg"},{"bike_id":"55f01333-6e39-4e10-bbb2-71276611e2d1","system_id":"levelo_inurba_marseille","lat":43.319935,"lon":5.381699,"is_reserved":false,"is_disabled":false,"rental_uris":{"android":"levelo://app?vid=55f01333-6e39-4e10-bbb2-71276611e2d1","ios":"levelo://app?vid=55f01333-6e39-4e10-bbb2-71276611e2d1"},"vehicle_type_id":"4","last_reported":1716228608,"current_range_meters":5600,"station_id":"ce4bhr12rcd13ifvqhpg","pricing_plan_id":"cebpf4jnsgd1na2vs0mg"},{"bike_id":"5ca22c34-c73f-4578-a136-43cea73db249","system_id":"levelo_inurba_marseille","lat":43.319935,"lon":5.381699,"is_reserved":false,"is_disabled":false,"rental_uris":{"android":"levelo://app?vid=5ca22c34-c73f-4578-a136-43cea73db249","ios":"levelo://app?vid=5ca22c34-c73f-4578-a136-43cea73db249"},"vehicle_type_id":"4","last_reported":1716228608,"current_range_meters":4800,"station_id":"ce4bhr12rcd13ifvqhpg","pricing_plan_id":"cebpf4jnsgd1na2vs0mg"},{"bike_id":"36163bcc-616c-4226-bb21-5a5729e80922","system_id":"levelo_inurba_marseille","lat":43.301429,"lon":5.37413,"is_reserved":false,"is_disabled":false,"rental_uris":{"android":"levelo://app?vid=36163bcc-616c-4226-bb21-5a5729e80922","ios":"levelo://app?vid=36163bcc-616c-4226-bb21-5a5729e80922"},"vehicle_type_id":"4","last_reported":1716228608,"current_range_meters":5600,"station_id":"ce4bgs92rcd13ifvqcc0","pricing_plan_id":"cebpf4jnsgd1na2vs0mg"},{"bike_id":"8bee0baa-dad9-4b21-bd9c-610860cfb183","system_id":"levelo_inurba_marseille","lat":43.313571,"lon":5.384829,"is_reserved":false,"is_disabled":false,"rental_uris":{"android":"levelo://app?vid=8bee0baa-dad9-4b21-bd9c-610860cfb183","ios":"levelo://app?vid=8bee0baa-dad9-4b21-bd9c-610860cfb183"},"vehicle_type_id":"4","last_reported":1716228608,"current_range_meters":22000,"station_id":"ce4bgt92rcd13ifvqcf0","pricing_plan_id":"cebpf4jnsgd1na2vs0mg"},{"bike_id":"5f546e44-1be1-436d-94cf-4715b29e40c4","system_id":"levelo_inurba_marseille","lat":43.313571,"lon":5.384829,"is_reserved":false,"is_disabled":false,"rental_uris":{"android":"levelo://app?vid=5f546e44-1be1-436d-94cf-4715b29e40c4","ios":"levelo://app?vid=5f546e44-1be1-436d-94cf-4715b29e40c4"},"vehicle_type_id":"4","last_reported":1716228608,"current_range_meters":6800,"station_id":"ce4bgt92rcd13ifvqcf0","pricing_plan_id":"cebpf4jnsgd1na2vs0mg"},{"bike_id":"d811ae23-9564-47c1-9249-10f0f4eb173d","system_id":"levelo_inurba_marseille","lat":43.299222,"lon":5.365554,"is_reserved":false,"is_disabled":false,"rental_uris":{"android":"levelo://app?vid=d811ae23-9564-47c1-9249-10f0f4eb173d","ios":"levelo://app?vid=d811ae23-9564-47c1-9249-10f0f4eb173d"},"vehicle_type_id":"4","last_reported":1716228608,"current_range_meters":10000,"station_id":"ce4bgm92rcd13ifvqbr0","pricing_plan_id":"cebpf4jnsgd1na2vs0mg"},{"bike_id":"171796bc-4a49-459e-8a4b-76b31eaf7d65","system_id":"levelo_inurba_marseille","lat":43.299666,"lon":5.371756,"is_reserved":false,"is_disabled":false,"rental_uris":{"android":"levelo://app?vid=171796bc-4a49-459e-8a4b-76b31eaf7d65","ios":"levelo://app?vid=171796bc-4a49-459e-8a4b-76b31eaf7d65"},"vehicle_type_id":"4","last_reported":1716228608,"current_range_meters":5200,"station_id":"ce4bgr92rcd13ifvqc7g","pricing_plan_id":"cebpf4jnsgd1na2vs0mg"},{"bike_id":"5cd7b7f2-6e1e-4904-a7c0-a444acddac9a","system_id":"levelo_inurba_marseille","lat":43.313571,"lon":5.384829,"is_reserved":false,"is_disabled":false,"rental_uris":{"android":"levelo://app?vid=5cd7b7f2-6e1e-4904-a7c0-a444acddac9a","ios":"levelo://app?vid=5cd7b7f2-6e1e-4904-a7c0-a444acddac9a"},"vehicle_type_id":"4","last_reported":1716228608,"current_range_meters":3200,"station_id":"ce4bgt92rcd13ifvqcf0","pricing_plan_id":"cebpf4jnsgd1na2vs0mg"},{"bike_id":"e8b9fb19-89bd-4d6a-a7b3-3faed4ec4755","system_id":"levelo_inurba_marseille","lat":43.29848,"lon":5.36269,"is_reserved":false,"is_disabled":false,"rental_uris":{"android":"levelo://app?vid=e8b9fb19-89bd-4d6a-a7b3-3faed4ec4755","ios":"levelo://app?vid=e8b9fb19-89bd-4d6a-a7b3-3faed4ec4755"},"vehicle_type_id":"4","last_reported":1716228608,"current_range_meters":26800,"station_id":"ce4bgpp2rcd13ifvqc3g","pricing_plan_id":"cebpf4jnsgd1na2vs0mg"},{"bike_id":"dc565c68-fbd4-4615-a725-5fc3b4d875c3","system_id":"levelo_inurba_marseille","lat":43.305364,"lon":5.384119,"is_reserved":false,"is_disabled":false,"rental_uris":{"android":"levelo://app?vid=dc565c68-fbd4-4615-a725-5fc3b4d875c3","ios":"levelo://app?vid=dc565c68-fbd4-4615-a725-5fc3b4d875c3"},"vehicle_type_id":"4","last_reported":1716228608,"current_range_meters":4000,"station_id":"ce4bgg92rcd13ifvqb30","pricing_plan_id":"cebpf4jnsgd1na2vs0mg"},{"bike_id":"ed492a4e-944e-43b3-bd26-4581a8e6f7a8","system_id":"levelo_inurba_marseille","lat":43.297794,"lon":5.370888,"is_reserved":false,"is_disabled":false,"rental_uris":{"android":"levelo://app?vid=ed492a4e-944e-43b3-bd26-4581a8e6f7a8","ios":"levelo://app?vid=ed492a4e-944e-43b3-bd26-4581a8e6f7a8"},"vehicle_type_id":"4","last_reported":1716228608,"current_range_meters":30000,"station_id":"ce4bgop2rcd13ifvqc1g","pricing_plan_id":"cebpf4jnsgd1na2vs0mg"},{"bike_id":"4db12bb2-047c-428a-addf-22fa2d72f822","system_id":"levelo_inurba_marseille","lat":43.297794,"lon":5.370888,"is_reserved":false,"is_disabled":false,"rental_uris":{"android":"levelo://app?vid=4db12bb2-047c-428a-addf-22fa2d72f822","ios":"levelo://app?vid=4db12bb2-047c-428a-addf-22fa2d72f822"},"vehicle_type_id":"4","last_reported":1716228608,"current_range_meters":30400,"station_id":"ce4bgop2rcd13ifvqc1g","pricing_plan_id":"cebpf4jnsgd1na2vs0mg"},{"bike_id":"ca26142b-3189-488d-be31-bc7ce2731b4c","system_id":"levelo_inurba_marseille","lat":43.29529,"lon":5.385581,"is_reserved":false,"is_disabled":false,"rental_uris":{"android":"levelo://app?vid=ca26142b-3189-488d-be31-bc7ce2731b4c","ios":"levelo://app?vid=ca26142b-3189-488d-be31-bc7ce2731b4c"},"vehicle_type_id":"4","last_reported":1716228608,"current_range_meters":11200,"station_id":"ce4bgih2rcd13ifvqba0","pricing_plan_id":"cebpf4jnsgd1na2vs0mg"},{"bike_id":"04b3bd69-520d-4b77-a1dc-7eea88528e9c","system_id":"levelo_inurba_marseille","lat":43.25102,"lon":5.403214,"is_reserved":false,"is_disabled":false,"rental_uris":{"android":"levelo://app?vid=04b3bd69-520d-4b77-a1dc-7eea88528e9c","ios":"levelo://app?vid=04b3bd69-520d-4b77-a1dc-7eea88528e9c"},"vehicle_type_id":"4","last_reported":1716228608,"current_range_meters":13200,"station_id":"ce4bhlh2rcd13ifvqgig","pricing_plan_id":"cebpf4jnsgd1na2vs0mg"},{"bike_id":"d39db37c-9f78-4b03-a1c5-3ec323bb42fe","system_id":"levelo_inurba_marseille","lat":43.32288,"lon":5.38275,"is_reserved":false,"is_disabled":false,"rental_uris":{"android":"levelo://app?vid=d39db37c-9f78-4b03-a1c5-3ec323bb42fe","ios":"levelo://app?vid=d39db37c-9f78-4b03-a1c5-3ec323bb42fe"},"vehicle_type_id":"4","last_reported":1716228608,"current_range_meters":5600,"station_id":"ce4bhr12rcd13ifvqhqg","pricing_plan_id":"cebpf4jnsgd1na2vs0mg"},{"bike_id":"16f66172-cfd1-4966-8e04-6218a5cde7c9","system_id":"levelo_inurba_marseille","lat":43.322888,"lon":5.382765,"is_reserved":false,"is_disabled":false,"rental_uris":{"android":"levelo://app?vid=16f66172-cfd1-4966-8e04-6218a5cde7c9","ios":"levelo://app?vid=16f66172-cfd1-4966-8e04-6218a5cde7c9"},"vehicle_type_id":"4","last_reported":1716228608,"current_range_meters":800,"station_id":"ce4bhr12rcd13ifvqhqg","pricing_plan_id":"cebpf4jnsgd1na2vs0mg"},{"bike_id":"c67fe492-8c66-4e0f-b450-e2efa3b5948a","system_id":"levelo_inurba_marseille","lat":43.322872,"lon":5.382756,"is_reserved":false,"is_disabled":false,"rental_uris":{"android":"levelo://app?vid=c67fe492-8c66-4e0f-b450-e2efa3b5948a","ios":"levelo://app?vid=c67fe492-8c66-4e0f-b450-e2efa3b5948a"},"vehicle_type_id":"4","last_reported":1716228608,"current_range_meters":31200,"station_id":"ce4bhr12rcd13ifvqhqg","pricing_plan_id":"cebpf4jnsgd1na2vs0mg"},{"bike_id":"e99c1413-e6f6-402a-958a-c683f49aed10","system_id":"levelo_inurba_marseille","lat":43.297163,"lon":5.365866,"is_reserved":false,"is_disabled":false,"rental_uris":{"android":"levelo://app?vid=e99c1413-e6f6-402a-958a-c683f49aed10","ios":"levelo://app?vid=e99c1413-e6f6-402a-958a-c683f49aed10"},"vehicle_type_id":"4","last_reported":1716228608,"current_range_meters":11200,"station_id":"ce4bgn12rcd13ifvqbt0","pricing_plan_id":"cebpf4jnsgd1na2vs0mg"},{"bike_id":"96be48d4-83f2-4ac0-be05-cabccec59de6","system_id":"levelo_inurba_marseille","lat":43.297163,"lon":5.365866,"is_reserved":false,"is_disabled":false,"rental_uris":{"android":"levelo://app?vid=96be48d4-83f2-4ac0-be05-cabccec59de6","ios":"levelo://app?vid=96be48d4-83f2-4ac0-be05-cabccec59de6"},"vehicle_type_id":"4","last_reported":1716228608,"current_range_meters":0,"station_id":"ce4bgn12rcd13ifvqbt0","pricing_plan_id":"cebpf4jnsgd1na2vs0mg"},{"bike_id":"38c95144-a004-4722-ac64-855d711d13e3","system_id":"levelo_inurba_marseille","lat":43.29573,"lon":5.367355,"is_reserved":false,"is_disabled":false,"rental_uris":{"android":"levelo://app?vid=38c95144-a004-4722-ac64-855d711d13e3","ios":"levelo://app?vid=38c95144-a004-4722-ac64-855d711d13e3"},"vehicle_type_id":"4","last_reported":1716228608,"current_range_meters":2000,"station_id":"ce4bgph2rcd13ifvqc2g","pricing_plan_id":"cebpf4jnsgd1na2vs0mg"},{"bike_id":"6ac192c4-45a3-4f5b-a7e1-82d31d08f855","system_id":"levelo_inurba_marseille","lat":43.296921,"lon":5.376579,"is_reserved":false,"is_disabled":false,"rental_uris":{"android":"levelo://app?vid=6ac192c4-45a3-4f5b-a7e1-82d31d08f855","ios":"levelo://app?vid=6ac192c4-45a3-4f5b-a7e1-82d31d08f855"},"vehicle_type_id":"4","last_reported":1716228608,"current_range_meters":4400,"station_id":"ce4bgkh2rcd13ifvqbl0","pricing_plan_id":"cebpf4jnsgd1na2vs0mg"},{"bike_id":"fc222281-0e21-423b-9e22-a43c1e466801","system_id":"levelo_inurba_marseille","lat":43.296921,"lon":5.376579,"is_reserved":false,"is_disabled":false,"rental_uris":{"android":"levelo://app?vid=fc222281-0e21-423b-9e22-a43c1e466801","ios":"levelo://app?vid=fc222281-0e21-423b-9e22-a43c1e466801"},"vehicle_type_id":"4","last_reported":1716228608,"current_range_meters":20400,"station_id":"ce4bgkh2rcd13ifvqbl0","pricing_plan_id":"cebpf4jnsgd1na2vs0mg"},{"bike_id":"29874e61-b4bb-4dc3-9a75-43e214f827f6","system_id":"levelo_inurba_marseille","lat":43.309038,"lon":5.396546,"is_reserved":false,"is_disabled":false,"rental_uris":{"android":"levelo://app?vid=29874e61-b4bb-4dc3-9a75-43e214f827f6","ios":"levelo://app?vid=29874e61-b4bb-4dc3-9a75-43e214f827f6"},"vehicle_type_id":"4","last_reported":1716228608,"current_range_meters":18400,"station_id":"ce4bh012rcd13ifvqcv0","pricing_plan_id":"cebpf4jnsgd1na2vs0mg"},{"bike_id":"b17e1bc8-c6c6-4ba0-829c-04007a16d395","system_id":"levelo_inurba_marseille","lat":43.296935,"lon":5.376544,"is_reserved":false,"is_disabled":false,"rental_uris":{"android":"levelo://app?vid=b17e1bc8-c6c6-4ba0-829c-04007a16d395","ios":"levelo://app?vid=b17e1bc8-c6c6-4ba0-829c-04007a16d395"},"vehicle_type_id":"4","last_reported":1716228608,"current_range_meters":20400,"station_id":"ce4bgkh2rcd13ifvqbl0","pricing_plan_id":"cebpf4jnsgd1na2vs0mg"},{"bike_id":"1c0dddf4-b2c4-4147-8b01-7fe2126e5684","system_id":"levelo_inurba_marseille","lat":43.296921,"lon":5.376579,"is_reserved":false,"is_disabled":false,"rental_uris":{"android":"levelo://app?vid=1c0dddf4-b2c4-4147-8b01-7fe2126e5684","ios":"levelo://app?vid=1c0dddf4-b2c4-4147-8b01-7fe2126e5684"},"vehicle_type_id":"4","last_reported":1716228608,"current_range_meters":3200,"station_id":"ce4bgkh2rcd13ifvqbl0","pricing_plan_id":"cebpf4jnsgd1na2vs0mg"},{"bike_id":"c5a091e5-ebbb-418f-9039-b317fabf7ae5","system_id":"levelo_inurba_marseille","lat":43.299028,"lon":5.381509,"is_reserved":false,"is_disabled":false,"rental_uris":{"android":"levelo://app?vid=c5a091e5-ebbb-418f-9039-b317fabf7ae5","ios":"levelo://app?vid=c5a091e5-ebbb-418f-9039-b317fabf7ae5"},"vehicle_type_id":"4","last_reported":1716228608,"current_range_meters":400,"station_id":"ce4bgj12rcd13ifvqbc0","pricing_plan_id":"cebpf4jnsgd1na2vs0mg"},{"bike_id":"80b56d1a-534a-40e4-84c1-ee1837925a73","system_id":"levelo_inurba_marseille","lat":43.309589,"lon":5.390258,"is_reserved":false,"is_disabled":false,"rental_uris":{"android":"levelo://app?vid=80b56d1a-534a-40e4-84c1-ee1837925a73","ios":"levelo://app?vid=80b56d1a-534a-40e4-84c1-ee1837925a73"},"vehicle_type_id":"4","last_reported":1716228608,"current_range_meters":5600,"station_id":"ce4bgup2rcd13ifvqco0","pricing_plan_id":"cebpf4jnsgd1na2vs0mg"},{"bike_id":"e43b8721-041d-4db7-90dd-aca1f9de1424","system_id":"levelo_inurba_marseille","lat":43.296921,"lon":5.376579,"is_reserved":false,"is_disabled":false,"rental_uris":{"android":"levelo://app?vid=e43b8721-041d-4db7-90dd-aca1f9de1424","ios":"levelo://app?vid=e43b8721-041d-4db7-90dd-aca1f9de1424"},"vehicle_type_id":"4","last_reported":1716228608,"current_range_meters":26400,"station_id":"ce4bgkh2rcd13ifvqbl0","pricing_plan_id":"cebpf4jnsgd1na2vs0mg"},{"bike_id":"b70a4560-0d5a-4cff-ba24-b6104478d4ae","system_id":"levelo_inurba_marseille","lat":43.309589,"lon":5.390258,"is_reserved":false,"is_disabled":false,"rental_uris":{"android":"levelo://app?vid=b70a4560-0d5a-4cff-ba24-b6104478d4ae","ios":"levelo://app?vid=b70a4560-0d5a-4cff-ba24-b6104478d4ae"},"vehicle_type_id":"4","last_reported":1716228608,"current_range_meters":14800,"station_id":"ce4bgup2rcd13ifvqco0","pricing_plan_id":"cebpf4jnsgd1na2vs0mg"},{"bike_id":"354fc32d-12a8-42f4-9c49-6225dbcd2d2a","system_id":"levelo_inurba_marseille","lat":43.309589,"lon":5.390258,"is_reserved":false,"is_disabled":false,"rental_uris":{"android":"levelo://app?vid=354fc32d-12a8-42f4-9c49-6225dbcd2d2a","ios":"levelo://app?vid=354fc32d-12a8-42f4-9c49-6225dbcd2d2a"},"vehicle_type_id":"4","last_reported":1716228608,"current_range_meters":18400,"station_id":"ce4bgup2rcd13ifvqco0","pricing_plan_id":"cebpf4jnsgd1na2vs0mg"},{"bike_id":"923d6f3e-25a3-4260-a1a2-9ed0e847b2bd","system_id":"levelo_inurba_marseille","lat":43.299028,"lon":5.381509,"is_reserved":false,"is_disabled":false,"rental_uris":{"android":"levelo://app?vid=923d6f3e-25a3-4260-a1a2-9ed0e847b2bd","ios":"levelo://app?vid=923d6f3e-25a3-4260-a1a2-9ed0e847b2bd"},"vehicle_type_id":"4","last_reported":1716228608,"current_range_meters":800,"station_id":"ce4bgj12rcd13ifvqbc0","pricing_plan_id":"cebpf4jnsgd1na2vs0mg"},{"bike_id":"148c282e-efc1-44e6-addb-133c50df5c83","system_id":"levelo_inurba_marseille","lat":43.317557,"lon":5.390173,"is_reserved":false,"is_disabled":false,"rental_uris":{"android":"levelo://app?vid=148c282e-efc1-44e6-addb-133c50df5c83","ios":"levelo://app?vid=148c282e-efc1-44e6-addb-133c50df5c83"},"vehicle_type_id":"4","last_reported":1716228608,"current_range_meters":18800,"station_id":"ce4bhqp2rcd13ifvqhng","pricing_plan_id":"cebpf4jnsgd1na2vs0mg"},{"bike_id":"3ac2f96a-7f67-4460-8cab-51aeb90d5afb","system_id":"levelo_inurba_marseille","lat":43.317557,"lon":5.390173,"is_reserved":false,"is_disabled":false,"rental_uris":{"android":"levelo://app?vid=3ac2f96a-7f67-4460-8cab-51aeb90d5afb","ios":"levelo://app?vid=3ac2f96a-7f67-4460-8cab-51aeb90d5afb"},"vehicle_type_id":"4","last_reported":1716228608,"current_range_meters":2400,"station_id":"ce4bhqp2rcd13ifvqhng","pricing_plan_id":"cebpf4jnsgd1na2vs0mg"},{"bike_id":"b6a5919e-0817-457b-b684-5c60e8244089","system_id":"levelo_inurba_marseille","lat":43.299028,"lon":5.381509,"is_reserved":false,"is_disabled":false,"rental_uris":{"android":"levelo://app?vid=b6a5919e-0817-457b-b684-5c60e8244089","ios":"levelo://app?vid=b6a5919e-0817-457b-b684-5c60e8244089"},"vehicle_type_id":"4","last_reported":1716228608,"current_range_meters":11600,"station_id":"ce4bgj12rcd13ifvqbc0","pricing_plan_id":"cebpf4jnsgd1na2vs0mg"},{"bike_id":"32bdaa35-4d41-40a3-8dda-42b79dd7c6b9","system_id":"levelo_inurba_marseille","lat":43.303876,"lon":5.388012,"is_reserved":false,"is_disabled":false,"rental_uris":{"android":"levelo://app?vid=32bdaa35-4d41-40a3-8dda-42b79dd7c6b9","ios":"levelo://app?vid=32bdaa35-4d41-40a3-8dda-42b79dd7c6b9"},"vehicle_type_id":"4","last_reported":1716228608,"current_range_meters":4400,"station_id":"ce4bgk12rcd13ifvqbi0","pricing_plan_id":"cebpf4jnsgd1na2vs0mg"},{"bike_id":"6bb3c605-d8e2-4b53-8525-c4db04cdaf9b","system_id":"levelo_inurba_marseille","lat":43.299028,"lon":5.381509,"is_reserved":false,"is_disabled":false,"rental_uris":{"android":"levelo://app?vid=6bb3c605-d8e2-4b53-8525-c4db04cdaf9b","ios":"levelo://app?vid=6bb3c605-d8e2-4b53-8525-c4db04cdaf9b"},"vehicle_type_id":"4","last_reported":1716228608,"current_range_meters":800,"station_id":"ce4bgj12rcd13ifvqbc0","pricing_plan_id":"cebpf4jnsgd1na2vs0mg"},{"bike_id":"b1b6934a-2cfd-4c5a-8e17-9578b6799b93","system_id":"levelo_inurba_marseille","lat":43.298037,"lon":5.381066,"is_reserved":false,"is_disabled":false,"rental_uris":{"android":"levelo://app?vid=b1b6934a-2cfd-4c5a-8e17-9578b6799b93","ios":"levelo://app?vid=b1b6934a-2cfd-4c5a-8e17-9578b6799b93"},"vehicle_type_id":"4","last_reported":1716228608,"current_range_meters":4400,"station_id":"ce4bgip2rcd13ifvqbb0","pricing_plan_id":"cebpf4jnsgd1na2vs0mg"},{"bike_id":"00503ce8-9edf-4f9b-a51c-7b767c9d3bd2","system_id":"levelo_inurba_marseille","lat":43.295635,"lon":5.37414,"is_reserved":false,"is_disabled":false,"rental_uris":{"android":"levelo://app?vid=00503ce8-9edf-4f9b-a51c-7b767c9d3bd2","ios":"levelo://app?vid=00503ce8-9edf-4f9b-a51c-7b767c9d3bd2"},"vehicle_type_id":"4","last_reported":1716228608,"current_range_meters":29200,"station_id":"","pricing_plan_id":"cebpf4jnsgd1na2vs0mg"},{"bike_id":"3c20cea9-d4c8-437b-a05c-89a975fd8b1c","system_id":"levelo_inurba_marseille","lat":43.298037,"lon":5.381066,"is_reserved":false,"is_disabled":false,"rental_uris":{"android":"levelo://app?vid=3c20cea9-d4c8-437b-a05c-89a975fd8b1c","ios":"levelo://app?vid=3c20cea9-d4c8-437b-a05c-89a975fd8b1c"},"vehicle_type_id":"4","last_reported":1716228608,"current_range_meters":18400,"station_id":"ce4bgip2rcd13ifvqbb0","pricing_plan_id":"cebpf4jnsgd1na2vs0mg"},{"bike_id":"d8bc2504-b406-43de-92c5-80e09735fd7c","system_id":"levelo_inurba_marseille","lat":43.295748,"lon":5.37522,"is_reserved":false,"is_disabled":false,"rental_uris":{"android":"levelo://app?vid=d8bc2504-b406-43de-92c5-80e09735fd7c","ios":"levelo://app?vid=d8bc2504-b406-43de-92c5-80e09735fd7c"},"vehicle_type_id":"4","last_reported":1716228608,"current_range_meters":14000,"station_id":"ce4bgh92rcd13ifvqb50","pricing_plan_id":"cebpf4jnsgd1na2vs0mg"},{"bike_id":"c26244a8-a764-4afd-ba1e-3e8ba01f68f6","system_id":"levelo_inurba_marseille","lat":43.304278,"lon":5.388868,"is_reserved":false,"is_disabled":false,"rental_uris":{"android":"levelo://app?vid=c26244a8-a764-4afd-ba1e-3e8ba01f68f6","ios":"levelo://app?vid=c26244a8-a764-4afd-ba1e-3e8ba01f68f6"},"vehicle_type_id":"4","last_reported":1716228608,"current_range_meters":2800,"station_id":"ce4bgk12rcd13ifvqbi0","pricing_plan_id":"cebpf4jnsgd1na2vs0mg"},{"bike_id":"1f52f040-3ffe-4da6-992c-854826660998","system_id":"levelo_inurba_marseille","lat":43.297834,"lon":5.381051,"is_reserved":false,"is_disabled":false,"rental_uris":{"android":"levelo://app?vid=1f52f040-3ffe-4da6-992c-854826660998","ios":"levelo://app?vid=1f52f040-3ffe-4da6-992c-854826660998"},"vehicle_type_id":"4","last_reported":1716228608,"current_range_meters":400,"station_id":"ce4bgip2rcd13ifvqbb0","pricing_plan_id":"cebpf4jnsgd1na2vs0mg"},{"bike_id":"cf3a8879-0a9b-43eb-83b3-d762fddebbc3","system_id":"levelo_inurba_marseille","lat":43.29973,"lon":5.38487,"is_reserved":false,"is_disabled":false,"rental_uris":{"android":"levelo://app?vid=cf3a8879-0a9b-43eb-83b3-d762fddebbc3","ios":"levelo://app?vid=cf3a8879-0a9b-43eb-83b3-d762fddebbc3"},"vehicle_type_id":"4","last_reported":1716228608,"current_range_meters":0,"station_id":"ce4bgj92rcd13ifvqbd0","pricing_plan_id":"cebpf4jnsgd1na2vs0mg"},{"bike_id":"d014cf3e-048b-41f0-8f75-4b7171a47831","system_id":"levelo_inurba_marseille","lat":43.299727,"lon":5.384919,"is_reserved":false,"is_disabled":false,"rental_uris":{"android":"levelo://app?vid=d014cf3e-048b-41f0-8f75-4b7171a47831","ios":"levelo://app?vid=d014cf3e-048b-41f0-8f75-4b7171a47831"},"vehicle_type_id":"4","last_reported":1716228608,"current_range_meters":31600,"station_id":"ce4bgj92rcd13ifvqbd0","pricing_plan_id":"cebpf4jnsgd1na2vs0mg"},{"bike_id":"c2def02a-1b41-4471-8484-ffbb53ed8bb7","system_id":"levelo_inurba_marseille","lat":43.29974,"lon":5.38495,"is_reserved":false,"is_disabled":false,"rental_uris":{"android":"levelo://app?vid=c2def02a-1b41-4471-8484-ffbb53ed8bb7","ios":"levelo://app?vid=c2def02a-1b41-4471-8484-ffbb53ed8bb7"},"vehicle_type_id":"4","last_reported":1716228608,"current_range_meters":22000,"station_id":"ce4bgj92rcd13ifvqbd0","pricing_plan_id":"cebpf4jnsgd1na2vs0mg"},{"bike_id":"5f628e5d-bcdb-4ef2-9884-49c157387500","system_id":"levelo_inurba_marseille","lat":43.299724,"lon":5.384848,"is_reserved":false,"is_disabled":false,"rental_uris":{"android":"levelo://app?vid=5f628e5d-bcdb-4ef2-9884-49c157387500","ios":"levelo://app?vid=5f628e5d-bcdb-4ef2-9884-49c157387500"},"vehicle_type_id":"4","last_reported":1716228608,"current_range_meters":19600,"station_id":"ce4bgj92rcd13ifvqbd0","pricing_plan_id":"cebpf4jnsgd1na2vs0mg"},{"bike_id":"0303c061-3e0b-45fa-bfc0-e197f9dd0026","system_id":"levelo_inurba_marseille","lat":43.29963,"lon":5.38493,"is_reserved":false,"is_disabled":false,"rental_uris":{"android":"levelo://app?vid=0303c061-3e0b-45fa-bfc0-e197f9dd0026","ios":"levelo://app?vid=0303c061-3e0b-45fa-bfc0-e197f9dd0026"},"vehicle_type_id":"4","last_reported":1716228608,"current_range_meters":0,"station_id":"ce4bgj92rcd13ifvqbd0","pricing_plan_id":"cebpf4jnsgd1na2vs0mg"},{"bike_id":"83a9271e-da3f-401f-b964-6713177c88b4","system_id":"levelo_inurba_marseille","lat":43.299724,"lon":5.384848,"is_reserved":false,"is_disabled":false,"rental_uris":{"android":"levelo://app?vid=83a9271e-da3f-401f-b964-6713177c88b4","ios":"levelo://app?vid=83a9271e-da3f-401f-b964-6713177c88b4"},"vehicle_type_id":"4","last_reported":1716228608,"current_range_meters":0,"station_id":"ce4bgj92rcd13ifvqbd0","pricing_plan_id":"cebpf4jnsgd1na2vs0mg"},{"bike_id":"5781da12-4ef6-480e-87db-2a261407da8b","system_id":"levelo_inurba_marseille","lat":43.299724,"lon":5.384848,"is_reserved":false,"is_disabled":false,"rental_uris":{"android":"levelo://app?vid=5781da12-4ef6-480e-87db-2a261407da8b","ios":"levelo://app?vid=5781da12-4ef6-480e-87db-2a261407da8b"},"vehicle_type_id":"4","last_reported":1716228608,"current_range_meters":800,"station_id":"ce4bgj92rcd13ifvqbd0","pricing_plan_id":"cebpf4jnsgd1na2vs0mg"},{"bike_id":"78252e3e-8eff-4ccb-a142-6526e4cc39f4","system_id":"levelo_inurba_marseille","lat":43.30089,"lon":5.38729,"is_reserved":false,"is_disabled":false,"rental_uris":{"android":"levelo://app?vid=78252e3e-8eff-4ccb-a142-6526e4cc39f4","ios":"levelo://app?vid=78252e3e-8eff-4ccb-a142-6526e4cc39f4"},"vehicle_type_id":"4","last_reported":1716228608,"current_range_meters":18800,"station_id":"","pricing_plan_id":"cebpf4jnsgd1na2vs0mg"},{"bike_id":"6bbaef65-28ef-469d-b21c-98ff5cde0ed6","system_id":"levelo_inurba_marseille","lat":43.301061,"lon":5.387758,"is_reserved":false,"is_disabled":false,"rental_uris":{"android":"levelo://app?vid=6bbaef65-28ef-469d-b21c-98ff5cde0ed6","ios":"levelo://app?vid=6bbaef65-28ef-469d-b21c-98ff5cde0ed6"},"vehicle_type_id":"4","last_reported":1716228608,"current_range_meters":16000,"station_id":"ce4bgj92rcd13ifvqbd0","pricing_plan_id":"cebpf4jnsgd1na2vs0mg"},{"bike_id":"e531b421-862b-4903-8714-b4111cd6b32a","system_id":"levelo_inurba_marseille","lat":43.29381,"lon":5.36292,"is_reserved":false,"is_disabled":false,"rental_uris":{"android":"levelo://app?vid=e531b421-862b-4903-8714-b4111cd6b32a","ios":"levelo://app?vid=e531b421-862b-4903-8714-b4111cd6b32a"},"vehicle_type_id":"4","last_reported":1716228608,"current_range_meters":20800,"station_id":"","pricing_plan_id":"cebpf4jnsgd1na2vs0mg"},{"bike_id":"cabc6c92-4d0d-43b8-823b-0e53a898c88b","system_id":"levelo_inurba_marseille","lat":43.32367,"lon":5.388836,"is_reserved":false,"is_disabled":false,"rental_uris":{"android":"levelo://app?vid=cabc6c92-4d0d-43b8-823b-0e53a898c88b","ios":"levelo://app?vid=cabc6c92-4d0d-43b8-823b-0e53a898c88b"},"vehicle_type_id":"4","last_reported":1716228608,"current_range_meters":0,"station_id":"ce4bhqp2rcd13ifvqhog","pricing_plan_id":"cebpf4jnsgd1na2vs0mg"},{"bike_id":"25500253-68b7-4ebf-9386-366bfd0fc124","system_id":"levelo_inurba_marseille","lat":43.29601,"lon":5.381084,"is_reserved":false,"is_disabled":false,"rental_uris":{"android":"levelo://app?vid=25500253-68b7-4ebf-9386-366bfd0fc124","ios":"levelo://app?vid=25500253-68b7-4ebf-9386-366bfd0fc124"},"vehicle_type_id":"4","last_reported":1716228608,"current_range_meters":0,"station_id":"ce4bgl12rcd13ifvqbo0","pricing_plan_id":"cebpf4jnsgd1na2vs0mg"},{"bike_id":"cdfbe522-4706-4a69-8673-7164e92b7940","system_id":"levelo_inurba_marseille","lat":43.29598,"lon":5.38098,"is_reserved":false,"is_disabled":false,"rental_uris":{"android":"levelo://app?vid=cdfbe522-4706-4a69-8673-7164e92b7940","ios":"levelo://app?vid=cdfbe522-4706-4a69-8673-7164e92b7940"},"vehicle_type_id":"4","last_reported":1716228608,"current_range_meters":6800,"station_id":"ce4bgl12rcd13ifvqbo0","pricing_plan_id":"cebpf4jnsgd1na2vs0mg"},{"bike_id":"2988fb4a-4aa8-4b8b-b7fd-1945975b10e5","system_id":"levelo_inurba_marseille","lat":43.29601,"lon":5.381084,"is_reserved":false,"is_disabled":false,"rental_uris":{"android":"levelo://app?vid=2988fb4a-4aa8-4b8b-b7fd-1945975b10e5","ios":"levelo://app?vid=2988fb4a-4aa8-4b8b-b7fd-1945975b10e5"},"vehicle_type_id":"4","last_reported":1716228608,"current_range_meters":15600,"station_id":"ce4bgl12rcd13ifvqbo0","pricing_plan_id":"cebpf4jnsgd1na2vs0mg"},{"bike_id":"564fc233-babc-45e2-a733-71648829eb28","system_id":"levelo_inurba_marseille","lat":43.292749,"lon":5.368402,"is_reserved":false,"is_disabled":false,"rental_uris":{"android":"levelo://app?vid=564fc233-babc-45e2-a733-71648829eb28","ios":"levelo://app?vid=564fc233-babc-45e2-a733-71648829eb28"},"vehicle_type_id":"4","last_reported":1716228608,"current_range_meters":0,"station_id":"ce4bhbp2rcd13ifvqesg","pricing_plan_id":"cebpf4jnsgd1na2vs0mg"},{"bike_id":"373564a5-0e69-4275-ae10-6a9f34c54c76","system_id":"levelo_inurba_marseille","lat":43.293249,"lon":5.371578,"is_reserved":false,"is_disabled":false,"rental_uris":{"android":"levelo://app?vid=373564a5-0e69-4275-ae10-6a9f34c54c76","ios":"levelo://app?vid=373564a5-0e69-4275-ae10-6a9f34c54c76"},"vehicle_type_id":"4","last_reported":1716228608,"current_range_meters":9200,"station_id":"ce4bgh92rcd13ifvqb40","pricing_plan_id":"cebpf4jnsgd1na2vs0mg"},{"bike_id":"9d5ec21c-af5f-4045-adf9-a5fa59661d2b","system_id":"levelo_inurba_marseille","lat":43.293055,"lon":5.371114,"is_reserved":false,"is_disabled":false,"rental_uris":{"android":"levelo://app?vid=9d5ec21c-af5f-4045-adf9-a5fa59661d2b","ios":"levelo://app?vid=9d5ec21c-af5f-4045-adf9-a5fa59661d2b"},"vehicle_type_id":"4","last_reported":1716228608,"current_range_meters":2000,"station_id":"ce4bgh92rcd13ifvqb40","pricing_plan_id":"cebpf4jnsgd1na2vs0mg"},{"bike_id":"1b7376b5-11bc-4e47-8aab-42e8402fce94","system_id":"levelo_inurba_marseille","lat":43.29305,"lon":5.37171,"is_reserved":false,"is_disabled":false,"rental_uris":{"android":"levelo://app?vid=1b7376b5-11bc-4e47-8aab-42e8402fce94","ios":"levelo://app?vid=1b7376b5-11bc-4e47-8aab-42e8402fce94"},"vehicle_type_id":"4","last_reported":1716228608,"current_range_meters":6400,"station_id":"ce4bgh92rcd13ifvqb40","pricing_plan_id":"cebpf4jnsgd1na2vs0mg"},{"bike_id":"edc0b36d-649a-4dbd-9c7d-39e68a57475d","system_id":"levelo_inurba_marseille","lat":43.293259,"lon":5.371586,"is_reserved":false,"is_disabled":false,"rental_uris":{"android":"levelo://app?vid=edc0b36d-649a-4dbd-9c7d-39e68a57475d","ios":"levelo://app?vid=edc0b36d-649a-4dbd-9c7d-39e68a57475d"},"vehicle_type_id":"4","last_reported":1716228608,"current_range_meters":3600,"station_id":"ce4bgh92rcd13ifvqb40","pricing_plan_id":"cebpf4jnsgd1na2vs0mg"},{"bike_id":"1d9afc08-2066-4dc5-a21e-222c805f1cff","system_id":"levelo_inurba_marseille","lat":43.293249,"lon":5.371578,"is_reserved":false,"is_disabled":false,"rental_uris":{"android":"levelo://app?vid=1d9afc08-2066-4dc5-a21e-222c805f1cff","ios":"levelo://app?vid=1d9afc08-2066-4dc5-a21e-222c805f1cff"},"vehicle_type_id":"4","last_reported":1716228608,"current_range_meters":2000,"station_id":"ce4bgh92rcd13ifvqb40","pricing_plan_id":"cebpf4jnsgd1na2vs0mg"},{"bike_id":"8e20e79c-9c44-4e6b-aadd-0bbaf592281a","system_id":"levelo_inurba_marseille","lat":43.293009,"lon":5.374584,"is_reserved":false,"is_disabled":false,"rental_uris":{"android":"levelo://app?vid=8e20e79c-9c44-4e6b-aadd-0bbaf592281a","ios":"levelo://app?vid=8e20e79c-9c44-4e6b-aadd-0bbaf592281a"},"vehicle_type_id":"4","last_reported":1716228608,"current_range_meters":10400,"station_id":"ce4bgi12rcd13ifvqb70","pricing_plan_id":"cebpf4jnsgd1na2vs0mg"},{"bike_id":"cf0f9f2b-e31f-4bd3-b64f-f091360fad58","system_id":"levelo_inurba_marseille","lat":43.305994,"lon":5.393687,"is_reserved":false,"is_disabled":false,"rental_uris":{"android":"levelo://app?vid=cf0f9f2b-e31f-4bd3-b64f-f091360fad58","ios":"levelo://app?vid=cf0f9f2b-e31f-4bd3-b64f-f091360fad58"},"vehicle_type_id":"4","last_reported":1716228608,"current_range_meters":6400,"station_id":"ce4bh0p2rcd13ifvqd80","pricing_plan_id":"cebpf4jnsgd1na2vs0mg"},{"bike_id":"73d24a53-7f1e-447f-b1f1-5ed5cee06552","system_id":"levelo_inurba_marseille","lat":43.303051,"lon":5.392015,"is_reserved":false,"is_disabled":false,"rental_uris":{"android":"levelo://app?vid=73d24a53-7f1e-447f-b1f1-5ed5cee06552","ios":"levelo://app?vid=73d24a53-7f1e-447f-b1f1-5ed5cee06552"},"vehicle_type_id":"4","last_reported":1716228608,"current_range_meters":0,"station_id":"ce4bgkh2rcd13ifvqbk0","pricing_plan_id":"cebpf4jnsgd1na2vs0mg"},{"bike_id":"4b71298f-9142-4e05-8eb8-27afa31408c5","system_id":"levelo_inurba_marseille","lat":43.302992,"lon":5.392136,"is_reserved":false,"is_disabled":false,"rental_uris":{"android":"levelo://app?vid=4b71298f-9142-4e05-8eb8-27afa31408c5","ios":"levelo://app?vid=4b71298f-9142-4e05-8eb8-27afa31408c5"},"vehicle_type_id":"4","last_reported":1716228608,"current_range_meters":0,"station_id":"ce4bgkh2rcd13ifvqbk0","pricing_plan_id":"cebpf4jnsgd1na2vs0mg"},{"bike_id":"84b8c4df-46b4-4d0a-bda3-dbc48def70be","system_id":"levelo_inurba_marseille","lat":43.302992,"lon":5.392136,"is_reserved":false,"is_disabled":false,"rental_uris":{"android":"levelo://app?vid=84b8c4df-46b4-4d0a-bda3-dbc48def70be","ios":"levelo://app?vid=84b8c4df-46b4-4d0a-bda3-dbc48def70be"},"vehicle_type_id":"4","last_reported":1716228608,"current_range_meters":0,"station_id":"ce4bgkh2rcd13ifvqbk0","pricing_plan_id":"cebpf4jnsgd1na2vs0mg"},{"bike_id":"e9f71bf7-5a29-4c1d-9228-877a7fec0fec","system_id":"levelo_inurba_marseille","lat":43.292311,"lon":5.360731,"is_reserved":false,"is_disabled":false,"rental_uris":{"android":"levelo://app?vid=e9f71bf7-5a29-4c1d-9228-877a7fec0fec","ios":"levelo://app?vid=e9f71bf7-5a29-4c1d-9228-877a7fec0fec"},"vehicle_type_id":"4","last_reported":1716228608,"current_range_meters":6800,"station_id":"ce4bhbh2rcd13ifvqeqg","pricing_plan_id":"cebpf4jnsgd1na2vs0mg"},{"bike_id":"04ba541c-8e75-4148-874d-1e962e2cec5c","system_id":"levelo_inurba_marseille","lat":43.292311,"lon":5.360731,"is_reserved":false,"is_disabled":false,"rental_uris":{"android":"levelo://app?vid=04ba541c-8e75-4148-874d-1e962e2cec5c","ios":"levelo://app?vid=04ba541c-8e75-4148-874d-1e962e2cec5c"},"vehicle_type_id":"4","last_reported":1716228608,"current_range_meters":14800,"station_id":"ce4bhbh2rcd13ifvqeqg","pricing_plan_id":"cebpf4jnsgd1na2vs0mg"},{"bike_id":"1f8b358c-ec6c-4384-8c5c-ae3a0c057e57","system_id":"levelo_inurba_marseille","lat":43.300977,"lon":5.390797,"is_reserved":false,"is_disabled":false,"rental_uris":{"android":"levelo://app?vid=1f8b358c-ec6c-4384-8c5c-ae3a0c057e57","ios":"levelo://app?vid=1f8b358c-ec6c-4384-8c5c-ae3a0c057e57"},"vehicle_type_id":"4","last_reported":1716228608,"current_range_meters":24800,"station_id":"","pricing_plan_id":"cebpf4jnsgd1na2vs0mg"},{"bike_id":"3d4e412d-aa3b-4c2f-8378-80d7585c453d","system_id":"levelo_inurba_marseille","lat":43.292311,"lon":5.360731,"is_reserved":false,"is_disabled":false,"rental_uris":{"android":"levelo://app?vid=3d4e412d-aa3b-4c2f-8378-80d7585c453d","ios":"levelo://app?vid=3d4e412d-aa3b-4c2f-8378-80d7585c453d"},"vehicle_type_id":"4","last_reported":1716228608,"current_range_meters":21200,"station_id":"ce4bhbh2rcd13ifvqeqg","pricing_plan_id":"cebpf4jnsgd1na2vs0mg"},{"bike_id":"da6346ec-dc51-43c5-8f2c-d2e2b085820c","system_id":"levelo_inurba_marseille","lat":43.292311,"lon":5.360731,"is_reserved":false,"is_disabled":false,"rental_uris":{"android":"levelo://app?vid=da6346ec-dc51-43c5-8f2c-d2e2b085820c","ios":"levelo://app?vid=da6346ec-dc51-43c5-8f2c-d2e2b085820c"},"vehicle_type_id":"4","last_reported":1716228608,"current_range_meters":10800,"station_id":"ce4bhbh2rcd13ifvqeqg","pricing_plan_id":"cebpf4jnsgd1na2vs0mg"},{"bike_id":"5c94bc2b-0c59-4272-b2ac-f418275a1a0a","system_id":"levelo_inurba_marseille","lat":43.30085,"lon":5.390856,"is_reserved":false,"is_disabled":false,"rental_uris":{"android":"levelo://app?vid=5c94bc2b-0c59-4272-b2ac-f418275a1a0a","ios":"levelo://app?vid=5c94bc2b-0c59-4272-b2ac-f418275a1a0a"},"vehicle_type_id":"4","last_reported":1716228608,"current_range_meters":2400,"station_id":"ce4bh192rcd13ifvqdb0","pricing_plan_id":"cebpf4jnsgd1na2vs0mg"},{"bike_id":"e161245c-deb3-452f-b664-475113bc7f78","system_id":"levelo_inurba_marseille","lat":43.30085,"lon":5.390856,"is_reserved":false,"is_disabled":false,"rental_uris":{"android":"levelo://app?vid=e161245c-deb3-452f-b664-475113bc7f78","ios":"levelo://app?vid=e161245c-deb3-452f-b664-475113bc7f78"},"vehicle_type_id":"4","last_reported":1716228608,"current_range_meters":18800,"station_id":"ce4bh192rcd13ifvqdb0","pricing_plan_id":"cebpf4jnsgd1na2vs0mg"},{"bike_id":"8cd672f8-d1a4-4bbc-bdda-0abc8ca4ea0b","system_id":"levelo_inurba_marseille","lat":43.30085,"lon":5.390856,"is_reserved":false,"is_disabled":false,"rental_uris":{"android":"levelo://app?vid=8cd672f8-d1a4-4bbc-bdda-0abc8ca4ea0b","ios":"levelo://app?vid=8cd672f8-d1a4-4bbc-bdda-0abc8ca4ea0b"},"vehicle_type_id":"4","last_reported":1716228608,"current_range_meters":6400,"station_id":"ce4bh192rcd13ifvqdb0","pricing_plan_id":"cebpf4jnsgd1na2vs0mg"},{"bike_id":"9677228e-b2eb-42ad-88ec-c47c22b7101f","system_id":"levelo_inurba_marseille","lat":43.298764,"lon":5.388973,"is_reserved":false,"is_disabled":false,"rental_uris":{"android":"levelo://app?vid=9677228e-b2eb-42ad-88ec-c47c22b7101f","ios":"levelo://app?vid=9677228e-b2eb-42ad-88ec-c47c22b7101f"},"vehicle_type_id":"4","last_reported":1716228608,"current_range_meters":4800,"station_id":"ce4bh392rcd13ifvqdl0","pricing_plan_id":"cebpf4jnsgd1na2vs0mg"},{"bike_id":"4fb60f9e-f0b7-46af-ab66-b2508195f22a","system_id":"levelo_inurba_marseille","lat":43.291671,"lon":5.371575,"is_reserved":false,"is_disabled":false,"rental_uris":{"android":"levelo://app?vid=4fb60f9e-f0b7-46af-ab66-b2508195f22a","ios":"levelo://app?vid=4fb60f9e-f0b7-46af-ab66-b2508195f22a"},"vehicle_type_id":"4","last_reported":1716228608,"current_range_meters":30000,"station_id":"ce4bha92rcd13ifvqeh0","pricing_plan_id":"cebpf4jnsgd1na2vs0mg"},{"bike_id":"eb1d2fe1-5357-48f2-823c-e9e0510bca6c","system_id":"levelo_inurba_marseille","lat":43.291675,"lon":5.371583,"is_reserved":false,"is_disabled":false,"rental_uris":{"android":"levelo://app?vid=eb1d2fe1-5357-48f2-823c-e9e0510bca6c","ios":"levelo://app?vid=eb1d2fe1-5357-48f2-823c-e9e0510bca6c"},"vehicle_type_id":"4","last_reported":1716228608,"current_range_meters":18400,"station_id":"ce4bha92rcd13ifvqeh0","pricing_plan_id":"cebpf4jnsgd1na2vs0mg"},{"bike_id":"e1086ef2-5ef8-4e21-b868-a72fc58b18f4","system_id":"levelo_inurba_marseille","lat":43.29207,"lon":5.35953,"is_reserved":false,"is_disabled":false,"rental_uris":{"android":"levelo://app?vid=e1086ef2-5ef8-4e21-b868-a72fc58b18f4","ios":"levelo://app?vid=e1086ef2-5ef8-4e21-b868-a72fc58b18f4"},"vehicle_type_id":"4","last_reported":1716228608,"current_range_meters":10800,"station_id":"","pricing_plan_id":"cebpf4jnsgd1na2vs0mg"},{"bike_id":"43e6b149-b8f4-4d36-b2bb-947461ab41d3","system_id":"levelo_inurba_marseille","lat":43.291671,"lon":5.371575,"is_reserved":false,"is_disabled":false,"rental_uris":{"android":"levelo://app?vid=43e6b149-b8f4-4d36-b2bb-947461ab41d3","ios":"levelo://app?vid=43e6b149-b8f4-4d36-b2bb-947461ab41d3"},"vehicle_type_id":"4","last_reported":1716228608,"current_range_meters":20000,"station_id":"ce4bha92rcd13ifvqeh0","pricing_plan_id":"cebpf4jnsgd1na2vs0mg"},{"bike_id":"76e8f377-9aaf-4958-970b-bb1325d7056c","system_id":"levelo_inurba_marseille","lat":43.291675,"lon":5.371583,"is_reserved":false,"is_disabled":false,"rental_uris":{"android":"levelo://app?vid=76e8f377-9aaf-4958-970b-bb1325d7056c","ios":"levelo://app?vid=76e8f377-9aaf-4958-970b-bb1325d7056c"},"vehicle_type_id":"4","last_reported":1716228608,"current_range_meters":5600,"station_id":"ce4bha92rcd13ifvqeh0","pricing_plan_id":"cebpf4jnsgd1na2vs0mg"},{"bike_id":"1a991e2b-cbaa-4422-b187-a9aeca5c828c","system_id":"levelo_inurba_marseille","lat":43.291671,"lon":5.371575,"is_reserved":false,"is_disabled":false,"rental_uris":{"android":"levelo://app?vid=1a991e2b-cbaa-4422-b187-a9aeca5c828c","ios":"levelo://app?vid=1a991e2b-cbaa-4422-b187-a9aeca5c828c"},"vehicle_type_id":"4","last_reported":1716228608,"current_range_meters":1600,"station_id":"ce4bha92rcd13ifvqeh0","pricing_plan_id":"cebpf4jnsgd1na2vs0mg"},{"bike_id":"4493a10b-80ef-4e00-8153-cd914af9bd73","system_id":"levelo_inurba_marseille","lat":43.291671,"lon":5.371575,"is_reserved":false,"is_disabled":false,"rental_uris":{"android":"levelo://app?vid=4493a10b-80ef-4e00-8153-cd914af9bd73","ios":"levelo://app?vid=4493a10b-80ef-4e00-8153-cd914af9bd73"},"vehicle_type_id":"4","last_reported":1716228608,"current_range_meters":21600,"station_id":"ce4bha92rcd13ifvqeh0","pricing_plan_id":"cebpf4jnsgd1na2vs0mg"},{"bike_id":"bd6d4c02-caf5-43d5-bd6a-3bb888fb82dd","system_id":"levelo_inurba_marseille","lat":43.29867,"lon":5.38908,"is_reserved":false,"is_disabled":false,"rental_uris":{"android":"levelo://app?vid=bd6d4c02-caf5-43d5-bd6a-3bb888fb82dd","ios":"levelo://app?vid=bd6d4c02-caf5-43d5-bd6a-3bb888fb82dd"},"vehicle_type_id":"4","last_reported":1716228608,"current_range_meters":15600,"station_id":"ce4bh392rcd13ifvqdl0","pricing_plan_id":"cebpf4jnsgd1na2vs0mg"},{"bike_id":"2426f8ae-f090-4481-ae5a-43e249fb2567","system_id":"levelo_inurba_marseille","lat":43.29529,"lon":5.385581,"is_reserved":false,"is_disabled":false,"rental_uris":{"android":"levelo://app?vid=2426f8ae-f090-4481-ae5a-43e249fb2567","ios":"levelo://app?vid=2426f8ae-f090-4481-ae5a-43e249fb2567"},"vehicle_type_id":"4","last_reported":1716228608,"current_range_meters":6800,"station_id":"ce4bgih2rcd13ifvqba0","pricing_plan_id":"cebpf4jnsgd1na2vs0mg"},{"bike_id":"4b90ca5d-d9b8-4490-ba92-803e63181438","system_id":"levelo_inurba_marseille","lat":43.309038,"lon":5.396546,"is_reserved":false,"is_disabled":false,"rental_uris":{"android":"levelo://app?vid=4b90ca5d-d9b8-4490-ba92-803e63181438","ios":"levelo://app?vid=4b90ca5d-d9b8-4490-ba92-803e63181438"},"vehicle_type_id":"4","last_reported":1716228608,"current_range_meters":14800,"station_id":"ce4bh012rcd13ifvqcv0","pricing_plan_id":"cebpf4jnsgd1na2vs0mg"},{"bike_id":"6b9b95bf-c2b0-4d26-b052-5362aa59f334","system_id":"levelo_inurba_marseille","lat":43.313291,"lon":5.396838,"is_reserved":false,"is_disabled":false,"rental_uris":{"android":"levelo://app?vid=6b9b95bf-c2b0-4d26-b052-5362aa59f334","ios":"levelo://app?vid=6b9b95bf-c2b0-4d26-b052-5362aa59f334"},"vehicle_type_id":"4","last_reported":1716228608,"current_range_meters":18400,"station_id":"ce4bgvp2rcd13ifvqcu0","pricing_plan_id":"cebpf4jnsgd1na2vs0mg"},{"bike_id":"8440e83a-48d4-4ccb-8c32-d6320acff015","system_id":"levelo_inurba_marseille","lat":43.313291,"lon":5.396838,"is_reserved":false,"is_disabled":false,"rental_uris":{"android":"levelo://app?vid=8440e83a-48d4-4ccb-8c32-d6320acff015","ios":"levelo://app?vid=8440e83a-48d4-4ccb-8c32-d6320acff015"},"vehicle_type_id":"4","last_reported":1716228608,"current_range_meters":14800,"station_id":"ce4bgvp2rcd13ifvqcu0","pricing_plan_id":"cebpf4jnsgd1na2vs0mg"},{"bike_id":"5ce8be43-9e96-4c04-84d6-ff3875da247a","system_id":"levelo_inurba_marseille","lat":43.313291,"lon":5.396838,"is_reserved":false,"is_disabled":false,"rental_uris":{"android":"levelo://app?vid=5ce8be43-9e96-4c04-84d6-ff3875da247a","ios":"levelo://app?vid=5ce8be43-9e96-4c04-84d6-ff3875da247a"},"vehicle_type_id":"4","last_reported":1716228608,"current_range_meters":22800,"station_id":"ce4bgvp2rcd13ifvqcu0","pricing_plan_id":"cebpf4jnsgd1na2vs0mg"},{"bike_id":"20795824-3eb6-41e5-bab8-562a7a838bea","system_id":"levelo_inurba_marseille","lat":43.309038,"lon":5.396546,"is_reserved":false,"is_disabled":false,"rental_uris":{"android":"levelo://app?vid=20795824-3eb6-41e5-bab8-562a7a838bea","ios":"levelo://app?vid=20795824-3eb6-41e5-bab8-562a7a838bea"},"vehicle_type_id":"4","last_reported":1716228608,"current_range_meters":19600,"station_id":"ce4bh012rcd13ifvqcv0","pricing_plan_id":"cebpf4jnsgd1na2vs0mg"},{"bike_id":"63add58d-c501-4845-8795-9c941b6b7b7a","system_id":"levelo_inurba_marseille","lat":43.313291,"lon":5.396838,"is_reserved":false,"is_disabled":false,"rental_uris":{"android":"levelo://app?vid=63add58d-c501-4845-8795-9c941b6b7b7a","ios":"levelo://app?vid=63add58d-c501-4845-8795-9c941b6b7b7a"},"vehicle_type_id":"4","last_reported":1716228608,"current_range_meters":24800,"station_id":"ce4bgvp2rcd13ifvqcu0","pricing_plan_id":"cebpf4jnsgd1na2vs0mg"},{"bike_id":"8856ad23-83f4-4971-a8c5-1329f8425f3f","system_id":"levelo_inurba_marseille","lat":43.309047,"lon":5.396551,"is_reserved":false,"is_disabled":false,"rental_uris":{"android":"levelo://app?vid=8856ad23-83f4-4971-a8c5-1329f8425f3f","ios":"levelo://app?vid=8856ad23-83f4-4971-a8c5-1329f8425f3f"},"vehicle_type_id":"4","last_reported":1716228608,"current_range_meters":21200,"station_id":"ce4bh012rcd13ifvqcv0","pricing_plan_id":"cebpf4jnsgd1na2vs0mg"},{"bike_id":"2affbb5f-e3ec-4785-9458-ac8b83ed9da0","system_id":"levelo_inurba_marseille","lat":43.309038,"lon":5.396546,"is_reserved":false,"is_disabled":false,"rental_uris":{"android":"levelo://app?vid=2affbb5f-e3ec-4785-9458-ac8b83ed9da0","ios":"levelo://app?vid=2affbb5f-e3ec-4785-9458-ac8b83ed9da0"},"vehicle_type_id":"4","last_reported":1716228608,"current_range_meters":20000,"station_id":"ce4bh012rcd13ifvqcv0","pricing_plan_id":"cebpf4jnsgd1na2vs0mg"},{"bike_id":"529852d2-afd8-4a33-86fd-b55517fd063e","system_id":"levelo_inurba_marseille","lat":43.313291,"lon":5.396838,"is_reserved":false,"is_disabled":false,"rental_uris":{"android":"levelo://app?vid=529852d2-afd8-4a33-86fd-b55517fd063e","ios":"levelo://app?vid=529852d2-afd8-4a33-86fd-b55517fd063e"},"vehicle_type_id":"4","last_reported":1716228608,"current_range_meters":3600,"station_id":"ce4bgvp2rcd13ifvqcu0","pricing_plan_id":"cebpf4jnsgd1na2vs0mg"},{"bike_id":"c148bad8-e871-4237-9410-bc1de049a9bd","system_id":"levelo_inurba_marseille","lat":43.309047,"lon":5.396551,"is_reserved":false,"is_disabled":false,"rental_uris":{"android":"levelo://app?vid=c148bad8-e871-4237-9410-bc1de049a9bd","ios":"levelo://app?vid=c148bad8-e871-4237-9410-bc1de049a9bd"},"vehicle_type_id":"4","last_reported":1716228608,"current_range_meters":16400,"station_id":"ce4bh012rcd13ifvqcv0","pricing_plan_id":"cebpf4jnsgd1na2vs0mg"},{"bike_id":"7f182f90-ee13-4500-b46c-2b4aaf8dea57","system_id":"levelo_inurba_marseille","lat":43.309038,"lon":5.396546,"is_reserved":false,"is_disabled":false,"rental_uris":{"android":"levelo://app?vid=7f182f90-ee13-4500-b46c-2b4aaf8dea57","ios":"levelo://app?vid=7f182f90-ee13-4500-b46c-2b4aaf8dea57"},"vehicle_type_id":"4","last_reported":1716228608,"current_range_meters":4400,"station_id":"ce4bh012rcd13ifvqcv0","pricing_plan_id":"cebpf4jnsgd1na2vs0mg"},{"bike_id":"4c8960ce-efea-4863-916c-5b6e6ef3666e","system_id":"levelo_inurba_marseille","lat":43.309038,"lon":5.396546,"is_reserved":false,"is_disabled":false,"rental_uris":{"android":"levelo://app?vid=4c8960ce-efea-4863-916c-5b6e6ef3666e","ios":"levelo://app?vid=4c8960ce-efea-4863-916c-5b6e6ef3666e"},"vehicle_type_id":"4","last_reported":1716228608,"current_range_meters":2400,"station_id":"ce4bh012rcd13ifvqcv0","pricing_plan_id":"cebpf4jnsgd1na2vs0mg"},{"bike_id":"091b4b5e-da0e-48d7-9e77-d8f7d04dca7e","system_id":"levelo_inurba_marseille","lat":43.29529,"lon":5.385581,"is_reserved":false,"is_disabled":false,"rental_uris":{"android":"levelo://app?vid=091b4b5e-da0e-48d7-9e77-d8f7d04dca7e","ios":"levelo://app?vid=091b4b5e-da0e-48d7-9e77-d8f7d04dca7e"},"vehicle_type_id":"4","last_reported":1716228608,"current_range_meters":21200,"station_id":"ce4bgih2rcd13ifvqba0","pricing_plan_id":"cebpf4jnsgd1na2vs0mg"},{"bike_id":"2f6c108c-b180-469a-a77c-30c6813357e6","system_id":"levelo_inurba_marseille","lat":43.29529,"lon":5.385581,"is_reserved":false,"is_disabled":false,"rental_uris":{"android":"levelo://app?vid=2f6c108c-b180-469a-a77c-30c6813357e6","ios":"levelo://app?vid=2f6c108c-b180-469a-a77c-30c6813357e6"},"vehicle_type_id":"4","last_reported":1716228608,"current_range_meters":26400,"station_id":"ce4bgih2rcd13ifvqba0","pricing_plan_id":"cebpf4jnsgd1na2vs0mg"},{"bike_id":"03d2c921-2f68-4f1e-9c28-830aa7076ede","system_id":"levelo_inurba_marseille","lat":43.29529,"lon":5.385581,"is_reserved":false,"is_disabled":false,"rental_uris":{"android":"levelo://app?vid=03d2c921-2f68-4f1e-9c28-830aa7076ede","ios":"levelo://app?vid=03d2c921-2f68-4f1e-9c28-830aa7076ede"},"vehicle_type_id":"4","last_reported":1716228608,"current_range_meters":30400,"station_id":"ce4bgih2rcd13ifvqba0","pricing_plan_id":"cebpf4jnsgd1na2vs0mg"},{"bike_id":"c90dd13d-00a7-4a28-b215-5a50aaddf1ae","system_id":"levelo_inurba_marseille","lat":43.29529,"lon":5.385581,"is_reserved":false,"is_disabled":false,"rental_uris":{"android":"levelo://app?vid=c90dd13d-00a7-4a28-b215-5a50aaddf1ae","ios":"levelo://app?vid=c90dd13d-00a7-4a28-b215-5a50aaddf1ae"},"vehicle_type_id":"4","last_reported":1716228608,"current_range_meters":16400,"station_id":"ce4bgih2rcd13ifvqba0","pricing_plan_id":"cebpf4jnsgd1na2vs0mg"},{"bike_id":"735c5c3d-68db-422d-bd31-5aaac407e883","system_id":"levelo_inurba_marseille","lat":43.29529,"lon":5.385581,"is_reserved":false,"is_disabled":false,"rental_uris":{"android":"levelo://app?vid=735c5c3d-68db-422d-bd31-5aaac407e883","ios":"levelo://app?vid=735c5c3d-68db-422d-bd31-5aaac407e883"},"vehicle_type_id":"4","last_reported":1716228608,"current_range_meters":31600,"station_id":"ce4bgih2rcd13ifvqba0","pricing_plan_id":"cebpf4jnsgd1na2vs0mg"},{"bike_id":"2fe778b5-444d-43ff-91fd-e65d147d0932","system_id":"levelo_inurba_marseille","lat":43.291675,"lon":5.371583,"is_reserved":false,"is_disabled":false,"rental_uris":{"android":"levelo://app?vid=2fe778b5-444d-43ff-91fd-e65d147d0932","ios":"levelo://app?vid=2fe778b5-444d-43ff-91fd-e65d147d0932"},"vehicle_type_id":"4","last_reported":1716228608,"current_range_meters":8000,"station_id":"ce4bha92rcd13ifvqeh0","pricing_plan_id":"cebpf4jnsgd1na2vs0mg"},{"bike_id":"9df56f76-143a-4bc3-a6eb-287f0f1b9797","system_id":"levelo_inurba_marseille","lat":43.29529,"lon":5.385581,"is_reserved":false,"is_disabled":false,"rental_uris":{"android":"levelo://app?vid=9df56f76-143a-4bc3-a6eb-287f0f1b9797","ios":"levelo://app?vid=9df56f76-143a-4bc3-a6eb-287f0f1b9797"},"vehicle_type_id":"4","last_reported":1716228608,"current_range_meters":24400,"station_id":"ce4bgih2rcd13ifvqba0","pricing_plan_id":"cebpf4jnsgd1na2vs0mg"},{"bike_id":"cb92d645-ca99-44dc-ab2f-f638e2d3cc36","system_id":"levelo_inurba_marseille","lat":43.29529,"lon":5.385581,"is_reserved":false,"is_disabled":false,"rental_uris":{"android":"levelo://app?vid=cb92d645-ca99-44dc-ab2f-f638e2d3cc36","ios":"levelo://app?vid=cb92d645-ca99-44dc-ab2f-f638e2d3cc36"},"vehicle_type_id":"4","last_reported":1716228608,"current_range_meters":26400,"station_id":"ce4bgih2rcd13ifvqba0","pricing_plan_id":"cebpf4jnsgd1na2vs0mg"},{"bike_id":"06c6329b-cdd0-4336-b083-ae20d1a8df0a","system_id":"levelo_inurba_marseille","lat":43.29529,"lon":5.385581,"is_reserved":false,"is_disabled":false,"rental_uris":{"android":"levelo://app?vid=06c6329b-cdd0-4336-b083-ae20d1a8df0a","ios":"levelo://app?vid=06c6329b-cdd0-4336-b083-ae20d1a8df0a"},"vehicle_type_id":"4","last_reported":1716228608,"current_range_meters":6400,"station_id":"ce4bgih2rcd13ifvqba0","pricing_plan_id":"cebpf4jnsgd1na2vs0mg"},{"bike_id":"203a189d-f310-463f-bd66-d2dfd3fadfea","system_id":"levelo_inurba_marseille","lat":43.29529,"lon":5.385581,"is_reserved":false,"is_disabled":false,"rental_uris":{"android":"levelo://app?vid=203a189d-f310-463f-bd66-d2dfd3fadfea","ios":"levelo://app?vid=203a189d-f310-463f-bd66-d2dfd3fadfea"},"vehicle_type_id":"4","last_reported":1716228608,"current_range_meters":4400,"station_id":"ce4bgih2rcd13ifvqba0","pricing_plan_id":"cebpf4jnsgd1na2vs0mg"},{"bike_id":"1c046ec5-1bec-4dd0-a1b5-d2275c9a99df","system_id":"levelo_inurba_marseille","lat":43.29529,"lon":5.385581,"is_reserved":false,"is_disabled":false,"rental_uris":{"android":"levelo://app?vid=1c046ec5-1bec-4dd0-a1b5-d2275c9a99df","ios":"levelo://app?vid=1c046ec5-1bec-4dd0-a1b5-d2275c9a99df"},"vehicle_type_id":"4","last_reported":1716228608,"current_range_meters":13600,"station_id":"ce4bgih2rcd13ifvqba0","pricing_plan_id":"cebpf4jnsgd1na2vs0mg"},{"bike_id":"f4a13afd-69bd-46f1-886f-a1ab52ad7f85","system_id":"levelo_inurba_marseille","lat":43.29529,"lon":5.385581,"is_reserved":false,"is_disabled":false,"rental_uris":{"android":"levelo://app?vid=f4a13afd-69bd-46f1-886f-a1ab52ad7f85","ios":"levelo://app?vid=f4a13afd-69bd-46f1-886f-a1ab52ad7f85"},"vehicle_type_id":"4","last_reported":1716228608,"current_range_meters":16400,"station_id":"ce4bgih2rcd13ifvqba0","pricing_plan_id":"cebpf4jnsgd1na2vs0mg"},{"bike_id":"23f57e40-fe83-49e5-a796-529faf2d95ef","system_id":"levelo_inurba_marseille","lat":43.29529,"lon":5.385581,"is_reserved":false,"is_disabled":false,"rental_uris":{"android":"levelo://app?vid=23f57e40-fe83-49e5-a796-529faf2d95ef","ios":"levelo://app?vid=23f57e40-fe83-49e5-a796-529faf2d95ef"},"vehicle_type_id":"4","last_reported":1716228608,"current_range_meters":26800,"station_id":"ce4bgih2rcd13ifvqba0","pricing_plan_id":"cebpf4jnsgd1na2vs0mg"},{"bike_id":"9f927b45-bedd-4b4b-9a30-c37768a22c27","system_id":"levelo_inurba_marseille","lat":43.29529,"lon":5.385581,"is_reserved":false,"is_disabled":false,"rental_uris":{"android":"levelo://app?vid=9f927b45-bedd-4b4b-9a30-c37768a22c27","ios":"levelo://app?vid=9f927b45-bedd-4b4b-9a30-c37768a22c27"},"vehicle_type_id":"4","last_reported":1716228608,"current_range_meters":15200,"station_id":"ce4bgih2rcd13ifvqba0","pricing_plan_id":"cebpf4jnsgd1na2vs0mg"},{"bike_id":"9df6c7ef-283e-4426-aa39-7c54f4d12d6b","system_id":"levelo_inurba_marseille","lat":43.29529,"lon":5.385581,"is_reserved":false,"is_disabled":false,"rental_uris":{"android":"levelo://app?vid=9df6c7ef-283e-4426-aa39-7c54f4d12d6b","ios":"levelo://app?vid=9df6c7ef-283e-4426-aa39-7c54f4d12d6b"},"vehicle_type_id":"4","last_reported":1716228608,"current_range_meters":4400,"station_id":"ce4bgih2rcd13ifvqba0","pricing_plan_id":"cebpf4jnsgd1na2vs0mg"},{"bike_id":"085743a2-f40b-488b-a9ab-3b3a243ad595","system_id":"levelo_inurba_marseille","lat":43.29529,"lon":5.385581,"is_reserved":false,"is_disabled":false,"rental_uris":{"android":"levelo://app?vid=085743a2-f40b-488b-a9ab-3b3a243ad595","ios":"levelo://app?vid=085743a2-f40b-488b-a9ab-3b3a243ad595"},"vehicle_type_id":"4","last_reported":1716228608,"current_range_meters":18000,"station_id":"ce4bgih2rcd13ifvqba0","pricing_plan_id":"cebpf4jnsgd1na2vs0mg"},{"bike_id":"5a3f0cd8-724b-47c9-931f-f84837e4f224","system_id":"levelo_inurba_marseille","lat":43.29529,"lon":5.385581,"is_reserved":false,"is_disabled":false,"rental_uris":{"android":"levelo://app?vid=5a3f0cd8-724b-47c9-931f-f84837e4f224","ios":"levelo://app?vid=5a3f0cd8-724b-47c9-931f-f84837e4f224"},"vehicle_type_id":"4","last_reported":1716228608,"current_range_meters":23600,"station_id":"ce4bgih2rcd13ifvqba0","pricing_plan_id":"cebpf4jnsgd1na2vs0mg"},{"bike_id":"e4502312-9069-41c4-81c9-3ce3e7906bbd","system_id":"levelo_inurba_marseille","lat":43.29529,"lon":5.385581,"is_reserved":false,"is_disabled":false,"rental_uris":{"android":"levelo://app?vid=e4502312-9069-41c4-81c9-3ce3e7906bbd","ios":"levelo://app?vid=e4502312-9069-41c4-81c9-3ce3e7906bbd"},"vehicle_type_id":"4","last_reported":1716228608,"current_range_meters":20800,"station_id":"ce4bgih2rcd13ifvqba0","pricing_plan_id":"cebpf4jnsgd1na2vs0mg"},{"bike_id":"7e1ee4b2-a7a8-4e74-a965-e1010560e585","system_id":"levelo_inurba_marseille","lat":43.290779,"lon":5.371482,"is_reserved":false,"is_disabled":false,"rental_uris":{"android":"levelo://app?vid=7e1ee4b2-a7a8-4e74-a965-e1010560e585","ios":"levelo://app?vid=7e1ee4b2-a7a8-4e74-a965-e1010560e585"},"vehicle_type_id":"4","last_reported":1716228608,"current_range_meters":7200,"station_id":"ce4bh5p2rcd13ifvqe4g","pricing_plan_id":"cebpf4jnsgd1na2vs0mg"},{"bike_id":"23da4f5d-a86c-4ba3-ae5c-9b1dfeadf367","system_id":"levelo_inurba_marseille","lat":43.290779,"lon":5.371482,"is_reserved":false,"is_disabled":false,"rental_uris":{"android":"levelo://app?vid=23da4f5d-a86c-4ba3-ae5c-9b1dfeadf367","ios":"levelo://app?vid=23da4f5d-a86c-4ba3-ae5c-9b1dfeadf367"},"vehicle_type_id":"4","last_reported":1716228608,"current_range_meters":24000,"station_id":"ce4bh5p2rcd13ifvqe4g","pricing_plan_id":"cebpf4jnsgd1na2vs0mg"},{"bike_id":"81ba84df-fa1a-4dd9-8f9d-f48f04d63f21","system_id":"levelo_inurba_marseille","lat":43.290779,"lon":5.371482,"is_reserved":false,"is_disabled":false,"rental_uris":{"android":"levelo://app?vid=81ba84df-fa1a-4dd9-8f9d-f48f04d63f21","ios":"levelo://app?vid=81ba84df-fa1a-4dd9-8f9d-f48f04d63f21"},"vehicle_type_id":"4","last_reported":1716228608,"current_range_meters":4000,"station_id":"ce4bh5p2rcd13ifvqe4g","pricing_plan_id":"cebpf4jnsgd1na2vs0mg"},{"bike_id":"a4a27501-fb54-4f3f-8bec-b00f8bc1bc7a","system_id":"levelo_inurba_marseille","lat":43.290779,"lon":5.371482,"is_reserved":false,"is_disabled":false,"rental_uris":{"android":"levelo://app?vid=a4a27501-fb54-4f3f-8bec-b00f8bc1bc7a","ios":"levelo://app?vid=a4a27501-fb54-4f3f-8bec-b00f8bc1bc7a"},"vehicle_type_id":"4","last_reported":1716228608,"current_range_meters":17200,"station_id":"ce4bh5p2rcd13ifvqe4g","pricing_plan_id":"cebpf4jnsgd1na2vs0mg"},{"bike_id":"4adc29b1-6db0-4fb6-991d-cd27cce6d2ea","system_id":"levelo_inurba_marseille","lat":43.302352,"lon":5.395335,"is_reserved":false,"is_disabled":false,"rental_uris":{"android":"levelo://app?vid=4adc29b1-6db0-4fb6-991d-cd27cce6d2ea","ios":"levelo://app?vid=4adc29b1-6db0-4fb6-991d-cd27cce6d2ea"},"vehicle_type_id":"4","last_reported":1716228608,"current_range_meters":0,"station_id":"","pricing_plan_id":"cebpf4jnsgd1na2vs0mg"},{"bike_id":"610e572a-c552-4af8-8342-5da849d2159a","system_id":"levelo_inurba_marseille","lat":43.294221,"lon":5.386049,"is_reserved":false,"is_disabled":false,"rental_uris":{"android":"levelo://app?vid=610e572a-c552-4af8-8342-5da849d2159a","ios":"levelo://app?vid=610e572a-c552-4af8-8342-5da849d2159a"},"vehicle_type_id":"4","last_reported":1716228608,"current_range_meters":20800,"station_id":"ce4bh2h2rcd13ifvqdh0","pricing_plan_id":"cebpf4jnsgd1na2vs0mg"},{"bike_id":"a99faf2a-d21e-4ef4-b482-34b64521d8f8","system_id":"levelo_inurba_marseille","lat":43.290319,"lon":5.375732,"is_reserved":false,"is_disabled":false,"rental_uris":{"android":"levelo://app?vid=a99faf2a-d21e-4ef4-b482-34b64521d8f8","ios":"levelo://app?vid=a99faf2a-d21e-4ef4-b482-34b64521d8f8"},"vehicle_type_id":"4","last_reported":1716228608,"current_range_meters":2800,"station_id":"ce4bh692rcd13ifvqe90","pricing_plan_id":"cebpf4jnsgd1na2vs0mg"},{"bike_id":"d9cdec5d-4e4e-4dda-8538-e061c9684118","system_id":"levelo_inurba_marseille","lat":43.294153,"lon":5.386305,"is_reserved":false,"is_disabled":false,"rental_uris":{"android":"levelo://app?vid=d9cdec5d-4e4e-4dda-8538-e061c9684118","ios":"levelo://app?vid=d9cdec5d-4e4e-4dda-8538-e061c9684118"},"vehicle_type_id":"4","last_reported":1716228608,"current_range_meters":6000,"station_id":"ce4bh2h2rcd13ifvqdh0","pricing_plan_id":"cebpf4jnsgd1na2vs0mg"},{"bike_id":"4e12e163-c474-406f-8a15-7072643b1d1e","system_id":"levelo_inurba_marseille","lat":43.294153,"lon":5.386305,"is_reserved":false,"is_disabled":false,"rental_uris":{"android":"levelo://app?vid=4e12e163-c474-406f-8a15-7072643b1d1e","ios":"levelo://app?vid=4e12e163-c474-406f-8a15-7072643b1d1e"},"vehicle_type_id":"4","last_reported":1716228608,"current_range_meters":31200,"station_id":"ce4bh2h2rcd13ifvqdh0","pricing_plan_id":"cebpf4jnsgd1na2vs0mg"},{"bike_id":"0a61058d-3761-44e4-9dec-f19788fe2c7b","system_id":"levelo_inurba_marseille","lat":43.289538,"lon":5.366063,"is_reserved":false,"is_disabled":false,"rental_uris":{"android":"levelo://app?vid=0a61058d-3761-44e4-9dec-f19788fe2c7b","ios":"levelo://app?vid=0a61058d-3761-44e4-9dec-f19788fe2c7b"},"vehicle_type_id":"4","last_reported":1716228608,"current_range_meters":5200,"station_id":"ce4bhap2rcd13ifvqek0","pricing_plan_id":"cebpf4jnsgd1na2vs0mg"},{"bike_id":"ad8f488a-7827-49cd-968e-47abe4c75f41","system_id":"levelo_inurba_marseille","lat":43.294162,"lon":5.386292,"is_reserved":false,"is_disabled":false,"rental_uris":{"android":"levelo://app?vid=ad8f488a-7827-49cd-968e-47abe4c75f41","ios":"levelo://app?vid=ad8f488a-7827-49cd-968e-47abe4c75f41"},"vehicle_type_id":"4","last_reported":1716228608,"current_range_meters":30400,"station_id":"ce4bh2h2rcd13ifvqdh0","pricing_plan_id":"cebpf4jnsgd1na2vs0mg"},{"bike_id":"fcae6539-63da-483d-bd46-e3dfb987aa07","system_id":"levelo_inurba_marseille","lat":43.294153,"lon":5.386305,"is_reserved":false,"is_disabled":false,"rental_uris":{"android":"levelo://app?vid=fcae6539-63da-483d-bd46-e3dfb987aa07","ios":"levelo://app?vid=fcae6539-63da-483d-bd46-e3dfb987aa07"},"vehicle_type_id":"4","last_reported":1716228608,"current_range_meters":25600,"station_id":"ce4bh2h2rcd13ifvqdh0","pricing_plan_id":"cebpf4jnsgd1na2vs0mg"},{"bike_id":"3030c48e-3ea5-4cbc-a5e2-7a4e7191fbd6","system_id":"levelo_inurba_marseille","lat":43.294153,"lon":5.386305,"is_reserved":false,"is_disabled":false,"rental_uris":{"android":"levelo://app?vid=3030c48e-3ea5-4cbc-a5e2-7a4e7191fbd6","ios":"levelo://app?vid=3030c48e-3ea5-4cbc-a5e2-7a4e7191fbd6"},"vehicle_type_id":"4","last_reported":1716228608,"current_range_meters":26800,"station_id":"ce4bh2h2rcd13ifvqdh0","pricing_plan_id":"cebpf4jnsgd1na2vs0mg"},{"bike_id":"92b6026b-226e-4d00-9537-6a2e2bb5f740","system_id":"levelo_inurba_marseille","lat":43.294153,"lon":5.386305,"is_reserved":false,"is_disabled":false,"rental_uris":{"android":"levelo://app?vid=92b6026b-226e-4d00-9537-6a2e2bb5f740","ios":"levelo://app?vid=92b6026b-226e-4d00-9537-6a2e2bb5f740"},"vehicle_type_id":"4","last_reported":1716228608,"current_range_meters":14800,"station_id":"ce4bh2h2rcd13ifvqdh0","pricing_plan_id":"cebpf4jnsgd1na2vs0mg"},{"bike_id":"25454d5d-b876-4f69-9699-4df3054ea262","system_id":"levelo_inurba_marseille","lat":43.294162,"lon":5.386292,"is_reserved":false,"is_disabled":false,"rental_uris":{"android":"levelo://app?vid=25454d5d-b876-4f69-9699-4df3054ea262","ios":"levelo://app?vid=25454d5d-b876-4f69-9699-4df3054ea262"},"vehicle_type_id":"4","last_reported":1716228608,"current_range_meters":22000,"station_id":"ce4bh2h2rcd13ifvqdh0","pricing_plan_id":"cebpf4jnsgd1na2vs0mg"},{"bike_id":"d94b097c-f6b8-4d3b-93a1-e50da99ced17","system_id":"levelo_inurba_marseille","lat":43.294153,"lon":5.386305,"is_reserved":false,"is_disabled":false,"rental_uris":{"android":"levelo://app?vid=d94b097c-f6b8-4d3b-93a1-e50da99ced17","ios":"levelo://app?vid=d94b097c-f6b8-4d3b-93a1-e50da99ced17"},"vehicle_type_id":"4","last_reported":1716228608,"current_range_meters":16000,"station_id":"ce4bh2h2rcd13ifvqdh0","pricing_plan_id":"cebpf4jnsgd1na2vs0mg"},{"bike_id":"c93f37b7-5a53-41d6-9b12-600e47305c2b","system_id":"levelo_inurba_marseille","lat":43.290319,"lon":5.375732,"is_reserved":false,"is_disabled":false,"rental_uris":{"android":"levelo://app?vid=c93f37b7-5a53-41d6-9b12-600e47305c2b","ios":"levelo://app?vid=c93f37b7-5a53-41d6-9b12-600e47305c2b"},"vehicle_type_id":"4","last_reported":1716228608,"current_range_meters":19200,"station_id":"ce4bh692rcd13ifvqe90","pricing_plan_id":"cebpf4jnsgd1na2vs0mg"},{"bike_id":"4d743d84-a1e4-4b53-809a-8a50c907a1e9","system_id":"levelo_inurba_marseille","lat":43.294153,"lon":5.386305,"is_reserved":false,"is_disabled":false,"rental_uris":{"android":"levelo://app?vid=4d743d84-a1e4-4b53-809a-8a50c907a1e9","ios":"levelo://app?vid=4d743d84-a1e4-4b53-809a-8a50c907a1e9"},"vehicle_type_id":"4","last_reported":1716228608,"current_range_meters":7200,"station_id":"ce4bh2h2rcd13ifvqdh0","pricing_plan_id":"cebpf4jnsgd1na2vs0mg"},{"bike_id":"b4ec62ee-726b-4bbc-b321-4a786dffda71","system_id":"levelo_inurba_marseille","lat":43.309038,"lon":5.396546,"is_reserved":false,"is_disabled":false,"rental_uris":{"android":"levelo://app?vid=b4ec62ee-726b-4bbc-b321-4a786dffda71","ios":"levelo://app?vid=b4ec62ee-726b-4bbc-b321-4a786dffda71"},"vehicle_type_id":"4","last_reported":1716228608,"current_range_meters":400,"station_id":"ce4bh012rcd13ifvqcv0","pricing_plan_id":"cebpf4jnsgd1na2vs0mg"},{"bike_id":"03f173c5-59bb-43e6-a5ee-09ccd6b7ab5d","system_id":"levelo_inurba_marseille","lat":43.294153,"lon":5.386305,"is_reserved":false,"is_disabled":false,"rental_uris":{"android":"levelo://app?vid=03f173c5-59bb-43e6-a5ee-09ccd6b7ab5d","ios":"levelo://app?vid=03f173c5-59bb-43e6-a5ee-09ccd6b7ab5d"},"vehicle_type_id":"4","last_reported":1716228608,"current_range_meters":31200,"station_id":"ce4bh2h2rcd13ifvqdh0","pricing_plan_id":"cebpf4jnsgd1na2vs0mg"},{"bike_id":"e48d769c-c4f5-4e06-975f-6b1cbe244e7f","system_id":"levelo_inurba_marseille","lat":43.294162,"lon":5.386292,"is_reserved":false,"is_disabled":false,"rental_uris":{"android":"levelo://app?vid=e48d769c-c4f5-4e06-975f-6b1cbe244e7f","ios":"levelo://app?vid=e48d769c-c4f5-4e06-975f-6b1cbe244e7f"},"vehicle_type_id":"4","last_reported":1716228608,"current_range_meters":24000,"station_id":"ce4bh2h2rcd13ifvqdh0","pricing_plan_id":"cebpf4jnsgd1na2vs0mg"},{"bike_id":"8edb9935-f66b-4ed7-a258-9aa65677e5f3","system_id":"levelo_inurba_marseille","lat":43.294153,"lon":5.386305,"is_reserved":false,"is_disabled":false,"rental_uris":{"android":"levelo://app?vid=8edb9935-f66b-4ed7-a258-9aa65677e5f3","ios":"levelo://app?vid=8edb9935-f66b-4ed7-a258-9aa65677e5f3"},"vehicle_type_id":"4","last_reported":1716228608,"current_range_meters":0,"station_id":"ce4bh2h2rcd13ifvqdh0","pricing_plan_id":"cebpf4jnsgd1na2vs0mg"},{"bike_id":"327041bf-5c80-4309-a21d-f3a4927355a8","system_id":"levelo_inurba_marseille","lat":43.294153,"lon":5.386305,"is_reserved":false,"is_disabled":false,"rental_uris":{"android":"levelo://app?vid=327041bf-5c80-4309-a21d-f3a4927355a8","ios":"levelo://app?vid=327041bf-5c80-4309-a21d-f3a4927355a8"},"vehicle_type_id":"4","last_reported":1716228608,"current_range_meters":15200,"station_id":"ce4bh2h2rcd13ifvqdh0","pricing_plan_id":"cebpf4jnsgd1na2vs0mg"},{"bike_id":"25654102-84b2-475b-b54d-672420a6992b","system_id":"levelo_inurba_marseille","lat":43.294153,"lon":5.386305,"is_reserved":false,"is_disabled":false,"rental_uris":{"android":"levelo://app?vid=25654102-84b2-475b-b54d-672420a6992b","ios":"levelo://app?vid=25654102-84b2-475b-b54d-672420a6992b"},"vehicle_type_id":"4","last_reported":1716228608,"current_range_meters":8400,"station_id":"ce4bh2h2rcd13ifvqdh0","pricing_plan_id":"cebpf4jnsgd1na2vs0mg"},{"bike_id":"607b5f06-1e31-4dd4-8761-446cb238b2e4","system_id":"levelo_inurba_marseille","lat":43.294162,"lon":5.386292,"is_reserved":false,"is_disabled":false,"rental_uris":{"android":"levelo://app?vid=607b5f06-1e31-4dd4-8761-446cb238b2e4","ios":"levelo://app?vid=607b5f06-1e31-4dd4-8761-446cb238b2e4"},"vehicle_type_id":"4","last_reported":1716228608,"current_range_meters":10000,"station_id":"ce4bh2h2rcd13ifvqdh0","pricing_plan_id":"cebpf4jnsgd1na2vs0mg"},{"bike_id":"55adc9b3-a31f-4320-901d-07645c1b2a53","system_id":"levelo_inurba_marseille","lat":43.294153,"lon":5.386305,"is_reserved":false,"is_disabled":false,"rental_uris":{"android":"levelo://app?vid=55adc9b3-a31f-4320-901d-07645c1b2a53","ios":"levelo://app?vid=55adc9b3-a31f-4320-901d-07645c1b2a53"},"vehicle_type_id":"4","last_reported":1716228608,"current_range_meters":6400,"station_id":"ce4bh2h2rcd13ifvqdh0","pricing_plan_id":"cebpf4jnsgd1na2vs0mg"},{"bike_id":"6e91b238-818f-46cc-8ac0-bbb881a2ad45","system_id":"levelo_inurba_marseille","lat":43.29419,"lon":5.38627,"is_reserved":false,"is_disabled":false,"rental_uris":{"android":"levelo://app?vid=6e91b238-818f-46cc-8ac0-bbb881a2ad45","ios":"levelo://app?vid=6e91b238-818f-46cc-8ac0-bbb881a2ad45"},"vehicle_type_id":"4","last_reported":1716228608,"current_range_meters":25200,"station_id":"ce4bh2h2rcd13ifvqdh0","pricing_plan_id":"cebpf4jnsgd1na2vs0mg"},{"bike_id":"696246f1-8431-4948-a263-7a7c6d9a141a","system_id":"levelo_inurba_marseille","lat":43.29418,"lon":5.38626,"is_reserved":false,"is_disabled":false,"rental_uris":{"android":"levelo://app?vid=696246f1-8431-4948-a263-7a7c6d9a141a","ios":"levelo://app?vid=696246f1-8431-4948-a263-7a7c6d9a141a"},"vehicle_type_id":"4","last_reported":1716228608,"current_range_meters":8800,"station_id":"ce4bh2h2rcd13ifvqdh0","pricing_plan_id":"cebpf4jnsgd1na2vs0mg"},{"bike_id":"a6f14050-c273-45cf-8909-afc30dc60581","system_id":"levelo_inurba_marseille","lat":43.294153,"lon":5.386305,"is_reserved":false,"is_disabled":false,"rental_uris":{"android":"levelo://app?vid=a6f14050-c273-45cf-8909-afc30dc60581","ios":"levelo://app?vid=a6f14050-c273-45cf-8909-afc30dc60581"},"vehicle_type_id":"4","last_reported":1716228608,"current_range_meters":7600,"station_id":"ce4bh2h2rcd13ifvqdh0","pricing_plan_id":"cebpf4jnsgd1na2vs0mg"},{"bike_id":"e81af3b3-b9ae-41b6-8eb0-a4e88c55e185","system_id":"levelo_inurba_marseille","lat":43.294153,"lon":5.386305,"is_reserved":false,"is_disabled":false,"rental_uris":{"android":"levelo://app?vid=e81af3b3-b9ae-41b6-8eb0-a4e88c55e185","ios":"levelo://app?vid=e81af3b3-b9ae-41b6-8eb0-a4e88c55e185"},"vehicle_type_id":"4","last_reported":1716228608,"current_range_meters":23200,"station_id":"ce4bh2h2rcd13ifvqdh0","pricing_plan_id":"cebpf4jnsgd1na2vs0mg"},{"bike_id":"7105cc99-fc01-4190-8512-97c25a96c57e","system_id":"levelo_inurba_marseille","lat":43.294162,"lon":5.386292,"is_reserved":false,"is_disabled":false,"rental_uris":{"android":"levelo://app?vid=7105cc99-fc01-4190-8512-97c25a96c57e","ios":"levelo://app?vid=7105cc99-fc01-4190-8512-97c25a96c57e"},"vehicle_type_id":"4","last_reported":1716228608,"current_range_meters":31600,"station_id":"ce4bh2h2rcd13ifvqdh0","pricing_plan_id":"cebpf4jnsgd1na2vs0mg"},{"bike_id":"1156f8ff-39c7-48f9-a5ac-e5c819db4a1e","system_id":"levelo_inurba_marseille","lat":43.294153,"lon":5.386305,"is_reserved":false,"is_disabled":false,"rental_uris":{"android":"levelo://app?vid=1156f8ff-39c7-48f9-a5ac-e5c819db4a1e","ios":"levelo://app?vid=1156f8ff-39c7-48f9-a5ac-e5c819db4a1e"},"vehicle_type_id":"4","last_reported":1716228608,"current_range_meters":31200,"station_id":"ce4bh2h2rcd13ifvqdh0","pricing_plan_id":"cebpf4jnsgd1na2vs0mg"},{"bike_id":"77344139-d315-4361-896c-f6ecfa17d95f","system_id":"levelo_inurba_marseille","lat":43.294162,"lon":5.386292,"is_reserved":false,"is_disabled":false,"rental_uris":{"android":"levelo://app?vid=77344139-d315-4361-896c-f6ecfa17d95f","ios":"levelo://app?vid=77344139-d315-4361-896c-f6ecfa17d95f"},"vehicle_type_id":"4","last_reported":1716228608,"current_range_meters":12800,"station_id":"ce4bh2h2rcd13ifvqdh0","pricing_plan_id":"cebpf4jnsgd1na2vs0mg"},{"bike_id":"bf9d2dd7-483c-41b3-a070-6f47a4df1991","system_id":"levelo_inurba_marseille","lat":43.294162,"lon":5.386292,"is_reserved":false,"is_disabled":false,"rental_uris":{"android":"levelo://app?vid=bf9d2dd7-483c-41b3-a070-6f47a4df1991","ios":"levelo://app?vid=bf9d2dd7-483c-41b3-a070-6f47a4df1991"},"vehicle_type_id":"4","last_reported":1716228608,"current_range_meters":12400,"station_id":"ce4bh2h2rcd13ifvqdh0","pricing_plan_id":"cebpf4jnsgd1na2vs0mg"},{"bike_id":"d5501f1a-f078-4412-a491-a262cd39f610","system_id":"levelo_inurba_marseille","lat":43.289435,"lon":5.366316,"is_reserved":false,"is_disabled":false,"rental_uris":{"android":"levelo://app?vid=d5501f1a-f078-4412-a491-a262cd39f610","ios":"levelo://app?vid=d5501f1a-f078-4412-a491-a262cd39f610"},"vehicle_type_id":"4","last_reported":1716228608,"current_range_meters":30800,"station_id":"ce4bhap2rcd13ifvqek0","pricing_plan_id":"cebpf4jnsgd1na2vs0mg"},{"bike_id":"a03afe3d-b1de-411c-b2ca-63868b8dbb77","system_id":"levelo_inurba_marseille","lat":43.294162,"lon":5.386292,"is_reserved":false,"is_disabled":false,"rental_uris":{"android":"levelo://app?vid=a03afe3d-b1de-411c-b2ca-63868b8dbb77","ios":"levelo://app?vid=a03afe3d-b1de-411c-b2ca-63868b8dbb77"},"vehicle_type_id":"4","last_reported":1716228608,"current_range_meters":24000,"station_id":"ce4bh2h2rcd13ifvqdh0","pricing_plan_id":"cebpf4jnsgd1na2vs0mg"},{"bike_id":"c21a5880-1960-4d9f-8e84-40292ea7ca92","system_id":"levelo_inurba_marseille","lat":43.294162,"lon":5.386292,"is_reserved":false,"is_disabled":false,"rental_uris":{"android":"levelo://app?vid=c21a5880-1960-4d9f-8e84-40292ea7ca92","ios":"levelo://app?vid=c21a5880-1960-4d9f-8e84-40292ea7ca92"},"vehicle_type_id":"4","last_reported":1716228608,"current_range_meters":22000,"station_id":"ce4bh2h2rcd13ifvqdh0","pricing_plan_id":"cebpf4jnsgd1na2vs0mg"},{"bike_id":"9c81fc05-7321-40e6-ad57-52477c75cdee","system_id":"levelo_inurba_marseille","lat":43.294192,"lon":5.386339,"is_reserved":false,"is_disabled":false,"rental_uris":{"android":"levelo://app?vid=9c81fc05-7321-40e6-ad57-52477c75cdee","ios":"levelo://app?vid=9c81fc05-7321-40e6-ad57-52477c75cdee"},"vehicle_type_id":"4","last_reported":1716228608,"current_range_meters":8400,"station_id":"ce4bh2h2rcd13ifvqdh0","pricing_plan_id":"cebpf4jnsgd1na2vs0mg"},{"bike_id":"7bc6f62d-df4d-45ee-9f0c-9cee21766591","system_id":"levelo_inurba_marseille","lat":43.294162,"lon":5.386292,"is_reserved":false,"is_disabled":false,"rental_uris":{"android":"levelo://app?vid=7bc6f62d-df4d-45ee-9f0c-9cee21766591","ios":"levelo://app?vid=7bc6f62d-df4d-45ee-9f0c-9cee21766591"},"vehicle_type_id":"4","last_reported":1716228608,"current_range_meters":26400,"station_id":"ce4bh2h2rcd13ifvqdh0","pricing_plan_id":"cebpf4jnsgd1na2vs0mg"},{"bike_id":"85b12eed-6723-4d6b-80b1-a2428c0a00c4","system_id":"levelo_inurba_marseille","lat":43.294162,"lon":5.386292,"is_reserved":false,"is_disabled":false,"rental_uris":{"android":"levelo://app?vid=85b12eed-6723-4d6b-80b1-a2428c0a00c4","ios":"levelo://app?vid=85b12eed-6723-4d6b-80b1-a2428c0a00c4"},"vehicle_type_id":"4","last_reported":1716228608,"current_range_meters":15600,"station_id":"ce4bh2h2rcd13ifvqdh0","pricing_plan_id":"cebpf4jnsgd1na2vs0mg"},{"bike_id":"a635b04a-c82d-4f02-a1d5-d37f6ee41182","system_id":"levelo_inurba_marseille","lat":43.2894,"lon":5.36635,"is_reserved":false,"is_disabled":false,"rental_uris":{"android":"levelo://app?vid=a635b04a-c82d-4f02-a1d5-d37f6ee41182","ios":"levelo://app?vid=a635b04a-c82d-4f02-a1d5-d37f6ee41182"},"vehicle_type_id":"4","last_reported":1716228608,"current_range_meters":23200,"station_id":"ce4bhap2rcd13ifvqek0","pricing_plan_id":"cebpf4jnsgd1na2vs0mg"},{"bike_id":"d2fe8527-8e99-4fc6-97b0-6f559e393c32","system_id":"levelo_inurba_marseille","lat":43.294162,"lon":5.386292,"is_reserved":false,"is_disabled":false,"rental_uris":{"android":"levelo://app?vid=d2fe8527-8e99-4fc6-97b0-6f559e393c32","ios":"levelo://app?vid=d2fe8527-8e99-4fc6-97b0-6f559e393c32"},"vehicle_type_id":"4","last_reported":1716228608,"current_range_meters":30400,"station_id":"ce4bh2h2rcd13ifvqdh0","pricing_plan_id":"cebpf4jnsgd1na2vs0mg"},{"bike_id":"11824963-df4e-407d-a013-ada4d136b7cf","system_id":"levelo_inurba_marseille","lat":43.28939,"lon":5.36634,"is_reserved":false,"is_disabled":false,"rental_uris":{"android":"levelo://app?vid=11824963-df4e-407d-a013-ada4d136b7cf","ios":"levelo://app?vid=11824963-df4e-407d-a013-ada4d136b7cf"},"vehicle_type_id":"4","last_reported":1716228608,"current_range_meters":800,"station_id":"ce4bhap2rcd13ifvqek0","pricing_plan_id":"cebpf4jnsgd1na2vs0mg"},{"bike_id":"d78e28b2-05d6-4391-b195-7df8a9f992dd","system_id":"levelo_inurba_marseille","lat":43.28937,"lon":5.36626,"is_reserved":false,"is_disabled":false,"rental_uris":{"android":"levelo://app?vid=d78e28b2-05d6-4391-b195-7df8a9f992dd","ios":"levelo://app?vid=d78e28b2-05d6-4391-b195-7df8a9f992dd"},"vehicle_type_id":"4","last_reported":1716228608,"current_range_meters":6800,"station_id":"ce4bhap2rcd13ifvqek0","pricing_plan_id":"cebpf4jnsgd1na2vs0mg"},{"bike_id":"0dad3da9-1aff-4cbe-9419-160f374c9ab1","system_id":"levelo_inurba_marseille","lat":43.289365,"lon":5.366358,"is_reserved":false,"is_disabled":false,"rental_uris":{"android":"levelo://app?vid=0dad3da9-1aff-4cbe-9419-160f374c9ab1","ios":"levelo://app?vid=0dad3da9-1aff-4cbe-9419-160f374c9ab1"},"vehicle_type_id":"4","last_reported":1716228608,"current_range_meters":2800,"station_id":"ce4bhap2rcd13ifvqek0","pricing_plan_id":"cebpf4jnsgd1na2vs0mg"},{"bike_id":"5514c9ec-206d-42a0-98f6-0543ed644644","system_id":"levelo_inurba_marseille","lat":43.292642,"lon":5.384254,"is_reserved":false,"is_disabled":false,"rental_uris":{"android":"levelo://app?vid=5514c9ec-206d-42a0-98f6-0543ed644644","ios":"levelo://app?vid=5514c9ec-206d-42a0-98f6-0543ed644644"},"vehicle_type_id":"4","last_reported":1716228608,"current_range_meters":18000,"station_id":"ce4bh692rcd13ifvqea0","pricing_plan_id":"cebpf4jnsgd1na2vs0mg"},{"bike_id":"8b83d67a-da49-494f-9a60-7f92da626e92","system_id":"levelo_inurba_marseille","lat":43.292644,"lon":5.384257,"is_reserved":false,"is_disabled":false,"rental_uris":{"android":"levelo://app?vid=8b83d67a-da49-494f-9a60-7f92da626e92","ios":"levelo://app?vid=8b83d67a-da49-494f-9a60-7f92da626e92"},"vehicle_type_id":"4","last_reported":1716228608,"current_range_meters":4400,"station_id":"ce4bh692rcd13ifvqea0","pricing_plan_id":"cebpf4jnsgd1na2vs0mg"},{"bike_id":"ef36d4eb-3548-46e8-9234-96b9f9d81799","system_id":"levelo_inurba_marseille","lat":43.292691,"lon":5.384367,"is_reserved":false,"is_disabled":false,"rental_uris":{"android":"levelo://app?vid=ef36d4eb-3548-46e8-9234-96b9f9d81799","ios":"levelo://app?vid=ef36d4eb-3548-46e8-9234-96b9f9d81799"},"vehicle_type_id":"4","last_reported":1716228608,"current_range_meters":0,"station_id":"","pricing_plan_id":"cebpf4jnsgd1na2vs0mg"},{"bike_id":"3ae5bc9f-5afc-4265-a993-1d10e6799133","system_id":"levelo_inurba_marseille","lat":43.292644,"lon":5.384257,"is_reserved":false,"is_disabled":false,"rental_uris":{"android":"levelo://app?vid=3ae5bc9f-5afc-4265-a993-1d10e6799133","ios":"levelo://app?vid=3ae5bc9f-5afc-4265-a993-1d10e6799133"},"vehicle_type_id":"4","last_reported":1716228608,"current_range_meters":26400,"station_id":"ce4bh692rcd13ifvqea0","pricing_plan_id":"cebpf4jnsgd1na2vs0mg"},{"bike_id":"7ddfb329-4c0f-40a4-9032-59e9d0250eea","system_id":"levelo_inurba_marseille","lat":43.304296,"lon":5.397513,"is_reserved":false,"is_disabled":false,"rental_uris":{"android":"levelo://app?vid=7ddfb329-4c0f-40a4-9032-59e9d0250eea","ios":"levelo://app?vid=7ddfb329-4c0f-40a4-9032-59e9d0250eea"},"vehicle_type_id":"4","last_reported":1716228608,"current_range_meters":16400,"station_id":"ce4bh092rcd13ifvqd20","pricing_plan_id":"cebpf4jnsgd1na2vs0mg"},{"bike_id":"1989d6c9-1eb7-4ca8-b314-684395178902","system_id":"levelo_inurba_marseille","lat":43.292626,"lon":5.384281,"is_reserved":false,"is_disabled":false,"rental_uris":{"android":"levelo://app?vid=1989d6c9-1eb7-4ca8-b314-684395178902","ios":"levelo://app?vid=1989d6c9-1eb7-4ca8-b314-684395178902"},"vehicle_type_id":"4","last_reported":1716228608,"current_range_meters":30400,"station_id":"ce4bh692rcd13ifvqea0","pricing_plan_id":"cebpf4jnsgd1na2vs0mg"},{"bike_id":"5570c23a-864d-4e79-8f26-6b112fe56ccd","system_id":"levelo_inurba_marseille","lat":43.304296,"lon":5.397513,"is_reserved":false,"is_disabled":false,"rental_uris":{"android":"levelo://app?vid=5570c23a-864d-4e79-8f26-6b112fe56ccd","ios":"levelo://app?vid=5570c23a-864d-4e79-8f26-6b112fe56ccd"},"vehicle_type_id":"4","last_reported":1716228608,"current_range_meters":27200,"station_id":"ce4bh092rcd13ifvqd20","pricing_plan_id":"cebpf4jnsgd1na2vs0mg"},{"bike_id":"d157dafe-a6be-4d13-bde7-78d7aeab3e13","system_id":"levelo_inurba_marseille","lat":43.292642,"lon":5.384254,"is_reserved":false,"is_disabled":false,"rental_uris":{"android":"levelo://app?vid=d157dafe-a6be-4d13-bde7-78d7aeab3e13","ios":"levelo://app?vid=d157dafe-a6be-4d13-bde7-78d7aeab3e13"},"vehicle_type_id":"4","last_reported":1716228608,"current_range_meters":31200,"station_id":"ce4bh692rcd13ifvqea0","pricing_plan_id":"cebpf4jnsgd1na2vs0mg"},{"bike_id":"664bd6c9-85a6-4ce4-b1f2-7e1afb5a7bc5","system_id":"levelo_inurba_marseille","lat":43.292644,"lon":5.384257,"is_reserved":false,"is_disabled":false,"rental_uris":{"android":"levelo://app?vid=664bd6c9-85a6-4ce4-b1f2-7e1afb5a7bc5","ios":"levelo://app?vid=664bd6c9-85a6-4ce4-b1f2-7e1afb5a7bc5"},