{"last_updated":1702746344,"ttl":30,"version":"2.2","data":{"bikes":[{"bike_id":"3f8b821f-e430-4a35-bf14-f8b6e777ea11","system_id":"levelo_inurba_marseille","lat":43.313939,"lon":5.375306,"is_reserved":false,"is_disabled":false,"rental_uris":{"android":"levelo://app?vid=3f8b821f-e430-4a35-bf14-f8b6e777ea11","ios":"levelo://app?vid=3f8b821f-e430-4a35-bf14-f8b6e777ea11"},"vehicle_type_id":"4","last_reported":1702746344,"current_range_meters":0,"station_id":"","pricing_plan_id":"free"},{"bike_id":"fd4dc2b2-84de-4064-8fe1-3195ef0d661c","system_id":"levelo_inurba_marseille","lat":43.30541,"lon":5.36552,"is_reserved":false,"is_disabled":false,"rental_uris":{"android":"levelo://app?vid=fd4dc2b2-84de-4064-8fe1-3195ef0d661c","ios":"levelo://app?vid=fd4dc2b2-84de-4064-8fe1-3195ef0d661c"},"vehicle_type_id":"4","last_reported":1702746344,"current_range_meters":1600,"station_id":"ce4bgs12rcd13ifvqcag","pricing_plan_id":"free"},{"bike_id":"955e4ab2-16e5-44e8-a986-a2f50ff96c06","system_id":"levelo_inurba_marseille","lat":43.305382,"lon":5.365389,"is_reserved":false,"is_disabled":false,"rental_uris":{"android":"levelo://app?vid=955e4ab2-16e5-44e8-a986-a2f50ff96c06","ios":"levelo://app?vid=955e4ab2-16e5-44e8-a986-a2f50ff96c06"},"vehicle_type_id":"4","last_reported":1702746344,"current_range_meters":14800,"station_id":"","pricing_plan_id":"free"},{"bike_id":"99fc47a0-d778-4326-9da2-6aa2a0bf6af3","system_id":"levelo_inurba_marseille","lat":43.30531,"lon":5.36556,"is_reserved":false,"is_disabled":false,"rental_uris":{"android":"levelo://app?vid=99fc47a0-d778-4326-9da2-6aa2a0bf6af3","ios":"levelo://app?vid=99fc47a0-d778-4326-9da2-6aa2a0bf6af3"},"vehicle_type_id":"4","last_reported":1702746344,"current_range_meters":5600,"station_id":"ce4bgs12rcd13ifvqcag","pricing_plan_id":"free"},{"bike_id":"d5b8c705-a28c-4fd4-8aee-1bc698ee282e","system_id":"levelo_inurba_marseille","lat":43.305989,"lon":5.37225,"is_reserved":false,"is_disabled":false,"rental_uris":{"android":"levelo://app?vid=d5b8c705-a28c-4fd4-8aee-1bc698ee282e","ios":"levelo://app?vid=d5b8c705-a28c-4fd4-8aee-1bc698ee282e"},"vehicle_type_id":"4","last_reported":1702746344,"current_range_meters":8000,"station_id":"ce4bgqh2rcd13ifvqc4g","pricing_plan_id":"free"},{"bike_id":"5991cc2f-7e0d-45d3-b533-68025b0671a5","system_id":"levelo_inurba_marseille","lat":43.307945,"lon":5.376487,"is_reserved":false,"is_disabled":false,"rental_uris":{"android":"levelo://app?vid=5991cc2f-7e0d-45d3-b533-68025b0671a5","ios":"levelo://app?vid=5991cc2f-7e0d-45d3-b533-68025b0671a5"},"vehicle_type_id":"4","last_reported":1702746344,"current_range_meters":4800,"station_id":"ce4bgv92rcd13ifvqcq0","pricing_plan_id":"free"},{"bike_id":"e608665c-a0fa-449d-b33f-ed0cd033c740","system_id":"levelo_inurba_marseille","lat":43.30927,"lon":5.37914,"is_reserved":false,"is_disabled":false,"rental_uris":{"android":"levelo://app?vid=e608665c-a0fa-449d-b33f-ed0cd033c740","ios":"levelo://app?vid=e608665c-a0fa-449d-b33f-ed0cd033c740"},"vehicle_type_id":"4","last_reported":1702746344,"current_range_meters":16000,"station_id":"","pricing_plan_id":"free"},{"bike_id":"b24d961e-7567-44a9-9c2f-ff8bf7932d55","system_id":"levelo_inurba_marseille","lat":43.30304,"lon":5.368987,"is_reserved":false,"is_disabled":false,"rental_uris":{"android":"levelo://app?vid=b24d961e-7567-44a9-9c2f-ff8bf7932d55","ios":"levelo://app?vid=b24d961e-7567-44a9-9c2f-ff8bf7932d55"},"vehicle_type_id":"4","last_reported":1702746344,"current_range_meters":2000,"station_id":"ce4bgqh2rcd13ifvqc5g","pricing_plan_id":"free"},{"bike_id":"f495cab4-bba0-4076-b12b-26d9e9cbc9b0","system_id":"levelo_inurba_marseille","lat":43.310289,"lon":5.380498,"is_reserved":false,"is_disabled":false,"rental_uris":{"android":"levelo://app?vid=f495cab4-bba0-4076-b12b-26d9e9cbc9b0","ios":"levelo://app?vid=f495cab4-bba0-4076-b12b-26d9e9cbc9b0"},"vehicle_type_id":"4","last_reported":1702746344,"current_range_meters":5200,"station_id":"","pricing_plan_id":"free"},{"bike_id":"e313de88-41cb-4098-8de8-9fdcf80e8839","system_id":"levelo_inurba_marseille","lat":43.301939,"lon":5.366286,"is_reserved":false,"is_disabled":false,"rental_uris":{"android":"levelo://app?vid=e313de88-41cb-4098-8de8-9fdcf80e8839","ios":"levelo://app?vid=e313de88-41cb-4098-8de8-9fdcf80e8839"},"vehicle_type_id":"4","last_reported":1702746344,"current_range_meters":18400,"station_id":"ce4bgrh2rcd13ifvqc8g","pricing_plan_id":"free"},{"bike_id":"9570e643-f104-4d50-ad44-72e464cbc987","system_id":"levelo_inurba_marseille","lat":43.309039,"lon":5.371797,"is_reserved":false,"is_disabled":false,"rental_uris":{"android":"levelo://app?vid=9570e643-f104-4d50-ad44-72e464cbc987","ios":"levelo://app?vid=9570e643-f104-4d50-ad44-72e464cbc987"},"vehicle_type_id":"4","last_reported":1702746344,"current_range_meters":4000,"station_id":"ce4bguh2rcd13ifvqckg","pricing_plan_id":"free"},{"bike_id":"85c79645-7da3-425c-83e9-f88139bd96fb","system_id":"levelo_inurba_marseille","lat":43.308012,"lon":5.381511,"is_reserved":false,"is_disabled":false,"rental_uris":{"android":"levelo://app?vid=85c79645-7da3-425c-83e9-f88139bd96fb","ios":"levelo://app?vid=85c79645-7da3-425c-83e9-f88139bd96fb"},"vehicle_type_id":"4","last_reported":1702746344,"current_range_meters":3200,"station_id":"ce4bgt12rcd13ifvqce0","pricing_plan_id":"free"},{"bike_id":"36c2c503-5118-4269-bd19-f11249c9c4a0","system_id":"levelo_inurba_marseille","lat":43.308012,"lon":5.381511,"is_reserved":false,"is_disabled":false,"rental_uris":{"android":"levelo://app?vid=36c2c503-5118-4269-bd19-f11249c9c4a0","ios":"levelo://app?vid=36c2c503-5118-4269-bd19-f11249c9c4a0"},"vehicle_type_id":"4","last_reported":1702746344,"current_range_meters":31200,"station_id":"ce4bgt12rcd13ifvqce0","pricing_plan_id":"free"},{"bike_id":"44c8b40c-0afe-48d3-8480-d4dfd6b81af3","system_id":"levelo_inurba_marseille","lat":43.32475,"lon":5.36562,"is_reserved":false,"is_disabled":false,"rental_uris":{"android":"levelo://app?vid=44c8b40c-0afe-48d3-8480-d4dfd6b81af3","ios":"levelo://app?vid=44c8b40c-0afe-48d3-8480-d4dfd6b81af3"},"vehicle_type_id":"4","last_reported":1702746344,"current_range_meters":26000,"station_id":"ce4bhs12rcd13ifvqhvg","pricing_plan_id":"free"},{"bike_id":"dfe62985-6f65-471f-8bdb-4e96693a7937","system_id":"levelo_inurba_marseille","lat":43.324826,"lon":5.365699,"is_reserved":false,"is_disabled":false,"rental_uris":{"android":"levelo://app?vid=dfe62985-6f65-471f-8bdb-4e96693a7937","ios":"levelo://app?vid=dfe62985-6f65-471f-8bdb-4e96693a7937"},"vehicle_type_id":"4","last_reported":1702746344,"current_range_meters":17600,"station_id":"ce4bhs12rcd13ifvqhvg","pricing_plan_id":"free"},{"bike_id":"88f7ea2a-62f7-4a88-9e9d-900940b4d7e5","system_id":"levelo_inurba_marseille","lat":43.324771,"lon":5.36557,"is_reserved":false,"is_disabled":false,"rental_uris":{"android":"levelo://app?vid=88f7ea2a-62f7-4a88-9e9d-900940b4d7e5","ios":"levelo://app?vid=88f7ea2a-62f7-4a88-9e9d-900940b4d7e5"},"vehicle_type_id":"4","last_reported":1702746344,"current_range_meters":14800,"station_id":"ce4bhs12rcd13ifvqhvg","pricing_plan_id":"free"},{"bike_id":"da4f0621-d8fb-439f-9484-cda43695d42a","system_id":"levelo_inurba_marseille","lat":43.302784,"lon":5.377158,"is_reserved":false,"is_disabled":false,"rental_uris":{"android":"levelo://app?vid=da4f0621-d8fb-439f-9484-cda43695d42a","ios":"levelo://app?vid=da4f0621-d8fb-439f-9484-cda43695d42a"},"vehicle_type_id":"4","last_reported":1702746344,"current_range_meters":13200,"station_id":"ce4bguh2rcd13ifvqcj0","pricing_plan_id":"free"},{"bike_id":"e38c4c19-c3b4-447f-9a96-34d5235a7b20","system_id":"levelo_inurba_marseille","lat":43.30143,"lon":5.37414,"is_reserved":false,"is_disabled":false,"rental_uris":{"android":"levelo://app?vid=e38c4c19-c3b4-447f-9a96-34d5235a7b20","ios":"levelo://app?vid=e38c4c19-c3b4-447f-9a96-34d5235a7b20"},"vehicle_type_id":"4","last_reported":1702746344,"current_range_meters":22400,"station_id":"ce4bgs92rcd13ifvqcc0","pricing_plan_id":"free"},{"bike_id":"f1386c54-578b-48f2-b85b-52c706fb0a1d","system_id":"levelo_inurba_marseille","lat":43.301429,"lon":5.37413,"is_reserved":false,"is_disabled":false,"rental_uris":{"android":"levelo://app?vid=f1386c54-578b-48f2-b85b-52c706fb0a1d","ios":"levelo://app?vid=f1386c54-578b-48f2-b85b-52c706fb0a1d"},"vehicle_type_id":"4","last_reported":1702746344,"current_range_meters":31600,"station_id":"ce4bgs92rcd13ifvqcc0","pricing_plan_id":"free"},{"bike_id":"41c8aa93-71b1-4c18-9c1d-9a3ab953a07b","system_id":"levelo_inurba_marseille","lat":43.301429,"lon":5.37413,"is_reserved":false,"is_disabled":false,"rental_uris":{"android":"levelo://app?vid=41c8aa93-71b1-4c18-9c1d-9a3ab953a07b","ios":"levelo://app?vid=41c8aa93-71b1-4c18-9c1d-9a3ab953a07b"},"vehicle_type_id":"4","last_reported":1702746344,"current_range_meters":14000,"station_id":"ce4bgs92rcd13ifvqcc0","pricing_plan_id":"free"},{"bike_id":"dd62cb3a-3f08-44cf-8561-0c89ff17ac35","system_id":"levelo_inurba_marseille","lat":43.31371,"lon":5.38485,"is_reserved":false,"is_disabled":false,"rental_uris":{"android":"levelo://app?vid=dd62cb3a-3f08-44cf-8561-0c89ff17ac35","ios":"levelo://app?vid=dd62cb3a-3f08-44cf-8561-0c89ff17ac35"},"vehicle_type_id":"4","last_reported":1702746344,"current_range_meters":20400,"station_id":"ce4bgt92rcd13ifvqcf0","pricing_plan_id":"free"},{"bike_id":"c4e77394-aef9-4077-b745-e99148625344","system_id":"levelo_inurba_marseille","lat":43.32733,"lon":5.36707,"is_reserved":false,"is_disabled":false,"rental_uris":{"android":"levelo://app?vid=c4e77394-aef9-4077-b745-e99148625344","ios":"levelo://app?vid=c4e77394-aef9-4077-b745-e99148625344"},"vehicle_type_id":"4","last_reported":1702746344,"current_range_meters":22000,"station_id":"","pricing_plan_id":"free"},{"bike_id":"819cb438-2e9c-4e0b-902b-5e19ef554d5c","system_id":"levelo_inurba_marseille","lat":43.30548,"lon":5.384483,"is_reserved":false,"is_disabled":false,"rental_uris":{"android":"levelo://app?vid=819cb438-2e9c-4e0b-902b-5e19ef554d5c","ios":"levelo://app?vid=819cb438-2e9c-4e0b-902b-5e19ef554d5c"},"vehicle_type_id":"4","last_reported":1702746344,"current_range_meters":15600,"station_id":"","pricing_plan_id":"free"},{"bike_id":"db27a2ef-d760-4cb8-bd00-acfaba069790","system_id":"levelo_inurba_marseille","lat":43.311722,"lon":5.387247,"is_reserved":false,"is_disabled":false,"rental_uris":{"android":"levelo://app?vid=db27a2ef-d760-4cb8-bd00-acfaba069790","ios":"levelo://app?vid=db27a2ef-d760-4cb8-bd00-acfaba069790"},"vehicle_type_id":"4","last_reported":1702746344,"current_range_meters":18000,"station_id":"ce4bgv12rcd13ifvqcp0","pricing_plan_id":"free"},{"bike_id":"33f4f161-4d4c-4479-99db-ac0f7878b524","system_id":"levelo_inurba_marseille","lat":43.311722,"lon":5.387247,"is_reserved":false,"is_disabled":false,"rental_uris":{"android":"levelo://app?vid=33f4f161-4d4c-4479-99db-ac0f7878b524","ios":"levelo://app?vid=33f4f161-4d4c-4479-99db-ac0f7878b524"},"vehicle_type_id":"4","last_reported":1702746344,"current_range_meters":11600,"station_id":"ce4bgv12rcd13ifvqcp0","pricing_plan_id":"free"},{"bike_id":"768a75f8-c2a0-4e2e-8817-a440c5ea72cc","system_id":"levelo_inurba_marseille","lat":43.297794,"lon":5.370888,"is_reserved":false,"is_disabled":false,"rental_uris":{"android":"levelo://app?vid=768a75f8-c2a0-4e2e-8817-a440c5ea72cc","ios":"levelo://app?vid=768a75f8-c2a0-4e2e-8817-a440c5ea72cc"},"vehicle_type_id":"4","last_reported":1702746344,"current_range_meters":400,"station_id":"ce4bgop2rcd13ifvqc1g","pricing_plan_id":"free"},{"bike_id":"97abba5b-57a4-4634-8ffb-17a176451ccf","system_id":"levelo_inurba_marseille","lat":43.297163,"lon":5.365866,"is_reserved":false,"is_disabled":false,"rental_uris":{"android":"levelo://app?vid=97abba5b-57a4-4634-8ffb-17a176451ccf","ios":"levelo://app?vid=97abba5b-57a4-4634-8ffb-17a176451ccf"},"vehicle_type_id":"4","last_reported":1702746344,"current_range_meters":11200,"station_id":"ce4bgn12rcd13ifvqbt0","pricing_plan_id":"free"},{"bike_id":"a59932e6-8266-40d1-b0a2-6e814fcef7b7","system_id":"levelo_inurba_marseille","lat":43.2968,"lon":5.37291,"is_reserved":false,"is_disabled":false,"rental_uris":{"android":"levelo://app?vid=a59932e6-8266-40d1-b0a2-6e814fcef7b7","ios":"levelo://app?vid=a59932e6-8266-40d1-b0a2-6e814fcef7b7"},"vehicle_type_id":"4","last_reported":1702746344,"current_range_meters":0,"station_id":"ce4bgk12rcd13ifvqbj0","pricing_plan_id":"free"},{"bike_id":"cc43f734-1d17-4d0b-954d-3920eacbfedb","system_id":"levelo_inurba_marseille","lat":43.29573,"lon":5.367355,"is_reserved":false,"is_disabled":false,"rental_uris":{"android":"levelo://app?vid=cc43f734-1d17-4d0b-954d-3920eacbfedb","ios":"levelo://app?vid=cc43f734-1d17-4d0b-954d-3920eacbfedb"},"vehicle_type_id":"4","last_reported":1702746344,"current_range_meters":0,"station_id":"ce4bgph2rcd13ifvqc2g","pricing_plan_id":"free"},{"bike_id":"5764712d-6b96-48cb-97b4-164d59909370","system_id":"levelo_inurba_marseille","lat":43.317557,"lon":5.390173,"is_reserved":false,"is_disabled":false,"rental_uris":{"android":"levelo://app?vid=5764712d-6b96-48cb-97b4-164d59909370","ios":"levelo://app?vid=5764712d-6b96-48cb-97b4-164d59909370"},"vehicle_type_id":"4","last_reported":1702746344,"current_range_meters":0,"station_id":"ce4bhqp2rcd13ifvqhng","pricing_plan_id":"free"},{"bike_id":"82cae7b3-c900-4ce7-9f7a-65d239812f51","system_id":"levelo_inurba_marseille","lat":43.295748,"lon":5.37522,"is_reserved":false,"is_disabled":false,"rental_uris":{"android":"levelo://app?vid=82cae7b3-c900-4ce7-9f7a-65d239812f51","ios":"levelo://app?vid=82cae7b3-c900-4ce7-9f7a-65d239812f51"},"vehicle_type_id":"4","last_reported":1702746344,"current_range_meters":0,"station_id":"ce4bgh92rcd13ifvqb50","pricing_plan_id":"free"},{"bike_id":"1d1b7b3c-2c5f-4be2-b1d9-b113a0a8a9ed","system_id":"levelo_inurba_marseille","lat":43.304278,"lon":5.388868,"is_reserved":false,"is_disabled":false,"rental_uris":{"android":"levelo://app?vid=1d1b7b3c-2c5f-4be2-b1d9-b113a0a8a9ed","ios":"levelo://app?vid=1d1b7b3c-2c5f-4be2-b1d9-b113a0a8a9ed"},"vehicle_type_id":"4","last_reported":1702746344,"current_range_meters":12000,"station_id":"ce4bgk12rcd13ifvqbi0","pricing_plan_id":"free"},{"bike_id":"0e80d087-6e64-4037-93bc-1c7e5fa9659b","system_id":"levelo_inurba_marseille","lat":43.296277,"lon":5.377108,"is_reserved":false,"is_disabled":false,"rental_uris":{"android":"levelo://app?vid=0e80d087-6e64-4037-93bc-1c7e5fa9659b","ios":"levelo://app?vid=0e80d087-6e64-4037-93bc-1c7e5fa9659b"},"vehicle_type_id":"4","last_reported":1702746344,"current_range_meters":3200,"station_id":"ce4bgi92rcd13ifvqb90","pricing_plan_id":"free"},{"bike_id":"5012e383-fb20-44f3-8ef9-658dd90b16f0","system_id":"levelo_inurba_marseille","lat":43.295279,"lon":5.375048,"is_reserved":false,"is_disabled":false,"rental_uris":{"android":"levelo://app?vid=5012e383-fb20-44f3-8ef9-658dd90b16f0","ios":"levelo://app?vid=5012e383-fb20-44f3-8ef9-658dd90b16f0"},"vehicle_type_id":"4","last_reported":1702746344,"current_range_meters":0,"station_id":"ce4bgkp2rcd13ifvqbmg","pricing_plan_id":"free"},{"bike_id":"3df3d190-8d13-4800-bdeb-f20ed2afdc74","system_id":"levelo_inurba_marseille","lat":43.295158,"lon":5.374957,"is_reserved":false,"is_disabled":false,"rental_uris":{"android":"levelo://app?vid=3df3d190-8d13-4800-bdeb-f20ed2afdc74","ios":"levelo://app?vid=3df3d190-8d13-4800-bdeb-f20ed2afdc74"},"vehicle_type_id":"4","last_reported":1702746344,"current_range_meters":15200,"station_id":"","pricing_plan_id":"free"},{"bike_id":"2d339ccb-9fe7-4132-b39e-b9bd4a932749","system_id":"levelo_inurba_marseille","lat":43.32364,"lon":5.38879,"is_reserved":false,"is_disabled":false,"rental_uris":{"android":"levelo://app?vid=2d339ccb-9fe7-4132-b39e-b9bd4a932749","ios":"levelo://app?vid=2d339ccb-9fe7-4132-b39e-b9bd4a932749"},"vehicle_type_id":"4","last_reported":1702746344,"current_range_meters":15600,"station_id":"ce4bhqp2rcd13ifvqhog","pricing_plan_id":"free"},{"bike_id":"fa886c85-cf6e-4aec-bfb5-316c4da0721f","system_id":"levelo_inurba_marseille","lat":43.293259,"lon":5.371586,"is_reserved":false,"is_disabled":false,"rental_uris":{"android":"levelo://app?vid=fa886c85-cf6e-4aec-bfb5-316c4da0721f","ios":"levelo://app?vid=fa886c85-cf6e-4aec-bfb5-316c4da0721f"},"vehicle_type_id":"4","last_reported":1702746344,"current_range_meters":0,"station_id":"ce4bgh92rcd13ifvqb40","pricing_plan_id":"free"},{"bike_id":"6439c83a-7ccd-48ee-bc68-60e395943438","system_id":"levelo_inurba_marseille","lat":43.29275,"lon":5.36848,"is_reserved":false,"is_disabled":false,"rental_uris":{"android":"levelo://app?vid=6439c83a-7ccd-48ee-bc68-60e395943438","ios":"levelo://app?vid=6439c83a-7ccd-48ee-bc68-60e395943438"},"vehicle_type_id":"4","last_reported":1702746344,"current_range_meters":25200,"station_id":"ce4bhbp2rcd13ifvqesg","pricing_plan_id":"free"},{"bike_id":"b269684a-a838-45e6-990a-27b651ce9323","system_id":"levelo_inurba_marseille","lat":43.293009,"lon":5.374584,"is_reserved":false,"is_disabled":false,"rental_uris":{"android":"levelo://app?vid=b269684a-a838-45e6-990a-27b651ce9323","ios":"levelo://app?vid=b269684a-a838-45e6-990a-27b651ce9323"},"vehicle_type_id":"4","last_reported":1702746344,"current_range_meters":12800,"station_id":"ce4bgi12rcd13ifvqb70","pricing_plan_id":"free"},{"bike_id":"227cb26c-5e49-4cef-ae8a-2351a900ba3c","system_id":"levelo_inurba_marseille","lat":43.293009,"lon":5.374584,"is_reserved":false,"is_disabled":false,"rental_uris":{"android":"levelo://app?vid=227cb26c-5e49-4cef-ae8a-2351a900ba3c","ios":"levelo://app?vid=227cb26c-5e49-4cef-ae8a-2351a900ba3c"},"vehicle_type_id":"4","last_reported":1702746344,"current_range_meters":9600,"station_id":"ce4bgi12rcd13ifvqb70","pricing_plan_id":"free"},{"bike_id":"ad9879f4-3926-4a20-82e5-720f9c2b8aa6","system_id":"levelo_inurba_marseille","lat":43.305994,"lon":5.393687,"is_reserved":false,"is_disabled":false,"rental_uris":{"android":"levelo://app?vid=ad9879f4-3926-4a20-82e5-720f9c2b8aa6","ios":"levelo://app?vid=ad9879f4-3926-4a20-82e5-720f9c2b8aa6"},"vehicle_type_id":"4","last_reported":1702746344,"current_range_meters":31200,"station_id":"ce4bh0p2rcd13ifvqd80","pricing_plan_id":"free"},{"bike_id":"31d405cd-7069-406b-8263-60d12fe41531","system_id":"levelo_inurba_marseille","lat":43.302992,"lon":5.392136,"is_reserved":false,"is_disabled":false,"rental_uris":{"android":"levelo://app?vid=31d405cd-7069-406b-8263-60d12fe41531","ios":"levelo://app?vid=31d405cd-7069-406b-8263-60d12fe41531"},"vehicle_type_id":"4","last_reported":1702746344,"current_range_meters":0,"station_id":"ce4bgkh2rcd13ifvqbk0","pricing_plan_id":"free"},{"bike_id":"c8ca3096-cdaf-4adb-8bf6-6c87d45f3e00","system_id":"levelo_inurba_marseille","lat":43.303002,"lon":5.392142,"is_reserved":false,"is_disabled":false,"rental_uris":{"android":"levelo://app?vid=c8ca3096-cdaf-4adb-8bf6-6c87d45f3e00","ios":"levelo://app?vid=c8ca3096-cdaf-4adb-8bf6-6c87d45f3e00"},"vehicle_type_id":"4","last_reported":1702746344,"current_range_meters":26000,"station_id":"ce4bgkh2rcd13ifvqbk0","pricing_plan_id":"free"},{"bike_id":"5bdcc3dd-71e1-4f2b-a5fb-9a963bc0567e","system_id":"levelo_inurba_marseille","lat":43.302992,"lon":5.392136,"is_reserved":false,"is_disabled":false,"rental_uris":{"android":"levelo://app?vid=5bdcc3dd-71e1-4f2b-a5fb-9a963bc0567e","ios":"levelo://app?vid=5bdcc3dd-71e1-4f2b-a5fb-9a963bc0567e"},"vehicle_type_id":"4","last_reported":1702746344,"current_range_meters":17600,"station_id":"ce4bgkh2rcd13ifvqbk0","pricing_plan_id":"free"},{"bike_id":"1b4f506e-85d9-4ff9-ae46-a8f12828bc3c","system_id":"levelo_inurba_marseille","lat":43.2936,"lon":5.37835,"is_reserved":false,"is_disabled":false,"rental_uris":{"android":"levelo://app?vid=1b4f506e-85d9-4ff9-ae46-a8f12828bc3c","ios":"levelo://app?vid=1b4f506e-85d9-4ff9-ae46-a8f12828bc3c"},"vehicle_type_id":"4","last_reported":1702746344,"current_range_meters":27200,"station_id":"ce4bgjh2rcd13ifvqbf0","pricing_plan_id":"free"},{"bike_id":"60f773f8-bee0-4661-852c-e916d971daf8","system_id":"levelo_inurba_marseille","lat":43.291675,"lon":5.371583,"is_reserved":false,"is_disabled":false,"rental_uris":{"android":"levelo://app?vid=60f773f8-bee0-4661-852c-e916d971daf8","ios":"levelo://app?vid=60f773f8-bee0-4661-852c-e916d971daf8"},"vehicle_type_id":"4","last_reported":1702746344,"current_range_meters":10400,"station_id":"ce4bha92rcd13ifvqeh0","pricing_plan_id":"free"},{"bike_id":"1a8eef7b-ad9f-4ac7-87ee-c0b0a15f1c41","system_id":"levelo_inurba_marseille","lat":43.313291,"lon":5.396838,"is_reserved":false,"is_disabled":false,"rental_uris":{"android":"levelo://app?vid=1a8eef7b-ad9f-4ac7-87ee-c0b0a15f1c41","ios":"levelo://app?vid=1a8eef7b-ad9f-4ac7-87ee-c0b0a15f1c41"},"vehicle_type_id":"4","last_reported":1702746344,"current_range_meters":22000,"station_id":"ce4bgvp2rcd13ifvqcu0","pricing_plan_id":"free"},{"bike_id":"54521fa5-ca51-484e-8e80-a6651b78538c","system_id":"levelo_inurba_marseille","lat":43.291851,"lon":5.358078,"is_reserved":false,"is_disabled":false,"rental_uris":{"android":"levelo://app?vid=54521fa5-ca51-484e-8e80-a6651b78538c","ios":"levelo://app?vid=54521fa5-ca51-484e-8e80-a6651b78538c"},"vehicle_type_id":"4","last_reported":1702746344,"current_range_meters":0,"station_id":"","pricing_plan_id":"free"},{"bike_id":"1c840a61-3771-4b17-b048-605ea66d2949","system_id":"levelo_inurba_marseille","lat":43.309038,"lon":5.396546,"is_reserved":false,"is_disabled":false,"rental_uris":{"android":"levelo://app?vid=1c840a61-3771-4b17-b048-605ea66d2949","ios":"levelo://app?vid=1c840a61-3771-4b17-b048-605ea66d2949"},"vehicle_type_id":"4","last_reported":1702746344,"current_range_meters":13200,"station_id":"ce4bh012rcd13ifvqcv0","pricing_plan_id":"free"},{"bike_id":"36e12b78-a35f-4c3e-a78f-4980da08565c","system_id":"levelo_inurba_marseille","lat":43.309038,"lon":5.396546,"is_reserved":false,"is_disabled":false,"rental_uris":{"android":"levelo://app?vid=36e12b78-a35f-4c3e-a78f-4980da08565c","ios":"levelo://app?vid=36e12b78-a35f-4c3e-a78f-4980da08565c"},"vehicle_type_id":"4","last_reported":1702746344,"current_range_meters":27200,"station_id":"ce4bh012rcd13ifvqcv0","pricing_plan_id":"free"},{"bike_id":"6cb470a1-ea1e-4525-852f-d80277248ea8","system_id":"levelo_inurba_marseille","lat":43.29529,"lon":5.385581,"is_reserved":false,"is_disabled":false,"rental_uris":{"android":"levelo://app?vid=6cb470a1-ea1e-4525-852f-d80277248ea8","ios":"levelo://app?vid=6cb470a1-ea1e-4525-852f-d80277248ea8"},"vehicle_type_id":"4","last_reported":1702746344,"current_range_meters":1200,"station_id":"ce4bgih2rcd13ifvqba0","pricing_plan_id":"free"},{"bike_id":"3772355c-dd3d-4933-bb85-f26fe7335f9d","system_id":"levelo_inurba_marseille","lat":43.3021,"lon":5.39459,"is_reserved":false,"is_disabled":false,"rental_uris":{"android":"levelo://app?vid=3772355c-dd3d-4933-bb85-f26fe7335f9d","ios":"levelo://app?vid=3772355c-dd3d-4933-bb85-f26fe7335f9d"},"vehicle_type_id":"4","last_reported":1702746344,"current_range_meters":3200,"station_id":"ce4bh0p2rcd13ifvqd70","pricing_plan_id":"free"},{"bike_id":"968c179f-36e2-42b6-9af4-0eef7c789e51","system_id":"levelo_inurba_marseille","lat":43.29042,"lon":5.375567,"is_reserved":false,"is_disabled":false,"rental_uris":{"android":"levelo://app?vid=968c179f-36e2-42b6-9af4-0eef7c789e51","ios":"levelo://app?vid=968c179f-36e2-42b6-9af4-0eef7c789e51"},"vehicle_type_id":"4","last_reported":1702746344,"current_range_meters":23600,"station_id":"ce4bh692rcd13ifvqe90","pricing_plan_id":"free"},{"bike_id":"3d7733f9-5576-4100-84c4-44cffaa929c1","system_id":"levelo_inurba_marseille","lat":43.294153,"lon":5.386305,"is_reserved":false,"is_disabled":false,"rental_uris":{"android":"levelo://app?vid=3d7733f9-5576-4100-84c4-44cffaa929c1","ios":"levelo://app?vid=3d7733f9-5576-4100-84c4-44cffaa929c1"},"vehicle_type_id":"4","last_reported":1702746344,"current_range_meters":4000,"station_id":"ce4bh2h2rcd13ifvqdh0","pricing_plan_id":"free"},{"bike_id":"e1e20f4c-815f-4b39-ab4d-22b8e4cac608","system_id":"levelo_inurba_marseille","lat":43.294153,"lon":5.386305,"is_reserved":false,"is_disabled":false,"rental_uris":{"android":"levelo://app?vid=e1e20f4c-815f-4b39-ab4d-22b8e4cac608","ios":"levelo://app?vid=e1e20f4c-815f-4b39-ab4d-22b8e4cac608"},"vehicle_type_id":"4","last_reported":1702746344,"current_range_meters":10800,"station_id":"ce4bh2h2rcd13ifvqdh0","pricing_plan_id":"free"},{"bike_id":"08701b4c-6ad2-4b32-9c47-69a010064bae","system_id":"levelo_inurba_marseille","lat":43.290327,"lon":5.375711,"is_reserved":false,"is_disabled":false,"rental_uris":{"android":"levelo://app?vid=08701b4c-6ad2-4b32-9c47-69a010064bae","ios":"levelo://app?vid=08701b4c-6ad2-4b32-9c47-69a010064bae"},"vehicle_type_id":"4","last_reported":1702746344,"current_range_meters":4000,"station_id":"ce4bh692rcd13ifvqe90","pricing_plan_id":"free"},{"bike_id":"d33c92eb-b78b-44aa-adf5-9afc6694d9f9","system_id":"levelo_inurba_marseille","lat":43.294153,"lon":5.386305,"is_reserved":false,"is_disabled":false,"rental_uris":{"android":"levelo://app?vid=d33c92eb-b78b-44aa-adf5-9afc6694d9f9","ios":"levelo://app?vid=d33c92eb-b78b-44aa-adf5-9afc6694d9f9"},"vehicle_type_id":"4","last_reported":1702746344,"current_range_meters":10000,"station_id":"ce4bh2h2rcd13ifvqdh0","pricing_plan_id":"free"},{"bike_id":"5d6d30f7-0f9f-44d0-a88e-87a883970170","system_id":"levelo_inurba_marseille","lat":43.294162,"lon":5.386292,"is_reserved":false,"is_disabled":false,"rental_uris":{"android":"levelo://app?vid=5d6d30f7-0f9f-44d0-a88e-87a883970170","ios":"levelo://app?vid=5d6d30f7-0f9f-44d0-a88e-87a883970170"},"vehicle_type_id":"4","last_reported":1702746344,"current_range_meters":4800,"station_id":"ce4bh2h2rcd13ifvqdh0","pricing_plan_id":"free"},{"bike_id":"ecd96871-fc08-4921-8111-1cb0b7a77abc","system_id":"levelo_inurba_marseille","lat":43.294162,"lon":5.386292,"is_reserved":false,"is_disabled":false,"rental_uris":{"android":"levelo://app?vid=ecd96871-fc08-4921-8111-1cb0b7a77abc","ios":"levelo://app?vid=ecd96871-fc08-4921-8111-1cb0b7a77abc"},"vehicle_type_id":"4","last_reported":1702746344,"current_range_meters":1200,"station_id":"ce4bh2h2rcd13ifvqdh0","pricing_plan_id":"free"},{"bike_id":"62b4b3f6-6d4a-4d45-8729-619a5b3e2579","system_id":"levelo_inurba_marseille","lat":43.29032,"lon":5.37569,"is_reserved":false,"is_disabled":false,"rental_uris":{"android":"levelo://app?vid=62b4b3f6-6d4a-4d45-8729-619a5b3e2579","ios":"levelo://app?vid=62b4b3f6-6d4a-4d45-8729-619a5b3e2579"},"vehicle_type_id":"4","last_reported":1702746344,"current_range_meters":7600,"station_id":"ce4bh692rcd13ifvqe90","pricing_plan_id":"free"},{"bike_id":"fc0460aa-5608-4c7e-b765-1010cfbf36ce","system_id":"levelo_inurba_marseille","lat":43.294162,"lon":5.386292,"is_reserved":false,"is_disabled":false,"rental_uris":{"android":"levelo://app?vid=fc0460aa-5608-4c7e-b765-1010cfbf36ce","ios":"levelo://app?vid=fc0460aa-5608-4c7e-b765-1010cfbf36ce"},"vehicle_type_id":"4","last_reported":1702746344,"current_range_meters":5600,"station_id":"ce4bh2h2rcd13ifvqdh0","pricing_plan_id":"free"},{"bike_id":"2ff5ab5b-e423-439d-a3e5-2fc7721cb9de","system_id":"levelo_inurba_marseille","lat":43.292642,"lon":5.384254,"is_reserved":false,"is_disabled":false,"rental_uris":{"android":"levelo://app?vid=2ff5ab5b-e423-439d-a3e5-2fc7721cb9de","ios":"levelo://app?vid=2ff5ab5b-e423-439d-a3e5-2fc7721cb9de"},"vehicle_type_id":"4","last_reported":1702746344,"current_range_meters":11600,"station_id":"ce4bh692rcd13ifvqea0","pricing_plan_id":"free"},{"bike_id":"ac4a8135-d91e-455c-a30a-e32a7467fa39","system_id":"levelo_inurba_marseille","lat":43.292644,"lon":5.384257,"is_reserved":false,"is_disabled":false,"rental_uris":{"android":"levelo://app?vid=ac4a8135-d91e-455c-a30a-e32a7467fa39","ios":"levelo://app?vid=ac4a8135-d91e-455c-a30a-e32a7467fa39"},"vehicle_type_id":"4","last_reported":1702746344,"current_range_meters":30800,"station_id":"ce4bh692rcd13ifvqea0","pricing_plan_id":"free"},{"bike_id":"bbca14cf-0793-4ec4-8676-60d03df4c976","system_id":"levelo_inurba_marseille","lat":43.292644,"lon":5.384257,"is_reserved":false,"is_disabled":false,"rental_uris":{"android":"levelo://app?vid=bbca14cf-0793-4ec4-8676-60d03df4c976","ios":"levelo://app?vid=bbca14cf-0793-4ec4-8676-60d03df4c976"},"vehicle_type_id":"4","last_reported":1702746344,"current_range_meters":1600,"station_id":"ce4bh692rcd13ifvqea0","pricing_plan_id":"free"},{"bike_id":"90735d25-7f91-4a0b-ae34-af97db0a9a93","system_id":"levelo_inurba_marseille","lat":43.292644,"lon":5.384257,"is_reserved":false,"is_disabled":false,"rental_uris":{"android":"levelo://app?vid=90735d25-7f91-4a0b-ae34-af97db0a9a93","ios":"levelo://app?vid=90735d25-7f91-4a0b-ae34-af97db0a9a93"},"vehicle_type_id":"4","last_reported":1702746344,"current_range_meters":400,"station_id":"ce4bh692rcd13ifvqea0","pricing_plan_id":"free"},{"bike_id":"c57598e2-d5ae-42a2-81c5-ac9231b1bd06","system_id":"levelo_inurba_marseille","lat":43.292644,"lon":5.384257,"is_reserved":false,"is_disabled":false,"rental_uris":{"android":"levelo://app?vid=c57598e2-d5ae-42a2-81c5-ac9231b1bd06","ios":"levelo://app?vid=c57598e2-d5ae-42a2-81c5-ac9231b1bd06"},"vehicle_type_id":"4","last_reported":1702746344,"current_range_meters":30800,"station_id":"ce4bh692rcd13ifvqea0","pricing_plan_id":"free"},{"bike_id":"b7015c97-1e2d-47ea-9fe4-1521fdff8377","system_id":"levelo_inurba_marseille","lat":43.2926,"lon":5.38445,"is_reserved":false,"is_disabled":false,"rental_uris":{"android":"levelo://app?vid=b7015c97-1e2d-47ea-9fe4-1521fdff8377","ios":"levelo://app?vid=b7015c97-1e2d-47ea-9fe4-1521fdff8377"},"vehicle_type_id":"4","last_reported":1702746344,"current_range_meters":31200,"station_id":"ce4bh692rcd13ifvqea0","pricing_plan_id":"free"},{"bike_id":"64084bda-cfbd-4ddf-9c19-58d103f60019","system_id":"levelo_inurba_marseille","lat":43.292644,"lon":5.384257,"is_reserved":false,"is_disabled":false,"rental_uris":{"android":"levelo://app?vid=64084bda-cfbd-4ddf-9c19-58d103f60019","ios":"levelo://app?vid=64084bda-cfbd-4ddf-9c19-58d103f60019"},"vehicle_type_id":"4","last_reported":1702746344,"current_range_meters":2400,"station_id":"ce4bh692rcd13ifvqea0","pricing_plan_id":"free"},{"bike_id":"5b0723b1-45da-4574-92c0-3b09a499fb10","system_id":"levelo_inurba_marseille","lat":43.292644,"lon":5.384257,"is_reserved":false,"is_disabled":false,"rental_uris":{"android":"levelo://app?vid=5b0723b1-45da-4574-92c0-3b09a499fb10","ios":"levelo://app?vid=5b0723b1-45da-4574-92c0-3b09a499fb10"},"vehicle_type_id":"4","last_reported":1702746344,"current_range_meters":15600,"station_id":"ce4bh692rcd13ifvqea0","pricing_plan_id":"free"},{"bike_id":"fccad1f3-4f7f-4d2e-90fb-a1bbe50ef4c3","system_id":"levelo_inurba_marseille","lat":43.292644,"lon":5.384257,"is_reserved":false,"is_disabled":false,"rental_uris":{"android":"levelo://app?vid=fccad1f3-4f7f-4d2e-90fb-a1bbe50ef4c3","ios":"levelo://app?vid=fccad1f3-4f7f-4d2e-90fb-a1bbe50ef4c3"},"vehicle_type_id":"4","last_reported":1702746344,"current_range_meters":20800,"station_id":"ce4bh692rcd13ifvqea0","pricing_plan_id":"free"},{"bike_id":"7869065b-ba9c-4e14-a6e0-075a72b86610","system_id":"levelo_inurba_marseille","lat":43.330415,"lon":5.38922,"is_reserved":false,"is_disabled":false,"rental_uris":{"android":"levelo://app?vid=7869065b-ba9c-4e14-a6e0-075a72b86610","ios":"levelo://app?vid=7869065b-ba9c-4e14-a6e0-075a72b86610"},"vehicle_type_id":"4","last_reported":1702746344,"current_range_meters":7600,"station_id":"ce4bhr92rcd13ifvqhrg","pricing_plan_id":"free"},{"bike_id":"af488abe-ce7c-485e-a9b8-48498f9a979b","system_id":"levelo_inurba_marseille","lat":43.290995,"lon":5.381361,"is_reserved":false,"is_disabled":false,"rental_uris":{"android":"levelo://app?vid=af488abe-ce7c-485e-a9b8-48498f9a979b","ios":"levelo://app?vid=af488abe-ce7c-485e-a9b8-48498f9a979b"},"vehicle_type_id":"4","last_reported":1702746344,"current_range_meters":16400,"station_id":"ce4bh512rcd13ifvqe2g","pricing_plan_id":"free"},{"bike_id":"61b4d36b-084f-4dd3-bc27-9e63accb8a21","system_id":"levelo_inurba_marseille","lat":43.29786,"lon":5.39319,"is_reserved":false,"is_disabled":false,"rental_uris":{"android":"levelo://app?vid=61b4d36b-084f-4dd3-bc27-9e63accb8a21","ios":"levelo://app?vid=61b4d36b-084f-4dd3-bc27-9e63accb8a21"},"vehicle_type_id":"4","last_reported":1702746344,"current_range_meters":2800,"station_id":"chh1huq6cuj3fo74tm60","pricing_plan_id":"free"},{"bike_id":"f12a38da-95eb-45a3-b343-6c8683900c95","system_id":"levelo_inurba_marseille","lat":43.29789,"lon":5.39341,"is_reserved":false,"is_disabled":false,"rental_uris":{"android":"levelo://app?vid=f12a38da-95eb-45a3-b343-6c8683900c95","ios":"levelo://app?vid=f12a38da-95eb-45a3-b343-6c8683900c95"},"vehicle_type_id":"4","last_reported":1702746344,"current_range_meters":27200,"station_id":"chh1huq6cuj3fo74tm60","pricing_plan_id":"free"},{"bike_id":"ea11649b-261e-42ea-ae9c-7937ffd32a8e","system_id":"levelo_inurba_marseille","lat":43.29784,"lon":5.39347,"is_reserved":false,"is_disabled":false,"rental_uris":{"android":"levelo://app?vid=ea11649b-261e-42ea-ae9c-7937ffd32a8e","ios":"levelo://app?vid=ea11649b-261e-42ea-ae9c-7937ffd32a8e"},"vehicle_type_id":"4","last_reported":1702746344,"current_range_meters":15600,"station_id":"chh1huq6cuj3fo74tm60","pricing_plan_id":"free"},{"bike_id":"9db67d9d-6c73-4dbb-b22c-4197cdabf67a","system_id":"levelo_inurba_marseille","lat":43.289741,"lon":5.378306,"is_reserved":false,"is_disabled":false,"rental_uris":{"android":"levelo://app?vid=9db67d9d-6c73-4dbb-b22c-4197cdabf67a","ios":"levelo://app?vid=9db67d9d-6c73-4dbb-b22c-4197cdabf67a"},"vehicle_type_id":"4","last_reported":1702746344,"current_range_meters":16400,"station_id":"ce4bh9p2rcd13ifvqed0","pricing_plan_id":"free"},{"bike_id":"5743af6a-7528-4d12-808a-089f8fe4c401","system_id":"levelo_inurba_marseille","lat":43.295169,"lon":5.390426,"is_reserved":false,"is_disabled":false,"rental_uris":{"android":"levelo://app?vid=5743af6a-7528-4d12-808a-089f8fe4c401","ios":"levelo://app?vid=5743af6a-7528-4d12-808a-089f8fe4c401"},"vehicle_type_id":"4","last_reported":1702746344,"current_range_meters":6400,"station_id":"ce4bh3p2rcd13ifvqdp0","pricing_plan_id":"free"},{"bike_id":"3362dfbc-3e97-43fd-83a6-0e7d4a31dd61","system_id":"levelo_inurba_marseille","lat":43.28851,"lon":5.35868,"is_reserved":false,"is_disabled":false,"rental_uris":{"android":"levelo://app?vid=3362dfbc-3e97-43fd-83a6-0e7d4a31dd61","ios":"levelo://app?vid=3362dfbc-3e97-43fd-83a6-0e7d4a31dd61"},"vehicle_type_id":"4","last_reported":1702746344,"current_range_meters":29200,"station_id":"ce4bhb12rcd13ifvqem0","pricing_plan_id":"free"},{"bike_id":"62da484e-8334-46ac-9f7c-60809dd59db9","system_id":"levelo_inurba_marseille","lat":43.312609,"lon":5.401662,"is_reserved":false,"is_disabled":false,"rental_uris":{"android":"levelo://app?vid=62da484e-8334-46ac-9f7c-60809dd59db9","ios":"levelo://app?vid=62da484e-8334-46ac-9f7c-60809dd59db9"},"vehicle_type_id":"4","last_reported":1702746344,"current_range_meters":0,"station_id":"ce4bh092rcd13ifvqd30","pricing_plan_id":"free"},{"bike_id":"a9f07576-8e7d-40a5-aba5-10d5be3efacd","system_id":"levelo_inurba_marseille","lat":43.309371,"lon":5.401449,"is_reserved":false,"is_disabled":false,"rental_uris":{"android":"levelo://app?vid=a9f07576-8e7d-40a5-aba5-10d5be3efacd","ios":"levelo://app?vid=a9f07576-8e7d-40a5-aba5-10d5be3efacd"},"vehicle_type_id":"4","last_reported":1702746344,"current_range_meters":400,"station_id":"ce4bgvp2rcd13ifvqct0","pricing_plan_id":"free"},{"bike_id":"f0cd831c-cfb9-44c7-9487-103b6df223ca","system_id":"levelo_inurba_marseille","lat":43.337445,"lon":5.374592,"is_reserved":false,"is_disabled":false,"rental_uris":{"android":"levelo://app?vid=f0cd831c-cfb9-44c7-9487-103b6df223ca","ios":"levelo://app?vid=f0cd831c-cfb9-44c7-9487-103b6df223ca"},"vehicle_type_id":"4","last_reported":1702746344,"current_range_meters":28400,"station_id":"","pricing_plan_id":"free"},{"bike_id":"68521db1-5962-4d0e-8e20-3dfbebd8b859","system_id":"levelo_inurba_marseille","lat":43.309371,"lon":5.401449,"is_reserved":false,"is_disabled":false,"rental_uris":{"android":"levelo://app?vid=68521db1-5962-4d0e-8e20-3dfbebd8b859","ios":"levelo://app?vid=68521db1-5962-4d0e-8e20-3dfbebd8b859"},"vehicle_type_id":"4","last_reported":1702746344,"current_range_meters":10000,"station_id":"ce4bgvp2rcd13ifvqct0","pricing_plan_id":"free"},{"bike_id":"ef80ceab-dc9f-4b6c-8f52-707d5177f481","system_id":"levelo_inurba_marseille","lat":43.33752,"lon":5.37466,"is_reserved":false,"is_disabled":false,"rental_uris":{"android":"levelo://app?vid=ef80ceab-dc9f-4b6c-8f52-707d5177f481","ios":"levelo://app?vid=ef80ceab-dc9f-4b6c-8f52-707d5177f481"},"vehicle_type_id":"4","last_reported":1702746344,"current_range_meters":28000,"station_id":"","pricing_plan_id":"free"},{"bike_id":"9a2c3626-5ad0-44b0-85f7-678c1c33d390","system_id":"levelo_inurba_marseille","lat":43.30642,"lon":5.401031,"is_reserved":false,"is_disabled":false,"rental_uris":{"android":"levelo://app?vid=9a2c3626-5ad0-44b0-85f7-678c1c33d390","ios":"levelo://app?vid=9a2c3626-5ad0-44b0-85f7-678c1c33d390"},"vehicle_type_id":"4","last_reported":1702746344,"current_range_meters":13200,"station_id":"ce4bh112rcd13ifvqda0","pricing_plan_id":"free"},{"bike_id":"0d78b37c-1a50-4f71-9331-fd4e6d497291","system_id":"levelo_inurba_marseille","lat":43.28727,"lon":5.36078,"is_reserved":false,"is_disabled":false,"rental_uris":{"android":"levelo://app?vid=0d78b37c-1a50-4f71-9331-fd4e6d497291","ios":"levelo://app?vid=0d78b37c-1a50-4f71-9331-fd4e6d497291"},"vehicle_type_id":"4","last_reported":1702746344,"current_range_meters":8800,"station_id":"cki0cbj6b192h4jlfktg","pricing_plan_id":"free"},{"bike_id":"3a883e12-38c0-4dd4-a61e-50eeb7887dc2","system_id":"levelo_inurba_marseille","lat":43.298681,"lon":5.397225,"is_reserved":false,"is_disabled":false,"rental_uris":{"android":"levelo://app?vid=3a883e12-38c0-4dd4-a61e-50eeb7887dc2","ios":"levelo://app?vid=3a883e12-38c0-4dd4-a61e-50eeb7887dc2"},"vehicle_type_id":"4","last_reported":1702746344,"current_range_meters":23200,"station_id":"ce4bh0h2rcd13ifvqd50","pricing_plan_id":"free"},{"bike_id":"9de7fe6b-2b83-4447-9f36-8d653e85334f","system_id":"levelo_inurba_marseille","lat":43.286591,"lon":5.363346,"is_reserved":false,"is_disabled":false,"rental_uris":{"android":"levelo://app?vid=9de7fe6b-2b83-4447-9f36-8d653e85334f","ios":"levelo://app?vid=9de7fe6b-2b83-4447-9f36-8d653e85334f"},"vehicle_type_id":"4","last_reported":1702746344,"current_range_meters":13200,"station_id":"ce4bhah2rcd13ifvqej0","pricing_plan_id":"free"},{"bike_id":"40878893-70e8-4810-9d64-0b92c4c59e1e","system_id":"levelo_inurba_marseille","lat":43.286961,"lon":5.373785,"is_reserved":false,"is_disabled":false,"rental_uris":{"android":"levelo://app?vid=40878893-70e8-4810-9d64-0b92c4c59e1e","ios":"levelo://app?vid=40878893-70e8-4810-9d64-0b92c4c59e1e"},"vehicle_type_id":"4","last_reported":1702746344,"current_range_meters":10800,"station_id":"ce4bh3p2rcd13ifvqdq0","pricing_plan_id":"free"},{"bike_id":"790cefcd-664b-479f-8e44-685a80007f01","system_id":"levelo_inurba_marseille","lat":43.286961,"lon":5.373785,"is_reserved":false,"is_disabled":false,"rental_uris":{"android":"levelo://app?vid=790cefcd-664b-479f-8e44-685a80007f01","ios":"levelo://app?vid=790cefcd-664b-479f-8e44-685a80007f01"},"vehicle_type_id":"4","last_reported":1702746344,"current_range_meters":11600,"station_id":"ce4bh3p2rcd13ifvqdq0","pricing_plan_id":"free"},{"bike_id":"9a4284c5-6dfa-4f90-8e28-2107874dbd62","system_id":"levelo_inurba_marseille","lat":43.302759,"lon":5.400793,"is_reserved":false,"is_disabled":false,"rental_uris":{"android":"levelo://app?vid=9a4284c5-6dfa-4f90-8e28-2107874dbd62","ios":"levelo://app?vid=9a4284c5-6dfa-4f90-8e28-2107874dbd62"},"vehicle_type_id":"4","last_reported":1702746344,"current_range_meters":2800,"station_id":"ce4bgvh2rcd13ifvqcs0","pricing_plan_id":"free"},{"bike_id":"2b3d4f89-e1b8-4403-af49-f623c7bbad13","system_id":"levelo_inurba_marseille","lat":43.290345,"lon":5.38646,"is_reserved":false,"is_disabled":false,"rental_uris":{"android":"levelo://app?vid=2b3d4f89-e1b8-4403-af49-f623c7bbad13","ios":"levelo://app?vid=2b3d4f89-e1b8-4403-af49-f623c7bbad13"},"vehicle_type_id":"4","last_reported":1702746344,"current_range_meters":2400,"station_id":"ce4bh4p2rcd13ifvqe0g","pricing_plan_id":"free"},{"bike_id":"46937d05-36c2-495a-9b30-7603f646a5e5","system_id":"levelo_inurba_marseille","lat":43.307472,"lon":5.402786,"is_reserved":false,"is_disabled":false,"rental_uris":{"android":"levelo://app?vid=46937d05-36c2-495a-9b30-7603f646a5e5","ios":"levelo://app?vid=46937d05-36c2-495a-9b30-7603f646a5e5"},"vehicle_type_id":"4","last_reported":1702746344,"current_range_meters":12800,"station_id":"","pricing_plan_id":"free"},{"bike_id":"920a2a36-453c-48fa-aab6-a4b0e10df01d","system_id":"levelo_inurba_marseille","lat":43.286039,"lon":5.370679,"is_reserved":false,"is_disabled":false,"rental_uris":{"android":"levelo://app?vid=920a2a36-453c-48fa-aab6-a4b0e10df01d","ios":"levelo://app?vid=920a2a36-453c-48fa-aab6-a4b0e10df01d"},"vehicle_type_id":"4","last_reported":1702746344,"current_range_meters":13600,"station_id":"ce4bht12rcd13ifvqi60","pricing_plan_id":"free"},{"bike_id":"aeab4d54-c7ba-45e2-acb2-1f56a6d7a575","system_id":"levelo_inurba_marseille","lat":43.287184,"lon":5.37937,"is_reserved":false,"is_disabled":false,"rental_uris":{"android":"levelo://app?vid=aeab4d54-c7ba-45e2-acb2-1f56a6d7a575","ios":"levelo://app?vid=aeab4d54-c7ba-45e2-acb2-1f56a6d7a575"},"vehicle_type_id":"4","last_reported":1702746344,"current_range_meters":4400,"station_id":"ce4bh9p2rcd13ifvqec0","pricing_plan_id":"free"},{"bike_id":"ecfc2f65-e981-4d80-a216-40fdebb334d3","system_id":"levelo_inurba_marseille","lat":43.287184,"lon":5.37937,"is_reserved":false,"is_disabled":false,"rental_uris":{"android":"levelo://app?vid=ecfc2f65-e981-4d80-a216-40fdebb334d3","ios":"levelo://app?vid=ecfc2f65-e981-4d80-a216-40fdebb334d3"},"vehicle_type_id":"4","last_reported":1702746344,"current_range_meters":23200,"station_id":"ce4bh9p2rcd13ifvqec0","pricing_plan_id":"free"},{"bike_id":"6edb2128-d67f-4683-b38e-877ba77a6825","system_id":"levelo_inurba_marseille","lat":43.316828,"lon":5.404723,"is_reserved":false,"is_disabled":false,"rental_uris":{"android":"levelo://app?vid=6edb2128-d67f-4683-b38e-877ba77a6825","ios":"levelo://app?vid=6edb2128-d67f-4683-b38e-877ba77a6825"},"vehicle_type_id":"4","last_reported":1702746344,"current_range_meters":20800,"station_id":"ce4bh012rcd13ifvqd00","pricing_plan_id":"free"},{"bike_id":"7b532949-b3ef-4858-a249-c50cceeeff55","system_id":"levelo_inurba_marseille","lat":43.291994,"lon":5.392907,"is_reserved":false,"is_disabled":false,"rental_uris":{"android":"levelo://app?vid=7b532949-b3ef-4858-a249-c50cceeeff55","ios":"levelo://app?vid=7b532949-b3ef-4858-a249-c50cceeeff55"},"vehicle_type_id":"4","last_reported":1702746344,"current_range_meters":10800,"station_id":"ce4bh192rcd13ifvqdd0","pricing_plan_id":"free"},{"bike_id":"ee8b328c-1f63-4f78-8ab4-99d654e562be","system_id":"levelo_inurba_marseille","lat":43.2945,"lon":5.39759,"is_reserved":false,"is_disabled":false,"rental_uris":{"android":"levelo://app?vid=ee8b328c-1f63-4f78-8ab4-99d654e562be","ios":"levelo://app?vid=ee8b328c-1f63-4f78-8ab4-99d654e562be"},"vehicle_type_id":"4","last_reported":1702746344,"current_range_meters":0,"station_id":"ce4bh3h2rcd13ifvqdo0","pricing_plan_id":"free"},{"bike_id":"f9a06c59-4942-4c8d-88e8-57c69991d69a","system_id":"levelo_inurba_marseille","lat":43.28619,"lon":5.35105,"is_reserved":false,"is_disabled":false,"rental_uris":{"android":"levelo://app?vid=f9a06c59-4942-4c8d-88e8-57c69991d69a","ios":"levelo://app?vid=f9a06c59-4942-4c8d-88e8-57c69991d69a"},"vehicle_type_id":"4","last_reported":1702746344,"current_range_meters":8400,"station_id":"ce4bhch2rcd13ifvqeug","pricing_plan_id":"free"},{"bike_id":"f242a942-61a1-4b14-92e0-1cf7b79fab3f","system_id":"levelo_inurba_marseille","lat":43.283998,"lon":5.375062,"is_reserved":false,"is_disabled":false,"rental_uris":{"android":"levelo://app?vid=f242a942-61a1-4b14-92e0-1cf7b79fab3f","ios":"levelo://app?vid=f242a942-61a1-4b14-92e0-1cf7b79fab3f"},"vehicle_type_id":"4","last_reported":1702746344,"current_range_meters":0,"station_id":"ce4bh412rcd13ifvqds0","pricing_plan_id":"free"},{"bike_id":"2dfa5049-0e1b-4839-b5c3-156910a65dbd","system_id":"levelo_inurba_marseille","lat":43.33177,"lon":5.39828,"is_reserved":false,"is_disabled":false,"rental_uris":{"android":"levelo://app?vid=2dfa5049-0e1b-4839-b5c3-156910a65dbd","ios":"levelo://app?vid=2dfa5049-0e1b-4839-b5c3-156910a65dbd"},"vehicle_type_id":"4","last_reported":1702746344,"current_range_meters":8000,"station_id":"","pricing_plan_id":"free"},{"bike_id":"cc0d1c8a-3495-4ef3-ab2d-200446b4de03","system_id":"levelo_inurba_marseille","lat":43.286595,"lon":5.386795,"is_reserved":false,"is_disabled":false,"rental_uris":{"android":"levelo://app?vid=cc0d1c8a-3495-4ef3-ab2d-200446b4de03","ios":"levelo://app?vid=cc0d1c8a-3495-4ef3-ab2d-200446b4de03"},"vehicle_type_id":"4","last_reported":1702746344,"current_range_meters":12800,"station_id":"ce4bh492rcd13ifvqdug","pricing_plan_id":"free"},{"bike_id":"74c5cf30-49f6-42f3-835f-9c531e7566b4","system_id":"levelo_inurba_marseille","lat":43.319179,"lon":5.407725,"is_reserved":false,"is_disabled":false,"rental_uris":{"android":"levelo://app?vid=74c5cf30-49f6-42f3-835f-9c531e7566b4","ios":"levelo://app?vid=74c5cf30-49f6-42f3-835f-9c531e7566b4"},"vehicle_type_id":"4","last_reported":1702746344,"current_range_meters":28400,"station_id":"ce4bhq12rcd13ifvqhig","pricing_plan_id":"free"},{"bike_id":"eca0d983-9da9-46e9-9ca9-8ca06c05ddd8","system_id":"levelo_inurba_marseille","lat":43.32344,"lon":5.40623,"is_reserved":false,"is_disabled":false,"rental_uris":{"android":"levelo://app?vid=eca0d983-9da9-46e9-9ca9-8ca06c05ddd8","ios":"levelo://app?vid=eca0d983-9da9-46e9-9ca9-8ca06c05ddd8"},"vehicle_type_id":"4","last_reported":1702746344,"current_range_meters":11600,"station_id":"ce4bhq92rcd13ifvqhjg","pricing_plan_id":"free"},{"bike_id":"9375bd8c-75e3-412b-b4e8-6d73e4894f57","system_id":"levelo_inurba_marseille","lat":43.284787,"lon":5.384116,"is_reserved":false,"is_disabled":false,"rental_uris":{"android":"levelo://app?vid=9375bd8c-75e3-412b-b4e8-6d73e4894f57","ios":"levelo://app?vid=9375bd8c-75e3-412b-b4e8-6d73e4894f57"},"vehicle_type_id":"4","last_reported":1702746344,"current_range_meters":16400,"station_id":"ce4bh512rcd13ifvqe3g","pricing_plan_id":"free"},{"bike_id":"f93d46f9-ec14-40e4-ae6c-175f792cfc07","system_id":"levelo_inurba_marseille","lat":43.288537,"lon":5.39311,"is_reserved":false,"is_disabled":false,"rental_uris":{"android":"levelo://app?vid=f93d46f9-ec14-40e4-ae6c-175f792cfc07","ios":"levelo://app?vid=f93d46f9-ec14-40e4-ae6c-175f792cfc07"},"vehicle_type_id":"4","last_reported":1702746344,"current_range_meters":0,"station_id":"ce4bh2p2rcd13ifvqdi0","pricing_plan_id":"free"},{"bike_id":"87ffa842-db96-4ac7-912f-00f01caa1ea2","system_id":"levelo_inurba_marseille","lat":43.292724,"lon":5.401131,"is_reserved":false,"is_disabled":false,"rental_uris":{"android":"levelo://app?vid=87ffa842-db96-4ac7-912f-00f01caa1ea2","ios":"levelo://app?vid=87ffa842-db96-4ac7-912f-00f01caa1ea2"},"vehicle_type_id":"4","last_reported":1702746344,"current_range_meters":26000,"station_id":"ce4bh312rcd13ifvqdk0","pricing_plan_id":"free"},{"bike_id":"39bf55a0-55b6-4e47-8733-70f6b700eb39","system_id":"levelo_inurba_marseille","lat":43.280382,"lon":5.369291,"is_reserved":false,"is_disabled":false,"rental_uris":{"android":"levelo://app?vid=39bf55a0-55b6-4e47-8733-70f6b700eb39","ios":"levelo://app?vid=39bf55a0-55b6-4e47-8733-70f6b700eb39"},"vehicle_type_id":"4","last_reported":1702746344,"current_range_meters":15600,"station_id":"ce4bha12rcd13ifvqef0","pricing_plan_id":"free"},{"bike_id":"cc0df275-907d-491b-b433-246e496fa0f6","system_id":"levelo_inurba_marseille","lat":43.284462,"lon":5.392121,"is_reserved":false,"is_disabled":false,"rental_uris":{"android":"levelo://app?vid=cc0df275-907d-491b-b433-246e496fa0f6","ios":"levelo://app?vid=cc0df275-907d-491b-b433-246e496fa0f6"},"vehicle_type_id":"4","last_reported":1702746344,"current_range_meters":13600,"station_id":"ce4bhoh2rcd13ifvqh5g","pricing_plan_id":"free"},{"bike_id":"3826aed2-b6cc-499b-ae50-c51643862864","system_id":"levelo_inurba_marseille","lat":43.285742,"lon":5.395004,"is_reserved":false,"is_disabled":false,"rental_uris":{"android":"levelo://app?vid=3826aed2-b6cc-499b-ae50-c51643862864","ios":"levelo://app?vid=3826aed2-b6cc-499b-ae50-c51643862864"},"vehicle_type_id":"4","last_reported":1702746344,"current_range_meters":7200,"station_id":"ce4bh292rcd13ifvqdg0","pricing_plan_id":"free"},{"bike_id":"06df1117-ae7b-44a4-9259-748f2be67f15","system_id":"levelo_inurba_marseille","lat":43.28573,"lon":5.394992,"is_reserved":false,"is_disabled":false,"rental_uris":{"android":"levelo://app?vid=06df1117-ae7b-44a4-9259-748f2be67f15","ios":"levelo://app?vid=06df1117-ae7b-44a4-9259-748f2be67f15"},"vehicle_type_id":"4","last_reported":1702746344,"current_range_meters":26800,"station_id":"ce4bh292rcd13ifvqdg0","pricing_plan_id":"free"},{"bike_id":"181f1520-161c-4174-a2af-dfc40357b09b","system_id":"levelo_inurba_marseille","lat":43.326605,"lon":5.409903,"is_reserved":false,"is_disabled":false,"rental_uris":{"android":"levelo://app?vid=181f1520-161c-4174-a2af-dfc40357b09b","ios":"levelo://app?vid=181f1520-161c-4174-a2af-dfc40357b09b"},"vehicle_type_id":"4","last_reported":1702746344,"current_range_meters":4800,"station_id":"ce4bhpp2rcd13ifvqhgg","pricing_plan_id":"free"},{"bike_id":"fd38bf83-c6c8-4584-99c6-568f23717249","system_id":"levelo_inurba_marseille","lat":43.30421,"lon":5.41272,"is_reserved":false,"is_disabled":false,"rental_uris":{"android":"levelo://app?vid=fd38bf83-c6c8-4584-99c6-568f23717249","ios":"levelo://app?vid=fd38bf83-c6c8-4584-99c6-568f23717249"},"vehicle_type_id":"4","last_reported":1702746344,"current_range_meters":0,"station_id":"ce4bhop2rcd13ifvqh8g","pricing_plan_id":"free"},{"bike_id":"4b4681e8-5ae5-40ac-b6b6-d29c248b4938","system_id":"levelo_inurba_marseille","lat":43.304188,"lon":5.412904,"is_reserved":false,"is_disabled":false,"rental_uris":{"android":"levelo://app?vid=4b4681e8-5ae5-40ac-b6b6-d29c248b4938","ios":"levelo://app?vid=4b4681e8-5ae5-40ac-b6b6-d29c248b4938"},"vehicle_type_id":"4","last_reported":1702746344,"current_range_meters":31200,"station_id":"ce4bhop2rcd13ifvqh8g","pricing_plan_id":"free"},{"bike_id":"325dddf4-3b5a-45e4-804d-9d3947750a87","system_id":"levelo_inurba_marseille","lat":43.299579,"lon":5.413255,"is_reserved":false,"is_disabled":false,"rental_uris":{"android":"levelo://app?vid=325dddf4-3b5a-45e4-804d-9d3947750a87","ios":"levelo://app?vid=325dddf4-3b5a-45e4-804d-9d3947750a87"},"vehicle_type_id":"4","last_reported":1702746344,"current_range_meters":24400,"station_id":"ce4bhp12rcd13ifvqh9g","pricing_plan_id":"free"},{"bike_id":"b20b997c-e71c-4908-ab85-2e82e1ac7d9c","system_id":"levelo_inurba_marseille","lat":43.299579,"lon":5.413255,"is_reserved":false,"is_disabled":false,"rental_uris":{"android":"levelo://app?vid=b20b997c-e71c-4908-ab85-2e82e1ac7d9c","ios":"levelo://app?vid=b20b997c-e71c-4908-ab85-2e82e1ac7d9c"},"vehicle_type_id":"4","last_reported":1702746344,"current_range_meters":24000,"station_id":"ce4bhp12rcd13ifvqh9g","pricing_plan_id":"free"},{"bike_id":"cd3cd2c6-08cc-47ad-9fa3-0a81088da865","system_id":"levelo_inurba_marseille","lat":43.299577,"lon":5.413277,"is_reserved":false,"is_disabled":false,"rental_uris":{"android":"levelo://app?vid=cd3cd2c6-08cc-47ad-9fa3-0a81088da865","ios":"levelo://app?vid=cd3cd2c6-08cc-47ad-9fa3-0a81088da865"},"vehicle_type_id":"4","last_reported":1702746344,"current_range_meters":25600,"station_id":"ce4bhp12rcd13ifvqh9g","pricing_plan_id":"free"},{"bike_id":"528ddb9b-dfba-4f79-b617-7a07f1ac783d","system_id":"levelo_inurba_marseille","lat":43.292569,"lon":5.409107,"is_reserved":false,"is_disabled":false,"rental_uris":{"android":"levelo://app?vid=528ddb9b-dfba-4f79-b617-7a07f1ac783d","ios":"levelo://app?vid=528ddb9b-dfba-4f79-b617-7a07f1ac783d"},"vehicle_type_id":"4","last_reported":1702746344,"current_range_meters":26800,"station_id":"ce4bh192rcd13ifvqdc0","pricing_plan_id":"free"},{"bike_id":"7905dc6e-b2af-44e7-9f04-d54f13a39370","system_id":"levelo_inurba_marseille","lat":43.27618,"lon":5.361009,"is_reserved":false,"is_disabled":false,"rental_uris":{"android":"levelo://app?vid=7905dc6e-b2af-44e7-9f04-d54f13a39370","ios":"levelo://app?vid=7905dc6e-b2af-44e7-9f04-d54f13a39370"},"vehicle_type_id":"4","last_reported":1702746344,"current_range_meters":0,"station_id":"ce4bgj92rcd13ifvqbe0","pricing_plan_id":"free"},{"bike_id":"4c794363-f2ec-4478-bb04-574eac18fde2","system_id":"levelo_inurba_marseille","lat":43.278401,"lon":5.392152,"is_reserved":false,"is_disabled":false,"rental_uris":{"android":"levelo://app?vid=4c794363-f2ec-4478-bb04-574eac18fde2","ios":"levelo://app?vid=4c794363-f2ec-4478-bb04-574eac18fde2"},"vehicle_type_id":"4","last_reported":1702746344,"current_range_meters":26800,"station_id":"ce4bhjp2rcd13ifvqga0","pricing_plan_id":"free"},{"bike_id":"a16003f8-6ee5-400e-b9cc-95a819cc5e64","system_id":"levelo_inurba_marseille","lat":43.27375,"lon":5.36251,"is_reserved":false,"is_disabled":false,"rental_uris":{"android":"levelo://app?vid=a16003f8-6ee5-400e-b9cc-95a819cc5e64","ios":"levelo://app?vid=a16003f8-6ee5-400e-b9cc-95a819cc5e64"},"vehicle_type_id":"4","last_reported":1702746344,"current_range_meters":27200,"station_id":"ce4bhbh2rcd13ifvqeo0","pricing_plan_id":"free"},{"bike_id":"e34eaf55-c35f-4101-9878-ba8bdd65c155","system_id":"levelo_inurba_marseille","lat":43.275625,"lon":5.384392,"is_reserved":false,"is_disabled":false,"rental_uris":{"android":"levelo://app?vid=e34eaf55-c35f-4101-9878-ba8bdd65c155","ios":"levelo://app?vid=e34eaf55-c35f-4101-9878-ba8bdd65c155"},"vehicle_type_id":"4","last_reported":1702746344,"current_range_meters":4800,"station_id":"ce4bhh92rcd13ifvqfi0","pricing_plan_id":"free"},{"bike_id":"7f2c5036-bbca-45ec-975a-7e0fbea4945c","system_id":"levelo_inurba_marseille","lat":43.27368,"lon":5.3625,"is_reserved":false,"is_disabled":false,"rental_uris":{"android":"levelo://app?vid=7f2c5036-bbca-45ec-975a-7e0fbea4945c","ios":"levelo://app?vid=7f2c5036-bbca-45ec-975a-7e0fbea4945c"},"vehicle_type_id":"4","last_reported":1702746344,"current_range_meters":16000,"station_id":"ce4bhbh2rcd13ifvqeo0","pricing_plan_id":"free"},{"bike_id":"ea3d35f6-b07e-4308-ae51-5376e9d8e7cc","system_id":"levelo_inurba_marseille","lat":43.27352,"lon":5.36455,"is_reserved":false,"is_disabled":false,"rental_uris":{"android":"levelo://app?vid=ea3d35f6-b07e-4308-ae51-5376e9d8e7cc","ios":"levelo://app?vid=ea3d35f6-b07e-4308-ae51-5376e9d8e7cc"},"vehicle_type_id":"4","last_reported":1702746344,"current_range_meters":16000,"station_id":"","pricing_plan_id":"free"},{"bike_id":"d5776951-a88b-40da-9925-a49c0668d0c0","system_id":"levelo_inurba_marseille","lat":43.310785,"lon":5.424305,"is_reserved":false,"is_disabled":false,"rental_uris":{"android":"levelo://app?vid=d5776951-a88b-40da-9925-a49c0668d0c0","ios":"levelo://app?vid=d5776951-a88b-40da-9925-a49c0668d0c0"},"vehicle_type_id":"4","last_reported":1702746344,"current_range_meters":7600,"station_id":"ce4bhp92rcd13ifvqhag","pricing_plan_id":"free"},{"bike_id":"13b63d08-aaa3-4985-bf57-1f32727c58d1","system_id":"levelo_inurba_marseille","lat":43.310785,"lon":5.424305,"is_reserved":false,"is_disabled":false,"rental_uris":{"android":"levelo://app?vid=13b63d08-aaa3-4985-bf57-1f32727c58d1","ios":"levelo://app?vid=13b63d08-aaa3-4985-bf57-1f32727c58d1"},"vehicle_type_id":"4","last_reported":1702746344,"current_range_meters":30400,"station_id":"ce4bhp92rcd13ifvqhag","pricing_plan_id":"free"},{"bike_id":"93a9a0b0-f09a-4679-973e-f3ebca0caf36","system_id":"levelo_inurba_marseille","lat":43.310785,"lon":5.424305,"is_reserved":false,"is_disabled":false,"rental_uris":{"android":"levelo://app?vid=93a9a0b0-f09a-4679-973e-f3ebca0caf36","ios":"levelo://app?vid=93a9a0b0-f09a-4679-973e-f3ebca0caf36"},"vehicle_type_id":"4","last_reported":1702746344,"current_range_meters":31200,"station_id":"ce4bhp92rcd13ifvqhag","pricing_plan_id":"free"},{"bike_id":"82465d3b-247b-4c26-89a8-ceee402e70c7","system_id":"levelo_inurba_marseille","lat":43.310785,"lon":5.424305,"is_reserved":false,"is_disabled":false,"rental_uris":{"android":"levelo://app?vid=82465d3b-247b-4c26-89a8-ceee402e70c7","ios":"levelo://app?vid=82465d3b-247b-4c26-89a8-ceee402e70c7"},"vehicle_type_id":"4","last_reported":1702746344,"current_range_meters":5200,"station_id":"ce4bhp92rcd13ifvqhag","pricing_plan_id":"free"},{"bike_id":"537d4ba1-d686-41ad-b23a-d66071d8f96a","system_id":"levelo_inurba_marseille","lat":43.310785,"lon":5.424305,"is_reserved":false,"is_disabled":false,"rental_uris":{"android":"levelo://app?vid=537d4ba1-d686-41ad-b23a-d66071d8f96a","ios":"levelo://app?vid=537d4ba1-d686-41ad-b23a-d66071d8f96a"},"vehicle_type_id":"4","last_reported":1702746344,"current_range_meters":31200,"station_id":"ce4bhp92rcd13ifvqhag","pricing_plan_id":"free"},{"bike_id":"10eadedf-b2e9-4bb9-a1f0-77df69175439","system_id":"levelo_inurba_marseille","lat":43.28386,"lon":5.40852,"is_reserved":false,"is_disabled":false,"rental_uris":{"android":"levelo://app?vid=10eadedf-b2e9-4bb9-a1f0-77df69175439","ios":"levelo://app?vid=10eadedf-b2e9-4bb9-a1f0-77df69175439"},"vehicle_type_id":"4","last_reported":1702746344,"current_range_meters":11600,"station_id":"","pricing_plan_id":"free"},{"bike_id":"87cc8c4f-8ecf-420c-bac2-ed05f14f8c04","system_id":"levelo_inurba_marseille","lat":43.2761,"lon":5.39493,"is_reserved":false,"is_disabled":false,"rental_uris":{"android":"levelo://app?vid=87cc8c4f-8ecf-420c-bac2-ed05f14f8c04","ios":"levelo://app?vid=87cc8c4f-8ecf-420c-bac2-ed05f14f8c04"},"vehicle_type_id":"4","last_reported":1702746344,"current_range_meters":15600,"station_id":"","pricing_plan_id":"free"},{"bike_id":"3ca2c2d2-99b0-4aa6-a05d-e30f02e6a7fb","system_id":"levelo_inurba_marseille","lat":43.276092,"lon":5.395289,"is_reserved":false,"is_disabled":false,"rental_uris":{"android":"levelo://app?vid=3ca2c2d2-99b0-4aa6-a05d-e30f02e6a7fb","ios":"levelo://app?vid=3ca2c2d2-99b0-4aa6-a05d-e30f02e6a7fb"},"vehicle_type_id":"4","last_reported":1702746344,"current_range_meters":22000,"station_id":"","pricing_plan_id":"free"},{"bike_id":"2b34292c-9434-402d-9f1d-e2ccb281e580","system_id":"levelo_inurba_marseille","lat":43.274099,"lon":5.394019,"is_reserved":false,"is_disabled":false,"rental_uris":{"android":"levelo://app?vid=2b34292c-9434-402d-9f1d-e2ccb281e580","ios":"levelo://app?vid=2b34292c-9434-402d-9f1d-e2ccb281e580"},"vehicle_type_id":"4","last_reported":1702746344,"current_range_meters":16800,"station_id":"ce4bhdp2rcd13ifvqf20","pricing_plan_id":"free"},{"bike_id":"16ca1d5c-d5e1-44e7-b80a-aa3c6bc8eabf","system_id":"levelo_inurba_marseille","lat":43.295169,"lon":5.390426,"is_reserved":false,"is_disabled":false,"rental_uris":{"android":"levelo://app?vid=16ca1d5c-d5e1-44e7-b80a-aa3c6bc8eabf","ios":"levelo://app?vid=16ca1d5c-d5e1-44e7-b80a-aa3c6bc8eabf"},"vehicle_type_id":"4","last_reported":1702746344,"current_range_meters":10400,"station_id":"ce4bh3p2rcd13ifvqdp0","pricing_plan_id":"free"},{"bike_id":"bf39cdd6-5b84-4a52-ae59-c069fec5a89b","system_id":"levelo_inurba_marseille","lat":43.295523,"lon":5.422926,"is_reserved":false,"is_disabled":false,"rental_uris":{"android":"levelo://app?vid=bf39cdd6-5b84-4a52-ae59-c069fec5a89b","ios":"levelo://app?vid=bf39cdd6-5b84-4a52-ae59-c069fec5a89b"},"vehicle_type_id":"4","last_reported":1702746344,"current_range_meters":3200,"station_id":"ce4bhph2rcd13ifvqhdg","pricing_plan_id":"free"},{"bike_id":"7c5e5a9a-9f39-4a14-9573-d5b8ab599dd5","system_id":"levelo_inurba_marseille","lat":43.27191,"lon":5.39229,"is_reserved":false,"is_disabled":false,"rental_uris":{"android":"levelo://app?vid=7c5e5a9a-9f39-4a14-9573-d5b8ab599dd5","ios":"levelo://app?vid=7c5e5a9a-9f39-4a14-9573-d5b8ab599dd5"},"vehicle_type_id":"4","last_reported":1702746344,"current_range_meters":18000,"station_id":"ce4bhhp2rcd13ifvqfm0","pricing_plan_id":"free"},{"bike_id":"a831ef73-8697-4df7-9408-3775af9c3514","system_id":"levelo_inurba_marseille","lat":43.269319,"lon":5.389397,"is_reserved":false,"is_disabled":false,"rental_uris":{"android":"levelo://app?vid=a831ef73-8697-4df7-9408-3775af9c3514","ios":"levelo://app?vid=a831ef73-8697-4df7-9408-3775af9c3514"},"vehicle_type_id":"4","last_reported":1702746344,"current_range_meters":28400,"station_id":"ce4bhhh2rcd13ifvqfl0","pricing_plan_id":"free"},{"bike_id":"db774753-4382-453e-a138-c32d538f9839","system_id":"levelo_inurba_marseille","lat":43.35867,"lon":5.35674,"is_reserved":false,"is_disabled":false,"rental_uris":{"android":"levelo://app?vid=db774753-4382-453e-a138-c32d538f9839","ios":"levelo://app?vid=db774753-4382-453e-a138-c32d538f9839"},"vehicle_type_id":"4","last_reported":1702746344,"current_range_meters":9200,"station_id":"","pricing_plan_id":"free"},{"bike_id":"3cf20bd2-a34c-4063-8276-7172f1ff5204","system_id":"levelo_inurba_marseille","lat":43.265714,"lon":5.372891,"is_reserved":false,"is_disabled":false,"rental_uris":{"android":"levelo://app?vid=3cf20bd2-a34c-4063-8276-7172f1ff5204","ios":"levelo://app?vid=3cf20bd2-a34c-4063-8276-7172f1ff5204"},"vehicle_type_id":"4","last_reported":1702746344,"current_range_meters":0,"station_id":"ce4bhg12rcd13ifvqf70","pricing_plan_id":"free"},{"bike_id":"4e5fa13c-797e-4b2b-9a7c-88c2a22fc530","system_id":"levelo_inurba_marseille","lat":43.27996,"lon":5.416624,"is_reserved":false,"is_disabled":false,"rental_uris":{"android":"levelo://app?vid=4e5fa13c-797e-4b2b-9a7c-88c2a22fc530","ios":"levelo://app?vid=4e5fa13c-797e-4b2b-9a7c-88c2a22fc530"},"vehicle_type_id":"4","last_reported":1702746344,"current_range_meters":28400,"station_id":"ce4bho12rcd13ifvqh1g","pricing_plan_id":"free"},{"bike_id":"7b3acfec-7269-4a55-abfa-7819202d73ef","system_id":"levelo_inurba_marseille","lat":43.308051,"lon":5.43527,"is_reserved":false,"is_disabled":false,"rental_uris":{"android":"levelo://app?vid=7b3acfec-7269-4a55-abfa-7819202d73ef","ios":"levelo://app?vid=7b3acfec-7269-4a55-abfa-7819202d73ef"},"vehicle_type_id":"4","last_reported":1702746344,"current_range_meters":28000,"station_id":"ce4bhph2rcd13ifvqheg","pricing_plan_id":"free"},{"bike_id":"63a5be26-ca79-42ce-b963-ff2f251917d4","system_id":"levelo_inurba_marseille","lat":43.26562,"lon":5.39001,"is_reserved":false,"is_disabled":false,"rental_uris":{"android":"levelo://app?vid=63a5be26-ca79-42ce-b963-ff2f251917d4","ios":"levelo://app?vid=63a5be26-ca79-42ce-b963-ff2f251917d4"},"vehicle_type_id":"4","last_reported":1702746344,"current_range_meters":0,"station_id":"ce4bhe12rcd13ifvqf30","pricing_plan_id":"free"},{"bike_id":"efa49e63-1595-437a-b407-a226ca326ad7","system_id":"levelo_inurba_marseille","lat":43.26949,"lon":5.40262,"is_reserved":false,"is_disabled":false,"rental_uris":{"android":"levelo://app?vid=efa49e63-1595-437a-b407-a226ca326ad7","ios":"levelo://app?vid=efa49e63-1595-437a-b407-a226ca326ad7"},"vehicle_type_id":"4","last_reported":1702746344,"current_range_meters":17600,"station_id":"cjm6bp8fraef2m0cb0m0","pricing_plan_id":"free"},{"bike_id":"8af61b11-d377-4d0f-94f4-98992ec86b3e","system_id":"levelo_inurba_marseille","lat":43.261782,"lon":5.374515,"is_reserved":false,"is_disabled":false,"rental_uris":{"android":"levelo://app?vid=8af61b11-d377-4d0f-94f4-98992ec86b3e","ios":"levelo://app?vid=8af61b11-d377-4d0f-94f4-98992ec86b3e"},"vehicle_type_id":"4","last_reported":1702746344,"current_range_meters":30400,"station_id":"ce4bhgp2rcd13ifvqfc0","pricing_plan_id":"free"},{"bike_id":"b1a9a155-9efc-496a-bf2f-a199a14126ad","system_id":"levelo_inurba_marseille","lat":43.261782,"lon":5.374515,"is_reserved":false,"is_disabled":false,"rental_uris":{"android":"levelo://app?vid=b1a9a155-9efc-496a-bf2f-a199a14126ad","ios":"levelo://app?vid=b1a9a155-9efc-496a-bf2f-a199a14126ad"},"vehicle_type_id":"4","last_reported":1702746344,"current_range_meters":3600,"station_id":"ce4bhgp2rcd13ifvqfc0","pricing_plan_id":"free"},{"bike_id":"13d8f21a-915d-4b44-a5d4-e05dbec66ced","system_id":"levelo_inurba_marseille","lat":43.26499,"lon":5.39549,"is_reserved":false,"is_disabled":false,"rental_uris":{"android":"levelo://app?vid=13d8f21a-915d-4b44-a5d4-e05dbec66ced","ios":"levelo://app?vid=13d8f21a-915d-4b44-a5d4-e05dbec66ced"},"vehicle_type_id":"4","last_reported":1702746344,"current_range_meters":15200,"station_id":"","pricing_plan_id":"free"},{"bike_id":"ef1ed4df-a6af-43d7-83ad-c599364fa346","system_id":"levelo_inurba_marseille","lat":43.26491,"lon":5.39543,"is_reserved":false,"is_disabled":false,"rental_uris":{"android":"levelo://app?vid=ef1ed4df-a6af-43d7-83ad-c599364fa346","ios":"levelo://app?vid=ef1ed4df-a6af-43d7-83ad-c599364fa346"},"vehicle_type_id":"4","last_reported":1702746344,"current_range_meters":26000,"station_id":"","pricing_plan_id":"free"},{"bike_id":"d084d587-4b27-4e47-8734-14f6d302ab83","system_id":"levelo_inurba_marseille","lat":43.298768,"lon":5.43643,"is_reserved":false,"is_disabled":false,"rental_uris":{"android":"levelo://app?vid=d084d587-4b27-4e47-8734-14f6d302ab83","ios":"levelo://app?vid=d084d587-4b27-4e47-8734-14f6d302ab83"},"vehicle_type_id":"4","last_reported":1702746344,"current_range_meters":19200,"station_id":"ce4bhpp2rcd13ifvqhfg","pricing_plan_id":"free"},{"bike_id":"03f10847-979a-44d3-976b-49ce77eefa88","system_id":"levelo_inurba_marseille","lat":43.2607,"lon":5.393983,"is_reserved":false,"is_disabled":false,"rental_uris":{"android":"levelo://app?vid=03f10847-979a-44d3-976b-49ce77eefa88","ios":"levelo://app?vid=03f10847-979a-44d3-976b-49ce77eefa88"},"vehicle_type_id":"4","last_reported":1702746344,"current_range_meters":6800,"station_id":"ce4bhh92rcd13ifvqfj0","pricing_plan_id":"free"},{"bike_id":"449f9024-e432-4097-929b-fdd3d50debfd","system_id":"levelo_inurba_marseille","lat":43.25587,"lon":5.38219,"is_reserved":false,"is_disabled":false,"rental_uris":{"android":"levelo://app?vid=449f9024-e432-4097-929b-fdd3d50debfd","ios":"levelo://app?vid=449f9024-e432-4097-929b-fdd3d50debfd"},"vehicle_type_id":"4","last_reported":1702746344,"current_range_meters":4800,"station_id":"ce4bhih2rcd13ifvqfs0","pricing_plan_id":"free"},{"bike_id":"015d1bdd-8436-4e32-9689-46fc9fa5e8e3","system_id":"levelo_inurba_marseille","lat":43.255794,"lon":5.382232,"is_reserved":false,"is_disabled":false,"rental_uris":{"android":"levelo://app?vid=015d1bdd-8436-4e32-9689-46fc9fa5e8e3","ios":"levelo://app?vid=015d1bdd-8436-4e32-9689-46fc9fa5e8e3"},"vehicle_type_id":"4","last_reported":1702746344,"current_range_meters":6000,"station_id":"ce4bhih2rcd13ifvqfs0","pricing_plan_id":"free"},{"bike_id":"be439717-a42e-49af-8f3f-9e313091d2ef","system_id":"levelo_inurba_marseille","lat":43.258224,"lon":5.394369,"is_reserved":false,"is_disabled":false,"rental_uris":{"android":"levelo://app?vid=be439717-a42e-49af-8f3f-9e313091d2ef","ios":"levelo://app?vid=be439717-a42e-49af-8f3f-9e313091d2ef"},"vehicle_type_id":"4","last_reported":1702746344,"current_range_meters":20400,"station_id":"ce4bhip2rcd13ifvqft0","pricing_plan_id":"free"},{"bike_id":"92dc749f-e4f4-4357-b0c5-74cc0cab8be8","system_id":"levelo_inurba_marseille","lat":43.258224,"lon":5.394369,"is_reserved":false,"is_disabled":false,"rental_uris":{"android":"levelo://app?vid=92dc749f-e4f4-4357-b0c5-74cc0cab8be8","ios":"levelo://app?vid=92dc749f-e4f4-4357-b0c5-74cc0cab8be8"},"vehicle_type_id":"4","last_reported":1702746344,"current_range_meters":20400,"station_id":"ce4bhip2rcd13ifvqft0","pricing_plan_id":"free"},{"bike_id":"7a47a71b-315e-4a6b-aec6-3d24641c898b","system_id":"levelo_inurba_marseille","lat":43.254947,"lon":5.376454,"is_reserved":false,"is_disabled":false,"rental_uris":{"android":"levelo://app?vid=7a47a71b-315e-4a6b-aec6-3d24641c898b","ios":"levelo://app?vid=7a47a71b-315e-4a6b-aec6-3d24641c898b"},"vehicle_type_id":"4","last_reported":1702746344,"current_range_meters":0,"station_id":"ce4bhh12rcd13ifvqff0","pricing_plan_id":"free"},{"bike_id":"bacfe1e7-350e-4ee2-b919-71adf6442a86","system_id":"levelo_inurba_marseille","lat":43.25494,"lon":5.3765,"is_reserved":false,"is_disabled":false,"rental_uris":{"android":"levelo://app?vid=bacfe1e7-350e-4ee2-b919-71adf6442a86","ios":"levelo://app?vid=bacfe1e7-350e-4ee2-b919-71adf6442a86"},"vehicle_type_id":"4","last_reported":1702746344,"current_range_meters":6000,"station_id":"ce4bhh12rcd13ifvqff0","pricing_plan_id":"free"},{"bike_id":"f5a8fbea-f33a-4da1-926f-44d2ecea28ea","system_id":"levelo_inurba_marseille","lat":43.254844,"lon":5.376502,"is_reserved":false,"is_disabled":false,"rental_uris":{"android":"levelo://app?vid=f5a8fbea-f33a-4da1-926f-44d2ecea28ea","ios":"levelo://app?vid=f5a8fbea-f33a-4da1-926f-44d2ecea28ea"},"vehicle_type_id":"4","last_reported":1702746344,"current_range_meters":1600,"station_id":"ce4bhh12rcd13ifvqff0","pricing_plan_id":"free"},{"bike_id":"68e7d4f2-afdf-4f29-901c-35913c5aae20","system_id":"levelo_inurba_marseille","lat":43.27073,"lon":5.42277,"is_reserved":false,"is_disabled":false,"rental_uris":{"android":"levelo://app?vid=68e7d4f2-afdf-4f29-901c-35913c5aae20","ios":"levelo://app?vid=68e7d4f2-afdf-4f29-901c-35913c5aae20"},"vehicle_type_id":"4","last_reported":1702746344,"current_range_meters":16400,"station_id":"ce4bhk92rcd13ifvqgb0","pricing_plan_id":"free"},{"bike_id":"c98d070b-1c6e-483c-b054-c855006c48f8","system_id":"levelo_inurba_marseille","lat":43.27071,"lon":5.42279,"is_reserved":false,"is_disabled":false,"rental_uris":{"android":"levelo://app?vid=c98d070b-1c6e-483c-b054-c855006c48f8","ios":"levelo://app?vid=c98d070b-1c6e-483c-b054-c855006c48f8"},"vehicle_type_id":"4","last_reported":1702746344,"current_range_meters":31200,"station_id":"ce4bhk92rcd13ifvqgb0","pricing_plan_id":"free"},{"bike_id":"26954362-f19b-4ce0-ad65-e308ed4d326d","system_id":"levelo_inurba_marseille","lat":43.27072,"lon":5.42281,"is_reserved":false,"is_disabled":false,"rental_uris":{"android":"levelo://app?vid=26954362-f19b-4ce0-ad65-e308ed4d326d","ios":"levelo://app?vid=26954362-f19b-4ce0-ad65-e308ed4d326d"},"vehicle_type_id":"4","last_reported":1702746344,"current_range_meters":27600,"station_id":"ce4bhk92rcd13ifvqgb0","pricing_plan_id":"free"},{"bike_id":"d580425e-fb16-4470-bb41-0d899b50c75c","system_id":"levelo_inurba_marseille","lat":43.257079,"lon":5.411051,"is_reserved":false,"is_disabled":false,"rental_uris":{"android":"levelo://app?vid=d580425e-fb16-4470-bb41-0d899b50c75c","ios":"levelo://app?vid=d580425e-fb16-4470-bb41-0d899b50c75c"},"vehicle_type_id":"4","last_reported":1702746344,"current_range_meters":24400,"station_id":"ce4bhkp2rcd13ifvqgd0","pricing_plan_id":"free"},{"bike_id":"99ba9d84-c93f-454d-acfc-7fa92c9b8fd3","system_id":"levelo_inurba_marseille","lat":43.257079,"lon":5.411051,"is_reserved":false,"is_disabled":false,"rental_uris":{"android":"levelo://app?vid=99ba9d84-c93f-454d-acfc-7fa92c9b8fd3","ios":"levelo://app?vid=99ba9d84-c93f-454d-acfc-7fa92c9b8fd3"},"vehicle_type_id":"4","last_reported":1702746344,"current_range_meters":25600,"station_id":"ce4bhkp2rcd13ifvqgd0","pricing_plan_id":"free"},{"bike_id":"448471ab-9356-485e-81ba-dceb5359d400","system_id":"levelo_inurba_marseille","lat":43.250009,"lon":5.389195,"is_reserved":false,"is_disabled":false,"rental_uris":{"android":"levelo://app?vid=448471ab-9356-485e-81ba-dceb5359d400","ios":"levelo://app?vid=448471ab-9356-485e-81ba-dceb5359d400"},"vehicle_type_id":"4","last_reported":1702746344,"current_range_meters":22800,"station_id":"ce4bhgp2rcd13ifvqfd0","pricing_plan_id":"free"},{"bike_id":"27ef411b-5c91-4199-860c-0519706cd3b8","system_id":"levelo_inurba_marseille","lat":43.2479,"lon":5.374457,"is_reserved":false,"is_disabled":false,"rental_uris":{"android":"levelo://app?vid=27ef411b-5c91-4199-860c-0519706cd3b8","ios":"levelo://app?vid=27ef411b-5c91-4199-860c-0519706cd3b8"},"vehicle_type_id":"4","last_reported":1702746344,"current_range_meters":29200,"station_id":"ce4bhgh2rcd13ifvqfb0","pricing_plan_id":"free"},{"bike_id":"55c51a5b-aa2d-4c04-a237-eb4c09eadd98","system_id":"levelo_inurba_marseille","lat":43.2479,"lon":5.374457,"is_reserved":false,"is_disabled":false,"rental_uris":{"android":"levelo://app?vid=55c51a5b-aa2d-4c04-a237-eb4c09eadd98","ios":"levelo://app?vid=55c51a5b-aa2d-4c04-a237-eb4c09eadd98"},"vehicle_type_id":"4","last_reported":1702746344,"current_range_meters":20800,"station_id":"ce4bhgh2rcd13ifvqfb0","pricing_plan_id":"free"},{"bike_id":"9754dfb4-57b1-4d36-9197-8a1e63830dde","system_id":"levelo_inurba_marseille","lat":43.2479,"lon":5.374457,"is_reserved":false,"is_disabled":false,"rental_uris":{"android":"levelo://app?vid=9754dfb4-57b1-4d36-9197-8a1e63830dde","ios":"levelo://app?vid=9754dfb4-57b1-4d36-9197-8a1e63830dde"},"vehicle_type_id":"4","last_reported":1702746344,"current_range_meters":9600,"station_id":"ce4bhgh2rcd13ifvqfb0","pricing_plan_id":"free"},{"bike_id":"cda151f2-9ad2-46c9-9115-b73ba9a06619","system_id":"levelo_inurba_marseille","lat":43.25221,"lon":5.4064,"is_reserved":false,"is_disabled":false,"rental_uris":{"android":"levelo://app?vid=cda151f2-9ad2-46c9-9115-b73ba9a06619","ios":"levelo://app?vid=cda151f2-9ad2-46c9-9115-b73ba9a06619"},"vehicle_type_id":"4","last_reported":1702746344,"current_range_meters":3600,"station_id":"","pricing_plan_id":"free"},{"bike_id":"1cf47c72-bab7-4252-91cf-e49cb3c501bf","system_id":"levelo_inurba_marseille","lat":43.25102,"lon":5.403214,"is_reserved":false,"is_disabled":false,"rental_uris":{"android":"levelo://app?vid=1cf47c72-bab7-4252-91cf-e49cb3c501bf","ios":"levelo://app?vid=1cf47c72-bab7-4252-91cf-e49cb3c501bf"},"vehicle_type_id":"4","last_reported":1702746344,"current_range_meters":17600,"station_id":"ce4bhlh2rcd13ifvqgig","pricing_plan_id":"free"},{"bike_id":"f28da77e-5cda-4c6d-9803-b1f478561380","system_id":"levelo_inurba_marseille","lat":43.25102,"lon":5.403214,"is_reserved":false,"is_disabled":false,"rental_uris":{"android":"levelo://app?vid=f28da77e-5cda-4c6d-9803-b1f478561380","ios":"levelo://app?vid=f28da77e-5cda-4c6d-9803-b1f478561380"},"vehicle_type_id":"4","last_reported":1702746344,"current_range_meters":8800,"station_id":"ce4bhlh2rcd13ifvqgig","pricing_plan_id":"free"},{"bike_id":"473addf1-24cc-41e8-85a0-2e4f1eb6be6e","system_id":"levelo_inurba_marseille","lat":43.25102,"lon":5.403214,"is_reserved":false,"is_disabled":false,"rental_uris":{"android":"levelo://app?vid=473addf1-24cc-41e8-85a0-2e4f1eb6be6e","ios":"levelo://app?vid=473addf1-24cc-41e8-85a0-2e4f1eb6be6e"},"vehicle_type_id":"4","last_reported":1702746344,"current_range_meters":20400,"station_id":"ce4bhlh2rcd13ifvqgig","pricing_plan_id":"free"},{"bike_id":"d5361c5b-2d78-4b73-bc2a-fedcfe1c9a40","system_id":"levelo_inurba_marseille","lat":43.246461,"lon":5.389014,"is_reserved":false,"is_disabled":false,"rental_uris":{"android":"levelo://app?vid=d5361c5b-2d78-4b73-bc2a-fedcfe1c9a40","ios":"levelo://app?vid=d5361c5b-2d78-4b73-bc2a-fedcfe1c9a40"},"vehicle_type_id":"4","last_reported":1702746344,"current_range_meters":30000,"station_id":"ce4bhg12rcd13ifvqf60","pricing_plan_id":"free"},{"bike_id":"949d15e9-8df3-4d8f-90d6-7e91ac0bdddf","system_id":"levelo_inurba_marseille","lat":43.246461,"lon":5.389014,"is_reserved":false,"is_disabled":false,"rental_uris":{"android":"levelo://app?vid=949d15e9-8df3-4d8f-90d6-7e91ac0bdddf","ios":"levelo://app?vid=949d15e9-8df3-4d8f-90d6-7e91ac0bdddf"},"vehicle_type_id":"4","last_reported":1702746344,"current_range_meters":28800,"station_id":"ce4bhg12rcd13ifvqf60","pricing_plan_id":"free"},{"bike_id":"ba6aeaf3-86fb-48d1-b1b2-1fce0d72f535","system_id":"levelo_inurba_marseille","lat":43.243884,"lon":5.370736,"is_reserved":false,"is_disabled":false,"rental_uris":{"android":"levelo://app?vid=ba6aeaf3-86fb-48d1-b1b2-1fce0d72f535","ios":"levelo://app?vid=ba6aeaf3-86fb-48d1-b1b2-1fce0d72f535"},"vehicle_type_id":"4","last_reported":1702746344,"current_range_meters":2000,"station_id":"ce4bhhh2rcd13ifvqfk0","pricing_plan_id":"free"},{"bike_id":"b35e49f7-2d7c-42c5-bdb1-1b9bc960b21b","system_id":"levelo_inurba_marseille","lat":43.24391,"lon":5.37069,"is_reserved":false,"is_disabled":false,"rental_uris":{"android":"levelo://app?vid=b35e49f7-2d7c-42c5-bdb1-1b9bc960b21b","ios":"levelo://app?vid=b35e49f7-2d7c-42c5-bdb1-1b9bc960b21b"},"vehicle_type_id":"4","last_reported":1702746344,"current_range_meters":0,"station_id":"ce4bhhh2rcd13ifvqfk0","pricing_plan_id":"free"},{"bike_id":"cb83e5cf-8f13-4710-8fa5-24379cdcee3c","system_id":"levelo_inurba_marseille","lat":43.243884,"lon":5.370737,"is_reserved":false,"is_disabled":false,"rental_uris":{"android":"levelo://app?vid=cb83e5cf-8f13-4710-8fa5-24379cdcee3c","ios":"levelo://app?vid=cb83e5cf-8f13-4710-8fa5-24379cdcee3c"},"vehicle_type_id":"4","last_reported":1702746344,"current_range_meters":9600,"station_id":"ce4bhhh2rcd13ifvqfk0","pricing_plan_id":"free"},{"bike_id":"cd13f5e3-1dd3-4516-b9b2-da21f0cc139d","system_id":"levelo_inurba_marseille","lat":43.245581,"lon":5.395069,"is_reserved":false,"is_disabled":false,"rental_uris":{"android":"levelo://app?vid=cd13f5e3-1dd3-4516-b9b2-da21f0cc139d","ios":"levelo://app?vid=cd13f5e3-1dd3-4516-b9b2-da21f0cc139d"},"vehicle_type_id":"4","last_reported":1702746344,"current_range_meters":15600,"station_id":"ce4bhlp2rcd13ifvqgjg","pricing_plan_id":"free"},{"bike_id":"2913b0e3-c44c-49f1-ba84-d9d46d3f68b0","system_id":"levelo_inurba_marseille","lat":43.2487,"lon":5.41002,"is_reserved":false,"is_disabled":false,"rental_uris":{"android":"levelo://app?vid=2913b0e3-c44c-49f1-ba84-d9d46d3f68b0","ios":"levelo://app?vid=2913b0e3-c44c-49f1-ba84-d9d46d3f68b0"},"vehicle_type_id":"4","last_reported":1702746344,"current_range_meters":18400,"station_id":"","pricing_plan_id":"free"},{"bike_id":"ee83fd25-65b9-414e-935b-7e3d2531a0b9","system_id":"levelo_inurba_marseille","lat":43.24134,"lon":5.37028,"is_reserved":false,"is_disabled":false,"rental_uris":{"android":"levelo://app?vid=ee83fd25-65b9-414e-935b-7e3d2531a0b9","ios":"levelo://app?vid=ee83fd25-65b9-414e-935b-7e3d2531a0b9"},"vehicle_type_id":"4","last_reported":1702746344,"current_range_meters":1200,"station_id":"","pricing_plan_id":"free"},{"bike_id":"723190e8-2435-4395-8f3a-405b8b91239c","system_id":"levelo_inurba_marseille","lat":43.2407,"lon":5.37754,"is_reserved":false,"is_disabled":false,"rental_uris":{"android":"levelo://app?vid=723190e8-2435-4395-8f3a-405b8b91239c","ios":"levelo://app?vid=723190e8-2435-4395-8f3a-405b8b91239c"},"vehicle_type_id":"4","last_reported":1702746344,"current_range_meters":0,"station_id":"ce4bhnp2rcd13ifvqgvg","pricing_plan_id":"free"},{"bike_id":"8bde1f20-3114-431c-b2df-22d6e7b7655a","system_id":"levelo_inurba_marseille","lat":43.23199,"lon":5.35553,"is_reserved":false,"is_disabled":false,"rental_uris":{"android":"levelo://app?vid=8bde1f20-3114-431c-b2df-22d6e7b7655a","ios":"levelo://app?vid=8bde1f20-3114-431c-b2df-22d6e7b7655a"},"vehicle_type_id":"4","last_reported":1702746344,"current_range_meters":9200,"station_id":"ce4bhu92rcd13ifvqi70","pricing_plan_id":"free"},{"bike_id":"be641546-dcea-4309-ad5a-32c7507f146a","system_id":"levelo_inurba_marseille","lat":43.23199,"lon":5.3555,"is_reserved":false,"is_disabled":false,"rental_uris":{"android":"levelo://app?vid=be641546-dcea-4309-ad5a-32c7507f146a","ios":"levelo://app?vid=be641546-dcea-4309-ad5a-32c7507f146a"},"vehicle_type_id":"4","last_reported":1702746344,"current_range_meters":14400,"station_id":"ce4bhu92rcd13ifvqi70","pricing_plan_id":"free"},{"bike_id":"90458881-97e2-4d19-a7dd-597c18dc1844","system_id":"levelo_inurba_marseille","lat":43.231985,"lon":5.35552,"is_reserved":false,"is_disabled":false,"rental_uris":{"android":"levelo://app?vid=90458881-97e2-4d19-a7dd-597c18dc1844","ios":"levelo://app?vid=90458881-97e2-4d19-a7dd-597c18dc1844"},"vehicle_type_id":"4","last_reported":1702746344,"current_range_meters":22000,"station_id":"ce4bhu92rcd13ifvqi70","pricing_plan_id":"free"},{"bike_id":"85d4097c-b8fb-47e3-9b73-ba49b70e33d8","system_id":"levelo_inurba_marseille","lat":43.23197,"lon":5.35552,"is_reserved":false,"is_disabled":false,"rental_uris":{"android":"levelo://app?vid=85d4097c-b8fb-47e3-9b73-ba49b70e33d8","ios":"levelo://app?vid=85d4097c-b8fb-47e3-9b73-ba49b70e33d8"},"vehicle_type_id":"4","last_reported":1702746344,"current_range_meters":23600,"station_id":"ce4bhu92rcd13ifvqi70","pricing_plan_id":"free"},{"bike_id":"e4f94050-aae1-4821-b78a-030e7070af2a","system_id":"levelo_inurba_marseille","lat":43.23197,"lon":5.355518,"is_reserved":false,"is_disabled":false,"rental_uris":{"android":"levelo://app?vid=e4f94050-aae1-4821-b78a-030e7070af2a","ios":"levelo://app?vid=e4f94050-aae1-4821-b78a-030e7070af2a"},"vehicle_type_id":"4","last_reported":1702746344,"current_range_meters":19600,"station_id":"ce4bhu92rcd13ifvqi70","pricing_plan_id":"free"},{"bike_id":"c0509687-6622-44dd-a042-9b19ef27d0ea","system_id":"levelo_inurba_marseille","lat":43.231964,"lon":5.355538,"is_reserved":false,"is_disabled":false,"rental_uris":{"android":"levelo://app?vid=c0509687-6622-44dd-a042-9b19ef27d0ea","ios":"levelo://app?vid=c0509687-6622-44dd-a042-9b19ef27d0ea"},"vehicle_type_id":"4","last_reported":1702746344,"current_range_meters":31200,"station_id":"ce4bhu92rcd13ifvqi70","pricing_plan_id":"free"},{"bike_id":"760219ab-0887-48ce-b49e-5a40cc3afc6e","system_id":"levelo_inurba_marseille","lat":43.23196,"lon":5.35547,"is_reserved":false,"is_disabled":false,"rental_uris":{"android":"levelo://app?vid=760219ab-0887-48ce-b49e-5a40cc3afc6e","ios":"levelo://app?vid=760219ab-0887-48ce-b49e-5a40cc3afc6e"},"vehicle_type_id":"4","last_reported":1702746344,"current_range_meters":21600,"station_id":"ce4bhu92rcd13ifvqi70","pricing_plan_id":"free"},{"bike_id":"d3de5ca6-d559-43d0-8ed6-c46c756ed81c","system_id":"levelo_inurba_marseille","lat":43.23196,"lon":5.35544,"is_reserved":false,"is_disabled":false,"rental_uris":{"android":"levelo://app?vid=d3de5ca6-d559-43d0-8ed6-c46c756ed81c","ios":"levelo://app?vid=d3de5ca6-d559-43d0-8ed6-c46c756ed81c"},"vehicle_type_id":"4","last_reported":1702746344,"current_range_meters":2000,"station_id":"ce4bhu92rcd13ifvqi70","pricing_plan_id":"free"},{"bike_id":"9ca3011f-2d0a-4b46-84e2-5e1bb5df7278","system_id":"levelo_inurba_marseille","lat":43.23195,"lon":5.3555,"is_reserved":false,"is_disabled":false,"rental_uris":{"android":"levelo://app?vid=9ca3011f-2d0a-4b46-84e2-5e1bb5df7278","ios":"levelo://app?vid=9ca3011f-2d0a-4b46-84e2-5e1bb5df7278"},"vehicle_type_id":"4","last_reported":1702746344,"current_range_meters":31200,"station_id":"ce4bhu92rcd13ifvqi70","pricing_plan_id":"free"},{"bike_id":"0914bc04-89c8-46f4-bf04-78aea5230869","system_id":"levelo_inurba_marseille","lat":43.23194,"lon":5.35549,"is_reserved":false,"is_disabled":false,"rental_uris":{"android":"levelo://app?vid=0914bc04-89c8-46f4-bf04-78aea5230869","ios":"levelo://app?vid=0914bc04-89c8-46f4-bf04-78aea5230869"},"vehicle_type_id":"4","last_reported":1702746344,"current_range_meters":29600,"station_id":"ce4bhu92rcd13ifvqi70","pricing_plan_id":"free"},{"bike_id":"600bdeb8-ea2a-4d1c-a6da-f7a255388a48","system_id":"levelo_inurba_marseille","lat":43.231923,"lon":5.355545,"is_reserved":false,"is_disabled":false,"rental_uris":{"android":"levelo://app?vid=600bdeb8-ea2a-4d1c-a6da-f7a255388a48","ios":"levelo://app?vid=600bdeb8-ea2a-4d1c-a6da-f7a255388a48"},"vehicle_type_id":"4","last_reported":1702746344,"current_range_meters":31200,"station_id":"ce4bhu92rcd13ifvqi70","pricing_plan_id":"free"},{"bike_id":"c58c2105-152a-4be3-96b7-ef7d8114d5d4","system_id":"levelo_inurba_marseille","lat":43.23192,"lon":5.35554,"is_reserved":false,"is_disabled":false,"rental_uris":{"android":"levelo://app?vid=c58c2105-152a-4be3-96b7-ef7d8114d5d4","ios":"levelo://app?vid=c58c2105-152a-4be3-96b7-ef7d8114d5d4"},"vehicle_type_id":"4","last_reported":1702746344,"current_range_meters":17200,"station_id":"ce4bhu92rcd13ifvqi70","pricing_plan_id":"free"}]}}