{"last_updated":1746692034,"ttl":60,"version":"2.2","data":{"bikes":[{"bike_id":"c9592205-9409-4f74-aed1-7c4141a58caa","system_id":"levelo_inurba_marseille","lat":43.27141,"lon":5.36356,"is_reserved":false,"is_disabled":false,"rental_uris":{"android":"levelo://app?vid=c9592205-9409-4f74-aed1-7c4141a58caa","ios":"levelo://app?vid=c9592205-9409-4f74-aed1-7c4141a58caa"},"vehicle_type_id":"4","last_reported":1746692034,"current_range_meters":2800,"station_id":"","pricing_plan_id":"cebpf4jnsgd1na2vs0mg"},{"bike_id":"705f1f6f-d92c-4df1-a512-943b0bf79900","system_id":"levelo_inurba_marseille","lat":43.22504,"lon":5.34771,"is_reserved":false,"is_disabled":false,"rental_uris":{"android":"levelo://app?vid=705f1f6f-d92c-4df1-a512-943b0bf79900","ios":"levelo://app?vid=705f1f6f-d92c-4df1-a512-943b0bf79900"},"vehicle_type_id":"4","last_reported":1746692034,"current_range_meters":2800,"station_id":"st_cvj5dfep6f1abm77gieg","pricing_plan_id":"cebpf4jnsgd1na2vs0mg"},{"bike_id":"5f89e5d8-8e5e-4a6d-901c-70aafb0a905d","system_id":"levelo_inurba_marseille","lat":43.29213,"lon":5.37346,"is_reserved":false,"is_disabled":false,"rental_uris":{"android":"levelo://app?vid=5f89e5d8-8e5e-4a6d-901c-70aafb0a905d","ios":"levelo://app?vid=5f89e5d8-8e5e-4a6d-901c-70aafb0a905d"},"vehicle_type_id":"4","last_reported":1746692034,"current_range_meters":3200,"station_id":"","pricing_plan_id":"cebpf4jnsgd1na2vs0mg"},{"bike_id":"4ffe4636-e089-4bed-8651-8a5d07b6f76b","system_id":"levelo_inurba_marseille","lat":43.31737,"lon":5.40421,"is_reserved":false,"is_disabled":false,"rental_uris":{"android":"levelo://app?vid=4ffe4636-e089-4bed-8651-8a5d07b6f76b","ios":"levelo://app?vid=4ffe4636-e089-4bed-8651-8a5d07b6f76b"},"vehicle_type_id":"4","last_reported":1746692034,"current_range_meters":4000,"station_id":"ce4bh012rcd13ifvqd00","pricing_plan_id":"cebpf4jnsgd1na2vs0mg"},{"bike_id":"843c767c-10d7-4a2b-901c-9f34ae9dbc9a","system_id":"levelo_inurba_marseille","lat":43.26496,"lon":5.39544,"is_reserved":false,"is_disabled":false,"rental_uris":{"android":"levelo://app?vid=843c767c-10d7-4a2b-901c-9f34ae9dbc9a","ios":"levelo://app?vid=843c767c-10d7-4a2b-901c-9f34ae9dbc9a"},"vehicle_type_id":"4","last_reported":1746692034,"current_range_meters":4400,"station_id":"ce4bhi12rcd13ifvqfq0","pricing_plan_id":"cebpf4jnsgd1na2vs0mg"},{"bike_id":"6be85270-949b-41b0-bafa-6a9ac2af25b4","system_id":"levelo_inurba_marseille","lat":43.324,"lon":5.39001,"is_reserved":false,"is_disabled":true,"rental_uris":{"android":"levelo://app?vid=6be85270-949b-41b0-bafa-6a9ac2af25b4","ios":"levelo://app?vid=6be85270-949b-41b0-bafa-6a9ac2af25b4"},"vehicle_type_id":"4","last_reported":1746692034,"current_range_meters":4400,"station_id":"","pricing_plan_id":"cebpf4jnsgd1na2vs0mg"},{"bike_id":"88f90c5c-6128-4b9d-bb34-6e1b40933e50","system_id":"levelo_inurba_marseille","lat":43.28149,"lon":5.4263,"is_reserved":false,"is_disabled":false,"rental_uris":{"android":"levelo://app?vid=88f90c5c-6128-4b9d-bb34-6e1b40933e50","ios":"levelo://app?vid=88f90c5c-6128-4b9d-bb34-6e1b40933e50"},"vehicle_type_id":"4","last_reported":1746692034,"current_range_meters":4800,"station_id":"ce4bhnh2rcd13ifvqgug","pricing_plan_id":"cebpf4jnsgd1na2vs0mg"},{"bike_id":"af8b656e-7d15-4192-ba5c-db6c794228d0","system_id":"levelo_inurba_marseille","lat":43.28618,"lon":5.35105,"is_reserved":false,"is_disabled":false,"rental_uris":{"android":"levelo://app?vid=af8b656e-7d15-4192-ba5c-db6c794228d0","ios":"levelo://app?vid=af8b656e-7d15-4192-ba5c-db6c794228d0"},"vehicle_type_id":"4","last_reported":1746692034,"current_range_meters":5600,"station_id":"ce4bhch2rcd13ifvqeug","pricing_plan_id":"cebpf4jnsgd1na2vs0mg"},{"bike_id":"2eb3c6b8-2801-4650-907a-e3f09f8c5ba1","system_id":"levelo_inurba_marseille","lat":43.3117,"lon":5.3871,"is_reserved":false,"is_disabled":true,"rental_uris":{"android":"levelo://app?vid=2eb3c6b8-2801-4650-907a-e3f09f8c5ba1","ios":"levelo://app?vid=2eb3c6b8-2801-4650-907a-e3f09f8c5ba1"},"vehicle_type_id":"4","last_reported":1746692034,"current_range_meters":5600,"station_id":"ce4bgv12rcd13ifvqcp0","pricing_plan_id":"cebpf4jnsgd1na2vs0mg"},{"bike_id":"b56d5ade-0de2-44f1-90b1-fb52a39fc442","system_id":"levelo_inurba_marseille","lat":43.29259,"lon":5.37624,"is_reserved":false,"is_disabled":false,"rental_uris":{"android":"levelo://app?vid=b56d5ade-0de2-44f1-90b1-fb52a39fc442","ios":"levelo://app?vid=b56d5ade-0de2-44f1-90b1-fb52a39fc442"},"vehicle_type_id":"4","last_reported":1746692034,"current_range_meters":5600,"station_id":"ce4bgi12rcd13ifvqb80","pricing_plan_id":"cebpf4jnsgd1na2vs0mg"},{"bike_id":"aa6eaa6f-a172-4a31-8500-b76476b59cb3","system_id":"levelo_inurba_marseille","lat":43.23184,"lon":5.39989,"is_reserved":false,"is_disabled":false,"rental_uris":{"android":"levelo://app?vid=aa6eaa6f-a172-4a31-8500-b76476b59cb3","ios":"levelo://app?vid=aa6eaa6f-a172-4a31-8500-b76476b59cb3"},"vehicle_type_id":"4","last_reported":1746692034,"current_range_meters":6000,"station_id":"ce4bhn12rcd13ifvqgqg","pricing_plan_id":"cebpf4jnsgd1na2vs0mg"},{"bike_id":"e0553937-f215-4976-8af2-171073a472f8","system_id":"levelo_inurba_marseille","lat":43.251134,"lon":5.403256,"is_reserved":false,"is_disabled":false,"rental_uris":{"android":"levelo://app?vid=e0553937-f215-4976-8af2-171073a472f8","ios":"levelo://app?vid=e0553937-f215-4976-8af2-171073a472f8"},"vehicle_type_id":"4","last_reported":1746692034,"current_range_meters":6000,"station_id":"ce4bhlh2rcd13ifvqgig","pricing_plan_id":"cebpf4jnsgd1na2vs0mg"},{"bike_id":"082b5772-10bb-4282-bdbf-aa00094bbf28","system_id":"levelo_inurba_marseille","lat":43.2705,"lon":5.40275,"is_reserved":false,"is_disabled":false,"rental_uris":{"android":"levelo://app?vid=082b5772-10bb-4282-bdbf-aa00094bbf28","ios":"levelo://app?vid=082b5772-10bb-4282-bdbf-aa00094bbf28"},"vehicle_type_id":"4","last_reported":1746692034,"current_range_meters":6400,"station_id":"ce4bhk92rcd13ifvqgc0","pricing_plan_id":"cebpf4jnsgd1na2vs0mg"},{"bike_id":"649893a6-80b1-49ae-b6ca-bf7c45c9c074","system_id":"levelo_inurba_marseille","lat":43.24167,"lon":5.3974,"is_reserved":false,"is_disabled":false,"rental_uris":{"android":"levelo://app?vid=649893a6-80b1-49ae-b6ca-bf7c45c9c074","ios":"levelo://app?vid=649893a6-80b1-49ae-b6ca-bf7c45c9c074"},"vehicle_type_id":"4","last_reported":1746692034,"current_range_meters":6400,"station_id":"ce4bhn12rcd13ifvqgpg","pricing_plan_id":"cebpf4jnsgd1na2vs0mg"},{"bike_id":"9d03e3b9-cc02-47cb-8220-42e752a6ad34","system_id":"levelo_inurba_marseille","lat":43.281526,"lon":5.426405,"is_reserved":false,"is_disabled":false,"rental_uris":{"android":"levelo://app?vid=9d03e3b9-cc02-47cb-8220-42e752a6ad34","ios":"levelo://app?vid=9d03e3b9-cc02-47cb-8220-42e752a6ad34"},"vehicle_type_id":"4","last_reported":1746692034,"current_range_meters":6400,"station_id":"","pricing_plan_id":"cebpf4jnsgd1na2vs0mg"},{"bike_id":"935f3ef6-a74a-473f-abb1-3085127e0592","system_id":"levelo_inurba_marseille","lat":43.26217,"lon":5.37439,"is_reserved":false,"is_disabled":false,"rental_uris":{"android":"levelo://app?vid=935f3ef6-a74a-473f-abb1-3085127e0592","ios":"levelo://app?vid=935f3ef6-a74a-473f-abb1-3085127e0592"},"vehicle_type_id":"4","last_reported":1746692034,"current_range_meters":6400,"station_id":"ce4bhgp2rcd13ifvqfc0","pricing_plan_id":"cebpf4jnsgd1na2vs0mg"},{"bike_id":"cdd7abe1-074a-492a-960c-c9f5268fb484","system_id":"levelo_inurba_marseille","lat":43.24393,"lon":5.37055,"is_reserved":false,"is_disabled":false,"rental_uris":{"android":"levelo://app?vid=cdd7abe1-074a-492a-960c-c9f5268fb484","ios":"levelo://app?vid=cdd7abe1-074a-492a-960c-c9f5268fb484"},"vehicle_type_id":"4","last_reported":1746692034,"current_range_meters":6400,"station_id":"ce4bhhh2rcd13ifvqfk0","pricing_plan_id":"cebpf4jnsgd1na2vs0mg"},{"bike_id":"0e10e92a-439e-4081-803c-5f351bcf88ef","system_id":"levelo_inurba_marseille","lat":43.27946,"lon":5.41045,"is_reserved":false,"is_disabled":false,"rental_uris":{"android":"levelo://app?vid=0e10e92a-439e-4081-803c-5f351bcf88ef","ios":"levelo://app?vid=0e10e92a-439e-4081-803c-5f351bcf88ef"},"vehicle_type_id":"4","last_reported":1746692034,"current_range_meters":6800,"station_id":"ce4bhnp2rcd13ifvqh0g","pricing_plan_id":"cebpf4jnsgd1na2vs0mg"},{"bike_id":"dfd27e22-9b34-42f8-9fdf-f3a07c5bdce7","system_id":"levelo_inurba_marseille","lat":43.24167,"lon":5.36394,"is_reserved":false,"is_disabled":false,"rental_uris":{"android":"levelo://app?vid=dfd27e22-9b34-42f8-9fdf-f3a07c5bdce7","ios":"levelo://app?vid=dfd27e22-9b34-42f8-9fdf-f3a07c5bdce7"},"vehicle_type_id":"4","last_reported":1746692034,"current_range_meters":6800,"station_id":"cpo36qri1sfpv3e86is0","pricing_plan_id":"cebpf4jnsgd1na2vs0mg"},{"bike_id":"e643ab0a-d97d-4d9f-bf0d-21fd7dcb7558","system_id":"levelo_inurba_marseille","lat":43.324515,"lon":5.411438,"is_reserved":false,"is_disabled":false,"rental_uris":{"android":"levelo://app?vid=e643ab0a-d97d-4d9f-bf0d-21fd7dcb7558","ios":"levelo://app?vid=e643ab0a-d97d-4d9f-bf0d-21fd7dcb7558"},"vehicle_type_id":"4","last_reported":1746692034,"current_range_meters":6800,"station_id":"","pricing_plan_id":"cebpf4jnsgd1na2vs0mg"},{"bike_id":"fa63a7e4-e781-4293-89ae-80fbf3b33863","system_id":"levelo_inurba_marseille","lat":43.25453,"lon":5.41871,"is_reserved":false,"is_disabled":true,"rental_uris":{"android":"levelo://app?vid=fa63a7e4-e781-4293-89ae-80fbf3b33863","ios":"levelo://app?vid=fa63a7e4-e781-4293-89ae-80fbf3b33863"},"vehicle_type_id":"4","last_reported":1746692034,"current_range_meters":7200,"station_id":"","pricing_plan_id":"cebpf4jnsgd1na2vs0mg"},{"bike_id":"8ab99e0b-0be6-4a7a-bf68-eeaf09a53f40","system_id":"levelo_inurba_marseille","lat":43.33026,"lon":5.39041,"is_reserved":false,"is_disabled":false,"rental_uris":{"android":"levelo://app?vid=8ab99e0b-0be6-4a7a-bf68-eeaf09a53f40","ios":"levelo://app?vid=8ab99e0b-0be6-4a7a-bf68-eeaf09a53f40"},"vehicle_type_id":"4","last_reported":1746692034,"current_range_meters":6800,"station_id":"ce4bhr92rcd13ifvqhrg","pricing_plan_id":"cebpf4jnsgd1na2vs0mg"},{"bike_id":"a96833c3-7aad-4769-953e-d8192a324355","system_id":"levelo_inurba_marseille","lat":43.22503,"lon":5.34787,"is_reserved":false,"is_disabled":false,"rental_uris":{"android":"levelo://app?vid=a96833c3-7aad-4769-953e-d8192a324355","ios":"levelo://app?vid=a96833c3-7aad-4769-953e-d8192a324355"},"vehicle_type_id":"4","last_reported":1746692034,"current_range_meters":7200,"station_id":"st_cvj5dfep6f1abm77gieg","pricing_plan_id":"cebpf4jnsgd1na2vs0mg"},{"bike_id":"cbbecccd-8451-4420-b641-223361c365d5","system_id":"levelo_inurba_marseille","lat":43.29925,"lon":5.3748,"is_reserved":false,"is_disabled":false,"rental_uris":{"android":"levelo://app?vid=cbbecccd-8451-4420-b641-223361c365d5","ios":"levelo://app?vid=cbbecccd-8451-4420-b641-223361c365d5"},"vehicle_type_id":"4","last_reported":1746692034,"current_range_meters":7200,"station_id":"ce4bgjh2rcd13ifvqbg0","pricing_plan_id":"cebpf4jnsgd1na2vs0mg"},{"bike_id":"e59273d9-1d25-49e7-8fcc-7ac339d3fc05","system_id":"levelo_inurba_marseille","lat":43.316968,"lon":5.404732,"is_reserved":false,"is_disabled":true,"rental_uris":{"android":"levelo://app?vid=e59273d9-1d25-49e7-8fcc-7ac339d3fc05","ios":"levelo://app?vid=e59273d9-1d25-49e7-8fcc-7ac339d3fc05"},"vehicle_type_id":"4","last_reported":1746692034,"current_range_meters":8000,"station_id":"ce4bh012rcd13ifvqd00","pricing_plan_id":"cebpf4jnsgd1na2vs0mg"},{"bike_id":"871d92dc-153b-42ec-8d90-34c9e0fb29bf","system_id":"levelo_inurba_marseille","lat":43.3064,"lon":5.3988,"is_reserved":false,"is_disabled":false,"rental_uris":{"android":"levelo://app?vid=871d92dc-153b-42ec-8d90-34c9e0fb29bf","ios":"levelo://app?vid=871d92dc-153b-42ec-8d90-34c9e0fb29bf"},"vehicle_type_id":"4","last_reported":1746692034,"current_range_meters":8000,"station_id":"","pricing_plan_id":"cebpf4jnsgd1na2vs0mg"},{"bike_id":"89420609-8590-4e4d-9042-8fb0e02b5686","system_id":"levelo_inurba_marseille","lat":43.24171,"lon":5.36404,"is_reserved":false,"is_disabled":false,"rental_uris":{"android":"levelo://app?vid=89420609-8590-4e4d-9042-8fb0e02b5686","ios":"levelo://app?vid=89420609-8590-4e4d-9042-8fb0e02b5686"},"vehicle_type_id":"4","last_reported":1746692034,"current_range_meters":8000,"station_id":"cpo36qri1sfpv3e86is0","pricing_plan_id":"cebpf4jnsgd1na2vs0mg"},{"bike_id":"20d25758-22d9-4e95-bc0f-ee6a37888c38","system_id":"levelo_inurba_marseille","lat":43.273764,"lon":5.362582,"is_reserved":false,"is_disabled":false,"rental_uris":{"android":"levelo://app?vid=20d25758-22d9-4e95-bc0f-ee6a37888c38","ios":"levelo://app?vid=20d25758-22d9-4e95-bc0f-ee6a37888c38"},"vehicle_type_id":"4","last_reported":1746692034,"current_range_meters":8000,"station_id":"ce4bhbh2rcd13ifvqeo0","pricing_plan_id":"cebpf4jnsgd1na2vs0mg"},{"bike_id":"de98c600-f638-4cff-9c9e-a1bfa0672c00","system_id":"levelo_inurba_marseille","lat":43.25717,"lon":5.41116,"is_reserved":false,"is_disabled":false,"rental_uris":{"android":"levelo://app?vid=de98c600-f638-4cff-9c9e-a1bfa0672c00","ios":"levelo://app?vid=de98c600-f638-4cff-9c9e-a1bfa0672c00"},"vehicle_type_id":"4","last_reported":1746692034,"current_range_meters":8000,"station_id":"ce4bhkp2rcd13ifvqgd0","pricing_plan_id":"cebpf4jnsgd1na2vs0mg"},{"bike_id":"b67b89c2-b0ef-4ae5-91ab-e887a9497f39","system_id":"levelo_inurba_marseille","lat":43.30463,"lon":5.37914,"is_reserved":false,"is_disabled":false,"rental_uris":{"android":"levelo://app?vid=b67b89c2-b0ef-4ae5-91ab-e887a9497f39","ios":"levelo://app?vid=b67b89c2-b0ef-4ae5-91ab-e887a9497f39"},"vehicle_type_id":"4","last_reported":1746692034,"current_range_meters":8000,"station_id":"ce4bgup2rcd13ifvqcn0","pricing_plan_id":"cebpf4jnsgd1na2vs0mg"},{"bike_id":"b7bdbe3a-b7ec-4256-908f-dfa71835a5d1","system_id":"levelo_inurba_marseille","lat":43.28884,"lon":5.37125,"is_reserved":false,"is_disabled":false,"rental_uris":{"android":"levelo://app?vid=b7bdbe3a-b7ec-4256-908f-dfa71835a5d1","ios":"levelo://app?vid=b7bdbe3a-b7ec-4256-908f-dfa71835a5d1"},"vehicle_type_id":"4","last_reported":1746692034,"current_range_meters":8000,"station_id":"","pricing_plan_id":"cebpf4jnsgd1na2vs0mg"},{"bike_id":"be3a2ed9-e107-46dc-8066-89cfcff50847","system_id":"levelo_inurba_marseille","lat":43.29237,"lon":5.37132,"is_reserved":false,"is_disabled":false,"rental_uris":{"android":"levelo://app?vid=be3a2ed9-e107-46dc-8066-89cfcff50847","ios":"levelo://app?vid=be3a2ed9-e107-46dc-8066-89cfcff50847"},"vehicle_type_id":"4","last_reported":1746692034,"current_range_meters":8400,"station_id":"","pricing_plan_id":"cebpf4jnsgd1na2vs0mg"},{"bike_id":"fd5461cc-513e-452b-9136-88386a447cfd","system_id":"levelo_inurba_marseille","lat":43.27204,"lon":5.39176,"is_reserved":false,"is_disabled":false,"rental_uris":{"android":"levelo://app?vid=fd5461cc-513e-452b-9136-88386a447cfd","ios":"levelo://app?vid=fd5461cc-513e-452b-9136-88386a447cfd"},"vehicle_type_id":"4","last_reported":1746692034,"current_range_meters":8400,"station_id":"ce4bhhp2rcd13ifvqfm0","pricing_plan_id":"cebpf4jnsgd1na2vs0mg"},{"bike_id":"d6cbafa7-4ea3-40ec-b372-0ad07e32da1f","system_id":"levelo_inurba_marseille","lat":43.2679,"lon":5.39416,"is_reserved":false,"is_disabled":false,"rental_uris":{"android":"levelo://app?vid=d6cbafa7-4ea3-40ec-b372-0ad07e32da1f","ios":"levelo://app?vid=d6cbafa7-4ea3-40ec-b372-0ad07e32da1f"},"vehicle_type_id":"4","last_reported":1746692034,"current_range_meters":8400,"station_id":"ce4bhh12rcd13ifvqfg0","pricing_plan_id":"cebpf4jnsgd1na2vs0mg"},{"bike_id":"daafc0c5-be8a-4657-8806-b7b81bc4b0db","system_id":"levelo_inurba_marseille","lat":43.2971,"lon":5.36613,"is_reserved":false,"is_disabled":false,"rental_uris":{"android":"levelo://app?vid=daafc0c5-be8a-4657-8806-b7b81bc4b0db","ios":"levelo://app?vid=daafc0c5-be8a-4657-8806-b7b81bc4b0db"},"vehicle_type_id":"4","last_reported":1746692034,"current_range_meters":8800,"station_id":"ce4bgn12rcd13ifvqbt0","pricing_plan_id":"cebpf4jnsgd1na2vs0mg"},{"bike_id":"ce40ea43-bacf-49f3-b5af-ffaf2a1f03b1","system_id":"levelo_inurba_marseille","lat":43.30521,"lon":5.36743,"is_reserved":false,"is_disabled":false,"rental_uris":{"android":"levelo://app?vid=ce40ea43-bacf-49f3-b5af-ffaf2a1f03b1","ios":"levelo://app?vid=ce40ea43-bacf-49f3-b5af-ffaf2a1f03b1"},"vehicle_type_id":"4","last_reported":1746692034,"current_range_meters":8800,"station_id":"ce4bgrp2rcd13ifvqc9g","pricing_plan_id":"cebpf4jnsgd1na2vs0mg"},{"bike_id":"957aba25-c5b1-43b8-b7ae-7df1badff429","system_id":"levelo_inurba_marseille","lat":43.31279,"lon":5.40166,"is_reserved":false,"is_disabled":false,"rental_uris":{"android":"levelo://app?vid=957aba25-c5b1-43b8-b7ae-7df1badff429","ios":"levelo://app?vid=957aba25-c5b1-43b8-b7ae-7df1badff429"},"vehicle_type_id":"4","last_reported":1746692034,"current_range_meters":8800,"station_id":"ce4bh092rcd13ifvqd30","pricing_plan_id":"cebpf4jnsgd1na2vs0mg"},{"bike_id":"577c68d3-e214-4444-8d4f-e2a733fa506e","system_id":"levelo_inurba_marseille","lat":43.27084,"lon":5.42279,"is_reserved":false,"is_disabled":true,"rental_uris":{"android":"levelo://app?vid=577c68d3-e214-4444-8d4f-e2a733fa506e","ios":"levelo://app?vid=577c68d3-e214-4444-8d4f-e2a733fa506e"},"vehicle_type_id":"4","last_reported":1746692034,"current_range_meters":8800,"station_id":"ce4bhk92rcd13ifvqgb0","pricing_plan_id":"cebpf4jnsgd1na2vs0mg"},{"bike_id":"5711d1e6-2a1e-43fe-a0d3-1ad5372faa41","system_id":"levelo_inurba_marseille","lat":43.29004,"lon":5.35611,"is_reserved":false,"is_disabled":false,"rental_uris":{"android":"levelo://app?vid=5711d1e6-2a1e-43fe-a0d3-1ad5372faa41","ios":"levelo://app?vid=5711d1e6-2a1e-43fe-a0d3-1ad5372faa41"},"vehicle_type_id":"4","last_reported":1746692034,"current_range_meters":8800,"station_id":"ce4bhb92rcd13ifvqen0","pricing_plan_id":"cebpf4jnsgd1na2vs0mg"},{"bike_id":"7ac090f6-ac88-4d74-bff6-95aa8d4e1c9d","system_id":"levelo_inurba_marseille","lat":43.28277,"lon":5.35063,"is_reserved":false,"is_disabled":true,"rental_uris":{"android":"levelo://app?vid=7ac090f6-ac88-4d74-bff6-95aa8d4e1c9d","ios":"levelo://app?vid=7ac090f6-ac88-4d74-bff6-95aa8d4e1c9d"},"vehicle_type_id":"4","last_reported":1746692034,"current_range_meters":9200,"station_id":"ce4bhbp2rcd13ifvqerg","pricing_plan_id":"cebpf4jnsgd1na2vs0mg"},{"bike_id":"32e0fa99-4ae8-463b-8358-202f5267052f","system_id":"levelo_inurba_marseille","lat":43.30298,"lon":5.39215,"is_reserved":false,"is_disabled":false,"rental_uris":{"android":"levelo://app?vid=32e0fa99-4ae8-463b-8358-202f5267052f","ios":"levelo://app?vid=32e0fa99-4ae8-463b-8358-202f5267052f"},"vehicle_type_id":"4","last_reported":1746692034,"current_range_meters":9200,"station_id":"ce4bgkh2rcd13ifvqbk0","pricing_plan_id":"cebpf4jnsgd1na2vs0mg"},{"bike_id":"fb83bf1f-c504-4dc9-902d-272e33b76e3c","system_id":"levelo_inurba_marseille","lat":43.27214,"lon":5.39183,"is_reserved":false,"is_disabled":false,"rental_uris":{"android":"levelo://app?vid=fb83bf1f-c504-4dc9-902d-272e33b76e3c","ios":"levelo://app?vid=fb83bf1f-c504-4dc9-902d-272e33b76e3c"},"vehicle_type_id":"4","last_reported":1746692034,"current_range_meters":8800,"station_id":"ce4bhhp2rcd13ifvqfm0","pricing_plan_id":"cebpf4jnsgd1na2vs0mg"},{"bike_id":"f90504b1-69d0-454d-a9d6-21119d763b82","system_id":"levelo_inurba_marseille","lat":43.25106,"lon":5.40339,"is_reserved":false,"is_disabled":false,"rental_uris":{"android":"levelo://app?vid=f90504b1-69d0-454d-a9d6-21119d763b82","ios":"levelo://app?vid=f90504b1-69d0-454d-a9d6-21119d763b82"},"vehicle_type_id":"4","last_reported":1746692034,"current_range_meters":9200,"station_id":"ce4bhlh2rcd13ifvqgig","pricing_plan_id":"cebpf4jnsgd1na2vs0mg"},{"bike_id":"b15fe93b-1059-4d75-abd3-040e349ce402","system_id":"levelo_inurba_marseille","lat":43.3011,"lon":5.37005,"is_reserved":false,"is_disabled":false,"rental_uris":{"android":"levelo://app?vid=b15fe93b-1059-4d75-abd3-040e349ce402","ios":"levelo://app?vid=b15fe93b-1059-4d75-abd3-040e349ce402"},"vehicle_type_id":"4","last_reported":1746692034,"current_range_meters":9200,"station_id":"","pricing_plan_id":"cebpf4jnsgd1na2vs0mg"},{"bike_id":"3d07d22e-8fed-4062-b040-b1361b3442d2","system_id":"levelo_inurba_marseille","lat":43.26209,"lon":5.37444,"is_reserved":false,"is_disabled":false,"rental_uris":{"android":"levelo://app?vid=3d07d22e-8fed-4062-b040-b1361b3442d2","ios":"levelo://app?vid=3d07d22e-8fed-4062-b040-b1361b3442d2"},"vehicle_type_id":"4","last_reported":1746692034,"current_range_meters":9200,"station_id":"ce4bhgp2rcd13ifvqfc0","pricing_plan_id":"cebpf4jnsgd1na2vs0mg"},{"bike_id":"d1d21c83-9033-4720-aeec-d3880dfbf0dd","system_id":"levelo_inurba_marseille","lat":43.31761,"lon":5.39008,"is_reserved":false,"is_disabled":false,"rental_uris":{"android":"levelo://app?vid=d1d21c83-9033-4720-aeec-d3880dfbf0dd","ios":"levelo://app?vid=d1d21c83-9033-4720-aeec-d3880dfbf0dd"},"vehicle_type_id":"4","last_reported":1746692034,"current_range_meters":9600,"station_id":"ce4bhqp2rcd13ifvqhng","pricing_plan_id":"cebpf4jnsgd1na2vs0mg"},{"bike_id":"62d8adc8-738e-4579-9bfd-4bf10bfa9fdc","system_id":"levelo_inurba_marseille","lat":43.26213,"lon":5.3744,"is_reserved":false,"is_disabled":false,"rental_uris":{"android":"levelo://app?vid=62d8adc8-738e-4579-9bfd-4bf10bfa9fdc","ios":"levelo://app?vid=62d8adc8-738e-4579-9bfd-4bf10bfa9fdc"},"vehicle_type_id":"4","last_reported":1746692034,"current_range_meters":9600,"station_id":"ce4bhgp2rcd13ifvqfc0","pricing_plan_id":"cebpf4jnsgd1na2vs0mg"},{"bike_id":"5a6722e8-7e29-4870-b83e-5f99be846d90","system_id":"levelo_inurba_marseille","lat":43.27205,"lon":5.39195,"is_reserved":false,"is_disabled":true,"rental_uris":{"android":"levelo://app?vid=5a6722e8-7e29-4870-b83e-5f99be846d90","ios":"levelo://app?vid=5a6722e8-7e29-4870-b83e-5f99be846d90"},"vehicle_type_id":"4","last_reported":1746692034,"current_range_meters":9600,"station_id":"ce4bhhp2rcd13ifvqfm0","pricing_plan_id":"cebpf4jnsgd1na2vs0mg"},{"bike_id":"c86c0460-a330-4629-a87c-3337fb16b91e","system_id":"levelo_inurba_marseille","lat":43.21756,"lon":5.3459,"is_reserved":false,"is_disabled":true,"rental_uris":{"android":"levelo://app?vid=c86c0460-a330-4629-a87c-3337fb16b91e","ios":"levelo://app?vid=c86c0460-a330-4629-a87c-3337fb16b91e"},"vehicle_type_id":"4","last_reported":1746692034,"current_range_meters":9600,"station_id":"st_cvj6r9ubvosntc0bgbag","pricing_plan_id":"cebpf4jnsgd1na2vs0mg"},{"bike_id":"8bbd2297-75b9-4288-bc6d-1be3b3ff638a","system_id":"levelo_inurba_marseille","lat":43.27048,"lon":5.40279,"is_reserved":false,"is_disabled":false,"rental_uris":{"android":"levelo://app?vid=8bbd2297-75b9-4288-bc6d-1be3b3ff638a","ios":"levelo://app?vid=8bbd2297-75b9-4288-bc6d-1be3b3ff638a"},"vehicle_type_id":"4","last_reported":1746692034,"current_range_meters":9600,"station_id":"ce4bhk92rcd13ifvqgc0","pricing_plan_id":"cebpf4jnsgd1na2vs0mg"},{"bike_id":"3ff97c15-77c0-41de-8e71-21d6d5ebd16f","system_id":"levelo_inurba_marseille","lat":43.30366,"lon":5.4248,"is_reserved":false,"is_disabled":false,"rental_uris":{"android":"levelo://app?vid=3ff97c15-77c0-41de-8e71-21d6d5ebd16f","ios":"levelo://app?vid=3ff97c15-77c0-41de-8e71-21d6d5ebd16f"},"vehicle_type_id":"4","last_reported":1746692034,"current_range_meters":9600,"station_id":"ce4bhoh2rcd13ifvqh6g","pricing_plan_id":"cebpf4jnsgd1na2vs0mg"},{"bike_id":"da1da5b7-01c4-402d-9f7a-8ee4a44e531b","system_id":"levelo_inurba_marseille","lat":43.23156,"lon":5.4372,"is_reserved":false,"is_disabled":false,"rental_uris":{"android":"levelo://app?vid=da1da5b7-01c4-402d-9f7a-8ee4a44e531b","ios":"levelo://app?vid=da1da5b7-01c4-402d-9f7a-8ee4a44e531b"},"vehicle_type_id":"4","last_reported":1746692034,"current_range_meters":9600,"station_id":"ce4bhmp2rcd13ifvqgog","pricing_plan_id":"cebpf4jnsgd1na2vs0mg"},{"bike_id":"8a8732c3-e5d9-4b46-86d9-1b12d8790d3e","system_id":"levelo_inurba_marseille","lat":43.294401,"lon":5.397492,"is_reserved":false,"is_disabled":false,"rental_uris":{"android":"levelo://app?vid=8a8732c3-e5d9-4b46-86d9-1b12d8790d3e","ios":"levelo://app?vid=8a8732c3-e5d9-4b46-86d9-1b12d8790d3e"},"vehicle_type_id":"4","last_reported":1746692034,"current_range_meters":10000,"station_id":"ce4bh3h2rcd13ifvqdo0","pricing_plan_id":"cebpf4jnsgd1na2vs0mg"},{"bike_id":"edc14644-b89f-4204-b3b6-7edbbb1f0191","system_id":"levelo_inurba_marseille","lat":43.3306,"lon":5.38887,"is_reserved":false,"is_disabled":false,"rental_uris":{"android":"levelo://app?vid=edc14644-b89f-4204-b3b6-7edbbb1f0191","ios":"levelo://app?vid=edc14644-b89f-4204-b3b6-7edbbb1f0191"},"vehicle_type_id":"4","last_reported":1746692034,"current_range_meters":10000,"station_id":"","pricing_plan_id":"cebpf4jnsgd1na2vs0mg"},{"bike_id":"20da30d8-616a-42d7-b387-2934b1539b36","system_id":"levelo_inurba_marseille","lat":43.25954,"lon":5.40862,"is_reserved":false,"is_disabled":false,"rental_uris":{"android":"levelo://app?vid=20da30d8-616a-42d7-b387-2934b1539b36","ios":"levelo://app?vid=20da30d8-616a-42d7-b387-2934b1539b36"},"vehicle_type_id":"4","last_reported":1746692034,"current_range_meters":10800,"station_id":"ce4bhm92rcd13ifvqglg","pricing_plan_id":"cebpf4jnsgd1na2vs0mg"},{"bike_id":"1eace673-3a00-40bd-93b8-c982c5e56958","system_id":"levelo_inurba_marseille","lat":43.29566,"lon":5.42296,"is_reserved":false,"is_disabled":false,"rental_uris":{"android":"levelo://app?vid=1eace673-3a00-40bd-93b8-c982c5e56958","ios":"levelo://app?vid=1eace673-3a00-40bd-93b8-c982c5e56958"},"vehicle_type_id":"4","last_reported":1746692034,"current_range_meters":10800,"station_id":"ce4bhph2rcd13ifvqhdg","pricing_plan_id":"cebpf4jnsgd1na2vs0mg"},{"bike_id":"cb5561fb-3ed2-49bf-bd58-7c8862116c78","system_id":"levelo_inurba_marseille","lat":43.212,"lon":5.35061,"is_reserved":false,"is_disabled":false,"rental_uris":{"android":"levelo://app?vid=cb5561fb-3ed2-49bf-bd58-7c8862116c78","ios":"levelo://app?vid=cb5561fb-3ed2-49bf-bd58-7c8862116c78"},"vehicle_type_id":"4","last_reported":1746692034,"current_range_meters":10800,"station_id":"st_cvj6sg6p6f1abm77japg","pricing_plan_id":"cebpf4jnsgd1na2vs0mg"},{"bike_id":"b63f299d-cbcf-4d39-abc3-66e12d7e81d9","system_id":"levelo_inurba_marseille","lat":43.28277,"lon":5.35072,"is_reserved":false,"is_disabled":false,"rental_uris":{"android":"levelo://app?vid=b63f299d-cbcf-4d39-abc3-66e12d7e81d9","ios":"levelo://app?vid=b63f299d-cbcf-4d39-abc3-66e12d7e81d9"},"vehicle_type_id":"4","last_reported":1746692034,"current_range_meters":10800,"station_id":"ce4bhbp2rcd13ifvqerg","pricing_plan_id":"cebpf4jnsgd1na2vs0mg"},{"bike_id":"9209774a-06b7-47c7-a6eb-adc0c3f47cff","system_id":"levelo_inurba_marseille","lat":43.25578,"lon":5.38231,"is_reserved":false,"is_disabled":false,"rental_uris":{"android":"levelo://app?vid=9209774a-06b7-47c7-a6eb-adc0c3f47cff","ios":"levelo://app?vid=9209774a-06b7-47c7-a6eb-adc0c3f47cff"},"vehicle_type_id":"4","last_reported":1746692034,"current_range_meters":11200,"station_id":"ce4bhih2rcd13ifvqfs0","pricing_plan_id":"cebpf4jnsgd1na2vs0mg"},{"bike_id":"fc33e796-0d5e-43c4-b4ed-71220775ba5d","system_id":"levelo_inurba_marseille","lat":43.25719,"lon":5.41115,"is_reserved":false,"is_disabled":false,"rental_uris":{"android":"levelo://app?vid=fc33e796-0d5e-43c4-b4ed-71220775ba5d","ios":"levelo://app?vid=fc33e796-0d5e-43c4-b4ed-71220775ba5d"},"vehicle_type_id":"4","last_reported":1746692034,"current_range_meters":11200,"station_id":"ce4bhkp2rcd13ifvqgd0","pricing_plan_id":"cebpf4jnsgd1na2vs0mg"},{"bike_id":"11853cab-00a1-4a60-a70c-11463ca4e5cf","system_id":"levelo_inurba_marseille","lat":43.28458,"lon":5.35891,"is_reserved":false,"is_disabled":false,"rental_uris":{"android":"levelo://app?vid=11853cab-00a1-4a60-a70c-11463ca4e5cf","ios":"levelo://app?vid=11853cab-00a1-4a60-a70c-11463ca4e5cf"},"vehicle_type_id":"4","last_reported":1746692034,"current_range_meters":11200,"station_id":"ce4bhah2rcd13ifvqei0","pricing_plan_id":"cebpf4jnsgd1na2vs0mg"},{"bike_id":"1402f633-d96c-4ac6-ac12-b0fddecb5a97","system_id":"levelo_inurba_marseille","lat":43.28935,"lon":5.36642,"is_reserved":false,"is_disabled":false,"rental_uris":{"android":"levelo://app?vid=1402f633-d96c-4ac6-ac12-b0fddecb5a97","ios":"levelo://app?vid=1402f633-d96c-4ac6-ac12-b0fddecb5a97"},"vehicle_type_id":"4","last_reported":1746692034,"current_range_meters":10800,"station_id":"ce4bhap2rcd13ifvqek0","pricing_plan_id":"cebpf4jnsgd1na2vs0mg"},{"bike_id":"5453c7c8-d7df-431d-98db-167d3c16d978","system_id":"levelo_inurba_marseille","lat":43.31374,"lon":5.38507,"is_reserved":false,"is_disabled":false,"rental_uris":{"android":"levelo://app?vid=5453c7c8-d7df-431d-98db-167d3c16d978","ios":"levelo://app?vid=5453c7c8-d7df-431d-98db-167d3c16d978"},"vehicle_type_id":"4","last_reported":1746692034,"current_range_meters":11600,"station_id":"ce4bgt92rcd13ifvqcf0","pricing_plan_id":"cebpf4jnsgd1na2vs0mg"},{"bike_id":"84628364-7e3f-47f9-bbf2-3101fea10d79","system_id":"levelo_inurba_marseille","lat":43.2957,"lon":5.42263,"is_reserved":false,"is_disabled":true,"rental_uris":{"android":"levelo://app?vid=84628364-7e3f-47f9-bbf2-3101fea10d79","ios":"levelo://app?vid=84628364-7e3f-47f9-bbf2-3101fea10d79"},"vehicle_type_id":"4","last_reported":1746692034,"current_range_meters":11600,"station_id":"ce4bhph2rcd13ifvqhdg","pricing_plan_id":"cebpf4jnsgd1na2vs0mg"},{"bike_id":"492a7a57-4c14-4260-ba62-da55dda4a419","system_id":"levelo_inurba_marseille","lat":43.323426,"lon":5.406159,"is_reserved":false,"is_disabled":false,"rental_uris":{"android":"levelo://app?vid=492a7a57-4c14-4260-ba62-da55dda4a419","ios":"levelo://app?vid=492a7a57-4c14-4260-ba62-da55dda4a419"},"vehicle_type_id":"4","last_reported":1746692034,"current_range_meters":12000,"station_id":"ce4bhq92rcd13ifvqhjg","pricing_plan_id":"cebpf4jnsgd1na2vs0mg"},{"bike_id":"d0d246fa-df4a-4543-9851-570a375ecbb7","system_id":"levelo_inurba_marseille","lat":43.27915,"lon":5.39574,"is_reserved":false,"is_disabled":false,"rental_uris":{"android":"levelo://app?vid=d0d246fa-df4a-4543-9851-570a375ecbb7","ios":"levelo://app?vid=d0d246fa-df4a-4543-9851-570a375ecbb7"},"vehicle_type_id":"4","last_reported":1746692034,"current_range_meters":12000,"station_id":"ce4bhf92rcd13ifvqf40","pricing_plan_id":"cebpf4jnsgd1na2vs0mg"},{"bike_id":"e945a495-d359-4bb7-bb94-1340aff95955","system_id":"levelo_inurba_marseille","lat":43.28165,"lon":5.40604,"is_reserved":false,"is_disabled":false,"rental_uris":{"android":"levelo://app?vid=e945a495-d359-4bb7-bb94-1340aff95955","ios":"levelo://app?vid=e945a495-d359-4bb7-bb94-1340aff95955"},"vehicle_type_id":"4","last_reported":1746692034,"current_range_meters":12400,"station_id":"","pricing_plan_id":"cebpf4jnsgd1na2vs0mg"},{"bike_id":"a5d2b31d-55c0-4567-b5f6-4393f56a9f2b","system_id":"levelo_inurba_marseille","lat":43.28429,"lon":5.34989,"is_reserved":false,"is_disabled":false,"rental_uris":{"android":"levelo://app?vid=a5d2b31d-55c0-4567-b5f6-4393f56a9f2b","ios":"levelo://app?vid=a5d2b31d-55c0-4567-b5f6-4393f56a9f2b"},"vehicle_type_id":"4","last_reported":1746692034,"current_range_meters":12400,"station_id":"ce4bhbh2rcd13ifvqepg","pricing_plan_id":"cebpf4jnsgd1na2vs0mg"},{"bike_id":"809c8673-c032-46b9-aa07-62c38e26d44e","system_id":"levelo_inurba_marseille","lat":43.25051,"lon":5.38792,"is_reserved":false,"is_disabled":false,"rental_uris":{"android":"levelo://app?vid=809c8673-c032-46b9-aa07-62c38e26d44e","ios":"levelo://app?vid=809c8673-c032-46b9-aa07-62c38e26d44e"},"vehicle_type_id":"4","last_reported":1746692034,"current_range_meters":12800,"station_id":"","pricing_plan_id":"cebpf4jnsgd1na2vs0mg"},{"bike_id":"2aace568-ac2f-49c7-9458-5246d5166cd0","system_id":"levelo_inurba_marseille","lat":43.28161,"lon":5.4266,"is_reserved":false,"is_disabled":false,"rental_uris":{"android":"levelo://app?vid=2aace568-ac2f-49c7-9458-5246d5166cd0","ios":"levelo://app?vid=2aace568-ac2f-49c7-9458-5246d5166cd0"},"vehicle_type_id":"4","last_reported":1746692034,"current_range_meters":13600,"station_id":"ce4bhnh2rcd13ifvqgug","pricing_plan_id":"cebpf4jnsgd1na2vs0mg"},{"bike_id":"6510b6dc-1f70-4fa5-ae47-793ebb4593e0","system_id":"levelo_inurba_marseille","lat":43.26946,"lon":5.40238,"is_reserved":false,"is_disabled":false,"rental_uris":{"android":"levelo://app?vid=6510b6dc-1f70-4fa5-ae47-793ebb4593e0","ios":"levelo://app?vid=6510b6dc-1f70-4fa5-ae47-793ebb4593e0"},"vehicle_type_id":"4","last_reported":1746692034,"current_range_meters":13600,"station_id":"cjm6bp8fraef2m0cb0m0","pricing_plan_id":"cebpf4jnsgd1na2vs0mg"},{"bike_id":"d7c49f09-f4f5-4778-a298-5da0a13c36da","system_id":"levelo_inurba_marseille","lat":43.33023,"lon":5.39044,"is_reserved":false,"is_disabled":false,"rental_uris":{"android":"levelo://app?vid=d7c49f09-f4f5-4778-a298-5da0a13c36da","ios":"levelo://app?vid=d7c49f09-f4f5-4778-a298-5da0a13c36da"},"vehicle_type_id":"4","last_reported":1746692034,"current_range_meters":13600,"station_id":"ce4bhr92rcd13ifvqhrg","pricing_plan_id":"cebpf4jnsgd1na2vs0mg"},{"bike_id":"47cd9dba-9c5a-4de3-a27d-45ec0de547bc","system_id":"levelo_inurba_marseille","lat":43.2815,"lon":5.42632,"is_reserved":false,"is_disabled":false,"rental_uris":{"android":"levelo://app?vid=47cd9dba-9c5a-4de3-a27d-45ec0de547bc","ios":"levelo://app?vid=47cd9dba-9c5a-4de3-a27d-45ec0de547bc"},"vehicle_type_id":"4","last_reported":1746692034,"current_range_meters":13600,"station_id":"ce4bhnh2rcd13ifvqgug","pricing_plan_id":"cebpf4jnsgd1na2vs0mg"},{"bike_id":"3282c6be-ed67-4517-b99e-448c004f99cd","system_id":"levelo_inurba_marseille","lat":43.29785,"lon":5.37101,"is_reserved":false,"is_disabled":false,"rental_uris":{"android":"levelo://app?vid=3282c6be-ed67-4517-b99e-448c004f99cd","ios":"levelo://app?vid=3282c6be-ed67-4517-b99e-448c004f99cd"},"vehicle_type_id":"4","last_reported":1746692034,"current_range_meters":14400,"station_id":"ce4bgop2rcd13ifvqc1g","pricing_plan_id":"cebpf4jnsgd1na2vs0mg"},{"bike_id":"6971f759-8594-489e-a8f6-9153c9a9c438","system_id":"levelo_inurba_marseille","lat":43.276844,"lon":5.419686,"is_reserved":false,"is_disabled":false,"rental_uris":{"android":"levelo://app?vid=6971f759-8594-489e-a8f6-9153c9a9c438","ios":"levelo://app?vid=6971f759-8594-489e-a8f6-9153c9a9c438"},"vehicle_type_id":"4","last_reported":1746692034,"current_range_meters":14400,"station_id":"","pricing_plan_id":"cebpf4jnsgd1na2vs0mg"},{"bike_id":"caccb556-2ad0-45b8-84b8-819024dd44e6","system_id":"levelo_inurba_marseille","lat":43.29788,"lon":5.36813,"is_reserved":false,"is_disabled":false,"rental_uris":{"android":"levelo://app?vid=caccb556-2ad0-45b8-84b8-819024dd44e6","ios":"levelo://app?vid=caccb556-2ad0-45b8-84b8-819024dd44e6"},"vehicle_type_id":"4","last_reported":1746692034,"current_range_meters":14800,"station_id":"","pricing_plan_id":"cebpf4jnsgd1na2vs0mg"},{"bike_id":"d6d32740-6d5a-473b-a468-d6bd7e30aaf8","system_id":"levelo_inurba_marseille","lat":43.26207,"lon":5.37918,"is_reserved":false,"is_disabled":false,"rental_uris":{"android":"levelo://app?vid=d6d32740-6d5a-473b-a468-d6bd7e30aaf8","ios":"levelo://app?vid=d6d32740-6d5a-473b-a468-d6bd7e30aaf8"},"vehicle_type_id":"4","last_reported":1746692034,"current_range_meters":15200,"station_id":"ce4bhjp2rcd13ifvqg90","pricing_plan_id":"cebpf4jnsgd1na2vs0mg"},{"bike_id":"e6282093-23fb-41a9-859d-c0d9ad966535","system_id":"levelo_inurba_marseille","lat":43.317072,"lon":5.377177,"is_reserved":false,"is_disabled":false,"rental_uris":{"android":"levelo://app?vid=e6282093-23fb-41a9-859d-c0d9ad966535","ios":"levelo://app?vid=e6282093-23fb-41a9-859d-c0d9ad966535"},"vehicle_type_id":"4","last_reported":1746692034,"current_range_meters":15200,"station_id":"ce4bgth2rcd13ifvqch0","pricing_plan_id":"cebpf4jnsgd1na2vs0mg"},{"bike_id":"89f953df-2061-408d-8f0d-6a2938e5443a","system_id":"levelo_inurba_marseille","lat":43.23661,"lon":5.40344,"is_reserved":false,"is_disabled":false,"rental_uris":{"android":"levelo://app?vid=89f953df-2061-408d-8f0d-6a2938e5443a","ios":"levelo://app?vid=89f953df-2061-408d-8f0d-6a2938e5443a"},"vehicle_type_id":"4","last_reported":1746692034,"current_range_meters":16000,"station_id":"","pricing_plan_id":"cebpf4jnsgd1na2vs0mg"},{"bike_id":"58c1b0c6-2963-4e5a-9626-a6ed62216dc2","system_id":"levelo_inurba_marseille","lat":43.29862,"lon":5.36244,"is_reserved":false,"is_disabled":false,"rental_uris":{"android":"levelo://app?vid=58c1b0c6-2963-4e5a-9626-a6ed62216dc2","ios":"levelo://app?vid=58c1b0c6-2963-4e5a-9626-a6ed62216dc2"},"vehicle_type_id":"4","last_reported":1746692034,"current_range_meters":15200,"station_id":"ce4bgpp2rcd13ifvqc3g","pricing_plan_id":"cebpf4jnsgd1na2vs0mg"},{"bike_id":"c4029833-2e44-4e6b-a29e-059a2a06d183","system_id":"levelo_inurba_marseille","lat":43.2439,"lon":5.37053,"is_reserved":false,"is_disabled":false,"rental_uris":{"android":"levelo://app?vid=c4029833-2e44-4e6b-a29e-059a2a06d183","ios":"levelo://app?vid=c4029833-2e44-4e6b-a29e-059a2a06d183"},"vehicle_type_id":"4","last_reported":1746692034,"current_range_meters":16400,"station_id":"ce4bhhh2rcd13ifvqfk0","pricing_plan_id":"cebpf4jnsgd1na2vs0mg"},{"bike_id":"386441d1-d0cd-4783-a499-3625d3e469b1","system_id":"levelo_inurba_marseille","lat":43.28194,"lon":5.36356,"is_reserved":false,"is_disabled":true,"rental_uris":{"android":"levelo://app?vid=386441d1-d0cd-4783-a499-3625d3e469b1","ios":"levelo://app?vid=386441d1-d0cd-4783-a499-3625d3e469b1"},"vehicle_type_id":"4","last_reported":1746692034,"current_range_meters":16400,"station_id":"","pricing_plan_id":"cebpf4jnsgd1na2vs0mg"},{"bike_id":"49e1edb5-3fad-4311-9de7-56cceb654a91","system_id":"levelo_inurba_marseille","lat":43.26818,"lon":5.40247,"is_reserved":false,"is_disabled":false,"rental_uris":{"android":"levelo://app?vid=49e1edb5-3fad-4311-9de7-56cceb654a91","ios":"levelo://app?vid=49e1edb5-3fad-4311-9de7-56cceb654a91"},"vehicle_type_id":"4","last_reported":1746692034,"current_range_meters":16400,"station_id":"ce501612rcd8frsf0b60","pricing_plan_id":"cebpf4jnsgd1na2vs0mg"},{"bike_id":"e433a49d-4b63-4b26-816f-c8626448fe9e","system_id":"levelo_inurba_marseille","lat":43.29966,"lon":5.413345,"is_reserved":false,"is_disabled":true,"rental_uris":{"android":"levelo://app?vid=e433a49d-4b63-4b26-816f-c8626448fe9e","ios":"levelo://app?vid=e433a49d-4b63-4b26-816f-c8626448fe9e"},"vehicle_type_id":"4","last_reported":1746692034,"current_range_meters":16400,"station_id":"ce4bhp12rcd13ifvqh9g","pricing_plan_id":"cebpf4jnsgd1na2vs0mg"},{"bike_id":"e9135506-ad92-4336-9c8f-389560d4b052","system_id":"levelo_inurba_marseille","lat":43.31367,"lon":5.38491,"is_reserved":false,"is_disabled":false,"rental_uris":{"android":"levelo://app?vid=e9135506-ad92-4336-9c8f-389560d4b052","ios":"levelo://app?vid=e9135506-ad92-4336-9c8f-389560d4b052"},"vehicle_type_id":"4","last_reported":1746692034,"current_range_meters":16800,"station_id":"ce4bgt92rcd13ifvqcf0","pricing_plan_id":"cebpf4jnsgd1na2vs0mg"},{"bike_id":"70a29a45-574c-4ff1-aca3-740aa0e705be","system_id":"levelo_inurba_marseille","lat":43.24159,"lon":5.36414,"is_reserved":false,"is_disabled":false,"rental_uris":{"android":"levelo://app?vid=70a29a45-574c-4ff1-aca3-740aa0e705be","ios":"levelo://app?vid=70a29a45-574c-4ff1-aca3-740aa0e705be"},"vehicle_type_id":"4","last_reported":1746692034,"current_range_meters":16800,"station_id":"cpo36qri1sfpv3e86is0","pricing_plan_id":"cebpf4jnsgd1na2vs0mg"},{"bike_id":"d015b8a3-4014-4bdc-8d24-269d5e25f388","system_id":"levelo_inurba_marseille","lat":43.304668,"lon":5.379137,"is_reserved":false,"is_disabled":false,"rental_uris":{"android":"levelo://app?vid=d015b8a3-4014-4bdc-8d24-269d5e25f388","ios":"levelo://app?vid=d015b8a3-4014-4bdc-8d24-269d5e25f388"},"vehicle_type_id":"4","last_reported":1746692034,"current_range_meters":16400,"station_id":"ce4bgup2rcd13ifvqcn0","pricing_plan_id":"cebpf4jnsgd1na2vs0mg"},{"bike_id":"16d82653-e2e5-4531-a384-7902e244f0cf","system_id":"levelo_inurba_marseille","lat":43.22532,"lon":5.3476,"is_reserved":false,"is_disabled":false,"rental_uris":{"android":"levelo://app?vid=16d82653-e2e5-4531-a384-7902e244f0cf","ios":"levelo://app?vid=16d82653-e2e5-4531-a384-7902e244f0cf"},"vehicle_type_id":"4","last_reported":1746692034,"current_range_meters":17200,"station_id":"st_cvj5dfep6f1abm77gieg","pricing_plan_id":"cebpf4jnsgd1na2vs0mg"},{"bike_id":"ad3912e1-02bc-450f-9f15-6e4766049115","system_id":"levelo_inurba_marseille","lat":43.29569,"lon":5.42287,"is_reserved":false,"is_disabled":false,"rental_uris":{"android":"levelo://app?vid=ad3912e1-02bc-450f-9f15-6e4766049115","ios":"levelo://app?vid=ad3912e1-02bc-450f-9f15-6e4766049115"},"vehicle_type_id":"4","last_reported":1746692034,"current_range_meters":17200,"station_id":"ce4bhph2rcd13ifvqhdg","pricing_plan_id":"cebpf4jnsgd1na2vs0mg"},{"bike_id":"e85fb6e7-29b9-4a2c-aa10-343a3bf1aacc","system_id":"levelo_inurba_marseille","lat":43.29908,"lon":5.43649,"is_reserved":false,"is_disabled":false,"rental_uris":{"android":"levelo://app?vid=e85fb6e7-29b9-4a2c-aa10-343a3bf1aacc","ios":"levelo://app?vid=e85fb6e7-29b9-4a2c-aa10-343a3bf1aacc"},"vehicle_type_id":"4","last_reported":1746692034,"current_range_meters":17200,"station_id":"ce4bhpp2rcd13ifvqhfg","pricing_plan_id":"cebpf4jnsgd1na2vs0mg"},{"bike_id":"86faaeb0-89f8-42b9-be93-a34d16b7bcf7","system_id":"levelo_inurba_marseille","lat":43.30093,"lon":5.37019,"is_reserved":false,"is_disabled":false,"rental_uris":{"android":"levelo://app?vid=86faaeb0-89f8-42b9-be93-a34d16b7bcf7","ios":"levelo://app?vid=86faaeb0-89f8-42b9-be93-a34d16b7bcf7"},"vehicle_type_id":"4","last_reported":1746692034,"current_range_meters":17200,"station_id":"","pricing_plan_id":"cebpf4jnsgd1na2vs0mg"},{"bike_id":"f3035667-5db8-4d82-95b2-1aa404290e19","system_id":"levelo_inurba_marseille","lat":43.24161,"lon":5.39766,"is_reserved":false,"is_disabled":false,"rental_uris":{"android":"levelo://app?vid=f3035667-5db8-4d82-95b2-1aa404290e19","ios":"levelo://app?vid=f3035667-5db8-4d82-95b2-1aa404290e19"},"vehicle_type_id":"4","last_reported":1746692034,"current_range_meters":17200,"station_id":"ce4bhn12rcd13ifvqgpg","pricing_plan_id":"cebpf4jnsgd1na2vs0mg"},{"bike_id":"3cac0407-9710-44bd-a04a-af262a1048b3","system_id":"levelo_inurba_marseille","lat":43.28148,"lon":5.42627,"is_reserved":false,"is_disabled":false,"rental_uris":{"android":"levelo://app?vid=3cac0407-9710-44bd-a04a-af262a1048b3","ios":"levelo://app?vid=3cac0407-9710-44bd-a04a-af262a1048b3"},"vehicle_type_id":"4","last_reported":1746692034,"current_range_meters":17600,"station_id":"ce4bhnh2rcd13ifvqgug","pricing_plan_id":"cebpf4jnsgd1na2vs0mg"},{"bike_id":"89b5c51b-cd9c-475c-ba7a-726b12d22f75","system_id":"levelo_inurba_marseille","lat":43.21193,"lon":5.3508,"is_reserved":false,"is_disabled":false,"rental_uris":{"android":"levelo://app?vid=89b5c51b-cd9c-475c-ba7a-726b12d22f75","ios":"levelo://app?vid=89b5c51b-cd9c-475c-ba7a-726b12d22f75"},"vehicle_type_id":"4","last_reported":1746692034,"current_range_meters":17600,"station_id":"st_cvj6sg6p6f1abm77japg","pricing_plan_id":"cebpf4jnsgd1na2vs0mg"},{"bike_id":"bf3c5571-4428-48e3-a45f-390c12bdc5bd","system_id":"levelo_inurba_marseille","lat":43.29309,"lon":5.37179,"is_reserved":false,"is_disabled":false,"rental_uris":{"android":"levelo://app?vid=bf3c5571-4428-48e3-a45f-390c12bdc5bd","ios":"levelo://app?vid=bf3c5571-4428-48e3-a45f-390c12bdc5bd"},"vehicle_type_id":"4","last_reported":1746692034,"current_range_meters":18000,"station_id":"ce4bgh92rcd13ifvqb40","pricing_plan_id":"cebpf4jnsgd1na2vs0mg"},{"bike_id":"ff807334-3ad3-4e40-bbde-648eb2b1c45b","system_id":"levelo_inurba_marseille","lat":43.21195,"lon":5.35076,"is_reserved":false,"is_disabled":false,"rental_uris":{"android":"levelo://app?vid=ff807334-3ad3-4e40-bbde-648eb2b1c45b","ios":"levelo://app?vid=ff807334-3ad3-4e40-bbde-648eb2b1c45b"},"vehicle_type_id":"4","last_reported":1746692034,"current_range_meters":18000,"station_id":"st_cvj6sg6p6f1abm77japg","pricing_plan_id":"cebpf4jnsgd1na2vs0mg"},{"bike_id":"a71a0dfc-7de8-44ee-9bb2-1e81dadd19e0","system_id":"levelo_inurba_marseille","lat":43.31709,"lon":5.437039,"is_reserved":false,"is_disabled":false,"rental_uris":{"android":"levelo://app?vid=a71a0dfc-7de8-44ee-9bb2-1e81dadd19e0","ios":"levelo://app?vid=a71a0dfc-7de8-44ee-9bb2-1e81dadd19e0"},"vehicle_type_id":"4","last_reported":1746692034,"current_range_meters":18000,"station_id":"ce4bhp92rcd13ifvqhcg","pricing_plan_id":"cebpf4jnsgd1na2vs0mg"},{"bike_id":"641acf03-5dac-4600-8edf-c20a3fb90541","system_id":"levelo_inurba_marseille","lat":43.24075,"lon":5.37753,"is_reserved":false,"is_disabled":false,"rental_uris":{"android":"levelo://app?vid=641acf03-5dac-4600-8edf-c20a3fb90541","ios":"levelo://app?vid=641acf03-5dac-4600-8edf-c20a3fb90541"},"vehicle_type_id":"4","last_reported":1746692034,"current_range_meters":17600,"station_id":"ce4bhnp2rcd13ifvqgvg","pricing_plan_id":"cebpf4jnsgd1na2vs0mg"},{"bike_id":"c821e32e-d925-441c-80d2-d5a984744aba","system_id":"levelo_inurba_marseille","lat":43.21192,"lon":5.35064,"is_reserved":false,"is_disabled":false,"rental_uris":{"android":"levelo://app?vid=c821e32e-d925-441c-80d2-d5a984744aba","ios":"levelo://app?vid=c821e32e-d925-441c-80d2-d5a984744aba"},"vehicle_type_id":"4","last_reported":1746692034,"current_range_meters":18800,"station_id":"st_cvj6sg6p6f1abm77japg","pricing_plan_id":"cebpf4jnsgd1na2vs0mg"},{"bike_id":"9fc8e058-a5cd-4804-9a41-019a1b8fe822","system_id":"levelo_inurba_marseille","lat":43.30963,"lon":5.39043,"is_reserved":false,"is_disabled":false,"rental_uris":{"android":"levelo://app?vid=9fc8e058-a5cd-4804-9a41-019a1b8fe822","ios":"levelo://app?vid=9fc8e058-a5cd-4804-9a41-019a1b8fe822"},"vehicle_type_id":"4","last_reported":1746692034,"current_range_meters":18800,"station_id":"ce4bgup2rcd13ifvqco0","pricing_plan_id":"cebpf4jnsgd1na2vs0mg"},{"bike_id":"68ee0add-a0a0-408b-8912-d9385a512f87","system_id":"levelo_inurba_marseille","lat":43.26204,"lon":5.37925,"is_reserved":false,"is_disabled":false,"rental_uris":{"android":"levelo://app?vid=68ee0add-a0a0-408b-8912-d9385a512f87","ios":"levelo://app?vid=68ee0add-a0a0-408b-8912-d9385a512f87"},"vehicle_type_id":"4","last_reported":1746692034,"current_range_meters":18000,"station_id":"ce4bhjp2rcd13ifvqg90","pricing_plan_id":"cebpf4jnsgd1na2vs0mg"},{"bike_id":"95407fdd-6b53-4c42-85f7-ee3e66f21b13","system_id":"levelo_inurba_marseille","lat":43.24334,"lon":5.37979,"is_reserved":false,"is_disabled":false,"rental_uris":{"android":"levelo://app?vid=95407fdd-6b53-4c42-85f7-ee3e66f21b13","ios":"levelo://app?vid=95407fdd-6b53-4c42-85f7-ee3e66f21b13"},"vehicle_type_id":"4","last_reported":1746692034,"current_range_meters":19200,"station_id":"","pricing_plan_id":"cebpf4jnsgd1na2vs0mg"},{"bike_id":"e179e333-dec8-4e4b-a519-160e8d789301","system_id":"levelo_inurba_marseille","lat":43.30218,"lon":5.3945,"is_reserved":false,"is_disabled":false,"rental_uris":{"android":"levelo://app?vid=e179e333-dec8-4e4b-a519-160e8d789301","ios":"levelo://app?vid=e179e333-dec8-4e4b-a519-160e8d789301"},"vehicle_type_id":"4","last_reported":1746692034,"current_range_meters":19200,"station_id":"ce4bh0p2rcd13ifvqd70","pricing_plan_id":"cebpf4jnsgd1na2vs0mg"},{"bike_id":"90dd7ece-e0e3-4e3f-8585-4f4f345a0f96","system_id":"levelo_inurba_marseille","lat":43.31699,"lon":5.40465,"is_reserved":false,"is_disabled":false,"rental_uris":{"android":"levelo://app?vid=90dd7ece-e0e3-4e3f-8585-4f4f345a0f96","ios":"levelo://app?vid=90dd7ece-e0e3-4e3f-8585-4f4f345a0f96"},"vehicle_type_id":"4","last_reported":1746692034,"current_range_meters":19200,"station_id":"ce4bh012rcd13ifvqd00","pricing_plan_id":"cebpf4jnsgd1na2vs0mg"},{"bike_id":"c00b4dc3-faff-4d5a-88c8-7b701ca8bbe6","system_id":"levelo_inurba_marseille","lat":43.31702,"lon":5.40449,"is_reserved":false,"is_disabled":false,"rental_uris":{"android":"levelo://app?vid=c00b4dc3-faff-4d5a-88c8-7b701ca8bbe6","ios":"levelo://app?vid=c00b4dc3-faff-4d5a-88c8-7b701ca8bbe6"},"vehicle_type_id":"4","last_reported":1746692034,"current_range_meters":19200,"station_id":"ce4bh012rcd13ifvqd00","pricing_plan_id":"cebpf4jnsgd1na2vs0mg"},{"bike_id":"bda5be8e-0919-47ea-aae0-c476c63ec293","system_id":"levelo_inurba_marseille","lat":43.305308,"lon":5.384422,"is_reserved":false,"is_disabled":true,"rental_uris":{"android":"levelo://app?vid=bda5be8e-0919-47ea-aae0-c476c63ec293","ios":"levelo://app?vid=bda5be8e-0919-47ea-aae0-c476c63ec293"},"vehicle_type_id":"4","last_reported":1746692034,"current_range_meters":19200,"station_id":"ce4bgg92rcd13ifvqb30","pricing_plan_id":"cebpf4jnsgd1na2vs0mg"},{"bike_id":"f3e9ab38-3242-4aa5-83f9-529a16ccf936","system_id":"levelo_inurba_marseille","lat":43.22497,"lon":5.34764,"is_reserved":false,"is_disabled":false,"rental_uris":{"android":"levelo://app?vid=f3e9ab38-3242-4aa5-83f9-529a16ccf936","ios":"levelo://app?vid=f3e9ab38-3242-4aa5-83f9-529a16ccf936"},"vehicle_type_id":"4","last_reported":1746692034,"current_range_meters":19200,"station_id":"st_cvj5dfep6f1abm77gieg","pricing_plan_id":"cebpf4jnsgd1na2vs0mg"},{"bike_id":"50090436-8b19-4868-9240-9dcae25dfaa1","system_id":"levelo_inurba_marseille","lat":43.29889,"lon":5.39742,"is_reserved":false,"is_disabled":false,"rental_uris":{"android":"levelo://app?vid=50090436-8b19-4868-9240-9dcae25dfaa1","ios":"levelo://app?vid=50090436-8b19-4868-9240-9dcae25dfaa1"},"vehicle_type_id":"4","last_reported":1746692034,"current_range_meters":19200,"station_id":"ce4bh0h2rcd13ifvqd50","pricing_plan_id":"cebpf4jnsgd1na2vs0mg"},{"bike_id":"40dbdf52-d6ba-4566-8e2f-8165e53c68a6","system_id":"levelo_inurba_marseille","lat":43.24389,"lon":5.37063,"is_reserved":false,"is_disabled":false,"rental_uris":{"android":"levelo://app?vid=40dbdf52-d6ba-4566-8e2f-8165e53c68a6","ios":"levelo://app?vid=40dbdf52-d6ba-4566-8e2f-8165e53c68a6"},"vehicle_type_id":"4","last_reported":1746692034,"current_range_meters":19600,"station_id":"ce4bhhh2rcd13ifvqfk0","pricing_plan_id":"cebpf4jnsgd1na2vs0mg"},{"bike_id":"8667c9cf-b1e4-47a2-a990-8aa6e7913022","system_id":"levelo_inurba_marseille","lat":43.281015,"lon":5.378317,"is_reserved":false,"is_disabled":false,"rental_uris":{"android":"levelo://app?vid=8667c9cf-b1e4-47a2-a990-8aa6e7913022","ios":"levelo://app?vid=8667c9cf-b1e4-47a2-a990-8aa6e7913022"},"vehicle_type_id":"4","last_reported":1746692034,"current_range_meters":19600,"station_id":"","pricing_plan_id":"cebpf4jnsgd1na2vs0mg"},{"bike_id":"93be0811-1b17-4930-a6a3-2840d4e86a39","system_id":"levelo_inurba_marseille","lat":43.28617,"lon":5.35131,"is_reserved":false,"is_disabled":false,"rental_uris":{"android":"levelo://app?vid=93be0811-1b17-4930-a6a3-2840d4e86a39","ios":"levelo://app?vid=93be0811-1b17-4930-a6a3-2840d4e86a39"},"vehicle_type_id":"4","last_reported":1746692034,"current_range_meters":20000,"station_id":"ce4bhch2rcd13ifvqeug","pricing_plan_id":"cebpf4jnsgd1na2vs0mg"},{"bike_id":"6bd88d16-db0b-4768-8f37-286cddd2c995","system_id":"levelo_inurba_marseille","lat":43.3043,"lon":5.39747,"is_reserved":false,"is_disabled":false,"rental_uris":{"android":"levelo://app?vid=6bd88d16-db0b-4768-8f37-286cddd2c995","ios":"levelo://app?vid=6bd88d16-db0b-4768-8f37-286cddd2c995"},"vehicle_type_id":"4","last_reported":1746692034,"current_range_meters":20000,"station_id":"ce4bh092rcd13ifvqd20","pricing_plan_id":"cebpf4jnsgd1na2vs0mg"},{"bike_id":"34b0bc6a-7140-4b5a-838e-d329135fd8f8","system_id":"levelo_inurba_marseille","lat":43.30954,"lon":5.39033,"is_reserved":false,"is_disabled":false,"rental_uris":{"android":"levelo://app?vid=34b0bc6a-7140-4b5a-838e-d329135fd8f8","ios":"levelo://app?vid=34b0bc6a-7140-4b5a-838e-d329135fd8f8"},"vehicle_type_id":"4","last_reported":1746692034,"current_range_meters":20000,"station_id":"ce4bgup2rcd13ifvqco0","pricing_plan_id":"cebpf4jnsgd1na2vs0mg"},{"bike_id":"08f13c7a-2eb9-4abf-8400-826a57aabaef","system_id":"levelo_inurba_marseille","lat":43.316707,"lon":5.372555,"is_reserved":false,"is_disabled":false,"rental_uris":{"android":"levelo://app?vid=08f13c7a-2eb9-4abf-8400-826a57aabaef","ios":"levelo://app?vid=08f13c7a-2eb9-4abf-8400-826a57aabaef"},"vehicle_type_id":"4","last_reported":1746692034,"current_range_meters":20000,"station_id":"","pricing_plan_id":"cebpf4jnsgd1na2vs0mg"},{"bike_id":"ba38a60a-fe6b-4d9c-9ac1-ebdcd46cf517","system_id":"levelo_inurba_marseille","lat":43.24171,"lon":5.39731,"is_reserved":false,"is_disabled":false,"rental_uris":{"android":"levelo://app?vid=ba38a60a-fe6b-4d9c-9ac1-ebdcd46cf517","ios":"levelo://app?vid=ba38a60a-fe6b-4d9c-9ac1-ebdcd46cf517"},"vehicle_type_id":"4","last_reported":1746692034,"current_range_meters":20400,"station_id":"ce4bhn12rcd13ifvqgpg","pricing_plan_id":"cebpf4jnsgd1na2vs0mg"},{"bike_id":"5a66b016-8425-4ea9-ad57-b6177cc96802","system_id":"levelo_inurba_marseille","lat":43.315701,"lon":5.388999,"is_reserved":false,"is_disabled":false,"rental_uris":{"android":"levelo://app?vid=5a66b016-8425-4ea9-ad57-b6177cc96802","ios":"levelo://app?vid=5a66b016-8425-4ea9-ad57-b6177cc96802"},"vehicle_type_id":"4","last_reported":1746692034,"current_range_meters":20400,"station_id":"","pricing_plan_id":"cebpf4jnsgd1na2vs0mg"},{"bike_id":"f73d450b-fde6-4898-99b1-916875a407c6","system_id":"levelo_inurba_marseille","lat":43.22505,"lon":5.34786,"is_reserved":false,"is_disabled":true,"rental_uris":{"android":"levelo://app?vid=f73d450b-fde6-4898-99b1-916875a407c6","ios":"levelo://app?vid=f73d450b-fde6-4898-99b1-916875a407c6"},"vehicle_type_id":"4","last_reported":1746692034,"current_range_meters":20400,"station_id":"st_cvj5dfep6f1abm77gieg","pricing_plan_id":"cebpf4jnsgd1na2vs0mg"},{"bike_id":"da3aa9b6-280e-441a-9902-7b55cb9fe3a3","system_id":"levelo_inurba_marseille","lat":43.32376,"lon":5.36776,"is_reserved":false,"is_disabled":false,"rental_uris":{"android":"levelo://app?vid=da3aa9b6-280e-441a-9902-7b55cb9fe3a3","ios":"levelo://app?vid=da3aa9b6-280e-441a-9902-7b55cb9fe3a3"},"vehicle_type_id":"4","last_reported":1746692034,"current_range_meters":20400,"station_id":"ce4bhsh2rcd13ifvqi2g","pricing_plan_id":"cebpf4jnsgd1na2vs0mg"},{"bike_id":"91e162dc-df90-4b10-94c0-748de28a9b55","system_id":"levelo_inurba_marseille","lat":43.278004,"lon":5.399671,"is_reserved":false,"is_disabled":false,"rental_uris":{"android":"levelo://app?vid=91e162dc-df90-4b10-94c0-748de28a9b55","ios":"levelo://app?vid=91e162dc-df90-4b10-94c0-748de28a9b55"},"vehicle_type_id":"4","last_reported":1746692034,"current_range_meters":20800,"station_id":"","pricing_plan_id":"cebpf4jnsgd1na2vs0mg"},{"bike_id":"fa9d56af-7ef3-4f34-b980-247522804b3c","system_id":"levelo_inurba_marseille","lat":43.28615,"lon":5.35105,"is_reserved":false,"is_disabled":false,"rental_uris":{"android":"levelo://app?vid=fa9d56af-7ef3-4f34-b980-247522804b3c","ios":"levelo://app?vid=fa9d56af-7ef3-4f34-b980-247522804b3c"},"vehicle_type_id":"4","last_reported":1746692034,"current_range_meters":20800,"station_id":"ce4bhch2rcd13ifvqeug","pricing_plan_id":"cebpf4jnsgd1na2vs0mg"},{"bike_id":"75facf72-3d79-4108-a95c-fcce1e0b9a39","system_id":"levelo_inurba_marseille","lat":43.257392,"lon":5.382293,"is_reserved":false,"is_disabled":true,"rental_uris":{"android":"levelo://app?vid=75facf72-3d79-4108-a95c-fcce1e0b9a39","ios":"levelo://app?vid=75facf72-3d79-4108-a95c-fcce1e0b9a39"},"vehicle_type_id":"4","last_reported":1746692034,"current_range_meters":20800,"station_id":"","pricing_plan_id":"cebpf4jnsgd1na2vs0mg"},{"bike_id":"d55c3193-bccc-4b5e-85ee-6447ec64a818","system_id":"levelo_inurba_marseille","lat":43.27209,"lon":5.39173,"is_reserved":false,"is_disabled":false,"rental_uris":{"android":"levelo://app?vid=d55c3193-bccc-4b5e-85ee-6447ec64a818","ios":"levelo://app?vid=d55c3193-bccc-4b5e-85ee-6447ec64a818"},"vehicle_type_id":"4","last_reported":1746692034,"current_range_meters":20800,"station_id":"ce4bhhp2rcd13ifvqfm0","pricing_plan_id":"cebpf4jnsgd1na2vs0mg"},{"bike_id":"a0f59bc0-650a-4106-a079-d368ed8a3edf","system_id":"levelo_inurba_marseille","lat":43.27407,"lon":5.39374,"is_reserved":false,"is_disabled":true,"rental_uris":{"android":"levelo://app?vid=a0f59bc0-650a-4106-a079-d368ed8a3edf","ios":"levelo://app?vid=a0f59bc0-650a-4106-a079-d368ed8a3edf"},"vehicle_type_id":"4","last_reported":1746692034,"current_range_meters":21600,"station_id":"ce4bhdp2rcd13ifvqf20","pricing_plan_id":"cebpf4jnsgd1na2vs0mg"},{"bike_id":"81d4cec4-4182-4035-b937-2cdef08d4fe1","system_id":"levelo_inurba_marseille","lat":43.3073,"lon":5.42437,"is_reserved":false,"is_disabled":false,"rental_uris":{"android":"levelo://app?vid=81d4cec4-4182-4035-b937-2cdef08d4fe1","ios":"levelo://app?vid=81d4cec4-4182-4035-b937-2cdef08d4fe1"},"vehicle_type_id":"4","last_reported":1746692034,"current_range_meters":22000,"station_id":"st_cvj6ca6bvosntc0bfgr0","pricing_plan_id":"cebpf4jnsgd1na2vs0mg"},{"bike_id":"7a8c26b9-e0a6-421d-bf14-85d6f0a2e0fd","system_id":"levelo_inurba_marseille","lat":43.27207,"lon":5.39184,"is_reserved":false,"is_disabled":false,"rental_uris":{"android":"levelo://app?vid=7a8c26b9-e0a6-421d-bf14-85d6f0a2e0fd","ios":"levelo://app?vid=7a8c26b9-e0a6-421d-bf14-85d6f0a2e0fd"},"vehicle_type_id":"4","last_reported":1746692034,"current_range_meters":22000,"station_id":"ce4bhhp2rcd13ifvqfm0","pricing_plan_id":"cebpf4jnsgd1na2vs0mg"},{"bike_id":"d102547c-2fc8-457b-9026-fb2fce934c54","system_id":"levelo_inurba_marseille","lat":43.25119,"lon":5.40312,"is_reserved":false,"is_disabled":false,"rental_uris":{"android":"levelo://app?vid=d102547c-2fc8-457b-9026-fb2fce934c54","ios":"levelo://app?vid=d102547c-2fc8-457b-9026-fb2fce934c54"},"vehicle_type_id":"4","last_reported":1746692034,"current_range_meters":22000,"station_id":"ce4bhlh2rcd13ifvqgig","pricing_plan_id":"cebpf4jnsgd1na2vs0mg"},{"bike_id":"630b9dc7-fd82-4d94-a73a-2ca1c54e4ed6","system_id":"levelo_inurba_marseille","lat":43.3015,"lon":5.38082,"is_reserved":false,"is_disabled":false,"rental_uris":{"android":"levelo://app?vid=630b9dc7-fd82-4d94-a73a-2ca1c54e4ed6","ios":"levelo://app?vid=630b9dc7-fd82-4d94-a73a-2ca1c54e4ed6"},"vehicle_type_id":"4","last_reported":1746692034,"current_range_meters":22000,"station_id":"ce4bgjp2rcd13ifvqbh0","pricing_plan_id":"cebpf4jnsgd1na2vs0mg"},{"bike_id":"3efe50aa-6a3d-4e17-a8ae-822980fea60a","system_id":"levelo_inurba_marseille","lat":43.29226,"lon":5.36084,"is_reserved":false,"is_disabled":false,"rental_uris":{"android":"levelo://app?vid=3efe50aa-6a3d-4e17-a8ae-822980fea60a","ios":"levelo://app?vid=3efe50aa-6a3d-4e17-a8ae-822980fea60a"},"vehicle_type_id":"4","last_reported":1746692034,"current_range_meters":22400,"station_id":"ce4bhbh2rcd13ifvqeqg","pricing_plan_id":"cebpf4jnsgd1na2vs0mg"},{"bike_id":"f597e4b6-c723-45d1-a62d-164b4d4c53ce","system_id":"levelo_inurba_marseille","lat":43.31373,"lon":5.38507,"is_reserved":false,"is_disabled":false,"rental_uris":{"android":"levelo://app?vid=f597e4b6-c723-45d1-a62d-164b4d4c53ce","ios":"levelo://app?vid=f597e4b6-c723-45d1-a62d-164b4d4c53ce"},"vehicle_type_id":"4","last_reported":1746692034,"current_range_meters":22400,"station_id":"ce4bgt92rcd13ifvqcf0","pricing_plan_id":"cebpf4jnsgd1na2vs0mg"},{"bike_id":"77105872-e46d-4c1d-9ea0-bbec84b45f00","system_id":"levelo_inurba_marseille","lat":43.24169,"lon":5.39731,"is_reserved":false,"is_disabled":false,"rental_uris":{"android":"levelo://app?vid=77105872-e46d-4c1d-9ea0-bbec84b45f00","ios":"levelo://app?vid=77105872-e46d-4c1d-9ea0-bbec84b45f00"},"vehicle_type_id":"4","last_reported":1746692034,"current_range_meters":22400,"station_id":"ce4bhn12rcd13ifvqgpg","pricing_plan_id":"cebpf4jnsgd1na2vs0mg"},{"bike_id":"22466279-92a1-4a5e-8b22-a64d5d807afd","system_id":"levelo_inurba_marseille","lat":43.30956,"lon":5.39034,"is_reserved":false,"is_disabled":false,"rental_uris":{"android":"levelo://app?vid=22466279-92a1-4a5e-8b22-a64d5d807afd","ios":"levelo://app?vid=22466279-92a1-4a5e-8b22-a64d5d807afd"},"vehicle_type_id":"4","last_reported":1746692034,"current_range_meters":22400,"station_id":"ce4bgup2rcd13ifvqco0","pricing_plan_id":"cebpf4jnsgd1na2vs0mg"},{"bike_id":"ec58e7bc-6980-4e17-babc-5897453e2551","system_id":"levelo_inurba_marseille","lat":43.30948,"lon":5.39038,"is_reserved":false,"is_disabled":false,"rental_uris":{"android":"levelo://app?vid=ec58e7bc-6980-4e17-babc-5897453e2551","ios":"levelo://app?vid=ec58e7bc-6980-4e17-babc-5897453e2551"},"vehicle_type_id":"4","last_reported":1746692034,"current_range_meters":22400,"station_id":"ce4bgup2rcd13ifvqco0","pricing_plan_id":"cebpf4jnsgd1na2vs0mg"},{"bike_id":"bf094eb0-439a-4e7b-bfff-f4c08b5bed03","system_id":"levelo_inurba_marseille","lat":43.29768,"lon":5.37108,"is_reserved":false,"is_disabled":false,"rental_uris":{"android":"levelo://app?vid=bf094eb0-439a-4e7b-bfff-f4c08b5bed03","ios":"levelo://app?vid=bf094eb0-439a-4e7b-bfff-f4c08b5bed03"},"vehicle_type_id":"4","last_reported":1746692034,"current_range_meters":22800,"station_id":"ce4bgop2rcd13ifvqc1g","pricing_plan_id":"cebpf4jnsgd1na2vs0mg"},{"bike_id":"c1041c9f-2085-470a-b13c-f88fd8323115","system_id":"levelo_inurba_marseille","lat":43.277446,"lon":5.386728,"is_reserved":false,"is_disabled":false,"rental_uris":{"android":"levelo://app?vid=c1041c9f-2085-470a-b13c-f88fd8323115","ios":"levelo://app?vid=c1041c9f-2085-470a-b13c-f88fd8323115"},"vehicle_type_id":"4","last_reported":1746692034,"current_range_meters":22800,"station_id":"","pricing_plan_id":"cebpf4jnsgd1na2vs0mg"},{"bike_id":"d1107ecd-be4f-458d-a1cd-17553b1323a8","system_id":"levelo_inurba_marseille","lat":43.21493,"lon":5.34808,"is_reserved":false,"is_disabled":false,"rental_uris":{"android":"levelo://app?vid=d1107ecd-be4f-458d-a1cd-17553b1323a8","ios":"levelo://app?vid=d1107ecd-be4f-458d-a1cd-17553b1323a8"},"vehicle_type_id":"4","last_reported":1746692034,"current_range_meters":22800,"station_id":"","pricing_plan_id":"cebpf4jnsgd1na2vs0mg"},{"bike_id":"83a50b95-d68b-4f37-b42f-f4b6d18160f2","system_id":"levelo_inurba_marseille","lat":43.25939,"lon":5.40893,"is_reserved":false,"is_disabled":false,"rental_uris":{"android":"levelo://app?vid=83a50b95-d68b-4f37-b42f-f4b6d18160f2","ios":"levelo://app?vid=83a50b95-d68b-4f37-b42f-f4b6d18160f2"},"vehicle_type_id":"4","last_reported":1746692034,"current_range_meters":22800,"station_id":"ce4bhm92rcd13ifvqglg","pricing_plan_id":"cebpf4jnsgd1na2vs0mg"},{"bike_id":"e20796c6-fb69-495f-8806-cb4abe497320","system_id":"levelo_inurba_marseille","lat":43.2656,"lon":5.37317,"is_reserved":false,"is_disabled":false,"rental_uris":{"android":"levelo://app?vid=e20796c6-fb69-495f-8806-cb4abe497320","ios":"levelo://app?vid=e20796c6-fb69-495f-8806-cb4abe497320"},"vehicle_type_id":"4","last_reported":1746692034,"current_range_meters":22800,"station_id":"ce4bhg12rcd13ifvqf70","pricing_plan_id":"cebpf4jnsgd1na2vs0mg"},{"bike_id":"7e2fc55e-a82e-4a0e-965f-2fda9c3168b9","system_id":"levelo_inurba_marseille","lat":43.25,"lon":5.38936,"is_reserved":false,"is_disabled":false,"rental_uris":{"android":"levelo://app?vid=7e2fc55e-a82e-4a0e-965f-2fda9c3168b9","ios":"levelo://app?vid=7e2fc55e-a82e-4a0e-965f-2fda9c3168b9"},"vehicle_type_id":"4","last_reported":1746692034,"current_range_meters":22800,"station_id":"ce4bhgp2rcd13ifvqfd0","pricing_plan_id":"cebpf4jnsgd1na2vs0mg"},{"bike_id":"d555e0d6-19ba-408b-ad9f-2e129d0a634e","system_id":"levelo_inurba_marseille","lat":43.31063,"lon":5.37578,"is_reserved":false,"is_disabled":false,"rental_uris":{"android":"levelo://app?vid=d555e0d6-19ba-408b-ad9f-2e129d0a634e","ios":"levelo://app?vid=d555e0d6-19ba-408b-ad9f-2e129d0a634e"},"vehicle_type_id":"4","last_reported":1746692034,"current_range_meters":22800,"station_id":"","pricing_plan_id":"cebpf4jnsgd1na2vs0mg"},{"bike_id":"6536cb6e-d928-4440-9089-a7deb10c7d96","system_id":"levelo_inurba_marseille","lat":43.2417,"lon":5.36379,"is_reserved":false,"is_disabled":false,"rental_uris":{"android":"levelo://app?vid=6536cb6e-d928-4440-9089-a7deb10c7d96","ios":"levelo://app?vid=6536cb6e-d928-4440-9089-a7deb10c7d96"},"vehicle_type_id":"4","last_reported":1746692034,"current_range_meters":22800,"station_id":"cpo36qri1sfpv3e86is0","pricing_plan_id":"cebpf4jnsgd1na2vs0mg"},{"bike_id":"ec311775-3339-4577-838b-f717d13eb583","system_id":"levelo_inurba_marseille","lat":43.25728,"lon":5.41109,"is_reserved":false,"is_disabled":false,"rental_uris":{"android":"levelo://app?vid=ec311775-3339-4577-838b-f717d13eb583","ios":"levelo://app?vid=ec311775-3339-4577-838b-f717d13eb583"},"vehicle_type_id":"4","last_reported":1746692034,"current_range_meters":22800,"station_id":"ce4bhkp2rcd13ifvqgd0","pricing_plan_id":"cebpf4jnsgd1na2vs0mg"},{"bike_id":"d9532cf0-e74b-4abb-a581-12204e09acd5","system_id":"levelo_inurba_marseille","lat":43.30145,"lon":5.38084,"is_reserved":false,"is_disabled":false,"rental_uris":{"android":"levelo://app?vid=d9532cf0-e74b-4abb-a581-12204e09acd5","ios":"levelo://app?vid=d9532cf0-e74b-4abb-a581-12204e09acd5"},"vehicle_type_id":"4","last_reported":1746692034,"current_range_meters":23200,"station_id":"ce4bgjp2rcd13ifvqbh0","pricing_plan_id":"cebpf4jnsgd1na2vs0mg"},{"bike_id":"81590081-7c0c-4e6b-b3f0-1b05fc7e3976","system_id":"levelo_inurba_marseille","lat":43.30145,"lon":5.38089,"is_reserved":false,"is_disabled":false,"rental_uris":{"android":"levelo://app?vid=81590081-7c0c-4e6b-b3f0-1b05fc7e3976","ios":"levelo://app?vid=81590081-7c0c-4e6b-b3f0-1b05fc7e3976"},"vehicle_type_id":"4","last_reported":1746692034,"current_range_meters":23200,"station_id":"ce4bgjp2rcd13ifvqbh0","pricing_plan_id":"cebpf4jnsgd1na2vs0mg"},{"bike_id":"e16a55e9-5810-44be-b2a7-5cd6858433f1","system_id":"levelo_inurba_marseille","lat":43.29579,"lon":5.36744,"is_reserved":false,"is_disabled":false,"rental_uris":{"android":"levelo://app?vid=e16a55e9-5810-44be-b2a7-5cd6858433f1","ios":"levelo://app?vid=e16a55e9-5810-44be-b2a7-5cd6858433f1"},"vehicle_type_id":"4","last_reported":1746692034,"current_range_meters":23200,"station_id":"ce4bgph2rcd13ifvqc2g","pricing_plan_id":"cebpf4jnsgd1na2vs0mg"},{"bike_id":"5f3e0c3c-ba07-4c9a-97a4-b68afab76ca1","system_id":"levelo_inurba_marseille","lat":43.33751,"lon":5.3741,"is_reserved":false,"is_disabled":false,"rental_uris":{"android":"levelo://app?vid=5f3e0c3c-ba07-4c9a-97a4-b68afab76ca1","ios":"levelo://app?vid=5f3e0c3c-ba07-4c9a-97a4-b68afab76ca1"},"vehicle_type_id":"4","last_reported":1746692034,"current_range_meters":23200,"station_id":"","pricing_plan_id":"cebpf4jnsgd1na2vs0mg"},{"bike_id":"c857fcec-4f1b-404f-946c-31b1dfd43e8f","system_id":"levelo_inurba_marseille","lat":43.27623,"lon":5.36104,"is_reserved":false,"is_disabled":false,"rental_uris":{"android":"levelo://app?vid=c857fcec-4f1b-404f-946c-31b1dfd43e8f","ios":"levelo://app?vid=c857fcec-4f1b-404f-946c-31b1dfd43e8f"},"vehicle_type_id":"4","last_reported":1746692034,"current_range_meters":23200,"station_id":"ce4bgj92rcd13ifvqbe0","pricing_plan_id":"cebpf4jnsgd1na2vs0mg"},{"bike_id":"e1eefe4b-c8d9-4584-bc99-1ff52d9d59bc","system_id":"levelo_inurba_marseille","lat":43.31541,"lon":5.38017,"is_reserved":false,"is_disabled":false,"rental_uris":{"android":"levelo://app?vid=e1eefe4b-c8d9-4584-bc99-1ff52d9d59bc","ios":"levelo://app?vid=e1eefe4b-c8d9-4584-bc99-1ff52d9d59bc"},"vehicle_type_id":"4","last_reported":1746692034,"current_range_meters":24000,"station_id":"ce4bhsp2rcd13ifvqi50","pricing_plan_id":"cebpf4jnsgd1na2vs0mg"},{"bike_id":"b355cad9-ebd8-409c-a1ab-39243b344427","system_id":"levelo_inurba_marseille","lat":43.28664,"lon":5.36355,"is_reserved":false,"is_disabled":false,"rental_uris":{"android":"levelo://app?vid=b355cad9-ebd8-409c-a1ab-39243b344427","ios":"levelo://app?vid=b355cad9-ebd8-409c-a1ab-39243b344427"},"vehicle_type_id":"4","last_reported":1746692034,"current_range_meters":24000,"station_id":"ce4bhah2rcd13ifvqej0","pricing_plan_id":"cebpf4jnsgd1na2vs0mg"},{"bike_id":"4b78dc89-d232-4907-afdb-4ff9067362ae","system_id":"levelo_inurba_marseille","lat":43.29906,"lon":5.38137,"is_reserved":false,"is_disabled":false,"rental_uris":{"android":"levelo://app?vid=4b78dc89-d232-4907-afdb-4ff9067362ae","ios":"levelo://app?vid=4b78dc89-d232-4907-afdb-4ff9067362ae"},"vehicle_type_id":"4","last_reported":1746692034,"current_range_meters":24000,"station_id":"ce4bgj12rcd13ifvqbc0","pricing_plan_id":"cebpf4jnsgd1na2vs0mg"},{"bike_id":"b6ef3f00-dd79-48ff-9fc3-86c640ce7218","system_id":"levelo_inurba_marseille","lat":43.25783,"lon":5.41089,"is_reserved":false,"is_disabled":false,"rental_uris":{"android":"levelo://app?vid=b6ef3f00-dd79-48ff-9fc3-86c640ce7218","ios":"levelo://app?vid=b6ef3f00-dd79-48ff-9fc3-86c640ce7218"},"vehicle_type_id":"4","last_reported":1746692034,"current_range_meters":24000,"station_id":"ce4bhkp2rcd13ifvqgd0","pricing_plan_id":"cebpf4jnsgd1na2vs0mg"},{"bike_id":"832db053-d170-40a5-bb95-87fd05d85bd1","system_id":"levelo_inurba_marseille","lat":43.25501,"lon":5.37649,"is_reserved":false,"is_disabled":false,"rental_uris":{"android":"levelo://app?vid=832db053-d170-40a5-bb95-87fd05d85bd1","ios":"levelo://app?vid=832db053-d170-40a5-bb95-87fd05d85bd1"},"vehicle_type_id":"4","last_reported":1746692034,"current_range_meters":24000,"station_id":"ce4bhh12rcd13ifvqff0","pricing_plan_id":"cebpf4jnsgd1na2vs0mg"},{"bike_id":"3e6600e5-02b9-4290-a755-0079056fa390","system_id":"levelo_inurba_marseille","lat":43.3095,"lon":5.39045,"is_reserved":false,"is_disabled":false,"rental_uris":{"android":"levelo://app?vid=3e6600e5-02b9-4290-a755-0079056fa390","ios":"levelo://app?vid=3e6600e5-02b9-4290-a755-0079056fa390"},"vehicle_type_id":"4","last_reported":1746692034,"current_range_meters":24400,"station_id":"ce4bgup2rcd13ifvqco0","pricing_plan_id":"cebpf4jnsgd1na2vs0mg"},{"bike_id":"936c8d22-0874-4acf-afca-5bf5afcf3472","system_id":"levelo_inurba_marseille","lat":43.31373,"lon":5.38248,"is_reserved":false,"is_disabled":false,"rental_uris":{"android":"levelo://app?vid=936c8d22-0874-4acf-afca-5bf5afcf3472","ios":"levelo://app?vid=936c8d22-0874-4acf-afca-5bf5afcf3472"},"vehicle_type_id":"4","last_reported":1746692034,"current_range_meters":24400,"station_id":"","pricing_plan_id":"cebpf4jnsgd1na2vs0mg"},{"bike_id":"cfcf0a27-3831-4e84-9bea-34b38798a087","system_id":"levelo_inurba_marseille","lat":43.21198,"lon":5.35068,"is_reserved":false,"is_disabled":false,"rental_uris":{"android":"levelo://app?vid=cfcf0a27-3831-4e84-9bea-34b38798a087","ios":"levelo://app?vid=cfcf0a27-3831-4e84-9bea-34b38798a087"},"vehicle_type_id":"4","last_reported":1746692034,"current_range_meters":24400,"station_id":"st_cvj6sg6p6f1abm77japg","pricing_plan_id":"cebpf4jnsgd1na2vs0mg"},{"bike_id":"e3535b57-390a-4233-9f27-b47e0c642473","system_id":"levelo_inurba_marseille","lat":43.24389,"lon":5.37062,"is_reserved":false,"is_disabled":false,"rental_uris":{"android":"levelo://app?vid=e3535b57-390a-4233-9f27-b47e0c642473","ios":"levelo://app?vid=e3535b57-390a-4233-9f27-b47e0c642473"},"vehicle_type_id":"4","last_reported":1746692034,"current_range_meters":24400,"station_id":"ce4bhhh2rcd13ifvqfk0","pricing_plan_id":"cebpf4jnsgd1na2vs0mg"},{"bike_id":"545e5687-b7df-4883-81be-75a8925d5f91","system_id":"levelo_inurba_marseille","lat":43.337444,"lon":5.374475,"is_reserved":false,"is_disabled":false,"rental_uris":{"android":"levelo://app?vid=545e5687-b7df-4883-81be-75a8925d5f91","ios":"levelo://app?vid=545e5687-b7df-4883-81be-75a8925d5f91"},"vehicle_type_id":"4","last_reported":1746692034,"current_range_meters":24400,"station_id":"","pricing_plan_id":"cebpf4jnsgd1na2vs0mg"},{"bike_id":"2068d960-39cf-4baf-bc90-016747dfbaff","system_id":"levelo_inurba_marseille","lat":43.29872,"lon":5.39728,"is_reserved":false,"is_disabled":false,"rental_uris":{"android":"levelo://app?vid=2068d960-39cf-4baf-bc90-016747dfbaff","ios":"levelo://app?vid=2068d960-39cf-4baf-bc90-016747dfbaff"},"vehicle_type_id":"4","last_reported":1746692034,"current_range_meters":24400,"station_id":"ce4bh0h2rcd13ifvqd50","pricing_plan_id":"cebpf4jnsgd1na2vs0mg"},{"bike_id":"77e6578b-b8fd-4c21-9b53-158f8b897d05","system_id":"levelo_inurba_marseille","lat":43.26779,"lon":5.39419,"is_reserved":false,"is_disabled":true,"rental_uris":{"android":"levelo://app?vid=77e6578b-b8fd-4c21-9b53-158f8b897d05","ios":"levelo://app?vid=77e6578b-b8fd-4c21-9b53-158f8b897d05"},"vehicle_type_id":"4","last_reported":1746692034,"current_range_meters":24800,"station_id":"ce4bhh12rcd13ifvqfg0","pricing_plan_id":"cebpf4jnsgd1na2vs0mg"},{"bike_id":"18b4e4ad-c796-4705-98cc-e2f24f25726d","system_id":"levelo_inurba_marseille","lat":43.30282,"lon":5.37687,"is_reserved":false,"is_disabled":false,"rental_uris":{"android":"levelo://app?vid=18b4e4ad-c796-4705-98cc-e2f24f25726d","ios":"levelo://app?vid=18b4e4ad-c796-4705-98cc-e2f24f25726d"},"vehicle_type_id":"4","last_reported":1746692034,"current_range_meters":24800,"station_id":"ce4bguh2rcd13ifvqcj0","pricing_plan_id":"cebpf4jnsgd1na2vs0mg"},{"bike_id":"ac6ec238-9b76-4116-a30f-2f6d0915a057","system_id":"levelo_inurba_marseille","lat":43.28407,"lon":5.34978,"is_reserved":false,"is_disabled":false,"rental_uris":{"android":"levelo://app?vid=ac6ec238-9b76-4116-a30f-2f6d0915a057","ios":"levelo://app?vid=ac6ec238-9b76-4116-a30f-2f6d0915a057"},"vehicle_type_id":"4","last_reported":1746692034,"current_range_meters":24800,"station_id":"ce4bhbh2rcd13ifvqepg","pricing_plan_id":"cebpf4jnsgd1na2vs0mg"},{"bike_id":"4b12119b-886f-455b-b2ae-8814b17b579d","system_id":"levelo_inurba_marseille","lat":43.2417,"lon":5.3975,"is_reserved":false,"is_disabled":false,"rental_uris":{"android":"levelo://app?vid=4b12119b-886f-455b-b2ae-8814b17b579d","ios":"levelo://app?vid=4b12119b-886f-455b-b2ae-8814b17b579d"},"vehicle_type_id":"4","last_reported":1746692034,"current_range_meters":24800,"station_id":"ce4bhn12rcd13ifvqgpg","pricing_plan_id":"cebpf4jnsgd1na2vs0mg"},{"bike_id":"cd1dd69c-1b2c-404e-b0bf-114f06f0b210","system_id":"levelo_inurba_marseille","lat":43.23376,"lon":5.36168,"is_reserved":false,"is_disabled":false,"rental_uris":{"android":"levelo://app?vid=cd1dd69c-1b2c-404e-b0bf-114f06f0b210","ios":"levelo://app?vid=cd1dd69c-1b2c-404e-b0bf-114f06f0b210"},"vehicle_type_id":"4","last_reported":1746692034,"current_range_meters":24800,"station_id":"","pricing_plan_id":"cebpf4jnsgd1na2vs0mg"},{"bike_id":"16d8c3a2-53e2-4023-8d36-3bf27074a653","system_id":"levelo_inurba_marseille","lat":43.33024,"lon":5.3904,"is_reserved":false,"is_disabled":false,"rental_uris":{"android":"levelo://app?vid=16d8c3a2-53e2-4023-8d36-3bf27074a653","ios":"levelo://app?vid=16d8c3a2-53e2-4023-8d36-3bf27074a653"},"vehicle_type_id":"4","last_reported":1746692034,"current_range_meters":24800,"station_id":"ce4bhr92rcd13ifvqhrg","pricing_plan_id":"cebpf4jnsgd1na2vs0mg"},{"bike_id":"433f6fb8-f6ef-4a4c-9ef6-e451913b5776","system_id":"levelo_inurba_marseille","lat":43.27054,"lon":5.40269,"is_reserved":false,"is_disabled":true,"rental_uris":{"android":"levelo://app?vid=433f6fb8-f6ef-4a4c-9ef6-e451913b5776","ios":"levelo://app?vid=433f6fb8-f6ef-4a4c-9ef6-e451913b5776"},"vehicle_type_id":"4","last_reported":1746692034,"current_range_meters":24800,"station_id":"ce4bhk92rcd13ifvqgc0","pricing_plan_id":"cebpf4jnsgd1na2vs0mg"},{"bike_id":"d26fb97c-799b-4029-af88-10b9b5aa5519","system_id":"levelo_inurba_marseille","lat":43.323636,"lon":5.388999,"is_reserved":false,"is_disabled":false,"rental_uris":{"android":"levelo://app?vid=d26fb97c-799b-4029-af88-10b9b5aa5519","ios":"levelo://app?vid=d26fb97c-799b-4029-af88-10b9b5aa5519"},"vehicle_type_id":"4","last_reported":1746692034,"current_range_meters":24800,"station_id":"ce4bhqp2rcd13ifvqhog","pricing_plan_id":"cebpf4jnsgd1na2vs0mg"},{"bike_id":"a8e80d6b-4292-4b49-97ea-43b85475ef47","system_id":"levelo_inurba_marseille","lat":43.2705,"lon":5.40264,"is_reserved":false,"is_disabled":false,"rental_uris":{"android":"levelo://app?vid=a8e80d6b-4292-4b49-97ea-43b85475ef47","ios":"levelo://app?vid=a8e80d6b-4292-4b49-97ea-43b85475ef47"},"vehicle_type_id":"4","last_reported":1746692034,"current_range_meters":22800,"station_id":"ce4bhk92rcd13ifvqgc0","pricing_plan_id":"cebpf4jnsgd1na2vs0mg"},{"bike_id":"081e31e4-a568-4d25-a88e-83085c5e0d76","system_id":"levelo_inurba_marseille","lat":43.26559,"lon":5.3728,"is_reserved":false,"is_disabled":false,"rental_uris":{"android":"levelo://app?vid=081e31e4-a568-4d25-a88e-83085c5e0d76","ios":"levelo://app?vid=081e31e4-a568-4d25-a88e-83085c5e0d76"},"vehicle_type_id":"4","last_reported":1746692034,"current_range_meters":24800,"station_id":"ce4bhg12rcd13ifvqf70","pricing_plan_id":"cebpf4jnsgd1na2vs0mg"},{"bike_id":"f1be0eeb-570a-41ec-ba38-e001b9c7d591","system_id":"levelo_inurba_marseille","lat":43.25142,"lon":5.40292,"is_reserved":false,"is_disabled":false,"rental_uris":{"android":"levelo://app?vid=f1be0eeb-570a-41ec-ba38-e001b9c7d591","ios":"levelo://app?vid=f1be0eeb-570a-41ec-ba38-e001b9c7d591"},"vehicle_type_id":"4","last_reported":1746692034,"current_range_meters":25200,"station_id":"ce4bhlh2rcd13ifvqgig","pricing_plan_id":"cebpf4jnsgd1na2vs0mg"},{"bike_id":"5876e02f-9cbb-4fa0-a09d-9ece3ec39c85","system_id":"levelo_inurba_marseille","lat":43.28612,"lon":5.3706,"is_reserved":false,"is_disabled":false,"rental_uris":{"android":"levelo://app?vid=5876e02f-9cbb-4fa0-a09d-9ece3ec39c85","ios":"levelo://app?vid=5876e02f-9cbb-4fa0-a09d-9ece3ec39c85"},"vehicle_type_id":"4","last_reported":1746692034,"current_range_meters":25200,"station_id":"ce4bht12rcd13ifvqi60","pricing_plan_id":"cebpf4jnsgd1na2vs0mg"},{"bike_id":"55638e15-3580-4e64-b07c-c75fa2a9dcaa","system_id":"levelo_inurba_marseille","lat":43.28705,"lon":5.39993,"is_reserved":false,"is_disabled":false,"rental_uris":{"android":"levelo://app?vid=55638e15-3580-4e64-b07c-c75fa2a9dcaa","ios":"levelo://app?vid=55638e15-3580-4e64-b07c-c75fa2a9dcaa"},"vehicle_type_id":"4","last_reported":1746692034,"current_range_meters":25200,"station_id":"ce4bho92rcd13ifvqh3g","pricing_plan_id":"cebpf4jnsgd1na2vs0mg"},{"bike_id":"943c17e1-2f10-4f8b-b508-00da99e73e39","system_id":"levelo_inurba_marseille","lat":43.23174,"lon":5.39981,"is_reserved":false,"is_disabled":false,"rental_uris":{"android":"levelo://app?vid=943c17e1-2f10-4f8b-b508-00da99e73e39","ios":"levelo://app?vid=943c17e1-2f10-4f8b-b508-00da99e73e39"},"vehicle_type_id":"4","last_reported":1746692034,"current_range_meters":25200,"station_id":"ce4bhn12rcd13ifvqgqg","pricing_plan_id":"cebpf4jnsgd1na2vs0mg"},{"bike_id":"0ff50ca3-f984-4531-9631-03fc75a1c8f6","system_id":"levelo_inurba_marseille","lat":43.28667,"lon":5.36347,"is_reserved":false,"is_disabled":false,"rental_uris":{"android":"levelo://app?vid=0ff50ca3-f984-4531-9631-03fc75a1c8f6","ios":"levelo://app?vid=0ff50ca3-f984-4531-9631-03fc75a1c8f6"},"vehicle_type_id":"4","last_reported":1746692034,"current_range_meters":25200,"station_id":"ce4bhah2rcd13ifvqej0","pricing_plan_id":"cebpf4jnsgd1na2vs0mg"},{"bike_id":"66d39f5f-1aac-423b-9ea7-bf9c1b0e5079","system_id":"levelo_inurba_marseille","lat":43.27508,"lon":5.411286,"is_reserved":false,"is_disabled":false,"rental_uris":{"android":"levelo://app?vid=66d39f5f-1aac-423b-9ea7-bf9c1b0e5079","ios":"levelo://app?vid=66d39f5f-1aac-423b-9ea7-bf9c1b0e5079"},"vehicle_type_id":"4","last_reported":1746692034,"current_range_meters":25200,"station_id":"","pricing_plan_id":"cebpf4jnsgd1na2vs0mg"},{"bike_id":"320445d7-aaf7-43ec-baaf-4e67030e8b62","system_id":"levelo_inurba_marseille","lat":43.27143,"lon":5.4042,"is_reserved":false,"is_disabled":false,"rental_uris":{"android":"levelo://app?vid=320445d7-aaf7-43ec-baaf-4e67030e8b62","ios":"levelo://app?vid=320445d7-aaf7-43ec-baaf-4e67030e8b62"},"vehicle_type_id":"4","last_reported":1746692034,"current_range_meters":25600,"station_id":"","pricing_plan_id":"cebpf4jnsgd1na2vs0mg"},{"bike_id":"94365864-5cef-4b62-ba26-353970b622a7","system_id":"levelo_inurba_marseille","lat":43.24391,"lon":5.37065,"is_reserved":false,"is_disabled":false,"rental_uris":{"android":"levelo://app?vid=94365864-5cef-4b62-ba26-353970b622a7","ios":"levelo://app?vid=94365864-5cef-4b62-ba26-353970b622a7"},"vehicle_type_id":"4","last_reported":1746692034,"current_range_meters":25600,"station_id":"ce4bhhh2rcd13ifvqfk0","pricing_plan_id":"cebpf4jnsgd1na2vs0mg"},{"bike_id":"b8028275-38d4-43d3-8766-3f46166cf91f","system_id":"levelo_inurba_marseille","lat":43.288868,"lon":5.449793,"is_reserved":false,"is_disabled":false,"rental_uris":{"android":"levelo://app?vid=b8028275-38d4-43d3-8766-3f46166cf91f","ios":"levelo://app?vid=b8028275-38d4-43d3-8766-3f46166cf91f"},"vehicle_type_id":"4","last_reported":1746692034,"current_range_meters":25600,"station_id":"ce4bhnh2rcd13ifvqgug","pricing_plan_id":"cebpf4jnsgd1na2vs0mg"},{"bike_id":"6c036e22-2880-4ca3-8ec2-3c1c93aa2e22","system_id":"levelo_inurba_marseille","lat":43.33018,"lon":5.39044,"is_reserved":false,"is_disabled":false,"rental_uris":{"android":"levelo://app?vid=6c036e22-2880-4ca3-8ec2-3c1c93aa2e22","ios":"levelo://app?vid=6c036e22-2880-4ca3-8ec2-3c1c93aa2e22"},"vehicle_type_id":"4","last_reported":1746692034,"current_range_meters":26000,"station_id":"ce4bhr92rcd13ifvqhrg","pricing_plan_id":"cebpf4jnsgd1na2vs0mg"},{"bike_id":"f8843894-fb9a-40b3-b420-edbbbec8c602","system_id":"levelo_inurba_marseille","lat":43.28156,"lon":5.42642,"is_reserved":false,"is_disabled":false,"rental_uris":{"android":"levelo://app?vid=f8843894-fb9a-40b3-b420-edbbbec8c602","ios":"levelo://app?vid=f8843894-fb9a-40b3-b420-edbbbec8c602"},"vehicle_type_id":"4","last_reported":1746692034,"current_range_meters":26000,"station_id":"ce4bhnh2rcd13ifvqgug","pricing_plan_id":"cebpf4jnsgd1na2vs0mg"},{"bike_id":"0f3e44d2-b1f2-45f2-9e0d-3464c9379b18","system_id":"levelo_inurba_marseille","lat":43.24654,"lon":5.38893,"is_reserved":false,"is_disabled":false,"rental_uris":{"android":"levelo://app?vid=0f3e44d2-b1f2-45f2-9e0d-3464c9379b18","ios":"levelo://app?vid=0f3e44d2-b1f2-45f2-9e0d-3464c9379b18"},"vehicle_type_id":"4","last_reported":1746692034,"current_range_meters":26000,"station_id":"ce4bhg12rcd13ifvqf60","pricing_plan_id":"cebpf4jnsgd1na2vs0mg"},{"bike_id":"7dd541b9-e858-4734-8b38-bf5cec4a45d8","system_id":"levelo_inurba_marseille","lat":43.301098,"lon":5.371666,"is_reserved":false,"is_disabled":false,"rental_uris":{"android":"levelo://app?vid=7dd541b9-e858-4734-8b38-bf5cec4a45d8","ios":"levelo://app?vid=7dd541b9-e858-4734-8b38-bf5cec4a45d8"},"vehicle_type_id":"4","last_reported":1746692034,"current_range_meters":26000,"station_id":"","pricing_plan_id":"cebpf4jnsgd1na2vs0mg"},{"bike_id":"510bab28-85ae-4e1f-9ba3-eac8882a3504","system_id":"levelo_inurba_marseille","lat":43.23961,"lon":5.36639,"is_reserved":false,"is_disabled":false,"rental_uris":{"android":"levelo://app?vid=510bab28-85ae-4e1f-9ba3-eac8882a3504","ios":"levelo://app?vid=510bab28-85ae-4e1f-9ba3-eac8882a3504"},"vehicle_type_id":"4","last_reported":1746692034,"current_range_meters":26800,"station_id":"ce4bhi12rcd13ifvqfp0","pricing_plan_id":"cebpf4jnsgd1na2vs0mg"},{"bike_id":"94dae470-6c8f-4c01-84f4-fd188ff271f4","system_id":"levelo_inurba_marseille","lat":43.31078,"lon":5.3835,"is_reserved":false,"is_disabled":true,"rental_uris":{"android":"levelo://app?vid=94dae470-6c8f-4c01-84f4-fd188ff271f4","ios":"levelo://app?vid=94dae470-6c8f-4c01-84f4-fd188ff271f4"},"vehicle_type_id":"4","last_reported":1746692034,"current_range_meters":26800,"station_id":"ce4bgv92rcd13ifvqcr0","pricing_plan_id":"cebpf4jnsgd1na2vs0mg"},{"bike_id":"b5a62d82-0425-41dd-a4e3-3b5f0949a169","system_id":"levelo_inurba_marseille","lat":43.33724,"lon":5.39188,"is_reserved":false,"is_disabled":false,"rental_uris":{"android":"levelo://app?vid=b5a62d82-0425-41dd-a4e3-3b5f0949a169","ios":"levelo://app?vid=b5a62d82-0425-41dd-a4e3-3b5f0949a169"},"vehicle_type_id":"4","last_reported":1746692034,"current_range_meters":26800,"station_id":"ce4bhr92rcd13ifvqhsg","pricing_plan_id":"cebpf4jnsgd1na2vs0mg"},{"bike_id":"04c3409d-fe73-45a7-b734-d76d38ff86a6","system_id":"levelo_inurba_marseille","lat":43.23195,"lon":5.35552,"is_reserved":false,"is_disabled":false,"rental_uris":{"android":"levelo://app?vid=04c3409d-fe73-45a7-b734-d76d38ff86a6","ios":"levelo://app?vid=04c3409d-fe73-45a7-b734-d76d38ff86a6"},"vehicle_type_id":"4","last_reported":1746692034,"current_range_meters":26800,"station_id":"ce4bhu92rcd13ifvqi70","pricing_plan_id":"cebpf4jnsgd1na2vs0mg"},{"bike_id":"14185999-c6fc-4ec7-97d0-783f3d711b51","system_id":"levelo_inurba_marseille","lat":43.26554,"lon":5.37286,"is_reserved":false,"is_disabled":false,"rental_uris":{"android":"levelo://app?vid=14185999-c6fc-4ec7-97d0-783f3d711b51","ios":"levelo://app?vid=14185999-c6fc-4ec7-97d0-783f3d711b51"},"vehicle_type_id":"4","last_reported":1746692034,"current_range_meters":26800,"station_id":"ce4bhg12rcd13ifvqf70","pricing_plan_id":"cebpf4jnsgd1na2vs0mg"},{"bike_id":"6a36f590-7aac-4e30-a0c4-87438630e557","system_id":"levelo_inurba_marseille","lat":43.2827,"lon":5.35059,"is_reserved":false,"is_disabled":false,"rental_uris":{"android":"levelo://app?vid=6a36f590-7aac-4e30-a0c4-87438630e557","ios":"levelo://app?vid=6a36f590-7aac-4e30-a0c4-87438630e557"},"vehicle_type_id":"4","last_reported":1746692034,"current_range_meters":26800,"station_id":"ce4bhbp2rcd13ifvqerg","pricing_plan_id":"cebpf4jnsgd1na2vs0mg"},{"bike_id":"b9f91d85-fd30-49a2-bf3f-ba35a128ce7f","system_id":"levelo_inurba_marseille","lat":43.30948,"lon":5.39029,"is_reserved":false,"is_disabled":false,"rental_uris":{"android":"levelo://app?vid=b9f91d85-fd30-49a2-bf3f-ba35a128ce7f","ios":"levelo://app?vid=b9f91d85-fd30-49a2-bf3f-ba35a128ce7f"},"vehicle_type_id":"4","last_reported":1746692034,"current_range_meters":26800,"station_id":"ce4bgup2rcd13ifvqco0","pricing_plan_id":"cebpf4jnsgd1na2vs0mg"},{"bike_id":"0ba8250e-7150-4c3c-b4a9-796c5cf1ca93","system_id":"levelo_inurba_marseille","lat":43.324787,"lon":5.365749,"is_reserved":false,"is_disabled":false,"rental_uris":{"android":"levelo://app?vid=0ba8250e-7150-4c3c-b4a9-796c5cf1ca93","ios":"levelo://app?vid=0ba8250e-7150-4c3c-b4a9-796c5cf1ca93"},"vehicle_type_id":"4","last_reported":1746692034,"current_range_meters":26800,"station_id":"ce4bhs12rcd13ifvqhvg","pricing_plan_id":"cebpf4jnsgd1na2vs0mg"},{"bike_id":"105f757f-8605-4be4-ad9c-b1c5853fb02a","system_id":"levelo_inurba_marseille","lat":43.29889,"lon":5.39734,"is_reserved":false,"is_disabled":false,"rental_uris":{"android":"levelo://app?vid=105f757f-8605-4be4-ad9c-b1c5853fb02a","ios":"levelo://app?vid=105f757f-8605-4be4-ad9c-b1c5853fb02a"},"vehicle_type_id":"4","last_reported":1746692034,"current_range_meters":26800,"station_id":"ce4bh0h2rcd13ifvqd50","pricing_plan_id":"cebpf4jnsgd1na2vs0mg"},{"bike_id":"0e112a5d-542c-4f8a-b694-ba5196486546","system_id":"levelo_inurba_marseille","lat":43.26785,"lon":5.39416,"is_reserved":false,"is_disabled":false,"rental_uris":{"android":"levelo://app?vid=0e112a5d-542c-4f8a-b694-ba5196486546","ios":"levelo://app?vid=0e112a5d-542c-4f8a-b694-ba5196486546"},"vehicle_type_id":"4","last_reported":1746692034,"current_range_meters":27200,"station_id":"ce4bhh12rcd13ifvqfg0","pricing_plan_id":"cebpf4jnsgd1na2vs0mg"},{"bike_id":"14ea16af-048b-4212-af0a-9bece96a17b2","system_id":"levelo_inurba_marseille","lat":43.248169,"lon":5.374735,"is_reserved":false,"is_disabled":false,"rental_uris":{"android":"levelo://app?vid=14ea16af-048b-4212-af0a-9bece96a17b2","ios":"levelo://app?vid=14ea16af-048b-4212-af0a-9bece96a17b2"},"vehicle_type_id":"4","last_reported":1746692034,"current_range_meters":27200,"station_id":"ce4bhgh2rcd13ifvqfb0","pricing_plan_id":"cebpf4jnsgd1na2vs0mg"},{"bike_id":"06403aa6-8752-42fd-aaa2-753ade54c5cd","system_id":"levelo_inurba_marseille","lat":43.24072,"lon":5.37759,"is_reserved":false,"is_disabled":false,"rental_uris":{"android":"levelo://app?vid=06403aa6-8752-42fd-aaa2-753ade54c5cd","ios":"levelo://app?vid=06403aa6-8752-42fd-aaa2-753ade54c5cd"},"vehicle_type_id":"4","last_reported":1746692034,"current_range_meters":27200,"station_id":"ce4bhnp2rcd13ifvqgvg","pricing_plan_id":"cebpf4jnsgd1na2vs0mg"},{"bike_id":"71fb54c3-baa9-4170-ad10-8b2f6639f6b7","system_id":"levelo_inurba_marseille","lat":43.30148,"lon":5.3808,"is_reserved":false,"is_disabled":false,"rental_uris":{"android":"levelo://app?vid=71fb54c3-baa9-4170-ad10-8b2f6639f6b7","ios":"levelo://app?vid=71fb54c3-baa9-4170-ad10-8b2f6639f6b7"},"vehicle_type_id":"4","last_reported":1746692034,"current_range_meters":27200,"station_id":"ce4bgjp2rcd13ifvqbh0","pricing_plan_id":"cebpf4jnsgd1na2vs0mg"},{"bike_id":"82cd70b0-ea58-4fa2-a82c-e17698aa4c51","system_id":"levelo_inurba_marseille","lat":43.267612,"lon":5.394689,"is_reserved":false,"is_disabled":false,"rental_uris":{"android":"levelo://app?vid=82cd70b0-ea58-4fa2-a82c-e17698aa4c51","ios":"levelo://app?vid=82cd70b0-ea58-4fa2-a82c-e17698aa4c51"},"vehicle_type_id":"4","last_reported":1746692034,"current_range_meters":27200,"station_id":"ce4bhh12rcd13ifvqfg0","pricing_plan_id":"cebpf4jnsgd1na2vs0mg"},{"bike_id":"5aec86d2-85bd-4331-84a9-f9b1cb49ff81","system_id":"levelo_inurba_marseille","lat":43.314,"lon":5.38517,"is_reserved":false,"is_disabled":false,"rental_uris":{"android":"levelo://app?vid=5aec86d2-85bd-4331-84a9-f9b1cb49ff81","ios":"levelo://app?vid=5aec86d2-85bd-4331-84a9-f9b1cb49ff81"},"vehicle_type_id":"4","last_reported":1746692034,"current_range_meters":27200,"station_id":"ce4bgt92rcd13ifvqcf0","pricing_plan_id":"cebpf4jnsgd1na2vs0mg"},{"bike_id":"fadc1979-f78a-45b2-a874-e13cb6eac5a8","system_id":"levelo_inurba_marseille","lat":43.26064,"lon":5.39398,"is_reserved":false,"is_disabled":false,"rental_uris":{"android":"levelo://app?vid=fadc1979-f78a-45b2-a874-e13cb6eac5a8","ios":"levelo://app?vid=fadc1979-f78a-45b2-a874-e13cb6eac5a8"},"vehicle_type_id":"4","last_reported":1746692034,"current_range_meters":26800,"station_id":"ce4bhh92rcd13ifvqfj0","pricing_plan_id":"cebpf4jnsgd1na2vs0mg"},{"bike_id":"44f0b8e1-e648-4856-92c6-3eca80ec6d69","system_id":"levelo_inurba_marseille","lat":43.27208,"lon":5.39194,"is_reserved":false,"is_disabled":true,"rental_uris":{"android":"levelo://app?vid=44f0b8e1-e648-4856-92c6-3eca80ec6d69","ios":"levelo://app?vid=44f0b8e1-e648-4856-92c6-3eca80ec6d69"},"vehicle_type_id":"4","last_reported":1746692034,"current_range_meters":27600,"station_id":"ce4bhhp2rcd13ifvqfm0","pricing_plan_id":"cebpf4jnsgd1na2vs0mg"},{"bike_id":"f51b3e9b-b529-4746-b31d-ded684da9b01","system_id":"levelo_inurba_marseille","lat":43.28422,"lon":5.34978,"is_reserved":false,"is_disabled":false,"rental_uris":{"android":"levelo://app?vid=f51b3e9b-b529-4746-b31d-ded684da9b01","ios":"levelo://app?vid=f51b3e9b-b529-4746-b31d-ded684da9b01"},"vehicle_type_id":"4","last_reported":1746692034,"current_range_meters":27600,"station_id":"ce4bhbh2rcd13ifvqepg","pricing_plan_id":"cebpf4jnsgd1na2vs0mg"},{"bike_id":"e3c79266-72f3-4931-8d06-91ae40a46803","system_id":"levelo_inurba_marseille","lat":43.29377,"lon":5.37853,"is_reserved":false,"is_disabled":true,"rental_uris":{"android":"levelo://app?vid=e3c79266-72f3-4931-8d06-91ae40a46803","ios":"levelo://app?vid=e3c79266-72f3-4931-8d06-91ae40a46803"},"vehicle_type_id":"4","last_reported":1746692034,"current_range_meters":27600,"station_id":"ce4bgjh2rcd13ifvqbf0","pricing_plan_id":"cebpf4jnsgd1na2vs0mg"},{"bike_id":"cb4e53a1-9ad7-4539-9b80-1fdcc47349e3","system_id":"levelo_inurba_marseille","lat":43.28263,"lon":5.35063,"is_reserved":false,"is_disabled":false,"rental_uris":{"android":"levelo://app?vid=cb4e53a1-9ad7-4539-9b80-1fdcc47349e3","ios":"levelo://app?vid=cb4e53a1-9ad7-4539-9b80-1fdcc47349e3"},"vehicle_type_id":"4","last_reported":1746692034,"current_range_meters":27600,"station_id":"ce4bhbp2rcd13ifvqerg","pricing_plan_id":"cebpf4jnsgd1na2vs0mg"},{"bike_id":"3af2e8e5-f6e3-46f3-96cf-76121205670e","system_id":"levelo_inurba_marseille","lat":43.25583,"lon":5.38228,"is_reserved":false,"is_disabled":false,"rental_uris":{"android":"levelo://app?vid=3af2e8e5-f6e3-46f3-96cf-76121205670e","ios":"levelo://app?vid=3af2e8e5-f6e3-46f3-96cf-76121205670e"},"vehicle_type_id":"4","last_reported":1746692034,"current_range_meters":27600,"station_id":"ce4bhih2rcd13ifvqfs0","pricing_plan_id":"cebpf4jnsgd1na2vs0mg"},{"bike_id":"ef2affaf-e901-428f-8c05-dd60cc1eafde","system_id":"levelo_inurba_marseille","lat":43.28127,"lon":5.39859,"is_reserved":false,"is_disabled":false,"rental_uris":{"android":"levelo://app?vid=ef2affaf-e901-428f-8c05-dd60cc1eafde","ios":"levelo://app?vid=ef2affaf-e901-428f-8c05-dd60cc1eafde"},"vehicle_type_id":"4","last_reported":1746692034,"current_range_meters":27600,"station_id":"","pricing_plan_id":"cebpf4jnsgd1na2vs0mg"},{"bike_id":"f0deccb7-a270-4fd4-a51e-39844e0ae45a","system_id":"levelo_inurba_marseille","lat":43.34769,"lon":5.34961,"is_reserved":false,"is_disabled":false,"rental_uris":{"android":"levelo://app?vid=f0deccb7-a270-4fd4-a51e-39844e0ae45a","ios":"levelo://app?vid=f0deccb7-a270-4fd4-a51e-39844e0ae45a"},"vehicle_type_id":"4","last_reported":1746692034,"current_range_meters":27600,"station_id":"","pricing_plan_id":"cebpf4jnsgd1na2vs0mg"},{"bike_id":"c2e7fab7-958f-4344-b417-737c6e426d50","system_id":"levelo_inurba_marseille","lat":43.2672,"lon":5.38261,"is_reserved":false,"is_disabled":true,"rental_uris":{"android":"levelo://app?vid=c2e7fab7-958f-4344-b417-737c6e426d50","ios":"levelo://app?vid=c2e7fab7-958f-4344-b417-737c6e426d50"},"vehicle_type_id":"4","last_reported":1746692034,"current_range_meters":27600,"station_id":"ce4bhg92rcd13ifvqf90","pricing_plan_id":"cebpf4jnsgd1na2vs0mg"},{"bike_id":"818ab763-3284-47a4-b130-745cd1ff68bb","system_id":"levelo_inurba_marseille","lat":43.29181,"lon":5.40012,"is_reserved":false,"is_disabled":false,"rental_uris":{"android":"levelo://app?vid=818ab763-3284-47a4-b130-745cd1ff68bb","ios":"levelo://app?vid=818ab763-3284-47a4-b130-745cd1ff68bb"},"vehicle_type_id":"4","last_reported":1746692034,"current_range_meters":27600,"station_id":"","pricing_plan_id":"cebpf4jnsgd1na2vs0mg"},{"bike_id":"3c89cc1d-1749-4495-9184-686611282d9c","system_id":"levelo_inurba_marseille","lat":43.27046,"lon":5.40277,"is_reserved":false,"is_disabled":false,"rental_uris":{"android":"levelo://app?vid=3c89cc1d-1749-4495-9184-686611282d9c","ios":"levelo://app?vid=3c89cc1d-1749-4495-9184-686611282d9c"},"vehicle_type_id":"4","last_reported":1746692034,"current_range_meters":27600,"station_id":"ce4bhk92rcd13ifvqgc0","pricing_plan_id":"cebpf4jnsgd1na2vs0mg"},{"bike_id":"870c0b9e-8a6d-4017-a2a0-58deabcfc9c4","system_id":"levelo_inurba_marseille","lat":43.31082,"lon":5.42427,"is_reserved":false,"is_disabled":false,"rental_uris":{"android":"levelo://app?vid=870c0b9e-8a6d-4017-a2a0-58deabcfc9c4","ios":"levelo://app?vid=870c0b9e-8a6d-4017-a2a0-58deabcfc9c4"},"vehicle_type_id":"4","last_reported":1746692034,"current_range_meters":28000,"station_id":"ce4bhp92rcd13ifvqhag","pricing_plan_id":"cebpf4jnsgd1na2vs0mg"},{"bike_id":"f2f1f988-15b9-4a12-924e-2c7060db708a","system_id":"levelo_inurba_marseille","lat":43.2706,"lon":5.40257,"is_reserved":false,"is_disabled":false,"rental_uris":{"android":"levelo://app?vid=f2f1f988-15b9-4a12-924e-2c7060db708a","ios":"levelo://app?vid=f2f1f988-15b9-4a12-924e-2c7060db708a"},"vehicle_type_id":"4","last_reported":1746692034,"current_range_meters":28000,"station_id":"ce4bhk92rcd13ifvqgc0","pricing_plan_id":"cebpf4jnsgd1na2vs0mg"},{"bike_id":"ef395655-ec72-402c-aa4e-141a6640fd31","system_id":"levelo_inurba_marseille","lat":43.29523,"lon":5.39051,"is_reserved":false,"is_disabled":false,"rental_uris":{"android":"levelo://app?vid=ef395655-ec72-402c-aa4e-141a6640fd31","ios":"levelo://app?vid=ef395655-ec72-402c-aa4e-141a6640fd31"},"vehicle_type_id":"4","last_reported":1746692034,"current_range_meters":28000,"station_id":"ce4bh3p2rcd13ifvqdp0","pricing_plan_id":"cebpf4jnsgd1na2vs0mg"},{"bike_id":"78bd7230-a3ee-4391-ab28-184a9eed3a61","system_id":"levelo_inurba_marseille","lat":43.2681,"lon":5.4025,"is_reserved":false,"is_disabled":false,"rental_uris":{"android":"levelo://app?vid=78bd7230-a3ee-4391-ab28-184a9eed3a61","ios":"levelo://app?vid=78bd7230-a3ee-4391-ab28-184a9eed3a61"},"vehicle_type_id":"4","last_reported":1746692034,"current_range_meters":28000,"station_id":"ce501612rcd8frsf0b60","pricing_plan_id":"cebpf4jnsgd1na2vs0mg"},{"bike_id":"f4b68670-6bbf-4bf8-b707-ebfb07b2e443","system_id":"levelo_inurba_marseille","lat":43.31122,"lon":5.37766,"is_reserved":false,"is_disabled":false,"rental_uris":{"android":"levelo://app?vid=f4b68670-6bbf-4bf8-b707-ebfb07b2e443","ios":"levelo://app?vid=f4b68670-6bbf-4bf8-b707-ebfb07b2e443"},"vehicle_type_id":"4","last_reported":1746692034,"current_range_meters":28000,"station_id":"ce4bgt92rcd13ifvqcg0","pricing_plan_id":"cebpf4jnsgd1na2vs0mg"},{"bike_id":"9a83ccd5-12d8-4fd4-a74f-3f6f5828910c","system_id":"levelo_inurba_marseille","lat":43.2971,"lon":5.36615,"is_reserved":false,"is_disabled":false,"rental_uris":{"android":"levelo://app?vid=9a83ccd5-12d8-4fd4-a74f-3f6f5828910c","ios":"levelo://app?vid=9a83ccd5-12d8-4fd4-a74f-3f6f5828910c"},"vehicle_type_id":"4","last_reported":1746692034,"current_range_meters":28000,"station_id":"ce4bgn12rcd13ifvqbt0","pricing_plan_id":"cebpf4jnsgd1na2vs0mg"},{"bike_id":"2f7204e4-aba0-4ac4-806d-39a4adcd808b","system_id":"levelo_inurba_marseille","lat":43.281549,"lon":5.426783,"is_reserved":false,"is_disabled":false,"rental_uris":{"android":"levelo://app?vid=2f7204e4-aba0-4ac4-806d-39a4adcd808b","ios":"levelo://app?vid=2f7204e4-aba0-4ac4-806d-39a4adcd808b"},"vehicle_type_id":"4","last_reported":1746692034,"current_range_meters":28000,"station_id":"ce4bhnh2rcd13ifvqgug","pricing_plan_id":"cebpf4jnsgd1na2vs0mg"},{"bike_id":"993ccbff-7aa9-4262-996b-53a2f0438afe","system_id":"levelo_inurba_marseille","lat":43.2741,"lon":5.39403,"is_reserved":false,"is_disabled":true,"rental_uris":{"android":"levelo://app?vid=993ccbff-7aa9-4262-996b-53a2f0438afe","ios":"levelo://app?vid=993ccbff-7aa9-4262-996b-53a2f0438afe"},"vehicle_type_id":"4","last_reported":1746692034,"current_range_meters":28000,"station_id":"ce4bhdp2rcd13ifvqf20","pricing_plan_id":"cebpf4jnsgd1na2vs0mg"},{"bike_id":"3b14e2e9-7f28-4936-98dc-a5361a810e23","system_id":"levelo_inurba_marseille","lat":43.31372,"lon":5.38492,"is_reserved":false,"is_disabled":false,"rental_uris":{"android":"levelo://app?vid=3b14e2e9-7f28-4936-98dc-a5361a810e23","ios":"levelo://app?vid=3b14e2e9-7f28-4936-98dc-a5361a810e23"},"vehicle_type_id":"4","last_reported":1746692034,"current_range_meters":28400,"station_id":"ce4bgt92rcd13ifvqcf0","pricing_plan_id":"cebpf4jnsgd1na2vs0mg"},{"bike_id":"7b643cdc-69a5-45df-8baf-de88d3683dce","system_id":"levelo_inurba_marseille","lat":43.290159,"lon":5.381299,"is_reserved":false,"is_disabled":false,"rental_uris":{"android":"levelo://app?vid=7b643cdc-69a5-45df-8baf-de88d3683dce","ios":"levelo://app?vid=7b643cdc-69a5-45df-8baf-de88d3683dce"},"vehicle_type_id":"4","last_reported":1746692034,"current_range_meters":28400,"station_id":"","pricing_plan_id":"cebpf4jnsgd1na2vs0mg"},{"bike_id":"cf2272c3-9112-43bb-9e57-24a35ad56deb","system_id":"levelo_inurba_marseille","lat":43.26014,"lon":5.41736,"is_reserved":false,"is_disabled":false,"rental_uris":{"android":"levelo://app?vid=cf2272c3-9112-43bb-9e57-24a35ad56deb","ios":"levelo://app?vid=cf2272c3-9112-43bb-9e57-24a35ad56deb"},"vehicle_type_id":"4","last_reported":1746692034,"current_range_meters":28400,"station_id":"","pricing_plan_id":"cebpf4jnsgd1na2vs0mg"},{"bike_id":"47b5016d-19a3-46d4-9c99-0ed4124227bd","system_id":"levelo_inurba_marseille","lat":43.29906,"lon":5.3813,"is_reserved":false,"is_disabled":false,"rental_uris":{"android":"levelo://app?vid=47b5016d-19a3-46d4-9c99-0ed4124227bd","ios":"levelo://app?vid=47b5016d-19a3-46d4-9c99-0ed4124227bd"},"vehicle_type_id":"4","last_reported":1746692034,"current_range_meters":28400,"station_id":"ce4bgj12rcd13ifvqbc0","pricing_plan_id":"cebpf4jnsgd1na2vs0mg"},{"bike_id":"248f4074-e734-440e-a41d-f54e3f56f16c","system_id":"levelo_inurba_marseille","lat":43.30157,"lon":5.38097,"is_reserved":false,"is_disabled":false,"rental_uris":{"android":"levelo://app?vid=248f4074-e734-440e-a41d-f54e3f56f16c","ios":"levelo://app?vid=248f4074-e734-440e-a41d-f54e3f56f16c"},"vehicle_type_id":"4","last_reported":1746692034,"current_range_meters":28400,"station_id":"ce4bgjp2rcd13ifvqbh0","pricing_plan_id":"cebpf4jnsgd1na2vs0mg"},{"bike_id":"f3f68057-1ed8-41e3-bdcf-1dafb8cd6088","system_id":"levelo_inurba_marseille","lat":43.25104,"lon":5.40328,"is_reserved":false,"is_disabled":false,"rental_uris":{"android":"levelo://app?vid=f3f68057-1ed8-41e3-bdcf-1dafb8cd6088","ios":"levelo://app?vid=f3f68057-1ed8-41e3-bdcf-1dafb8cd6088"},"vehicle_type_id":"4","last_reported":1746692034,"current_range_meters":28400,"station_id":"ce4bhlh2rcd13ifvqgig","pricing_plan_id":"cebpf4jnsgd1na2vs0mg"},