{"last_updated":1731424146,"ttl":60,"version":"2.2","data":{"bikes":[{"bike_id":"f0235392-c652-4570-ba32-10ed045f886b","system_id":"levelo_inurba_marseille","lat":43.24089,"lon":5.3775,"is_reserved":false,"is_disabled":false,"rental_uris":{"android":"levelo://app?vid=f0235392-c652-4570-ba32-10ed045f886b","ios":"levelo://app?vid=f0235392-c652-4570-ba32-10ed045f886b"},"vehicle_type_id":"4","last_reported":1731424147,"current_range_meters":28400,"station_id":"ce4bhnp2rcd13ifvqgvg","pricing_plan_id":"cebpf4jnsgd1na2vs0mg"},{"bike_id":"4ecf88c0-77a6-4268-b158-1994aec5c096","system_id":"levelo_inurba_marseille","lat":43.31072,"lon":5.40092,"is_reserved":false,"is_disabled":false,"rental_uris":{"android":"levelo://app?vid=4ecf88c0-77a6-4268-b158-1994aec5c096","ios":"levelo://app?vid=4ecf88c0-77a6-4268-b158-1994aec5c096"},"vehicle_type_id":"4","last_reported":1731424147,"current_range_meters":4400,"station_id":"","pricing_plan_id":"cebpf4jnsgd1na2vs0mg"},{"bike_id":"c6b0eb54-7952-4f59-a921-a87fca48473a","system_id":"levelo_inurba_marseille","lat":43.31346,"lon":5.36725,"is_reserved":false,"is_disabled":false,"rental_uris":{"android":"levelo://app?vid=c6b0eb54-7952-4f59-a921-a87fca48473a","ios":"levelo://app?vid=c6b0eb54-7952-4f59-a921-a87fca48473a"},"vehicle_type_id":"4","last_reported":1731424147,"current_range_meters":9200,"station_id":"ce4bgr92rcd13ifvqc6g","pricing_plan_id":"cebpf4jnsgd1na2vs0mg"},{"bike_id":"70f1501c-e453-4e4f-ba18-21e82a1bd07c","system_id":"levelo_inurba_marseille","lat":43.25577,"lon":5.38234,"is_reserved":false,"is_disabled":false,"rental_uris":{"android":"levelo://app?vid=70f1501c-e453-4e4f-ba18-21e82a1bd07c","ios":"levelo://app?vid=70f1501c-e453-4e4f-ba18-21e82a1bd07c"},"vehicle_type_id":"4","last_reported":1731424147,"current_range_meters":22400,"station_id":"ce4bhih2rcd13ifvqfs0","pricing_plan_id":"cebpf4jnsgd1na2vs0mg"},{"bike_id":"38f833c7-b6a1-42cb-8eed-75dd7802befc","system_id":"levelo_inurba_marseille","lat":43.30145,"lon":5.39874,"is_reserved":false,"is_disabled":false,"rental_uris":{"android":"levelo://app?vid=38f833c7-b6a1-42cb-8eed-75dd7802befc","ios":"levelo://app?vid=38f833c7-b6a1-42cb-8eed-75dd7802befc"},"vehicle_type_id":"4","last_reported":1731424147,"current_range_meters":10800,"station_id":"ce4bh0h2rcd13ifvqd40","pricing_plan_id":"cebpf4jnsgd1na2vs0mg"},{"bike_id":"1ccfb8bd-1ae7-4c84-99a2-a988a6a36a58","system_id":"levelo_inurba_marseille","lat":43.26949,"lon":5.3864,"is_reserved":false,"is_disabled":false,"rental_uris":{"android":"levelo://app?vid=1ccfb8bd-1ae7-4c84-99a2-a988a6a36a58","ios":"levelo://app?vid=1ccfb8bd-1ae7-4c84-99a2-a988a6a36a58"},"vehicle_type_id":"4","last_reported":1731424147,"current_range_meters":28800,"station_id":"ce4bhh92rcd13ifvqfh0","pricing_plan_id":"cebpf4jnsgd1na2vs0mg"},{"bike_id":"d336610c-8590-441d-9510-6c1bf5000cdd","system_id":"levelo_inurba_marseille","lat":43.26941,"lon":5.40239,"is_reserved":false,"is_disabled":false,"rental_uris":{"android":"levelo://app?vid=d336610c-8590-441d-9510-6c1bf5000cdd","ios":"levelo://app?vid=d336610c-8590-441d-9510-6c1bf5000cdd"},"vehicle_type_id":"4","last_reported":1731424147,"current_range_meters":38000,"station_id":"cjm6bp8fraef2m0cb0m0","pricing_plan_id":"cebpf4jnsgd1na2vs0mg"},{"bike_id":"50940950-55d8-4c54-9d31-bf368a680f17","system_id":"levelo_inurba_marseille","lat":43.337444,"lon":5.374475,"is_reserved":false,"is_disabled":false,"rental_uris":{"android":"levelo://app?vid=50940950-55d8-4c54-9d31-bf368a680f17","ios":"levelo://app?vid=50940950-55d8-4c54-9d31-bf368a680f17"},"vehicle_type_id":"4","last_reported":1731424147,"current_range_meters":38000,"station_id":"","pricing_plan_id":"cebpf4jnsgd1na2vs0mg"},{"bike_id":"3f25d806-ed04-4777-a51c-9468e09ffec0","system_id":"levelo_inurba_marseille","lat":43.24066,"lon":5.37758,"is_reserved":false,"is_disabled":false,"rental_uris":{"android":"levelo://app?vid=3f25d806-ed04-4777-a51c-9468e09ffec0","ios":"levelo://app?vid=3f25d806-ed04-4777-a51c-9468e09ffec0"},"vehicle_type_id":"4","last_reported":1731424147,"current_range_meters":20000,"station_id":"ce4bhnp2rcd13ifvqgvg","pricing_plan_id":"cebpf4jnsgd1na2vs0mg"},{"bike_id":"8233dc10-cddd-4c3a-87d5-4f77e0b1bf86","system_id":"levelo_inurba_marseille","lat":43.29206,"lon":5.39316,"is_reserved":false,"is_disabled":false,"rental_uris":{"android":"levelo://app?vid=8233dc10-cddd-4c3a-87d5-4f77e0b1bf86","ios":"levelo://app?vid=8233dc10-cddd-4c3a-87d5-4f77e0b1bf86"},"vehicle_type_id":"4","last_reported":1731424147,"current_range_meters":22800,"station_id":"ce4bh192rcd13ifvqdd0","pricing_plan_id":"cebpf4jnsgd1na2vs0mg"},{"bike_id":"fca408c1-cf45-4f85-8117-75b4cdf1e5bc","system_id":"levelo_inurba_marseille","lat":43.295962,"lon":5.38105,"is_reserved":false,"is_disabled":false,"rental_uris":{"android":"levelo://app?vid=fca408c1-cf45-4f85-8117-75b4cdf1e5bc","ios":"levelo://app?vid=fca408c1-cf45-4f85-8117-75b4cdf1e5bc"},"vehicle_type_id":"4","last_reported":1731424147,"current_range_meters":39200,"station_id":"ce4bgl12rcd13ifvqbo0","pricing_plan_id":"cebpf4jnsgd1na2vs0mg"},{"bike_id":"c11ad709-cea1-4ef9-889d-d80230a8fdfc","system_id":"levelo_inurba_marseille","lat":43.29007,"lon":5.35615,"is_reserved":false,"is_disabled":false,"rental_uris":{"android":"levelo://app?vid=c11ad709-cea1-4ef9-889d-d80230a8fdfc","ios":"levelo://app?vid=c11ad709-cea1-4ef9-889d-d80230a8fdfc"},"vehicle_type_id":"4","last_reported":1731424147,"current_range_meters":36400,"station_id":"ce4bhb92rcd13ifvqen0","pricing_plan_id":"cebpf4jnsgd1na2vs0mg"},{"bike_id":"d3bc65f8-96a4-47eb-a231-9d88eec69246","system_id":"levelo_inurba_marseille","lat":43.292725,"lon":5.368523,"is_reserved":false,"is_disabled":false,"rental_uris":{"android":"levelo://app?vid=d3bc65f8-96a4-47eb-a231-9d88eec69246","ios":"levelo://app?vid=d3bc65f8-96a4-47eb-a231-9d88eec69246"},"vehicle_type_id":"4","last_reported":1731424147,"current_range_meters":38800,"station_id":"ce4bhbp2rcd13ifvqesg","pricing_plan_id":"cebpf4jnsgd1na2vs0mg"},{"bike_id":"ad523e06-6332-4817-8d14-70db33cd44e6","system_id":"levelo_inurba_marseille","lat":43.28668,"lon":5.38674,"is_reserved":false,"is_disabled":false,"rental_uris":{"android":"levelo://app?vid=ad523e06-6332-4817-8d14-70db33cd44e6","ios":"levelo://app?vid=ad523e06-6332-4817-8d14-70db33cd44e6"},"vehicle_type_id":"4","last_reported":1731424147,"current_range_meters":31200,"station_id":"ce4bh492rcd13ifvqdug","pricing_plan_id":"cebpf4jnsgd1na2vs0mg"},{"bike_id":"4439e7e2-640f-479c-a970-5e17bbf11d2f","system_id":"levelo_inurba_marseille","lat":43.30909,"lon":5.36855,"is_reserved":false,"is_disabled":false,"rental_uris":{"android":"levelo://app?vid=4439e7e2-640f-479c-a970-5e17bbf11d2f","ios":"levelo://app?vid=4439e7e2-640f-479c-a970-5e17bbf11d2f"},"vehicle_type_id":"4","last_reported":1731424147,"current_range_meters":38800,"station_id":"ce4bgn92rcd13ifvqbvg","pricing_plan_id":"cebpf4jnsgd1na2vs0mg"},{"bike_id":"c2172132-6879-47e9-a811-7d8e34b0dd78","system_id":"levelo_inurba_marseille","lat":43.3137,"lon":5.36697,"is_reserved":false,"is_disabled":false,"rental_uris":{"android":"levelo://app?vid=c2172132-6879-47e9-a811-7d8e34b0dd78","ios":"levelo://app?vid=c2172132-6879-47e9-a811-7d8e34b0dd78"},"vehicle_type_id":"4","last_reported":1731424147,"current_range_meters":28800,"station_id":"ce4bgr92rcd13ifvqc6g","pricing_plan_id":"cebpf4jnsgd1na2vs0mg"},{"bike_id":"6b228d07-4301-4a5b-9474-4b744d853bd2","system_id":"levelo_inurba_marseille","lat":43.32476,"lon":5.36576,"is_reserved":false,"is_disabled":false,"rental_uris":{"android":"levelo://app?vid=6b228d07-4301-4a5b-9474-4b744d853bd2","ios":"levelo://app?vid=6b228d07-4301-4a5b-9474-4b744d853bd2"},"vehicle_type_id":"4","last_reported":1731424147,"current_range_meters":25200,"station_id":"ce4bhs12rcd13ifvqhvg","pricing_plan_id":"cebpf4jnsgd1na2vs0mg"},{"bike_id":"1c8df3ec-6c3d-4427-bd29-c67c7fe57b88","system_id":"levelo_inurba_marseille","lat":43.31222,"lon":5.36868,"is_reserved":false,"is_disabled":false,"rental_uris":{"android":"levelo://app?vid=1c8df3ec-6c3d-4427-bd29-c67c7fe57b88","ios":"levelo://app?vid=1c8df3ec-6c3d-4427-bd29-c67c7fe57b88"},"vehicle_type_id":"4","last_reported":1731424147,"current_range_meters":36800,"station_id":"ce4bgl92rcd13ifvqbq0","pricing_plan_id":"cebpf4jnsgd1na2vs0mg"},{"bike_id":"948d5a63-762a-46b2-a20d-d3a7e21e8d19","system_id":"levelo_inurba_marseille","lat":43.24063,"lon":5.37764,"is_reserved":false,"is_disabled":false,"rental_uris":{"android":"levelo://app?vid=948d5a63-762a-46b2-a20d-d3a7e21e8d19","ios":"levelo://app?vid=948d5a63-762a-46b2-a20d-d3a7e21e8d19"},"vehicle_type_id":"4","last_reported":1731424147,"current_range_meters":25600,"station_id":"ce4bhnp2rcd13ifvqgvg","pricing_plan_id":"cebpf4jnsgd1na2vs0mg"},{"bike_id":"a49806e9-75d8-4e26-91b6-798813a7c50a","system_id":"levelo_inurba_marseille","lat":43.27811,"lon":5.40714,"is_reserved":false,"is_disabled":false,"rental_uris":{"android":"levelo://app?vid=a49806e9-75d8-4e26-91b6-798813a7c50a","ios":"levelo://app?vid=a49806e9-75d8-4e26-91b6-798813a7c50a"},"vehicle_type_id":"4","last_reported":1731424147,"current_range_meters":30400,"station_id":"ce4bhnh2rcd13ifvqgtg","pricing_plan_id":"cebpf4jnsgd1na2vs0mg"},{"bike_id":"eb947d51-83f0-4900-b0e1-4e187c83fd10","system_id":"levelo_inurba_marseille","lat":43.29914,"lon":5.37476,"is_reserved":false,"is_disabled":false,"rental_uris":{"android":"levelo://app?vid=eb947d51-83f0-4900-b0e1-4e187c83fd10","ios":"levelo://app?vid=eb947d51-83f0-4900-b0e1-4e187c83fd10"},"vehicle_type_id":"4","last_reported":1731424147,"current_range_meters":38800,"station_id":"ce4bgjh2rcd13ifvqbg0","pricing_plan_id":"cebpf4jnsgd1na2vs0mg"},{"bike_id":"ec2bd622-564a-4344-81ef-f79e221200a1","system_id":"levelo_inurba_marseille","lat":43.25579,"lon":5.38247,"is_reserved":false,"is_disabled":false,"rental_uris":{"android":"levelo://app?vid=ec2bd622-564a-4344-81ef-f79e221200a1","ios":"levelo://app?vid=ec2bd622-564a-4344-81ef-f79e221200a1"},"vehicle_type_id":"4","last_reported":1731424147,"current_range_meters":28000,"station_id":"ce4bhih2rcd13ifvqfs0","pricing_plan_id":"cebpf4jnsgd1na2vs0mg"},{"bike_id":"48af4b69-aaa3-41b9-b064-2e73de59e95a","system_id":"levelo_inurba_marseille","lat":43.2798,"lon":5.38756,"is_reserved":false,"is_disabled":false,"rental_uris":{"android":"levelo://app?vid=48af4b69-aaa3-41b9-b064-2e73de59e95a","ios":"levelo://app?vid=48af4b69-aaa3-41b9-b064-2e73de59e95a"},"vehicle_type_id":"4","last_reported":1731424147,"current_range_meters":38800,"station_id":"ce4bhg12rcd13ifvqf80","pricing_plan_id":"cebpf4jnsgd1na2vs0mg"},{"bike_id":"14220cea-1148-43c6-905f-c08794442416","system_id":"levelo_inurba_marseille","lat":43.26571,"lon":5.39017,"is_reserved":false,"is_disabled":false,"rental_uris":{"android":"levelo://app?vid=14220cea-1148-43c6-905f-c08794442416","ios":"levelo://app?vid=14220cea-1148-43c6-905f-c08794442416"},"vehicle_type_id":"4","last_reported":1731424147,"current_range_meters":36800,"station_id":"ce4bhe12rcd13ifvqf30","pricing_plan_id":"cebpf4jnsgd1na2vs0mg"},{"bike_id":"ce2e3f6e-6398-4940-93f2-fd49c28434c4","system_id":"levelo_inurba_marseille","lat":43.24083,"lon":5.37752,"is_reserved":false,"is_disabled":false,"rental_uris":{"android":"levelo://app?vid=ce2e3f6e-6398-4940-93f2-fd49c28434c4","ios":"levelo://app?vid=ce2e3f6e-6398-4940-93f2-fd49c28434c4"},"vehicle_type_id":"4","last_reported":1731424147,"current_range_meters":7200,"station_id":"ce4bhnp2rcd13ifvqgvg","pricing_plan_id":"cebpf4jnsgd1na2vs0mg"},{"bike_id":"f9cacf57-36ba-4889-8f1f-f771a3c6f728","system_id":"levelo_inurba_marseille","lat":43.29907,"lon":5.38149,"is_reserved":false,"is_disabled":false,"rental_uris":{"android":"levelo://app?vid=f9cacf57-36ba-4889-8f1f-f771a3c6f728","ios":"levelo://app?vid=f9cacf57-36ba-4889-8f1f-f771a3c6f728"},"vehicle_type_id":"4","last_reported":1731424147,"current_range_meters":36800,"station_id":"ce4bgj12rcd13ifvqbc0","pricing_plan_id":"cebpf4jnsgd1na2vs0mg"},{"bike_id":"46af5b7f-5607-486d-bc57-2daa7d5b28e7","system_id":"levelo_inurba_marseille","lat":43.27066,"lon":5.42277,"is_reserved":false,"is_disabled":false,"rental_uris":{"android":"levelo://app?vid=46af5b7f-5607-486d-bc57-2daa7d5b28e7","ios":"levelo://app?vid=46af5b7f-5607-486d-bc57-2daa7d5b28e7"},"vehicle_type_id":"4","last_reported":1731424147,"current_range_meters":37600,"station_id":"ce4bhk92rcd13ifvqgb0","pricing_plan_id":"cebpf4jnsgd1na2vs0mg"},{"bike_id":"5770bbd9-2c6e-4691-a76b-306c0fdae32c","system_id":"levelo_inurba_marseille","lat":43.28856,"lon":5.3586,"is_reserved":false,"is_disabled":false,"rental_uris":{"android":"levelo://app?vid=5770bbd9-2c6e-4691-a76b-306c0fdae32c","ios":"levelo://app?vid=5770bbd9-2c6e-4691-a76b-306c0fdae32c"},"vehicle_type_id":"4","last_reported":1731424147,"current_range_meters":34800,"station_id":"ce4bhb12rcd13ifvqem0","pricing_plan_id":"cebpf4jnsgd1na2vs0mg"},{"bike_id":"507284d9-4009-457e-bfa1-5ddbf58c6240","system_id":"levelo_inurba_marseille","lat":43.27171,"lon":5.40987,"is_reserved":false,"is_disabled":false,"rental_uris":{"android":"levelo://app?vid=507284d9-4009-457e-bfa1-5ddbf58c6240","ios":"levelo://app?vid=507284d9-4009-457e-bfa1-5ddbf58c6240"},"vehicle_type_id":"4","last_reported":1731424147,"current_range_meters":39200,"station_id":"ce4bhl12rcd13ifvqgf0","pricing_plan_id":"cebpf4jnsgd1na2vs0mg"},{"bike_id":"007ed1e0-5e71-46da-97d5-4d5c67a3b532","system_id":"levelo_inurba_marseille","lat":43.2668,"lon":5.38266,"is_reserved":false,"is_disabled":false,"rental_uris":{"android":"levelo://app?vid=007ed1e0-5e71-46da-97d5-4d5c67a3b532","ios":"levelo://app?vid=007ed1e0-5e71-46da-97d5-4d5c67a3b532"},"vehicle_type_id":"4","last_reported":1731424147,"current_range_meters":36400,"station_id":"ce4bhg92rcd13ifvqf90","pricing_plan_id":"cebpf4jnsgd1na2vs0mg"},{"bike_id":"62f5ce0e-90f2-4cf5-a3ef-fa5904dc77cf","system_id":"levelo_inurba_marseille","lat":43.29003,"lon":5.35607,"is_reserved":false,"is_disabled":false,"rental_uris":{"android":"levelo://app?vid=62f5ce0e-90f2-4cf5-a3ef-fa5904dc77cf","ios":"levelo://app?vid=62f5ce0e-90f2-4cf5-a3ef-fa5904dc77cf"},"vehicle_type_id":"4","last_reported":1731424147,"current_range_meters":33600,"station_id":"ce4bhb92rcd13ifvqen0","pricing_plan_id":"cebpf4jnsgd1na2vs0mg"},{"bike_id":"44a85343-f177-4904-8616-4b62e063a17c","system_id":"levelo_inurba_marseille","lat":43.290026,"lon":5.356141,"is_reserved":false,"is_disabled":false,"rental_uris":{"android":"levelo://app?vid=44a85343-f177-4904-8616-4b62e063a17c","ios":"levelo://app?vid=44a85343-f177-4904-8616-4b62e063a17c"},"vehicle_type_id":"4","last_reported":1731424147,"current_range_meters":39200,"station_id":"ce4bhb92rcd13ifvqen0","pricing_plan_id":"cebpf4jnsgd1na2vs0mg"},{"bike_id":"f4e02794-322e-4818-830c-8d3b2c66c4ee","system_id":"levelo_inurba_marseille","lat":43.33615,"lon":5.40996,"is_reserved":false,"is_disabled":false,"rental_uris":{"android":"levelo://app?vid=f4e02794-322e-4818-830c-8d3b2c66c4ee","ios":"levelo://app?vid=f4e02794-322e-4818-830c-8d3b2c66c4ee"},"vehicle_type_id":"4","last_reported":1731424147,"current_range_meters":36800,"station_id":"ce4bhqh2rcd13ifvqhmg","pricing_plan_id":"cebpf4jnsgd1na2vs0mg"},{"bike_id":"9ff46309-c6e0-445e-8ef2-1916bba1fdc1","system_id":"levelo_inurba_marseille","lat":43.2893,"lon":5.36391,"is_reserved":false,"is_disabled":false,"rental_uris":{"android":"levelo://app?vid=9ff46309-c6e0-445e-8ef2-1916bba1fdc1","ios":"levelo://app?vid=9ff46309-c6e0-445e-8ef2-1916bba1fdc1"},"vehicle_type_id":"4","last_reported":1731424147,"current_range_meters":39200,"station_id":"ce4bhc92rcd13ifvqetg","pricing_plan_id":"cebpf4jnsgd1na2vs0mg"},{"bike_id":"59cb5f6e-efb7-4dab-b0b9-60fb27398b1c","system_id":"levelo_inurba_marseille","lat":43.27962,"lon":5.38715,"is_reserved":false,"is_disabled":false,"rental_uris":{"android":"levelo://app?vid=59cb5f6e-efb7-4dab-b0b9-60fb27398b1c","ios":"levelo://app?vid=59cb5f6e-efb7-4dab-b0b9-60fb27398b1c"},"vehicle_type_id":"4","last_reported":1731424147,"current_range_meters":38800,"station_id":"ce4bhg12rcd13ifvqf80","pricing_plan_id":"cebpf4jnsgd1na2vs0mg"},{"bike_id":"59d7e861-e3d3-4088-bc9c-c43fc36cf4fe","system_id":"levelo_inurba_marseille","lat":43.24084,"lon":5.37744,"is_reserved":false,"is_disabled":false,"rental_uris":{"android":"levelo://app?vid=59d7e861-e3d3-4088-bc9c-c43fc36cf4fe","ios":"levelo://app?vid=59d7e861-e3d3-4088-bc9c-c43fc36cf4fe"},"vehicle_type_id":"4","last_reported":1731424147,"current_range_meters":6800,"station_id":"ce4bhnp2rcd13ifvqgvg","pricing_plan_id":"cebpf4jnsgd1na2vs0mg"},{"bike_id":"c8577b48-3d1b-496e-92f7-bd3fc9e36063","system_id":"levelo_inurba_marseille","lat":43.337444,"lon":5.374475,"is_reserved":false,"is_disabled":false,"rental_uris":{"android":"levelo://app?vid=c8577b48-3d1b-496e-92f7-bd3fc9e36063","ios":"levelo://app?vid=c8577b48-3d1b-496e-92f7-bd3fc9e36063"},"vehicle_type_id":"4","last_reported":1731424147,"current_range_meters":36800,"station_id":"","pricing_plan_id":"cebpf4jnsgd1na2vs0mg"},{"bike_id":"9e15b188-2341-4d66-8a22-cefbe21774ba","system_id":"levelo_inurba_marseille","lat":43.31224,"lon":5.36851,"is_reserved":false,"is_disabled":false,"rental_uris":{"android":"levelo://app?vid=9e15b188-2341-4d66-8a22-cefbe21774ba","ios":"levelo://app?vid=9e15b188-2341-4d66-8a22-cefbe21774ba"},"vehicle_type_id":"4","last_reported":1731424147,"current_range_meters":26800,"station_id":"ce4bgl92rcd13ifvqbq0","pricing_plan_id":"cebpf4jnsgd1na2vs0mg"},{"bike_id":"ae5855c0-8447-495f-a998-74b81686d82e","system_id":"levelo_inurba_marseille","lat":43.26684,"lon":5.38271,"is_reserved":false,"is_disabled":false,"rental_uris":{"android":"levelo://app?vid=ae5855c0-8447-495f-a998-74b81686d82e","ios":"levelo://app?vid=ae5855c0-8447-495f-a998-74b81686d82e"},"vehicle_type_id":"4","last_reported":1731424147,"current_range_meters":39200,"station_id":"ce4bhg92rcd13ifvqf90","pricing_plan_id":"cebpf4jnsgd1na2vs0mg"},{"bike_id":"d265751d-fa37-4729-b8e3-a5848e7e9d07","system_id":"levelo_inurba_marseille","lat":43.24804,"lon":5.37455,"is_reserved":false,"is_disabled":false,"rental_uris":{"android":"levelo://app?vid=d265751d-fa37-4729-b8e3-a5848e7e9d07","ios":"levelo://app?vid=d265751d-fa37-4729-b8e3-a5848e7e9d07"},"vehicle_type_id":"4","last_reported":1731424147,"current_range_meters":38800,"station_id":"ce4bhgh2rcd13ifvqfb0","pricing_plan_id":"cebpf4jnsgd1na2vs0mg"},{"bike_id":"7ddf5a1d-ec6d-43ff-857b-7df82f161350","system_id":"levelo_inurba_marseille","lat":43.28615,"lon":5.35098,"is_reserved":false,"is_disabled":false,"rental_uris":{"android":"levelo://app?vid=7ddf5a1d-ec6d-43ff-857b-7df82f161350","ios":"levelo://app?vid=7ddf5a1d-ec6d-43ff-857b-7df82f161350"},"vehicle_type_id":"4","last_reported":1731424147,"current_range_meters":34000,"station_id":"ce4bhch2rcd13ifvqeug","pricing_plan_id":"cebpf4jnsgd1na2vs0mg"},{"bike_id":"991bef25-7582-49b4-bbf4-c554ae6b520f","system_id":"levelo_inurba_marseille","lat":43.29851,"lon":5.36284,"is_reserved":false,"is_disabled":false,"rental_uris":{"android":"levelo://app?vid=991bef25-7582-49b4-bbf4-c554ae6b520f","ios":"levelo://app?vid=991bef25-7582-49b4-bbf4-c554ae6b520f"},"vehicle_type_id":"4","last_reported":1731424147,"current_range_meters":38800,"station_id":"ce4bgpp2rcd13ifvqc3g","pricing_plan_id":"cebpf4jnsgd1na2vs0mg"},{"bike_id":"ee54c23e-a693-4bf4-8cc3-6b985168b303","system_id":"levelo_inurba_marseille","lat":43.29059,"lon":5.37517,"is_reserved":false,"is_disabled":false,"rental_uris":{"android":"levelo://app?vid=ee54c23e-a693-4bf4-8cc3-6b985168b303","ios":"levelo://app?vid=ee54c23e-a693-4bf4-8cc3-6b985168b303"},"vehicle_type_id":"4","last_reported":1731424147,"current_range_meters":34000,"station_id":"ce4bh692rcd13ifvqe90","pricing_plan_id":"cebpf4jnsgd1na2vs0mg"},{"bike_id":"b9a61c7d-c2e0-445d-b53e-84e455ca4886","system_id":"levelo_inurba_marseille","lat":43.3266,"lon":5.41003,"is_reserved":false,"is_disabled":false,"rental_uris":{"android":"levelo://app?vid=b9a61c7d-c2e0-445d-b53e-84e455ca4886","ios":"levelo://app?vid=b9a61c7d-c2e0-445d-b53e-84e455ca4886"},"vehicle_type_id":"4","last_reported":1731424147,"current_range_meters":38800,"station_id":"ce4bhpp2rcd13ifvqhgg","pricing_plan_id":"cebpf4jnsgd1na2vs0mg"},{"bike_id":"47f68d1a-08bc-4a05-95ab-0c37ad1d556f","system_id":"levelo_inurba_marseille","lat":43.31722,"lon":5.42401,"is_reserved":false,"is_disabled":false,"rental_uris":{"android":"levelo://app?vid=47f68d1a-08bc-4a05-95ab-0c37ad1d556f","ios":"levelo://app?vid=47f68d1a-08bc-4a05-95ab-0c37ad1d556f"},"vehicle_type_id":"4","last_reported":1731424147,"current_range_meters":32000,"station_id":"ce4bhp92rcd13ifvqhbg","pricing_plan_id":"cebpf4jnsgd1na2vs0mg"},{"bike_id":"c712db69-4651-47a9-b991-3387f12e08c0","system_id":"levelo_inurba_marseille","lat":43.30207,"lon":5.39469,"is_reserved":false,"is_disabled":false,"rental_uris":{"android":"levelo://app?vid=c712db69-4651-47a9-b991-3387f12e08c0","ios":"levelo://app?vid=c712db69-4651-47a9-b991-3387f12e08c0"},"vehicle_type_id":"4","last_reported":1731424147,"current_range_meters":38800,"station_id":"ce4bh0p2rcd13ifvqd70","pricing_plan_id":"cebpf4jnsgd1na2vs0mg"},{"bike_id":"b51379b7-662e-4729-961b-ffecd4d4a14b","system_id":"levelo_inurba_marseille","lat":43.28615,"lon":5.35106,"is_reserved":false,"is_disabled":false,"rental_uris":{"android":"levelo://app?vid=b51379b7-662e-4729-961b-ffecd4d4a14b","ios":"levelo://app?vid=b51379b7-662e-4729-961b-ffecd4d4a14b"},"vehicle_type_id":"4","last_reported":1731424147,"current_range_meters":38400,"station_id":"ce4bhch2rcd13ifvqeug","pricing_plan_id":"cebpf4jnsgd1na2vs0mg"},{"bike_id":"ff79dbb3-d3d7-4791-b7c9-e1676e2757ff","system_id":"levelo_inurba_marseille","lat":43.29979,"lon":5.37184,"is_reserved":false,"is_disabled":false,"rental_uris":{"android":"levelo://app?vid=ff79dbb3-d3d7-4791-b7c9-e1676e2757ff","ios":"levelo://app?vid=ff79dbb3-d3d7-4791-b7c9-e1676e2757ff"},"vehicle_type_id":"4","last_reported":1731424147,"current_range_meters":38000,"station_id":"ce4bgr92rcd13ifvqc7g","pricing_plan_id":"cebpf4jnsgd1na2vs0mg"},{"bike_id":"dafcd14f-9c44-41c3-ab9c-fa462e1c91ac","system_id":"levelo_inurba_marseille","lat":43.25937,"lon":5.40906,"is_reserved":false,"is_disabled":false,"rental_uris":{"android":"levelo://app?vid=dafcd14f-9c44-41c3-ab9c-fa462e1c91ac","ios":"levelo://app?vid=dafcd14f-9c44-41c3-ab9c-fa462e1c91ac"},"vehicle_type_id":"4","last_reported":1731424147,"current_range_meters":30000,"station_id":"ce4bhm92rcd13ifvqglg","pricing_plan_id":"cebpf4jnsgd1na2vs0mg"},{"bike_id":"bbcd3432-7c91-4287-abb0-e58d1d91530d","system_id":"levelo_inurba_marseille","lat":43.30097,"lon":5.39085,"is_reserved":false,"is_disabled":false,"rental_uris":{"android":"levelo://app?vid=bbcd3432-7c91-4287-abb0-e58d1d91530d","ios":"levelo://app?vid=bbcd3432-7c91-4287-abb0-e58d1d91530d"},"vehicle_type_id":"4","last_reported":1731424147,"current_range_meters":38400,"station_id":"ce4bh192rcd13ifvqdb0","pricing_plan_id":"cebpf4jnsgd1na2vs0mg"},{"bike_id":"225b442f-6e00-4347-b91d-99b254c9614c","system_id":"levelo_inurba_marseille","lat":43.29864,"lon":5.39734,"is_reserved":false,"is_disabled":false,"rental_uris":{"android":"levelo://app?vid=225b442f-6e00-4347-b91d-99b254c9614c","ios":"levelo://app?vid=225b442f-6e00-4347-b91d-99b254c9614c"},"vehicle_type_id":"4","last_reported":1731424147,"current_range_meters":40000,"station_id":"ce4bh0h2rcd13ifvqd50","pricing_plan_id":"cebpf4jnsgd1na2vs0mg"},{"bike_id":"58685eb4-dfa7-41ef-ac84-9baaaa81d352","system_id":"levelo_inurba_marseille","lat":43.30134,"lon":5.37426,"is_reserved":false,"is_disabled":false,"rental_uris":{"android":"levelo://app?vid=58685eb4-dfa7-41ef-ac84-9baaaa81d352","ios":"levelo://app?vid=58685eb4-dfa7-41ef-ac84-9baaaa81d352"},"vehicle_type_id":"4","last_reported":1731424147,"current_range_meters":13600,"station_id":"ce4bgs92rcd13ifvqcc0","pricing_plan_id":"cebpf4jnsgd1na2vs0mg"},{"bike_id":"2d1792f0-af76-4d9e-9073-6b58abd1668b","system_id":"levelo_inurba_marseille","lat":43.27907,"lon":5.38011,"is_reserved":false,"is_disabled":false,"rental_uris":{"android":"levelo://app?vid=2d1792f0-af76-4d9e-9073-6b58abd1668b","ios":"levelo://app?vid=2d1792f0-af76-4d9e-9073-6b58abd1668b"},"vehicle_type_id":"4","last_reported":1731424147,"current_range_meters":38800,"station_id":"ce4bhf92rcd13ifvqf50","pricing_plan_id":"cebpf4jnsgd1na2vs0mg"},{"bike_id":"28ed024a-eca2-42ce-a85a-8ca29d72a8fa","system_id":"levelo_inurba_marseille","lat":43.29046,"lon":5.39963,"is_reserved":false,"is_disabled":false,"rental_uris":{"android":"levelo://app?vid=28ed024a-eca2-42ce-a85a-8ca29d72a8fa","ios":"levelo://app?vid=28ed024a-eca2-42ce-a85a-8ca29d72a8fa"},"vehicle_type_id":"4","last_reported":1731424147,"current_range_meters":28800,"station_id":"ce4bh392rcd13ifvqdm0","pricing_plan_id":"cebpf4jnsgd1na2vs0mg"},{"bike_id":"e99bf37f-004d-43bc-958e-87cb19a3e1e4","system_id":"levelo_inurba_marseille","lat":43.26063,"lon":5.39398,"is_reserved":false,"is_disabled":false,"rental_uris":{"android":"levelo://app?vid=e99bf37f-004d-43bc-958e-87cb19a3e1e4","ios":"levelo://app?vid=e99bf37f-004d-43bc-958e-87cb19a3e1e4"},"vehicle_type_id":"4","last_reported":1731424147,"current_range_meters":29600,"station_id":"ce4bhh92rcd13ifvqfj0","pricing_plan_id":"cebpf4jnsgd1na2vs0mg"},{"bike_id":"0c179f51-8f2f-450e-b60d-9d90f97b2218","system_id":"levelo_inurba_marseille","lat":43.3014,"lon":5.3742,"is_reserved":false,"is_disabled":false,"rental_uris":{"android":"levelo://app?vid=0c179f51-8f2f-450e-b60d-9d90f97b2218","ios":"levelo://app?vid=0c179f51-8f2f-450e-b60d-9d90f97b2218"},"vehicle_type_id":"4","last_reported":1731424147,"current_range_meters":38400,"station_id":"ce4bgs92rcd13ifvqcc0","pricing_plan_id":"cebpf4jnsgd1na2vs0mg"},{"bike_id":"4171ac8d-c6cd-448f-8b73-c95c73df1c88","system_id":"levelo_inurba_marseille","lat":43.276767,"lon":5.38868,"is_reserved":false,"is_disabled":false,"rental_uris":{"android":"levelo://app?vid=4171ac8d-c6cd-448f-8b73-c95c73df1c88","ios":"levelo://app?vid=4171ac8d-c6cd-448f-8b73-c95c73df1c88"},"vehicle_type_id":"4","last_reported":1731424147,"current_range_meters":38000,"station_id":"ce4bhi12rcd13ifvqfo0","pricing_plan_id":"cebpf4jnsgd1na2vs0mg"},{"bike_id":"e6d9ccda-cfff-4903-94c3-fe8f7e4a51f0","system_id":"levelo_inurba_marseille","lat":43.30134,"lon":5.38802,"is_reserved":false,"is_disabled":false,"rental_uris":{"android":"levelo://app?vid=e6d9ccda-cfff-4903-94c3-fe8f7e4a51f0","ios":"levelo://app?vid=e6d9ccda-cfff-4903-94c3-fe8f7e4a51f0"},"vehicle_type_id":"4","last_reported":1731424147,"current_range_meters":30000,"station_id":"ce4bghh2rcd13ifvqb60","pricing_plan_id":"cebpf4jnsgd1na2vs0mg"},{"bike_id":"a2dc6167-7acb-4c84-9815-14f7ce67aa6d","system_id":"levelo_inurba_marseille","lat":43.2961,"lon":5.38065,"is_reserved":false,"is_disabled":false,"rental_uris":{"android":"levelo://app?vid=a2dc6167-7acb-4c84-9815-14f7ce67aa6d","ios":"levelo://app?vid=a2dc6167-7acb-4c84-9815-14f7ce67aa6d"},"vehicle_type_id":"4","last_reported":1731424147,"current_range_meters":35600,"station_id":"ce4bgl12rcd13ifvqbo0","pricing_plan_id":"cebpf4jnsgd1na2vs0mg"},{"bike_id":"310bf956-2d0c-40fb-9411-0b80e8e2b383","system_id":"levelo_inurba_marseille","lat":43.3032,"lon":5.40447,"is_reserved":false,"is_disabled":false,"rental_uris":{"android":"levelo://app?vid=310bf956-2d0c-40fb-9411-0b80e8e2b383","ios":"levelo://app?vid=310bf956-2d0c-40fb-9411-0b80e8e2b383"},"vehicle_type_id":"4","last_reported":1731424147,"current_range_meters":6000,"station_id":"ce4bh012rcd13ifvqd10","pricing_plan_id":"cebpf4jnsgd1na2vs0mg"},{"bike_id":"e8e02d9c-9f18-44fb-893f-40424ddd086b","system_id":"levelo_inurba_marseille","lat":43.28459,"lon":5.359,"is_reserved":false,"is_disabled":false,"rental_uris":{"android":"levelo://app?vid=e8e02d9c-9f18-44fb-893f-40424ddd086b","ios":"levelo://app?vid=e8e02d9c-9f18-44fb-893f-40424ddd086b"},"vehicle_type_id":"4","last_reported":1731424147,"current_range_meters":38800,"station_id":"ce4bhah2rcd13ifvqei0","pricing_plan_id":"cebpf4jnsgd1na2vs0mg"},{"bike_id":"b02a15b1-9960-47f3-95f1-db9bc34c4fb0","system_id":"levelo_inurba_marseille","lat":43.30531,"lon":5.3843,"is_reserved":false,"is_disabled":false,"rental_uris":{"android":"levelo://app?vid=b02a15b1-9960-47f3-95f1-db9bc34c4fb0","ios":"levelo://app?vid=b02a15b1-9960-47f3-95f1-db9bc34c4fb0"},"vehicle_type_id":"4","last_reported":1731424147,"current_range_meters":38800,"station_id":"ce4bgg92rcd13ifvqb30","pricing_plan_id":"cebpf4jnsgd1na2vs0mg"},{"bike_id":"f543a2a7-9a43-47c9-a121-90e2d8c3273c","system_id":"levelo_inurba_marseille","lat":43.293024,"lon":5.374459,"is_reserved":false,"is_disabled":false,"rental_uris":{"android":"levelo://app?vid=f543a2a7-9a43-47c9-a121-90e2d8c3273c","ios":"levelo://app?vid=f543a2a7-9a43-47c9-a121-90e2d8c3273c"},"vehicle_type_id":"4","last_reported":1731424147,"current_range_meters":11600,"station_id":"ce4bgi12rcd13ifvqb70","pricing_plan_id":"cebpf4jnsgd1na2vs0mg"},{"bike_id":"1740a8aa-c44f-4c36-a230-385a32395a5f","system_id":"levelo_inurba_marseille","lat":43.28719,"lon":5.36092,"is_reserved":false,"is_disabled":false,"rental_uris":{"android":"levelo://app?vid=1740a8aa-c44f-4c36-a230-385a32395a5f","ios":"levelo://app?vid=1740a8aa-c44f-4c36-a230-385a32395a5f"},"vehicle_type_id":"4","last_reported":1731424147,"current_range_meters":31200,"station_id":"cki0cbj6b192h4jlfktg","pricing_plan_id":"cebpf4jnsgd1na2vs0mg"},{"bike_id":"2dd7535a-c116-4669-8e1d-caa19e32b5ba","system_id":"levelo_inurba_marseille","lat":43.24085,"lon":5.37762,"is_reserved":false,"is_disabled":false,"rental_uris":{"android":"levelo://app?vid=2dd7535a-c116-4669-8e1d-caa19e32b5ba","ios":"levelo://app?vid=2dd7535a-c116-4669-8e1d-caa19e32b5ba"},"vehicle_type_id":"4","last_reported":1731424147,"current_range_meters":14400,"station_id":"ce4bhnp2rcd13ifvqgvg","pricing_plan_id":"cebpf4jnsgd1na2vs0mg"},{"bike_id":"fe2eeceb-6fa9-4b15-84bd-fb3e521ec0f9","system_id":"levelo_inurba_marseille","lat":43.29876,"lon":5.39741,"is_reserved":false,"is_disabled":false,"rental_uris":{"android":"levelo://app?vid=fe2eeceb-6fa9-4b15-84bd-fb3e521ec0f9","ios":"levelo://app?vid=fe2eeceb-6fa9-4b15-84bd-fb3e521ec0f9"},"vehicle_type_id":"4","last_reported":1731424147,"current_range_meters":38400,"station_id":"ce4bh0h2rcd13ifvqd50","pricing_plan_id":"cebpf4jnsgd1na2vs0mg"},{"bike_id":"2b3e0803-0bd7-448b-99a4-0fce636af499","system_id":"levelo_inurba_marseille","lat":43.30552,"lon":5.3655,"is_reserved":false,"is_disabled":false,"rental_uris":{"android":"levelo://app?vid=2b3e0803-0bd7-448b-99a4-0fce636af499","ios":"levelo://app?vid=2b3e0803-0bd7-448b-99a4-0fce636af499"},"vehicle_type_id":"4","last_reported":1731424147,"current_range_meters":28400,"station_id":"ce4bgs12rcd13ifvqcag","pricing_plan_id":"cebpf4jnsgd1na2vs0mg"},{"bike_id":"f3003102-7600-4296-ad8c-b621fb4a92b3","system_id":"levelo_inurba_marseille","lat":43.28929,"lon":5.36393,"is_reserved":false,"is_disabled":false,"rental_uris":{"android":"levelo://app?vid=f3003102-7600-4296-ad8c-b621fb4a92b3","ios":"levelo://app?vid=f3003102-7600-4296-ad8c-b621fb4a92b3"},"vehicle_type_id":"4","last_reported":1731424147,"current_range_meters":38800,"station_id":"ce4bhc92rcd13ifvqetg","pricing_plan_id":"cebpf4jnsgd1na2vs0mg"},{"bike_id":"0d24819c-0f35-4eb6-b8ed-bc26c9af315b","system_id":"levelo_inurba_marseille","lat":43.29356,"lon":5.37862,"is_reserved":false,"is_disabled":false,"rental_uris":{"android":"levelo://app?vid=0d24819c-0f35-4eb6-b8ed-bc26c9af315b","ios":"levelo://app?vid=0d24819c-0f35-4eb6-b8ed-bc26c9af315b"},"vehicle_type_id":"4","last_reported":1731424147,"current_range_meters":9200,"station_id":"ce4bgjh2rcd13ifvqbf0","pricing_plan_id":"cebpf4jnsgd1na2vs0mg"},{"bike_id":"8ac24647-eec0-42c8-97be-c751bce2e1bf","system_id":"levelo_inurba_marseille","lat":43.24071,"lon":5.37755,"is_reserved":false,"is_disabled":false,"rental_uris":{"android":"levelo://app?vid=8ac24647-eec0-42c8-97be-c751bce2e1bf","ios":"levelo://app?vid=8ac24647-eec0-42c8-97be-c751bce2e1bf"},"vehicle_type_id":"4","last_reported":1731424147,"current_range_meters":16400,"station_id":"ce4bhnp2rcd13ifvqgvg","pricing_plan_id":"cebpf4jnsgd1na2vs0mg"},{"bike_id":"212b6c3f-ace3-45e8-99f0-447547f69bd6","system_id":"levelo_inurba_marseille","lat":43.27992,"lon":5.41665,"is_reserved":false,"is_disabled":false,"rental_uris":{"android":"levelo://app?vid=212b6c3f-ace3-45e8-99f0-447547f69bd6","ios":"levelo://app?vid=212b6c3f-ace3-45e8-99f0-447547f69bd6"},"vehicle_type_id":"4","last_reported":1731424147,"current_range_meters":38800,"station_id":"ce4bho12rcd13ifvqh1g","pricing_plan_id":"cebpf4jnsgd1na2vs0mg"},{"bike_id":"1dd3b170-fdda-41f2-92b8-00e41b062ee2","system_id":"levelo_inurba_marseille","lat":43.30931,"lon":5.40145,"is_reserved":false,"is_disabled":false,"rental_uris":{"android":"levelo://app?vid=1dd3b170-fdda-41f2-92b8-00e41b062ee2","ios":"levelo://app?vid=1dd3b170-fdda-41f2-92b8-00e41b062ee2"},"vehicle_type_id":"4","last_reported":1731424147,"current_range_meters":39200,"station_id":"ce4bgvp2rcd13ifvqct0","pricing_plan_id":"cebpf4jnsgd1na2vs0mg"},{"bike_id":"5b923780-51a4-40e6-ad1c-e622ba0683f6","system_id":"levelo_inurba_marseille","lat":43.2408,"lon":5.377393,"is_reserved":false,"is_disabled":false,"rental_uris":{"android":"levelo://app?vid=5b923780-51a4-40e6-ad1c-e622ba0683f6","ios":"levelo://app?vid=5b923780-51a4-40e6-ad1c-e622ba0683f6"},"vehicle_type_id":"4","last_reported":1731424147,"current_range_meters":28400,"station_id":"ce4bhnp2rcd13ifvqgvg","pricing_plan_id":"cebpf4jnsgd1na2vs0mg"},{"bike_id":"c06af103-ce50-45ab-a766-7ad1d38cccbd","system_id":"levelo_inurba_marseille","lat":43.29923,"lon":5.37453,"is_reserved":false,"is_disabled":false,"rental_uris":{"android":"levelo://app?vid=c06af103-ce50-45ab-a766-7ad1d38cccbd","ios":"levelo://app?vid=c06af103-ce50-45ab-a766-7ad1d38cccbd"},"vehicle_type_id":"4","last_reported":1731424147,"current_range_meters":38000,"station_id":"ce4bgjh2rcd13ifvqbg0","pricing_plan_id":"cebpf4jnsgd1na2vs0mg"},{"bike_id":"986d0b41-bd0d-4053-9756-dde640f402ab","system_id":"levelo_inurba_marseille","lat":43.25824,"lon":5.39433,"is_reserved":false,"is_disabled":false,"rental_uris":{"android":"levelo://app?vid=986d0b41-bd0d-4053-9756-dde640f402ab","ios":"levelo://app?vid=986d0b41-bd0d-4053-9756-dde640f402ab"},"vehicle_type_id":"4","last_reported":1731424147,"current_range_meters":37600,"station_id":"ce4bhip2rcd13ifvqft0","pricing_plan_id":"cebpf4jnsgd1na2vs0mg"},{"bike_id":"6b5b780b-1915-41f3-95ca-02dd8c70600f","system_id":"levelo_inurba_marseille","lat":43.25488,"lon":5.37648,"is_reserved":false,"is_disabled":false,"rental_uris":{"android":"levelo://app?vid=6b5b780b-1915-41f3-95ca-02dd8c70600f","ios":"levelo://app?vid=6b5b780b-1915-41f3-95ca-02dd8c70600f"},"vehicle_type_id":"4","last_reported":1731424147,"current_range_meters":35600,"station_id":"ce4bhh12rcd13ifvqff0","pricing_plan_id":"cebpf4jnsgd1na2vs0mg"},{"bike_id":"ab3a1098-a1ec-4316-bd16-5eee6994d645","system_id":"levelo_inurba_marseille","lat":43.26568,"lon":5.39025,"is_reserved":false,"is_disabled":false,"rental_uris":{"android":"levelo://app?vid=ab3a1098-a1ec-4316-bd16-5eee6994d645","ios":"levelo://app?vid=ab3a1098-a1ec-4316-bd16-5eee6994d645"},"vehicle_type_id":"4","last_reported":1731424147,"current_range_meters":13600,"station_id":"ce4bhe12rcd13ifvqf30","pricing_plan_id":"cebpf4jnsgd1na2vs0mg"},{"bike_id":"75ae5757-02dc-4887-95b4-5944b13b4767","system_id":"levelo_inurba_marseille","lat":43.3107,"lon":5.38349,"is_reserved":false,"is_disabled":false,"rental_uris":{"android":"levelo://app?vid=75ae5757-02dc-4887-95b4-5944b13b4767","ios":"levelo://app?vid=75ae5757-02dc-4887-95b4-5944b13b4767"},"vehicle_type_id":"4","last_reported":1731424147,"current_range_meters":38800,"station_id":"ce4bgv92rcd13ifvqcr0","pricing_plan_id":"cebpf4jnsgd1na2vs0mg"},{"bike_id":"a6a82c41-1205-4b98-972e-4b56fca63842","system_id":"levelo_inurba_marseille","lat":43.26065,"lon":5.39401,"is_reserved":false,"is_disabled":false,"rental_uris":{"android":"levelo://app?vid=a6a82c41-1205-4b98-972e-4b56fca63842","ios":"levelo://app?vid=a6a82c41-1205-4b98-972e-4b56fca63842"},"vehicle_type_id":"4","last_reported":1731424147,"current_range_meters":35200,"station_id":"ce4bhh92rcd13ifvqfj0","pricing_plan_id":"cebpf4jnsgd1na2vs0mg"},{"bike_id":"647d87d8-ed03-4344-9ce2-6aeae85a7109","system_id":"levelo_inurba_marseille","lat":43.28567,"lon":5.39501,"is_reserved":false,"is_disabled":false,"rental_uris":{"android":"levelo://app?vid=647d87d8-ed03-4344-9ce2-6aeae85a7109","ios":"levelo://app?vid=647d87d8-ed03-4344-9ce2-6aeae85a7109"},"vehicle_type_id":"4","last_reported":1731424147,"current_range_meters":5600,"station_id":"ce4bh292rcd13ifvqdg0","pricing_plan_id":"cebpf4jnsgd1na2vs0mg"},{"bike_id":"a434e7ae-a6da-4a10-a64a-9d96e40e21f5","system_id":"levelo_inurba_marseille","lat":43.29294,"lon":5.37457,"is_reserved":false,"is_disabled":false,"rental_uris":{"android":"levelo://app?vid=a434e7ae-a6da-4a10-a64a-9d96e40e21f5","ios":"levelo://app?vid=a434e7ae-a6da-4a10-a64a-9d96e40e21f5"},"vehicle_type_id":"4","last_reported":1731424147,"current_range_meters":22000,"station_id":"ce4bgi12rcd13ifvqb70","pricing_plan_id":"cebpf4jnsgd1na2vs0mg"},{"bike_id":"fc9498f0-0bb9-4724-ad4e-bc81738e5dd8","system_id":"levelo_inurba_marseille","lat":43.24073,"lon":5.37753,"is_reserved":false,"is_disabled":false,"rental_uris":{"android":"levelo://app?vid=fc9498f0-0bb9-4724-ad4e-bc81738e5dd8","ios":"levelo://app?vid=fc9498f0-0bb9-4724-ad4e-bc81738e5dd8"},"vehicle_type_id":"4","last_reported":1731424147,"current_range_meters":12400,"station_id":"ce4bhnp2rcd13ifvqgvg","pricing_plan_id":"cebpf4jnsgd1na2vs0mg"},{"bike_id":"ac702bda-51a4-4f87-bb8b-945bd68c9bd2","system_id":"levelo_inurba_marseille","lat":43.27429,"lon":5.3942,"is_reserved":false,"is_disabled":false,"rental_uris":{"android":"levelo://app?vid=ac702bda-51a4-4f87-bb8b-945bd68c9bd2","ios":"levelo://app?vid=ac702bda-51a4-4f87-bb8b-945bd68c9bd2"},"vehicle_type_id":"4","last_reported":1731424147,"current_range_meters":38800,"station_id":"ce4bhdp2rcd13ifvqf20","pricing_plan_id":"cebpf4jnsgd1na2vs0mg"},{"bike_id":"3418ac43-f884-441f-8da3-861a705100f3","system_id":"levelo_inurba_marseille","lat":43.29009,"lon":5.35616,"is_reserved":false,"is_disabled":false,"rental_uris":{"android":"levelo://app?vid=3418ac43-f884-441f-8da3-861a705100f3","ios":"levelo://app?vid=3418ac43-f884-441f-8da3-861a705100f3"},"vehicle_type_id":"4","last_reported":1731424147,"current_range_meters":34800,"station_id":"ce4bhb92rcd13ifvqen0","pricing_plan_id":"cebpf4jnsgd1na2vs0mg"},{"bike_id":"31c32401-df06-402e-8dde-bc5d6c9fdeb1","system_id":"levelo_inurba_marseille","lat":43.28372,"lon":5.38639,"is_reserved":false,"is_disabled":false,"rental_uris":{"android":"levelo://app?vid=31c32401-df06-402e-8dde-bc5d6c9fdeb1","ios":"levelo://app?vid=31c32401-df06-402e-8dde-bc5d6c9fdeb1"},"vehicle_type_id":"4","last_reported":1731424147,"current_range_meters":39200,"station_id":"ce4bh492rcd13ifvqdvg","pricing_plan_id":"cebpf4jnsgd1na2vs0mg"},{"bike_id":"bdf0beac-151c-434e-af99-7b13a1d3236a","system_id":"levelo_inurba_marseille","lat":43.29271,"lon":5.36848,"is_reserved":false,"is_disabled":false,"rental_uris":{"android":"levelo://app?vid=bdf0beac-151c-434e-af99-7b13a1d3236a","ios":"levelo://app?vid=bdf0beac-151c-434e-af99-7b13a1d3236a"},"vehicle_type_id":"4","last_reported":1731424147,"current_range_meters":37600,"station_id":"ce4bhbp2rcd13ifvqesg","pricing_plan_id":"cebpf4jnsgd1na2vs0mg"},{"bike_id":"d8022146-4a81-4f19-9d29-6e54d8764c2c","system_id":"levelo_inurba_marseille","lat":43.29621,"lon":5.37724,"is_reserved":false,"is_disabled":false,"rental_uris":{"android":"levelo://app?vid=d8022146-4a81-4f19-9d29-6e54d8764c2c","ios":"levelo://app?vid=d8022146-4a81-4f19-9d29-6e54d8764c2c"},"vehicle_type_id":"4","last_reported":1731424147,"current_range_meters":38400,"station_id":"ce4bgi92rcd13ifvqb90","pricing_plan_id":"cebpf4jnsgd1na2vs0mg"},{"bike_id":"4005ddf1-0e61-4574-92c1-8edf3681e4e2","system_id":"levelo_inurba_marseille","lat":43.3414,"lon":5.40919,"is_reserved":false,"is_disabled":false,"rental_uris":{"android":"levelo://app?vid=4005ddf1-0e61-4574-92c1-8edf3681e4e2","ios":"levelo://app?vid=4005ddf1-0e61-4574-92c1-8edf3681e4e2"},"vehicle_type_id":"4","last_reported":1731424147,"current_range_meters":35600,"station_id":"ce4bhqh2rcd13ifvqhlg","pricing_plan_id":"cebpf4jnsgd1na2vs0mg"},{"bike_id":"bae79568-60bf-4b99-b860-fd147f5ba814","system_id":"levelo_inurba_marseille","lat":43.3014,"lon":5.3742,"is_reserved":false,"is_disabled":false,"rental_uris":{"android":"levelo://app?vid=bae79568-60bf-4b99-b860-fd147f5ba814","ios":"levelo://app?vid=bae79568-60bf-4b99-b860-fd147f5ba814"},"vehicle_type_id":"4","last_reported":1731424147,"current_range_meters":37600,"station_id":"ce4bgs92rcd13ifvqcc0","pricing_plan_id":"cebpf4jnsgd1na2vs0mg"},{"bike_id":"e338f0fe-166d-439e-9e73-fc1e9bec76fb","system_id":"levelo_inurba_marseille","lat":43.30881,"lon":5.39648,"is_reserved":false,"is_disabled":false,"rental_uris":{"android":"levelo://app?vid=e338f0fe-166d-439e-9e73-fc1e9bec76fb","ios":"levelo://app?vid=e338f0fe-166d-439e-9e73-fc1e9bec76fb"},"vehicle_type_id":"4","last_reported":1731424147,"current_range_meters":36800,"station_id":"ce4bh012rcd13ifvqcv0","pricing_plan_id":"cebpf4jnsgd1na2vs0mg"},{"bike_id":"3135c8bc-b1f8-4949-a744-1e8288223a91","system_id":"levelo_inurba_marseille","lat":43.290865,"lon":5.38116,"is_reserved":false,"is_disabled":false,"rental_uris":{"android":"levelo://app?vid=3135c8bc-b1f8-4949-a744-1e8288223a91","ios":"levelo://app?vid=3135c8bc-b1f8-4949-a744-1e8288223a91"},"vehicle_type_id":"4","last_reported":1731424147,"current_range_meters":34000,"station_id":"ce4bh512rcd13ifvqe2g","pricing_plan_id":"cebpf4jnsgd1na2vs0mg"},{"bike_id":"0681ab7e-cefc-43a0-ba03-9f42a8d2dc0c","system_id":"levelo_inurba_marseille","lat":43.29039,"lon":5.38662,"is_reserved":false,"is_disabled":false,"rental_uris":{"android":"levelo://app?vid=0681ab7e-cefc-43a0-ba03-9f42a8d2dc0c","ios":"levelo://app?vid=0681ab7e-cefc-43a0-ba03-9f42a8d2dc0c"},"vehicle_type_id":"4","last_reported":1731424147,"current_range_meters":38800,"station_id":"ce4bh4p2rcd13ifvqe0g","pricing_plan_id":"cebpf4jnsgd1na2vs0mg"},{"bike_id":"02a3f1fa-1b00-4bb2-8845-d89d50875ff5","system_id":"levelo_inurba_marseille","lat":43.32361,"lon":5.38883,"is_reserved":false,"is_disabled":false,"rental_uris":{"android":"levelo://app?vid=02a3f1fa-1b00-4bb2-8845-d89d50875ff5","ios":"levelo://app?vid=02a3f1fa-1b00-4bb2-8845-d89d50875ff5"},"vehicle_type_id":"4","last_reported":1731424147,"current_range_meters":36400,"station_id":"ce4bhqp2rcd13ifvqhog","pricing_plan_id":"cebpf4jnsgd1na2vs0mg"},{"bike_id":"da1e89e2-3210-4014-8329-78e281a0a3ac","system_id":"levelo_inurba_marseille","lat":43.33616,"lon":5.41032,"is_reserved":false,"is_disabled":false,"rental_uris":{"android":"levelo://app?vid=da1e89e2-3210-4014-8329-78e281a0a3ac","ios":"levelo://app?vid=da1e89e2-3210-4014-8329-78e281a0a3ac"},"vehicle_type_id":"4","last_reported":1731424147,"current_range_meters":37600,"station_id":"ce4bhqh2rcd13ifvqhmg","pricing_plan_id":"cebpf4jnsgd1na2vs0mg"},{"bike_id":"91396e2c-9f64-4b07-9603-7237ff652da5","system_id":"levelo_inurba_marseille","lat":43.28156,"lon":5.42642,"is_reserved":false,"is_disabled":false,"rental_uris":{"android":"levelo://app?vid=91396e2c-9f64-4b07-9603-7237ff652da5","ios":"levelo://app?vid=91396e2c-9f64-4b07-9603-7237ff652da5"},"vehicle_type_id":"4","last_reported":1731424147,"current_range_meters":37600,"station_id":"ce4bhnh2rcd13ifvqgug","pricing_plan_id":"cebpf4jnsgd1na2vs0mg"},{"bike_id":"a60c2fc6-3c5d-46cc-8f41-b8d85a35ece5","system_id":"levelo_inurba_marseille","lat":43.2957,"lon":5.39975,"is_reserved":false,"is_disabled":false,"rental_uris":{"android":"levelo://app?vid=a60c2fc6-3c5d-46cc-8f41-b8d85a35ece5","ios":"levelo://app?vid=a60c2fc6-3c5d-46cc-8f41-b8d85a35ece5"},"vehicle_type_id":"4","last_reported":1731424147,"current_range_meters":28000,"station_id":"ce4bh312rcd13ifvqdj0","pricing_plan_id":"cebpf4jnsgd1na2vs0mg"},{"bike_id":"23371319-3326-4e94-b694-68f01aa3521f","system_id":"levelo_inurba_marseille","lat":43.337444,"lon":5.374475,"is_reserved":false,"is_disabled":false,"rental_uris":{"android":"levelo://app?vid=23371319-3326-4e94-b694-68f01aa3521f","ios":"levelo://app?vid=23371319-3326-4e94-b694-68f01aa3521f"},"vehicle_type_id":"4","last_reported":1731424147,"current_range_meters":36800,"station_id":"","pricing_plan_id":"cebpf4jnsgd1na2vs0mg"},{"bike_id":"daafac50-d1fb-44ef-8ca3-984e6ad5772a","system_id":"levelo_inurba_marseille","lat":43.25938,"lon":5.40898,"is_reserved":false,"is_disabled":false,"rental_uris":{"android":"levelo://app?vid=daafac50-d1fb-44ef-8ca3-984e6ad5772a","ios":"levelo://app?vid=daafac50-d1fb-44ef-8ca3-984e6ad5772a"},"vehicle_type_id":"4","last_reported":1731424147,"current_range_meters":34000,"station_id":"ce4bhm92rcd13ifvqglg","pricing_plan_id":"cebpf4jnsgd1na2vs0mg"},{"bike_id":"b413ee38-7f10-424a-b89a-050f0b950f64","system_id":"levelo_inurba_marseille","lat":43.29522,"lon":5.39039,"is_reserved":false,"is_disabled":false,"rental_uris":{"android":"levelo://app?vid=b413ee38-7f10-424a-b89a-050f0b950f64","ios":"levelo://app?vid=b413ee38-7f10-424a-b89a-050f0b950f64"},"vehicle_type_id":"4","last_reported":1731424147,"current_range_meters":38800,"station_id":"ce4bh3p2rcd13ifvqdp0","pricing_plan_id":"cebpf4jnsgd1na2vs0mg"},{"bike_id":"15484e1f-9365-41e9-9d29-b59d458d508d","system_id":"levelo_inurba_marseille","lat":43.29298,"lon":5.37466,"is_reserved":false,"is_disabled":false,"rental_uris":{"android":"levelo://app?vid=15484e1f-9365-41e9-9d29-b59d458d508d","ios":"levelo://app?vid=15484e1f-9365-41e9-9d29-b59d458d508d"},"vehicle_type_id":"4","last_reported":1731424147,"current_range_meters":34800,"station_id":"ce4bgi12rcd13ifvqb70","pricing_plan_id":"cebpf4jnsgd1na2vs0mg"},{"bike_id":"c6f26955-ac6f-46fe-a49d-23d610a75287","system_id":"levelo_inurba_marseille","lat":43.31706,"lon":5.37746,"is_reserved":false,"is_disabled":false,"rental_uris":{"android":"levelo://app?vid=c6f26955-ac6f-46fe-a49d-23d610a75287","ios":"levelo://app?vid=c6f26955-ac6f-46fe-a49d-23d610a75287"},"vehicle_type_id":"4","last_reported":1731424147,"current_range_meters":28000,"station_id":"ce4bgth2rcd13ifvqch0","pricing_plan_id":"cebpf4jnsgd1na2vs0mg"},{"bike_id":"f6ec8717-1c2c-4c9c-90c5-29827b3ed065","system_id":"levelo_inurba_marseille","lat":43.28852,"lon":5.35863,"is_reserved":false,"is_disabled":false,"rental_uris":{"android":"levelo://app?vid=f6ec8717-1c2c-4c9c-90c5-29827b3ed065","ios":"levelo://app?vid=f6ec8717-1c2c-4c9c-90c5-29827b3ed065"},"vehicle_type_id":"4","last_reported":1731424147,"current_range_meters":38800,"station_id":"ce4bhb12rcd13ifvqem0","pricing_plan_id":"cebpf4jnsgd1na2vs0mg"},{"bike_id":"e4d8f0dd-43a2-4f26-8d98-25f8d913adf2","system_id":"levelo_inurba_marseille","lat":43.26556,"lon":5.39015,"is_reserved":false,"is_disabled":false,"rental_uris":{"android":"levelo://app?vid=e4d8f0dd-43a2-4f26-8d98-25f8d913adf2","ios":"levelo://app?vid=e4d8f0dd-43a2-4f26-8d98-25f8d913adf2"},"vehicle_type_id":"4","last_reported":1731424147,"current_range_meters":35600,"station_id":"ce4bhe12rcd13ifvqf30","pricing_plan_id":"cebpf4jnsgd1na2vs0mg"},{"bike_id":"e283ece9-f44a-4249-a146-3e8007c96da9","system_id":"levelo_inurba_marseille","lat":43.2911,"lon":5.38132,"is_reserved":false,"is_disabled":false,"rental_uris":{"android":"levelo://app?vid=e283ece9-f44a-4249-a146-3e8007c96da9","ios":"levelo://app?vid=e283ece9-f44a-4249-a146-3e8007c96da9"},"vehicle_type_id":"4","last_reported":1731424147,"current_range_meters":38800,"station_id":"ce4bh512rcd13ifvqe2g","pricing_plan_id":"cebpf4jnsgd1na2vs0mg"},{"bike_id":"d502d781-ddb6-4e5d-8f26-b54f907c73dd","system_id":"levelo_inurba_marseille","lat":43.29839,"lon":5.36276,"is_reserved":false,"is_disabled":false,"rental_uris":{"android":"levelo://app?vid=d502d781-ddb6-4e5d-8f26-b54f907c73dd","ios":"levelo://app?vid=d502d781-ddb6-4e5d-8f26-b54f907c73dd"},"vehicle_type_id":"4","last_reported":1731424147,"current_range_meters":14000,"station_id":"ce4bgpp2rcd13ifvqc3g","pricing_plan_id":"cebpf4jnsgd1na2vs0mg"},{"bike_id":"6339fb1a-3cd4-46c5-9b4c-c932b2f48b23","system_id":"levelo_inurba_marseille","lat":43.26949,"lon":5.38638,"is_reserved":false,"is_disabled":false,"rental_uris":{"android":"levelo://app?vid=6339fb1a-3cd4-46c5-9b4c-c932b2f48b23","ios":"levelo://app?vid=6339fb1a-3cd4-46c5-9b4c-c932b2f48b23"},"vehicle_type_id":"4","last_reported":1731424147,"current_range_meters":40000,"station_id":"ce4bhh92rcd13ifvqfh0","pricing_plan_id":"cebpf4jnsgd1na2vs0mg"},{"bike_id":"03840dff-9b4c-4683-8575-18faf0ec6939","system_id":"levelo_inurba_marseille","lat":43.33605,"lon":5.4103,"is_reserved":false,"is_disabled":false,"rental_uris":{"android":"levelo://app?vid=03840dff-9b4c-4683-8575-18faf0ec6939","ios":"levelo://app?vid=03840dff-9b4c-4683-8575-18faf0ec6939"},"vehicle_type_id":"4","last_reported":1731424147,"current_range_meters":36400,"station_id":"ce4bhq92rcd13ifvqhkg","pricing_plan_id":"cebpf4jnsgd1na2vs0mg"},{"bike_id":"fec10551-f379-49ba-9ca2-8a635f99a617","system_id":"levelo_inurba_marseille","lat":43.337444,"lon":5.374475,"is_reserved":false,"is_disabled":false,"rental_uris":{"android":"levelo://app?vid=fec10551-f379-49ba-9ca2-8a635f99a617","ios":"levelo://app?vid=fec10551-f379-49ba-9ca2-8a635f99a617"},"vehicle_type_id":"4","last_reported":1731424147,"current_range_meters":38800,"station_id":"","pricing_plan_id":"cebpf4jnsgd1na2vs0mg"},{"bike_id":"979b0182-b0c0-414a-ac99-0bb48afc867b","system_id":"levelo_inurba_marseille","lat":43.27402,"lon":5.38967,"is_reserved":false,"is_disabled":false,"rental_uris":{"android":"levelo://app?vid=979b0182-b0c0-414a-ac99-0bb48afc867b","ios":"levelo://app?vid=979b0182-b0c0-414a-ac99-0bb48afc867b"},"vehicle_type_id":"4","last_reported":1731424147,"current_range_meters":14000,"station_id":"","pricing_plan_id":"cebpf4jnsgd1na2vs0mg"},{"bike_id":"142da009-d378-4c59-a549-3240c3db1b2c","system_id":"levelo_inurba_marseille","lat":43.31121,"lon":5.37766,"is_reserved":false,"is_disabled":false,"rental_uris":{"android":"levelo://app?vid=142da009-d378-4c59-a549-3240c3db1b2c","ios":"levelo://app?vid=142da009-d378-4c59-a549-3240c3db1b2c"},"vehicle_type_id":"4","last_reported":1731424147,"current_range_meters":28800,"station_id":"ce4bgt92rcd13ifvqcg0","pricing_plan_id":"cebpf4jnsgd1na2vs0mg"},{"bike_id":"b0df53d8-4899-4a0b-858b-061d8f5798f2","system_id":"levelo_inurba_marseille","lat":43.23156,"lon":5.43727,"is_reserved":false,"is_disabled":false,"rental_uris":{"android":"levelo://app?vid=b0df53d8-4899-4a0b-858b-061d8f5798f2","ios":"levelo://app?vid=b0df53d8-4899-4a0b-858b-061d8f5798f2"},"vehicle_type_id":"4","last_reported":1731424147,"current_range_meters":39200,"station_id":"ce4bhmp2rcd13ifvqgog","pricing_plan_id":"cebpf4jnsgd1na2vs0mg"},{"bike_id":"3e8eb139-732e-4e53-8113-5faf858fed32","system_id":"levelo_inurba_marseille","lat":43.30891,"lon":5.37192,"is_reserved":false,"is_disabled":false,"rental_uris":{"android":"levelo://app?vid=3e8eb139-732e-4e53-8113-5faf858fed32","ios":"levelo://app?vid=3e8eb139-732e-4e53-8113-5faf858fed32"},"vehicle_type_id":"4","last_reported":1731424147,"current_range_meters":28400,"station_id":"ce4bguh2rcd13ifvqckg","pricing_plan_id":"cebpf4jnsgd1na2vs0mg"},{"bike_id":"ca8e5c5f-e3f7-4240-b01c-610c7aa768fb","system_id":"levelo_inurba_marseille","lat":43.26192,"lon":5.37446,"is_reserved":false,"is_disabled":false,"rental_uris":{"android":"levelo://app?vid=ca8e5c5f-e3f7-4240-b01c-610c7aa768fb","ios":"levelo://app?vid=ca8e5c5f-e3f7-4240-b01c-610c7aa768fb"},"vehicle_type_id":"4","last_reported":1731424147,"current_range_meters":36800,"station_id":"ce4bhgp2rcd13ifvqfc0","pricing_plan_id":"cebpf4jnsgd1na2vs0mg"},{"bike_id":"28153c25-77fc-4021-ad30-689d290a678f","system_id":"levelo_inurba_marseille","lat":43.33743,"lon":5.37447,"is_reserved":false,"is_disabled":false,"rental_uris":{"android":"levelo://app?vid=28153c25-77fc-4021-ad30-689d290a678f","ios":"levelo://app?vid=28153c25-77fc-4021-ad30-689d290a678f"},"vehicle_type_id":"4","last_reported":1731424147,"current_range_meters":38400,"station_id":"","pricing_plan_id":"cebpf4jnsgd1na2vs0mg"},{"bike_id":"94439e2b-8635-4929-91b1-01d80a24b23b","system_id":"levelo_inurba_marseille","lat":43.2407,"lon":5.37763,"is_reserved":false,"is_disabled":false,"rental_uris":{"android":"levelo://app?vid=94439e2b-8635-4929-91b1-01d80a24b23b","ios":"levelo://app?vid=94439e2b-8635-4929-91b1-01d80a24b23b"},"vehicle_type_id":"4","last_reported":1731424147,"current_range_meters":38800,"station_id":"ce4bhnp2rcd13ifvqgvg","pricing_plan_id":"cebpf4jnsgd1na2vs0mg"},{"bike_id":"c57a2136-8bfb-42b8-be03-7074bd692610","system_id":"levelo_inurba_marseille","lat":43.29304,"lon":5.38526,"is_reserved":false,"is_disabled":false,"rental_uris":{"android":"levelo://app?vid=c57a2136-8bfb-42b8-be03-7074bd692610","ios":"levelo://app?vid=c57a2136-8bfb-42b8-be03-7074bd692610"},"vehicle_type_id":"4","last_reported":1731424147,"current_range_meters":8800,"station_id":"ce4bh492rcd13ifvqdug","pricing_plan_id":"cebpf4jnsgd1na2vs0mg"},{"bike_id":"ac3319ff-f4fc-4a4a-9405-971d1f31dafa","system_id":"levelo_inurba_marseille","lat":43.25933,"lon":5.40906,"is_reserved":false,"is_disabled":false,"rental_uris":{"android":"levelo://app?vid=ac3319ff-f4fc-4a4a-9405-971d1f31dafa","ios":"levelo://app?vid=ac3319ff-f4fc-4a4a-9405-971d1f31dafa"},"vehicle_type_id":"4","last_reported":1731424147,"current_range_meters":32800,"station_id":"ce4bhm92rcd13ifvqglg","pricing_plan_id":"cebpf4jnsgd1na2vs0mg"},{"bike_id":"d03b96af-cef9-43ff-bbb9-126d7848b5bf","system_id":"levelo_inurba_marseille","lat":43.27049,"lon":5.40271,"is_reserved":false,"is_disabled":false,"rental_uris":{"android":"levelo://app?vid=d03b96af-cef9-43ff-bbb9-126d7848b5bf","ios":"levelo://app?vid=d03b96af-cef9-43ff-bbb9-126d7848b5bf"},"vehicle_type_id":"4","last_reported":1731424147,"current_range_meters":32000,"station_id":"ce4bhk92rcd13ifvqgc0","pricing_plan_id":"cebpf4jnsgd1na2vs0mg"},{"bike_id":"640a8c51-d5b4-4a2f-86db-339cff3ee8bc","system_id":"levelo_inurba_marseille","lat":43.24541,"lon":5.39527,"is_reserved":false,"is_disabled":false,"rental_uris":{"android":"levelo://app?vid=640a8c51-d5b4-4a2f-86db-339cff3ee8bc","ios":"levelo://app?vid=640a8c51-d5b4-4a2f-86db-339cff3ee8bc"},"vehicle_type_id":"4","last_reported":1731424147,"current_range_meters":38800,"station_id":"ce4bhlp2rcd13ifvqgjg","pricing_plan_id":"cebpf4jnsgd1na2vs0mg"},{"bike_id":"83483414-9af5-47a3-8fa9-34256c557167","system_id":"levelo_inurba_marseille","lat":43.26788,"lon":5.39411,"is_reserved":false,"is_disabled":false,"rental_uris":{"android":"levelo://app?vid=83483414-9af5-47a3-8fa9-34256c557167","ios":"levelo://app?vid=83483414-9af5-47a3-8fa9-34256c557167"},"vehicle_type_id":"4","last_reported":1731424147,"current_range_meters":29600,"station_id":"ce4bhh12rcd13ifvqfg0","pricing_plan_id":"cebpf4jnsgd1na2vs0mg"},{"bike_id":"26f65c16-8052-467b-bf54-96f7ebcfb747","system_id":"levelo_inurba_marseille","lat":43.3064,"lon":5.40106,"is_reserved":false,"is_disabled":false,"rental_uris":{"android":"levelo://app?vid=26f65c16-8052-467b-bf54-96f7ebcfb747","ios":"levelo://app?vid=26f65c16-8052-467b-bf54-96f7ebcfb747"},"vehicle_type_id":"4","last_reported":1731424147,"current_range_meters":38800,"station_id":"ce4bh112rcd13ifvqda0","pricing_plan_id":"cebpf4jnsgd1na2vs0mg"},{"bike_id":"a47de0d2-fa11-4e58-936c-b9a545aa01ef","system_id":"levelo_inurba_marseille","lat":43.24071,"lon":5.37771,"is_reserved":false,"is_disabled":false,"rental_uris":{"android":"levelo://app?vid=a47de0d2-fa11-4e58-936c-b9a545aa01ef","ios":"levelo://app?vid=a47de0d2-fa11-4e58-936c-b9a545aa01ef"},"vehicle_type_id":"4","last_reported":1731424147,"current_range_meters":34000,"station_id":"ce4bhnp2rcd13ifvqgvg","pricing_plan_id":"cebpf4jnsgd1na2vs0mg"},{"bike_id":"7832168a-b1f8-4615-9361-fcb7b7124a68","system_id":"levelo_inurba_marseille","lat":43.30541,"lon":5.3845,"is_reserved":false,"is_disabled":false,"rental_uris":{"android":"levelo://app?vid=7832168a-b1f8-4615-9361-fcb7b7124a68","ios":"levelo://app?vid=7832168a-b1f8-4615-9361-fcb7b7124a68"},"vehicle_type_id":"4","last_reported":1731424147,"current_range_meters":37600,"station_id":"ce4bgg92rcd13ifvqb30","pricing_plan_id":"cebpf4jnsgd1na2vs0mg"},{"bike_id":"2ef04947-c25c-4fe2-a891-7678bc8d660e","system_id":"levelo_inurba_marseille","lat":43.29688,"lon":5.37286,"is_reserved":false,"is_disabled":false,"rental_uris":{"android":"levelo://app?vid=2ef04947-c25c-4fe2-a891-7678bc8d660e","ios":"levelo://app?vid=2ef04947-c25c-4fe2-a891-7678bc8d660e"},"vehicle_type_id":"4","last_reported":1731424147,"current_range_meters":38400,"station_id":"ce4bgk12rcd13ifvqbj0","pricing_plan_id":"cebpf4jnsgd1na2vs0mg"},{"bike_id":"dc0b9bc4-be12-4c3c-a9e4-e232d1284ade","system_id":"levelo_inurba_marseille","lat":43.26562,"lon":5.3901,"is_reserved":false,"is_disabled":false,"rental_uris":{"android":"levelo://app?vid=dc0b9bc4-be12-4c3c-a9e4-e232d1284ade","ios":"levelo://app?vid=dc0b9bc4-be12-4c3c-a9e4-e232d1284ade"},"vehicle_type_id":"4","last_reported":1731424147,"current_range_meters":26800,"station_id":"ce4bhe12rcd13ifvqf30","pricing_plan_id":"cebpf4jnsgd1na2vs0mg"},{"bike_id":"c8e7954d-807c-42c4-9428-45b282cd8008","system_id":"levelo_inurba_marseille","lat":43.30208,"lon":5.39466,"is_reserved":false,"is_disabled":false,"rental_uris":{"android":"levelo://app?vid=c8e7954d-807c-42c4-9428-45b282cd8008","ios":"levelo://app?vid=c8e7954d-807c-42c4-9428-45b282cd8008"},"vehicle_type_id":"4","last_reported":1731424147,"current_range_meters":38800,"station_id":"ce4bh0p2rcd13ifvqd70","pricing_plan_id":"cebpf4jnsgd1na2vs0mg"},{"bike_id":"ff662199-ff74-4c0b-bff3-b1c4365f348b","system_id":"levelo_inurba_marseille","lat":43.24069,"lon":5.37748,"is_reserved":false,"is_disabled":false,"rental_uris":{"android":"levelo://app?vid=ff662199-ff74-4c0b-bff3-b1c4365f348b","ios":"levelo://app?vid=ff662199-ff74-4c0b-bff3-b1c4365f348b"},"vehicle_type_id":"4","last_reported":1731424147,"current_range_meters":35200,"station_id":"ce4bhnp2rcd13ifvqgvg","pricing_plan_id":"cebpf4jnsgd1na2vs0mg"},{"bike_id":"71a649ef-ed3c-4201-bbe7-3f4c92d1bb6e","system_id":"levelo_inurba_marseille","lat":43.2952,"lon":5.390366,"is_reserved":false,"is_disabled":false,"rental_uris":{"android":"levelo://app?vid=71a649ef-ed3c-4201-bbe7-3f4c92d1bb6e","ios":"levelo://app?vid=71a649ef-ed3c-4201-bbe7-3f4c92d1bb6e"},"vehicle_type_id":"4","last_reported":1731424147,"current_range_meters":33200,"station_id":"ce4bh3p2rcd13ifvqdp0","pricing_plan_id":"cebpf4jnsgd1na2vs0mg"},{"bike_id":"2ead6725-6e58-42f5-85a9-5b1e1a84dabb","system_id":"levelo_inurba_marseille","lat":43.25939,"lon":5.40907,"is_reserved":false,"is_disabled":false,"rental_uris":{"android":"levelo://app?vid=2ead6725-6e58-42f5-85a9-5b1e1a84dabb","ios":"levelo://app?vid=2ead6725-6e58-42f5-85a9-5b1e1a84dabb"},"vehicle_type_id":"4","last_reported":1731424147,"current_range_meters":32000,"station_id":"ce4bhm92rcd13ifvqglg","pricing_plan_id":"cebpf4jnsgd1na2vs0mg"},{"bike_id":"a8b10452-9f1a-43a7-93f0-d4a153b64fbf","system_id":"levelo_inurba_marseille","lat":43.23152,"lon":5.43728,"is_reserved":false,"is_disabled":false,"rental_uris":{"android":"levelo://app?vid=a8b10452-9f1a-43a7-93f0-d4a153b64fbf","ios":"levelo://app?vid=a8b10452-9f1a-43a7-93f0-d4a153b64fbf"},"vehicle_type_id":"4","last_reported":1731424147,"current_range_meters":38800,"station_id":"ce4bhmp2rcd13ifvqgog","pricing_plan_id":"cebpf4jnsgd1na2vs0mg"},{"bike_id":"8801a9ab-2cdf-4db6-a265-83c3b290056e","system_id":"levelo_inurba_marseille","lat":43.30082,"lon":5.39085,"is_reserved":false,"is_disabled":false,"rental_uris":{"android":"levelo://app?vid=8801a9ab-2cdf-4db6-a265-83c3b290056e","ios":"levelo://app?vid=8801a9ab-2cdf-4db6-a265-83c3b290056e"},"vehicle_type_id":"4","last_reported":1731424147,"current_range_meters":8000,"station_id":"ce4bh192rcd13ifvqdb0","pricing_plan_id":"cebpf4jnsgd1na2vs0mg"},{"bike_id":"dace8dfc-5f07-41cf-96fd-9ddd4b1c832d","system_id":"levelo_inurba_marseille","lat":43.269522,"lon":5.386289,"is_reserved":false,"is_disabled":false,"rental_uris":{"android":"levelo://app?vid=dace8dfc-5f07-41cf-96fd-9ddd4b1c832d","ios":"levelo://app?vid=dace8dfc-5f07-41cf-96fd-9ddd4b1c832d"},"vehicle_type_id":"4","last_reported":1731424147,"current_range_meters":16800,"station_id":"ce4bhh92rcd13ifvqfh0","pricing_plan_id":"cebpf4jnsgd1na2vs0mg"},{"bike_id":"b874e873-f005-4fef-805b-fd952d58a535","system_id":"levelo_inurba_marseille","lat":43.26217,"lon":5.37443,"is_reserved":false,"is_disabled":false,"rental_uris":{"android":"levelo://app?vid=b874e873-f005-4fef-805b-fd952d58a535","ios":"levelo://app?vid=b874e873-f005-4fef-805b-fd952d58a535"},"vehicle_type_id":"4","last_reported":1731424147,"current_range_meters":4000,"station_id":"ce4bhgp2rcd13ifvqfc0","pricing_plan_id":"cebpf4jnsgd1na2vs0mg"},{"bike_id":"e20e371e-0ac8-4f8a-8e0a-12e9bf345f5e","system_id":"levelo_inurba_marseille","lat":43.27069,"lon":5.42281,"is_reserved":false,"is_disabled":false,"rental_uris":{"android":"levelo://app?vid=e20e371e-0ac8-4f8a-8e0a-12e9bf345f5e","ios":"levelo://app?vid=e20e371e-0ac8-4f8a-8e0a-12e9bf345f5e"},"vehicle_type_id":"4","last_reported":1731424147,"current_range_meters":30800,"station_id":"ce4bhk92rcd13ifvqgb0","pricing_plan_id":"cebpf4jnsgd1na2vs0mg"},{"bike_id":"99fe04ba-75b4-4c70-a978-c87e600d26f2","system_id":"levelo_inurba_marseille","lat":43.29005,"lon":5.35615,"is_reserved":false,"is_disabled":false,"rental_uris":{"android":"levelo://app?vid=99fe04ba-75b4-4c70-a978-c87e600d26f2","ios":"levelo://app?vid=99fe04ba-75b4-4c70-a978-c87e600d26f2"},"vehicle_type_id":"4","last_reported":1731424147,"current_range_meters":33200,"station_id":"ce4bhb92rcd13ifvqen0","pricing_plan_id":"cebpf4jnsgd1na2vs0mg"},{"bike_id":"9233cbfc-3039-4b18-ae97-3be7b3743f94","system_id":"levelo_inurba_marseille","lat":43.29926,"lon":5.36545,"is_reserved":false,"is_disabled":false,"rental_uris":{"android":"levelo://app?vid=9233cbfc-3039-4b18-ae97-3be7b3743f94","ios":"levelo://app?vid=9233cbfc-3039-4b18-ae97-3be7b3743f94"},"vehicle_type_id":"4","last_reported":1731424147,"current_range_meters":16800,"station_id":"ce4bgm92rcd13ifvqbr0","pricing_plan_id":"cebpf4jnsgd1na2vs0mg"},{"bike_id":"a7fa391a-5e9a-4306-ab89-3411e5df4996","system_id":"levelo_inurba_marseille","lat":43.33019,"lon":5.39027,"is_reserved":false,"is_disabled":false,"rental_uris":{"android":"levelo://app?vid=a7fa391a-5e9a-4306-ab89-3411e5df4996","ios":"levelo://app?vid=a7fa391a-5e9a-4306-ab89-3411e5df4996"},"vehicle_type_id":"4","last_reported":1731424147,"current_range_meters":38000,"station_id":"ce4bhr92rcd13ifvqhrg","pricing_plan_id":"cebpf4jnsgd1na2vs0mg"},{"bike_id":"5817e958-deb7-4799-af1a-ed194ead4717","system_id":"levelo_inurba_marseille","lat":43.29196,"lon":5.39324,"is_reserved":false,"is_disabled":false,"rental_uris":{"android":"levelo://app?vid=5817e958-deb7-4799-af1a-ed194ead4717","ios":"levelo://app?vid=5817e958-deb7-4799-af1a-ed194ead4717"},"vehicle_type_id":"4","last_reported":1731424147,"current_range_meters":38800,"station_id":"ce4bh192rcd13ifvqdd0","pricing_plan_id":"cebpf4jnsgd1na2vs0mg"},{"bike_id":"5b43c497-1004-47a9-9ab6-ddfd468ee01e","system_id":"levelo_inurba_marseille","lat":43.28978,"lon":5.37844,"is_reserved":false,"is_disabled":false,"rental_uris":{"android":"levelo://app?vid=5b43c497-1004-47a9-9ab6-ddfd468ee01e","ios":"levelo://app?vid=5b43c497-1004-47a9-9ab6-ddfd468ee01e"},"vehicle_type_id":"4","last_reported":1731424147,"current_range_meters":25200,"station_id":"ce4bh9p2rcd13ifvqed0","pricing_plan_id":"cebpf4jnsgd1na2vs0mg"},{"bike_id":"42d52a67-a111-45ff-b216-f95ab26ba86a","system_id":"levelo_inurba_marseille","lat":43.30539,"lon":5.36548,"is_reserved":false,"is_disabled":false,"rental_uris":{"android":"levelo://app?vid=42d52a67-a111-45ff-b216-f95ab26ba86a","ios":"levelo://app?vid=42d52a67-a111-45ff-b216-f95ab26ba86a"},"vehicle_type_id":"4","last_reported":1731424147,"current_range_meters":32000,"station_id":"ce4bgs12rcd13ifvqcag","pricing_plan_id":"cebpf4jnsgd1na2vs0mg"},{"bike_id":"c5e48c76-8416-4ddf-b205-1665e45f83aa","system_id":"levelo_inurba_marseille","lat":43.22916,"lon":5.35373,"is_reserved":false,"is_disabled":false,"rental_uris":{"android":"levelo://app?vid=c5e48c76-8416-4ddf-b205-1665e45f83aa","ios":"levelo://app?vid=c5e48c76-8416-4ddf-b205-1665e45f83aa"},"vehicle_type_id":"4","last_reported":1731424147,"current_range_meters":36000,"station_id":"cpo3532slgdg3j2ikp40","pricing_plan_id":"cebpf4jnsgd1na2vs0mg"},{"bike_id":"51de079a-4713-4220-aef5-8906afb2ba42","system_id":"levelo_inurba_marseille","lat":43.28104,"lon":5.3785,"is_reserved":false,"is_disabled":false,"rental_uris":{"android":"levelo://app?vid=51de079a-4713-4220-aef5-8906afb2ba42","ios":"levelo://app?vid=51de079a-4713-4220-aef5-8906afb2ba42"},"vehicle_type_id":"4","last_reported":1731424147,"current_range_meters":34800,"station_id":"ce4bha12rcd13ifvqee0","pricing_plan_id":"cebpf4jnsgd1na2vs0mg"},{"bike_id":"9bccf8f7-f51f-4c68-bdf5-738fde987b81","system_id":"levelo_inurba_marseille","lat":43.3126,"lon":5.40183,"is_reserved":false,"is_disabled":false,"rental_uris":{"android":"levelo://app?vid=9bccf8f7-f51f-4c68-bdf5-738fde987b81","ios":"levelo://app?vid=9bccf8f7-f51f-4c68-bdf5-738fde987b81"},"vehicle_type_id":"4","last_reported":1731424147,"current_range_meters":37600,"station_id":"ce4bh092rcd13ifvqd30","pricing_plan_id":"cebpf4jnsgd1na2vs0mg"},{"bike_id":"d3d88389-bd60-4947-8db6-b3fd375e6183","system_id":"levelo_inurba_marseille","lat":43.23951,"lon":5.36638,"is_reserved":false,"is_disabled":false,"rental_uris":{"android":"levelo://app?vid=d3d88389-bd60-4947-8db6-b3fd375e6183","ios":"levelo://app?vid=d3d88389-bd60-4947-8db6-b3fd375e6183"},"vehicle_type_id":"4","last_reported":1731424147,"current_range_meters":36800,"station_id":"ce4bhi12rcd13ifvqfp0","pricing_plan_id":"cebpf4jnsgd1na2vs0mg"},{"bike_id":"6affe10b-211a-4891-9384-227ee69896db","system_id":"levelo_inurba_marseille","lat":43.29103,"lon":5.38141,"is_reserved":false,"is_disabled":false,"rental_uris":{"android":"levelo://app?vid=6affe10b-211a-4891-9384-227ee69896db","ios":"levelo://app?vid=6affe10b-211a-4891-9384-227ee69896db"},"vehicle_type_id":"4","last_reported":1731424147,"current_range_meters":38000,"station_id":"ce4bh512rcd13ifvqe2g","pricing_plan_id":"cebpf4jnsgd1na2vs0mg"},{"bike_id":"9b5a3a92-5740-4277-bcb0-01249ff40604","system_id":"levelo_inurba_marseille","lat":43.27976,"lon":5.38755,"is_reserved":false,"is_disabled":false,"rental_uris":{"android":"levelo://app?vid=9b5a3a92-5740-4277-bcb0-01249ff40604","ios":"levelo://app?vid=9b5a3a92-5740-4277-bcb0-01249ff40604"},"vehicle_type_id":"4","last_reported":1731424147,"current_range_meters":38800,"station_id":"ce4bhg12rcd13ifvqf80","pricing_plan_id":"cebpf4jnsgd1na2vs0mg"},{"bike_id":"efaf3c89-c625-4f37-920f-f90a22a85e67","system_id":"levelo_inurba_marseille","lat":43.29598,"lon":5.38104,"is_reserved":false,"is_disabled":false,"rental_uris":{"android":"levelo://app?vid=efaf3c89-c625-4f37-920f-f90a22a85e67","ios":"levelo://app?vid=efaf3c89-c625-4f37-920f-f90a22a85e67"},"vehicle_type_id":"4","last_reported":1731424147,"current_range_meters":32400,"station_id":"ce4bgl12rcd13ifvqbo0","pricing_plan_id":"cebpf4jnsgd1na2vs0mg"},{"bike_id":"dddb1049-3a46-4c29-a01f-ae4450eacc0d","system_id":"levelo_inurba_marseille","lat":43.294464,"lon":5.397878,"is_reserved":false,"is_disabled":false,"rental_uris":{"android":"levelo://app?vid=dddb1049-3a46-4c29-a01f-ae4450eacc0d","ios":"levelo://app?vid=dddb1049-3a46-4c29-a01f-ae4450eacc0d"},"vehicle_type_id":"4","last_reported":1731424147,"current_range_meters":33600,"station_id":"ce4bh3h2rcd13ifvqdo0","pricing_plan_id":"cebpf4jnsgd1na2vs0mg"},{"bike_id":"c4462b4f-07ed-4b5e-bf6e-9a1af451a07e","system_id":"levelo_inurba_marseille","lat":43.29621,"lon":5.37164,"is_reserved":false,"is_disabled":false,"rental_uris":{"android":"levelo://app?vid=c4462b4f-07ed-4b5e-bf6e-9a1af451a07e","ios":"levelo://app?vid=c4462b4f-07ed-4b5e-bf6e-9a1af451a07e"},"vehicle_type_id":"4","last_reported":1731424147,"current_range_meters":28000,"station_id":"ce4bgnh2rcd13ifvqc0g","pricing_plan_id":"cebpf4jnsgd1na2vs0mg"},{"bike_id":"791345a1-d078-467a-b22f-33b43d0b3aa5","system_id":"levelo_inurba_marseille","lat":43.337444,"lon":5.374475,"is_reserved":false,"is_disabled":false,"rental_uris":{"android":"levelo://app?vid=791345a1-d078-467a-b22f-33b43d0b3aa5","ios":"levelo://app?vid=791345a1-d078-467a-b22f-33b43d0b3aa5"},"vehicle_type_id":"4","last_reported":1731424147,"current_range_meters":38000,"station_id":"","pricing_plan_id":"cebpf4jnsgd1na2vs0mg"},{"bike_id":"daa6014d-57d3-43d2-b22f-811394452eba","system_id":"levelo_inurba_marseille","lat":43.23151,"lon":5.43724,"is_reserved":false,"is_disabled":false,"rental_uris":{"android":"levelo://app?vid=daa6014d-57d3-43d2-b22f-811394452eba","ios":"levelo://app?vid=daa6014d-57d3-43d2-b22f-811394452eba"},"vehicle_type_id":"4","last_reported":1731424147,"current_range_meters":39200,"station_id":"ce4bhmp2rcd13ifvqgog","pricing_plan_id":"cebpf4jnsgd1na2vs0mg"},{"bike_id":"e403f88f-668d-45d1-9955-21fad772752a","system_id":"levelo_inurba_marseille","lat":43.30311,"lon":5.3691,"is_reserved":false,"is_disabled":false,"rental_uris":{"android":"levelo://app?vid=e403f88f-668d-45d1-9955-21fad772752a","ios":"levelo://app?vid=e403f88f-668d-45d1-9955-21fad772752a"},"vehicle_type_id":"4","last_reported":1731424147,"current_range_meters":38000,"station_id":"ce4bgqh2rcd13ifvqc5g","pricing_plan_id":"cebpf4jnsgd1na2vs0mg"},{"bike_id":"16efff65-970a-4325-b56d-fd0a0df56e3d","system_id":"levelo_inurba_marseille","lat":43.2695,"lon":5.38656,"is_reserved":false,"is_disabled":false,"rental_uris":{"android":"levelo://app?vid=16efff65-970a-4325-b56d-fd0a0df56e3d","ios":"levelo://app?vid=16efff65-970a-4325-b56d-fd0a0df56e3d"},"vehicle_type_id":"4","last_reported":1731424147,"current_range_meters":3600,"station_id":"ce4bhh92rcd13ifvqfh0","pricing_plan_id":"cebpf4jnsgd1na2vs0mg"},{"bike_id":"91526d85-6d2f-4b0d-b668-d1a556d90682","system_id":"levelo_inurba_marseille","lat":43.31999,"lon":5.38161,"is_reserved":false,"is_disabled":false,"rental_uris":{"android":"levelo://app?vid=91526d85-6d2f-4b0d-b668-d1a556d90682","ios":"levelo://app?vid=91526d85-6d2f-4b0d-b668-d1a556d90682"},"vehicle_type_id":"4","last_reported":1731424147,"current_range_meters":39200,"station_id":"ce4bhr12rcd13ifvqhpg","pricing_plan_id":"cebpf4jnsgd1na2vs0mg"},{"bike_id":"271dc1bf-347d-4d1f-8f2f-67d6f4b07cb2","system_id":"levelo_inurba_marseille","lat":43.30936,"lon":5.40145,"is_reserved":false,"is_disabled":false,"rental_uris":{"android":"levelo://app?vid=271dc1bf-347d-4d1f-8f2f-67d6f4b07cb2","ios":"levelo://app?vid=271dc1bf-347d-4d1f-8f2f-67d6f4b07cb2"},"vehicle_type_id":"4","last_reported":1731424147,"current_range_meters":38800,"station_id":"ce4bgvp2rcd13ifvqct0","pricing_plan_id":"cebpf4jnsgd1na2vs0mg"},{"bike_id":"6f655731-0f7c-4f96-875e-fec0ed1714eb","system_id":"levelo_inurba_marseille","lat":43.27174,"lon":5.40996,"is_reserved":false,"is_disabled":false,"rental_uris":{"android":"levelo://app?vid=6f655731-0f7c-4f96-875e-fec0ed1714eb","ios":"levelo://app?vid=6f655731-0f7c-4f96-875e-fec0ed1714eb"},"vehicle_type_id":"4","last_reported":1731424147,"current_range_meters":36400,"station_id":"ce4bhl12rcd13ifvqgf0","pricing_plan_id":"cebpf4jnsgd1na2vs0mg"},{"bike_id":"4d12bd78-524f-459e-9d71-db1e9b3e042f","system_id":"levelo_inurba_marseille","lat":43.2695,"lon":5.38636,"is_reserved":false,"is_disabled":false,"rental_uris":{"android":"levelo://app?vid=4d12bd78-524f-459e-9d71-db1e9b3e042f","ios":"levelo://app?vid=4d12bd78-524f-459e-9d71-db1e9b3e042f"},"vehicle_type_id":"4","last_reported":1731424147,"current_range_meters":33600,"station_id":"ce4bhh92rcd13ifvqfh0","pricing_plan_id":"cebpf4jnsgd1na2vs0mg"},{"bike_id":"e1f2424d-96e3-41c7-9f8d-6dd18a27c6ce","system_id":"levelo_inurba_marseille","lat":43.27427,"lon":5.39416,"is_reserved":false,"is_disabled":false,"rental_uris":{"android":"levelo://app?vid=e1f2424d-96e3-41c7-9f8d-6dd18a27c6ce","ios":"levelo://app?vid=e1f2424d-96e3-41c7-9f8d-6dd18a27c6ce"},"vehicle_type_id":"4","last_reported":1731424147,"current_range_meters":39200,"station_id":"ce4bhdp2rcd13ifvqf20","pricing_plan_id":"cebpf4jnsgd1na2vs0mg"},{"bike_id":"07462640-5a0e-4a22-8313-b0645a14d0f9","system_id":"levelo_inurba_marseille","lat":43.29903,"lon":5.38144,"is_reserved":false,"is_disabled":false,"rental_uris":{"android":"levelo://app?vid=07462640-5a0e-4a22-8313-b0645a14d0f9","ios":"levelo://app?vid=07462640-5a0e-4a22-8313-b0645a14d0f9"},"vehicle_type_id":"4","last_reported":1731424147,"current_range_meters":36800,"station_id":"ce4bgj12rcd13ifvqbc0","pricing_plan_id":"cebpf4jnsgd1na2vs0mg"},{"bike_id":"0db11cc2-43df-43d4-ba1f-54e31097abf2","system_id":"levelo_inurba_marseille","lat":43.26944,"lon":5.40251,"is_reserved":false,"is_disabled":false,"rental_uris":{"android":"levelo://app?vid=0db11cc2-43df-43d4-ba1f-54e31097abf2","ios":"levelo://app?vid=0db11cc2-43df-43d4-ba1f-54e31097abf2"},"vehicle_type_id":"4","last_reported":1731424147,"current_range_meters":37600,"station_id":"cjm6bp8fraef2m0cb0m0","pricing_plan_id":"cebpf4jnsgd1na2vs0mg"},{"bike_id":"f0a40cc6-a1da-4af9-a14b-5e586331dd8e","system_id":"levelo_inurba_marseille","lat":43.29912,"lon":5.37478,"is_reserved":false,"is_disabled":false,"rental_uris":{"android":"levelo://app?vid=f0a40cc6-a1da-4af9-a14b-5e586331dd8e","ios":"levelo://app?vid=f0a40cc6-a1da-4af9-a14b-5e586331dd8e"},"vehicle_type_id":"4","last_reported":1731424147,"current_range_meters":8000,"station_id":"ce4bgjh2rcd13ifvqbg0","pricing_plan_id":"cebpf4jnsgd1na2vs0mg"},{"bike_id":"c1b8d31c-a84c-452b-a37c-c4439ca46883","system_id":"levelo_inurba_marseille","lat":43.28666,"lon":5.36353,"is_reserved":false,"is_disabled":false,"rental_uris":{"android":"levelo://app?vid=c1b8d31c-a84c-452b-a37c-c4439ca46883","ios":"levelo://app?vid=c1b8d31c-a84c-452b-a37c-c4439ca46883"},"vehicle_type_id":"4","last_reported":1731424147,"current_range_meters":30800,"station_id":"ce4bhah2rcd13ifvqej0","pricing_plan_id":"cebpf4jnsgd1na2vs0mg"},{"bike_id":"690959e1-32d7-492f-a674-cbcd4a6a2909","system_id":"levelo_inurba_marseille","lat":43.27906,"lon":5.39589,"is_reserved":false,"is_disabled":false,"rental_uris":{"android":"levelo://app?vid=690959e1-32d7-492f-a674-cbcd4a6a2909","ios":"levelo://app?vid=690959e1-32d7-492f-a674-cbcd4a6a2909"},"vehicle_type_id":"4","last_reported":1731424147,"current_range_meters":36000,"station_id":"ce4bhf92rcd13ifvqf40","pricing_plan_id":"cebpf4jnsgd1na2vs0mg"},{"bike_id":"0130f855-18f4-460a-bee1-538e2520dcf5","system_id":"levelo_inurba_marseille","lat":43.29723,"lon":5.37688,"is_reserved":false,"is_disabled":false,"rental_uris":{"android":"levelo://app?vid=0130f855-18f4-460a-bee1-538e2520dcf5","ios":"levelo://app?vid=0130f855-18f4-460a-bee1-538e2520dcf5"},"vehicle_type_id":"4","last_reported":1731424147,"current_range_meters":38400,"station_id":"ce4bgkh2rcd13ifvqbl0","pricing_plan_id":"cebpf4jnsgd1na2vs0mg"},{"bike_id":"f22db18d-ed7c-4f26-baf3-3d94fdf44b53","system_id":"levelo_inurba_marseille","lat":43.29865,"lon":5.39742,"is_reserved":false,"is_disabled":false,"rental_uris":{"android":"levelo://app?vid=f22db18d-ed7c-4f26-baf3-3d94fdf44b53","ios":"levelo://app?vid=f22db18d-ed7c-4f26-baf3-3d94fdf44b53"},"vehicle_type_id":"4","last_reported":1731424147,"current_range_meters":35200,"station_id":"ce4bh0h2rcd13ifvqd50","pricing_plan_id":"cebpf4jnsgd1na2vs0mg"},{"bike_id":"b175fc3a-5fbc-44e3-8b8b-1ddadac77faf","system_id":"levelo_inurba_marseille","lat":43.23964,"lon":5.36632,"is_reserved":false,"is_disabled":false,"rental_uris":{"android":"levelo://app?vid=b175fc3a-5fbc-44e3-8b8b-1ddadac77faf","ios":"levelo://app?vid=b175fc3a-5fbc-44e3-8b8b-1ddadac77faf"},"vehicle_type_id":"4","last_reported":1731424147,"current_range_meters":38400,"station_id":"ce4bhi12rcd13ifvqfp0","pricing_plan_id":"cebpf4jnsgd1na2vs0mg"},{"bike_id":"58f18ecf-ad63-4b43-bcdf-8c1e9fb66eea","system_id":"levelo_inurba_marseille","lat":43.27071,"lon":5.42288,"is_reserved":false,"is_disabled":false,"rental_uris":{"android":"levelo://app?vid=58f18ecf-ad63-4b43-bcdf-8c1e9fb66eea","ios":"levelo://app?vid=58f18ecf-ad63-4b43-bcdf-8c1e9fb66eea"},"vehicle_type_id":"4","last_reported":1731424147,"current_range_meters":22400,"station_id":"ce4bhk92rcd13ifvqgb0","pricing_plan_id":"cebpf4jnsgd1na2vs0mg"},{"bike_id":"54f971ab-1cab-4301-b5de-ecfc17914b9d","system_id":"levelo_inurba_marseille","lat":43.29592,"lon":5.38101,"is_reserved":false,"is_disabled":false,"rental_uris":{"android":"levelo://app?vid=54f971ab-1cab-4301-b5de-ecfc17914b9d","ios":"levelo://app?vid=54f971ab-1cab-4301-b5de-ecfc17914b9d"},"vehicle_type_id":"4","last_reported":1731424147,"current_range_meters":25600,"station_id":"ce4bgl12rcd13ifvqbo0","pricing_plan_id":"cebpf4jnsgd1na2vs0mg"},{"bike_id":"f5be6ea2-55dc-4767-97ac-719f493254ce","system_id":"levelo_inurba_marseille","lat":43.304176,"lon":5.397375,"is_reserved":false,"is_disabled":false,"rental_uris":{"android":"levelo://app?vid=f5be6ea2-55dc-4767-97ac-719f493254ce","ios":"levelo://app?vid=f5be6ea2-55dc-4767-97ac-719f493254ce"},"vehicle_type_id":"4","last_reported":1731424147,"current_range_meters":36800,"station_id":"ce4bh092rcd13ifvqd20","pricing_plan_id":"cebpf4jnsgd1na2vs0mg"},{"bike_id":"e62bb96a-ded7-4199-85d5-f7da5543f92d","system_id":"levelo_inurba_marseille","lat":43.30248,"lon":5.40084,"is_reserved":false,"is_disabled":false,"rental_uris":{"android":"levelo://app?vid=e62bb96a-ded7-4199-85d5-f7da5543f92d","ios":"levelo://app?vid=e62bb96a-ded7-4199-85d5-f7da5543f92d"},"vehicle_type_id":"4","last_reported":1731424147,"current_range_meters":6800,"station_id":"ce4bgvh2rcd13ifvqcs0","pricing_plan_id":"cebpf4jnsgd1na2vs0mg"},{"bike_id":"122db86c-23d1-49d5-a47e-6033265dedd5","system_id":"levelo_inurba_marseille","lat":43.2593,"lon":5.40914,"is_reserved":false,"is_disabled":false,"rental_uris":{"android":"levelo://app?vid=122db86c-23d1-49d5-a47e-6033265dedd5","ios":"levelo://app?vid=122db86c-23d1-49d5-a47e-6033265dedd5"},"vehicle_type_id":"4","last_reported":1731424147,"current_range_meters":37600,"station_id":"ce4bhm92rcd13ifvqglg","pricing_plan_id":"cebpf4jnsgd1na2vs0mg"},{"bike_id":"92f198a1-8338-4b94-9765-3290f947b276","system_id":"levelo_inurba_marseille","lat":43.27961,"lon":5.38755,"is_reserved":false,"is_disabled":false,"rental_uris":{"android":"levelo://app?vid=92f198a1-8338-4b94-9765-3290f947b276","ios":"levelo://app?vid=92f198a1-8338-4b94-9765-3290f947b276"},"vehicle_type_id":"4","last_reported":1731424147,"current_range_meters":24400,"station_id":"ce4bhg12rcd13ifvqf80","pricing_plan_id":"cebpf4jnsgd1na2vs0mg"},{"bike_id":"aac01b64-c8f8-4f0f-aeeb-a88c06ec5297","system_id":"levelo_inurba_marseille","lat":43.2695,"lon":5.38632,"is_reserved":false,"is_disabled":false,"rental_uris":{"android":"levelo://app?vid=aac01b64-c8f8-4f0f-aeeb-a88c06ec5297","ios":"levelo://app?vid=aac01b64-c8f8-4f0f-aeeb-a88c06ec5297"},"vehicle_type_id":"4","last_reported":1731424147,"current_range_meters":32000,"station_id":"ce4bhh92rcd13ifvqfh0","pricing_plan_id":"cebpf4jnsgd1na2vs0mg"},{"bike_id":"3f7f3df8-50d9-475f-8a41-f4a7ada046d4","system_id":"levelo_inurba_marseille","lat":43.31571,"lon":5.37278,"is_reserved":false,"is_disabled":false,"rental_uris":{"android":"levelo://app?vid=3f7f3df8-50d9-475f-8a41-f4a7ada046d4","ios":"levelo://app?vid=3f7f3df8-50d9-475f-8a41-f4a7ada046d4"},"vehicle_type_id":"4","last_reported":1731424147,"current_range_meters":28000,"station_id":"","pricing_plan_id":"cebpf4jnsgd1na2vs0mg"},{"bike_id":"1ef37466-28db-47c0-bc67-a4a8793f27f7","system_id":"levelo_inurba_marseille","lat":43.284782,"lon":5.392287,"is_reserved":false,"is_disabled":false,"rental_uris":{"android":"levelo://app?vid=1ef37466-28db-47c0-bc67-a4a8793f27f7","ios":"levelo://app?vid=1ef37466-28db-47c0-bc67-a4a8793f27f7"},"vehicle_type_id":"4","last_reported":1731424147,"current_range_meters":36400,"station_id":"ce4bhoh2rcd13ifvqh5g","pricing_plan_id":"cebpf4jnsgd1na2vs0mg"},{"bike_id":"b22f2a40-0b1b-4953-aa00-f14d5aaab638","system_id":"levelo_inurba_marseille","lat":43.29041,"lon":5.39965,"is_reserved":false,"is_disabled":false,"rental_uris":{"android":"levelo://app?vid=b22f2a40-0b1b-4953-aa00-f14d5aaab638","ios":"levelo://app?vid=b22f2a40-0b1b-4953-aa00-f14d5aaab638"},"vehicle_type_id":"4","last_reported":1731424147,"current_range_meters":31200,"station_id":"ce4bh392rcd13ifvqdm0","pricing_plan_id":"cebpf4jnsgd1na2vs0mg"},{"bike_id":"6d1a9a23-bc6b-425f-bdd4-9f846113ef71","system_id":"levelo_inurba_marseille","lat":43.240818,"lon":5.377402,"is_reserved":false,"is_disabled":false,"rental_uris":{"android":"levelo://app?vid=6d1a9a23-bc6b-425f-bdd4-9f846113ef71","ios":"levelo://app?vid=6d1a9a23-bc6b-425f-bdd4-9f846113ef71"},"vehicle_type_id":"4","last_reported":1731424147,"current_range_meters":8400,"station_id":"ce4bhnp2rcd13ifvqgvg","pricing_plan_id":"cebpf4jnsgd1na2vs0mg"},{"bike_id":"04375189-2186-40f2-9df2-e2bd071e3202","system_id":"levelo_inurba_marseille","lat":43.28567,"lon":5.39494,"is_reserved":false,"is_disabled":false,"rental_uris":{"android":"levelo://app?vid=04375189-2186-40f2-9df2-e2bd071e3202","ios":"levelo://app?vid=04375189-2186-40f2-9df2-e2bd071e3202"},"vehicle_type_id":"4","last_reported":1731424147,"current_range_meters":38000,"station_id":"ce4bh292rcd13ifvqdg0","pricing_plan_id":"cebpf4jnsgd1na2vs0mg"},{"bike_id":"d5426224-b207-4ac9-92ce-42ade048fe02","system_id":"levelo_inurba_marseille","lat":43.30545,"lon":5.36547,"is_reserved":false,"is_disabled":false,"rental_uris":{"android":"levelo://app?vid=d5426224-b207-4ac9-92ce-42ade048fe02","ios":"levelo://app?vid=d5426224-b207-4ac9-92ce-42ade048fe02"},"vehicle_type_id":"4","last_reported":1731424147,"current_range_meters":28000,"station_id":"ce4bgs12rcd13ifvqcag","pricing_plan_id":"cebpf4jnsgd1na2vs0mg"},{"bike_id":"bd179322-09c9-4287-b881-13beea03cab1","system_id":"levelo_inurba_marseille","lat":43.294253,"lon":5.386312,"is_reserved":false,"is_disabled":false,"rental_uris":{"android":"levelo://app?vid=bd179322-09c9-4287-b881-13beea03cab1","ios":"levelo://app?vid=bd179322-09c9-4287-b881-13beea03cab1"},"vehicle_type_id":"4","last_reported":1731424147,"current_range_meters":32400,"station_id":"ce4bh2h2rcd13ifvqdh0","pricing_plan_id":"cebpf4jnsgd1na2vs0mg"},{"bike_id":"cf030a69-a16e-413f-8391-bbfc07e67c31","system_id":"levelo_inurba_marseille","lat":43.28371,"lon":5.38638,"is_reserved":false,"is_disabled":false,"rental_uris":{"android":"levelo://app?vid=cf030a69-a16e-413f-8391-bbfc07e67c31","ios":"levelo://app?vid=cf030a69-a16e-413f-8391-bbfc07e67c31"},"vehicle_type_id":"4","last_reported":1731424147,"current_range_meters":27600,"station_id":"ce4bh492rcd13ifvqdvg","pricing_plan_id":"cebpf4jnsgd1na2vs0mg"},{"bike_id":"a2713e59-5f4b-4a7c-90d1-54f5f802a964","system_id":"levelo_inurba_marseille","lat":43.27993,"lon":5.40019,"is_reserved":false,"is_disabled":false,"rental_uris":{"android":"levelo://app?vid=a2713e59-5f4b-4a7c-90d1-54f5f802a964","ios":"levelo://app?vid=a2713e59-5f4b-4a7c-90d1-54f5f802a964"},"vehicle_type_id":"4","last_reported":1731424147,"current_range_meters":36800,"station_id":"ce4bho92rcd13ifvqh4g","pricing_plan_id":"cebpf4jnsgd1na2vs0mg"},{"bike_id":"99b1f1e7-062b-47cb-9aa9-34dfc0e8dfb8","system_id":"levelo_inurba_marseille","lat":43.31757,"lon":5.39026,"is_reserved":false,"is_disabled":false,"rental_uris":{"android":"levelo://app?vid=99b1f1e7-062b-47cb-9aa9-34dfc0e8dfb8","ios":"levelo://app?vid=99b1f1e7-062b-47cb-9aa9-34dfc0e8dfb8"},"vehicle_type_id":"4","last_reported":1731424147,"current_range_meters":8400,"station_id":"ce4bhqp2rcd13ifvqhng","pricing_plan_id":"cebpf4jnsgd1na2vs0mg"},{"bike_id":"0fa4e1b1-2fba-415a-9413-923835308bde","system_id":"levelo_inurba_marseille","lat":43.25579,"lon":5.38225,"is_reserved":false,"is_disabled":false,"rental_uris":{"android":"levelo://app?vid=0fa4e1b1-2fba-415a-9413-923835308bde","ios":"levelo://app?vid=0fa4e1b1-2fba-415a-9413-923835308bde"},"vehicle_type_id":"4","last_reported":1731424147,"current_range_meters":15200,"station_id":"ce4bhih2rcd13ifvqfs0","pricing_plan_id":"cebpf4jnsgd1na2vs0mg"},{"bike_id":"215ac4fa-64b5-4064-a0cb-691d109bb1b8","system_id":"levelo_inurba_marseille","lat":43.29846,"lon":5.36264,"is_reserved":false,"is_disabled":false,"rental_uris":{"android":"levelo://app?vid=215ac4fa-64b5-4064-a0cb-691d109bb1b8","ios":"levelo://app?vid=215ac4fa-64b5-4064-a0cb-691d109bb1b8"},"vehicle_type_id":"4","last_reported":1731424147,"current_range_meters":19200,"station_id":"ce4bgpp2rcd13ifvqc3g","pricing_plan_id":"cebpf4jnsgd1na2vs0mg"},{"bike_id":"c10412c8-e862-49dc-aee4-955dedb40d46","system_id":"levelo_inurba_marseille","lat":43.29898,"lon":5.38137,"is_reserved":false,"is_disabled":false,"rental_uris":{"android":"levelo://app?vid=c10412c8-e862-49dc-aee4-955dedb40d46","ios":"levelo://app?vid=c10412c8-e862-49dc-aee4-955dedb40d46"},"vehicle_type_id":"4","last_reported":1731424147,"current_range_meters":36000,"station_id":"ce4bgj12rcd13ifvqbc0","pricing_plan_id":"cebpf4jnsgd1na2vs0mg"},{"bike_id":"e92c5947-6d80-41ba-aecc-06ded8281947","system_id":"levelo_inurba_marseille","lat":43.32483,"lon":5.36575,"is_reserved":false,"is_disabled":false,"rental_uris":{"android":"levelo://app?vid=e92c5947-6d80-41ba-aecc-06ded8281947","ios":"levelo://app?vid=e92c5947-6d80-41ba-aecc-06ded8281947"},"vehicle_type_id":"4","last_reported":1731424147,"current_range_meters":37600,"station_id":"ce4bhs12rcd13ifvqhvg","pricing_plan_id":"cebpf4jnsgd1na2vs0mg"},{"bike_id":"0625f123-144e-4825-a568-156272e7a978","system_id":"levelo_inurba_marseille","lat":43.30552,"lon":5.36553,"is_reserved":false,"is_disabled":false,"rental_uris":{"android":"levelo://app?vid=0625f123-144e-4825-a568-156272e7a978","ios":"levelo://app?vid=0625f123-144e-4825-a568-156272e7a978"},"vehicle_type_id":"4","last_reported":1731424147,"current_range_meters":39200,"station_id":"ce4bgs12rcd13ifvqcag","pricing_plan_id":"cebpf4jnsgd1na2vs0mg"},{"bike_id":"90c9b2d0-e77a-4aaf-9cde-cf2f8bd5661f","system_id":"levelo_inurba_marseille","lat":43.30786,"lon":5.3765,"is_reserved":false,"is_disabled":false,"rental_uris":{"android":"levelo://app?vid=90c9b2d0-e77a-4aaf-9cde-cf2f8bd5661f","ios":"levelo://app?vid=90c9b2d0-e77a-4aaf-9cde-cf2f8bd5661f"},"vehicle_type_id":"4","last_reported":1731424147,"current_range_meters":36800,"station_id":"ce4bgv92rcd13ifvqcq0","pricing_plan_id":"cebpf4jnsgd1na2vs0mg"},{"bike_id":"4084d2e3-f6b2-4998-b5b9-67d39bb9faed","system_id":"levelo_inurba_marseille","lat":43.27912,"lon":5.39584,"is_reserved":false,"is_disabled":false,"rental_uris":{"android":"levelo://app?vid=4084d2e3-f6b2-4998-b5b9-67d39bb9faed","ios":"levelo://app?vid=4084d2e3-f6b2-4998-b5b9-67d39bb9faed"},"vehicle_type_id":"4","last_reported":1731424147,"current_range_meters":28400,"station_id":"ce4bhf92rcd13ifvqf40","pricing_plan_id":"cebpf4jnsgd1na2vs0mg"},{"bike_id":"af812dc0-75ab-47e8-9472-7713d659c7ea","system_id":"levelo_inurba_marseille","lat":43.29039,"lon":5.39965,"is_reserved":false,"is_disabled":false,"rental_uris":{"android":"levelo://app?vid=af812dc0-75ab-47e8-9472-7713d659c7ea","ios":"levelo://app?vid=af812dc0-75ab-47e8-9472-7713d659c7ea"},"vehicle_type_id":"4","last_reported":1731424147,"current_range_meters":24800,"station_id":"ce4bh392rcd13ifvqdm0","pricing_plan_id":"cebpf4jnsgd1na2vs0mg"},{"bike_id":"b9ecfbcf-3cfc-4dc2-a21d-c9650bd6e460","system_id":"levelo_inurba_marseille","lat":43.30543,"lon":5.36549,"is_reserved":false,"is_disabled":false,"rental_uris":{"android":"levelo://app?vid=b9ecfbcf-3cfc-4dc2-a21d-c9650bd6e460","ios":"levelo://app?vid=b9ecfbcf-3cfc-4dc2-a21d-c9650bd6e460"},"vehicle_type_id":"4","last_reported":1731424147,"current_range_meters":39200,"station_id":"ce4bgs12rcd13ifvqcag","pricing_plan_id":"cebpf4jnsgd1na2vs0mg"},{"bike_id":"e87f9406-2fab-4e2b-85a1-12c23c486a46","system_id":"levelo_inurba_marseille","lat":43.3361,"lon":5.41031,"is_reserved":false,"is_disabled":false,"rental_uris":{"android":"levelo://app?vid=e87f9406-2fab-4e2b-85a1-12c23c486a46","ios":"levelo://app?vid=e87f9406-2fab-4e2b-85a1-12c23c486a46"},"vehicle_type_id":"4","last_reported":1731424147,"current_range_meters":38000,"station_id":"ce4bhqh2rcd13ifvqhmg","pricing_plan_id":"cebpf4jnsgd1na2vs0mg"},{"bike_id":"e6e8b17e-b78a-47f8-87b6-edf9fe27d935","system_id":"levelo_inurba_marseille","lat":43.26942,"lon":5.40249,"is_reserved":false,"is_disabled":false,"rental_uris":{"android":"levelo://app?vid=e6e8b17e-b78a-47f8-87b6-edf9fe27d935","ios":"levelo://app?vid=e6e8b17e-b78a-47f8-87b6-edf9fe27d935"},"vehicle_type_id":"4","last_reported":1731424147,"current_range_meters":37600,"station_id":"cjm6bp8fraef2m0cb0m0","pricing_plan_id":"cebpf4jnsgd1na2vs0mg"},{"bike_id":"284a631b-d35f-4abf-8c0c-89b46dfbd0d7","system_id":"levelo_inurba_marseille","lat":43.30902,"lon":5.36855,"is_reserved":false,"is_disabled":false,"rental_uris":{"android":"levelo://app?vid=284a631b-d35f-4abf-8c0c-89b46dfbd0d7","ios":"levelo://app?vid=284a631b-d35f-4abf-8c0c-89b46dfbd0d7"},"vehicle_type_id":"4","last_reported":1731424147,"current_range_meters":36800,"station_id":"ce4bgn92rcd13ifvqbvg","pricing_plan_id":"cebpf4jnsgd1na2vs0mg"},{"bike_id":"c14a2136-c94c-4cec-9c75-1348c4bfa57e","system_id":"levelo_inurba_marseille","lat":43.27916,"lon":5.39578,"is_reserved":false,"is_disabled":false,"rental_uris":{"android":"levelo://app?vid=c14a2136-c94c-4cec-9c75-1348c4bfa57e","ios":"levelo://app?vid=c14a2136-c94c-4cec-9c75-1348c4bfa57e"},"vehicle_type_id":"4","last_reported":1731424147,"current_range_meters":39200,"station_id":"ce4bhf92rcd13ifvqf40","pricing_plan_id":"cebpf4jnsgd1na2vs0mg"},{"bike_id":"e7b1aa23-16ca-4572-80cd-f773513f26ce","system_id":"levelo_inurba_marseille","lat":43.29841,"lon":5.36268,"is_reserved":false,"is_disabled":false,"rental_uris":{"android":"levelo://app?vid=e7b1aa23-16ca-4572-80cd-f773513f26ce","ios":"levelo://app?vid=e7b1aa23-16ca-4572-80cd-f773513f26ce"},"vehicle_type_id":"4","last_reported":1731424147,"current_range_meters":25600,"station_id":"ce4bgpp2rcd13ifvqc3g","pricing_plan_id":"cebpf4jnsgd1na2vs0mg"},{"bike_id":"80cff9c6-f1bd-4907-8675-a2c27f1ea626","system_id":"levelo_inurba_marseille","lat":43.279402,"lon":5.410512,"is_reserved":false,"is_disabled":false,"rental_uris":{"android":"levelo://app?vid=80cff9c6-f1bd-4907-8675-a2c27f1ea626","ios":"levelo://app?vid=80cff9c6-f1bd-4907-8675-a2c27f1ea626"},"vehicle_type_id":"4","last_reported":1731424147,"current_range_meters":15200,"station_id":"ce4bgt92rcd13ifvqcf0","pricing_plan_id":"cebpf4jnsgd1na2vs0mg"},{"bike_id":"86e8b438-ea68-476c-8fc5-dafc875ab119","system_id":"levelo_inurba_marseille","lat":43.299438,"lon":5.381517,"is_reserved":false,"is_disabled":false,"rental_uris":{"android":"levelo://app?vid=86e8b438-ea68-476c-8fc5-dafc875ab119","ios":"levelo://app?vid=86e8b438-ea68-476c-8fc5-dafc875ab119"},"vehicle_type_id":"4","last_reported":1731424147,"current_range_meters":36400,"station_id":"ce4bgj12rcd13ifvqbc0","pricing_plan_id":"cebpf4jnsgd1na2vs0mg"},{"bike_id":"721744ee-a77d-4c5d-96be-59a106f4c316","system_id":"levelo_inurba_marseille","lat":43.24073,"lon":5.3776,"is_reserved":false,"is_disabled":false,"rental_uris":{"android":"levelo://app?vid=721744ee-a77d-4c5d-96be-59a106f4c316","ios":"levelo://app?vid=721744ee-a77d-4c5d-96be-59a106f4c316"},"vehicle_type_id":"4","last_reported":1731424147,"current_range_meters":24400,"station_id":"ce4bhnp2rcd13ifvqgvg","pricing_plan_id":"cebpf4jnsgd1na2vs0mg"},{"bike_id":"9b899324-9bf0-4e7e-944b-128cdc9d3596","system_id":"levelo_inurba_marseille","lat":43.255796,"lon":5.382328,"is_reserved":false,"is_disabled":false,"rental_uris":{"android":"levelo://app?vid=9b899324-9bf0-4e7e-944b-128cdc9d3596","ios":"levelo://app?vid=9b899324-9bf0-4e7e-944b-128cdc9d3596"},"vehicle_type_id":"4","last_reported":1731424147,"current_range_meters":32800,"station_id":"ce4bhih2rcd13ifvqfs0","pricing_plan_id":"cebpf4jnsgd1na2vs0mg"},{"bike_id":"024df2db-6d9b-45f8-8b41-87c99d2ddf3b","system_id":"levelo_inurba_marseille","lat":43.30419,"lon":5.41281,"is_reserved":false,"is_disabled":false,"rental_uris":{"android":"levelo://app?vid=024df2db-6d9b-45f8-8b41-87c99d2ddf3b","ios":"levelo://app?vid=024df2db-6d9b-45f8-8b41-87c99d2ddf3b"},"vehicle_type_id":"4","last_reported":1731424147,"current_range_meters":39200,"station_id":"ce4bhop2rcd13ifvqh8g","pricing_plan_id":"cebpf4jnsgd1na2vs0mg"},{"bike_id":"5038b3d1-9358-4be9-b4b3-374cf19dd9f2","system_id":"levelo_inurba_marseille","lat":43.28673,"lon":5.38678,"is_reserved":false,"is_disabled":false,"rental_uris":{"android":"levelo://app?vid=5038b3d1-9358-4be9-b4b3-374cf19dd9f2","ios":"levelo://app?vid=5038b3d1-9358-4be9-b4b3-374cf19dd9f2"},"vehicle_type_id":"4","last_reported":1731424147,"current_range_meters":38400,"station_id":"ce4bh492rcd13ifvqdug","pricing_plan_id":"cebpf4jnsgd1na2vs0mg"},{"bike_id":"52a803cd-037c-4542-9657-84b331aca8ec","system_id":"levelo_inurba_marseille","lat":43.27424,"lon":5.39425,"is_reserved":false,"is_disabled":false,"rental_uris":{"android":"levelo://app?vid=52a803cd-037c-4542-9657-84b331aca8ec","ios":"levelo://app?vid=52a803cd-037c-4542-9657-84b331aca8ec"},"vehicle_type_id":"4","last_reported":1731424147,"current_range_meters":38800,"station_id":"ce4bhdp2rcd13ifvqf20","pricing_plan_id":"cebpf4jnsgd1na2vs0mg"},{"bike_id":"ac11e4b1-5c99-4d11-abf3-37c02b630e7f","system_id":"levelo_inurba_marseille","lat":43.29597,"lon":5.38089,"is_reserved":false,"is_disabled":false,"rental_uris":{"android":"levelo://app?vid=ac11e4b1-5c99-4d11-abf3-37c02b630e7f","ios":"levelo://app?vid=ac11e4b1-5c99-4d11-abf3-37c02b630e7f"},"vehicle_type_id":"4","last_reported":1731424147,"current_range_meters":37600,"station_id":"ce4bgl12rcd13ifvqbo0","pricing_plan_id":"cebpf4jnsgd1na2vs0mg"},{"bike_id":"717f8475-1ae4-4ef4-a993-09150080d098","system_id":"levelo_inurba_marseille","lat":43.2783,"lon":5.39209,"is_reserved":false,"is_disabled":false,"rental_uris":{"android":"levelo://app?vid=717f8475-1ae4-4ef4-a993-09150080d098","ios":"levelo://app?vid=717f8475-1ae4-4ef4-a993-09150080d098"},"vehicle_type_id":"4","last_reported":1731424147,"current_range_meters":38000,"station_id":"ce4bhjp2rcd13ifvqga0","pricing_plan_id":"cebpf4jnsgd1na2vs0mg"},{"bike_id":"5a1e29ec-2829-42fe-91d5-033c37b110e5","system_id":"levelo_inurba_marseille","lat":43.31355,"lon":5.36714,"is_reserved":false,"is_disabled":false,"rental_uris":{"android":"levelo://app?vid=5a1e29ec-2829-42fe-91d5-033c37b110e5","ios":"levelo://app?vid=5a1e29ec-2829-42fe-91d5-033c37b110e5"},"vehicle_type_id":"4","last_reported":1731424147,"current_range_meters":34800,"station_id":"ce4bgr92rcd13ifvqc6g","pricing_plan_id":"cebpf4jnsgd1na2vs0mg"},{"bike_id":"7fe67098-0545-4b07-a75b-39b49a6a880c","system_id":"levelo_inurba_marseille","lat":43.29907,"lon":5.37482,"is_reserved":false,"is_disabled":false,"rental_uris":{"android":"levelo://app?vid=7fe67098-0545-4b07-a75b-39b49a6a880c","ios":"levelo://app?vid=7fe67098-0545-4b07-a75b-39b49a6a880c"},"vehicle_type_id":"4","last_reported":1731424147,"current_range_meters":36400,"station_id":"ce4bgjh2rcd13ifvqbg0","pricing_plan_id":"cebpf4jnsgd1na2vs0mg"},{"bike_id":"afa715b5-1241-4d6f-8f78-73e0daefc925","system_id":"levelo_inurba_marseille","lat":43.29007,"lon":5.3561,"is_reserved":false,"is_disabled":false,"rental_uris":{"android":"levelo://app?vid=afa715b5-1241-4d6f-8f78-73e0daefc925","ios":"levelo://app?vid=afa715b5-1241-4d6f-8f78-73e0daefc925"},"vehicle_type_id":"4","last_reported":1731424147,"current_range_meters":33600,"station_id":"ce4bhb92rcd13ifvqen0","pricing_plan_id":"cebpf4jnsgd1na2vs0mg"},{"bike_id":"1a1b75e8-7bcb-4adb-8dd6-6afbaba86775","system_id":"levelo_inurba_marseille","lat":43.29249,"lon":5.4091,"is_reserved":false,"is_disabled":false,"rental_uris":{"android":"levelo://app?vid=1a1b75e8-7bcb-4adb-8dd6-6afbaba86775","ios":"levelo://app?vid=1a1b75e8-7bcb-4adb-8dd6-6afbaba86775"},"vehicle_type_id":"4","last_reported":1731424147,"current_range_meters":16400,"station_id":"ce4bh192rcd13ifvqdc0","pricing_plan_id":"cebpf4jnsgd1na2vs0mg"},{"bike_id":"3ee4df3f-aec6-4ea4-91a9-55e9372637f0","system_id":"levelo_inurba_marseille","lat":43.26558,"lon":5.37285,"is_reserved":false,"is_disabled":false,"rental_uris":{"android":"levelo://app?vid=3ee4df3f-aec6-4ea4-91a9-55e9372637f0","ios":"levelo://app?vid=3ee4df3f-aec6-4ea4-91a9-55e9372637f0"},"vehicle_type_id":"4","last_reported":1731424147,"current_range_meters":26800,"station_id":"ce4bhg12rcd13ifvqf70","pricing_plan_id":"cebpf4jnsgd1na2vs0mg"},{"bike_id":"e48628dd-005d-43d3-86df-220070de1ac8","system_id":"levelo_inurba_marseille","lat":43.28157,"lon":5.42642,"is_reserved":false,"is_disabled":false,"rental_uris":{"android":"levelo://app?vid=e48628dd-005d-43d3-86df-220070de1ac8","ios":"levelo://app?vid=e48628dd-005d-43d3-86df-220070de1ac8"},"vehicle_type_id":"4","last_reported":1731424147,"current_range_meters":38800,"station_id":"ce4bhnh2rcd13ifvqgug","pricing_plan_id":"cebpf4jnsgd1na2vs0mg"},{"bike_id":"0fb7af37-ed7e-4639-a28c-e6d4b52ce80c","system_id":"levelo_inurba_marseille","lat":43.30934,"lon":5.40156,"is_reserved":false,"is_disabled":false,"rental_uris":{"android":"levelo://app?vid=0fb7af37-ed7e-4639-a28c-e6d4b52ce80c","ios":"levelo://app?vid=0fb7af37-ed7e-4639-a28c-e6d4b52ce80c"},"vehicle_type_id":"4","last_reported":1731424147,"current_range_meters":38400,"station_id":"ce4bgvp2rcd13ifvqct0","pricing_plan_id":"cebpf4jnsgd1na2vs0mg"},{"bike_id":"bde7d9c1-f81e-4329-8605-7b2c0a131372","system_id":"levelo_inurba_marseille","lat":43.2979,"lon":5.38101,"is_reserved":false,"is_disabled":false,"rental_uris":{"android":"levelo://app?vid=bde7d9c1-f81e-4329-8605-7b2c0a131372","ios":"levelo://app?vid=bde7d9c1-f81e-4329-8605-7b2c0a131372"},"vehicle_type_id":"4","last_reported":1731424147,"current_range_meters":39200,"station_id":"ce4bgip2rcd13ifvqbb0","pricing_plan_id":"cebpf4jnsgd1na2vs0mg"},{"bike_id":"c854b97e-9617-447f-b99c-ee2e070c2efa","system_id":"levelo_inurba_marseille","lat":43.30321,"lon":5.40442,"is_reserved":false,"is_disabled":false,"rental_uris":{"android":"levelo://app?vid=c854b97e-9617-447f-b99c-ee2e070c2efa","ios":"levelo://app?vid=c854b97e-9617-447f-b99c-ee2e070c2efa"},"vehicle_type_id":"4","last_reported":1731424147,"current_range_meters":36800,"station_id":"ce4bh012rcd13ifvqd10","pricing_plan_id":"cebpf4jnsgd1na2vs0mg"},{"bike_id":"be8284b8-6ff1-4005-ada3-13cc318df1b1","system_id":"levelo_inurba_marseille","lat":43.24082,"lon":5.37747,"is_reserved":false,"is_disabled":false,"rental_uris":{"android":"levelo://app?vid=be8284b8-6ff1-4005-ada3-13cc318df1b1","ios":"levelo://app?vid=be8284b8-6ff1-4005-ada3-13cc318df1b1"},"vehicle_type_id":"4","last_reported":1731424147,"current_range_meters":33600,"station_id":"ce4bhnp2rcd13ifvqgvg","pricing_plan_id":"cebpf4jnsgd1na2vs0mg"},{"bike_id":"776716de-549c-4e68-a8a2-7cc61ad42995","system_id":"levelo_inurba_marseille","lat":43.27052,"lon":5.40273,"is_reserved":false,"is_disabled":false,"rental_uris":{"android":"levelo://app?vid=776716de-549c-4e68-a8a2-7cc61ad42995","ios":"levelo://app?vid=776716de-549c-4e68-a8a2-7cc61ad42995"},"vehicle_type_id":"4","last_reported":1731424147,"current_range_meters":37600,"station_id":"ce4bhk92rcd13ifvqgc0","pricing_plan_id":"cebpf4jnsgd1na2vs0mg"},{"bike_id":"aa81cd4d-52e5-4916-b3b1-6e135085c8ef","system_id":"levelo_inurba_marseille","lat":43.24801,"lon":5.37448,"is_reserved":false,"is_disabled":false,"rental_uris":{"android":"levelo://app?vid=aa81cd4d-52e5-4916-b3b1-6e135085c8ef","ios":"levelo://app?vid=aa81cd4d-52e5-4916-b3b1-6e135085c8ef"},"vehicle_type_id":"4","last_reported":1731424147,"current_range_meters":38800,"station_id":"ce4bhgh2rcd13ifvqfb0","pricing_plan_id":"cebpf4jnsgd1na2vs0mg"},{"bike_id":"53b7bcc9-f454-4d02-ba83-b7b15fd4e67d","system_id":"levelo_inurba_marseille","lat":43.23966,"lon":5.36633,"is_reserved":false,"is_disabled":false,"rental_uris":{"android":"levelo://app?vid=53b7bcc9-f454-4d02-ba83-b7b15fd4e67d","ios":"levelo://app?vid=53b7bcc9-f454-4d02-ba83-b7b15fd4e67d"},"vehicle_type_id":"4","last_reported":1731424147,"current_range_meters":38800,"station_id":"ce4bhi12rcd13ifvqfp0","pricing_plan_id":"cebpf4jnsgd1na2vs0mg"},