{"last_updated":1739714908,"ttl":60,"version":"2.2","data":{"bikes":[{"bike_id":"f42c99f6-4bbb-49c3-a982-8524669695b0","system_id":"levelo_inurba_marseille","lat":43.30161,"lon":5.38096,"is_reserved":false,"is_disabled":false,"rental_uris":{"android":"levelo://app?vid=f42c99f6-4bbb-49c3-a982-8524669695b0","ios":"levelo://app?vid=f42c99f6-4bbb-49c3-a982-8524669695b0"},"vehicle_type_id":"4","last_reported":1739714908,"current_range_meters":36800,"station_id":"ce4bgjp2rcd13ifvqbh0","pricing_plan_id":"cebpf4jnsgd1na2vs0mg"},{"bike_id":"5437ce88-1ab6-4e2d-a971-6bc3f721e5a3","system_id":"levelo_inurba_marseille","lat":43.27992,"lon":5.41666,"is_reserved":false,"is_disabled":false,"rental_uris":{"android":"levelo://app?vid=5437ce88-1ab6-4e2d-a971-6bc3f721e5a3","ios":"levelo://app?vid=5437ce88-1ab6-4e2d-a971-6bc3f721e5a3"},"vehicle_type_id":"4","last_reported":1739714908,"current_range_meters":32000,"station_id":"ce4bho12rcd13ifvqh1g","pricing_plan_id":"cebpf4jnsgd1na2vs0mg"},{"bike_id":"040bf6da-b374-40b3-b70a-0f85f37b58a3","system_id":"levelo_inurba_marseille","lat":43.29269,"lon":5.40111,"is_reserved":false,"is_disabled":true,"rental_uris":{"android":"levelo://app?vid=040bf6da-b374-40b3-b70a-0f85f37b58a3","ios":"levelo://app?vid=040bf6da-b374-40b3-b70a-0f85f37b58a3"},"vehicle_type_id":"4","last_reported":1739714908,"current_range_meters":33200,"station_id":"ce4bh312rcd13ifvqdk0","pricing_plan_id":"cebpf4jnsgd1na2vs0mg"},{"bike_id":"314ecb77-8b90-4fdb-aaf3-bbba8b437b8a","system_id":"levelo_inurba_marseille","lat":43.29053,"lon":5.38033,"is_reserved":false,"is_disabled":false,"rental_uris":{"android":"levelo://app?vid=314ecb77-8b90-4fdb-aaf3-bbba8b437b8a","ios":"levelo://app?vid=314ecb77-8b90-4fdb-aaf3-bbba8b437b8a"},"vehicle_type_id":"4","last_reported":1739714908,"current_range_meters":3600,"station_id":"","pricing_plan_id":"cebpf4jnsgd1na2vs0mg"},{"bike_id":"3be2708e-41e1-4c55-9d1f-7fd939ebb4a5","system_id":"levelo_inurba_marseille","lat":43.24662,"lon":5.38162,"is_reserved":false,"is_disabled":false,"rental_uris":{"android":"levelo://app?vid=3be2708e-41e1-4c55-9d1f-7fd939ebb4a5","ios":"levelo://app?vid=3be2708e-41e1-4c55-9d1f-7fd939ebb4a5"},"vehicle_type_id":"4","last_reported":1739714908,"current_range_meters":14800,"station_id":"ce4bhih2rcd13ifvqfr0","pricing_plan_id":"cebpf4jnsgd1na2vs0mg"},{"bike_id":"bb85f3c1-a1fa-4b0a-bb88-6e96ae98704f","system_id":"levelo_inurba_marseille","lat":43.29784,"lon":5.3709,"is_reserved":false,"is_disabled":false,"rental_uris":{"android":"levelo://app?vid=bb85f3c1-a1fa-4b0a-bb88-6e96ae98704f","ios":"levelo://app?vid=bb85f3c1-a1fa-4b0a-bb88-6e96ae98704f"},"vehicle_type_id":"4","last_reported":1739714908,"current_range_meters":38000,"station_id":"ce4bgop2rcd13ifvqc1g","pricing_plan_id":"cebpf4jnsgd1na2vs0mg"},{"bike_id":"7f15aa59-f96c-4429-ba7e-4377f7102821","system_id":"levelo_inurba_marseille","lat":43.29627,"lon":5.40619,"is_reserved":false,"is_disabled":false,"rental_uris":{"android":"levelo://app?vid=7f15aa59-f96c-4429-ba7e-4377f7102821","ios":"levelo://app?vid=7f15aa59-f96c-4429-ba7e-4377f7102821"},"vehicle_type_id":"4","last_reported":1739714908,"current_range_meters":34800,"station_id":"ce4bh0h2rcd13ifvqd60","pricing_plan_id":"cebpf4jnsgd1na2vs0mg"},{"bike_id":"7af9ed7f-fa59-49c5-bef7-6575d5a983ae","system_id":"levelo_inurba_marseille","lat":43.27904,"lon":5.38017,"is_reserved":false,"is_disabled":false,"rental_uris":{"android":"levelo://app?vid=7af9ed7f-fa59-49c5-bef7-6575d5a983ae","ios":"levelo://app?vid=7af9ed7f-fa59-49c5-bef7-6575d5a983ae"},"vehicle_type_id":"4","last_reported":1739714908,"current_range_meters":38400,"station_id":"ce4bhf92rcd13ifvqf50","pricing_plan_id":"cebpf4jnsgd1na2vs0mg"},{"bike_id":"01eb322e-9761-4eea-a717-27912e4900d3","system_id":"levelo_inurba_marseille","lat":43.28271,"lon":5.3508,"is_reserved":false,"is_disabled":false,"rental_uris":{"android":"levelo://app?vid=01eb322e-9761-4eea-a717-27912e4900d3","ios":"levelo://app?vid=01eb322e-9761-4eea-a717-27912e4900d3"},"vehicle_type_id":"4","last_reported":1739714908,"current_range_meters":31200,"station_id":"ce4bhbp2rcd13ifvqerg","pricing_plan_id":"cebpf4jnsgd1na2vs0mg"},{"bike_id":"160afe3d-4b0d-40e8-a17b-6d93ea1d19e6","system_id":"levelo_inurba_marseille","lat":43.2439,"lon":5.37052,"is_reserved":false,"is_disabled":false,"rental_uris":{"android":"levelo://app?vid=160afe3d-4b0d-40e8-a17b-6d93ea1d19e6","ios":"levelo://app?vid=160afe3d-4b0d-40e8-a17b-6d93ea1d19e6"},"vehicle_type_id":"4","last_reported":1739714908,"current_range_meters":29600,"station_id":"ce4bhhh2rcd13ifvqfk0","pricing_plan_id":"cebpf4jnsgd1na2vs0mg"},{"bike_id":"ff426081-3726-4b6c-aa9f-0d0db0cbc7e6","system_id":"levelo_inurba_marseille","lat":43.28024,"lon":5.36957,"is_reserved":false,"is_disabled":false,"rental_uris":{"android":"levelo://app?vid=ff426081-3726-4b6c-aa9f-0d0db0cbc7e6","ios":"levelo://app?vid=ff426081-3726-4b6c-aa9f-0d0db0cbc7e6"},"vehicle_type_id":"4","last_reported":1739714908,"current_range_meters":38800,"station_id":"ce4bha12rcd13ifvqef0","pricing_plan_id":"cebpf4jnsgd1na2vs0mg"},{"bike_id":"5050324a-82d4-4ba5-b2ec-1eb04d9f3ff1","system_id":"levelo_inurba_marseille","lat":43.2758,"lon":5.38417,"is_reserved":false,"is_disabled":false,"rental_uris":{"android":"levelo://app?vid=5050324a-82d4-4ba5-b2ec-1eb04d9f3ff1","ios":"levelo://app?vid=5050324a-82d4-4ba5-b2ec-1eb04d9f3ff1"},"vehicle_type_id":"4","last_reported":1739714908,"current_range_meters":18800,"station_id":"ce4bhh92rcd13ifvqfi0","pricing_plan_id":"cebpf4jnsgd1na2vs0mg"},{"bike_id":"c7322498-81a4-46c8-b4c9-ec796bfac1e6","system_id":"levelo_inurba_marseille","lat":43.24167,"lon":5.36402,"is_reserved":false,"is_disabled":false,"rental_uris":{"android":"levelo://app?vid=c7322498-81a4-46c8-b4c9-ec796bfac1e6","ios":"levelo://app?vid=c7322498-81a4-46c8-b4c9-ec796bfac1e6"},"vehicle_type_id":"4","last_reported":1739714908,"current_range_meters":36000,"station_id":"cpo36qri1sfpv3e86is0","pricing_plan_id":"cebpf4jnsgd1na2vs0mg"},{"bike_id":"fb97ad5d-8f1a-4a02-a261-31307c09725d","system_id":"levelo_inurba_marseille","lat":43.27617,"lon":5.36117,"is_reserved":false,"is_disabled":false,"rental_uris":{"android":"levelo://app?vid=fb97ad5d-8f1a-4a02-a261-31307c09725d","ios":"levelo://app?vid=fb97ad5d-8f1a-4a02-a261-31307c09725d"},"vehicle_type_id":"4","last_reported":1739714908,"current_range_meters":39200,"station_id":"ce4bgj92rcd13ifvqbe0","pricing_plan_id":"cebpf4jnsgd1na2vs0mg"},{"bike_id":"0594397e-5b4a-4bc1-9dae-734c570709eb","system_id":"levelo_inurba_marseille","lat":43.27816,"lon":5.40709,"is_reserved":false,"is_disabled":false,"rental_uris":{"android":"levelo://app?vid=0594397e-5b4a-4bc1-9dae-734c570709eb","ios":"levelo://app?vid=0594397e-5b4a-4bc1-9dae-734c570709eb"},"vehicle_type_id":"4","last_reported":1739714908,"current_range_meters":6400,"station_id":"ce4bhnh2rcd13ifvqgtg","pricing_plan_id":"cebpf4jnsgd1na2vs0mg"},{"bike_id":"1d65b75b-6963-4790-ada3-aca3a7ec5c14","system_id":"levelo_inurba_marseille","lat":43.26987,"lon":5.40104,"is_reserved":false,"is_disabled":false,"rental_uris":{"android":"levelo://app?vid=1d65b75b-6963-4790-ada3-aca3a7ec5c14","ios":"levelo://app?vid=1d65b75b-6963-4790-ada3-aca3a7ec5c14"},"vehicle_type_id":"4","last_reported":1739714908,"current_range_meters":30000,"station_id":"cjm6bp8fraef2m0cb0m0","pricing_plan_id":"cebpf4jnsgd1na2vs0mg"},{"bike_id":"b34c6303-752a-46a1-93ad-ddbc991e20b6","system_id":"levelo_inurba_marseille","lat":43.23105,"lon":5.35465,"is_reserved":false,"is_disabled":false,"rental_uris":{"android":"levelo://app?vid=b34c6303-752a-46a1-93ad-ddbc991e20b6","ios":"levelo://app?vid=b34c6303-752a-46a1-93ad-ddbc991e20b6"},"vehicle_type_id":"4","last_reported":1739714908,"current_range_meters":34000,"station_id":"","pricing_plan_id":"cebpf4jnsgd1na2vs0mg"},{"bike_id":"f7abcf74-16eb-4369-b6b8-ac0e795f9129","system_id":"levelo_inurba_marseille","lat":43.28159,"lon":5.42635,"is_reserved":false,"is_disabled":false,"rental_uris":{"android":"levelo://app?vid=f7abcf74-16eb-4369-b6b8-ac0e795f9129","ios":"levelo://app?vid=f7abcf74-16eb-4369-b6b8-ac0e795f9129"},"vehicle_type_id":"4","last_reported":1739714908,"current_range_meters":28000,"station_id":"ce4bhnh2rcd13ifvqgug","pricing_plan_id":"cebpf4jnsgd1na2vs0mg"},{"bike_id":"58f90898-7499-443b-a458-e2c59058430b","system_id":"levelo_inurba_marseille","lat":43.24064,"lon":5.3774,"is_reserved":false,"is_disabled":false,"rental_uris":{"android":"levelo://app?vid=58f90898-7499-443b-a458-e2c59058430b","ios":"levelo://app?vid=58f90898-7499-443b-a458-e2c59058430b"},"vehicle_type_id":"4","last_reported":1739714908,"current_range_meters":38800,"station_id":"ce4bhnp2rcd13ifvqgvg","pricing_plan_id":"cebpf4jnsgd1na2vs0mg"},{"bike_id":"bed4de35-ef09-4f9f-a13d-845fdf520d58","system_id":"levelo_inurba_marseille","lat":43.27475,"lon":5.415,"is_reserved":false,"is_disabled":false,"rental_uris":{"android":"levelo://app?vid=bed4de35-ef09-4f9f-a13d-845fdf520d58","ios":"levelo://app?vid=bed4de35-ef09-4f9f-a13d-845fdf520d58"},"vehicle_type_id":"4","last_reported":1739714908,"current_range_meters":8400,"station_id":"","pricing_plan_id":"cebpf4jnsgd1na2vs0mg"},{"bike_id":"2821d2ff-3fc8-480e-81a3-1928b04e4a1d","system_id":"levelo_inurba_marseille","lat":43.31455,"lon":5.37366,"is_reserved":false,"is_disabled":false,"rental_uris":{"android":"levelo://app?vid=2821d2ff-3fc8-480e-81a3-1928b04e4a1d","ios":"levelo://app?vid=2821d2ff-3fc8-480e-81a3-1928b04e4a1d"},"vehicle_type_id":"4","last_reported":1739714908,"current_range_meters":6400,"station_id":"","pricing_plan_id":"cebpf4jnsgd1na2vs0mg"},{"bike_id":"fd5cebe6-4288-4379-bbb8-1e48a9a687ea","system_id":"levelo_inurba_marseille","lat":43.279517,"lon":5.410433,"is_reserved":false,"is_disabled":false,"rental_uris":{"android":"levelo://app?vid=fd5cebe6-4288-4379-bbb8-1e48a9a687ea","ios":"levelo://app?vid=fd5cebe6-4288-4379-bbb8-1e48a9a687ea"},"vehicle_type_id":"4","last_reported":1739714908,"current_range_meters":13600,"station_id":"ce4bhnp2rcd13ifvqh0g","pricing_plan_id":"cebpf4jnsgd1na2vs0mg"},{"bike_id":"61a550d6-8219-4568-9e1d-4f46e8ef91cb","system_id":"levelo_inurba_marseille","lat":43.28413,"lon":5.37516,"is_reserved":false,"is_disabled":false,"rental_uris":{"android":"levelo://app?vid=61a550d6-8219-4568-9e1d-4f46e8ef91cb","ios":"levelo://app?vid=61a550d6-8219-4568-9e1d-4f46e8ef91cb"},"vehicle_type_id":"4","last_reported":1739714908,"current_range_meters":28000,"station_id":"ce4bh412rcd13ifvqds0","pricing_plan_id":"cebpf4jnsgd1na2vs0mg"},{"bike_id":"d4ee7366-55c8-409d-b5f1-6fe34cde5452","system_id":"levelo_inurba_marseille","lat":43.31168,"lon":5.38718,"is_reserved":false,"is_disabled":false,"rental_uris":{"android":"levelo://app?vid=d4ee7366-55c8-409d-b5f1-6fe34cde5452","ios":"levelo://app?vid=d4ee7366-55c8-409d-b5f1-6fe34cde5452"},"vehicle_type_id":"4","last_reported":1739714908,"current_range_meters":39200,"station_id":"ce4bgv12rcd13ifvqcp0","pricing_plan_id":"cebpf4jnsgd1na2vs0mg"},{"bike_id":"9cb47887-5af7-45c6-abf3-dea8b4093d8d","system_id":"levelo_inurba_marseille","lat":43.27376,"lon":5.36257,"is_reserved":false,"is_disabled":true,"rental_uris":{"android":"levelo://app?vid=9cb47887-5af7-45c6-abf3-dea8b4093d8d","ios":"levelo://app?vid=9cb47887-5af7-45c6-abf3-dea8b4093d8d"},"vehicle_type_id":"4","last_reported":1739714908,"current_range_meters":2000,"station_id":"ce4bhbh2rcd13ifvqeo0","pricing_plan_id":"cebpf4jnsgd1na2vs0mg"},{"bike_id":"2fc48410-0590-4898-94c2-33854b60c1f7","system_id":"levelo_inurba_marseille","lat":43.26951,"lon":5.40252,"is_reserved":false,"is_disabled":false,"rental_uris":{"android":"levelo://app?vid=2fc48410-0590-4898-94c2-33854b60c1f7","ios":"levelo://app?vid=2fc48410-0590-4898-94c2-33854b60c1f7"},"vehicle_type_id":"4","last_reported":1739714908,"current_range_meters":9200,"station_id":"cjm6bp8fraef2m0cb0m0","pricing_plan_id":"cebpf4jnsgd1na2vs0mg"},{"bike_id":"940ffad1-8d03-466c-a361-1bdb8859eb0e","system_id":"levelo_inurba_marseille","lat":43.28609,"lon":5.35091,"is_reserved":false,"is_disabled":true,"rental_uris":{"android":"levelo://app?vid=940ffad1-8d03-466c-a361-1bdb8859eb0e","ios":"levelo://app?vid=940ffad1-8d03-466c-a361-1bdb8859eb0e"},"vehicle_type_id":"4","last_reported":1739714908,"current_range_meters":0,"station_id":"ce4bhch2rcd13ifvqeug","pricing_plan_id":"cebpf4jnsgd1na2vs0mg"},{"bike_id":"71ee7552-6225-4f21-8301-72c964ebec2d","system_id":"levelo_inurba_marseille","lat":43.2667,"lon":5.38251,"is_reserved":false,"is_disabled":true,"rental_uris":{"android":"levelo://app?vid=71ee7552-6225-4f21-8301-72c964ebec2d","ios":"levelo://app?vid=71ee7552-6225-4f21-8301-72c964ebec2d"},"vehicle_type_id":"4","last_reported":1739714908,"current_range_meters":3600,"station_id":"ce4bhg92rcd13ifvqf90","pricing_plan_id":"cebpf4jnsgd1na2vs0mg"},{"bike_id":"91e20a00-0a61-4c4d-ac1e-de492ad0d12a","system_id":"levelo_inurba_marseille","lat":43.29545,"lon":5.37501,"is_reserved":false,"is_disabled":true,"rental_uris":{"android":"levelo://app?vid=91e20a00-0a61-4c4d-ac1e-de492ad0d12a","ios":"levelo://app?vid=91e20a00-0a61-4c4d-ac1e-de492ad0d12a"},"vehicle_type_id":"4","last_reported":1739714908,"current_range_meters":22400,"station_id":"ce4bgkp2rcd13ifvqbmg","pricing_plan_id":"cebpf4jnsgd1na2vs0mg"},{"bike_id":"86a75285-7243-40ee-925b-d20bf72a6a49","system_id":"levelo_inurba_marseille","lat":43.29843,"lon":5.36281,"is_reserved":false,"is_disabled":false,"rental_uris":{"android":"levelo://app?vid=86a75285-7243-40ee-925b-d20bf72a6a49","ios":"levelo://app?vid=86a75285-7243-40ee-925b-d20bf72a6a49"},"vehicle_type_id":"4","last_reported":1739714908,"current_range_meters":38800,"station_id":"ce4bgpp2rcd13ifvqc3g","pricing_plan_id":"cebpf4jnsgd1na2vs0mg"},{"bike_id":"1f0657bb-7196-41de-84fc-c834bbf90b28","system_id":"levelo_inurba_marseille","lat":43.28075,"lon":5.39654,"is_reserved":false,"is_disabled":true,"rental_uris":{"android":"levelo://app?vid=1f0657bb-7196-41de-84fc-c834bbf90b28","ios":"levelo://app?vid=1f0657bb-7196-41de-84fc-c834bbf90b28"},"vehicle_type_id":"4","last_reported":1739714908,"current_range_meters":38800,"station_id":"ce4bho12rcd13ifvqh2g","pricing_plan_id":"cebpf4jnsgd1na2vs0mg"},{"bike_id":"4085957e-a34f-48ec-8023-d0e7a9e56b71","system_id":"levelo_inurba_marseille","lat":43.23065,"lon":5.35486,"is_reserved":false,"is_disabled":false,"rental_uris":{"android":"levelo://app?vid=4085957e-a34f-48ec-8023-d0e7a9e56b71","ios":"levelo://app?vid=4085957e-a34f-48ec-8023-d0e7a9e56b71"},"vehicle_type_id":"4","last_reported":1739714908,"current_range_meters":36800,"station_id":"cpo3342slgdg3j2ifvpg","pricing_plan_id":"cebpf4jnsgd1na2vs0mg"},{"bike_id":"fff65fd9-0a1b-49b8-b6af-92e0cc313ada","system_id":"levelo_inurba_marseille","lat":43.28261,"lon":5.35098,"is_reserved":false,"is_disabled":false,"rental_uris":{"android":"levelo://app?vid=fff65fd9-0a1b-49b8-b6af-92e0cc313ada","ios":"levelo://app?vid=fff65fd9-0a1b-49b8-b6af-92e0cc313ada"},"vehicle_type_id":"4","last_reported":1739714908,"current_range_meters":36000,"station_id":"ce4bhbp2rcd13ifvqerg","pricing_plan_id":"cebpf4jnsgd1na2vs0mg"},{"bike_id":"e3d7a037-0b75-40e7-ab91-35347f85a4e2","system_id":"levelo_inurba_marseille","lat":43.31489,"lon":5.37316,"is_reserved":false,"is_disabled":false,"rental_uris":{"android":"levelo://app?vid=e3d7a037-0b75-40e7-ab91-35347f85a4e2","ios":"levelo://app?vid=e3d7a037-0b75-40e7-ab91-35347f85a4e2"},"vehicle_type_id":"4","last_reported":1739714908,"current_range_meters":36800,"station_id":"ce4bgt12rcd13ifvqcd0","pricing_plan_id":"cebpf4jnsgd1na2vs0mg"},{"bike_id":"8172451f-620b-4bb8-91b1-1e4678991019","system_id":"levelo_inurba_marseille","lat":43.28175,"lon":5.42628,"is_reserved":false,"is_disabled":false,"rental_uris":{"android":"levelo://app?vid=8172451f-620b-4bb8-91b1-1e4678991019","ios":"levelo://app?vid=8172451f-620b-4bb8-91b1-1e4678991019"},"vehicle_type_id":"4","last_reported":1739714908,"current_range_meters":37600,"station_id":"ce4bhnh2rcd13ifvqgug","pricing_plan_id":"cebpf4jnsgd1na2vs0mg"},{"bike_id":"c70d1c16-966f-4038-86d7-256316bf95ad","system_id":"levelo_inurba_marseille","lat":43.26516,"lon":5.39558,"is_reserved":false,"is_disabled":false,"rental_uris":{"android":"levelo://app?vid=c70d1c16-966f-4038-86d7-256316bf95ad","ios":"levelo://app?vid=c70d1c16-966f-4038-86d7-256316bf95ad"},"vehicle_type_id":"4","last_reported":1739714908,"current_range_meters":38800,"station_id":"ce4bhi12rcd13ifvqfq0","pricing_plan_id":"cebpf4jnsgd1na2vs0mg"},{"bike_id":"1b218edd-7f2a-4ca5-b1d5-d3b9d364557a","system_id":"levelo_inurba_marseille","lat":43.29312,"lon":5.37147,"is_reserved":false,"is_disabled":false,"rental_uris":{"android":"levelo://app?vid=1b218edd-7f2a-4ca5-b1d5-d3b9d364557a","ios":"levelo://app?vid=1b218edd-7f2a-4ca5-b1d5-d3b9d364557a"},"vehicle_type_id":"4","last_reported":1739714908,"current_range_meters":13600,"station_id":"ce4bgh92rcd13ifvqb40","pricing_plan_id":"cebpf4jnsgd1na2vs0mg"},{"bike_id":"b4501870-b8ed-41e7-9c02-cfe959070884","system_id":"levelo_inurba_marseille","lat":43.24082,"lon":5.37752,"is_reserved":false,"is_disabled":false,"rental_uris":{"android":"levelo://app?vid=b4501870-b8ed-41e7-9c02-cfe959070884","ios":"levelo://app?vid=b4501870-b8ed-41e7-9c02-cfe959070884"},"vehicle_type_id":"4","last_reported":1739714908,"current_range_meters":28000,"station_id":"ce4bhnp2rcd13ifvqgvg","pricing_plan_id":"cebpf4jnsgd1na2vs0mg"},{"bike_id":"5670494d-e6b3-4cab-83ec-61f986362157","system_id":"levelo_inurba_marseille","lat":43.308,"lon":5.4352,"is_reserved":false,"is_disabled":false,"rental_uris":{"android":"levelo://app?vid=5670494d-e6b3-4cab-83ec-61f986362157","ios":"levelo://app?vid=5670494d-e6b3-4cab-83ec-61f986362157"},"vehicle_type_id":"4","last_reported":1739714908,"current_range_meters":28800,"station_id":"ce4bhph2rcd13ifvqheg","pricing_plan_id":"cebpf4jnsgd1na2vs0mg"},{"bike_id":"31d9b1b4-6711-4164-b62d-b1dd652fc597","system_id":"levelo_inurba_marseille","lat":43.30458,"lon":5.37906,"is_reserved":false,"is_disabled":false,"rental_uris":{"android":"levelo://app?vid=31d9b1b4-6711-4164-b62d-b1dd652fc597","ios":"levelo://app?vid=31d9b1b4-6711-4164-b62d-b1dd652fc597"},"vehicle_type_id":"4","last_reported":1739714908,"current_range_meters":25200,"station_id":"ce4bgup2rcd13ifvqcn0","pricing_plan_id":"cebpf4jnsgd1na2vs0mg"},{"bike_id":"f92e748a-9f9b-4e54-8084-07e33515f3d5","system_id":"levelo_inurba_marseille","lat":43.27071,"lon":5.39347,"is_reserved":false,"is_disabled":true,"rental_uris":{"android":"levelo://app?vid=f92e748a-9f9b-4e54-8084-07e33515f3d5","ios":"levelo://app?vid=f92e748a-9f9b-4e54-8084-07e33515f3d5"},"vehicle_type_id":"4","last_reported":1739714908,"current_range_meters":0,"station_id":"","pricing_plan_id":"cebpf4jnsgd1na2vs0mg"},{"bike_id":"3ac6818e-1ef6-4d16-b8a9-4acf2de1e5be","system_id":"levelo_inurba_marseille","lat":43.2841,"lon":5.37517,"is_reserved":false,"is_disabled":false,"rental_uris":{"android":"levelo://app?vid=3ac6818e-1ef6-4d16-b8a9-4acf2de1e5be","ios":"levelo://app?vid=3ac6818e-1ef6-4d16-b8a9-4acf2de1e5be"},"vehicle_type_id":"4","last_reported":1739714908,"current_range_meters":6800,"station_id":"ce4bh412rcd13ifvqds0","pricing_plan_id":"cebpf4jnsgd1na2vs0mg"},{"bike_id":"61ec3990-f400-41c2-8c38-bad2baef6327","system_id":"levelo_inurba_marseille","lat":43.24827,"lon":5.37446,"is_reserved":false,"is_disabled":false,"rental_uris":{"android":"levelo://app?vid=61ec3990-f400-41c2-8c38-bad2baef6327","ios":"levelo://app?vid=61ec3990-f400-41c2-8c38-bad2baef6327"},"vehicle_type_id":"4","last_reported":1739714908,"current_range_meters":38800,"station_id":"ce4bhgh2rcd13ifvqfb0","pricing_plan_id":"cebpf4jnsgd1na2vs0mg"},{"bike_id":"5fc0931d-4e49-4a7e-a479-ab038840c9e5","system_id":"levelo_inurba_marseille","lat":43.28931,"lon":5.36425,"is_reserved":false,"is_disabled":false,"rental_uris":{"android":"levelo://app?vid=5fc0931d-4e49-4a7e-a479-ab038840c9e5","ios":"levelo://app?vid=5fc0931d-4e49-4a7e-a479-ab038840c9e5"},"vehicle_type_id":"4","last_reported":1739714908,"current_range_meters":28000,"station_id":"ce4bhc92rcd13ifvqetg","pricing_plan_id":"cebpf4jnsgd1na2vs0mg"},{"bike_id":"60709dda-5daa-4497-a2c0-8ea194aab9be","system_id":"levelo_inurba_marseille","lat":43.29903,"lon":5.37495,"is_reserved":false,"is_disabled":false,"rental_uris":{"android":"levelo://app?vid=60709dda-5daa-4497-a2c0-8ea194aab9be","ios":"levelo://app?vid=60709dda-5daa-4497-a2c0-8ea194aab9be"},"vehicle_type_id":"4","last_reported":1739714908,"current_range_meters":37600,"station_id":"ce4bgjh2rcd13ifvqbg0","pricing_plan_id":"cebpf4jnsgd1na2vs0mg"},{"bike_id":"828855ed-dc1a-43ea-9642-6f398416f714","system_id":"levelo_inurba_marseille","lat":43.30268,"lon":5.4009,"is_reserved":false,"is_disabled":false,"rental_uris":{"android":"levelo://app?vid=828855ed-dc1a-43ea-9642-6f398416f714","ios":"levelo://app?vid=828855ed-dc1a-43ea-9642-6f398416f714"},"vehicle_type_id":"4","last_reported":1739714908,"current_range_meters":6000,"station_id":"ce4bgvh2rcd13ifvqcs0","pricing_plan_id":"cebpf4jnsgd1na2vs0mg"},{"bike_id":"9508ca4c-6f85-4b44-8dc3-43a8d5c5d8a4","system_id":"levelo_inurba_marseille","lat":43.29303,"lon":5.37162,"is_reserved":false,"is_disabled":false,"rental_uris":{"android":"levelo://app?vid=9508ca4c-6f85-4b44-8dc3-43a8d5c5d8a4","ios":"levelo://app?vid=9508ca4c-6f85-4b44-8dc3-43a8d5c5d8a4"},"vehicle_type_id":"4","last_reported":1739714908,"current_range_meters":24800,"station_id":"ce4bgh92rcd13ifvqb40","pricing_plan_id":"cebpf4jnsgd1na2vs0mg"},{"bike_id":"9cf8e6d9-67b8-441b-8ab4-08ef8560d2b0","system_id":"levelo_inurba_marseille","lat":43.33514,"lon":5.35585,"is_reserved":false,"is_disabled":true,"rental_uris":{"android":"levelo://app?vid=9cf8e6d9-67b8-441b-8ab4-08ef8560d2b0","ios":"levelo://app?vid=9cf8e6d9-67b8-441b-8ab4-08ef8560d2b0"},"vehicle_type_id":"4","last_reported":1739714908,"current_range_meters":0,"station_id":"","pricing_plan_id":"cebpf4jnsgd1na2vs0mg"},{"bike_id":"579e97b7-88d9-4715-b216-b400da85c1f8","system_id":"levelo_inurba_marseille","lat":43.30555,"lon":5.36505,"is_reserved":false,"is_disabled":false,"rental_uris":{"android":"levelo://app?vid=579e97b7-88d9-4715-b216-b400da85c1f8","ios":"levelo://app?vid=579e97b7-88d9-4715-b216-b400da85c1f8"},"vehicle_type_id":"4","last_reported":1739714908,"current_range_meters":32000,"station_id":"ce4bgs12rcd13ifvqcag","pricing_plan_id":"cebpf4jnsgd1na2vs0mg"},{"bike_id":"1b61f379-a116-493f-897c-3b57931c5f78","system_id":"levelo_inurba_marseille","lat":43.27375,"lon":5.36255,"is_reserved":false,"is_disabled":false,"rental_uris":{"android":"levelo://app?vid=1b61f379-a116-493f-897c-3b57931c5f78","ios":"levelo://app?vid=1b61f379-a116-493f-897c-3b57931c5f78"},"vehicle_type_id":"4","last_reported":1739714908,"current_range_meters":18000,"station_id":"ce4bhbh2rcd13ifvqeo0","pricing_plan_id":"cebpf4jnsgd1na2vs0mg"},{"bike_id":"aad5f3a6-30bd-4356-b6cd-5a426da569eb","system_id":"levelo_inurba_marseille","lat":43.28598,"lon":5.3707,"is_reserved":false,"is_disabled":false,"rental_uris":{"android":"levelo://app?vid=aad5f3a6-30bd-4356-b6cd-5a426da569eb","ios":"levelo://app?vid=aad5f3a6-30bd-4356-b6cd-5a426da569eb"},"vehicle_type_id":"4","last_reported":1739714908,"current_range_meters":32800,"station_id":"ce4bht12rcd13ifvqi60","pricing_plan_id":"cebpf4jnsgd1na2vs0mg"},{"bike_id":"f591746f-ec8c-402e-9035-4f8301e87a24","system_id":"levelo_inurba_marseille","lat":43.29267,"lon":5.38458,"is_reserved":false,"is_disabled":false,"rental_uris":{"android":"levelo://app?vid=f591746f-ec8c-402e-9035-4f8301e87a24","ios":"levelo://app?vid=f591746f-ec8c-402e-9035-4f8301e87a24"},"vehicle_type_id":"4","last_reported":1739714908,"current_range_meters":25200,"station_id":"ce4bh692rcd13ifvqea0","pricing_plan_id":"cebpf4jnsgd1na2vs0mg"},{"bike_id":"fa0fcbb0-344c-411e-b0ee-f0d5e170869d","system_id":"levelo_inurba_marseille","lat":43.29186,"lon":5.35797,"is_reserved":false,"is_disabled":true,"rental_uris":{"android":"levelo://app?vid=fa0fcbb0-344c-411e-b0ee-f0d5e170869d","ios":"levelo://app?vid=fa0fcbb0-344c-411e-b0ee-f0d5e170869d"},"vehicle_type_id":"4","last_reported":1739714908,"current_range_meters":2000,"station_id":"ce4bhb12rcd13ifvqel0","pricing_plan_id":"cebpf4jnsgd1na2vs0mg"},{"bike_id":"b9fe6f39-188a-4771-8adc-27a57052762e","system_id":"levelo_inurba_marseille","lat":43.26788,"lon":5.39417,"is_reserved":false,"is_disabled":false,"rental_uris":{"android":"levelo://app?vid=b9fe6f39-188a-4771-8adc-27a57052762e","ios":"levelo://app?vid=b9fe6f39-188a-4771-8adc-27a57052762e"},"vehicle_type_id":"4","last_reported":1739714908,"current_range_meters":38400,"station_id":"ce4bhh12rcd13ifvqfg0","pricing_plan_id":"cebpf4jnsgd1na2vs0mg"},{"bike_id":"17c1fb5e-239d-439e-95a5-5f15402f5925","system_id":"levelo_inurba_marseille","lat":43.2993,"lon":5.36532,"is_reserved":false,"is_disabled":false,"rental_uris":{"android":"levelo://app?vid=17c1fb5e-239d-439e-95a5-5f15402f5925","ios":"levelo://app?vid=17c1fb5e-239d-439e-95a5-5f15402f5925"},"vehicle_type_id":"4","last_reported":1739714908,"current_range_meters":28800,"station_id":"ce4bgm92rcd13ifvqbr0","pricing_plan_id":"cebpf4jnsgd1na2vs0mg"},{"bike_id":"51ab7186-5043-4bed-baca-73708608a302","system_id":"levelo_inurba_marseille","lat":43.29584,"lon":5.37026,"is_reserved":false,"is_disabled":true,"rental_uris":{"android":"levelo://app?vid=51ab7186-5043-4bed-baca-73708608a302","ios":"levelo://app?vid=51ab7186-5043-4bed-baca-73708608a302"},"vehicle_type_id":"4","last_reported":1739714908,"current_range_meters":0,"station_id":"","pricing_plan_id":"cebpf4jnsgd1na2vs0mg"},{"bike_id":"c24221ee-16c4-4753-926a-a71a795e06ff","system_id":"levelo_inurba_marseille","lat":43.29977,"lon":5.37193,"is_reserved":false,"is_disabled":false,"rental_uris":{"android":"levelo://app?vid=c24221ee-16c4-4753-926a-a71a795e06ff","ios":"levelo://app?vid=c24221ee-16c4-4753-926a-a71a795e06ff"},"vehicle_type_id":"4","last_reported":1739714908,"current_range_meters":39200,"station_id":"ce4bgr92rcd13ifvqc7g","pricing_plan_id":"cebpf4jnsgd1na2vs0mg"},{"bike_id":"9fdb08b8-1ceb-474a-abf2-04c699884b4a","system_id":"levelo_inurba_marseille","lat":43.23188,"lon":5.35562,"is_reserved":false,"is_disabled":false,"rental_uris":{"android":"levelo://app?vid=9fdb08b8-1ceb-474a-abf2-04c699884b4a","ios":"levelo://app?vid=9fdb08b8-1ceb-474a-abf2-04c699884b4a"},"vehicle_type_id":"4","last_reported":1739714908,"current_range_meters":36800,"station_id":"ce4bhu92rcd13ifvqi70","pricing_plan_id":"cebpf4jnsgd1na2vs0mg"},{"bike_id":"485502f3-3b80-4687-aac8-10dc57118684","system_id":"levelo_inurba_marseille","lat":43.26231,"lon":5.40448,"is_reserved":false,"is_disabled":false,"rental_uris":{"android":"levelo://app?vid=485502f3-3b80-4687-aac8-10dc57118684","ios":"levelo://app?vid=485502f3-3b80-4687-aac8-10dc57118684"},"vehicle_type_id":"4","last_reported":1739714908,"current_range_meters":9600,"station_id":"ce4bhmh2rcd13ifvqgmg","pricing_plan_id":"cebpf4jnsgd1na2vs0mg"},{"bike_id":"9c2b77e8-bae1-455e-8815-4989d9f32bed","system_id":"levelo_inurba_marseille","lat":43.27614,"lon":5.36123,"is_reserved":false,"is_disabled":false,"rental_uris":{"android":"levelo://app?vid=9c2b77e8-bae1-455e-8815-4989d9f32bed","ios":"levelo://app?vid=9c2b77e8-bae1-455e-8815-4989d9f32bed"},"vehicle_type_id":"4","last_reported":1739714908,"current_range_meters":10800,"station_id":"ce4bgj92rcd13ifvqbe0","pricing_plan_id":"cebpf4jnsgd1na2vs0mg"},{"bike_id":"bda6743b-c516-4a32-869d-e95d5efdde5b","system_id":"levelo_inurba_marseille","lat":43.28608,"lon":5.37063,"is_reserved":false,"is_disabled":false,"rental_uris":{"android":"levelo://app?vid=bda6743b-c516-4a32-869d-e95d5efdde5b","ios":"levelo://app?vid=bda6743b-c516-4a32-869d-e95d5efdde5b"},"vehicle_type_id":"4","last_reported":1739714908,"current_range_meters":38400,"station_id":"ce4bht12rcd13ifvqi60","pricing_plan_id":"cebpf4jnsgd1na2vs0mg"},{"bike_id":"2d744cd1-8083-459a-b942-57bd28387959","system_id":"levelo_inurba_marseille","lat":43.255847,"lon":5.382429,"is_reserved":false,"is_disabled":false,"rental_uris":{"android":"levelo://app?vid=2d744cd1-8083-459a-b942-57bd28387959","ios":"levelo://app?vid=2d744cd1-8083-459a-b942-57bd28387959"},"vehicle_type_id":"4","last_reported":1739714908,"current_range_meters":20800,"station_id":"ce4bhih2rcd13ifvqfs0","pricing_plan_id":"cebpf4jnsgd1na2vs0mg"},{"bike_id":"c40e2cb9-b89c-4dbd-956b-535ef79f1d37","system_id":"levelo_inurba_marseille","lat":43.24806,"lon":5.37437,"is_reserved":false,"is_disabled":false,"rental_uris":{"android":"levelo://app?vid=c40e2cb9-b89c-4dbd-956b-535ef79f1d37","ios":"levelo://app?vid=c40e2cb9-b89c-4dbd-956b-535ef79f1d37"},"vehicle_type_id":"4","last_reported":1739714908,"current_range_meters":18800,"station_id":"ce4bhgh2rcd13ifvqfb0","pricing_plan_id":"cebpf4jnsgd1na2vs0mg"},{"bike_id":"621aa48b-6d99-46c4-b886-2c6eb903854e","system_id":"levelo_inurba_marseille","lat":43.29255,"lon":5.36866,"is_reserved":false,"is_disabled":true,"rental_uris":{"android":"levelo://app?vid=621aa48b-6d99-46c4-b886-2c6eb903854e","ios":"levelo://app?vid=621aa48b-6d99-46c4-b886-2c6eb903854e"},"vehicle_type_id":"4","last_reported":1739714908,"current_range_meters":28400,"station_id":"ce4bhbp2rcd13ifvqesg","pricing_plan_id":"cebpf4jnsgd1na2vs0mg"},{"bike_id":"6494546c-3623-47f8-8fe9-200642155877","system_id":"levelo_inurba_marseille","lat":43.32658,"lon":5.40987,"is_reserved":false,"is_disabled":false,"rental_uris":{"android":"levelo://app?vid=6494546c-3623-47f8-8fe9-200642155877","ios":"levelo://app?vid=6494546c-3623-47f8-8fe9-200642155877"},"vehicle_type_id":"4","last_reported":1739714908,"current_range_meters":38800,"station_id":"ce4bhpp2rcd13ifvqhgg","pricing_plan_id":"cebpf4jnsgd1na2vs0mg"},{"bike_id":"8ea8a511-fb9d-427a-9d43-0669507fa2be","system_id":"levelo_inurba_marseille","lat":43.32489,"lon":5.36568,"is_reserved":false,"is_disabled":false,"rental_uris":{"android":"levelo://app?vid=8ea8a511-fb9d-427a-9d43-0669507fa2be","ios":"levelo://app?vid=8ea8a511-fb9d-427a-9d43-0669507fa2be"},"vehicle_type_id":"4","last_reported":1739714908,"current_range_meters":38800,"station_id":"ce4bhs12rcd13ifvqhvg","pricing_plan_id":"cebpf4jnsgd1na2vs0mg"},{"bike_id":"4afd05b5-41e1-4012-b907-304d88773920","system_id":"levelo_inurba_marseille","lat":43.23967,"lon":5.36633,"is_reserved":false,"is_disabled":false,"rental_uris":{"android":"levelo://app?vid=4afd05b5-41e1-4012-b907-304d88773920","ios":"levelo://app?vid=4afd05b5-41e1-4012-b907-304d88773920"},"vehicle_type_id":"4","last_reported":1739714908,"current_range_meters":36400,"station_id":"ce4bhi12rcd13ifvqfp0","pricing_plan_id":"cebpf4jnsgd1na2vs0mg"},{"bike_id":"981b4c06-d6c6-4c97-8db8-0837343d75bf","system_id":"levelo_inurba_marseille","lat":43.28105,"lon":5.37841,"is_reserved":false,"is_disabled":false,"rental_uris":{"android":"levelo://app?vid=981b4c06-d6c6-4c97-8db8-0837343d75bf","ios":"levelo://app?vid=981b4c06-d6c6-4c97-8db8-0837343d75bf"},"vehicle_type_id":"4","last_reported":1739714908,"current_range_meters":25200,"station_id":"ce4bha12rcd13ifvqee0","pricing_plan_id":"cebpf4jnsgd1na2vs0mg"},{"bike_id":"af02ac68-734a-4337-a76f-2d6f15936fdf","system_id":"levelo_inurba_marseille","lat":43.28151,"lon":5.42641,"is_reserved":false,"is_disabled":false,"rental_uris":{"android":"levelo://app?vid=af02ac68-734a-4337-a76f-2d6f15936fdf","ios":"levelo://app?vid=af02ac68-734a-4337-a76f-2d6f15936fdf"},"vehicle_type_id":"4","last_reported":1739714908,"current_range_meters":36800,"station_id":"ce4bhnh2rcd13ifvqgug","pricing_plan_id":"cebpf4jnsgd1na2vs0mg"},{"bike_id":"5868ad6d-00da-4949-9883-01a45fe79ae4","system_id":"levelo_inurba_marseille","lat":43.26212,"lon":5.37446,"is_reserved":false,"is_disabled":false,"rental_uris":{"android":"levelo://app?vid=5868ad6d-00da-4949-9883-01a45fe79ae4","ios":"levelo://app?vid=5868ad6d-00da-4949-9883-01a45fe79ae4"},"vehicle_type_id":"4","last_reported":1739714908,"current_range_meters":23200,"station_id":"ce4bhgp2rcd13ifvqfc0","pricing_plan_id":"cebpf4jnsgd1na2vs0mg"},{"bike_id":"ce69f08a-f654-416f-a0c8-3b25f918be1f","system_id":"levelo_inurba_marseille","lat":43.28273,"lon":5.35086,"is_reserved":false,"is_disabled":false,"rental_uris":{"android":"levelo://app?vid=ce69f08a-f654-416f-a0c8-3b25f918be1f","ios":"levelo://app?vid=ce69f08a-f654-416f-a0c8-3b25f918be1f"},"vehicle_type_id":"4","last_reported":1739714908,"current_range_meters":24400,"station_id":"ce4bhbp2rcd13ifvqerg","pricing_plan_id":"cebpf4jnsgd1na2vs0mg"},{"bike_id":"9936bf9d-59bc-4aef-ba87-3c19f942e233","system_id":"levelo_inurba_marseille","lat":43.29842,"lon":5.36281,"is_reserved":false,"is_disabled":false,"rental_uris":{"android":"levelo://app?vid=9936bf9d-59bc-4aef-ba87-3c19f942e233","ios":"levelo://app?vid=9936bf9d-59bc-4aef-ba87-3c19f942e233"},"vehicle_type_id":"4","last_reported":1739714908,"current_range_meters":30000,"station_id":"ce4bgpp2rcd13ifvqc3g","pricing_plan_id":"cebpf4jnsgd1na2vs0mg"},{"bike_id":"d7fe5b47-0e63-4dd5-af94-e3f7fdb5c0f4","system_id":"levelo_inurba_marseille","lat":43.30536,"lon":5.3842,"is_reserved":false,"is_disabled":false,"rental_uris":{"android":"levelo://app?vid=d7fe5b47-0e63-4dd5-af94-e3f7fdb5c0f4","ios":"levelo://app?vid=d7fe5b47-0e63-4dd5-af94-e3f7fdb5c0f4"},"vehicle_type_id":"4","last_reported":1739714908,"current_range_meters":39200,"station_id":"ce4bgg92rcd13ifvqb30","pricing_plan_id":"cebpf4jnsgd1na2vs0mg"},{"bike_id":"3ce3dae2-ed5f-43cb-bad9-b317ce2471d9","system_id":"levelo_inurba_marseille","lat":43.24821,"lon":5.37466,"is_reserved":false,"is_disabled":false,"rental_uris":{"android":"levelo://app?vid=3ce3dae2-ed5f-43cb-bad9-b317ce2471d9","ios":"levelo://app?vid=3ce3dae2-ed5f-43cb-bad9-b317ce2471d9"},"vehicle_type_id":"4","last_reported":1739714908,"current_range_meters":37600,"station_id":"ce4bhgh2rcd13ifvqfb0","pricing_plan_id":"cebpf4jnsgd1na2vs0mg"},{"bike_id":"397f7144-3e20-4f61-9149-2720265fc375","system_id":"levelo_inurba_marseille","lat":43.24079,"lon":5.37758,"is_reserved":false,"is_disabled":false,"rental_uris":{"android":"levelo://app?vid=397f7144-3e20-4f61-9149-2720265fc375","ios":"levelo://app?vid=397f7144-3e20-4f61-9149-2720265fc375"},"vehicle_type_id":"4","last_reported":1739714908,"current_range_meters":35200,"station_id":"ce4bhnp2rcd13ifvqgvg","pricing_plan_id":"cebpf4jnsgd1na2vs0mg"},{"bike_id":"de329d6a-c6ff-4db1-a0db-786159e14c74","system_id":"levelo_inurba_marseille","lat":43.30577,"lon":5.36522,"is_reserved":false,"is_disabled":false,"rental_uris":{"android":"levelo://app?vid=de329d6a-c6ff-4db1-a0db-786159e14c74","ios":"levelo://app?vid=de329d6a-c6ff-4db1-a0db-786159e14c74"},"vehicle_type_id":"4","last_reported":1739714908,"current_range_meters":26800,"station_id":"ce4bgs12rcd13ifvqcag","pricing_plan_id":"cebpf4jnsgd1na2vs0mg"},{"bike_id":"4c25e05c-f1ba-4db8-a06b-cf8e8e071ec4","system_id":"levelo_inurba_marseille","lat":43.28937,"lon":5.36629,"is_reserved":false,"is_disabled":false,"rental_uris":{"android":"levelo://app?vid=4c25e05c-f1ba-4db8-a06b-cf8e8e071ec4","ios":"levelo://app?vid=4c25e05c-f1ba-4db8-a06b-cf8e8e071ec4"},"vehicle_type_id":"4","last_reported":1739714908,"current_range_meters":38800,"station_id":"ce4bhap2rcd13ifvqek0","pricing_plan_id":"cebpf4jnsgd1na2vs0mg"},{"bike_id":"9acdfb9e-14d5-45e5-a3f2-7e2a2aa09557","system_id":"levelo_inurba_marseille","lat":43.29225,"lon":5.360497,"is_reserved":false,"is_disabled":false,"rental_uris":{"android":"levelo://app?vid=9acdfb9e-14d5-45e5-a3f2-7e2a2aa09557","ios":"levelo://app?vid=9acdfb9e-14d5-45e5-a3f2-7e2a2aa09557"},"vehicle_type_id":"4","last_reported":1739714908,"current_range_meters":12800,"station_id":"ce4bhbh2rcd13ifvqeqg","pricing_plan_id":"cebpf4jnsgd1na2vs0mg"},{"bike_id":"9d7c84b1-5e85-40b5-9214-0ea5f354ecac","system_id":"levelo_inurba_marseille","lat":43.2862,"lon":5.38456,"is_reserved":false,"is_disabled":false,"rental_uris":{"android":"levelo://app?vid=9d7c84b1-5e85-40b5-9214-0ea5f354ecac","ios":"levelo://app?vid=9d7c84b1-5e85-40b5-9214-0ea5f354ecac"},"vehicle_type_id":"4","last_reported":1739714908,"current_range_meters":9600,"station_id":"","pricing_plan_id":"cebpf4jnsgd1na2vs0mg"},{"bike_id":"d505ae6b-8401-49d2-a7e3-85c98bc77f1c","system_id":"levelo_inurba_marseille","lat":43.32352,"lon":5.40611,"is_reserved":false,"is_disabled":false,"rental_uris":{"android":"levelo://app?vid=d505ae6b-8401-49d2-a7e3-85c98bc77f1c","ios":"levelo://app?vid=d505ae6b-8401-49d2-a7e3-85c98bc77f1c"},"vehicle_type_id":"4","last_reported":1739714908,"current_range_meters":18800,"station_id":"ce4bhq92rcd13ifvqhjg","pricing_plan_id":"cebpf4jnsgd1na2vs0mg"},{"bike_id":"d4d36247-2aab-4add-8265-c91892033971","system_id":"levelo_inurba_marseille","lat":43.27808,"lon":5.4071,"is_reserved":false,"is_disabled":false,"rental_uris":{"android":"levelo://app?vid=d4d36247-2aab-4add-8265-c91892033971","ios":"levelo://app?vid=d4d36247-2aab-4add-8265-c91892033971"},"vehicle_type_id":"4","last_reported":1739714908,"current_range_meters":17600,"station_id":"ce4bhnh2rcd13ifvqgtg","pricing_plan_id":"cebpf4jnsgd1na2vs0mg"},{"bike_id":"6408b994-ae56-4e32-95b9-cb0502299b0f","system_id":"levelo_inurba_marseille","lat":43.29552,"lon":5.42272,"is_reserved":false,"is_disabled":false,"rental_uris":{"android":"levelo://app?vid=6408b994-ae56-4e32-95b9-cb0502299b0f","ios":"levelo://app?vid=6408b994-ae56-4e32-95b9-cb0502299b0f"},"vehicle_type_id":"4","last_reported":1739714908,"current_range_meters":38000,"station_id":"ce4bhph2rcd13ifvqhdg","pricing_plan_id":"cebpf4jnsgd1na2vs0mg"},{"bike_id":"0fb477a7-1eb0-47ce-9e15-77231931a16a","system_id":"levelo_inurba_marseille","lat":43.23179,"lon":5.39985,"is_reserved":false,"is_disabled":false,"rental_uris":{"android":"levelo://app?vid=0fb477a7-1eb0-47ce-9e15-77231931a16a","ios":"levelo://app?vid=0fb477a7-1eb0-47ce-9e15-77231931a16a"},"vehicle_type_id":"4","last_reported":1739714908,"current_range_meters":29600,"station_id":"ce4bhn12rcd13ifvqgqg","pricing_plan_id":"cebpf4jnsgd1na2vs0mg"},{"bike_id":"982c499f-f482-40de-b19f-0c738b7d10ae","system_id":"levelo_inurba_marseille","lat":43.24807,"lon":5.37456,"is_reserved":false,"is_disabled":false,"rental_uris":{"android":"levelo://app?vid=982c499f-f482-40de-b19f-0c738b7d10ae","ios":"levelo://app?vid=982c499f-f482-40de-b19f-0c738b7d10ae"},"vehicle_type_id":"4","last_reported":1739714908,"current_range_meters":39200,"station_id":"ce4bhgh2rcd13ifvqfb0","pricing_plan_id":"cebpf4jnsgd1na2vs0mg"},{"bike_id":"98f62326-8a26-4889-8233-3fa661e57e03","system_id":"levelo_inurba_marseille","lat":43.251097,"lon":5.403196,"is_reserved":false,"is_disabled":false,"rental_uris":{"android":"levelo://app?vid=98f62326-8a26-4889-8233-3fa661e57e03","ios":"levelo://app?vid=98f62326-8a26-4889-8233-3fa661e57e03"},"vehicle_type_id":"4","last_reported":1739714908,"current_range_meters":8000,"station_id":"ce4bhlh2rcd13ifvqgig","pricing_plan_id":"cebpf4jnsgd1na2vs0mg"},{"bike_id":"1318b295-cc52-44b6-9cc4-f836aa4c2361","system_id":"levelo_inurba_marseille","lat":43.25498,"lon":5.3764,"is_reserved":false,"is_disabled":false,"rental_uris":{"android":"levelo://app?vid=1318b295-cc52-44b6-9cc4-f836aa4c2361","ios":"levelo://app?vid=1318b295-cc52-44b6-9cc4-f836aa4c2361"},"vehicle_type_id":"4","last_reported":1739714908,"current_range_meters":35200,"station_id":"ce4bhh12rcd13ifvqff0","pricing_plan_id":"cebpf4jnsgd1na2vs0mg"},{"bike_id":"20da38fd-9510-40dc-8129-163fa30b3edb","system_id":"levelo_inurba_marseille","lat":43.306384,"lon":5.400858,"is_reserved":false,"is_disabled":false,"rental_uris":{"android":"levelo://app?vid=20da38fd-9510-40dc-8129-163fa30b3edb","ios":"levelo://app?vid=20da38fd-9510-40dc-8129-163fa30b3edb"},"vehicle_type_id":"4","last_reported":1739714908,"current_range_meters":30400,"station_id":"ce4bh112rcd13ifvqda0","pricing_plan_id":"cebpf4jnsgd1na2vs0mg"},{"bike_id":"277853b3-9933-4cb3-bbb5-1b8c760313ef","system_id":"levelo_inurba_marseille","lat":43.23193,"lon":5.35557,"is_reserved":false,"is_disabled":false,"rental_uris":{"android":"levelo://app?vid=277853b3-9933-4cb3-bbb5-1b8c760313ef","ios":"levelo://app?vid=277853b3-9933-4cb3-bbb5-1b8c760313ef"},"vehicle_type_id":"4","last_reported":1739714908,"current_range_meters":4800,"station_id":"ce4bhu92rcd13ifvqi70","pricing_plan_id":"cebpf4jnsgd1na2vs0mg"},{"bike_id":"265ccf22-a162-4f39-8e8c-a647f59c9078","system_id":"levelo_inurba_marseille","lat":43.24674,"lon":5.38128,"is_reserved":false,"is_disabled":false,"rental_uris":{"android":"levelo://app?vid=265ccf22-a162-4f39-8e8c-a647f59c9078","ios":"levelo://app?vid=265ccf22-a162-4f39-8e8c-a647f59c9078"},"vehicle_type_id":"4","last_reported":1739714908,"current_range_meters":26000,"station_id":"ce4bhih2rcd13ifvqfr0","pricing_plan_id":"cebpf4jnsgd1na2vs0mg"},{"bike_id":"4e1f36bf-920b-407f-bd8e-e12200457304","system_id":"levelo_inurba_marseille","lat":43.27784,"lon":5.40724,"is_reserved":false,"is_disabled":false,"rental_uris":{"android":"levelo://app?vid=4e1f36bf-920b-407f-bd8e-e12200457304","ios":"levelo://app?vid=4e1f36bf-920b-407f-bd8e-e12200457304"},"vehicle_type_id":"4","last_reported":1739714908,"current_range_meters":38000,"station_id":"ce4bhnh2rcd13ifvqgtg","pricing_plan_id":"cebpf4jnsgd1na2vs0mg"},{"bike_id":"7df33989-9cd1-4583-a90f-25c190f648b5","system_id":"levelo_inurba_marseille","lat":43.29382,"lon":5.38617,"is_reserved":false,"is_disabled":false,"rental_uris":{"android":"levelo://app?vid=7df33989-9cd1-4583-a90f-25c190f648b5","ios":"levelo://app?vid=7df33989-9cd1-4583-a90f-25c190f648b5"},"vehicle_type_id":"4","last_reported":1739714908,"current_range_meters":29600,"station_id":"ce4bh2h2rcd13ifvqdh0","pricing_plan_id":"cebpf4jnsgd1na2vs0mg"},{"bike_id":"9ee876c1-a956-404d-b97e-c331158702a5","system_id":"levelo_inurba_marseille","lat":43.25497,"lon":5.37643,"is_reserved":false,"is_disabled":false,"rental_uris":{"android":"levelo://app?vid=9ee876c1-a956-404d-b97e-c331158702a5","ios":"levelo://app?vid=9ee876c1-a956-404d-b97e-c331158702a5"},"vehicle_type_id":"4","last_reported":1739714908,"current_range_meters":28400,"station_id":"ce4bhh12rcd13ifvqff0","pricing_plan_id":"cebpf4jnsgd1na2vs0mg"},{"bike_id":"20dca62c-279f-4d77-befc-f9aa410b4d31","system_id":"levelo_inurba_marseille","lat":43.24661,"lon":5.3816,"is_reserved":false,"is_disabled":false,"rental_uris":{"android":"levelo://app?vid=20dca62c-279f-4d77-befc-f9aa410b4d31","ios":"levelo://app?vid=20dca62c-279f-4d77-befc-f9aa410b4d31"},"vehicle_type_id":"4","last_reported":1739714908,"current_range_meters":38800,"station_id":"ce4bhih2rcd13ifvqfr0","pricing_plan_id":"cebpf4jnsgd1na2vs0mg"},{"bike_id":"482fe5a6-c384-4e25-9cb1-a775a8541cf3","system_id":"levelo_inurba_marseille","lat":43.27427,"lon":5.39425,"is_reserved":false,"is_disabled":false,"rental_uris":{"android":"levelo://app?vid=482fe5a6-c384-4e25-9cb1-a775a8541cf3","ios":"levelo://app?vid=482fe5a6-c384-4e25-9cb1-a775a8541cf3"},"vehicle_type_id":"4","last_reported":1739714908,"current_range_meters":36800,"station_id":"ce4bhdp2rcd13ifvqf20","pricing_plan_id":"cebpf4jnsgd1na2vs0mg"},{"bike_id":"30ea1aa1-f18a-46ba-baa0-81223557424e","system_id":"levelo_inurba_marseille","lat":43.27605,"lon":5.36106,"is_reserved":false,"is_disabled":false,"rental_uris":{"android":"levelo://app?vid=30ea1aa1-f18a-46ba-baa0-81223557424e","ios":"levelo://app?vid=30ea1aa1-f18a-46ba-baa0-81223557424e"},"vehicle_type_id":"4","last_reported":1739714908,"current_range_meters":29600,"station_id":"ce4bgj92rcd13ifvqbe0","pricing_plan_id":"cebpf4jnsgd1na2vs0mg"},{"bike_id":"23b444ef-90ed-4509-b4a2-cce013b96af6","system_id":"levelo_inurba_marseille","lat":43.28423,"lon":5.34994,"is_reserved":false,"is_disabled":false,"rental_uris":{"android":"levelo://app?vid=23b444ef-90ed-4509-b4a2-cce013b96af6","ios":"levelo://app?vid=23b444ef-90ed-4509-b4a2-cce013b96af6"},"vehicle_type_id":"4","last_reported":1739714908,"current_range_meters":28400,"station_id":"ce4bhbh2rcd13ifvqepg","pricing_plan_id":"cebpf4jnsgd1na2vs0mg"},{"bike_id":"43a8e59d-5741-42c6-ba88-b5cc51c0b599","system_id":"levelo_inurba_marseille","lat":43.29766,"lon":5.37101,"is_reserved":false,"is_disabled":false,"rental_uris":{"android":"levelo://app?vid=43a8e59d-5741-42c6-ba88-b5cc51c0b599","ios":"levelo://app?vid=43a8e59d-5741-42c6-ba88-b5cc51c0b599"},"vehicle_type_id":"4","last_reported":1739714908,"current_range_meters":38800,"station_id":"ce4bgop2rcd13ifvqc1g","pricing_plan_id":"cebpf4jnsgd1na2vs0mg"},{"bike_id":"4f94d3ea-2fa8-406d-ac76-1cdda1cdfddb","system_id":"levelo_inurba_marseille","lat":43.32485,"lon":5.36554,"is_reserved":false,"is_disabled":false,"rental_uris":{"android":"levelo://app?vid=4f94d3ea-2fa8-406d-ac76-1cdda1cdfddb","ios":"levelo://app?vid=4f94d3ea-2fa8-406d-ac76-1cdda1cdfddb"},"vehicle_type_id":"4","last_reported":1739714908,"current_range_meters":30800,"station_id":"ce4bhs12rcd13ifvqhvg","pricing_plan_id":"cebpf4jnsgd1na2vs0mg"},{"bike_id":"97b926e3-035c-43d6-977e-78e3eaa37d74","system_id":"levelo_inurba_marseille","lat":43.24801,"lon":5.37456,"is_reserved":false,"is_disabled":false,"rental_uris":{"android":"levelo://app?vid=97b926e3-035c-43d6-977e-78e3eaa37d74","ios":"levelo://app?vid=97b926e3-035c-43d6-977e-78e3eaa37d74"},"vehicle_type_id":"4","last_reported":1739714908,"current_range_meters":14800,"station_id":"ce4bhgh2rcd13ifvqfb0","pricing_plan_id":"cebpf4jnsgd1na2vs0mg"},{"bike_id":"f9b82814-5282-4b8a-b7e8-9e6eb85e4849","system_id":"levelo_inurba_marseille","lat":43.28259,"lon":5.35065,"is_reserved":false,"is_disabled":false,"rental_uris":{"android":"levelo://app?vid=f9b82814-5282-4b8a-b7e8-9e6eb85e4849","ios":"levelo://app?vid=f9b82814-5282-4b8a-b7e8-9e6eb85e4849"},"vehicle_type_id":"4","last_reported":1739714908,"current_range_meters":38800,"station_id":"ce4bhbp2rcd13ifvqerg","pricing_plan_id":"cebpf4jnsgd1na2vs0mg"},{"bike_id":"917b1dc0-adb2-4903-84ef-22990e0daa55","system_id":"levelo_inurba_marseille","lat":43.3041,"lon":5.4128,"is_reserved":false,"is_disabled":false,"rental_uris":{"android":"levelo://app?vid=917b1dc0-adb2-4903-84ef-22990e0daa55","ios":"levelo://app?vid=917b1dc0-adb2-4903-84ef-22990e0daa55"},"vehicle_type_id":"4","last_reported":1739714908,"current_range_meters":33200,"station_id":"ce4bhop2rcd13ifvqh8g","pricing_plan_id":"cebpf4jnsgd1na2vs0mg"},{"bike_id":"5c5fb770-9fca-4e45-ab6c-b6126d5fc12c","system_id":"levelo_inurba_marseille","lat":43.26031,"lon":5.37548,"is_reserved":false,"is_disabled":false,"rental_uris":{"android":"levelo://app?vid=5c5fb770-9fca-4e45-ab6c-b6126d5fc12c","ios":"levelo://app?vid=5c5fb770-9fca-4e45-ab6c-b6126d5fc12c"},"vehicle_type_id":"4","last_reported":1739714908,"current_range_meters":33600,"station_id":"ce4bhgh2rcd13ifvqfa0","pricing_plan_id":"cebpf4jnsgd1na2vs0mg"},{"bike_id":"03eba1d0-92c1-4e6e-a4d0-7c546f2439c0","system_id":"levelo_inurba_marseille","lat":43.337444,"lon":5.374475,"is_reserved":false,"is_disabled":true,"rental_uris":{"android":"levelo://app?vid=03eba1d0-92c1-4e6e-a4d0-7c546f2439c0","ios":"levelo://app?vid=03eba1d0-92c1-4e6e-a4d0-7c546f2439c0"},"vehicle_type_id":"4","last_reported":1739714908,"current_range_meters":0,"station_id":"","pricing_plan_id":"cebpf4jnsgd1na2vs0mg"},{"bike_id":"2b51a041-a600-4f69-92f9-b5941fc7c79e","system_id":"levelo_inurba_marseille","lat":43.28444,"lon":5.39178,"is_reserved":false,"is_disabled":true,"rental_uris":{"android":"levelo://app?vid=2b51a041-a600-4f69-92f9-b5941fc7c79e","ios":"levelo://app?vid=2b51a041-a600-4f69-92f9-b5941fc7c79e"},"vehicle_type_id":"4","last_reported":1739714908,"current_range_meters":28000,"station_id":"ce4bhoh2rcd13ifvqh5g","pricing_plan_id":"cebpf4jnsgd1na2vs0mg"},{"bike_id":"653b3681-8d49-4063-97bd-177fe11162f9","system_id":"levelo_inurba_marseille","lat":43.25481,"lon":5.37664,"is_reserved":false,"is_disabled":true,"rental_uris":{"android":"levelo://app?vid=653b3681-8d49-4063-97bd-177fe11162f9","ios":"levelo://app?vid=653b3681-8d49-4063-97bd-177fe11162f9"},"vehicle_type_id":"4","last_reported":1739714908,"current_range_meters":32400,"station_id":"ce4bhh12rcd13ifvqff0","pricing_plan_id":"cebpf4jnsgd1na2vs0mg"},{"bike_id":"dc8f3a1c-f2fe-4b0d-b970-db9c4df9a40d","system_id":"levelo_inurba_marseille","lat":43.28413,"lon":5.34991,"is_reserved":false,"is_disabled":false,"rental_uris":{"android":"levelo://app?vid=dc8f3a1c-f2fe-4b0d-b970-db9c4df9a40d","ios":"levelo://app?vid=dc8f3a1c-f2fe-4b0d-b970-db9c4df9a40d"},"vehicle_type_id":"4","last_reported":1739714908,"current_range_meters":24800,"station_id":"ce4bhbh2rcd13ifvqepg","pricing_plan_id":"cebpf4jnsgd1na2vs0mg"},{"bike_id":"3341758d-d181-4d02-b02c-6161e8816e88","system_id":"levelo_inurba_marseille","lat":43.31901,"lon":5.40738,"is_reserved":false,"is_disabled":false,"rental_uris":{"android":"levelo://app?vid=3341758d-d181-4d02-b02c-6161e8816e88","ios":"levelo://app?vid=3341758d-d181-4d02-b02c-6161e8816e88"},"vehicle_type_id":"4","last_reported":1739714908,"current_range_meters":17200,"station_id":"ce4bhq12rcd13ifvqhig","pricing_plan_id":"cebpf4jnsgd1na2vs0mg"},{"bike_id":"7643b455-5b89-40a9-ad1c-340bcabaffa6","system_id":"levelo_inurba_marseille","lat":43.2756,"lon":5.38429,"is_reserved":false,"is_disabled":false,"rental_uris":{"android":"levelo://app?vid=7643b455-5b89-40a9-ad1c-340bcabaffa6","ios":"levelo://app?vid=7643b455-5b89-40a9-ad1c-340bcabaffa6"},"vehicle_type_id":"4","last_reported":1739714908,"current_range_meters":16000,"station_id":"ce4bhh92rcd13ifvqfi0","pricing_plan_id":"cebpf4jnsgd1na2vs0mg"},{"bike_id":"d7bb91c7-1e6c-4011-85a2-08678dbfba66","system_id":"levelo_inurba_marseille","lat":43.24414,"lon":5.37052,"is_reserved":false,"is_disabled":false,"rental_uris":{"android":"levelo://app?vid=d7bb91c7-1e6c-4011-85a2-08678dbfba66","ios":"levelo://app?vid=d7bb91c7-1e6c-4011-85a2-08678dbfba66"},"vehicle_type_id":"4","last_reported":1739714908,"current_range_meters":38400,"station_id":"ce4bhhh2rcd13ifvqfk0","pricing_plan_id":"cebpf4jnsgd1na2vs0mg"},{"bike_id":"3dcbcd07-29c0-4d83-90c1-7ee1639de8c0","system_id":"levelo_inurba_marseille","lat":43.31473,"lon":5.37322,"is_reserved":false,"is_disabled":false,"rental_uris":{"android":"levelo://app?vid=3dcbcd07-29c0-4d83-90c1-7ee1639de8c0","ios":"levelo://app?vid=3dcbcd07-29c0-4d83-90c1-7ee1639de8c0"},"vehicle_type_id":"4","last_reported":1739714908,"current_range_meters":38800,"station_id":"ce4bgt12rcd13ifvqcd0","pricing_plan_id":"cebpf4jnsgd1na2vs0mg"},{"bike_id":"1f52f3b3-3e4c-4076-9fe5-f4b3bb4b252a","system_id":"levelo_inurba_marseille","lat":43.27467,"lon":5.43518,"is_reserved":false,"is_disabled":true,"rental_uris":{"android":"levelo://app?vid=1f52f3b3-3e4c-4076-9fe5-f4b3bb4b252a","ios":"levelo://app?vid=1f52f3b3-3e4c-4076-9fe5-f4b3bb4b252a"},"vehicle_type_id":"4","last_reported":1739714908,"current_range_meters":0,"station_id":"","pricing_plan_id":"cebpf4jnsgd1na2vs0mg"},{"bike_id":"c72b9af2-1c64-4996-ad66-d58db384318e","system_id":"levelo_inurba_marseille","lat":43.27828,"lon":5.40696,"is_reserved":false,"is_disabled":false,"rental_uris":{"android":"levelo://app?vid=c72b9af2-1c64-4996-ad66-d58db384318e","ios":"levelo://app?vid=c72b9af2-1c64-4996-ad66-d58db384318e"},"vehicle_type_id":"4","last_reported":1739714908,"current_range_meters":24800,"station_id":"ce4bhnh2rcd13ifvqgtg","pricing_plan_id":"cebpf4jnsgd1na2vs0mg"},{"bike_id":"7810399a-aba8-4931-8563-2a4f4266c078","system_id":"levelo_inurba_marseille","lat":43.25107,"lon":5.40328,"is_reserved":false,"is_disabled":false,"rental_uris":{"android":"levelo://app?vid=7810399a-aba8-4931-8563-2a4f4266c078","ios":"levelo://app?vid=7810399a-aba8-4931-8563-2a4f4266c078"},"vehicle_type_id":"4","last_reported":1739714908,"current_range_meters":9200,"station_id":"ce4bhlh2rcd13ifvqgig","pricing_plan_id":"cebpf4jnsgd1na2vs0mg"},{"bike_id":"3be37666-9bb7-4eb0-8ca3-39be4135e22c","system_id":"levelo_inurba_marseille","lat":43.29189,"lon":5.35798,"is_reserved":false,"is_disabled":false,"rental_uris":{"android":"levelo://app?vid=3be37666-9bb7-4eb0-8ca3-39be4135e22c","ios":"levelo://app?vid=3be37666-9bb7-4eb0-8ca3-39be4135e22c"},"vehicle_type_id":"4","last_reported":1739714908,"current_range_meters":6000,"station_id":"ce4bhb12rcd13ifvqel0","pricing_plan_id":"cebpf4jnsgd1na2vs0mg"},{"bike_id":"bd1fbd17-5ecd-4c2a-9290-d1ffd1a70214","system_id":"levelo_inurba_marseille","lat":43.295504,"lon":5.422816,"is_reserved":false,"is_disabled":false,"rental_uris":{"android":"levelo://app?vid=bd1fbd17-5ecd-4c2a-9290-d1ffd1a70214","ios":"levelo://app?vid=bd1fbd17-5ecd-4c2a-9290-d1ffd1a70214"},"vehicle_type_id":"4","last_reported":1739714908,"current_range_meters":28400,"station_id":"ce4bhph2rcd13ifvqhdg","pricing_plan_id":"cebpf4jnsgd1na2vs0mg"},{"bike_id":"e98dd648-1ee2-4506-979d-802ba952a7d1","system_id":"levelo_inurba_marseille","lat":43.26508,"lon":5.39541,"is_reserved":false,"is_disabled":false,"rental_uris":{"android":"levelo://app?vid=e98dd648-1ee2-4506-979d-802ba952a7d1","ios":"levelo://app?vid=e98dd648-1ee2-4506-979d-802ba952a7d1"},"vehicle_type_id":"4","last_reported":1739714908,"current_range_meters":32000,"station_id":"ce4bhi12rcd13ifvqfq0","pricing_plan_id":"cebpf4jnsgd1na2vs0mg"},{"bike_id":"7c4f2369-2e96-414d-a611-cb9cff86f7df","system_id":"levelo_inurba_marseille","lat":43.29837,"lon":5.36272,"is_reserved":false,"is_disabled":false,"rental_uris":{"android":"levelo://app?vid=7c4f2369-2e96-414d-a611-cb9cff86f7df","ios":"levelo://app?vid=7c4f2369-2e96-414d-a611-cb9cff86f7df"},"vehicle_type_id":"4","last_reported":1739714908,"current_range_meters":35600,"station_id":"ce4bgpp2rcd13ifvqc3g","pricing_plan_id":"cebpf4jnsgd1na2vs0mg"},{"bike_id":"d2e01317-2950-420e-b1aa-8f1e4398c1e8","system_id":"levelo_inurba_marseille","lat":43.23192,"lon":5.3556,"is_reserved":false,"is_disabled":true,"rental_uris":{"android":"levelo://app?vid=d2e01317-2950-420e-b1aa-8f1e4398c1e8","ios":"levelo://app?vid=d2e01317-2950-420e-b1aa-8f1e4398c1e8"},"vehicle_type_id":"4","last_reported":1739714908,"current_range_meters":0,"station_id":"ce4bhu92rcd13ifvqi70","pricing_plan_id":"cebpf4jnsgd1na2vs0mg"},{"bike_id":"99b60497-417a-4e6c-9e27-ce3655ce5e57","system_id":"levelo_inurba_marseille","lat":43.30649,"lon":5.40091,"is_reserved":false,"is_disabled":true,"rental_uris":{"android":"levelo://app?vid=99b60497-417a-4e6c-9e27-ce3655ce5e57","ios":"levelo://app?vid=99b60497-417a-4e6c-9e27-ce3655ce5e57"},"vehicle_type_id":"4","last_reported":1739714908,"current_range_meters":24400,"station_id":"ce4bh112rcd13ifvqda0","pricing_plan_id":"cebpf4jnsgd1na2vs0mg"},{"bike_id":"e6b0896c-2dba-4642-a405-3eaa4443423a","system_id":"levelo_inurba_marseille","lat":43.2783,"lon":5.40685,"is_reserved":false,"is_disabled":false,"rental_uris":{"android":"levelo://app?vid=e6b0896c-2dba-4642-a405-3eaa4443423a","ios":"levelo://app?vid=e6b0896c-2dba-4642-a405-3eaa4443423a"},"vehicle_type_id":"4","last_reported":1739714908,"current_range_meters":16800,"station_id":"ce4bhnh2rcd13ifvqgtg","pricing_plan_id":"cebpf4jnsgd1na2vs0mg"},{"bike_id":"68e091eb-0298-4cb5-b5eb-8dfc36218da6","system_id":"levelo_inurba_marseille","lat":43.23182,"lon":5.39996,"is_reserved":false,"is_disabled":false,"rental_uris":{"android":"levelo://app?vid=68e091eb-0298-4cb5-b5eb-8dfc36218da6","ios":"levelo://app?vid=68e091eb-0298-4cb5-b5eb-8dfc36218da6"},"vehicle_type_id":"4","last_reported":1739714908,"current_range_meters":38800,"station_id":"ce4bhn12rcd13ifvqgqg","pricing_plan_id":"cebpf4jnsgd1na2vs0mg"},{"bike_id":"d63b7867-53a4-4bca-be72-b856d1cbea50","system_id":"levelo_inurba_marseille","lat":43.23959,"lon":5.36638,"is_reserved":false,"is_disabled":false,"rental_uris":{"android":"levelo://app?vid=d63b7867-53a4-4bca-be72-b856d1cbea50","ios":"levelo://app?vid=d63b7867-53a4-4bca-be72-b856d1cbea50"},"vehicle_type_id":"4","last_reported":1739714908,"current_range_meters":20000,"station_id":"ce4bhi12rcd13ifvqfp0","pricing_plan_id":"cebpf4jnsgd1na2vs0mg"},{"bike_id":"61bbe734-e07c-4613-9807-f53087a41f43","system_id":"levelo_inurba_marseille","lat":43.30798,"lon":5.38161,"is_reserved":false,"is_disabled":false,"rental_uris":{"android":"levelo://app?vid=61bbe734-e07c-4613-9807-f53087a41f43","ios":"levelo://app?vid=61bbe734-e07c-4613-9807-f53087a41f43"},"vehicle_type_id":"4","last_reported":1739714908,"current_range_meters":21600,"station_id":"ce4bgt12rcd13ifvqce0","pricing_plan_id":"cebpf4jnsgd1na2vs0mg"},{"bike_id":"d11dbee5-bfe8-45af-82eb-42022059115f","system_id":"levelo_inurba_marseille","lat":43.28624,"lon":5.35088,"is_reserved":false,"is_disabled":false,"rental_uris":{"android":"levelo://app?vid=d11dbee5-bfe8-45af-82eb-42022059115f","ios":"levelo://app?vid=d11dbee5-bfe8-45af-82eb-42022059115f"},"vehicle_type_id":"4","last_reported":1739714908,"current_range_meters":14000,"station_id":"ce4bhch2rcd13ifvqeug","pricing_plan_id":"cebpf4jnsgd1na2vs0mg"},{"bike_id":"928e176c-a4d2-4a6e-bd69-4908d36c300e","system_id":"levelo_inurba_marseille","lat":43.29779,"lon":5.39343,"is_reserved":false,"is_disabled":false,"rental_uris":{"android":"levelo://app?vid=928e176c-a4d2-4a6e-bd69-4908d36c300e","ios":"levelo://app?vid=928e176c-a4d2-4a6e-bd69-4908d36c300e"},"vehicle_type_id":"4","last_reported":1739714908,"current_range_meters":20000,"station_id":"chh1huq6cuj3fo74tm60","pricing_plan_id":"cebpf4jnsgd1na2vs0mg"},{"bike_id":"02db7a28-fc2d-4a4a-92a0-cec040e64718","system_id":"levelo_inurba_marseille","lat":43.23963,"lon":5.36629,"is_reserved":false,"is_disabled":true,"rental_uris":{"android":"levelo://app?vid=02db7a28-fc2d-4a4a-92a0-cec040e64718","ios":"levelo://app?vid=02db7a28-fc2d-4a4a-92a0-cec040e64718"},"vehicle_type_id":"4","last_reported":1739714908,"current_range_meters":4400,"station_id":"ce4bhi12rcd13ifvqfp0","pricing_plan_id":"cebpf4jnsgd1na2vs0mg"},{"bike_id":"06288e17-125d-402d-8e5d-94c24d4bc429","system_id":"levelo_inurba_marseille","lat":43.30152,"lon":5.38082,"is_reserved":false,"is_disabled":false,"rental_uris":{"android":"levelo://app?vid=06288e17-125d-402d-8e5d-94c24d4bc429","ios":"levelo://app?vid=06288e17-125d-402d-8e5d-94c24d4bc429"},"vehicle_type_id":"4","last_reported":1739714908,"current_range_meters":37600,"station_id":"ce4bgjp2rcd13ifvqbh0","pricing_plan_id":"cebpf4jnsgd1na2vs0mg"},{"bike_id":"6f820518-8b07-484a-8c43-5d5451e338e7","system_id":"levelo_inurba_marseille","lat":43.231995,"lon":5.355585,"is_reserved":false,"is_disabled":false,"rental_uris":{"android":"levelo://app?vid=6f820518-8b07-484a-8c43-5d5451e338e7","ios":"levelo://app?vid=6f820518-8b07-484a-8c43-5d5451e338e7"},"vehicle_type_id":"4","last_reported":1739714908,"current_range_meters":28800,"station_id":"ce4bhu92rcd13ifvqi70","pricing_plan_id":"cebpf4jnsgd1na2vs0mg"},{"bike_id":"e9df70a0-1b8c-4c51-a61c-68ff2e71de13","system_id":"levelo_inurba_marseille","lat":43.23061,"lon":5.3549,"is_reserved":false,"is_disabled":true,"rental_uris":{"android":"levelo://app?vid=e9df70a0-1b8c-4c51-a61c-68ff2e71de13","ios":"levelo://app?vid=e9df70a0-1b8c-4c51-a61c-68ff2e71de13"},"vehicle_type_id":"4","last_reported":1739714908,"current_range_meters":0,"station_id":"cpo3342slgdg3j2ifvpg","pricing_plan_id":"cebpf4jnsgd1na2vs0mg"},{"bike_id":"0dba2114-f2ab-4953-beac-69fa74da7b08","system_id":"levelo_inurba_marseille","lat":43.28274,"lon":5.35072,"is_reserved":false,"is_disabled":false,"rental_uris":{"android":"levelo://app?vid=0dba2114-f2ab-4953-beac-69fa74da7b08","ios":"levelo://app?vid=0dba2114-f2ab-4953-beac-69fa74da7b08"},"vehicle_type_id":"4","last_reported":1739714908,"current_range_meters":38800,"station_id":"ce4bhbp2rcd13ifvqerg","pricing_plan_id":"cebpf4jnsgd1na2vs0mg"},{"bike_id":"a3b76a23-e719-4cac-9132-63d31b15a8de","system_id":"levelo_inurba_marseille","lat":43.24171,"lon":5.36386,"is_reserved":false,"is_disabled":false,"rental_uris":{"android":"levelo://app?vid=a3b76a23-e719-4cac-9132-63d31b15a8de","ios":"levelo://app?vid=a3b76a23-e719-4cac-9132-63d31b15a8de"},"vehicle_type_id":"4","last_reported":1739714908,"current_range_meters":25200,"station_id":"cpo36qri1sfpv3e86is0","pricing_plan_id":"cebpf4jnsgd1na2vs0mg"},{"bike_id":"d00a62d4-ee8c-4a7c-af9b-08a085e9a2f7","system_id":"levelo_inurba_marseille","lat":43.29911,"lon":5.38154,"is_reserved":false,"is_disabled":false,"rental_uris":{"android":"levelo://app?vid=d00a62d4-ee8c-4a7c-af9b-08a085e9a2f7","ios":"levelo://app?vid=d00a62d4-ee8c-4a7c-af9b-08a085e9a2f7"},"vehicle_type_id":"4","last_reported":1739714908,"current_range_meters":32400,"station_id":"ce4bgj12rcd13ifvqbc0","pricing_plan_id":"cebpf4jnsgd1na2vs0mg"},{"bike_id":"fe0f12a8-8d62-4d79-b629-bda6901e6297","system_id":"levelo_inurba_marseille","lat":43.26951,"lon":5.40285,"is_reserved":false,"is_disabled":true,"rental_uris":{"android":"levelo://app?vid=fe0f12a8-8d62-4d79-b629-bda6901e6297","ios":"levelo://app?vid=fe0f12a8-8d62-4d79-b629-bda6901e6297"},"vehicle_type_id":"4","last_reported":1739714908,"current_range_meters":27600,"station_id":"cjm6bp8fraef2m0cb0m0","pricing_plan_id":"cebpf4jnsgd1na2vs0mg"},{"bike_id":"b0702116-9ee2-4cf1-bcc2-fe7fa0f407d2","system_id":"levelo_inurba_marseille","lat":43.30566,"lon":5.36514,"is_reserved":false,"is_disabled":false,"rental_uris":{"android":"levelo://app?vid=b0702116-9ee2-4cf1-bcc2-fe7fa0f407d2","ios":"levelo://app?vid=b0702116-9ee2-4cf1-bcc2-fe7fa0f407d2"},"vehicle_type_id":"4","last_reported":1739714908,"current_range_meters":38800,"station_id":"ce4bgs12rcd13ifvqcag","pricing_plan_id":"cebpf4jnsgd1na2vs0mg"},{"bike_id":"dfabc4bb-3306-4567-880f-212fb57b4ced","system_id":"levelo_inurba_marseille","lat":43.3117,"lon":5.38717,"is_reserved":false,"is_disabled":false,"rental_uris":{"android":"levelo://app?vid=dfabc4bb-3306-4567-880f-212fb57b4ced","ios":"levelo://app?vid=dfabc4bb-3306-4567-880f-212fb57b4ced"},"vehicle_type_id":"4","last_reported":1739714908,"current_range_meters":38400,"station_id":"ce4bgv12rcd13ifvqcp0","pricing_plan_id":"cebpf4jnsgd1na2vs0mg"},{"bike_id":"466babc0-124c-418f-8013-0bdd9593df0f","system_id":"levelo_inurba_marseille","lat":43.24385,"lon":5.37053,"is_reserved":false,"is_disabled":false,"rental_uris":{"android":"levelo://app?vid=466babc0-124c-418f-8013-0bdd9593df0f","ios":"levelo://app?vid=466babc0-124c-418f-8013-0bdd9593df0f"},"vehicle_type_id":"4","last_reported":1739714908,"current_range_meters":38800,"station_id":"ce4bhhh2rcd13ifvqfk0","pricing_plan_id":"cebpf4jnsgd1na2vs0mg"},{"bike_id":"cfbe67cf-6420-4945-9471-2d464aa6fcd4","system_id":"levelo_inurba_marseille","lat":43.27822,"lon":5.39214,"is_reserved":false,"is_disabled":true,"rental_uris":{"android":"levelo://app?vid=cfbe67cf-6420-4945-9471-2d464aa6fcd4","ios":"levelo://app?vid=cfbe67cf-6420-4945-9471-2d464aa6fcd4"},"vehicle_type_id":"4","last_reported":1739714908,"current_range_meters":4000,"station_id":"ce4bhjp2rcd13ifvqga0","pricing_plan_id":"cebpf4jnsgd1na2vs0mg"},{"bike_id":"168c41a1-aa17-40ae-aac7-dd02a7e23b9b","system_id":"levelo_inurba_marseille","lat":43.25118,"lon":5.40307,"is_reserved":false,"is_disabled":false,"rental_uris":{"android":"levelo://app?vid=168c41a1-aa17-40ae-aac7-dd02a7e23b9b","ios":"levelo://app?vid=168c41a1-aa17-40ae-aac7-dd02a7e23b9b"},"vehicle_type_id":"4","last_reported":1739714908,"current_range_meters":38800,"station_id":"ce4bhlh2rcd13ifvqgig","pricing_plan_id":"cebpf4jnsgd1na2vs0mg"},{"bike_id":"2d1a0294-4315-4a6d-9042-006493c526cd","system_id":"levelo_inurba_marseille","lat":43.29573,"lon":5.40619,"is_reserved":false,"is_disabled":false,"rental_uris":{"android":"levelo://app?vid=2d1a0294-4315-4a6d-9042-006493c526cd","ios":"levelo://app?vid=2d1a0294-4315-4a6d-9042-006493c526cd"},"vehicle_type_id":"4","last_reported":1739714908,"current_range_meters":2800,"station_id":"","pricing_plan_id":"cebpf4jnsgd1na2vs0mg"},{"bike_id":"49a07f27-4f26-4e50-960f-047ea1c15b6b","system_id":"levelo_inurba_marseille","lat":43.26941,"lon":5.40246,"is_reserved":false,"is_disabled":false,"rental_uris":{"android":"levelo://app?vid=49a07f27-4f26-4e50-960f-047ea1c15b6b","ios":"levelo://app?vid=49a07f27-4f26-4e50-960f-047ea1c15b6b"},"vehicle_type_id":"4","last_reported":1739714908,"current_range_meters":4800,"station_id":"cjm6bp8fraef2m0cb0m0","pricing_plan_id":"cebpf4jnsgd1na2vs0mg"},{"bike_id":"fe7b311c-8489-49e9-ad6a-c18322ad98ad","system_id":"levelo_inurba_marseille","lat":43.31755,"lon":5.39016,"is_reserved":false,"is_disabled":false,"rental_uris":{"android":"levelo://app?vid=fe7b311c-8489-49e9-ad6a-c18322ad98ad","ios":"levelo://app?vid=fe7b311c-8489-49e9-ad6a-c18322ad98ad"},"vehicle_type_id":"4","last_reported":1739714908,"current_range_meters":8000,"station_id":"ce4bhqp2rcd13ifvqhng","pricing_plan_id":"cebpf4jnsgd1na2vs0mg"},{"bike_id":"0e761977-4997-46e8-bf27-cc6970805dd7","system_id":"levelo_inurba_marseille","lat":43.26212,"lon":5.37431,"is_reserved":false,"is_disabled":false,"rental_uris":{"android":"levelo://app?vid=0e761977-4997-46e8-bf27-cc6970805dd7","ios":"levelo://app?vid=0e761977-4997-46e8-bf27-cc6970805dd7"},"vehicle_type_id":"4","last_reported":1739714908,"current_range_meters":24000,"station_id":"ce4bhgp2rcd13ifvqfc0","pricing_plan_id":"cebpf4jnsgd1na2vs0mg"},{"bike_id":"9f912eed-51aa-49cb-84a4-977637263173","system_id":"levelo_inurba_marseille","lat":43.29907,"lon":5.38031,"is_reserved":false,"is_disabled":false,"rental_uris":{"android":"levelo://app?vid=9f912eed-51aa-49cb-84a4-977637263173","ios":"levelo://app?vid=9f912eed-51aa-49cb-84a4-977637263173"},"vehicle_type_id":"4","last_reported":1739714908,"current_range_meters":22400,"station_id":"","pricing_plan_id":"cebpf4jnsgd1na2vs0mg"},{"bike_id":"f1720bd8-037e-456e-b90b-e4d5a11b1f13","system_id":"levelo_inurba_marseille","lat":43.2694,"lon":5.40253,"is_reserved":false,"is_disabled":false,"rental_uris":{"android":"levelo://app?vid=f1720bd8-037e-456e-b90b-e4d5a11b1f13","ios":"levelo://app?vid=f1720bd8-037e-456e-b90b-e4d5a11b1f13"},"vehicle_type_id":"4","last_reported":1739714908,"current_range_meters":15200,"station_id":"cjm6bp8fraef2m0cb0m0","pricing_plan_id":"cebpf4jnsgd1na2vs0mg"},{"bike_id":"2387448a-ad1e-4d92-8739-0eed7ccd6f1a","system_id":"levelo_inurba_marseille","lat":43.32664,"lon":5.40986,"is_reserved":false,"is_disabled":false,"rental_uris":{"android":"levelo://app?vid=2387448a-ad1e-4d92-8739-0eed7ccd6f1a","ios":"levelo://app?vid=2387448a-ad1e-4d92-8739-0eed7ccd6f1a"},"vehicle_type_id":"4","last_reported":1739714908,"current_range_meters":38800,"station_id":"ce4bhpp2rcd13ifvqhgg","pricing_plan_id":"cebpf4jnsgd1na2vs0mg"},{"bike_id":"871f047c-6fa7-42bf-bf53-eaea46259e01","system_id":"levelo_inurba_marseille","lat":43.30125,"lon":5.3985,"is_reserved":false,"is_disabled":false,"rental_uris":{"android":"levelo://app?vid=871f047c-6fa7-42bf-bf53-eaea46259e01","ios":"levelo://app?vid=871f047c-6fa7-42bf-bf53-eaea46259e01"},"vehicle_type_id":"4","last_reported":1739714908,"current_range_meters":20000,"station_id":"ce4bh0h2rcd13ifvqd40","pricing_plan_id":"cebpf4jnsgd1na2vs0mg"},{"bike_id":"8621d022-da1c-42eb-90b3-f13a75064284","system_id":"levelo_inurba_marseille","lat":43.29851,"lon":5.36122,"is_reserved":false,"is_disabled":false,"rental_uris":{"android":"levelo://app?vid=8621d022-da1c-42eb-90b3-f13a75064284","ios":"levelo://app?vid=8621d022-da1c-42eb-90b3-f13a75064284"},"vehicle_type_id":"4","last_reported":1739714908,"current_range_meters":38800,"station_id":"ce4bgpp2rcd13ifvqc3g","pricing_plan_id":"cebpf4jnsgd1na2vs0mg"},{"bike_id":"47db66d1-db65-45dd-b16f-fb81506651ab","system_id":"levelo_inurba_marseille","lat":43.29607,"lon":5.37725,"is_reserved":false,"is_disabled":false,"rental_uris":{"android":"levelo://app?vid=47db66d1-db65-45dd-b16f-fb81506651ab","ios":"levelo://app?vid=47db66d1-db65-45dd-b16f-fb81506651ab"},"vehicle_type_id":"4","last_reported":1739714908,"current_range_meters":36400,"station_id":"ce4bgi92rcd13ifvqb90","pricing_plan_id":"cebpf4jnsgd1na2vs0mg"},{"bike_id":"892503be-135e-4abc-bad0-35c2da88ee25","system_id":"levelo_inurba_marseille","lat":43.28936,"lon":5.364,"is_reserved":false,"is_disabled":false,"rental_uris":{"android":"levelo://app?vid=892503be-135e-4abc-bad0-35c2da88ee25","ios":"levelo://app?vid=892503be-135e-4abc-bad0-35c2da88ee25"},"vehicle_type_id":"4","last_reported":1739714908,"current_range_meters":38800,"station_id":"ce4bhc92rcd13ifvqetg","pricing_plan_id":"cebpf4jnsgd1na2vs0mg"},{"bike_id":"d511c3fa-d5f4-4a0f-91ee-268d02b5310f","system_id":"levelo_inurba_marseille","lat":43.28621,"lon":5.35092,"is_reserved":false,"is_disabled":true,"rental_uris":{"android":"levelo://app?vid=d511c3fa-d5f4-4a0f-91ee-268d02b5310f","ios":"levelo://app?vid=d511c3fa-d5f4-4a0f-91ee-268d02b5310f"},"vehicle_type_id":"4","last_reported":1739714908,"current_range_meters":16400,"station_id":"ce4bhch2rcd13ifvqeug","pricing_plan_id":"cebpf4jnsgd1na2vs0mg"},{"bike_id":"f5089340-f933-4e10-99d7-89f7346ac458","system_id":"levelo_inurba_marseille","lat":43.29021,"lon":5.37141,"is_reserved":false,"is_disabled":false,"rental_uris":{"android":"levelo://app?vid=f5089340-f933-4e10-99d7-89f7346ac458","ios":"levelo://app?vid=f5089340-f933-4e10-99d7-89f7346ac458"},"vehicle_type_id":"4","last_reported":1739714908,"current_range_meters":25600,"station_id":"","pricing_plan_id":"cebpf4jnsgd1na2vs0mg"},{"bike_id":"1459551d-3386-437c-ac04-19cf657200cd","system_id":"levelo_inurba_marseille","lat":43.28663,"lon":5.36355,"is_reserved":false,"is_disabled":false,"rental_uris":{"android":"levelo://app?vid=1459551d-3386-437c-ac04-19cf657200cd","ios":"levelo://app?vid=1459551d-3386-437c-ac04-19cf657200cd"},"vehicle_type_id":"4","last_reported":1739714908,"current_range_meters":32400,"station_id":"ce4bhah2rcd13ifvqej0","pricing_plan_id":"cebpf4jnsgd1na2vs0mg"},{"bike_id":"f00620ae-2110-4dbd-a2e7-cd7bf13fe429","system_id":"levelo_inurba_marseille","lat":43.23191,"lon":5.39982,"is_reserved":false,"is_disabled":true,"rental_uris":{"android":"levelo://app?vid=f00620ae-2110-4dbd-a2e7-cd7bf13fe429","ios":"levelo://app?vid=f00620ae-2110-4dbd-a2e7-cd7bf13fe429"},"vehicle_type_id":"4","last_reported":1739714908,"current_range_meters":36800,"station_id":"ce4bhn12rcd13ifvqgqg","pricing_plan_id":"cebpf4jnsgd1na2vs0mg"},{"bike_id":"05df7975-71a5-4cd7-9732-f6e0ff429d46","system_id":"levelo_inurba_marseille","lat":43.29556,"lon":5.42294,"is_reserved":false,"is_disabled":false,"rental_uris":{"android":"levelo://app?vid=05df7975-71a5-4cd7-9732-f6e0ff429d46","ios":"levelo://app?vid=05df7975-71a5-4cd7-9732-f6e0ff429d46"},"vehicle_type_id":"4","last_reported":1739714908,"current_range_meters":27200,"station_id":"ce4bhph2rcd13ifvqhdg","pricing_plan_id":"cebpf4jnsgd1na2vs0mg"},{"bike_id":"ddf1d674-41d6-443f-b0f1-1da7df267862","system_id":"levelo_inurba_marseille","lat":43.23057,"lon":5.35483,"is_reserved":false,"is_disabled":false,"rental_uris":{"android":"levelo://app?vid=ddf1d674-41d6-443f-b0f1-1da7df267862","ios":"levelo://app?vid=ddf1d674-41d6-443f-b0f1-1da7df267862"},"vehicle_type_id":"4","last_reported":1739714908,"current_range_meters":16000,"station_id":"cpo3342slgdg3j2ifvpg","pricing_plan_id":"cebpf4jnsgd1na2vs0mg"},{"bike_id":"94729826-cfa5-4ed9-8abd-5e8e49cce84e","system_id":"levelo_inurba_marseille","lat":43.29067,"lon":5.43252,"is_reserved":false,"is_disabled":true,"rental_uris":{"android":"levelo://app?vid=94729826-cfa5-4ed9-8abd-5e8e49cce84e","ios":"levelo://app?vid=94729826-cfa5-4ed9-8abd-5e8e49cce84e"},"vehicle_type_id":"4","last_reported":1739714908,"current_range_meters":400,"station_id":"","pricing_plan_id":"cebpf4jnsgd1na2vs0mg"},{"bike_id":"59897d86-c0b3-4acb-bf89-133a9364e1f4","system_id":"levelo_inurba_marseille","lat":43.23053,"lon":5.35534,"is_reserved":false,"is_disabled":true,"rental_uris":{"android":"levelo://app?vid=59897d86-c0b3-4acb-bf89-133a9364e1f4","ios":"levelo://app?vid=59897d86-c0b3-4acb-bf89-133a9364e1f4"},"vehicle_type_id":"4","last_reported":1739714908,"current_range_meters":37600,"station_id":"cpo3342slgdg3j2ifvpg","pricing_plan_id":"cebpf4jnsgd1na2vs0mg"},{"bike_id":"a529ff5f-7797-4622-a8dd-141adb2f6610","system_id":"levelo_inurba_marseille","lat":43.30755,"lon":5.37682,"is_reserved":false,"is_disabled":false,"rental_uris":{"android":"levelo://app?vid=a529ff5f-7797-4622-a8dd-141adb2f6610","ios":"levelo://app?vid=a529ff5f-7797-4622-a8dd-141adb2f6610"},"vehicle_type_id":"4","last_reported":1739714908,"current_range_meters":36800,"station_id":"ce4bgv92rcd13ifvqcq0","pricing_plan_id":"cebpf4jnsgd1na2vs0mg"},{"bike_id":"a0aeb90c-3e5b-48e0-a9ca-9766425407aa","system_id":"levelo_inurba_marseille","lat":43.26199,"lon":5.37946,"is_reserved":false,"is_disabled":false,"rental_uris":{"android":"levelo://app?vid=a0aeb90c-3e5b-48e0-a9ca-9766425407aa","ios":"levelo://app?vid=a0aeb90c-3e5b-48e0-a9ca-9766425407aa"},"vehicle_type_id":"4","last_reported":1739714908,"current_range_meters":34000,"station_id":"ce4bhjp2rcd13ifvqg90","pricing_plan_id":"cebpf4jnsgd1na2vs0mg"},{"bike_id":"3657cb3a-8308-44c8-971b-092680d319de","system_id":"levelo_inurba_marseille","lat":43.231996,"lon":5.355388,"is_reserved":false,"is_disabled":false,"rental_uris":{"android":"levelo://app?vid=3657cb3a-8308-44c8-971b-092680d319de","ios":"levelo://app?vid=3657cb3a-8308-44c8-971b-092680d319de"},"vehicle_type_id":"4","last_reported":1739714908,"current_range_meters":9200,"station_id":"ce4bhu92rcd13ifvqi70","pricing_plan_id":"cebpf4jnsgd1na2vs0mg"},{"bike_id":"fddf9633-377f-489e-9c7d-38f1665ca695","system_id":"levelo_inurba_marseille","lat":43.29595,"lon":5.38088,"is_reserved":false,"is_disabled":true,"rental_uris":{"android":"levelo://app?vid=fddf9633-377f-489e-9c7d-38f1665ca695","ios":"levelo://app?vid=fddf9633-377f-489e-9c7d-38f1665ca695"},"vehicle_type_id":"4","last_reported":1739714908,"current_range_meters":20800,"station_id":"ce4bgl12rcd13ifvqbo0","pricing_plan_id":"cebpf4jnsgd1na2vs0mg"},{"bike_id":"40c4421e-be80-49b9-9035-ec8bd05923a2","system_id":"levelo_inurba_marseille","lat":43.28892,"lon":5.39272,"is_reserved":false,"is_disabled":true,"rental_uris":{"android":"levelo://app?vid=40c4421e-be80-49b9-9035-ec8bd05923a2","ios":"levelo://app?vid=40c4421e-be80-49b9-9035-ec8bd05923a2"},"vehicle_type_id":"4","last_reported":1739714908,"current_range_meters":18000,"station_id":"ce4bh2p2rcd13ifvqdi0","pricing_plan_id":"cebpf4jnsgd1na2vs0mg"},{"bike_id":"4bc50c17-9aeb-4487-a054-afb81c6c63dc","system_id":"levelo_inurba_marseille","lat":43.27609,"lon":5.36108,"is_reserved":false,"is_disabled":true,"rental_uris":{"android":"levelo://app?vid=4bc50c17-9aeb-4487-a054-afb81c6c63dc","ios":"levelo://app?vid=4bc50c17-9aeb-4487-a054-afb81c6c63dc"},"vehicle_type_id":"4","last_reported":1739714908,"current_range_meters":28000,"station_id":"ce4bgj92rcd13ifvqbe0","pricing_plan_id":"cebpf4jnsgd1na2vs0mg"},{"bike_id":"45a95720-e142-48f6-8e4e-58bb7608d438","system_id":"levelo_inurba_marseille","lat":43.28936,"lon":5.3661,"is_reserved":false,"is_disabled":false,"rental_uris":{"android":"levelo://app?vid=45a95720-e142-48f6-8e4e-58bb7608d438","ios":"levelo://app?vid=45a95720-e142-48f6-8e4e-58bb7608d438"},"vehicle_type_id":"4","last_reported":1739714908,"current_range_meters":36400,"station_id":"ce4bhap2rcd13ifvqek0","pricing_plan_id":"cebpf4jnsgd1na2vs0mg"},{"bike_id":"2c8b8a41-5401-4b3a-be72-574e3bbf0407","system_id":"levelo_inurba_marseille","lat":43.30662,"lon":5.3654,"is_reserved":false,"is_disabled":false,"rental_uris":{"android":"levelo://app?vid=2c8b8a41-5401-4b3a-be72-574e3bbf0407","ios":"levelo://app?vid=2c8b8a41-5401-4b3a-be72-574e3bbf0407"},"vehicle_type_id":"4","last_reported":1739714908,"current_range_meters":4800,"station_id":"","pricing_plan_id":"cebpf4jnsgd1na2vs0mg"},{"bike_id":"faf6649f-0ad3-44de-96e1-923e6596fa88","system_id":"levelo_inurba_marseille","lat":43.30183,"lon":5.36605,"is_reserved":false,"is_disabled":false,"rental_uris":{"android":"levelo://app?vid=faf6649f-0ad3-44de-96e1-923e6596fa88","ios":"levelo://app?vid=faf6649f-0ad3-44de-96e1-923e6596fa88"},"vehicle_type_id":"4","last_reported":1739714908,"current_range_meters":38000,"station_id":"ce4bgrh2rcd13ifvqc8g","pricing_plan_id":"cebpf4jnsgd1na2vs0mg"},{"bike_id":"6969fcdd-1157-41b6-a5fe-95415d4057c7","system_id":"levelo_inurba_marseille","lat":43.26024,"lon":5.37552,"is_reserved":false,"is_disabled":false,"rental_uris":{"android":"levelo://app?vid=6969fcdd-1157-41b6-a5fe-95415d4057c7","ios":"levelo://app?vid=6969fcdd-1157-41b6-a5fe-95415d4057c7"},"vehicle_type_id":"4","last_reported":1739714908,"current_range_meters":30000,"station_id":"ce4bhgh2rcd13ifvqfa0","pricing_plan_id":"cebpf4jnsgd1na2vs0mg"},{"bike_id":"76e9689a-c738-4ae0-88ce-a636639e49f8","system_id":"levelo_inurba_marseille","lat":43.25581,"lon":5.38238,"is_reserved":false,"is_disabled":false,"rental_uris":{"android":"levelo://app?vid=76e9689a-c738-4ae0-88ce-a636639e49f8","ios":"levelo://app?vid=76e9689a-c738-4ae0-88ce-a636639e49f8"},"vehicle_type_id":"4","last_reported":1739714908,"current_range_meters":39200,"station_id":"ce4bhih2rcd13ifvqfs0","pricing_plan_id":"cebpf4jnsgd1na2vs0mg"},{"bike_id":"3625836a-8a03-4572-80d5-fadff11603e7","system_id":"levelo_inurba_marseille","lat":43.28025,"lon":5.36946,"is_reserved":false,"is_disabled":false,"rental_uris":{"android":"levelo://app?vid=3625836a-8a03-4572-80d5-fadff11603e7","ios":"levelo://app?vid=3625836a-8a03-4572-80d5-fadff11603e7"},"vehicle_type_id":"4","last_reported":1739714908,"current_range_meters":39200,"station_id":"ce4bha12rcd13ifvqef0","pricing_plan_id":"cebpf4jnsgd1na2vs0mg"},{"bike_id":"43dc5574-eed0-4b1d-9289-f32002400d84","system_id":"levelo_inurba_marseille","lat":43.24175,"lon":5.36394,"is_reserved":false,"is_disabled":false,"rental_uris":{"android":"levelo://app?vid=43dc5574-eed0-4b1d-9289-f32002400d84","ios":"levelo://app?vid=43dc5574-eed0-4b1d-9289-f32002400d84"},"vehicle_type_id":"4","last_reported":1739714908,"current_range_meters":8000,"station_id":"cpo36qri1sfpv3e86is0","pricing_plan_id":"cebpf4jnsgd1na2vs0mg"},{"bike_id":"b7675672-ea91-4212-a3c2-1e75ea117425","system_id":"levelo_inurba_marseille","lat":43.28174,"lon":5.42632,"is_reserved":false,"is_disabled":true,"rental_uris":{"android":"levelo://app?vid=b7675672-ea91-4212-a3c2-1e75ea117425","ios":"levelo://app?vid=b7675672-ea91-4212-a3c2-1e75ea117425"},"vehicle_type_id":"4","last_reported":1739714908,"current_range_meters":0,"station_id":"ce4bhnh2rcd13ifvqgug","pricing_plan_id":"cebpf4jnsgd1na2vs0mg"},{"bike_id":"bc69cf8f-cb42-449f-8aae-8fe30b3cf26d","system_id":"levelo_inurba_marseille","lat":43.31228,"lon":5.36851,"is_reserved":false,"is_disabled":false,"rental_uris":{"android":"levelo://app?vid=bc69cf8f-cb42-449f-8aae-8fe30b3cf26d","ios":"levelo://app?vid=bc69cf8f-cb42-449f-8aae-8fe30b3cf26d"},"vehicle_type_id":"4","last_reported":1739714908,"current_range_meters":26800,"station_id":"ce4bgl92rcd13ifvqbq0","pricing_plan_id":"cebpf4jnsgd1na2vs0mg"},{"bike_id":"91e27922-e676-45ea-94da-baf83d9c520d","system_id":"levelo_inurba_marseille","lat":43.28027,"lon":5.36937,"is_reserved":false,"is_disabled":true,"rental_uris":{"android":"levelo://app?vid=91e27922-e676-45ea-94da-baf83d9c520d","ios":"levelo://app?vid=91e27922-e676-45ea-94da-baf83d9c520d"},"vehicle_type_id":"4","last_reported":1739714908,"current_range_meters":33600,"station_id":"ce4bha12rcd13ifvqef0","pricing_plan_id":"cebpf4jnsgd1na2vs0mg"},{"bike_id":"9cdda1c3-1248-40c5-beb3-afbeeb493bb6","system_id":"levelo_inurba_marseille","lat":43.30677,"lon":5.37194,"is_reserved":false,"is_disabled":false,"rental_uris":{"android":"levelo://app?vid=9cdda1c3-1248-40c5-beb3-afbeeb493bb6","ios":"levelo://app?vid=9cdda1c3-1248-40c5-beb3-afbeeb493bb6"},"vehicle_type_id":"4","last_reported":1739714908,"current_range_meters":24000,"station_id":"","pricing_plan_id":"cebpf4jnsgd1na2vs0mg"},{"bike_id":"39f0fa43-2961-47d0-8e28-d6ced3bcb1a4","system_id":"levelo_inurba_marseille","lat":43.26808,"lon":5.4025,"is_reserved":false,"is_disabled":true,"rental_uris":{"android":"levelo://app?vid=39f0fa43-2961-47d0-8e28-d6ced3bcb1a4","ios":"levelo://app?vid=39f0fa43-2961-47d0-8e28-d6ced3bcb1a4"},"vehicle_type_id":"4","last_reported":1739714908,"current_range_meters":29600,"station_id":"ce501612rcd8frsf0b60","pricing_plan_id":"cebpf4jnsgd1na2vs0mg"},{"bike_id":"4e814ba9-7f7f-413c-81c5-6cae18c64ff7","system_id":"levelo_inurba_marseille","lat":43.31325,"lon":5.397,"is_reserved":false,"is_disabled":false,"rental_uris":{"android":"levelo://app?vid=4e814ba9-7f7f-413c-81c5-6cae18c64ff7","ios":"levelo://app?vid=4e814ba9-7f7f-413c-81c5-6cae18c64ff7"},"vehicle_type_id":"4","last_reported":1739714908,"current_range_meters":35600,"station_id":"ce4bgvp2rcd13ifvqcu0","pricing_plan_id":"cebpf4jnsgd1na2vs0mg"},{"bike_id":"9bcc3779-160f-4f11-a908-15bc41b1ac43","system_id":"levelo_inurba_marseille","lat":43.2799,"lon":5.4001,"is_reserved":false,"is_disabled":true,"rental_uris":{"android":"levelo://app?vid=9bcc3779-160f-4f11-a908-15bc41b1ac43","ios":"levelo://app?vid=9bcc3779-160f-4f11-a908-15bc41b1ac43"},"vehicle_type_id":"4","last_reported":1739714908,"current_range_meters":2800,"station_id":"ce4bho92rcd13ifvqh4g","pricing_plan_id":"cebpf4jnsgd1na2vs0mg"},{"bike_id":"3c64c24f-16f7-46ec-b068-15fe4ebda356","system_id":"levelo_inurba_marseille","lat":43.29493,"lon":5.36395,"is_reserved":false,"is_disabled":true,"rental_uris":{"android":"levelo://app?vid=3c64c24f-16f7-46ec-b068-15fe4ebda356","ios":"levelo://app?vid=3c64c24f-16f7-46ec-b068-15fe4ebda356"},"vehicle_type_id":"4","last_reported":1739714908,"current_range_meters":17200,"station_id":"","pricing_plan_id":"cebpf4jnsgd1na2vs0mg"},{"bike_id":"1c392da9-5694-4078-bfd7-f99ced296532","system_id":"levelo_inurba_marseille","lat":43.28265,"lon":5.3508,"is_reserved":false,"is_disabled":false,"rental_uris":{"android":"levelo://app?vid=1c392da9-5694-4078-bfd7-f99ced296532","ios":"levelo://app?vid=1c392da9-5694-4078-bfd7-f99ced296532"},"vehicle_type_id":"4","last_reported":1739714908,"current_range_meters":35200,"station_id":"ce4bhbp2rcd13ifvqerg","pricing_plan_id":"cebpf4jnsgd1na2vs0mg"},{"bike_id":"256fdab3-5aa2-41b8-bbc6-535a86cc3890","system_id":"levelo_inurba_marseille","lat":43.251124,"lon":5.403176,"is_reserved":false,"is_disabled":false,"rental_uris":{"android":"levelo://app?vid=256fdab3-5aa2-41b8-bbc6-535a86cc3890","ios":"levelo://app?vid=256fdab3-5aa2-41b8-bbc6-535a86cc3890"},"vehicle_type_id":"4","last_reported":1739714908,"current_range_meters":28400,"station_id":"ce4bhlh2rcd13ifvqgig","pricing_plan_id":"cebpf4jnsgd1na2vs0mg"},{"bike_id":"c9f5446a-9650-4bf9-9f6c-ae38910b957a","system_id":"levelo_inurba_marseille","lat":43.301288,"lon":5.374084,"is_reserved":false,"is_disabled":false,"rental_uris":{"android":"levelo://app?vid=c9f5446a-9650-4bf9-9f6c-ae38910b957a","ios":"levelo://app?vid=c9f5446a-9650-4bf9-9f6c-ae38910b957a"},"vehicle_type_id":"4","last_reported":1739714908,"current_range_meters":39200,"station_id":"ce4bgs92rcd13ifvqcc0","pricing_plan_id":"cebpf4jnsgd1na2vs0mg"},{"bike_id":"28ca3998-10f3-4251-b919-631dcb1afbc7","system_id":"levelo_inurba_marseille","lat":43.23184,"lon":5.39997,"is_reserved":false,"is_disabled":false,"rental_uris":{"android":"levelo://app?vid=28ca3998-10f3-4251-b919-631dcb1afbc7","ios":"levelo://app?vid=28ca3998-10f3-4251-b919-631dcb1afbc7"},"vehicle_type_id":"4","last_reported":1739714908,"current_range_meters":3200,"station_id":"ce4bhn12rcd13ifvqgqg","pricing_plan_id":"cebpf4jnsgd1na2vs0mg"},{"bike_id":"20467535-f67f-42ed-96bf-c728709f6721","system_id":"levelo_inurba_marseille","lat":43.23196,"lon":5.35546,"is_reserved":false,"is_disabled":false,"rental_uris":{"android":"levelo://app?vid=20467535-f67f-42ed-96bf-c728709f6721","ios":"levelo://app?vid=20467535-f67f-42ed-96bf-c728709f6721"},"vehicle_type_id":"4","last_reported":1739714908,"current_range_meters":28400,"station_id":"ce4bhu92rcd13ifvqi70","pricing_plan_id":"cebpf4jnsgd1na2vs0mg"},{"bike_id":"3095bcf9-eb87-4436-9a89-0172cbc0a219","system_id":"levelo_inurba_marseille","lat":43.29184,"lon":5.35807,"is_reserved":false,"is_disabled":false,"rental_uris":{"android":"levelo://app?vid=3095bcf9-eb87-4436-9a89-0172cbc0a219","ios":"levelo://app?vid=3095bcf9-eb87-4436-9a89-0172cbc0a219"},"vehicle_type_id":"4","last_reported":1739714908,"current_range_meters":11200,"station_id":"ce4bhb12rcd13ifvqel0","pricing_plan_id":"cebpf4jnsgd1na2vs0mg"},{"bike_id":"2dea0667-1db6-4775-857f-894e60e0a4c7","system_id":"levelo_inurba_marseille","lat":43.30417,"lon":5.39749,"is_reserved":false,"is_disabled":true,"rental_uris":{"android":"levelo://app?vid=2dea0667-1db6-4775-857f-894e60e0a4c7","ios":"levelo://app?vid=2dea0667-1db6-4775-857f-894e60e0a4c7"},"vehicle_type_id":"4","last_reported":1739714908,"current_range_meters":27600,"station_id":"ce4bh092rcd13ifvqd20","pricing_plan_id":"cebpf4jnsgd1na2vs0mg"},{"bike_id":"ff2cbd59-5738-4b72-a212-196bf1e91733","system_id":"levelo_inurba_marseille","lat":43.27993,"lon":5.44211,"is_reserved":false,"is_disabled":false,"rental_uris":{"android":"levelo://app?vid=ff2cbd59-5738-4b72-a212-196bf1e91733","ios":"levelo://app?vid=ff2cbd59-5738-4b72-a212-196bf1e91733"},"vehicle_type_id":"4","last_reported":1739714908,"current_range_meters":16000,"station_id":"","pricing_plan_id":"cebpf4jnsgd1na2vs0mg"},{"bike_id":"783dc86c-7d6a-4708-bd0e-e28314860418","system_id":"levelo_inurba_marseille","lat":43.27496,"lon":5.424533,"is_reserved":false,"is_disabled":false,"rental_uris":{"android":"levelo://app?vid=783dc86c-7d6a-4708-bd0e-e28314860418","ios":"levelo://app?vid=783dc86c-7d6a-4708-bd0e-e28314860418"},"vehicle_type_id":"4","last_reported":1739714908,"current_range_meters":37600,"station_id":"ce4bhn92rcd13ifvqgrg","pricing_plan_id":"cebpf4jnsgd1na2vs0mg"},{"bike_id":"39a15036-bb81-41d9-86e6-e3534b0305aa","system_id":"levelo_inurba_marseille","lat":43.24386,"lon":5.37057,"is_reserved":false,"is_disabled":false,"rental_uris":{"android":"levelo://app?vid=39a15036-bb81-41d9-86e6-e3534b0305aa","ios":"levelo://app?vid=39a15036-bb81-41d9-86e6-e3534b0305aa"},"vehicle_type_id":"4","last_reported":1739714908,"current_range_meters":22400,"station_id":"ce4bhhh2rcd13ifvqfk0","pricing_plan_id":"cebpf4jnsgd1na2vs0mg"},{"bike_id":"c39b87e7-efc1-4cc2-8fa7-102ecb06c6e3","system_id":"levelo_inurba_marseille","lat":43.29188,"lon":5.35804,"is_reserved":false,"is_disabled":false,"rental_uris":{"android":"levelo://app?vid=c39b87e7-efc1-4cc2-8fa7-102ecb06c6e3","ios":"levelo://app?vid=c39b87e7-efc1-4cc2-8fa7-102ecb06c6e3"},"vehicle_type_id":"4","last_reported":1739714908,"current_range_meters":15200,"station_id":"ce4bhb12rcd13ifvqel0","pricing_plan_id":"cebpf4jnsgd1na2vs0mg"},{"bike_id":"2b40dedf-ade5-44ef-a25d-6f14e48436cb","system_id":"levelo_inurba_marseille","lat":43.2319,"lon":5.39974,"is_reserved":false,"is_disabled":false,"rental_uris":{"android":"levelo://app?vid=2b40dedf-ade5-44ef-a25d-6f14e48436cb","ios":"levelo://app?vid=2b40dedf-ade5-44ef-a25d-6f14e48436cb"},"vehicle_type_id":"4","last_reported":1739714908,"current_range_meters":28800,"station_id":"ce4bhn12rcd13ifvqgqg","pricing_plan_id":"cebpf4jnsgd1na2vs0mg"},{"bike_id":"ad4af932-f51b-41b8-983b-7e431dcc24a9","system_id":"levelo_inurba_marseille","lat":43.337444,"lon":5.374475,"is_reserved":false,"is_disabled":true,"rental_uris":{"android":"levelo://app?vid=ad4af932-f51b-41b8-983b-7e431dcc24a9","ios":"levelo://app?vid=ad4af932-f51b-41b8-983b-7e431dcc24a9"},"vehicle_type_id":"4","last_reported":1739714908,"current_range_meters":0,"station_id":"","pricing_plan_id":"cebpf4jnsgd1na2vs0mg"},{"bike_id":"95d42703-1a37-4cb4-8b06-69616f6b8e6d","system_id":"levelo_inurba_marseille","lat":43.27674,"lon":5.38912,"is_reserved":false,"is_disabled":true,"rental_uris":{"android":"levelo://app?vid=95d42703-1a37-4cb4-8b06-69616f6b8e6d","ios":"levelo://app?vid=95d42703-1a37-4cb4-8b06-69616f6b8e6d"},"vehicle_type_id":"4","last_reported":1739714908,"current_range_meters":32400,"station_id":"ce4bhi12rcd13ifvqfo0","pricing_plan_id":"cebpf4jnsgd1na2vs0mg"},{"bike_id":"81bec61a-1f2c-43a9-b162-eec1d41ccf13","system_id":"levelo_inurba_marseille","lat":43.28338,"lon":5.42993,"is_reserved":false,"is_disabled":false,"rental_uris":{"android":"levelo://app?vid=81bec61a-1f2c-43a9-b162-eec1d41ccf13","ios":"levelo://app?vid=81bec61a-1f2c-43a9-b162-eec1d41ccf13"},"vehicle_type_id":"4","last_reported":1739714908,"current_range_meters":17600,"station_id":"","pricing_plan_id":"cebpf4jnsgd1na2vs0mg"},{"bike_id":"dfb8b4bf-66b7-4f69-91ef-2703e7099d0d","system_id":"levelo_inurba_marseille","lat":43.267753,"lon":5.39434,"is_reserved":false,"is_disabled":true,"rental_uris":{"android":"levelo://app?vid=dfb8b4bf-66b7-4f69-91ef-2703e7099d0d","ios":"levelo://app?vid=dfb8b4bf-66b7-4f69-91ef-2703e7099d0d"},"vehicle_type_id":"4","last_reported":1739714908,"current_range_meters":0,"station_id":"ce4bhh12rcd13ifvqfg0","pricing_plan_id":"cebpf4jnsgd1na2vs0mg"},{"bike_id":"9443b02c-e6c4-462d-aadc-74622448007e","system_id":"levelo_inurba_marseille","lat":43.29624,"lon":5.37151,"is_reserved":false,"is_disabled":false,"rental_uris":{"android":"levelo://app?vid=9443b02c-e6c4-462d-aadc-74622448007e","ios":"levelo://app?vid=9443b02c-e6c4-462d-aadc-74622448007e"},"vehicle_type_id":"4","last_reported":1739714908,"current_range_meters":26000,"station_id":"ce4bgnh2rcd13ifvqc0g","pricing_plan_id":"cebpf4jnsgd1na2vs0mg"},{"bike_id":"f2cb8cdc-dfc9-4872-9016-18b0b8f9b438","system_id":"levelo_inurba_marseille","lat":43.27404,"lon":5.3626,"is_reserved":false,"is_disabled":false,"rental_uris":{"android":"levelo://app?vid=f2cb8cdc-dfc9-4872-9016-18b0b8f9b438","ios":"levelo://app?vid=f2cb8cdc-dfc9-4872-9016-18b0b8f9b438"},"vehicle_type_id":"4","last_reported":1739714908,"current_range_meters":33200,"station_id":"ce4bhbh2rcd13ifvqeo0","pricing_plan_id":"cebpf4jnsgd1na2vs0mg"},{"bike_id":"badf799b-3322-45c8-a991-d2e446d7d3f9","system_id":"levelo_inurba_marseille","lat":43.26201,"lon":5.37939,"is_reserved":false,"is_disabled":false,"rental_uris":{"android":"levelo://app?vid=badf799b-3322-45c8-a991-d2e446d7d3f9","ios":"levelo://app?vid=badf799b-3322-45c8-a991-d2e446d7d3f9"},"vehicle_type_id":"4","last_reported":1739714908,"current_range_meters":38000,"station_id":"ce4bhjp2rcd13ifvqg90","pricing_plan_id":"cebpf4jnsgd1na2vs0mg"},{"bike_id":"aeb403d4-9cef-44b2-b32c-cb912f49efa3","system_id":"levelo_inurba_marseille","lat":43.231982,"lon":5.355485,"is_reserved":false,"is_disabled":false,"rental_uris":{"android":"levelo://app?vid=aeb403d4-9cef-44b2-b32c-cb912f49efa3","ios":"levelo://app?vid=aeb403d4-9cef-44b2-b32c-cb912f49efa3"},"vehicle_type_id":"4","last_reported":1739714908,"current_range_meters":28800,"station_id":"ce4bhu92rcd13ifvqi70","pricing_plan_id":"cebpf4jnsgd1na2vs0mg"},{"bike_id":"e5f02706-41e1-42ee-a0f9-58249a2b1de1","system_id":"levelo_inurba_marseille","lat":43.29914,"lon":5.3748,"is_reserved":false,"is_disabled":false,"rental_uris":{"android":"levelo://app?vid=e5f02706-41e1-42ee-a0f9-58249a2b1de1","ios":"levelo://app?vid=e5f02706-41e1-42ee-a0f9-58249a2b1de1"},"vehicle_type_id":"4","last_reported":1739714908,"current_range_meters":38000,"station_id":"ce4bgjh2rcd13ifvqbg0","pricing_plan_id":"cebpf4jnsgd1na2vs0mg"},{"bike_id":"50ad0a61-8a14-4cc0-a2ed-69509a918a89","system_id":"levelo_inurba_marseille","lat":43.30232,"lon":5.38122,"is_reserved":false,"is_disabled":false,"rental_uris":{"android":"levelo://app?vid=50ad0a61-8a14-4cc0-a2ed-69509a918a89","ios":"levelo://app?vid=50ad0a61-8a14-4cc0-a2ed-69509a918a89"},"vehicle_type_id":"4","last_reported":1739714908,"current_range_meters":36800,"station_id":"","pricing_plan_id":"cebpf4jnsgd1na2vs0mg"},{"bike_id":"6e9279e1-a299-42cb-b26a-80dd0bd04fc9","system_id":"levelo_inurba_marseille","lat":43.31274,"lon":5.36734,"is_reserved":false,"is_disabled":false,"rental_uris":{"android":"levelo://app?vid=6e9279e1-a299-42cb-b26a-80dd0bd04fc9","ios":"levelo://app?vid=6e9279e1-a299-42cb-b26a-80dd0bd04fc9"},"vehicle_type_id":"4","last_reported":1739714908,"current_range_meters":16400,"station_id":"","pricing_plan_id":"cebpf4jnsgd1na2vs0mg"},{"bike_id":"bbf5e383-abe0-4a72-a601-6a02ef9ad0f7","system_id":"levelo_inurba_marseille","lat":43.26566,"lon":5.39019,"is_reserved":false,"is_disabled":false,"rental_uris":{"android":"levelo://app?vid=bbf5e383-abe0-4a72-a601-6a02ef9ad0f7","ios":"levelo://app?vid=bbf5e383-abe0-4a72-a601-6a02ef9ad0f7"},"vehicle_type_id":"4","last_reported":1739714908,"current_range_meters":6000,"station_id":"ce4bhe12rcd13ifvqf30","pricing_plan_id":"cebpf4jnsgd1na2vs0mg"},{"bike_id":"5fad6dbe-c66d-48ed-bb1e-410aea5daf87","system_id":"levelo_inurba_marseille","lat":43.28103,"lon":5.37839,"is_reserved":false,"is_disabled":false,"rental_uris":{"android":"levelo://app?vid=5fad6dbe-c66d-48ed-bb1e-410aea5daf87","ios":"levelo://app?vid=5fad6dbe-c66d-48ed-bb1e-410aea5daf87"},"vehicle_type_id":"4","last_reported":1739714908,"current_range_meters":39200,"station_id":"ce4bha12rcd13ifvqee0","pricing_plan_id":"cebpf4jnsgd1na2vs0mg"},{"bike_id":"7765337b-5c03-4ea0-be0e-f987da7b49d0","system_id":"levelo_inurba_marseille","lat":43.27631,"lon":5.36097,"is_reserved":false,"is_disabled":false,"rental_uris":{"android":"levelo://app?vid=7765337b-5c03-4ea0-be0e-f987da7b49d0","ios":"levelo://app?vid=7765337b-5c03-4ea0-be0e-f987da7b49d0"},"vehicle_type_id":"4","last_reported":1739714908,"current_range_meters":39200,"station_id":"ce4bgj92rcd13ifvqbe0","pricing_plan_id":"cebpf4jnsgd1na2vs0mg"},{"bike_id":"cf0c37b6-bef7-49a3-b137-60c7b09b0b40","system_id":"levelo_inurba_marseille","lat":43.28421,"lon":5.34994,"is_reserved":false,"is_disabled":false,"rental_uris":{"android":"levelo://app?vid=cf0c37b6-bef7-49a3-b137-60c7b09b0b40","ios":"levelo://app?vid=cf0c37b6-bef7-49a3-b137-60c7b09b0b40"},"vehicle_type_id":"4","last_reported":1739714908,"current_range_meters":33600,"station_id":"ce4bhbh2rcd13ifvqepg","pricing_plan_id":"cebpf4jnsgd1na2vs0mg"},{"bike_id":"bd922191-fc18-4a84-9939-c4b21712cfb8","system_id":"levelo_inurba_marseille","lat":43.29538,"lon":5.3855,"is_reserved":false,"is_disabled":true,"rental_uris":{"android":"levelo://app?vid=bd922191-fc18-4a84-9939-c4b21712cfb8","ios":"levelo://app?vid=bd922191-fc18-4a84-9939-c4b21712cfb8"},"vehicle_type_id":"4","last_reported":1739714908,"current_range_meters":2000,"station_id":"ce4bgih2rcd13ifvqba0","pricing_plan_id":"cebpf4jnsgd1na2vs0mg"},{"bike_id":"d7e1cf5a-14b2-44fb-b644-28b949b7f9dc","system_id":"levelo_inurba_marseille","lat":43.30146,"lon":5.3742,"is_reserved":false,"is_disabled":false,"rental_uris":{"android":"levelo://app?vid=d7e1cf5a-14b2-44fb-b644-28b949b7f9dc","ios":"levelo://app?vid=d7e1cf5a-14b2-44fb-b644-28b949b7f9dc"},"vehicle_type_id":"4","last_reported":1739714908,"current_range_meters":17200,"station_id":"ce4bgs92rcd13ifvqcc0","pricing_plan_id":"cebpf4jnsgd1na2vs0mg"},{"bike_id":"2e1ea3ec-5284-4631-8449-fb3cd1434ac5","system_id":"levelo_inurba_marseille","lat":43.23142,"lon":5.43676,"is_reserved":false,"is_disabled":true,"rental_uris":{"android":"levelo://app?vid=2e1ea3ec-5284-4631-8449-fb3cd1434ac5","ios":"levelo://app?vid=2e1ea3ec-5284-4631-8449-fb3cd1434ac5"},"vehicle_type_id":"4","last_reported":1739714908,"current_range_meters":800,"station_id":"ce4bhmp2rcd13ifvqgog","pricing_plan_id":"cebpf4jnsgd1na2vs0mg"},{"bike_id":"46c4c9c2-7d4b-4472-9909-c613c707c119","system_id":"levelo_inurba_marseille","lat":43.28932,"lon":5.36403,"is_reserved":false,"is_disabled":false,"rental_uris":{"android":"levelo://app?vid=46c4c9c2-7d4b-4472-9909-c613c707c119","ios":"levelo://app?vid=46c4c9c2-7d4b-4472-9909-c613c707c119"},"vehicle_type_id":"4","last_reported":1739714908,"current_range_meters":32400,"station_id":"ce4bhc92rcd13ifvqetg","pricing_plan_id":"cebpf4jnsgd1na2vs0mg"},{"bike_id":"c1665b9a-8804-49fb-a2e7-87ab5bdd8b6d","system_id":"levelo_inurba_marseille","lat":43.33732,"lon":5.39186,"is_reserved":false,"is_disabled":false,"rental_uris":{"android":"levelo://app?vid=c1665b9a-8804-49fb-a2e7-87ab5bdd8b6d","ios":"levelo://app?vid=c1665b9a-8804-49fb-a2e7-87ab5bdd8b6d"},"vehicle_type_id":"4","last_reported":1739714908,"current_range_meters":39200,"station_id":"ce4bhr92rcd13ifvqhsg","pricing_plan_id":"cebpf4jnsgd1na2vs0mg"},{"bike_id":"33289e8b-a03b-4a01-bec0-4cbea48d745b","system_id":"levelo_inurba_marseille","lat":43.30528,"lon":5.3654,"is_reserved":false,"is_disabled":false,"rental_uris":{"android":"levelo://app?vid=33289e8b-a03b-4a01-bec0-4cbea48d745b","ios":"levelo://app?vid=33289e8b-a03b-4a01-bec0-4cbea48d745b"},"vehicle_type_id":"4","last_reported":1739714908,"current_range_meters":27600,"station_id":"ce4bgs12rcd13ifvqcag","pricing_plan_id":"cebpf4jnsgd1na2vs0mg"},{"bike_id":"5c381eca-4257-4fd5-9296-339ca91bf680","system_id":"levelo_inurba_marseille","lat":43.32002,"lon":5.38147,"is_reserved":false,"is_disabled":true,"rental_uris":{"android":"levelo://app?vid=5c381eca-4257-4fd5-9296-339ca91bf680","ios":"levelo://app?vid=5c381eca-4257-4fd5-9296-339ca91bf680"},"vehicle_type_id":"4","last_reported":1739714908,"current_range_meters":0,"station_id":"ce4bhr12rcd13ifvqhpg","pricing_plan_id":"cebpf4jnsgd1na2vs0mg"},{"bike_id":"87e00b9c-134f-4e98-ac15-37845ed7a493","system_id":"levelo_inurba_marseille","lat":43.29188,"lon":5.35796,"is_reserved":false,"is_disabled":false,"rental_uris":{"android":"levelo://app?vid=87e00b9c-134f-4e98-ac15-37845ed7a493","ios":"levelo://app?vid=87e00b9c-134f-4e98-ac15-37845ed7a493"},"vehicle_type_id":"4","last_reported":1739714908,"current_range_meters":24400,"station_id":"ce4bhb12rcd13ifvqel0","pricing_plan_id":"cebpf4jnsgd1na2vs0mg"},{"bike_id":"dfa5be5b-dcbf-4008-8e75-c2c77f774ce9","system_id":"levelo_inurba_marseille","lat":43.28285,"lon":5.3509,"is_reserved":false,"is_disabled":false,"rental_uris":{"android":"levelo://app?vid=dfa5be5b-dcbf-4008-8e75-c2c77f774ce9","ios":"levelo://app?vid=dfa5be5b-dcbf-4008-8e75-c2c77f774ce9"},"vehicle_type_id":"4","last_reported":1739714908,"current_range_meters":36000,"station_id":"ce4bhbp2rcd13ifvqerg","pricing_plan_id":"cebpf4jnsgd1na2vs0mg"},{"bike_id":"4dd856f9-3e80-4cf3-bece-00be37548a8d","system_id":"levelo_inurba_marseille","lat":43.2902,"lon":5.38133,"is_reserved":false,"is_disabled":false,"rental_uris":{"android":"levelo://app?vid=4dd856f9-3e80-4cf3-bece-00be37548a8d","ios":"levelo://app?vid=4dd856f9-3e80-4cf3-bece-00be37548a8d"},"vehicle_type_id":"4","last_reported":1739714908,"current_range_meters":14800,"station_id":"ce4bh4p2rcd13ifvqe1g","pricing_plan_id":"cebpf4jnsgd1na2vs0mg"},{"bike_id":"5db5220c-3a30-4715-b806-a4718423ee4b","system_id":"levelo_inurba_marseille","lat":43.30152,"lon":5.38053,"is_reserved":false,"is_disabled":false,"rental_uris":{"android":"levelo://app?vid=5db5220c-3a30-4715-b806-a4718423ee4b","ios":"levelo://app?vid=5db5220c-3a30-4715-b806-a4718423ee4b"},"vehicle_type_id":"4","last_reported":1739714908,"current_range_meters":38800,"station_id":"ce4bgjp2rcd13ifvqbh0","pricing_plan_id":"cebpf4jnsgd1na2vs0mg"},{"bike_id":"1d00c9eb-abbb-437e-9a07-bc212edbd5df","system_id":"levelo_inurba_marseille","lat":43.27373,"lon":5.36248,"is_reserved":false,"is_disabled":false,"rental_uris":{"android":"levelo://app?vid=1d00c9eb-abbb-437e-9a07-bc212edbd5df","ios":"levelo://app?vid=1d00c9eb-abbb-437e-9a07-bc212edbd5df"},"vehicle_type_id":"4","last_reported":1739714908,"current_range_meters":26800,"station_id":"ce4bhbh2rcd13ifvqeo0","pricing_plan_id":"cebpf4jnsgd1na2vs0mg"},{"bike_id":"8273ce7e-f7e6-4995-bc46-12906b7961ac","system_id":"levelo_inurba_marseille","lat":43.23178,"lon":5.39981,"is_reserved":false,"is_disabled":false,"rental_uris":{"android":"levelo://app?vid=8273ce7e-f7e6-4995-bc46-12906b7961ac","ios":"levelo://app?vid=8273ce7e-f7e6-4995-bc46-12906b7961ac"},"vehicle_type_id":"4","last_reported":1739714908,"current_range_meters":25200,"station_id":"ce4bhn12rcd13ifvqgqg","pricing_plan_id":"cebpf4jnsgd1na2vs0mg"},{"bike_id":"3067cc11-ea3d-4497-a8fa-3717c9b08d94","system_id":"levelo_inurba_marseille","lat":43.27324,"lon":5.39106,"is_reserved":false,"is_disabled":true,"rental_uris":{"android":"levelo://app?vid=3067cc11-ea3d-4497-a8fa-3717c9b08d94","ios":"levelo://app?vid=3067cc11-ea3d-4497-a8fa-3717c9b08d94"},"vehicle_type_id":"4","last_reported":1739714908,"current_range_meters":35200,"station_id":"ce4bhgp2rcd13ifvqfe0","pricing_plan_id":"cebpf4jnsgd1na2vs0mg"},{"bike_id":"00fed288-6803-4137-b881-412739034dc6","system_id":"levelo_inurba_marseille","lat":43.22929,"lon":5.35361,"is_reserved":false,"is_disabled":false,"rental_uris":{"android":"levelo://app?vid=00fed288-6803-4137-b881-412739034dc6","ios":"levelo://app?vid=00fed288-6803-4137-b881-412739034dc6"},