{"last_updated":1760631215,"ttl":60,"version":"2.2","data":{"bikes":[{"bike_id":"1b78d50e-e95b-419e-a5ec-c3093b7e141a","system_id":"levelo_inurba_marseille","lat":43.337444,"lon":5.374475,"is_reserved":false,"is_disabled":true,"rental_uris":{"android":"levelo://app?vid=1b78d50e-e95b-419e-a5ec-c3093b7e141a","ios":"levelo://app?vid=1b78d50e-e95b-419e-a5ec-c3093b7e141a"},"vehicle_type_id":"4","last_reported":1760631216,"current_range_meters":0,"station_id":"","pricing_plan_id":"cebpf4jnsgd1na2vs0mg"},{"bike_id":"84c22208-7ddb-49b8-be8e-b34b5bdf05b2","system_id":"levelo_inurba_marseille","lat":43.33771,"lon":5.37424,"is_reserved":false,"is_disabled":true,"rental_uris":{"android":"levelo://app?vid=84c22208-7ddb-49b8-be8e-b34b5bdf05b2","ios":"levelo://app?vid=84c22208-7ddb-49b8-be8e-b34b5bdf05b2"},"vehicle_type_id":"4","last_reported":1760631216,"current_range_meters":0,"station_id":"","pricing_plan_id":"cebpf4jnsgd1na2vs0mg"},{"bike_id":"da90025a-3512-4db8-9c5c-f808888b7e59","system_id":"levelo_inurba_marseille","lat":43.33751,"lon":5.37456,"is_reserved":false,"is_disabled":true,"rental_uris":{"android":"levelo://app?vid=da90025a-3512-4db8-9c5c-f808888b7e59","ios":"levelo://app?vid=da90025a-3512-4db8-9c5c-f808888b7e59"},"vehicle_type_id":"4","last_reported":1760631216,"current_range_meters":0,"station_id":"","pricing_plan_id":"cebpf4jnsgd1na2vs0mg"},{"bike_id":"783b0905-e73e-4043-b791-e38f037df91f","system_id":"levelo_inurba_marseille","lat":43.33747,"lon":5.37463,"is_reserved":false,"is_disabled":true,"rental_uris":{"android":"levelo://app?vid=783b0905-e73e-4043-b791-e38f037df91f","ios":"levelo://app?vid=783b0905-e73e-4043-b791-e38f037df91f"},"vehicle_type_id":"1","last_reported":1760631216,"current_range_meters":0,"station_id":"","pricing_plan_id":"cebpf4jnsgd1na2vs0mg"},{"bike_id":"8d89ee17-9f9e-4689-8ca8-8bd05eb5782d","system_id":"levelo_inurba_marseille","lat":43.33737,"lon":5.37465,"is_reserved":false,"is_disabled":true,"rental_uris":{"android":"levelo://app?vid=8d89ee17-9f9e-4689-8ca8-8bd05eb5782d","ios":"levelo://app?vid=8d89ee17-9f9e-4689-8ca8-8bd05eb5782d"},"vehicle_type_id":"4","last_reported":1760631216,"current_range_meters":0,"station_id":"","pricing_plan_id":"cebpf4jnsgd1na2vs0mg"},{"bike_id":"0ab0967e-1041-44e0-b599-5f9a08360f34","system_id":"levelo_inurba_marseille","lat":43.33755,"lon":5.37468,"is_reserved":false,"is_disabled":true,"rental_uris":{"android":"levelo://app?vid=0ab0967e-1041-44e0-b599-5f9a08360f34","ios":"levelo://app?vid=0ab0967e-1041-44e0-b599-5f9a08360f34"},"vehicle_type_id":"4","last_reported":1760631216,"current_range_meters":0,"station_id":"","pricing_plan_id":"cebpf4jnsgd1na2vs0mg"},{"bike_id":"44c5d8b8-3b93-4ee7-95d3-747bcabcce2c","system_id":"levelo_inurba_marseille","lat":43.337444,"lon":5.374475,"is_reserved":false,"is_disabled":true,"rental_uris":{"android":"levelo://app?vid=44c5d8b8-3b93-4ee7-95d3-747bcabcce2c","ios":"levelo://app?vid=44c5d8b8-3b93-4ee7-95d3-747bcabcce2c"},"vehicle_type_id":"4","last_reported":1760631216,"current_range_meters":0,"station_id":"","pricing_plan_id":"cebpf4jnsgd1na2vs0mg"},{"bike_id":"d90696b7-4385-47dc-a26a-f4dc2b847721","system_id":"levelo_inurba_marseille","lat":43.265706,"lon":5.390111,"is_reserved":false,"is_disabled":true,"rental_uris":{"android":"levelo://app?vid=d90696b7-4385-47dc-a26a-f4dc2b847721","ios":"levelo://app?vid=d90696b7-4385-47dc-a26a-f4dc2b847721"},"vehicle_type_id":"4","last_reported":1760631216,"current_range_meters":0,"station_id":"","pricing_plan_id":"cebpf4jnsgd1na2vs0mg"},{"bike_id":"af233c89-ff22-4fc0-a87b-2353168c05dd","system_id":"levelo_inurba_marseille","lat":43.27413,"lon":5.41169,"is_reserved":false,"is_disabled":true,"rental_uris":{"android":"levelo://app?vid=af233c89-ff22-4fc0-a87b-2353168c05dd","ios":"levelo://app?vid=af233c89-ff22-4fc0-a87b-2353168c05dd"},"vehicle_type_id":"4","last_reported":1760631216,"current_range_meters":0,"station_id":"","pricing_plan_id":"cebpf4jnsgd1na2vs0mg"},{"bike_id":"e174ec7a-3d90-4146-9085-b8a14d5ce575","system_id":"levelo_inurba_marseille","lat":43.249709,"lon":5.401353,"is_reserved":false,"is_disabled":true,"rental_uris":{"android":"levelo://app?vid=e174ec7a-3d90-4146-9085-b8a14d5ce575","ios":"levelo://app?vid=e174ec7a-3d90-4146-9085-b8a14d5ce575"},"vehicle_type_id":"4","last_reported":1760631216,"current_range_meters":0,"station_id":"","pricing_plan_id":"cebpf4jnsgd1na2vs0mg"},{"bike_id":"49f7f8e6-6815-4d7e-8d5d-7145be58d5bc","system_id":"levelo_inurba_marseille","lat":43.25167,"lon":5.40286,"is_reserved":false,"is_disabled":true,"rental_uris":{"android":"levelo://app?vid=49f7f8e6-6815-4d7e-8d5d-7145be58d5bc","ios":"levelo://app?vid=49f7f8e6-6815-4d7e-8d5d-7145be58d5bc"},"vehicle_type_id":"4","last_reported":1760631216,"current_range_meters":0,"station_id":"","pricing_plan_id":"cebpf4jnsgd1na2vs0mg"},{"bike_id":"83560911-40e0-4475-b727-bda6aeb6ed60","system_id":"levelo_inurba_marseille","lat":43.225331,"lon":5.348328,"is_reserved":false,"is_disabled":true,"rental_uris":{"android":"levelo://app?vid=83560911-40e0-4475-b727-bda6aeb6ed60","ios":"levelo://app?vid=83560911-40e0-4475-b727-bda6aeb6ed60"},"vehicle_type_id":"4","last_reported":1760631216,"current_range_meters":0,"station_id":"","pricing_plan_id":"cebpf4jnsgd1na2vs0mg"},{"bike_id":"3327e998-6a1b-431b-a68a-176444eaf7d0","system_id":"levelo_inurba_marseille","lat":43.29662,"lon":5.36757,"is_reserved":false,"is_disabled":true,"rental_uris":{"android":"levelo://app?vid=3327e998-6a1b-431b-a68a-176444eaf7d0","ios":"levelo://app?vid=3327e998-6a1b-431b-a68a-176444eaf7d0"},"vehicle_type_id":"4","last_reported":1760631216,"current_range_meters":0,"station_id":"","pricing_plan_id":"cebpf4jnsgd1na2vs0mg"},{"bike_id":"4c49ff48-f815-4dd0-8fd4-375b27e08d94","system_id":"levelo_inurba_marseille","lat":43.291488,"lon":5.408176,"is_reserved":false,"is_disabled":true,"rental_uris":{"android":"levelo://app?vid=4c49ff48-f815-4dd0-8fd4-375b27e08d94","ios":"levelo://app?vid=4c49ff48-f815-4dd0-8fd4-375b27e08d94"},"vehicle_type_id":"4","last_reported":1760631216,"current_range_meters":0,"station_id":"","pricing_plan_id":"cebpf4jnsgd1na2vs0mg"},{"bike_id":"6776cb03-734b-4d27-9345-e3fc5cb1d40c","system_id":"levelo_inurba_marseille","lat":43.26343,"lon":5.40102,"is_reserved":false,"is_disabled":true,"rental_uris":{"android":"levelo://app?vid=6776cb03-734b-4d27-9345-e3fc5cb1d40c","ios":"levelo://app?vid=6776cb03-734b-4d27-9345-e3fc5cb1d40c"},"vehicle_type_id":"4","last_reported":1760631216,"current_range_meters":0,"station_id":"","pricing_plan_id":"cebpf4jnsgd1na2vs0mg"},{"bike_id":"3804a29c-a782-4c50-a410-9157f2094310","system_id":"levelo_inurba_marseille","lat":43.27434,"lon":5.38489,"is_reserved":false,"is_disabled":true,"rental_uris":{"android":"levelo://app?vid=3804a29c-a782-4c50-a410-9157f2094310","ios":"levelo://app?vid=3804a29c-a782-4c50-a410-9157f2094310"},"vehicle_type_id":"4","last_reported":1760631216,"current_range_meters":0,"station_id":"","pricing_plan_id":"cebpf4jnsgd1na2vs0mg"},{"bike_id":"c5939fc8-9930-4946-980f-efc9f762c9ae","system_id":"levelo_inurba_marseille","lat":43.25171,"lon":5.37563,"is_reserved":false,"is_disabled":true,"rental_uris":{"android":"levelo://app?vid=c5939fc8-9930-4946-980f-efc9f762c9ae","ios":"levelo://app?vid=c5939fc8-9930-4946-980f-efc9f762c9ae"},"vehicle_type_id":"4","last_reported":1760631216,"current_range_meters":0,"station_id":"","pricing_plan_id":"cebpf4jnsgd1na2vs0mg"},{"bike_id":"4b0f356a-7a97-4f4e-85ee-bd2469184852","system_id":"levelo_inurba_marseille","lat":43.27942,"lon":5.41533,"is_reserved":false,"is_disabled":true,"rental_uris":{"android":"levelo://app?vid=4b0f356a-7a97-4f4e-85ee-bd2469184852","ios":"levelo://app?vid=4b0f356a-7a97-4f4e-85ee-bd2469184852"},"vehicle_type_id":"4","last_reported":1760631216,"current_range_meters":0,"station_id":"","pricing_plan_id":"cebpf4jnsgd1na2vs0mg"},{"bike_id":"124077fa-3fea-4e89-99ac-8687f87c4c44","system_id":"levelo_inurba_marseille","lat":43.2954,"lon":5.383068,"is_reserved":false,"is_disabled":true,"rental_uris":{"android":"levelo://app?vid=124077fa-3fea-4e89-99ac-8687f87c4c44","ios":"levelo://app?vid=124077fa-3fea-4e89-99ac-8687f87c4c44"},"vehicle_type_id":"4","last_reported":1760631216,"current_range_meters":0,"station_id":"","pricing_plan_id":"cebpf4jnsgd1na2vs0mg"},{"bike_id":"5cb07cb5-0b34-4b60-a06d-6b4732ac8358","system_id":"levelo_inurba_marseille","lat":43.27222,"lon":5.39263,"is_reserved":false,"is_disabled":true,"rental_uris":{"android":"levelo://app?vid=5cb07cb5-0b34-4b60-a06d-6b4732ac8358","ios":"levelo://app?vid=5cb07cb5-0b34-4b60-a06d-6b4732ac8358"},"vehicle_type_id":"4","last_reported":1760631216,"current_range_meters":0,"station_id":"","pricing_plan_id":"cebpf4jnsgd1na2vs0mg"},{"bike_id":"14b2c2ae-b21d-4422-a602-7ad9cf908478","system_id":"levelo_inurba_marseille","lat":43.27935,"lon":5.41231,"is_reserved":false,"is_disabled":true,"rental_uris":{"android":"levelo://app?vid=14b2c2ae-b21d-4422-a602-7ad9cf908478","ios":"levelo://app?vid=14b2c2ae-b21d-4422-a602-7ad9cf908478"},"vehicle_type_id":"4","last_reported":1760631216,"current_range_meters":0,"station_id":"","pricing_plan_id":"cebpf4jnsgd1na2vs0mg"},{"bike_id":"711be2a7-e46c-4830-b7a1-b6224a66c85d","system_id":"levelo_inurba_marseille","lat":43.292617,"lon":5.37641,"is_reserved":false,"is_disabled":true,"rental_uris":{"android":"levelo://app?vid=711be2a7-e46c-4830-b7a1-b6224a66c85d","ios":"levelo://app?vid=711be2a7-e46c-4830-b7a1-b6224a66c85d"},"vehicle_type_id":"4","last_reported":1760631216,"current_range_meters":0,"station_id":"ce4bgi12rcd13ifvqb80","pricing_plan_id":"cebpf4jnsgd1na2vs0mg"},{"bike_id":"c3fd922e-bc87-487b-9dd8-a2be314e38f8","system_id":"levelo_inurba_marseille","lat":43.299622,"lon":5.384868,"is_reserved":false,"is_disabled":true,"rental_uris":{"android":"levelo://app?vid=c3fd922e-bc87-487b-9dd8-a2be314e38f8","ios":"levelo://app?vid=c3fd922e-bc87-487b-9dd8-a2be314e38f8"},"vehicle_type_id":"4","last_reported":1760631216,"current_range_meters":0,"station_id":"ce4bgj92rcd13ifvqbd0","pricing_plan_id":"cebpf4jnsgd1na2vs0mg"},{"bike_id":"13795e40-ba46-438c-a25f-1b5bade251a4","system_id":"levelo_inurba_marseille","lat":43.30218,"lon":5.36638,"is_reserved":false,"is_disabled":true,"rental_uris":{"android":"levelo://app?vid=13795e40-ba46-438c-a25f-1b5bade251a4","ios":"levelo://app?vid=13795e40-ba46-438c-a25f-1b5bade251a4"},"vehicle_type_id":"4","last_reported":1760631216,"current_range_meters":0,"station_id":"ce4bgqh2rcd13ifvqc4g","pricing_plan_id":"cebpf4jnsgd1na2vs0mg"},{"bike_id":"a6a7e507-6107-4754-a3c1-d9d073ee85bc","system_id":"levelo_inurba_marseille","lat":43.30174,"lon":5.36634,"is_reserved":false,"is_disabled":true,"rental_uris":{"android":"levelo://app?vid=a6a7e507-6107-4754-a3c1-d9d073ee85bc","ios":"levelo://app?vid=a6a7e507-6107-4754-a3c1-d9d073ee85bc"},"vehicle_type_id":"4","last_reported":1760631216,"current_range_meters":0,"station_id":"ce4bgrh2rcd13ifvqc8g","pricing_plan_id":"cebpf4jnsgd1na2vs0mg"},{"bike_id":"13982c6a-7e65-42f5-8f40-394404e94543","system_id":"levelo_inurba_marseille","lat":43.301802,"lon":5.366183,"is_reserved":false,"is_disabled":true,"rental_uris":{"android":"levelo://app?vid=13982c6a-7e65-42f5-8f40-394404e94543","ios":"levelo://app?vid=13982c6a-7e65-42f5-8f40-394404e94543"},"vehicle_type_id":"4","last_reported":1760631216,"current_range_meters":0,"station_id":"ce4bgrh2rcd13ifvqc8g","pricing_plan_id":"cebpf4jnsgd1na2vs0mg"},{"bike_id":"21a18d8d-acf0-4656-ac74-5cb3dd19470a","system_id":"levelo_inurba_marseille","lat":43.29203,"lon":5.39304,"is_reserved":false,"is_disabled":true,"rental_uris":{"android":"levelo://app?vid=21a18d8d-acf0-4656-ac74-5cb3dd19470a","ios":"levelo://app?vid=21a18d8d-acf0-4656-ac74-5cb3dd19470a"},"vehicle_type_id":"4","last_reported":1760631216,"current_range_meters":0,"station_id":"ce4bh192rcd13ifvqdd0","pricing_plan_id":"cebpf4jnsgd1na2vs0mg"},{"bike_id":"01b49a52-fbb9-4f99-91a0-a93e95ed2c44","system_id":"levelo_inurba_marseille","lat":43.2858,"lon":5.394991,"is_reserved":false,"is_disabled":true,"rental_uris":{"android":"levelo://app?vid=01b49a52-fbb9-4f99-91a0-a93e95ed2c44","ios":"levelo://app?vid=01b49a52-fbb9-4f99-91a0-a93e95ed2c44"},"vehicle_type_id":"4","last_reported":1760631216,"current_range_meters":0,"station_id":"ce4bh292rcd13ifvqdg0","pricing_plan_id":"cebpf4jnsgd1na2vs0mg"},{"bike_id":"116f9c7c-08a5-4672-bc9f-93e3e2100b4f","system_id":"levelo_inurba_marseille","lat":43.28482,"lon":5.38449,"is_reserved":false,"is_disabled":true,"rental_uris":{"android":"levelo://app?vid=116f9c7c-08a5-4672-bc9f-93e3e2100b4f","ios":"levelo://app?vid=116f9c7c-08a5-4672-bc9f-93e3e2100b4f"},"vehicle_type_id":"4","last_reported":1760631216,"current_range_meters":0,"station_id":"ce4bh512rcd13ifvqe3g","pricing_plan_id":"cebpf4jnsgd1na2vs0mg"},{"bike_id":"51cddec8-6ac9-477f-b7c4-a9c198a043ab","system_id":"levelo_inurba_marseille","lat":43.284727,"lon":5.358847,"is_reserved":false,"is_disabled":true,"rental_uris":{"android":"levelo://app?vid=51cddec8-6ac9-477f-b7c4-a9c198a043ab","ios":"levelo://app?vid=51cddec8-6ac9-477f-b7c4-a9c198a043ab"},"vehicle_type_id":"4","last_reported":1760631216,"current_range_meters":0,"station_id":"ce4bhah2rcd13ifvqei0","pricing_plan_id":"cebpf4jnsgd1na2vs0mg"},{"bike_id":"072b83a3-c858-4a7d-aaca-736d0372c6cc","system_id":"levelo_inurba_marseille","lat":43.28425,"lon":5.34984,"is_reserved":false,"is_disabled":true,"rental_uris":{"android":"levelo://app?vid=072b83a3-c858-4a7d-aaca-736d0372c6cc","ios":"levelo://app?vid=072b83a3-c858-4a7d-aaca-736d0372c6cc"},"vehicle_type_id":"4","last_reported":1760631216,"current_range_meters":0,"station_id":"ce4bhbh2rcd13ifvqepg","pricing_plan_id":"cebpf4jnsgd1na2vs0mg"},{"bike_id":"ae93fff9-b742-4f99-b9f6-32b29d1a222f","system_id":"levelo_inurba_marseille","lat":43.28275,"lon":5.35074,"is_reserved":false,"is_disabled":true,"rental_uris":{"android":"levelo://app?vid=ae93fff9-b742-4f99-b9f6-32b29d1a222f","ios":"levelo://app?vid=ae93fff9-b742-4f99-b9f6-32b29d1a222f"},"vehicle_type_id":"4","last_reported":1760631216,"current_range_meters":0,"station_id":"ce4bhbp2rcd13ifvqerg","pricing_plan_id":"cebpf4jnsgd1na2vs0mg"},{"bike_id":"2d05719b-7fd3-47eb-871e-2ecb73068c7a","system_id":"levelo_inurba_marseille","lat":43.265735,"lon":5.390102,"is_reserved":false,"is_disabled":true,"rental_uris":{"android":"levelo://app?vid=2d05719b-7fd3-47eb-871e-2ecb73068c7a","ios":"levelo://app?vid=2d05719b-7fd3-47eb-871e-2ecb73068c7a"},"vehicle_type_id":"4","last_reported":1760631216,"current_range_meters":0,"station_id":"ce4bhe12rcd13ifvqf30","pricing_plan_id":"cebpf4jnsgd1na2vs0mg"},{"bike_id":"1fb5c78a-5530-40ba-9e9f-f0a67a9538fc","system_id":"levelo_inurba_marseille","lat":43.279168,"lon":5.395814,"is_reserved":false,"is_disabled":true,"rental_uris":{"android":"levelo://app?vid=1fb5c78a-5530-40ba-9e9f-f0a67a9538fc","ios":"levelo://app?vid=1fb5c78a-5530-40ba-9e9f-f0a67a9538fc"},"vehicle_type_id":"4","last_reported":1760631216,"current_range_meters":0,"station_id":"ce4bhf92rcd13ifvqf40","pricing_plan_id":"cebpf4jnsgd1na2vs0mg"},{"bike_id":"213e944a-932c-4cf6-b384-013a3bcc4619","system_id":"levelo_inurba_marseille","lat":43.265567,"lon":5.372829,"is_reserved":false,"is_disabled":true,"rental_uris":{"android":"levelo://app?vid=213e944a-932c-4cf6-b384-013a3bcc4619","ios":"levelo://app?vid=213e944a-932c-4cf6-b384-013a3bcc4619"},"vehicle_type_id":"4","last_reported":1760631216,"current_range_meters":0,"station_id":"ce4bhg12rcd13ifvqf70","pricing_plan_id":"cebpf4jnsgd1na2vs0mg"},{"bike_id":"fd112b2e-32d7-4117-a0eb-e9d4ae20d531","system_id":"levelo_inurba_marseille","lat":43.26207,"lon":5.37444,"is_reserved":false,"is_disabled":true,"rental_uris":{"android":"levelo://app?vid=fd112b2e-32d7-4117-a0eb-e9d4ae20d531","ios":"levelo://app?vid=fd112b2e-32d7-4117-a0eb-e9d4ae20d531"},"vehicle_type_id":"4","last_reported":1760631216,"current_range_meters":0,"station_id":"ce4bhgp2rcd13ifvqfc0","pricing_plan_id":"cebpf4jnsgd1na2vs0mg"},{"bike_id":"7f0c99d4-b1b1-4c2a-8311-e611c2c2f54f","system_id":"levelo_inurba_marseille","lat":43.27214,"lon":5.39175,"is_reserved":false,"is_disabled":true,"rental_uris":{"android":"levelo://app?vid=7f0c99d4-b1b1-4c2a-8311-e611c2c2f54f","ios":"levelo://app?vid=7f0c99d4-b1b1-4c2a-8311-e611c2c2f54f"},"vehicle_type_id":"4","last_reported":1760631216,"current_range_meters":0,"station_id":"ce4bhhp2rcd13ifvqfm0","pricing_plan_id":"cebpf4jnsgd1na2vs0mg"},{"bike_id":"a16eed9c-dc74-43c2-9958-f48188a9cccc","system_id":"levelo_inurba_marseille","lat":43.258605,"lon":5.399003,"is_reserved":false,"is_disabled":true,"rental_uris":{"android":"levelo://app?vid=a16eed9c-dc74-43c2-9958-f48188a9cccc","ios":"levelo://app?vid=a16eed9c-dc74-43c2-9958-f48188a9cccc"},"vehicle_type_id":"4","last_reported":1760631216,"current_range_meters":0,"station_id":"ce4bhl92rcd13ifvqghg","pricing_plan_id":"cebpf4jnsgd1na2vs0mg"},{"bike_id":"7de0dbea-962e-494a-b91b-52e278652caf","system_id":"levelo_inurba_marseille","lat":43.241699,"lon":5.397296,"is_reserved":false,"is_disabled":true,"rental_uris":{"android":"levelo://app?vid=7de0dbea-962e-494a-b91b-52e278652caf","ios":"levelo://app?vid=7de0dbea-962e-494a-b91b-52e278652caf"},"vehicle_type_id":"4","last_reported":1760631216,"current_range_meters":0,"station_id":"ce4bhn12rcd13ifvqgpg","pricing_plan_id":"cebpf4jnsgd1na2vs0mg"},{"bike_id":"c7d36d76-2525-4e4f-9472-62db91bd415f","system_id":"levelo_inurba_marseille","lat":43.27828,"lon":5.40718,"is_reserved":false,"is_disabled":true,"rental_uris":{"android":"levelo://app?vid=c7d36d76-2525-4e4f-9472-62db91bd415f","ios":"levelo://app?vid=c7d36d76-2525-4e4f-9472-62db91bd415f"},"vehicle_type_id":"4","last_reported":1760631216,"current_range_meters":0,"station_id":"ce4bhnh2rcd13ifvqgtg","pricing_plan_id":"cebpf4jnsgd1na2vs0mg"},{"bike_id":"9306d235-44a3-4d7f-aa42-1f1d7c3a9ead","system_id":"levelo_inurba_marseille","lat":43.317563,"lon":5.39016,"is_reserved":false,"is_disabled":true,"rental_uris":{"android":"levelo://app?vid=9306d235-44a3-4d7f-aa42-1f1d7c3a9ead","ios":"levelo://app?vid=9306d235-44a3-4d7f-aa42-1f1d7c3a9ead"},"vehicle_type_id":"4","last_reported":1760631216,"current_range_meters":0,"station_id":"ce4bhqp2rcd13ifvqhng","pricing_plan_id":"cebpf4jnsgd1na2vs0mg"},{"bike_id":"7392215a-c92f-4dc8-b5b9-44692caa02a2","system_id":"levelo_inurba_marseille","lat":43.24163,"lon":5.36398,"is_reserved":false,"is_disabled":true,"rental_uris":{"android":"levelo://app?vid=7392215a-c92f-4dc8-b5b9-44692caa02a2","ios":"levelo://app?vid=7392215a-c92f-4dc8-b5b9-44692caa02a2"},"vehicle_type_id":"4","last_reported":1760631216,"current_range_meters":0,"station_id":"cpo36qri1sfpv3e86is0","pricing_plan_id":"cebpf4jnsgd1na2vs0mg"},{"bike_id":"ab3968fe-3b55-40ea-bbd1-eae81f0449bd","system_id":"levelo_inurba_marseille","lat":43.211923,"lon":5.350719,"is_reserved":false,"is_disabled":true,"rental_uris":{"android":"levelo://app?vid=ab3968fe-3b55-40ea-bbd1-eae81f0449bd","ios":"levelo://app?vid=ab3968fe-3b55-40ea-bbd1-eae81f0449bd"},"vehicle_type_id":"4","last_reported":1760631216,"current_range_meters":0,"station_id":"st_cvj6r9ubvosntc0bgbag","pricing_plan_id":"cebpf4jnsgd1na2vs0mg"},{"bike_id":"a04e8630-5224-4b29-98fc-8117d2c3dc69","system_id":"levelo_inurba_marseille","lat":43.25343,"lon":5.421701,"is_reserved":false,"is_disabled":true,"rental_uris":{"android":"levelo://app?vid=a04e8630-5224-4b29-98fc-8117d2c3dc69","ios":"levelo://app?vid=a04e8630-5224-4b29-98fc-8117d2c3dc69"},"vehicle_type_id":"4","last_reported":1760631216,"current_range_meters":0,"station_id":"st_d2m65c5bi1j21697t3ng","pricing_plan_id":"cebpf4jnsgd1na2vs0mg"},{"bike_id":"93d7d6dc-48ee-4900-937f-f69d98d7b472","system_id":"levelo_inurba_marseille","lat":43.30191,"lon":5.36621,"is_reserved":false,"is_disabled":true,"rental_uris":{"android":"levelo://app?vid=93d7d6dc-48ee-4900-937f-f69d98d7b472","ios":"levelo://app?vid=93d7d6dc-48ee-4900-937f-f69d98d7b472"},"vehicle_type_id":"4","last_reported":1760631216,"current_range_meters":400,"station_id":"ce4bgrh2rcd13ifvqc8g","pricing_plan_id":"cebpf4jnsgd1na2vs0mg"},{"bike_id":"964b118d-41da-48ff-a6df-3651a54d2ac0","system_id":"levelo_inurba_marseille","lat":43.33759,"lon":5.37465,"is_reserved":false,"is_disabled":true,"rental_uris":{"android":"levelo://app?vid=964b118d-41da-48ff-a6df-3651a54d2ac0","ios":"levelo://app?vid=964b118d-41da-48ff-a6df-3651a54d2ac0"},"vehicle_type_id":"4","last_reported":1760631216,"current_range_meters":800,"station_id":"","pricing_plan_id":"cebpf4jnsgd1na2vs0mg"},{"bike_id":"a7fb3284-76c4-4d88-a837-4b4fa94631a0","system_id":"levelo_inurba_marseille","lat":43.258639,"lon":5.398991,"is_reserved":false,"is_disabled":true,"rental_uris":{"android":"levelo://app?vid=a7fb3284-76c4-4d88-a837-4b4fa94631a0","ios":"levelo://app?vid=a7fb3284-76c4-4d88-a837-4b4fa94631a0"},"vehicle_type_id":"4","last_reported":1760631216,"current_range_meters":800,"station_id":"ce4bhl92rcd13ifvqghg","pricing_plan_id":"cebpf4jnsgd1na2vs0mg"},{"bike_id":"be64203e-6886-4c19-8157-e9fa4b2afc54","system_id":"levelo_inurba_marseille","lat":43.2795,"lon":5.41046,"is_reserved":false,"is_disabled":true,"rental_uris":{"android":"levelo://app?vid=be64203e-6886-4c19-8157-e9fa4b2afc54","ios":"levelo://app?vid=be64203e-6886-4c19-8157-e9fa4b2afc54"},"vehicle_type_id":"4","last_reported":1760631216,"current_range_meters":800,"station_id":"ce4bhnp2rcd13ifvqh0g","pricing_plan_id":"cebpf4jnsgd1na2vs0mg"},{"bike_id":"46aa589a-8fd2-4153-a5b6-a99691eda882","system_id":"levelo_inurba_marseille","lat":43.297552,"lon":5.427743,"is_reserved":false,"is_disabled":true,"rental_uris":{"android":"levelo://app?vid=46aa589a-8fd2-4153-a5b6-a99691eda882","ios":"levelo://app?vid=46aa589a-8fd2-4153-a5b6-a99691eda882"},"vehicle_type_id":"4","last_reported":1760631216,"current_range_meters":800,"station_id":"st_d3md5207bmas73dh9klg","pricing_plan_id":"cebpf4jnsgd1na2vs0mg"},{"bike_id":"6dfef8a8-d601-4831-b75e-6b17b099f65b","system_id":"levelo_inurba_marseille","lat":43.30637,"lon":5.40092,"is_reserved":false,"is_disabled":true,"rental_uris":{"android":"levelo://app?vid=6dfef8a8-d601-4831-b75e-6b17b099f65b","ios":"levelo://app?vid=6dfef8a8-d601-4831-b75e-6b17b099f65b"},"vehicle_type_id":"4","last_reported":1760631216,"current_range_meters":1200,"station_id":"ce4bh112rcd13ifvqda0","pricing_plan_id":"cebpf4jnsgd1na2vs0mg"},{"bike_id":"45c781bf-9054-42ff-acee-7da7ce5c16d9","system_id":"levelo_inurba_marseille","lat":43.29037,"lon":5.39975,"is_reserved":false,"is_disabled":true,"rental_uris":{"android":"levelo://app?vid=45c781bf-9054-42ff-acee-7da7ce5c16d9","ios":"levelo://app?vid=45c781bf-9054-42ff-acee-7da7ce5c16d9"},"vehicle_type_id":"4","last_reported":1760631216,"current_range_meters":1200,"station_id":"ce4bh392rcd13ifvqdm0","pricing_plan_id":"cebpf4jnsgd1na2vs0mg"},{"bike_id":"244e78b7-a45b-4e5a-86d7-cd46ea36b028","system_id":"levelo_inurba_marseille","lat":43.28666,"lon":5.36352,"is_reserved":false,"is_disabled":true,"rental_uris":{"android":"levelo://app?vid=244e78b7-a45b-4e5a-86d7-cd46ea36b028","ios":"levelo://app?vid=244e78b7-a45b-4e5a-86d7-cd46ea36b028"},"vehicle_type_id":"4","last_reported":1760631216,"current_range_meters":1200,"station_id":"ce4bhah2rcd13ifvqej0","pricing_plan_id":"cebpf4jnsgd1na2vs0mg"},{"bike_id":"8684abd5-1ada-4969-9f70-eecc5b739f1c","system_id":"levelo_inurba_marseille","lat":43.262238,"lon":5.40446,"is_reserved":false,"is_disabled":true,"rental_uris":{"android":"levelo://app?vid=8684abd5-1ada-4969-9f70-eecc5b739f1c","ios":"levelo://app?vid=8684abd5-1ada-4969-9f70-eecc5b739f1c"},"vehicle_type_id":"4","last_reported":1760631216,"current_range_meters":1200,"station_id":"ce4bhmh2rcd13ifvqgmg","pricing_plan_id":"cebpf4jnsgd1na2vs0mg"},{"bike_id":"dc2c8734-a132-40d9-9fc0-7fb2783334b2","system_id":"levelo_inurba_marseille","lat":43.296385,"lon":5.37787,"is_reserved":false,"is_disabled":true,"rental_uris":{"android":"levelo://app?vid=dc2c8734-a132-40d9-9fc0-7fb2783334b2","ios":"levelo://app?vid=dc2c8734-a132-40d9-9fc0-7fb2783334b2"},"vehicle_type_id":"4","last_reported":1760631216,"current_range_meters":1600,"station_id":"ce4bgkh2rcd13ifvqbl0","pricing_plan_id":"cebpf4jnsgd1na2vs0mg"},{"bike_id":"58c7dfcd-6d01-4c21-b881-98268f13e5fd","system_id":"levelo_inurba_marseille","lat":43.291977,"lon":5.3932,"is_reserved":false,"is_disabled":true,"rental_uris":{"android":"levelo://app?vid=58c7dfcd-6d01-4c21-b881-98268f13e5fd","ios":"levelo://app?vid=58c7dfcd-6d01-4c21-b881-98268f13e5fd"},"vehicle_type_id":"4","last_reported":1760631216,"current_range_meters":1600,"station_id":"ce4bh192rcd13ifvqdd0","pricing_plan_id":"cebpf4jnsgd1na2vs0mg"},{"bike_id":"9c548502-c6b2-4106-9d1d-ca219f038b11","system_id":"levelo_inurba_marseille","lat":43.28983,"lon":5.37827,"is_reserved":false,"is_disabled":true,"rental_uris":{"android":"levelo://app?vid=9c548502-c6b2-4106-9d1d-ca219f038b11","ios":"levelo://app?vid=9c548502-c6b2-4106-9d1d-ca219f038b11"},"vehicle_type_id":"4","last_reported":1760631216,"current_range_meters":1600,"station_id":"ce4bh9p2rcd13ifvqed0","pricing_plan_id":"cebpf4jnsgd1na2vs0mg"},{"bike_id":"afdf3c83-d6b6-4fa4-a4f2-b2a00686f8a6","system_id":"levelo_inurba_marseille","lat":43.270801,"lon":5.392249,"is_reserved":false,"is_disabled":true,"rental_uris":{"android":"levelo://app?vid=afdf3c83-d6b6-4fa4-a4f2-b2a00686f8a6","ios":"levelo://app?vid=afdf3c83-d6b6-4fa4-a4f2-b2a00686f8a6"},"vehicle_type_id":"4","last_reported":1760631216,"current_range_meters":1600,"station_id":"ce4bhhp2rcd13ifvqfm0","pricing_plan_id":"cebpf4jnsgd1na2vs0mg"},{"bike_id":"00df3675-2e61-4489-b141-b48ab02f9d19","system_id":"levelo_inurba_marseille","lat":43.258585,"lon":5.398987,"is_reserved":false,"is_disabled":true,"rental_uris":{"android":"levelo://app?vid=00df3675-2e61-4489-b141-b48ab02f9d19","ios":"levelo://app?vid=00df3675-2e61-4489-b141-b48ab02f9d19"},"vehicle_type_id":"4","last_reported":1760631216,"current_range_meters":1600,"station_id":"ce4bhl92rcd13ifvqghg","pricing_plan_id":"cebpf4jnsgd1na2vs0mg"},{"bike_id":"106a3360-9ad8-458d-a524-0008180d26d8","system_id":"levelo_inurba_marseille","lat":43.25088,"lon":5.39527,"is_reserved":false,"is_disabled":true,"rental_uris":{"android":"levelo://app?vid=106a3360-9ad8-458d-a524-0008180d26d8","ios":"levelo://app?vid=106a3360-9ad8-458d-a524-0008180d26d8"},"vehicle_type_id":"4","last_reported":1760631216,"current_range_meters":1600,"station_id":"ce4bhm12rcd13ifvqgkg","pricing_plan_id":"cebpf4jnsgd1na2vs0mg"},{"bike_id":"71111ccd-3931-4659-93e5-0a9611e14316","system_id":"levelo_inurba_marseille","lat":43.239895,"lon":5.377052,"is_reserved":false,"is_disabled":true,"rental_uris":{"android":"levelo://app?vid=71111ccd-3931-4659-93e5-0a9611e14316","ios":"levelo://app?vid=71111ccd-3931-4659-93e5-0a9611e14316"},"vehicle_type_id":"4","last_reported":1760631216,"current_range_meters":2000,"station_id":"","pricing_plan_id":"cebpf4jnsgd1na2vs0mg"},{"bike_id":"a90a9605-898d-4b48-898d-d83df78ff9fe","system_id":"levelo_inurba_marseille","lat":43.30173,"lon":5.36636,"is_reserved":false,"is_disabled":true,"rental_uris":{"android":"levelo://app?vid=a90a9605-898d-4b48-898d-d83df78ff9fe","ios":"levelo://app?vid=a90a9605-898d-4b48-898d-d83df78ff9fe"},"vehicle_type_id":"4","last_reported":1760631216,"current_range_meters":2000,"station_id":"ce4bgrh2rcd13ifvqc8g","pricing_plan_id":"cebpf4jnsgd1na2vs0mg"},{"bike_id":"367a9b5c-20ab-4f01-8df2-7d90f3dcd3ab","system_id":"levelo_inurba_marseille","lat":43.31483,"lon":5.37302,"is_reserved":false,"is_disabled":true,"rental_uris":{"android":"levelo://app?vid=367a9b5c-20ab-4f01-8df2-7d90f3dcd3ab","ios":"levelo://app?vid=367a9b5c-20ab-4f01-8df2-7d90f3dcd3ab"},"vehicle_type_id":"4","last_reported":1760631216,"current_range_meters":2000,"station_id":"ce4bgt12rcd13ifvqcd0","pricing_plan_id":"cebpf4jnsgd1na2vs0mg"},{"bike_id":"28e82081-02f1-4195-87bb-a7a70de16c5a","system_id":"levelo_inurba_marseille","lat":43.28361,"lon":5.38107,"is_reserved":false,"is_disabled":true,"rental_uris":{"android":"levelo://app?vid=28e82081-02f1-4195-87bb-a7a70de16c5a","ios":"levelo://app?vid=28e82081-02f1-4195-87bb-a7a70de16c5a"},"vehicle_type_id":"4","last_reported":1760631216,"current_range_meters":2000,"station_id":"ce4bh412rcd13ifvqdr0","pricing_plan_id":"cebpf4jnsgd1na2vs0mg"},{"bike_id":"bdaa2064-5fcf-4ffc-b00d-8ef058a7cd59","system_id":"levelo_inurba_marseille","lat":43.28099,"lon":5.37838,"is_reserved":false,"is_disabled":true,"rental_uris":{"android":"levelo://app?vid=bdaa2064-5fcf-4ffc-b00d-8ef058a7cd59","ios":"levelo://app?vid=bdaa2064-5fcf-4ffc-b00d-8ef058a7cd59"},"vehicle_type_id":"4","last_reported":1760631216,"current_range_meters":2000,"station_id":"ce4bha12rcd13ifvqee0","pricing_plan_id":"cebpf4jnsgd1na2vs0mg"},{"bike_id":"4b0f844c-ad54-4ff6-b09e-45f7b7dac94b","system_id":"levelo_inurba_marseille","lat":43.258594,"lon":5.398996,"is_reserved":false,"is_disabled":true,"rental_uris":{"android":"levelo://app?vid=4b0f844c-ad54-4ff6-b09e-45f7b7dac94b","ios":"levelo://app?vid=4b0f844c-ad54-4ff6-b09e-45f7b7dac94b"},"vehicle_type_id":"4","last_reported":1760631216,"current_range_meters":2000,"station_id":"ce4bhl92rcd13ifvqghg","pricing_plan_id":"cebpf4jnsgd1na2vs0mg"},{"bike_id":"9244320e-396d-4c10-98a6-00561b8986fb","system_id":"levelo_inurba_marseille","lat":43.28536,"lon":5.44097,"is_reserved":false,"is_disabled":true,"rental_uris":{"android":"levelo://app?vid=9244320e-396d-4c10-98a6-00561b8986fb","ios":"levelo://app?vid=9244320e-396d-4c10-98a6-00561b8986fb"},"vehicle_type_id":"4","last_reported":1760631216,"current_range_meters":2000,"station_id":"st_d3j3df2ikq2c7380ej80","pricing_plan_id":"cebpf4jnsgd1na2vs0mg"},{"bike_id":"76acc2e9-6dcf-44a8-b8c3-46b004e4856d","system_id":"levelo_inurba_marseille","lat":43.30188,"lon":5.36625,"is_reserved":false,"is_disabled":false,"rental_uris":{"android":"levelo://app?vid=76acc2e9-6dcf-44a8-b8c3-46b004e4856d","ios":"levelo://app?vid=76acc2e9-6dcf-44a8-b8c3-46b004e4856d"},"vehicle_type_id":"4","last_reported":1760631216,"current_range_meters":2800,"station_id":"ce4bgrh2rcd13ifvqc8g","pricing_plan_id":"cebpf4jnsgd1na2vs0mg"},{"bike_id":"9c4c942d-7222-46bb-8f1a-f2829d4d488b","system_id":"levelo_inurba_marseille","lat":43.3033,"lon":5.40438,"is_reserved":false,"is_disabled":false,"rental_uris":{"android":"levelo://app?vid=9c4c942d-7222-46bb-8f1a-f2829d4d488b","ios":"levelo://app?vid=9c4c942d-7222-46bb-8f1a-f2829d4d488b"},"vehicle_type_id":"4","last_reported":1760631216,"current_range_meters":2800,"station_id":"ce4bh012rcd13ifvqd10","pricing_plan_id":"cebpf4jnsgd1na2vs0mg"},{"bike_id":"908f1775-997e-4133-9f1f-6ee78b584362","system_id":"levelo_inurba_marseille","lat":43.28409,"lon":5.37516,"is_reserved":false,"is_disabled":false,"rental_uris":{"android":"levelo://app?vid=908f1775-997e-4133-9f1f-6ee78b584362","ios":"levelo://app?vid=908f1775-997e-4133-9f1f-6ee78b584362"},"vehicle_type_id":"4","last_reported":1760631216,"current_range_meters":2800,"station_id":"ce4bh412rcd13ifvqds0","pricing_plan_id":"cebpf4jnsgd1na2vs0mg"},{"bike_id":"9ee7c41a-7dd6-419a-b9b6-c0bde3769142","system_id":"levelo_inurba_marseille","lat":43.29031,"lon":5.38122,"is_reserved":false,"is_disabled":false,"rental_uris":{"android":"levelo://app?vid=9ee7c41a-7dd6-419a-b9b6-c0bde3769142","ios":"levelo://app?vid=9ee7c41a-7dd6-419a-b9b6-c0bde3769142"},"vehicle_type_id":"4","last_reported":1760631216,"current_range_meters":2800,"station_id":"ce4bh4p2rcd13ifvqe1g","pricing_plan_id":"cebpf4jnsgd1na2vs0mg"},{"bike_id":"ad6e36cf-c40f-4dac-8697-ed10ccdafc23","system_id":"levelo_inurba_marseille","lat":43.284048,"lon":5.349622,"is_reserved":false,"is_disabled":false,"rental_uris":{"android":"levelo://app?vid=ad6e36cf-c40f-4dac-8697-ed10ccdafc23","ios":"levelo://app?vid=ad6e36cf-c40f-4dac-8697-ed10ccdafc23"},"vehicle_type_id":"4","last_reported":1760631216,"current_range_meters":2800,"station_id":"ce4bhbh2rcd13ifvqepg","pricing_plan_id":"cebpf4jnsgd1na2vs0mg"},{"bike_id":"05744e6b-49fc-4a4f-8471-abcb1c8842a3","system_id":"levelo_inurba_marseille","lat":43.279907,"lon":5.412551,"is_reserved":false,"is_disabled":false,"rental_uris":{"android":"levelo://app?vid=05744e6b-49fc-4a4f-8471-abcb1c8842a3","ios":"levelo://app?vid=05744e6b-49fc-4a4f-8471-abcb1c8842a3"},"vehicle_type_id":"4","last_reported":1760631216,"current_range_meters":2800,"station_id":"ce4bhk92rcd13ifvqgc0","pricing_plan_id":"cebpf4jnsgd1na2vs0mg"},{"bike_id":"52d80316-85c6-48b4-98b3-7ba962e46b13","system_id":"levelo_inurba_marseille","lat":43.28717,"lon":5.39978,"is_reserved":false,"is_disabled":false,"rental_uris":{"android":"levelo://app?vid=52d80316-85c6-48b4-98b3-7ba962e46b13","ios":"levelo://app?vid=52d80316-85c6-48b4-98b3-7ba962e46b13"},"vehicle_type_id":"4","last_reported":1760631216,"current_range_meters":2800,"station_id":"ce4bho92rcd13ifvqh3g","pricing_plan_id":"cebpf4jnsgd1na2vs0mg"},{"bike_id":"ca412baa-bc68-4b00-b2e4-6ab6e19f3ba5","system_id":"levelo_inurba_marseille","lat":43.23195,"lon":5.35555,"is_reserved":false,"is_disabled":false,"rental_uris":{"android":"levelo://app?vid=ca412baa-bc68-4b00-b2e4-6ab6e19f3ba5","ios":"levelo://app?vid=ca412baa-bc68-4b00-b2e4-6ab6e19f3ba5"},"vehicle_type_id":"4","last_reported":1760631216,"current_range_meters":2800,"station_id":"ce4bhu92rcd13ifvqi70","pricing_plan_id":"cebpf4jnsgd1na2vs0mg"},{"bike_id":"b4052f7a-27b6-479b-bdb3-900e233c35a7","system_id":"levelo_inurba_marseille","lat":43.29576,"lon":5.3644,"is_reserved":false,"is_disabled":false,"rental_uris":{"android":"levelo://app?vid=b4052f7a-27b6-479b-bdb3-900e233c35a7","ios":"levelo://app?vid=b4052f7a-27b6-479b-bdb3-900e233c35a7"},"vehicle_type_id":"4","last_reported":1760631216,"current_range_meters":3200,"station_id":"","pricing_plan_id":"cebpf4jnsgd1na2vs0mg"},{"bike_id":"57d5e6c2-1de3-4773-bdb0-be8c0f7a880b","system_id":"levelo_inurba_marseille","lat":43.286713,"lon":5.386675,"is_reserved":false,"is_disabled":false,"rental_uris":{"android":"levelo://app?vid=57d5e6c2-1de3-4773-bdb0-be8c0f7a880b","ios":"levelo://app?vid=57d5e6c2-1de3-4773-bdb0-be8c0f7a880b"},"vehicle_type_id":"4","last_reported":1760631216,"current_range_meters":3200,"station_id":"","pricing_plan_id":"cebpf4jnsgd1na2vs0mg"},{"bike_id":"8b660a07-2f43-438a-a34d-12527680f168","system_id":"levelo_inurba_marseille","lat":43.29849,"lon":5.36245,"is_reserved":false,"is_disabled":false,"rental_uris":{"android":"levelo://app?vid=8b660a07-2f43-438a-a34d-12527680f168","ios":"levelo://app?vid=8b660a07-2f43-438a-a34d-12527680f168"},"vehicle_type_id":"4","last_reported":1760631216,"current_range_meters":3200,"station_id":"ce4bgpp2rcd13ifvqc3g","pricing_plan_id":"cebpf4jnsgd1na2vs0mg"},{"bike_id":"24d9c63e-e14e-475e-b808-608bafd3289f","system_id":"levelo_inurba_marseille","lat":43.22428,"lon":5.34657,"is_reserved":false,"is_disabled":false,"rental_uris":{"android":"levelo://app?vid=24d9c63e-e14e-475e-b808-608bafd3289f","ios":"levelo://app?vid=24d9c63e-e14e-475e-b808-608bafd3289f"},"vehicle_type_id":"4","last_reported":1760631216,"current_range_meters":3600,"station_id":"","pricing_plan_id":"cebpf4jnsgd1na2vs0mg"},{"bike_id":"eb9fdec9-99d7-422d-ba0b-35ee4d7c324b","system_id":"levelo_inurba_marseille","lat":43.22532,"lon":5.34848,"is_reserved":false,"is_disabled":false,"rental_uris":{"android":"levelo://app?vid=eb9fdec9-99d7-422d-ba0b-35ee4d7c324b","ios":"levelo://app?vid=eb9fdec9-99d7-422d-ba0b-35ee4d7c324b"},"vehicle_type_id":"4","last_reported":1760631216,"current_range_meters":3600,"station_id":"","pricing_plan_id":"cebpf4jnsgd1na2vs0mg"},{"bike_id":"a70ee15f-bd9c-4917-97f3-933f6a3e80d5","system_id":"levelo_inurba_marseille","lat":43.29484,"lon":5.3996,"is_reserved":false,"is_disabled":false,"rental_uris":{"android":"levelo://app?vid=a70ee15f-bd9c-4917-97f3-933f6a3e80d5","ios":"levelo://app?vid=a70ee15f-bd9c-4917-97f3-933f6a3e80d5"},"vehicle_type_id":"4","last_reported":1760631216,"current_range_meters":3600,"station_id":"","pricing_plan_id":"cebpf4jnsgd1na2vs0mg"},{"bike_id":"a6131377-e127-4322-a9ac-6a917f562fb7","system_id":"levelo_inurba_marseille","lat":43.27422,"lon":5.39417,"is_reserved":false,"is_disabled":false,"rental_uris":{"android":"levelo://app?vid=a6131377-e127-4322-a9ac-6a917f562fb7","ios":"levelo://app?vid=a6131377-e127-4322-a9ac-6a917f562fb7"},"vehicle_type_id":"4","last_reported":1760631216,"current_range_meters":3600,"station_id":"ce4bhdp2rcd13ifvqf20","pricing_plan_id":"cebpf4jnsgd1na2vs0mg"},{"bike_id":"a57eee71-12c4-41d8-9afd-78107a1f5020","system_id":"levelo_inurba_marseille","lat":43.255707,"lon":5.382344,"is_reserved":false,"is_disabled":false,"rental_uris":{"android":"levelo://app?vid=a57eee71-12c4-41d8-9afd-78107a1f5020","ios":"levelo://app?vid=a57eee71-12c4-41d8-9afd-78107a1f5020"},"vehicle_type_id":"4","last_reported":1760631216,"current_range_meters":3600,"station_id":"ce4bhih2rcd13ifvqfs0","pricing_plan_id":"cebpf4jnsgd1na2vs0mg"},{"bike_id":"5ebc09c0-7d21-4fd5-b65a-16dd75ece9f0","system_id":"levelo_inurba_marseille","lat":43.259339,"lon":5.409112,"is_reserved":false,"is_disabled":false,"rental_uris":{"android":"levelo://app?vid=5ebc09c0-7d21-4fd5-b65a-16dd75ece9f0","ios":"levelo://app?vid=5ebc09c0-7d21-4fd5-b65a-16dd75ece9f0"},"vehicle_type_id":"4","last_reported":1760631216,"current_range_meters":3600,"station_id":"ce4bhm92rcd13ifvqglg","pricing_plan_id":"cebpf4jnsgd1na2vs0mg"},{"bike_id":"bd9e5ceb-1137-4ead-b29c-458daaa877c6","system_id":"levelo_inurba_marseille","lat":43.291717,"lon":5.371567,"is_reserved":false,"is_disabled":false,"rental_uris":{"android":"levelo://app?vid=bd9e5ceb-1137-4ead-b29c-458daaa877c6","ios":"levelo://app?vid=bd9e5ceb-1137-4ead-b29c-458daaa877c6"},"vehicle_type_id":"4","last_reported":1760631216,"current_range_meters":4000,"station_id":"","pricing_plan_id":"cebpf4jnsgd1na2vs0mg"},{"bike_id":"5d798f50-f488-41af-8f68-df87db525a4c","system_id":"levelo_inurba_marseille","lat":43.21748,"lon":5.34596,"is_reserved":false,"is_disabled":false,"rental_uris":{"android":"levelo://app?vid=5d798f50-f488-41af-8f68-df87db525a4c","ios":"levelo://app?vid=5d798f50-f488-41af-8f68-df87db525a4c"},"vehicle_type_id":"4","last_reported":1760631216,"current_range_meters":4000,"station_id":"","pricing_plan_id":"cebpf4jnsgd1na2vs0mg"},{"bike_id":"3b31d0b1-7115-4559-b7c9-041b7c5fde0c","system_id":"levelo_inurba_marseille","lat":43.31321,"lon":5.397,"is_reserved":false,"is_disabled":false,"rental_uris":{"android":"levelo://app?vid=3b31d0b1-7115-4559-b7c9-041b7c5fde0c","ios":"levelo://app?vid=3b31d0b1-7115-4559-b7c9-041b7c5fde0c"},"vehicle_type_id":"4","last_reported":1760631216,"current_range_meters":4000,"station_id":"ce4bgvp2rcd13ifvqcu0","pricing_plan_id":"cebpf4jnsgd1na2vs0mg"},{"bike_id":"3eb06417-12f3-4081-9fb4-2521bd80cc52","system_id":"levelo_inurba_marseille","lat":43.29199,"lon":5.39319,"is_reserved":false,"is_disabled":false,"rental_uris":{"android":"levelo://app?vid=3eb06417-12f3-4081-9fb4-2521bd80cc52","ios":"levelo://app?vid=3eb06417-12f3-4081-9fb4-2521bd80cc52"},"vehicle_type_id":"4","last_reported":1760631216,"current_range_meters":4000,"station_id":"ce4bh192rcd13ifvqdd0","pricing_plan_id":"cebpf4jnsgd1na2vs0mg"},{"bike_id":"f98cc602-9543-42bd-acdf-64df31b1b224","system_id":"levelo_inurba_marseille","lat":43.28665,"lon":5.36353,"is_reserved":false,"is_disabled":false,"rental_uris":{"android":"levelo://app?vid=f98cc602-9543-42bd-acdf-64df31b1b224","ios":"levelo://app?vid=f98cc602-9543-42bd-acdf-64df31b1b224"},"vehicle_type_id":"4","last_reported":1760631216,"current_range_meters":4000,"station_id":"ce4bhah2rcd13ifvqej0","pricing_plan_id":"cebpf4jnsgd1na2vs0mg"},{"bike_id":"a554d935-f2e0-451c-bf4b-ba73c155a95d","system_id":"levelo_inurba_marseille","lat":43.28858,"lon":5.35855,"is_reserved":false,"is_disabled":false,"rental_uris":{"android":"levelo://app?vid=a554d935-f2e0-451c-bf4b-ba73c155a95d","ios":"levelo://app?vid=a554d935-f2e0-451c-bf4b-ba73c155a95d"},"vehicle_type_id":"4","last_reported":1760631216,"current_range_meters":4000,"station_id":"ce4bhb12rcd13ifvqem0","pricing_plan_id":"cebpf4jnsgd1na2vs0mg"},{"bike_id":"0c6ad568-f822-4a7f-b9c5-8cc230b1986d","system_id":"levelo_inurba_marseille","lat":43.27984,"lon":5.41658,"is_reserved":false,"is_disabled":false,"rental_uris":{"android":"levelo://app?vid=0c6ad568-f822-4a7f-b9c5-8cc230b1986d","ios":"levelo://app?vid=0c6ad568-f822-4a7f-b9c5-8cc230b1986d"},"vehicle_type_id":"4","last_reported":1760631216,"current_range_meters":4000,"station_id":"ce4bho12rcd13ifvqh1g","pricing_plan_id":"cebpf4jnsgd1na2vs0mg"},{"bike_id":"53ee53fc-855a-4952-b97a-39a6c2d5842e","system_id":"levelo_inurba_marseille","lat":43.33602,"lon":5.41025,"is_reserved":false,"is_disabled":false,"rental_uris":{"android":"levelo://app?vid=53ee53fc-855a-4952-b97a-39a6c2d5842e","ios":"levelo://app?vid=53ee53fc-855a-4952-b97a-39a6c2d5842e"},"vehicle_type_id":"4","last_reported":1760631216,"current_range_meters":4000,"station_id":"ce4bhqh2rcd13ifvqhmg","pricing_plan_id":"cebpf4jnsgd1na2vs0mg"},{"bike_id":"5d56a7cd-ef8b-44ff-8dbb-695ce2b4054d","system_id":"levelo_inurba_marseille","lat":43.32106,"lon":5.36782,"is_reserved":false,"is_disabled":false,"rental_uris":{"android":"levelo://app?vid=5d56a7cd-ef8b-44ff-8dbb-695ce2b4054d","ios":"levelo://app?vid=5d56a7cd-ef8b-44ff-8dbb-695ce2b4054d"},"vehicle_type_id":"4","last_reported":1760631216,"current_range_meters":4000,"station_id":"ce4bhrh2rcd13ifvqhug","pricing_plan_id":"cebpf4jnsgd1na2vs0mg"},{"bike_id":"db2cf3c7-2b86-46b8-b08c-497e645fbc02","system_id":"levelo_inurba_marseille","lat":43.27616,"lon":5.36129,"is_reserved":false,"is_disabled":false,"rental_uris":{"android":"levelo://app?vid=db2cf3c7-2b86-46b8-b08c-497e645fbc02","ios":"levelo://app?vid=db2cf3c7-2b86-46b8-b08c-497e645fbc02"},"vehicle_type_id":"4","last_reported":1760631216,"current_range_meters":4400,"station_id":"ce4bgj92rcd13ifvqbe0","pricing_plan_id":"cebpf4jnsgd1na2vs0mg"},{"bike_id":"15e9fac9-de95-4fc6-a438-a334268782bc","system_id":"levelo_inurba_marseille","lat":43.309005,"lon":5.371928,"is_reserved":false,"is_disabled":false,"rental_uris":{"android":"levelo://app?vid=15e9fac9-de95-4fc6-a438-a334268782bc","ios":"levelo://app?vid=15e9fac9-de95-4fc6-a438-a334268782bc"},"vehicle_type_id":"4","last_reported":1760631216,"current_range_meters":4400,"station_id":"ce4bguh2rcd13ifvqckg","pricing_plan_id":"cebpf4jnsgd1na2vs0mg"},{"bike_id":"c8838594-14a4-4650-a2a7-4fcfa5b3dd45","system_id":"levelo_inurba_marseille","lat":43.284079,"lon":5.349771,"is_reserved":false,"is_disabled":false,"rental_uris":{"android":"levelo://app?vid=c8838594-14a4-4650-a2a7-4fcfa5b3dd45","ios":"levelo://app?vid=c8838594-14a4-4650-a2a7-4fcfa5b3dd45"},"vehicle_type_id":"4","last_reported":1760631216,"current_range_meters":4400,"station_id":"ce4bhbh2rcd13ifvqepg","pricing_plan_id":"cebpf4jnsgd1na2vs0mg"},{"bike_id":"e9718d0f-19b1-4ede-935c-4aa3b0b40723","system_id":"levelo_inurba_marseille","lat":43.29021,"lon":5.38119,"is_reserved":false,"is_disabled":false,"rental_uris":{"android":"levelo://app?vid=e9718d0f-19b1-4ede-935c-4aa3b0b40723","ios":"levelo://app?vid=e9718d0f-19b1-4ede-935c-4aa3b0b40723"},"vehicle_type_id":"4","last_reported":1760631216,"current_range_meters":4800,"station_id":"ce4bh4p2rcd13ifvqe1g","pricing_plan_id":"cebpf4jnsgd1na2vs0mg"},{"bike_id":"6e85fcc2-6f55-4726-b349-8e5014e2aba7","system_id":"levelo_inurba_marseille","lat":43.28629,"lon":5.35085,"is_reserved":false,"is_disabled":false,"rental_uris":{"android":"levelo://app?vid=6e85fcc2-6f55-4726-b349-8e5014e2aba7","ios":"levelo://app?vid=6e85fcc2-6f55-4726-b349-8e5014e2aba7"},"vehicle_type_id":"4","last_reported":1760631216,"current_range_meters":4800,"station_id":"ce4bhch2rcd13ifvqeug","pricing_plan_id":"cebpf4jnsgd1na2vs0mg"},{"bike_id":"ba4557ed-490e-4e74-8c32-f9ff881570b3","system_id":"levelo_inurba_marseille","lat":43.23177,"lon":5.39987,"is_reserved":false,"is_disabled":false,"rental_uris":{"android":"levelo://app?vid=ba4557ed-490e-4e74-8c32-f9ff881570b3","ios":"levelo://app?vid=ba4557ed-490e-4e74-8c32-f9ff881570b3"},"vehicle_type_id":"4","last_reported":1760631216,"current_range_meters":4800,"station_id":"ce4bhn12rcd13ifvqgqg","pricing_plan_id":"cebpf4jnsgd1na2vs0mg"},{"bike_id":"859dcf5c-2d93-4226-9c1e-3b58130126c5","system_id":"levelo_inurba_marseille","lat":43.295148,"lon":5.361386,"is_reserved":false,"is_disabled":false,"rental_uris":{"android":"levelo://app?vid=859dcf5c-2d93-4226-9c1e-3b58130126c5","ios":"levelo://app?vid=859dcf5c-2d93-4226-9c1e-3b58130126c5"},"vehicle_type_id":"4","last_reported":1760631216,"current_range_meters":5600,"station_id":"","pricing_plan_id":"cebpf4jnsgd1na2vs0mg"},{"bike_id":"a943ca59-fdf6-4241-b380-88e06c67094e","system_id":"levelo_inurba_marseille","lat":43.27907,"lon":5.38016,"is_reserved":false,"is_disabled":false,"rental_uris":{"android":"levelo://app?vid=a943ca59-fdf6-4241-b380-88e06c67094e","ios":"levelo://app?vid=a943ca59-fdf6-4241-b380-88e06c67094e"},"vehicle_type_id":"4","last_reported":1760631216,"current_range_meters":5600,"station_id":"ce4bhf92rcd13ifvqf50","pricing_plan_id":"cebpf4jnsgd1na2vs0mg"},{"bike_id":"13c5c58a-8f2c-4630-9d9e-6238e70dc92c","system_id":"levelo_inurba_marseille","lat":43.231873,"lon":5.399891,"is_reserved":false,"is_disabled":false,"rental_uris":{"android":"levelo://app?vid=13c5c58a-8f2c-4630-9d9e-6238e70dc92c","ios":"levelo://app?vid=13c5c58a-8f2c-4630-9d9e-6238e70dc92c"},"vehicle_type_id":"4","last_reported":1760631216,"current_range_meters":5600,"station_id":"ce4bhn12rcd13ifvqgqg","pricing_plan_id":"cebpf4jnsgd1na2vs0mg"},{"bike_id":"26545edc-91b5-4eb9-98b7-e06eae770ff2","system_id":"levelo_inurba_marseille","lat":43.31732,"lon":5.43913,"is_reserved":false,"is_disabled":false,"rental_uris":{"android":"levelo://app?vid=26545edc-91b5-4eb9-98b7-e06eae770ff2","ios":"levelo://app?vid=26545edc-91b5-4eb9-98b7-e06eae770ff2"},"vehicle_type_id":"4","last_reported":1760631216,"current_range_meters":6000,"station_id":"","pricing_plan_id":"cebpf4jnsgd1na2vs0mg"},{"bike_id":"0e022a93-78f9-4a91-b1d6-73322f13bfdd","system_id":"levelo_inurba_marseille","lat":43.23966,"lon":5.36635,"is_reserved":false,"is_disabled":false,"rental_uris":{"android":"levelo://app?vid=0e022a93-78f9-4a91-b1d6-73322f13bfdd","ios":"levelo://app?vid=0e022a93-78f9-4a91-b1d6-73322f13bfdd"},"vehicle_type_id":"4","last_reported":1760631216,"current_range_meters":6000,"station_id":"ce4bhi12rcd13ifvqfp0","pricing_plan_id":"cebpf4jnsgd1na2vs0mg"},{"bike_id":"2796528a-b970-4efc-9925-eb0c02fe3620","system_id":"levelo_inurba_marseille","lat":43.28438,"lon":5.39191,"is_reserved":false,"is_disabled":false,"rental_uris":{"android":"levelo://app?vid=2796528a-b970-4efc-9925-eb0c02fe3620","ios":"levelo://app?vid=2796528a-b970-4efc-9925-eb0c02fe3620"},"vehicle_type_id":"4","last_reported":1760631216,"current_range_meters":6000,"station_id":"ce4bhoh2rcd13ifvqh5g","pricing_plan_id":"cebpf4jnsgd1na2vs0mg"},{"bike_id":"0c974c26-7abc-4f21-b9b1-5c2c4f7eb8c7","system_id":"levelo_inurba_marseille","lat":43.30309,"lon":5.39221,"is_reserved":false,"is_disabled":false,"rental_uris":{"android":"levelo://app?vid=0c974c26-7abc-4f21-b9b1-5c2c4f7eb8c7","ios":"levelo://app?vid=0c974c26-7abc-4f21-b9b1-5c2c4f7eb8c7"},"vehicle_type_id":"4","last_reported":1760631216,"current_range_meters":6400,"station_id":"ce4bgkh2rcd13ifvqbk0","pricing_plan_id":"cebpf4jnsgd1na2vs0mg"},{"bike_id":"62081a33-9fbd-4fe6-9ab9-48b53c5a8ea6","system_id":"levelo_inurba_marseille","lat":43.229354,"lon":5.353761,"is_reserved":false,"is_disabled":false,"rental_uris":{"android":"levelo://app?vid=62081a33-9fbd-4fe6-9ab9-48b53c5a8ea6","ios":"levelo://app?vid=62081a33-9fbd-4fe6-9ab9-48b53c5a8ea6"},"vehicle_type_id":"4","last_reported":1760631216,"current_range_meters":6400,"station_id":"cpo3532slgdg3j2ikp40","pricing_plan_id":"cebpf4jnsgd1na2vs0mg"},{"bike_id":"d1535785-517b-41ee-8ee0-1e9b8477afef","system_id":"levelo_inurba_marseille","lat":43.337444,"lon":5.374475,"is_reserved":false,"is_disabled":false,"rental_uris":{"android":"levelo://app?vid=d1535785-517b-41ee-8ee0-1e9b8477afef","ios":"levelo://app?vid=d1535785-517b-41ee-8ee0-1e9b8477afef"},"vehicle_type_id":"4","last_reported":1760631216,"current_range_meters":6800,"station_id":"","pricing_plan_id":"cebpf4jnsgd1na2vs0mg"},{"bike_id":"3cb5b848-2b77-445f-9436-55a5a252e776","system_id":"levelo_inurba_marseille","lat":43.3005,"lon":5.37701,"is_reserved":false,"is_disabled":false,"rental_uris":{"android":"levelo://app?vid=3cb5b848-2b77-445f-9436-55a5a252e776","ios":"levelo://app?vid=3cb5b848-2b77-445f-9436-55a5a252e776"},"vehicle_type_id":"4","last_reported":1760631216,"current_range_meters":6800,"station_id":"","pricing_plan_id":"cebpf4jnsgd1na2vs0mg"},{"bike_id":"f4446fcb-8e31-443a-b978-3a32bb192da6","system_id":"levelo_inurba_marseille","lat":43.283826,"lon":5.394538,"is_reserved":false,"is_disabled":false,"rental_uris":{"android":"levelo://app?vid=f4446fcb-8e31-443a-b978-3a32bb192da6","ios":"levelo://app?vid=f4446fcb-8e31-443a-b978-3a32bb192da6"},"vehicle_type_id":"4","last_reported":1760631216,"current_range_meters":6800,"station_id":"ce4bgh92rcd13ifvqb50","pricing_plan_id":"cebpf4jnsgd1na2vs0mg"},{"bike_id":"ece8f745-3493-49a4-b536-5781d50131e1","system_id":"levelo_inurba_marseille","lat":43.30596,"lon":5.39358,"is_reserved":false,"is_disabled":false,"rental_uris":{"android":"levelo://app?vid=ece8f745-3493-49a4-b536-5781d50131e1","ios":"levelo://app?vid=ece8f745-3493-49a4-b536-5781d50131e1"},"vehicle_type_id":"4","last_reported":1760631216,"current_range_meters":6800,"station_id":"ce4bh0p2rcd13ifvqd80","pricing_plan_id":"cebpf4jnsgd1na2vs0mg"},{"bike_id":"59661d49-ec89-4a3e-b593-49e170b56a6a","system_id":"levelo_inurba_marseille","lat":43.30648,"lon":5.40089,"is_reserved":false,"is_disabled":false,"rental_uris":{"android":"levelo://app?vid=59661d49-ec89-4a3e-b593-49e170b56a6a","ios":"levelo://app?vid=59661d49-ec89-4a3e-b593-49e170b56a6a"},"vehicle_type_id":"4","last_reported":1760631216,"current_range_meters":6800,"station_id":"ce4bh112rcd13ifvqda0","pricing_plan_id":"cebpf4jnsgd1na2vs0mg"},{"bike_id":"9f26b9c8-afa7-412f-b387-6d44c4835c33","system_id":"levelo_inurba_marseille","lat":43.32366,"lon":5.38881,"is_reserved":false,"is_disabled":false,"rental_uris":{"android":"levelo://app?vid=9f26b9c8-afa7-412f-b387-6d44c4835c33","ios":"levelo://app?vid=9f26b9c8-afa7-412f-b387-6d44c4835c33"},"vehicle_type_id":"4","last_reported":1760631216,"current_range_meters":6800,"station_id":"ce4bhqp2rcd13ifvqhog","pricing_plan_id":"cebpf4jnsgd1na2vs0mg"},{"bike_id":"dcbcd12e-c710-4679-98e0-3014d6339d28","system_id":"levelo_inurba_marseille","lat":43.26809,"lon":5.40269,"is_reserved":false,"is_disabled":false,"rental_uris":{"android":"levelo://app?vid=dcbcd12e-c710-4679-98e0-3014d6339d28","ios":"levelo://app?vid=dcbcd12e-c710-4679-98e0-3014d6339d28"},"vehicle_type_id":"4","last_reported":1760631216,"current_range_meters":6800,"station_id":"ce501612rcd8frsf0b60","pricing_plan_id":"cebpf4jnsgd1na2vs0mg"},{"bike_id":"d8e9b8f7-08e2-4408-ba5a-bf3e71307936","system_id":"levelo_inurba_marseille","lat":43.21186,"lon":5.35097,"is_reserved":false,"is_disabled":false,"rental_uris":{"android":"levelo://app?vid=d8e9b8f7-08e2-4408-ba5a-bf3e71307936","ios":"levelo://app?vid=d8e9b8f7-08e2-4408-ba5a-bf3e71307936"},"vehicle_type_id":"4","last_reported":1760631216,"current_range_meters":6800,"station_id":"st_cvj6sg6p6f1abm77japg","pricing_plan_id":"cebpf4jnsgd1na2vs0mg"},{"bike_id":"56e8f168-0239-4dab-a231-9caf80fb776c","system_id":"levelo_inurba_marseille","lat":43.292676,"lon":5.376168,"is_reserved":false,"is_disabled":false,"rental_uris":{"android":"levelo://app?vid=56e8f168-0239-4dab-a231-9caf80fb776c","ios":"levelo://app?vid=56e8f168-0239-4dab-a231-9caf80fb776c"},"vehicle_type_id":"4","last_reported":1760631216,"current_range_meters":7200,"station_id":"","pricing_plan_id":"cebpf4jnsgd1na2vs0mg"},{"bike_id":"e0863f88-6065-41da-9ecd-468f1156f9d8","system_id":"levelo_inurba_marseille","lat":43.27335,"lon":5.41408,"is_reserved":false,"is_disabled":false,"rental_uris":{"android":"levelo://app?vid=e0863f88-6065-41da-9ecd-468f1156f9d8","ios":"levelo://app?vid=e0863f88-6065-41da-9ecd-468f1156f9d8"},"vehicle_type_id":"4","last_reported":1760631216,"current_range_meters":7200,"station_id":"","pricing_plan_id":"cebpf4jnsgd1na2vs0mg"},{"bike_id":"f26d01ee-6f0e-415b-a813-f6851d8866dc","system_id":"levelo_inurba_marseille","lat":43.301213,"lon":5.398596,"is_reserved":false,"is_disabled":false,"rental_uris":{"android":"levelo://app?vid=f26d01ee-6f0e-415b-a813-f6851d8866dc","ios":"levelo://app?vid=f26d01ee-6f0e-415b-a813-f6851d8866dc"},"vehicle_type_id":"4","last_reported":1760631216,"current_range_meters":7200,"station_id":"","pricing_plan_id":"cebpf4jnsgd1na2vs0mg"},{"bike_id":"f8cd4285-3460-43a1-9588-a15dc2f4ede0","system_id":"levelo_inurba_marseille","lat":43.303237,"lon":5.404418,"is_reserved":false,"is_disabled":false,"rental_uris":{"android":"levelo://app?vid=f8cd4285-3460-43a1-9588-a15dc2f4ede0","ios":"levelo://app?vid=f8cd4285-3460-43a1-9588-a15dc2f4ede0"},"vehicle_type_id":"4","last_reported":1760631216,"current_range_meters":7200,"station_id":"ce4bh012rcd13ifvqd10","pricing_plan_id":"cebpf4jnsgd1na2vs0mg"},{"bike_id":"3eb08a6b-b0d9-4394-b4a6-f308464f7859","system_id":"levelo_inurba_marseille","lat":43.29249,"lon":5.38446,"is_reserved":false,"is_disabled":false,"rental_uris":{"android":"levelo://app?vid=3eb08a6b-b0d9-4394-b4a6-f308464f7859","ios":"levelo://app?vid=3eb08a6b-b0d9-4394-b4a6-f308464f7859"},"vehicle_type_id":"4","last_reported":1760631216,"current_range_meters":7200,"station_id":"ce4bh692rcd13ifvqea0","pricing_plan_id":"cebpf4jnsgd1na2vs0mg"},{"bike_id":"a354442b-b0e6-4e78-94fd-0781c2bc10f5","system_id":"levelo_inurba_marseille","lat":43.28855,"lon":5.3585,"is_reserved":false,"is_disabled":false,"rental_uris":{"android":"levelo://app?vid=a354442b-b0e6-4e78-94fd-0781c2bc10f5","ios":"levelo://app?vid=a354442b-b0e6-4e78-94fd-0781c2bc10f5"},"vehicle_type_id":"4","last_reported":1760631216,"current_range_meters":7200,"station_id":"ce4bhb12rcd13ifvqem0","pricing_plan_id":"cebpf4jnsgd1na2vs0mg"},{"bike_id":"0be1bd7b-c6f9-4d29-a629-b6fc03938910","system_id":"levelo_inurba_marseille","lat":43.28262,"lon":5.3506,"is_reserved":false,"is_disabled":false,"rental_uris":{"android":"levelo://app?vid=0be1bd7b-c6f9-4d29-a629-b6fc03938910","ios":"levelo://app?vid=0be1bd7b-c6f9-4d29-a629-b6fc03938910"},"vehicle_type_id":"4","last_reported":1760631216,"current_range_meters":7200,"station_id":"ce4bhbp2rcd13ifvqerg","pricing_plan_id":"cebpf4jnsgd1na2vs0mg"},{"bike_id":"d4ba86d8-b343-4681-9c22-26f844125dd1","system_id":"levelo_inurba_marseille","lat":43.24651,"lon":5.38886,"is_reserved":false,"is_disabled":false,"rental_uris":{"android":"levelo://app?vid=d4ba86d8-b343-4681-9c22-26f844125dd1","ios":"levelo://app?vid=d4ba86d8-b343-4681-9c22-26f844125dd1"},"vehicle_type_id":"4","last_reported":1760631216,"current_range_meters":7200,"station_id":"ce4bhg12rcd13ifvqf60","pricing_plan_id":"cebpf4jnsgd1na2vs0mg"},{"bike_id":"7e444206-20cf-47e2-a819-82c6ab3d59a7","system_id":"levelo_inurba_marseille","lat":43.34138,"lon":5.409,"is_reserved":false,"is_disabled":false,"rental_uris":{"android":"levelo://app?vid=7e444206-20cf-47e2-a819-82c6ab3d59a7","ios":"levelo://app?vid=7e444206-20cf-47e2-a819-82c6ab3d59a7"},"vehicle_type_id":"4","last_reported":1760631216,"current_range_meters":7200,"station_id":"ce4bhqh2rcd13ifvqhlg","pricing_plan_id":"cebpf4jnsgd1na2vs0mg"},{"bike_id":"435007e7-00e7-449b-9401-1502a72a756a","system_id":"levelo_inurba_marseille","lat":43.23499,"lon":5.36022,"is_reserved":false,"is_disabled":false,"rental_uris":{"android":"levelo://app?vid=435007e7-00e7-449b-9401-1502a72a756a","ios":"levelo://app?vid=435007e7-00e7-449b-9401-1502a72a756a"},"vehicle_type_id":"4","last_reported":1760631216,"current_range_meters":8000,"station_id":"","pricing_plan_id":"cebpf4jnsgd1na2vs0mg"},{"bike_id":"1250a0f6-2720-4e05-b7c5-be68cacac9ac","system_id":"levelo_inurba_marseille","lat":43.282243,"lon":5.390387,"is_reserved":false,"is_disabled":false,"rental_uris":{"android":"levelo://app?vid=1250a0f6-2720-4e05-b7c5-be68cacac9ac","ios":"levelo://app?vid=1250a0f6-2720-4e05-b7c5-be68cacac9ac"},"vehicle_type_id":"4","last_reported":1760631216,"current_range_meters":8000,"station_id":"","pricing_plan_id":"cebpf4jnsgd1na2vs0mg"},{"bike_id":"edf1826d-4c94-41f7-b41b-9e4934e632f6","system_id":"levelo_inurba_marseille","lat":43.25213,"lon":5.37923,"is_reserved":false,"is_disabled":false,"rental_uris":{"android":"levelo://app?vid=edf1826d-4c94-41f7-b41b-9e4934e632f6","ios":"levelo://app?vid=edf1826d-4c94-41f7-b41b-9e4934e632f6"},"vehicle_type_id":"4","last_reported":1760631216,"current_range_meters":8000,"station_id":"","pricing_plan_id":"cebpf4jnsgd1na2vs0mg"},{"bike_id":"b0e3fac0-2cba-43db-8a27-05393f9977ec","system_id":"levelo_inurba_marseille","lat":43.297242,"lon":5.373265,"is_reserved":false,"is_disabled":false,"rental_uris":{"android":"levelo://app?vid=b0e3fac0-2cba-43db-8a27-05393f9977ec","ios":"levelo://app?vid=b0e3fac0-2cba-43db-8a27-05393f9977ec"},"vehicle_type_id":"4","last_reported":1760631216,"current_range_meters":8000,"station_id":"","pricing_plan_id":"cebpf4jnsgd1na2vs0mg"},{"bike_id":"f0622547-115c-4aab-a330-c8c9f80dea9e","system_id":"levelo_inurba_marseille","lat":43.2831,"lon":5.34732,"is_reserved":false,"is_disabled":false,"rental_uris":{"android":"levelo://app?vid=f0622547-115c-4aab-a330-c8c9f80dea9e","ios":"levelo://app?vid=f0622547-115c-4aab-a330-c8c9f80dea9e"},"vehicle_type_id":"4","last_reported":1760631216,"current_range_meters":8000,"station_id":"","pricing_plan_id":"cebpf4jnsgd1na2vs0mg"},{"bike_id":"20983010-be61-4fb8-9b7c-75c58362840e","system_id":"levelo_inurba_marseille","lat":43.30196,"lon":5.36632,"is_reserved":false,"is_disabled":false,"rental_uris":{"android":"levelo://app?vid=20983010-be61-4fb8-9b7c-75c58362840e","ios":"levelo://app?vid=20983010-be61-4fb8-9b7c-75c58362840e"},"vehicle_type_id":"4","last_reported":1760631216,"current_range_meters":8000,"station_id":"ce4bgrh2rcd13ifvqc8g","pricing_plan_id":"cebpf4jnsgd1na2vs0mg"},{"bike_id":"ab8dbe06-49f3-423b-99b1-2274be7ed343","system_id":"levelo_inurba_marseille","lat":43.3019,"lon":5.36619,"is_reserved":false,"is_disabled":false,"rental_uris":{"android":"levelo://app?vid=ab8dbe06-49f3-423b-99b1-2274be7ed343","ios":"levelo://app?vid=ab8dbe06-49f3-423b-99b1-2274be7ed343"},"vehicle_type_id":"4","last_reported":1760631216,"current_range_meters":8000,"station_id":"ce4bgrh2rcd13ifvqc8g","pricing_plan_id":"cebpf4jnsgd1na2vs0mg"},{"bike_id":"c54aedae-f507-43a7-a30f-29b5e6c8ecd6","system_id":"levelo_inurba_marseille","lat":43.29099,"lon":5.38152,"is_reserved":false,"is_disabled":false,"rental_uris":{"android":"levelo://app?vid=c54aedae-f507-43a7-a30f-29b5e6c8ecd6","ios":"levelo://app?vid=c54aedae-f507-43a7-a30f-29b5e6c8ecd6"},"vehicle_type_id":"4","last_reported":1760631216,"current_range_meters":8000,"station_id":"ce4bh512rcd13ifvqe2g","pricing_plan_id":"cebpf4jnsgd1na2vs0mg"},{"bike_id":"709ab368-2906-4e8e-b266-33bfa5616629","system_id":"levelo_inurba_marseille","lat":43.32289,"lon":5.3826,"is_reserved":false,"is_disabled":false,"rental_uris":{"android":"levelo://app?vid=709ab368-2906-4e8e-b266-33bfa5616629","ios":"levelo://app?vid=709ab368-2906-4e8e-b266-33bfa5616629"},"vehicle_type_id":"4","last_reported":1760631216,"current_range_meters":8000,"station_id":"ce4bhr12rcd13ifvqhqg","pricing_plan_id":"cebpf4jnsgd1na2vs0mg"},{"bike_id":"afd3a141-6f64-4928-ba91-fca21b7af038","system_id":"levelo_inurba_marseille","lat":43.29582,"lon":5.36422,"is_reserved":false,"is_disabled":false,"rental_uris":{"android":"levelo://app?vid=afd3a141-6f64-4928-ba91-fca21b7af038","ios":"levelo://app?vid=afd3a141-6f64-4928-ba91-fca21b7af038"},"vehicle_type_id":"4","last_reported":1760631216,"current_range_meters":8400,"station_id":"","pricing_plan_id":"cebpf4jnsgd1na2vs0mg"},{"bike_id":"7b443ab5-137c-4427-bd7a-dbb071df625a","system_id":"levelo_inurba_marseille","lat":43.29971,"lon":5.38513,"is_reserved":false,"is_disabled":false,"rental_uris":{"android":"levelo://app?vid=7b443ab5-137c-4427-bd7a-dbb071df625a","ios":"levelo://app?vid=7b443ab5-137c-4427-bd7a-dbb071df625a"},"vehicle_type_id":"4","last_reported":1760631216,"current_range_meters":8400,"station_id":"ce4bgj92rcd13ifvqbd0","pricing_plan_id":"cebpf4jnsgd1na2vs0mg"},{"bike_id":"0007f642-3f1e-4361-97ec-4616fbeb36c9","system_id":"levelo_inurba_marseille","lat":43.298679,"lon":5.397361,"is_reserved":false,"is_disabled":false,"rental_uris":{"android":"levelo://app?vid=0007f642-3f1e-4361-97ec-4616fbeb36c9","ios":"levelo://app?vid=0007f642-3f1e-4361-97ec-4616fbeb36c9"},"vehicle_type_id":"4","last_reported":1760631216,"current_range_meters":8400,"station_id":"ce4bh0h2rcd13ifvqd50","pricing_plan_id":"cebpf4jnsgd1na2vs0mg"},{"bike_id":"e2b45ebc-a0b4-4b5e-bda8-303afe61a84a","system_id":"levelo_inurba_marseille","lat":43.246595,"lon":5.381622,"is_reserved":false,"is_disabled":false,"rental_uris":{"android":"levelo://app?vid=e2b45ebc-a0b4-4b5e-bda8-303afe61a84a","ios":"levelo://app?vid=e2b45ebc-a0b4-4b5e-bda8-303afe61a84a"},"vehicle_type_id":"4","last_reported":1760631216,"current_range_meters":8400,"station_id":"ce4bhih2rcd13ifvqfr0","pricing_plan_id":"cebpf4jnsgd1na2vs0mg"},{"bike_id":"6d02532e-4cb4-4048-bfac-6338972aaf99","system_id":"levelo_inurba_marseille","lat":43.34315,"lon":5.35007,"is_reserved":false,"is_disabled":false,"rental_uris":{"android":"levelo://app?vid=6d02532e-4cb4-4048-bfac-6338972aaf99","ios":"levelo://app?vid=6d02532e-4cb4-4048-bfac-6338972aaf99"},"vehicle_type_id":"4","last_reported":1760631216,"current_range_meters":8800,"station_id":"","pricing_plan_id":"cebpf4jnsgd1na2vs0mg"},{"bike_id":"888532e3-8dff-4083-96c9-cb159c428b8b","system_id":"levelo_inurba_marseille","lat":43.2928,"lon":5.38046,"is_reserved":false,"is_disabled":false,"rental_uris":{"android":"levelo://app?vid=888532e3-8dff-4083-96c9-cb159c428b8b","ios":"levelo://app?vid=888532e3-8dff-4083-96c9-cb159c428b8b"},"vehicle_type_id":"4","last_reported":1760631216,"current_range_meters":8800,"station_id":"","pricing_plan_id":"cebpf4jnsgd1na2vs0mg"},{"bike_id":"661eea50-f9d7-42ce-8a65-73894c61902a","system_id":"levelo_inurba_marseille","lat":43.30195,"lon":5.36636,"is_reserved":false,"is_disabled":false,"rental_uris":{"android":"levelo://app?vid=661eea50-f9d7-42ce-8a65-73894c61902a","ios":"levelo://app?vid=661eea50-f9d7-42ce-8a65-73894c61902a"},"vehicle_type_id":"4","last_reported":1760631216,"current_range_meters":8800,"station_id":"","pricing_plan_id":"cebpf4jnsgd1na2vs0mg"},{"bike_id":"b3410386-4ee8-47e6-8d2a-b02720b0c0c9","system_id":"levelo_inurba_marseille","lat":43.28473,"lon":5.37907,"is_reserved":false,"is_disabled":false,"rental_uris":{"android":"levelo://app?vid=b3410386-4ee8-47e6-8d2a-b02720b0c0c9","ios":"levelo://app?vid=b3410386-4ee8-47e6-8d2a-b02720b0c0c9"},"vehicle_type_id":"4","last_reported":1760631216,"current_range_meters":8800,"station_id":"","pricing_plan_id":"cebpf4jnsgd1na2vs0mg"},{"bike_id":"c4e7b4f0-9a08-494a-99cd-b9faf1fbb6ab","system_id":"levelo_inurba_marseille","lat":43.243838,"lon":5.370512,"is_reserved":false,"is_disabled":false,"rental_uris":{"android":"levelo://app?vid=c4e7b4f0-9a08-494a-99cd-b9faf1fbb6ab","ios":"levelo://app?vid=c4e7b4f0-9a08-494a-99cd-b9faf1fbb6ab"},"vehicle_type_id":"4","last_reported":1760631216,"current_range_meters":8800,"station_id":"st_d3j3df2ikq2c7380ej80","pricing_plan_id":"cebpf4jnsgd1na2vs0mg"},{"bike_id":"f14eba92-8c35-42e9-9513-ae9398fde16e","system_id":"levelo_inurba_marseille","lat":43.23781,"lon":5.36635,"is_reserved":false,"is_disabled":false,"rental_uris":{"android":"levelo://app?vid=f14eba92-8c35-42e9-9513-ae9398fde16e","ios":"levelo://app?vid=f14eba92-8c35-42e9-9513-ae9398fde16e"},"vehicle_type_id":"4","last_reported":1760631216,"current_range_meters":8800,"station_id":"st_d3nk18o9ro0c73en2l3g","pricing_plan_id":"cebpf4jnsgd1na2vs0mg"},{"bike_id":"d1fca3be-e86d-45c1-8919-3a99ad43ca5a","system_id":"levelo_inurba_marseille","lat":43.30641,"lon":5.40101,"is_reserved":false,"is_disabled":false,"rental_uris":{"android":"levelo://app?vid=d1fca3be-e86d-45c1-8919-3a99ad43ca5a","ios":"levelo://app?vid=d1fca3be-e86d-45c1-8919-3a99ad43ca5a"},"vehicle_type_id":"4","last_reported":1760631216,"current_range_meters":9200,"station_id":"ce4bh112rcd13ifvqda0","pricing_plan_id":"cebpf4jnsgd1na2vs0mg"},{"bike_id":"1dc3768d-0b4e-4859-817c-5a4ee299d7ad","system_id":"levelo_inurba_marseille","lat":43.297289,"lon":5.378756,"is_reserved":false,"is_disabled":false,"rental_uris":{"android":"levelo://app?vid=1dc3768d-0b4e-4859-817c-5a4ee299d7ad","ios":"levelo://app?vid=1dc3768d-0b4e-4859-817c-5a4ee299d7ad"},"vehicle_type_id":"4","last_reported":1760631216,"current_range_meters":9600,"station_id":"","pricing_plan_id":"cebpf4jnsgd1na2vs0mg"},{"bike_id":"ec0e6da2-3499-49e1-aabb-3414c87149de","system_id":"levelo_inurba_marseille","lat":43.28929,"lon":5.36647,"is_reserved":false,"is_disabled":false,"rental_uris":{"android":"levelo://app?vid=ec0e6da2-3499-49e1-aabb-3414c87149de","ios":"levelo://app?vid=ec0e6da2-3499-49e1-aabb-3414c87149de"},"vehicle_type_id":"4","last_reported":1760631216,"current_range_meters":9600,"station_id":"ce4bhap2rcd13ifvqek0","pricing_plan_id":"cebpf4jnsgd1na2vs0mg"},{"bike_id":"d36aad05-df41-4fbc-959a-1a460a05a767","system_id":"levelo_inurba_marseille","lat":43.2549,"lon":5.37652,"is_reserved":false,"is_disabled":false,"rental_uris":{"android":"levelo://app?vid=d36aad05-df41-4fbc-959a-1a460a05a767","ios":"levelo://app?vid=d36aad05-df41-4fbc-959a-1a460a05a767"},"vehicle_type_id":"4","last_reported":1760631216,"current_range_meters":10000,"station_id":"","pricing_plan_id":"cebpf4jnsgd1na2vs0mg"},{"bike_id":"a3cb4bd9-3634-4eb3-803c-69ae7465a7d5","system_id":"levelo_inurba_marseille","lat":43.30542,"lon":5.38225,"is_reserved":false,"is_disabled":false,"rental_uris":{"android":"levelo://app?vid=a3cb4bd9-3634-4eb3-803c-69ae7465a7d5","ios":"levelo://app?vid=a3cb4bd9-3634-4eb3-803c-69ae7465a7d5"},"vehicle_type_id":"4","last_reported":1760631216,"current_range_meters":10000,"station_id":"","pricing_plan_id":"cebpf4jnsgd1na2vs0mg"},{"bike_id":"7a63795d-d6ae-4db3-866d-c16b2af002f1","system_id":"levelo_inurba_marseille","lat":43.29933,"lon":5.3752,"is_reserved":false,"is_disabled":false,"rental_uris":{"android":"levelo://app?vid=7a63795d-d6ae-4db3-866d-c16b2af002f1","ios":"levelo://app?vid=7a63795d-d6ae-4db3-866d-c16b2af002f1"},"vehicle_type_id":"4","last_reported":1760631216,"current_range_meters":10000,"station_id":"ce4bgjh2rcd13ifvqbg0","pricing_plan_id":"cebpf4jnsgd1na2vs0mg"},{"bike_id":"0f7703de-39b1-473f-b181-41e51c70c5a7","system_id":"levelo_inurba_marseille","lat":43.3015,"lon":5.39906,"is_reserved":false,"is_disabled":false,"rental_uris":{"android":"levelo://app?vid=0f7703de-39b1-473f-b181-41e51c70c5a7","ios":"levelo://app?vid=0f7703de-39b1-473f-b181-41e51c70c5a7"},"vehicle_type_id":"4","last_reported":1760631216,"current_range_meters":10000,"station_id":"ce4bh0h2rcd13ifvqd40","pricing_plan_id":"cebpf4jnsgd1na2vs0mg"},{"bike_id":"69498116-c619-4c18-bdcc-044f697eb141","system_id":"levelo_inurba_marseille","lat":43.288836,"lon":5.38212,"is_reserved":false,"is_disabled":false,"rental_uris":{"android":"levelo://app?vid=69498116-c619-4c18-bdcc-044f697eb141","ios":"levelo://app?vid=69498116-c619-4c18-bdcc-044f697eb141"},"vehicle_type_id":"4","last_reported":1760631216,"current_range_meters":10800,"station_id":"","pricing_plan_id":"cebpf4jnsgd1na2vs0mg"},{"bike_id":"cf4d6234-dbc2-435b-84ee-0f47206d4974","system_id":"levelo_inurba_marseille","lat":43.2945,"lon":5.39741,"is_reserved":false,"is_disabled":false,"rental_uris":{"android":"levelo://app?vid=cf4d6234-dbc2-435b-84ee-0f47206d4974","ios":"levelo://app?vid=cf4d6234-dbc2-435b-84ee-0f47206d4974"},"vehicle_type_id":"4","last_reported":1760631216,"current_range_meters":10800,"station_id":"ce4bh3h2rcd13ifvqdo0","pricing_plan_id":"cebpf4jnsgd1na2vs0mg"},{"bike_id":"d68b41be-366f-40d7-a414-434cfe0517a5","system_id":"levelo_inurba_marseille","lat":43.31771,"lon":5.42253,"is_reserved":false,"is_disabled":false,"rental_uris":{"android":"levelo://app?vid=d68b41be-366f-40d7-a414-434cfe0517a5","ios":"levelo://app?vid=d68b41be-366f-40d7-a414-434cfe0517a5"},"vehicle_type_id":"4","last_reported":1760631216,"current_range_meters":11200,"station_id":"","pricing_plan_id":"cebpf4jnsgd1na2vs0mg"},{"bike_id":"c871ca87-9ea0-4c82-8f96-1d74fe568265","system_id":"levelo_inurba_marseille","lat":43.28562,"lon":5.41489,"is_reserved":false,"is_disabled":false,"rental_uris":{"android":"levelo://app?vid=c871ca87-9ea0-4c82-8f96-1d74fe568265","ios":"levelo://app?vid=c871ca87-9ea0-4c82-8f96-1d74fe568265"},"vehicle_type_id":"4","last_reported":1760631216,"current_range_meters":11200,"station_id":"","pricing_plan_id":"cebpf4jnsgd1na2vs0mg"},{"bike_id":"e7a0de45-e44b-47bf-aa95-71faaf613e41","system_id":"levelo_inurba_marseille","lat":43.301943,"lon":5.366217,"is_reserved":false,"is_disabled":false,"rental_uris":{"android":"levelo://app?vid=e7a0de45-e44b-47bf-aa95-71faaf613e41","ios":"levelo://app?vid=e7a0de45-e44b-47bf-aa95-71faaf613e41"},"vehicle_type_id":"4","last_reported":1760631216,"current_range_meters":11200,"station_id":"ce4bgrh2rcd13ifvqc8g","pricing_plan_id":"cebpf4jnsgd1na2vs0mg"},{"bike_id":"0d576203-fb26-4a3d-a822-3c4689a131ae","system_id":"levelo_inurba_marseille","lat":43.28618,"lon":5.35109,"is_reserved":false,"is_disabled":false,"rental_uris":{"android":"levelo://app?vid=0d576203-fb26-4a3d-a822-3c4689a131ae","ios":"levelo://app?vid=0d576203-fb26-4a3d-a822-3c4689a131ae"},"vehicle_type_id":"4","last_reported":1760631216,"current_range_meters":11600,"station_id":"ce4bhch2rcd13ifvqeug","pricing_plan_id":"cebpf4jnsgd1na2vs0mg"},{"bike_id":"f846f329-5896-44d6-83fe-c8b97f1e4c27","system_id":"levelo_inurba_marseille","lat":43.32986,"lon":5.39114,"is_reserved":false,"is_disabled":false,"rental_uris":{"android":"levelo://app?vid=f846f329-5896-44d6-83fe-c8b97f1e4c27","ios":"levelo://app?vid=f846f329-5896-44d6-83fe-c8b97f1e4c27"},"vehicle_type_id":"4","last_reported":1760631216,"current_range_meters":12000,"station_id":"","pricing_plan_id":"cebpf4jnsgd1na2vs0mg"},{"bike_id":"26e9fe13-1337-46ce-bd52-4c05ca6682de","system_id":"levelo_inurba_marseille","lat":43.29621,"lon":5.40594,"is_reserved":false,"is_disabled":false,"rental_uris":{"android":"levelo://app?vid=26e9fe13-1337-46ce-bd52-4c05ca6682de","ios":"levelo://app?vid=26e9fe13-1337-46ce-bd52-4c05ca6682de"},"vehicle_type_id":"4","last_reported":1760631216,"current_range_meters":12000,"station_id":"ce4bh0h2rcd13ifvqd60","pricing_plan_id":"cebpf4jnsgd1na2vs0mg"},{"bike_id":"6a2a376a-00e6-4b40-8775-ed55d86d0127","system_id":"levelo_inurba_marseille","lat":43.2717,"lon":5.40995,"is_reserved":false,"is_disabled":false,"rental_uris":{"android":"levelo://app?vid=6a2a376a-00e6-4b40-8775-ed55d86d0127","ios":"levelo://app?vid=6a2a376a-00e6-4b40-8775-ed55d86d0127"},"vehicle_type_id":"4","last_reported":1760631216,"current_range_meters":12000,"station_id":"ce4bhl12rcd13ifvqgf0","pricing_plan_id":"cebpf4jnsgd1na2vs0mg"},{"bike_id":"6918a742-e604-4ec9-b942-8bff044a719e","system_id":"levelo_inurba_marseille","lat":43.32341,"lon":5.36737,"is_reserved":false,"is_disabled":false,"rental_uris":{"android":"levelo://app?vid=6918a742-e604-4ec9-b942-8bff044a719e","ios":"levelo://app?vid=6918a742-e604-4ec9-b942-8bff044a719e"},"vehicle_type_id":"4","last_reported":1760631216,"current_range_meters":12000,"station_id":"ce4bhsh2rcd13ifvqi2g","pricing_plan_id":"cebpf4jnsgd1na2vs0mg"},{"bike_id":"a0297234-a774-4de7-8bd6-439c8614f3de","system_id":"levelo_inurba_marseille","lat":43.2842,"lon":5.34987,"is_reserved":false,"is_disabled":false,"rental_uris":{"android":"levelo://app?vid=a0297234-a774-4de7-8bd6-439c8614f3de","ios":"levelo://app?vid=a0297234-a774-4de7-8bd6-439c8614f3de"},"vehicle_type_id":"4","last_reported":1760631216,"current_range_meters":12400,"station_id":"ce4bhbh2rcd13ifvqepg","pricing_plan_id":"cebpf4jnsgd1na2vs0mg"},{"bike_id":"002f24a0-14de-4963-b3b1-b9a19a8920d6","system_id":"levelo_inurba_marseille","lat":43.28612,"lon":5.35107,"is_reserved":false,"is_disabled":false,"rental_uris":{"android":"levelo://app?vid=002f24a0-14de-4963-b3b1-b9a19a8920d6","ios":"levelo://app?vid=002f24a0-14de-4963-b3b1-b9a19a8920d6"},"vehicle_type_id":"4","last_reported":1760631216,"current_range_meters":12400,"station_id":"ce4bhch2rcd13ifvqeug","pricing_plan_id":"cebpf4jnsgd1na2vs0mg"},{"bike_id":"6dadc5c6-61ac-48c9-b5e9-17768e7cd162","system_id":"levelo_inurba_marseille","lat":43.32356,"lon":5.36759,"is_reserved":false,"is_disabled":false,"rental_uris":{"android":"levelo://app?vid=6dadc5c6-61ac-48c9-b5e9-17768e7cd162","ios":"levelo://app?vid=6dadc5c6-61ac-48c9-b5e9-17768e7cd162"},"vehicle_type_id":"4","last_reported":1760631216,"current_range_meters":12400,"station_id":"ce4bhsh2rcd13ifvqi2g","pricing_plan_id":"cebpf4jnsgd1na2vs0mg"},{"bike_id":"b953b5b3-bbaf-44b0-80a6-4c91b38c25dc","system_id":"levelo_inurba_marseille","lat":43.23185,"lon":5.35544,"is_reserved":false,"is_disabled":false,"rental_uris":{"android":"levelo://app?vid=b953b5b3-bbaf-44b0-80a6-4c91b38c25dc","ios":"levelo://app?vid=b953b5b3-bbaf-44b0-80a6-4c91b38c25dc"},"vehicle_type_id":"4","last_reported":1760631216,"current_range_meters":12400,"station_id":"ce4bhu92rcd13ifvqi70","pricing_plan_id":"cebpf4jnsgd1na2vs0mg"},{"bike_id":"342bbd7f-b89e-49c5-9d2b-3dc340ae6c2a","system_id":"levelo_inurba_marseille","lat":43.2119,"lon":5.35075,"is_reserved":false,"is_disabled":false,"rental_uris":{"android":"levelo://app?vid=342bbd7f-b89e-49c5-9d2b-3dc340ae6c2a","ios":"levelo://app?vid=342bbd7f-b89e-49c5-9d2b-3dc340ae6c2a"},"vehicle_type_id":"4","last_reported":1760631216,"current_range_meters":12400,"station_id":"st_cvj6sg6p6f1abm77japg","pricing_plan_id":"cebpf4jnsgd1na2vs0mg"},{"bike_id":"121f55c8-5a85-4142-a96c-bf52eb873442","system_id":"levelo_inurba_marseille","lat":43.30463,"lon":5.36909,"is_reserved":false,"is_disabled":false,"rental_uris":{"android":"levelo://app?vid=121f55c8-5a85-4142-a96c-bf52eb873442","ios":"levelo://app?vid=121f55c8-5a85-4142-a96c-bf52eb873442"},"vehicle_type_id":"4","last_reported":1760631216,"current_range_meters":12800,"station_id":"","pricing_plan_id":"cebpf4jnsgd1na2vs0mg"},{"bike_id":"0670def4-b15a-4c00-8829-0cd906a61bcb","system_id":"levelo_inurba_marseille","lat":43.337629,"lon":5.374314,"is_reserved":false,"is_disabled":false,"rental_uris":{"android":"levelo://app?vid=0670def4-b15a-4c00-8829-0cd906a61bcb","ios":"levelo://app?vid=0670def4-b15a-4c00-8829-0cd906a61bcb"},"vehicle_type_id":"4","last_reported":1760631216,"current_range_meters":12800,"station_id":"","pricing_plan_id":"cebpf4jnsgd1na2vs0mg"},{"bike_id":"21c3a9fe-adfc-4375-8283-33ee1b7e74f0","system_id":"levelo_inurba_marseille","lat":43.31331,"lon":5.36756,"is_reserved":false,"is_disabled":false,"rental_uris":{"android":"levelo://app?vid=21c3a9fe-adfc-4375-8283-33ee1b7e74f0","ios":"levelo://app?vid=21c3a9fe-adfc-4375-8283-33ee1b7e74f0"},"vehicle_type_id":"4","last_reported":1760631216,"current_range_meters":12800,"station_id":"ce4bgr92rcd13ifvqc6g","pricing_plan_id":"cebpf4jnsgd1na2vs0mg"},{"bike_id":"705c593f-abe0-4f08-b758-a363112007ff","system_id":"levelo_inurba_marseille","lat":43.23774,"lon":5.36626,"is_reserved":false,"is_disabled":false,"rental_uris":{"android":"levelo://app?vid=705c593f-abe0-4f08-b758-a363112007ff","ios":"levelo://app?vid=705c593f-abe0-4f08-b758-a363112007ff"},"vehicle_type_id":"4","last_reported":1760631216,"current_range_meters":12800,"station_id":"st_d3nk18o9ro0c73en2l3g","pricing_plan_id":"cebpf4jnsgd1na2vs0mg"},{"bike_id":"e257a5c9-b99e-4af1-ac4f-b017f1c8b418","system_id":"levelo_inurba_marseille","lat":43.33759,"lon":5.37438,"is_reserved":false,"is_disabled":false,"rental_uris":{"android":"levelo://app?vid=e257a5c9-b99e-4af1-ac4f-b017f1c8b418","ios":"levelo://app?vid=e257a5c9-b99e-4af1-ac4f-b017f1c8b418"},"vehicle_type_id":"4","last_reported":1760631216,"current_range_meters":13600,"station_id":"","pricing_plan_id":"cebpf4jnsgd1na2vs0mg"},{"bike_id":"2935fa5a-befe-4d3d-aa8a-64f80dc3a048","system_id":"levelo_inurba_marseille","lat":43.274511,"lon":5.407335,"is_reserved":false,"is_disabled":false,"rental_uris":{"android":"levelo://app?vid=2935fa5a-befe-4d3d-aa8a-64f80dc3a048","ios":"levelo://app?vid=2935fa5a-befe-4d3d-aa8a-64f80dc3a048"},"vehicle_type_id":"4","last_reported":1760631216,"current_range_meters":13600,"station_id":"","pricing_plan_id":"cebpf4jnsgd1na2vs0mg"},{"bike_id":"413249a3-b8fb-42b8-8425-5a388ee36fc5","system_id":"levelo_inurba_marseille","lat":43.297066,"lon":5.366117,"is_reserved":false,"is_disabled":false,"rental_uris":{"android":"levelo://app?vid=413249a3-b8fb-42b8-8425-5a388ee36fc5","ios":"levelo://app?vid=413249a3-b8fb-42b8-8425-5a388ee36fc5"},"vehicle_type_id":"4","last_reported":1760631216,"current_range_meters":13600,"station_id":"ce4bgn12rcd13ifvqbt0","pricing_plan_id":"cebpf4jnsgd1na2vs0mg"},{"bike_id":"a616fc79-5431-4eb8-9096-b28a158dbf23","system_id":"levelo_inurba_marseille","lat":43.31725,"lon":5.42393,"is_reserved":false,"is_disabled":false,"rental_uris":{"android":"levelo://app?vid=a616fc79-5431-4eb8-9096-b28a158dbf23","ios":"levelo://app?vid=a616fc79-5431-4eb8-9096-b28a158dbf23"},"vehicle_type_id":"4","last_reported":1760631216,"current_range_meters":13600,"station_id":"ce4bhp92rcd13ifvqhbg","pricing_plan_id":"cebpf4jnsgd1na2vs0mg"},{"bike_id":"2a5498ee-d604-476f-a7c3-7260eebaa7f3","system_id":"levelo_inurba_marseille","lat":43.29571,"lon":5.37426,"is_reserved":false,"is_disabled":false,"rental_uris":{"android":"levelo://app?vid=2a5498ee-d604-476f-a7c3-7260eebaa7f3","ios":"levelo://app?vid=2a5498ee-d604-476f-a7c3-7260eebaa7f3"},"vehicle_type_id":"4","last_reported":1760631216,"current_range_meters":14000,"station_id":"","pricing_plan_id":"cebpf4jnsgd1na2vs0mg"},{"bike_id":"9949c5d5-d906-4d08-818e-13250e7121e9","system_id":"levelo_inurba_marseille","lat":43.30193,"lon":5.36639,"is_reserved":false,"is_disabled":false,"rental_uris":{"android":"levelo://app?vid=9949c5d5-d906-4d08-818e-13250e7121e9","ios":"levelo://app?vid=9949c5d5-d906-4d08-818e-13250e7121e9"},"vehicle_type_id":"4","last_reported":1760631216,"current_range_meters":14000,"station_id":"ce4bgrh2rcd13ifvqc8g","pricing_plan_id":"cebpf4jnsgd1na2vs0mg"},{"bike_id":"4acf636e-11dc-40e4-8080-8bff166591d5","system_id":"levelo_inurba_marseille","lat":43.28848,"lon":5.35854,"is_reserved":false,"is_disabled":false,"rental_uris":{"android":"levelo://app?vid=4acf636e-11dc-40e4-8080-8bff166591d5","ios":"levelo://app?vid=4acf636e-11dc-40e4-8080-8bff166591d5"},"vehicle_type_id":"4","last_reported":1760631216,"current_range_meters":14000,"station_id":"ce4bhb12rcd13ifvqem0","pricing_plan_id":"cebpf4jnsgd1na2vs0mg"},{"bike_id":"24d82d64-1145-442f-a9f5-19238b0b39ef","system_id":"levelo_inurba_marseille","lat":43.272133,"lon":5.391866,"is_reserved":false,"is_disabled":false,"rental_uris":{"android":"levelo://app?vid=24d82d64-1145-442f-a9f5-19238b0b39ef","ios":"levelo://app?vid=24d82d64-1145-442f-a9f5-19238b0b39ef"},"vehicle_type_id":"4","last_reported":1760631216,"current_range_meters":14400,"station_id":"","pricing_plan_id":"cebpf4jnsgd1na2vs0mg"},{"bike_id":"a0fa6a15-33a5-4f10-8813-4ec5749963df","system_id":"levelo_inurba_marseille","lat":43.2842,"lon":5.34999,"is_reserved":false,"is_disabled":false,"rental_uris":{"android":"levelo://app?vid=a0fa6a15-33a5-4f10-8813-4ec5749963df","ios":"levelo://app?vid=a0fa6a15-33a5-4f10-8813-4ec5749963df"},"vehicle_type_id":"4","last_reported":1760631216,"current_range_meters":14400,"station_id":"ce4bhbh2rcd13ifvqepg","pricing_plan_id":"cebpf4jnsgd1na2vs0mg"},{"bike_id":"1aac2db6-65e7-49f0-9ce2-cba3f51e90d4","system_id":"levelo_inurba_marseille","lat":43.24804,"lon":5.37459,"is_reserved":false,"is_disabled":false,"rental_uris":{"android":"levelo://app?vid=1aac2db6-65e7-49f0-9ce2-cba3f51e90d4","ios":"levelo://app?vid=1aac2db6-65e7-49f0-9ce2-cba3f51e90d4"},"vehicle_type_id":"4","last_reported":1760631216,"current_range_meters":14400,"station_id":"ce4bhgh2rcd13ifvqfb0","pricing_plan_id":"cebpf4jnsgd1na2vs0mg"},{"bike_id":"48946e5c-cd06-4321-a7c9-59ec17ec0b64","system_id":"levelo_inurba_marseille","lat":43.24169,"lon":5.36397,"is_reserved":false,"is_disabled":false,"rental_uris":{"android":"levelo://app?vid=48946e5c-cd06-4321-a7c9-59ec17ec0b64","ios":"levelo://app?vid=48946e5c-cd06-4321-a7c9-59ec17ec0b64"},"vehicle_type_id":"4","last_reported":1760631216,"current_range_meters":14400,"station_id":"cpo36qri1sfpv3e86is0","pricing_plan_id":"cebpf4jnsgd1na2vs0mg"},{"bike_id":"75a4ab96-01bf-4cea-a0bc-959c02c4b2be","system_id":"levelo_inurba_marseille","lat":43.2894,"lon":5.39623,"is_reserved":false,"is_disabled":false,"rental_uris":{"android":"levelo://app?vid=75a4ab96-01bf-4cea-a0bc-959c02c4b2be","ios":"levelo://app?vid=75a4ab96-01bf-4cea-a0bc-959c02c4b2be"},"vehicle_type_id":"4","last_reported":1760631216,"current_range_meters":14800,"station_id":"ce4bh3h2rcd13ifvqdn0","pricing_plan_id":"cebpf4jnsgd1na2vs0mg"},{"bike_id":"dc9dbdb8-895d-4f69-86d6-1b7f8f4a9cae","system_id":"levelo_inurba_marseille","lat":43.284678,"lon":5.358796,"is_reserved":false,"is_disabled":false,"rental_uris":{"android":"levelo://app?vid=dc9dbdb8-895d-4f69-86d6-1b7f8f4a9cae","ios":"levelo://app?vid=dc9dbdb8-895d-4f69-86d6-1b7f8f4a9cae"},"vehicle_type_id":"4","last_reported":1760631216,"current_range_meters":14800,"station_id":"ce4bhah2rcd13ifvqei0","pricing_plan_id":"cebpf4jnsgd1na2vs0mg"},{"bike_id":"fed26a79-a6b3-4866-96fd-f9f42b029bc1","system_id":"levelo_inurba_marseille","lat":43.28419,"lon":5.34978,"is_reserved":false,"is_disabled":false,"rental_uris":{"android":"levelo://app?vid=fed26a79-a6b3-4866-96fd-f9f42b029bc1","ios":"levelo://app?vid=fed26a79-a6b3-4866-96fd-f9f42b029bc1"},"vehicle_type_id":"4","last_reported":1760631216,"current_range_meters":14800,"station_id":"ce4bhbh2rcd13ifvqepg","pricing_plan_id":"cebpf4jnsgd1na2vs0mg"},{"bike_id":"9e8d83a7-2cc2-4529-aff6-be354ee209bc","system_id":"levelo_inurba_marseille","lat":43.22558,"lon":5.41627,"is_reserved":false,"is_disabled":false,"rental_uris":{"android":"levelo://app?vid=9e8d83a7-2cc2-4529-aff6-be354ee209bc","ios":"levelo://app?vid=9e8d83a7-2cc2-4529-aff6-be354ee209bc"},"vehicle_type_id":"4","last_reported":1760631216,"current_range_meters":14800,"station_id":"st_d2o4gvlbi1j2169b742g","pricing_plan_id":"cebpf4jnsgd1na2vs0mg"},{"bike_id":"cf1328ab-cc5f-46a7-9a05-c94e82e3c60f","system_id":"levelo_inurba_marseille","lat":43.299493,"lon":5.397529,"is_reserved":false,"is_disabled":false,"rental_uris":{"android":"levelo://app?vid=cf1328ab-cc5f-46a7-9a05-c94e82e3c60f","ios":"levelo://app?vid=cf1328ab-cc5f-46a7-9a05-c94e82e3c60f"},"vehicle_type_id":"4","last_reported":1760631216,"current_range_meters":15200,"station_id":"ce4bh0h2rcd13ifvqd40","pricing_plan_id":"cebpf4jnsgd1na2vs0mg"},{"bike_id":"043aa0b6-ac2e-4906-b658-8ad811f2730a","system_id":"levelo_inurba_marseille","lat":43.24413,"lon":5.37024,"is_reserved":false,"is_disabled":false,"rental_uris":{"android":"levelo://app?vid=043aa0b6-ac2e-4906-b658-8ad811f2730a","ios":"levelo://app?vid=043aa0b6-ac2e-4906-b658-8ad811f2730a"},"vehicle_type_id":"4","last_reported":1760631216,"current_range_meters":15200,"station_id":"ce4bhhh2rcd13ifvqfk0","pricing_plan_id":"cebpf4jnsgd1na2vs0mg"},{"bike_id":"416f580b-31c7-4ade-8604-dbd86eb8155f","system_id":"levelo_inurba_marseille","lat":43.28157,"lon":5.42125,"is_reserved":false,"is_disabled":false,"rental_uris":{"android":"levelo://app?vid=416f580b-31c7-4ade-8604-dbd86eb8155f","ios":"levelo://app?vid=416f580b-31c7-4ade-8604-dbd86eb8155f"},"vehicle_type_id":"4","last_reported":1760631216,"current_range_meters":16000,"station_id":"","pricing_plan_id":"cebpf4jnsgd1na2vs0mg"},{"bike_id":"5fe6e873-dba1-40dd-bc65-77de126f2710","system_id":"levelo_inurba_marseille","lat":43.332893,"lon":5.395256,"is_reserved":false,"is_disabled":false,"rental_uris":{"android":"levelo://app?vid=5fe6e873-dba1-40dd-bc65-77de126f2710","ios":"levelo://app?vid=5fe6e873-dba1-40dd-bc65-77de126f2710"},"vehicle_type_id":"4","last_reported":1760631216,"current_range_meters":16000,"station_id":"","pricing_plan_id":"cebpf4jnsgd1na2vs0mg"},{"bike_id":"fa178e80-b17e-4c77-b9c1-abc82df0db97","system_id":"levelo_inurba_marseille","lat":43.30604,"lon":5.37434,"is_reserved":false,"is_disabled":false,"rental_uris":{"android":"levelo://app?vid=fa178e80-b17e-4c77-b9c1-abc82df0db97","ios":"levelo://app?vid=fa178e80-b17e-4c77-b9c1-abc82df0db97"},"vehicle_type_id":"4","last_reported":1760631216,"current_range_meters":16000,"station_id":"","pricing_plan_id":"cebpf4jnsgd1na2vs0mg"},{"bike_id":"9c817a9a-9d73-4e9a-9254-89207637ef21","system_id":"levelo_inurba_marseille","lat":43.288544,"lon":5.35845,"is_reserved":false,"is_disabled":false,"rental_uris":{"android":"levelo://app?vid=9c817a9a-9d73-4e9a-9254-89207637ef21","ios":"levelo://app?vid=9c817a9a-9d73-4e9a-9254-89207637ef21"},"vehicle_type_id":"4","last_reported":1760631216,"current_range_meters":16000,"station_id":"ce4bhb12rcd13ifvqem0","pricing_plan_id":"cebpf4jnsgd1na2vs0mg"},{"bike_id":"e120c44b-91da-49e1-a9f7-7eca6d95f2d4","system_id":"levelo_inurba_marseille","lat":43.28635,"lon":5.35079,"is_reserved":false,"is_disabled":false,"rental_uris":{"android":"levelo://app?vid=e120c44b-91da-49e1-a9f7-7eca6d95f2d4","ios":"levelo://app?vid=e120c44b-91da-49e1-a9f7-7eca6d95f2d4"},"vehicle_type_id":"4","last_reported":1760631216,"current_range_meters":16000,"station_id":"ce4bhch2rcd13ifvqeug","pricing_plan_id":"cebpf4jnsgd1na2vs0mg"},{"bike_id":"19c4b376-4a33-457b-806f-be31273b18b7","system_id":"levelo_inurba_marseille","lat":43.23197,"lon":5.35575,"is_reserved":false,"is_disabled":false,"rental_uris":{"android":"levelo://app?vid=19c4b376-4a33-457b-806f-be31273b18b7","ios":"levelo://app?vid=19c4b376-4a33-457b-806f-be31273b18b7"},"vehicle_type_id":"4","last_reported":1760631216,"current_range_meters":16000,"station_id":"ce4bhu92rcd13ifvqi70","pricing_plan_id":"cebpf4jnsgd1na2vs0mg"},{"bike_id":"abf9d7a3-49a0-48eb-a058-febe698c230a","system_id":"levelo_inurba_marseille","lat":43.25336,"lon":5.42173,"is_reserved":false,"is_disabled":false,"rental_uris":{"android":"levelo://app?vid=abf9d7a3-49a0-48eb-a058-febe698c230a","ios":"levelo://app?vid=abf9d7a3-49a0-48eb-a058-febe698c230a"},"vehicle_type_id":"4","last_reported":1760631216,"current_range_meters":16000,"station_id":"st_d2m65c5bi1j21697t3ng","pricing_plan_id":"cebpf4jnsgd1na2vs0mg"},{"bike_id":"09dc49b8-357e-474d-bacc-1c3cff385f08","system_id":"levelo_inurba_marseille","lat":43.286072,"lon":5.350981,"is_reserved":false,"is_disabled":false,"rental_uris":{"android":"levelo://app?vid=09dc49b8-357e-474d-bacc-1c3cff385f08","ios":"levelo://app?vid=09dc49b8-357e-474d-bacc-1c3cff385f08"},"vehicle_type_id":"4","last_reported":1760631216,"current_range_meters":16400,"station_id":"ce4bhch2rcd13ifvqeug","pricing_plan_id":"cebpf4jnsgd1na2vs0mg"},{"bike_id":"6cb5c723-2898-4fea-adda-8a47290b9d79","system_id":"levelo_inurba_marseille","lat":43.24809,"lon":5.37455,"is_reserved":false,"is_disabled":false,"rental_uris":{"android":"levelo://app?vid=6cb5c723-2898-4fea-adda-8a47290b9d79","ios":"levelo://app?vid=6cb5c723-2898-4fea-adda-8a47290b9d79"},"vehicle_type_id":"4","last_reported":1760631216,"current_range_meters":16400,"station_id":"ce4bhgh2rcd13ifvqfb0","pricing_plan_id":"cebpf4jnsgd1na2vs0mg"},{"bike_id":"519246aa-b8bc-4ce9-85d9-c763bfb28e58","system_id":"levelo_inurba_marseille","lat":43.240044,"lon":5.366233,"is_reserved":false,"is_disabled":false,"rental_uris":{"android":"levelo://app?vid=519246aa-b8bc-4ce9-85d9-c763bfb28e58","ios":"levelo://app?vid=519246aa-b8bc-4ce9-85d9-c763bfb28e58"},"vehicle_type_id":"4","last_reported":1760631216,"current_range_meters":16400,"station_id":"ce4bhi12rcd13ifvqfp0","pricing_plan_id":"cebpf4jnsgd1na2vs0mg"},{"bike_id":"f6fd5406-9f55-4abd-98cc-c7543c7dd5b5","system_id":"levelo_inurba_marseille","lat":43.32371,"lon":5.36742,"is_reserved":false,"is_disabled":false,"rental_uris":{"android":"levelo://app?vid=f6fd5406-9f55-4abd-98cc-c7543c7dd5b5","ios":"levelo://app?vid=f6fd5406-9f55-4abd-98cc-c7543c7dd5b5"},"vehicle_type_id":"4","last_reported":1760631216,"current_range_meters":16400,"station_id":"ce4bhsh2rcd13ifvqi2g","pricing_plan_id":"cebpf4jnsgd1na2vs0mg"},{"bike_id":"f06db638-fadf-4368-acfa-9095dc9f01f5","system_id":"levelo_inurba_marseille","lat":43.243845,"lon":5.37055,"is_reserved":false,"is_disabled":false,"rental_uris":{"android":"levelo://app?vid=f06db638-fadf-4368-acfa-9095dc9f01f5","ios":"levelo://app?vid=f06db638-fadf-4368-acfa-9095dc9f01f5"},"vehicle_type_id":"4","last_reported":1760631216,"current_range_meters":16800,"station_id":"","pricing_plan_id":"cebpf4jnsgd1na2vs0mg"},{"bike_id":"f569441f-df4e-4fd3-9f0e-793032e01cbf","system_id":"levelo_inurba_marseille","lat":43.29528,"lon":5.38549,"is_reserved":false,"is_disabled":false,"rental_uris":{"android":"levelo://app?vid=f569441f-df4e-4fd3-9f0e-793032e01cbf","ios":"levelo://app?vid=f569441f-df4e-4fd3-9f0e-793032e01cbf"},"vehicle_type_id":"4","last_reported":1760631216,"current_range_meters":16800,"station_id":"ce4bgih2rcd13ifvqba0","pricing_plan_id":"cebpf4jnsgd1na2vs0mg"},{"bike_id":"c8cd39fa-b2aa-477f-81f8-9206264c5500","system_id":"levelo_inurba_marseille","lat":43.29519,"lon":5.3855,"is_reserved":false,"is_disabled":false,"rental_uris":{"android":"levelo://app?vid=c8cd39fa-b2aa-477f-81f8-9206264c5500","ios":"levelo://app?vid=c8cd39fa-b2aa-477f-81f8-9206264c5500"},"vehicle_type_id":"4","last_reported":1760631216,"current_range_meters":16800,"station_id":"ce4bgih2rcd13ifvqba0","pricing_plan_id":"cebpf4jnsgd1na2vs0mg"},{"bike_id":"c70e4d0f-2903-491b-b417-8e41f771e6cb","system_id":"levelo_inurba_marseille","lat":43.28276,"lon":5.35078,"is_reserved":false,"is_disabled":false,"rental_uris":{"android":"levelo://app?vid=c70e4d0f-2903-491b-b417-8e41f771e6cb","ios":"levelo://app?vid=c70e4d0f-2903-491b-b417-8e41f771e6cb"},"vehicle_type_id":"4","last_reported":1760631216,"current_range_meters":16800,"station_id":"ce4bhbp2rcd13ifvqerg","pricing_plan_id":"cebpf4jnsgd1na2vs0mg"},{"bike_id":"1edf471e-e342-4f40-aaf5-482ecd03e513","system_id":"levelo_inurba_marseille","lat":43.28135,"lon":5.42648,"is_reserved":false,"is_disabled":false,"rental_uris":{"android":"levelo://app?vid=1edf471e-e342-4f40-aaf5-482ecd03e513","ios":"levelo://app?vid=1edf471e-e342-4f40-aaf5-482ecd03e513"},"vehicle_type_id":"4","last_reported":1760631216,"current_range_meters":16800,"station_id":"ce4bhnh2rcd13ifvqgug","pricing_plan_id":"cebpf4jnsgd1na2vs0mg"},{"bike_id":"ce8cb95b-4a71-4403-95ec-e293ae4be259","system_id":"levelo_inurba_marseille","lat":43.32103,"lon":5.36793,"is_reserved":false,"is_disabled":false,"rental_uris":{"android":"levelo://app?vid=ce8cb95b-4a71-4403-95ec-e293ae4be259","ios":"levelo://app?vid=ce8cb95b-4a71-4403-95ec-e293ae4be259"},"vehicle_type_id":"4","last_reported":1760631216,"current_range_meters":16800,"station_id":"ce4bhrh2rcd13ifvqhug","pricing_plan_id":"cebpf4jnsgd1na2vs0mg"},{"bike_id":"94f60e57-4ea5-4506-9b0b-d49e351bbd01","system_id":"levelo_inurba_marseille","lat":43.29374,"lon":5.38394,"is_reserved":false,"is_disabled":false,"rental_uris":{"android":"levelo://app?vid=94f60e57-4ea5-4506-9b0b-d49e351bbd01","ios":"levelo://app?vid=94f60e57-4ea5-4506-9b0b-d49e351bbd01"},"vehicle_type_id":"4","last_reported":1760631216,"current_range_meters":17200,"station_id":"","pricing_plan_id":"cebpf4jnsgd1na2vs0mg"},{"bike_id":"fa12df56-a76a-4a90-9533-33e160aa3fe9","system_id":"levelo_inurba_marseille","lat":43.28667,"lon":5.36355,"is_reserved":false,"is_disabled":false,"rental_uris":{"android":"levelo://app?vid=fa12df56-a76a-4a90-9533-33e160aa3fe9","ios":"levelo://app?vid=fa12df56-a76a-4a90-9533-33e160aa3fe9"},"vehicle_type_id":"4","last_reported":1760631216,"current_range_meters":17200,"station_id":"ce4bhah2rcd13ifvqej0","pricing_plan_id":"cebpf4jnsgd1na2vs0mg"},{"bike_id":"451ec77d-a988-4523-a91e-737888e21d12","system_id":"levelo_inurba_marseille","lat":43.28281,"lon":5.35093,"is_reserved":false,"is_disabled":false,"rental_uris":{"android":"levelo://app?vid=451ec77d-a988-4523-a91e-737888e21d12","ios":"levelo://app?vid=451ec77d-a988-4523-a91e-737888e21d12"},"vehicle_type_id":"4","last_reported":1760631216,"current_range_meters":17200,"station_id":"ce4bhbp2rcd13ifvqerg","pricing_plan_id":"cebpf4jnsgd1na2vs0mg"},{"bike_id":"908fd5c0-1d71-45a2-914f-68b63fb597d0","system_id":"levelo_inurba_marseille","lat":43.27172,"lon":5.40992,"is_reserved":false,"is_disabled":false,"rental_uris":{"android":"levelo://app?vid=908fd5c0-1d71-45a2-914f-68b63fb597d0","ios":"levelo://app?vid=908fd5c0-1d71-45a2-914f-68b63fb597d0"},"vehicle_type_id":"4","last_reported":1760631216,"current_range_meters":17200,"station_id":"ce4bhl12rcd13ifvqgf0","pricing_plan_id":"cebpf4jnsgd1na2vs0mg"},{"bike_id":"a21f0063-9a60-4229-8c89-1ec2c31ab8e4","system_id":"levelo_inurba_marseille","lat":43.250749,"lon":5.395338,"is_reserved":false,"is_disabled":false,"rental_uris":{"android":"levelo://app?vid=a21f0063-9a60-4229-8c89-1ec2c31ab8e4","ios":"levelo://app?vid=a21f0063-9a60-4229-8c89-1ec2c31ab8e4"},"vehicle_type_id":"4","last_reported":1760631216,"current_range_meters":17200,"station_id":"ce4bhm12rcd13ifvqgkg","pricing_plan_id":"cebpf4jnsgd1na2vs0mg"},{"bike_id":"f279a725-5a93-4458-a76a-0b10c879ee5d","system_id":"levelo_inurba_marseille","lat":43.32428,"lon":5.389335,"is_reserved":false,"is_disabled":false,"rental_uris":{"android":"levelo://app?vid=f279a725-5a93-4458-a76a-0b10c879ee5d","ios":"levelo://app?vid=f279a725-5a93-4458-a76a-0b10c879ee5d"},"vehicle_type_id":"4","last_reported":1760631216,"current_range_meters":17200,"station_id":"ce4bhr92rcd13ifvqhsg","pricing_plan_id":"cebpf4jnsgd1na2vs0mg"},{"bike_id":"d6e33a0f-af3e-45ae-a5c9-68401d39b4b3","system_id":"levelo_inurba_marseille","lat":43.323596,"lon":5.367601,"is_reserved":false,"is_disabled":false,"rental_uris":{"android":"levelo://app?vid=d6e33a0f-af3e-45ae-a5c9-68401d39b4b3","ios":"levelo://app?vid=d6e33a0f-af3e-45ae-a5c9-68401d39b4b3"},"vehicle_type_id":"4","last_reported":1760631216,"current_range_meters":17200,"station_id":"ce4bhsh2rcd13ifvqi2g","pricing_plan_id":"cebpf4jnsgd1na2vs0mg"},{"bike_id":"42bc3f62-34df-4095-87cc-aeefd3ee2f7a","system_id":"levelo_inurba_marseille","lat":43.24156,"lon":5.36439,"is_reserved":false,"is_disabled":false,"rental_uris":{"android":"levelo://app?vid=42bc3f62-34df-4095-87cc-aeefd3ee2f7a","ios":"levelo://app?vid=42bc3f62-34df-4095-87cc-aeefd3ee2f7a"},"vehicle_type_id":"4","last_reported":1760631216,"current_range_meters":17200,"station_id":"cpo36qri1sfpv3e86is0","pricing_plan_id":"cebpf4jnsgd1na2vs0mg"},{"bike_id":"87807ea4-c0ed-4ac3-b868-352f1424db60","system_id":"levelo_inurba_marseille","lat":43.23779,"lon":5.36633,"is_reserved":false,"is_disabled":false,"rental_uris":{"android":"levelo://app?vid=87807ea4-c0ed-4ac3-b868-352f1424db60","ios":"levelo://app?vid=87807ea4-c0ed-4ac3-b868-352f1424db60"},"vehicle_type_id":"4","last_reported":1760631216,"current_range_meters":17200,"station_id":"st_d3nk18o9ro0c73en2l3g","pricing_plan_id":"cebpf4jnsgd1na2vs0mg"},{"bike_id":"84ed44a6-9db9-4f7b-a513-2fffd320032f","system_id":"levelo_inurba_marseille","lat":43.29644,"lon":5.37789,"is_reserved":false,"is_disabled":false,"rental_uris":{"android":"levelo://app?vid=84ed44a6-9db9-4f7b-a513-2fffd320032f","ios":"levelo://app?vid=84ed44a6-9db9-4f7b-a513-2fffd320032f"},"vehicle_type_id":"4","last_reported":1760631216,"current_range_meters":17600,"station_id":"","pricing_plan_id":"cebpf4jnsgd1na2vs0mg"},{"bike_id":"7914ec32-9179-4cf9-8fa2-5059e7f9a71d","system_id":"levelo_inurba_marseille","lat":43.301094,"lon":5.387736,"is_reserved":false,"is_disabled":false,"rental_uris":{"android":"levelo://app?vid=7914ec32-9179-4cf9-8fa2-5059e7f9a71d","ios":"levelo://app?vid=7914ec32-9179-4cf9-8fa2-5059e7f9a71d"},"vehicle_type_id":"4","last_reported":1760631216,"current_range_meters":17600,"station_id":"ce4bh192rcd13ifvqdc0","pricing_plan_id":"cebpf4jnsgd1na2vs0mg"},{"bike_id":"c4cb255f-2384-402a-95e9-b26bbe114373","system_id":"levelo_inurba_marseille","lat":43.29004,"lon":5.35615,"is_reserved":false,"is_disabled":false,"rental_uris":{"android":"levelo://app?vid=c4cb255f-2384-402a-95e9-b26bbe114373","ios":"levelo://app?vid=c4cb255f-2384-402a-95e9-b26bbe114373"},"vehicle_type_id":"4","last_reported":1760631216,"current_range_meters":17600,"station_id":"ce4bhb92rcd13ifvqen0","pricing_plan_id":"cebpf4jnsgd1na2vs0mg"},{"bike_id":"abc0bf62-219e-4253-b5a1-5d58a893edd4","system_id":"levelo_inurba_marseille","lat":43.284058,"lon":5.349763,"is_reserved":false,"is_disabled":false,"rental_uris":{"android":"levelo://app?vid=abc0bf62-219e-4253-b5a1-5d58a893edd4","ios":"levelo://app?vid=abc0bf62-219e-4253-b5a1-5d58a893edd4"},"vehicle_type_id":"4","last_reported":1760631216,"current_range_meters":17600,"station_id":"ce4bhbh2rcd13ifvqepg","pricing_plan_id":"cebpf4jnsgd1na2vs0mg"},{"bike_id":"14596cea-da28-488d-82bc-454562c96974","system_id":"levelo_inurba_marseille","lat":43.286125,"lon":5.351017,"is_reserved":false,"is_disabled":false,"rental_uris":{"android":"levelo://app?vid=14596cea-da28-488d-82bc-454562c96974","ios":"levelo://app?vid=14596cea-da28-488d-82bc-454562c96974"},"vehicle_type_id":"4","last_reported":1760631216,"current_range_meters":17600,"station_id":"ce4bhch2rcd13ifvqeug","pricing_plan_id":"cebpf4jnsgd1na2vs0mg"},{"bike_id":"22f0c684-dff2-4b28-8a64-a13ac12b7206","system_id":"levelo_inurba_marseille","lat":43.27979,"lon":5.41661,"is_reserved":false,"is_disabled":false,"rental_uris":{"android":"levelo://app?vid=22f0c684-dff2-4b28-8a64-a13ac12b7206","ios":"levelo://app?vid=22f0c684-dff2-4b28-8a64-a13ac12b7206"},"vehicle_type_id":"4","last_reported":1760631216,"current_range_meters":17600,"station_id":"ce4bho12rcd13ifvqh1g","pricing_plan_id":"cebpf4jnsgd1na2vs0mg"},{"bike_id":"a618d75f-c056-4d7b-8ccd-3fcd16a7d304","system_id":"levelo_inurba_marseille","lat":43.34146,"lon":5.409077,"is_reserved":false,"is_disabled":false,"rental_uris":{"android":"levelo://app?vid=a618d75f-c056-4d7b-8ccd-3fcd16a7d304","ios":"levelo://app?vid=a618d75f-c056-4d7b-8ccd-3fcd16a7d304"},"vehicle_type_id":"4","last_reported":1760631216,"current_range_meters":17600,"station_id":"cki0cbj6b192h4jlfktg","pricing_plan_id":"cebpf4jnsgd1na2vs0mg"},{"bike_id":"2ecdc158-0a8b-4b71-b2d1-d719cc476f8c","system_id":"levelo_inurba_marseille","lat":43.21746,"lon":5.34607,"is_reserved":false,"is_disabled":false,"rental_uris":{"android":"levelo://app?vid=2ecdc158-0a8b-4b71-b2d1-d719cc476f8c","ios":"levelo://app?vid=2ecdc158-0a8b-4b71-b2d1-d719cc476f8c"},"vehicle_type_id":"4","last_reported":1760631216,"current_range_meters":18000,"station_id":"","pricing_plan_id":"cebpf4jnsgd1na2vs0mg"},{"bike_id":"e56bf07c-d719-4008-ae73-ae56c4ee2685","system_id":"levelo_inurba_marseille","lat":43.30249,"lon":5.40073,"is_reserved":false,"is_disabled":false,"rental_uris":{"android":"levelo://app?vid=e56bf07c-d719-4008-ae73-ae56c4ee2685","ios":"levelo://app?vid=e56bf07c-d719-4008-ae73-ae56c4ee2685"},"vehicle_type_id":"4","last_reported":1760631216,"current_range_meters":18000,"station_id":"ce4bgvh2rcd13ifvqcs0","pricing_plan_id":"cebpf4jnsgd1na2vs0mg"},{"bike_id":"c1fc9dd2-b470-47e9-a0b4-ca0936cf5ef9","system_id":"levelo_inurba_marseille","lat":43.30217,"lon":5.39462,"is_reserved":false,"is_disabled":false,"rental_uris":{"android":"levelo://app?vid=c1fc9dd2-b470-47e9-a0b4-ca0936cf5ef9","ios":"levelo://app?vid=c1fc9dd2-b470-47e9-a0b4-ca0936cf5ef9"},"vehicle_type_id":"4","last_reported":1760631216,"current_range_meters":18000,"station_id":"ce4bh0p2rcd13ifvqd70","pricing_plan_id":"cebpf4jnsgd1na2vs0mg"},{"bike_id":"31169a93-5d92-457a-89bb-6ca88bf9a1dc","system_id":"levelo_inurba_marseille","lat":43.29439,"lon":5.39753,"is_reserved":false,"is_disabled":false,"rental_uris":{"android":"levelo://app?vid=31169a93-5d92-457a-89bb-6ca88bf9a1dc","ios":"levelo://app?vid=31169a93-5d92-457a-89bb-6ca88bf9a1dc"},"vehicle_type_id":"4","last_reported":1760631216,"current_range_meters":18000,"station_id":"ce4bh3h2rcd13ifvqdo0","pricing_plan_id":"cebpf4jnsgd1na2vs0mg"},