{"last_updated":1726489084,"ttl":30,"version":"2.2","data":{"bikes":[{"bike_id":"8c940113-d528-4df7-8641-7cd8cd799066","system_id":"levelo_inurba_marseille","lat":43.284482,"lon":5.386341,"is_reserved":false,"is_disabled":false,"rental_uris":{"android":"levelo://app?vid=8c940113-d528-4df7-8641-7cd8cd799066","ios":"levelo://app?vid=8c940113-d528-4df7-8641-7cd8cd799066"},"vehicle_type_id":"4","last_reported":1726489084,"current_range_meters":30800,"station_id":"ce4bh8p2rcd13ifvqeb0","pricing_plan_id":"cebpf4jnsgd1na2vs0mg"},{"bike_id":"8af3f69f-e8f5-4538-a239-5ffa12a3bb3e","system_id":"levelo_inurba_marseille","lat":43.28937,"lon":5.36633,"is_reserved":false,"is_disabled":false,"rental_uris":{"android":"levelo://app?vid=8af3f69f-e8f5-4538-a239-5ffa12a3bb3e","ios":"levelo://app?vid=8af3f69f-e8f5-4538-a239-5ffa12a3bb3e"},"vehicle_type_id":"4","last_reported":1726489084,"current_range_meters":31200,"station_id":"ce4bhap2rcd13ifvqek0","pricing_plan_id":"cebpf4jnsgd1na2vs0mg"},{"bike_id":"1b0bdf1d-5948-4b03-826b-50de3e003d92","system_id":"levelo_inurba_marseille","lat":43.29638,"lon":5.4059,"is_reserved":false,"is_disabled":false,"rental_uris":{"android":"levelo://app?vid=1b0bdf1d-5948-4b03-826b-50de3e003d92","ios":"levelo://app?vid=1b0bdf1d-5948-4b03-826b-50de3e003d92"},"vehicle_type_id":"4","last_reported":1726489084,"current_range_meters":19200,"station_id":"ce4bh0h2rcd13ifvqd60","pricing_plan_id":"cebpf4jnsgd1na2vs0mg"},{"bike_id":"ccb4e967-1076-49fe-b7cc-dc31f4db84c3","system_id":"levelo_inurba_marseille","lat":43.28612,"lon":5.37072,"is_reserved":false,"is_disabled":false,"rental_uris":{"android":"levelo://app?vid=ccb4e967-1076-49fe-b7cc-dc31f4db84c3","ios":"levelo://app?vid=ccb4e967-1076-49fe-b7cc-dc31f4db84c3"},"vehicle_type_id":"4","last_reported":1726489084,"current_range_meters":34000,"station_id":"ce4bht12rcd13ifvqi60","pricing_plan_id":"cebpf4jnsgd1na2vs0mg"},{"bike_id":"8fbbab3a-6f2a-4cfe-b5d6-d805834de86b","system_id":"levelo_inurba_marseille","lat":43.28163,"lon":5.42645,"is_reserved":false,"is_disabled":false,"rental_uris":{"android":"levelo://app?vid=8fbbab3a-6f2a-4cfe-b5d6-d805834de86b","ios":"levelo://app?vid=8fbbab3a-6f2a-4cfe-b5d6-d805834de86b"},"vehicle_type_id":"4","last_reported":1726489084,"current_range_meters":36000,"station_id":"ce4bhnh2rcd13ifvqgug","pricing_plan_id":"cebpf4jnsgd1na2vs0mg"},{"bike_id":"0b3444c8-d786-49b5-ae80-76d10e90efc3","system_id":"levelo_inurba_marseille","lat":43.29416,"lon":5.38623,"is_reserved":false,"is_disabled":false,"rental_uris":{"android":"levelo://app?vid=0b3444c8-d786-49b5-ae80-76d10e90efc3","ios":"levelo://app?vid=0b3444c8-d786-49b5-ae80-76d10e90efc3"},"vehicle_type_id":"4","last_reported":1726489084,"current_range_meters":16400,"station_id":"ce4bh2h2rcd13ifvqdh0","pricing_plan_id":"cebpf4jnsgd1na2vs0mg"},{"bike_id":"43176770-eaee-4996-86c7-d408161e4ce6","system_id":"levelo_inurba_marseille","lat":43.29906,"lon":5.4368,"is_reserved":false,"is_disabled":false,"rental_uris":{"android":"levelo://app?vid=43176770-eaee-4996-86c7-d408161e4ce6","ios":"levelo://app?vid=43176770-eaee-4996-86c7-d408161e4ce6"},"vehicle_type_id":"4","last_reported":1726489084,"current_range_meters":10800,"station_id":"ce4bhpp2rcd13ifvqhfg","pricing_plan_id":"cebpf4jnsgd1na2vs0mg"},{"bike_id":"6c52f639-8120-4166-817f-bf8841b5aaa0","system_id":"levelo_inurba_marseille","lat":43.297945,"lon":5.364268,"is_reserved":false,"is_disabled":false,"rental_uris":{"android":"levelo://app?vid=6c52f639-8120-4166-817f-bf8841b5aaa0","ios":"levelo://app?vid=6c52f639-8120-4166-817f-bf8841b5aaa0"},"vehicle_type_id":"4","last_reported":1726489084,"current_range_meters":26800,"station_id":"","pricing_plan_id":"cebpf4jnsgd1na2vs0mg"},{"bike_id":"7e74ccf1-6e94-422c-bb3a-8867c576e37a","system_id":"levelo_inurba_marseille","lat":43.229353,"lon":5.353674,"is_reserved":false,"is_disabled":false,"rental_uris":{"android":"levelo://app?vid=7e74ccf1-6e94-422c-bb3a-8867c576e37a","ios":"levelo://app?vid=7e74ccf1-6e94-422c-bb3a-8867c576e37a"},"vehicle_type_id":"4","last_reported":1726489084,"current_range_meters":36800,"station_id":"cpo3532slgdg3j2ikp40","pricing_plan_id":"cebpf4jnsgd1na2vs0mg"},{"bike_id":"253d1e55-6b14-4b19-a1ba-1940e8d838ab","system_id":"levelo_inurba_marseille","lat":43.29204,"lon":5.39316,"is_reserved":false,"is_disabled":false,"rental_uris":{"android":"levelo://app?vid=253d1e55-6b14-4b19-a1ba-1940e8d838ab","ios":"levelo://app?vid=253d1e55-6b14-4b19-a1ba-1940e8d838ab"},"vehicle_type_id":"4","last_reported":1726489084,"current_range_meters":2800,"station_id":"ce4bh192rcd13ifvqdd0","pricing_plan_id":"cebpf4jnsgd1na2vs0mg"},{"bike_id":"8661cdbd-539b-4736-96ae-3b29c9f34a0b","system_id":"levelo_inurba_marseille","lat":43.24075,"lon":5.37753,"is_reserved":false,"is_disabled":false,"rental_uris":{"android":"levelo://app?vid=8661cdbd-539b-4736-96ae-3b29c9f34a0b","ios":"levelo://app?vid=8661cdbd-539b-4736-96ae-3b29c9f34a0b"},"vehicle_type_id":"4","last_reported":1726489084,"current_range_meters":38800,"station_id":"ce4bhnp2rcd13ifvqgvg","pricing_plan_id":"cebpf4jnsgd1na2vs0mg"},{"bike_id":"71f56d44-d481-482a-96e4-034b1835e410","system_id":"levelo_inurba_marseille","lat":43.29283,"lon":5.36847,"is_reserved":false,"is_disabled":false,"rental_uris":{"android":"levelo://app?vid=71f56d44-d481-482a-96e4-034b1835e410","ios":"levelo://app?vid=71f56d44-d481-482a-96e4-034b1835e410"},"vehicle_type_id":"4","last_reported":1726489084,"current_range_meters":30000,"station_id":"ce4bhbp2rcd13ifvqesg","pricing_plan_id":"cebpf4jnsgd1na2vs0mg"},{"bike_id":"188cdae8-0b75-4545-b307-0d517d220751","system_id":"levelo_inurba_marseille","lat":43.30219,"lon":5.394741,"is_reserved":false,"is_disabled":false,"rental_uris":{"android":"levelo://app?vid=188cdae8-0b75-4545-b307-0d517d220751","ios":"levelo://app?vid=188cdae8-0b75-4545-b307-0d517d220751"},"vehicle_type_id":"4","last_reported":1726489084,"current_range_meters":11600,"station_id":"ce4bh0p2rcd13ifvqd70","pricing_plan_id":"cebpf4jnsgd1na2vs0mg"},{"bike_id":"597417d7-96b7-48cd-ba56-2f052e10a43a","system_id":"levelo_inurba_marseille","lat":43.23156,"lon":5.43723,"is_reserved":false,"is_disabled":false,"rental_uris":{"android":"levelo://app?vid=597417d7-96b7-48cd-ba56-2f052e10a43a","ios":"levelo://app?vid=597417d7-96b7-48cd-ba56-2f052e10a43a"},"vehicle_type_id":"4","last_reported":1726489084,"current_range_meters":19200,"station_id":"ce4bhmp2rcd13ifvqgog","pricing_plan_id":"cebpf4jnsgd1na2vs0mg"},{"bike_id":"399d5ca3-f4a1-4813-bcb2-424bd1414aa0","system_id":"levelo_inurba_marseille","lat":43.24078,"lon":5.37757,"is_reserved":false,"is_disabled":false,"rental_uris":{"android":"levelo://app?vid=399d5ca3-f4a1-4813-bcb2-424bd1414aa0","ios":"levelo://app?vid=399d5ca3-f4a1-4813-bcb2-424bd1414aa0"},"vehicle_type_id":"4","last_reported":1726489084,"current_range_meters":16000,"station_id":"ce4bhnp2rcd13ifvqgvg","pricing_plan_id":"cebpf4jnsgd1na2vs0mg"},{"bike_id":"13ec4916-f0ea-4897-8afc-596425b42c42","system_id":"levelo_inurba_marseille","lat":43.23194,"lon":5.35559,"is_reserved":false,"is_disabled":false,"rental_uris":{"android":"levelo://app?vid=13ec4916-f0ea-4897-8afc-596425b42c42","ios":"levelo://app?vid=13ec4916-f0ea-4897-8afc-596425b42c42"},"vehicle_type_id":"4","last_reported":1726489084,"current_range_meters":16400,"station_id":"ce4bhu92rcd13ifvqi70","pricing_plan_id":"cebpf4jnsgd1na2vs0mg"},{"bike_id":"e8549387-9deb-4f66-b733-a7cdaa0db866","system_id":"levelo_inurba_marseille","lat":43.33026,"lon":5.39037,"is_reserved":false,"is_disabled":false,"rental_uris":{"android":"levelo://app?vid=e8549387-9deb-4f66-b733-a7cdaa0db866","ios":"levelo://app?vid=e8549387-9deb-4f66-b733-a7cdaa0db866"},"vehicle_type_id":"4","last_reported":1726489084,"current_range_meters":10000,"station_id":"ce4bhr92rcd13ifvqhrg","pricing_plan_id":"cebpf4jnsgd1na2vs0mg"},{"bike_id":"76c2ad49-6301-48ff-bc82-807c296aea33","system_id":"levelo_inurba_marseille","lat":43.33025,"lon":5.39045,"is_reserved":false,"is_disabled":false,"rental_uris":{"android":"levelo://app?vid=76c2ad49-6301-48ff-bc82-807c296aea33","ios":"levelo://app?vid=76c2ad49-6301-48ff-bc82-807c296aea33"},"vehicle_type_id":"4","last_reported":1726489084,"current_range_meters":4400,"station_id":"ce4bhr92rcd13ifvqhrg","pricing_plan_id":"cebpf4jnsgd1na2vs0mg"},{"bike_id":"bf881f84-1ceb-4933-928f-0e749e329d22","system_id":"levelo_inurba_marseille","lat":43.24084,"lon":5.37744,"is_reserved":false,"is_disabled":false,"rental_uris":{"android":"levelo://app?vid=bf881f84-1ceb-4933-928f-0e749e329d22","ios":"levelo://app?vid=bf881f84-1ceb-4933-928f-0e749e329d22"},"vehicle_type_id":"4","last_reported":1726489084,"current_range_meters":27600,"station_id":"ce4bhnp2rcd13ifvqgvg","pricing_plan_id":"cebpf4jnsgd1na2vs0mg"},{"bike_id":"974bfb17-6e55-4af3-b144-8511448dfdc0","system_id":"levelo_inurba_marseille","lat":43.29895,"lon":5.37475,"is_reserved":false,"is_disabled":false,"rental_uris":{"android":"levelo://app?vid=974bfb17-6e55-4af3-b144-8511448dfdc0","ios":"levelo://app?vid=974bfb17-6e55-4af3-b144-8511448dfdc0"},"vehicle_type_id":"4","last_reported":1726489084,"current_range_meters":22800,"station_id":"ce4bgjh2rcd13ifvqbg0","pricing_plan_id":"cebpf4jnsgd1na2vs0mg"},{"bike_id":"57b87d5c-c819-4ef6-97b0-dab8fd8c8e55","system_id":"levelo_inurba_marseille","lat":43.24083,"lon":5.37746,"is_reserved":false,"is_disabled":false,"rental_uris":{"android":"levelo://app?vid=57b87d5c-c819-4ef6-97b0-dab8fd8c8e55","ios":"levelo://app?vid=57b87d5c-c819-4ef6-97b0-dab8fd8c8e55"},"vehicle_type_id":"4","last_reported":1726489084,"current_range_meters":36800,"station_id":"ce4bhnp2rcd13ifvqgvg","pricing_plan_id":"cebpf4jnsgd1na2vs0mg"},{"bike_id":"7a31c363-2af0-4aaa-a103-bf797b59e469","system_id":"levelo_inurba_marseille","lat":43.24999,"lon":5.38931,"is_reserved":false,"is_disabled":false,"rental_uris":{"android":"levelo://app?vid=7a31c363-2af0-4aaa-a103-bf797b59e469","ios":"levelo://app?vid=7a31c363-2af0-4aaa-a103-bf797b59e469"},"vehicle_type_id":"4","last_reported":1726489084,"current_range_meters":24800,"station_id":"ce4bhgp2rcd13ifvqfd0","pricing_plan_id":"cebpf4jnsgd1na2vs0mg"},{"bike_id":"bec7054b-072f-4083-a493-3fced53b3347","system_id":"levelo_inurba_marseille","lat":43.2998,"lon":5.37177,"is_reserved":false,"is_disabled":false,"rental_uris":{"android":"levelo://app?vid=bec7054b-072f-4083-a493-3fced53b3347","ios":"levelo://app?vid=bec7054b-072f-4083-a493-3fced53b3347"},"vehicle_type_id":"4","last_reported":1726489084,"current_range_meters":30400,"station_id":"ce4bgr92rcd13ifvqc7g","pricing_plan_id":"cebpf4jnsgd1na2vs0mg"},{"bike_id":"74c67d55-8a5f-40c9-8066-d68354718f8c","system_id":"levelo_inurba_marseille","lat":43.23196,"lon":5.35547,"is_reserved":false,"is_disabled":false,"rental_uris":{"android":"levelo://app?vid=74c67d55-8a5f-40c9-8066-d68354718f8c","ios":"levelo://app?vid=74c67d55-8a5f-40c9-8066-d68354718f8c"},"vehicle_type_id":"4","last_reported":1726489084,"current_range_meters":13600,"station_id":"ce4bhu92rcd13ifvqi70","pricing_plan_id":"cebpf4jnsgd1na2vs0mg"},{"bike_id":"f05d84f1-db17-4921-a353-e31d06725ec7","system_id":"levelo_inurba_marseille","lat":43.28269,"lon":5.35058,"is_reserved":false,"is_disabled":false,"rental_uris":{"android":"levelo://app?vid=f05d84f1-db17-4921-a353-e31d06725ec7","ios":"levelo://app?vid=f05d84f1-db17-4921-a353-e31d06725ec7"},"vehicle_type_id":"4","last_reported":1726489084,"current_range_meters":32000,"station_id":"ce4bhbp2rcd13ifvqerg","pricing_plan_id":"cebpf4jnsgd1na2vs0mg"},{"bike_id":"347c4d00-be62-486d-946b-513151545bf3","system_id":"levelo_inurba_marseille","lat":43.24082,"lon":5.37754,"is_reserved":false,"is_disabled":false,"rental_uris":{"android":"levelo://app?vid=347c4d00-be62-486d-946b-513151545bf3","ios":"levelo://app?vid=347c4d00-be62-486d-946b-513151545bf3"},"vehicle_type_id":"4","last_reported":1726489084,"current_range_meters":22800,"station_id":"ce4bhnp2rcd13ifvqgvg","pricing_plan_id":"cebpf4jnsgd1na2vs0mg"},{"bike_id":"3cc46231-6adf-4bf6-9d5e-03ebe621fb6b","system_id":"levelo_inurba_marseille","lat":43.323395,"lon":5.406241,"is_reserved":false,"is_disabled":false,"rental_uris":{"android":"levelo://app?vid=3cc46231-6adf-4bf6-9d5e-03ebe621fb6b","ios":"levelo://app?vid=3cc46231-6adf-4bf6-9d5e-03ebe621fb6b"},"vehicle_type_id":"4","last_reported":1726489084,"current_range_meters":15200,"station_id":"","pricing_plan_id":"cebpf4jnsgd1na2vs0mg"},{"bike_id":"997cf817-130c-4d08-9a2e-aea2dac63382","system_id":"levelo_inurba_marseille","lat":43.29562,"lon":5.42285,"is_reserved":false,"is_disabled":false,"rental_uris":{"android":"levelo://app?vid=997cf817-130c-4d08-9a2e-aea2dac63382","ios":"levelo://app?vid=997cf817-130c-4d08-9a2e-aea2dac63382"},"vehicle_type_id":"4","last_reported":1726489084,"current_range_meters":37600,"station_id":"ce4bhph2rcd13ifvqhdg","pricing_plan_id":"cebpf4jnsgd1na2vs0mg"},{"bike_id":"685b92d8-7890-4437-a61c-bf526ce8e145","system_id":"levelo_inurba_marseille","lat":43.27948,"lon":5.41054,"is_reserved":false,"is_disabled":false,"rental_uris":{"android":"levelo://app?vid=685b92d8-7890-4437-a61c-bf526ce8e145","ios":"levelo://app?vid=685b92d8-7890-4437-a61c-bf526ce8e145"},"vehicle_type_id":"4","last_reported":1726489084,"current_range_meters":24000,"station_id":"ce4bhnp2rcd13ifvqh0g","pricing_plan_id":"cebpf4jnsgd1na2vs0mg"},{"bike_id":"f0e00eea-2048-4226-a63b-14b0e7db01d6","system_id":"levelo_inurba_marseille","lat":43.29691,"lon":5.37289,"is_reserved":false,"is_disabled":false,"rental_uris":{"android":"levelo://app?vid=f0e00eea-2048-4226-a63b-14b0e7db01d6","ios":"levelo://app?vid=f0e00eea-2048-4226-a63b-14b0e7db01d6"},"vehicle_type_id":"4","last_reported":1726489084,"current_range_meters":27200,"station_id":"ce4bgk12rcd13ifvqbj0","pricing_plan_id":"cebpf4jnsgd1na2vs0mg"},{"bike_id":"de926bf7-1295-43c0-8367-941524b67039","system_id":"levelo_inurba_marseille","lat":43.2408,"lon":5.37761,"is_reserved":false,"is_disabled":false,"rental_uris":{"android":"levelo://app?vid=de926bf7-1295-43c0-8367-941524b67039","ios":"levelo://app?vid=de926bf7-1295-43c0-8367-941524b67039"},"vehicle_type_id":"4","last_reported":1726489084,"current_range_meters":38800,"station_id":"ce4bhnp2rcd13ifvqgvg","pricing_plan_id":"cebpf4jnsgd1na2vs0mg"},{"bike_id":"cc702287-d5dd-43a2-a4ae-2011a4d936a9","system_id":"levelo_inurba_marseille","lat":43.26956,"lon":5.38626,"is_reserved":false,"is_disabled":false,"rental_uris":{"android":"levelo://app?vid=cc702287-d5dd-43a2-a4ae-2011a4d936a9","ios":"levelo://app?vid=cc702287-d5dd-43a2-a4ae-2011a4d936a9"},"vehicle_type_id":"4","last_reported":1726489084,"current_range_meters":24400,"station_id":"ce4bhh92rcd13ifvqfh0","pricing_plan_id":"cebpf4jnsgd1na2vs0mg"},{"bike_id":"1ed8a0b3-92f7-4363-9b00-2fe39ac7defb","system_id":"levelo_inurba_marseille","lat":43.2985,"lon":5.36278,"is_reserved":false,"is_disabled":false,"rental_uris":{"android":"levelo://app?vid=1ed8a0b3-92f7-4363-9b00-2fe39ac7defb","ios":"levelo://app?vid=1ed8a0b3-92f7-4363-9b00-2fe39ac7defb"},"vehicle_type_id":"4","last_reported":1726489084,"current_range_meters":39200,"station_id":"ce4bgpp2rcd13ifvqc3g","pricing_plan_id":"cebpf4jnsgd1na2vs0mg"},{"bike_id":"7e2e09a9-457b-489e-9620-345581350fd3","system_id":"levelo_inurba_marseille","lat":43.28571,"lon":5.39502,"is_reserved":false,"is_disabled":false,"rental_uris":{"android":"levelo://app?vid=7e2e09a9-457b-489e-9620-345581350fd3","ios":"levelo://app?vid=7e2e09a9-457b-489e-9620-345581350fd3"},"vehicle_type_id":"4","last_reported":1726489084,"current_range_meters":34000,"station_id":"ce4bh292rcd13ifvqdg0","pricing_plan_id":"cebpf4jnsgd1na2vs0mg"},{"bike_id":"cd225d70-6caa-40f5-b0a6-233eb91ea039","system_id":"levelo_inurba_marseille","lat":43.32797,"lon":5.35967,"is_reserved":false,"is_disabled":false,"rental_uris":{"android":"levelo://app?vid=cd225d70-6caa-40f5-b0a6-233eb91ea039","ios":"levelo://app?vid=cd225d70-6caa-40f5-b0a6-233eb91ea039"},"vehicle_type_id":"4","last_reported":1726489084,"current_range_meters":28400,"station_id":"","pricing_plan_id":"cebpf4jnsgd1na2vs0mg"},{"bike_id":"0aa75f12-c942-44d1-92b7-0b3badf3bf13","system_id":"levelo_inurba_marseille","lat":43.27494,"lon":5.42458,"is_reserved":false,"is_disabled":false,"rental_uris":{"android":"levelo://app?vid=0aa75f12-c942-44d1-92b7-0b3badf3bf13","ios":"levelo://app?vid=0aa75f12-c942-44d1-92b7-0b3badf3bf13"},"vehicle_type_id":"4","last_reported":1726489084,"current_range_meters":30000,"station_id":"ce4bhn92rcd13ifvqgrg","pricing_plan_id":"cebpf4jnsgd1na2vs0mg"},{"bike_id":"e75bdf37-6017-4dd9-8183-f2edc970ca06","system_id":"levelo_inurba_marseille","lat":43.23198,"lon":5.35548,"is_reserved":false,"is_disabled":false,"rental_uris":{"android":"levelo://app?vid=e75bdf37-6017-4dd9-8183-f2edc970ca06","ios":"levelo://app?vid=e75bdf37-6017-4dd9-8183-f2edc970ca06"},"vehicle_type_id":"4","last_reported":1726489084,"current_range_meters":36000,"station_id":"ce4bhu92rcd13ifvqi70","pricing_plan_id":"cebpf4jnsgd1na2vs0mg"},{"bike_id":"35e8f3ae-8146-4ec2-90bc-0228be5fcd4d","system_id":"levelo_inurba_marseille","lat":43.25497,"lon":5.37644,"is_reserved":false,"is_disabled":false,"rental_uris":{"android":"levelo://app?vid=35e8f3ae-8146-4ec2-90bc-0228be5fcd4d","ios":"levelo://app?vid=35e8f3ae-8146-4ec2-90bc-0228be5fcd4d"},"vehicle_type_id":"4","last_reported":1726489084,"current_range_meters":8800,"station_id":"ce4bhh12rcd13ifvqff0","pricing_plan_id":"cebpf4jnsgd1na2vs0mg"},{"bike_id":"2248b649-4509-42c8-aaff-ea012591b791","system_id":"levelo_inurba_marseille","lat":43.29073,"lon":5.37162,"is_reserved":false,"is_disabled":false,"rental_uris":{"android":"levelo://app?vid=2248b649-4509-42c8-aaff-ea012591b791","ios":"levelo://app?vid=2248b649-4509-42c8-aaff-ea012591b791"},"vehicle_type_id":"4","last_reported":1726489084,"current_range_meters":28400,"station_id":"ce4bh5p2rcd13ifvqe4g","pricing_plan_id":"cebpf4jnsgd1na2vs0mg"},{"bike_id":"34ad2b2d-f417-4fd4-a770-075032f4b2fa","system_id":"levelo_inurba_marseille","lat":43.2418,"lon":5.39735,"is_reserved":false,"is_disabled":false,"rental_uris":{"android":"levelo://app?vid=34ad2b2d-f417-4fd4-a770-075032f4b2fa","ios":"levelo://app?vid=34ad2b2d-f417-4fd4-a770-075032f4b2fa"},"vehicle_type_id":"4","last_reported":1726489084,"current_range_meters":22800,"station_id":"ce4bhn12rcd13ifvqgpg","pricing_plan_id":"cebpf4jnsgd1na2vs0mg"},{"bike_id":"31c5f1b6-99b7-41fb-9ba8-75d72aae74d8","system_id":"levelo_inurba_marseille","lat":43.305969,"lon":5.393672,"is_reserved":false,"is_disabled":false,"rental_uris":{"android":"levelo://app?vid=31c5f1b6-99b7-41fb-9ba8-75d72aae74d8","ios":"levelo://app?vid=31c5f1b6-99b7-41fb-9ba8-75d72aae74d8"},"vehicle_type_id":"4","last_reported":1726489084,"current_range_meters":32000,"station_id":"ce4bgip2rcd13ifvqbb0","pricing_plan_id":"cebpf4jnsgd1na2vs0mg"},{"bike_id":"d1bc3a38-4213-4e05-9512-47794e8b07ef","system_id":"levelo_inurba_marseille","lat":43.30468,"lon":5.37906,"is_reserved":false,"is_disabled":false,"rental_uris":{"android":"levelo://app?vid=d1bc3a38-4213-4e05-9512-47794e8b07ef","ios":"levelo://app?vid=d1bc3a38-4213-4e05-9512-47794e8b07ef"},"vehicle_type_id":"4","last_reported":1726489084,"current_range_meters":38800,"station_id":"ce4bgup2rcd13ifvqcn0","pricing_plan_id":"cebpf4jnsgd1na2vs0mg"},{"bike_id":"9048a29f-7cdc-4a5e-a17e-9ff87866c707","system_id":"levelo_inurba_marseille","lat":43.27312,"lon":5.39061,"is_reserved":false,"is_disabled":false,"rental_uris":{"android":"levelo://app?vid=9048a29f-7cdc-4a5e-a17e-9ff87866c707","ios":"levelo://app?vid=9048a29f-7cdc-4a5e-a17e-9ff87866c707"},"vehicle_type_id":"4","last_reported":1726489084,"current_range_meters":26000,"station_id":"ce4bhgp2rcd13ifvqfe0","pricing_plan_id":"cebpf4jnsgd1na2vs0mg"},{"bike_id":"b0acbf32-ebd0-4c07-9eb2-d269404d430d","system_id":"levelo_inurba_marseille","lat":43.298892,"lon":5.397503,"is_reserved":false,"is_disabled":false,"rental_uris":{"android":"levelo://app?vid=b0acbf32-ebd0-4c07-9eb2-d269404d430d","ios":"levelo://app?vid=b0acbf32-ebd0-4c07-9eb2-d269404d430d"},"vehicle_type_id":"4","last_reported":1726489084,"current_range_meters":16000,"station_id":"ce4bh0h2rcd13ifvqd50","pricing_plan_id":"cebpf4jnsgd1na2vs0mg"},{"bike_id":"0027ef22-8840-420c-bed7-83c1a8a843b9","system_id":"levelo_inurba_marseille","lat":43.28364,"lon":5.38634,"is_reserved":false,"is_disabled":false,"rental_uris":{"android":"levelo://app?vid=0027ef22-8840-420c-bed7-83c1a8a843b9","ios":"levelo://app?vid=0027ef22-8840-420c-bed7-83c1a8a843b9"},"vehicle_type_id":"4","last_reported":1726489084,"current_range_meters":38800,"station_id":"ce4bh492rcd13ifvqdvg","pricing_plan_id":"cebpf4jnsgd1na2vs0mg"},{"bike_id":"c836d192-3400-4909-8320-8b8512159f8b","system_id":"levelo_inurba_marseille","lat":43.30303,"lon":5.36904,"is_reserved":false,"is_disabled":false,"rental_uris":{"android":"levelo://app?vid=c836d192-3400-4909-8320-8b8512159f8b","ios":"levelo://app?vid=c836d192-3400-4909-8320-8b8512159f8b"},"vehicle_type_id":"4","last_reported":1726489084,"current_range_meters":34000,"station_id":"ce4bgqh2rcd13ifvqc5g","pricing_plan_id":"cebpf4jnsgd1na2vs0mg"},{"bike_id":"28eebebb-222c-48a7-ba94-5046b8881b0c","system_id":"levelo_inurba_marseille","lat":43.28706,"lon":5.39986,"is_reserved":false,"is_disabled":false,"rental_uris":{"android":"levelo://app?vid=28eebebb-222c-48a7-ba94-5046b8881b0c","ios":"levelo://app?vid=28eebebb-222c-48a7-ba94-5046b8881b0c"},"vehicle_type_id":"4","last_reported":1726489084,"current_range_meters":39200,"station_id":"ce4bho92rcd13ifvqh3g","pricing_plan_id":"cebpf4jnsgd1na2vs0mg"},{"bike_id":"833d2529-c97a-4d7b-962d-a364f2c29687","system_id":"levelo_inurba_marseille","lat":43.23144,"lon":5.43714,"is_reserved":false,"is_disabled":false,"rental_uris":{"android":"levelo://app?vid=833d2529-c97a-4d7b-962d-a364f2c29687","ios":"levelo://app?vid=833d2529-c97a-4d7b-962d-a364f2c29687"},"vehicle_type_id":"4","last_reported":1726489084,"current_range_meters":9600,"station_id":"ce4bhmp2rcd13ifvqgog","pricing_plan_id":"cebpf4jnsgd1na2vs0mg"},{"bike_id":"f74619c4-72fa-40ba-8d01-1664c0bd9fa2","system_id":"levelo_inurba_marseille","lat":43.25085,"lon":5.39504,"is_reserved":false,"is_disabled":false,"rental_uris":{"android":"levelo://app?vid=f74619c4-72fa-40ba-8d01-1664c0bd9fa2","ios":"levelo://app?vid=f74619c4-72fa-40ba-8d01-1664c0bd9fa2"},"vehicle_type_id":"4","last_reported":1726489084,"current_range_meters":9600,"station_id":"ce4bhm12rcd13ifvqgkg","pricing_plan_id":"cebpf4jnsgd1na2vs0mg"},{"bike_id":"e25e6425-641a-4d6a-beeb-77dcbbfb6d43","system_id":"levelo_inurba_marseille","lat":43.30217,"lon":5.39471,"is_reserved":false,"is_disabled":false,"rental_uris":{"android":"levelo://app?vid=e25e6425-641a-4d6a-beeb-77dcbbfb6d43","ios":"levelo://app?vid=e25e6425-641a-4d6a-beeb-77dcbbfb6d43"},"vehicle_type_id":"4","last_reported":1726489084,"current_range_meters":36000,"station_id":"ce4bh0p2rcd13ifvqd70","pricing_plan_id":"cebpf4jnsgd1na2vs0mg"},{"bike_id":"352cc108-92f7-4ac2-98c9-c4f7714f9f3f","system_id":"levelo_inurba_marseille","lat":43.25931,"lon":5.40912,"is_reserved":false,"is_disabled":false,"rental_uris":{"android":"levelo://app?vid=352cc108-92f7-4ac2-98c9-c4f7714f9f3f","ios":"levelo://app?vid=352cc108-92f7-4ac2-98c9-c4f7714f9f3f"},"vehicle_type_id":"4","last_reported":1726489084,"current_range_meters":33200,"station_id":"ce4bhm92rcd13ifvqglg","pricing_plan_id":"cebpf4jnsgd1na2vs0mg"},{"bike_id":"b48a49d7-5bb7-4f04-a799-3947e46d1142","system_id":"levelo_inurba_marseille","lat":43.2979,"lon":5.39338,"is_reserved":false,"is_disabled":false,"rental_uris":{"android":"levelo://app?vid=b48a49d7-5bb7-4f04-a799-3947e46d1142","ios":"levelo://app?vid=b48a49d7-5bb7-4f04-a799-3947e46d1142"},"vehicle_type_id":"4","last_reported":1726489084,"current_range_meters":25600,"station_id":"chh1huq6cuj3fo74tm60","pricing_plan_id":"cebpf4jnsgd1na2vs0mg"},{"bike_id":"b9698a86-1ec3-4eed-ac6f-4fc5121a02f0","system_id":"levelo_inurba_marseille","lat":43.30551,"lon":5.36694,"is_reserved":false,"is_disabled":false,"rental_uris":{"android":"levelo://app?vid=b9698a86-1ec3-4eed-ac6f-4fc5121a02f0","ios":"levelo://app?vid=b9698a86-1ec3-4eed-ac6f-4fc5121a02f0"},"vehicle_type_id":"4","last_reported":1726489084,"current_range_meters":38800,"station_id":"ce4bgrp2rcd13ifvqc9g","pricing_plan_id":"cebpf4jnsgd1na2vs0mg"},{"bike_id":"f79ff168-7c1f-43a6-9a48-819ae1e3b151","system_id":"levelo_inurba_marseille","lat":43.24076,"lon":5.3775,"is_reserved":false,"is_disabled":false,"rental_uris":{"android":"levelo://app?vid=f79ff168-7c1f-43a6-9a48-819ae1e3b151","ios":"levelo://app?vid=f79ff168-7c1f-43a6-9a48-819ae1e3b151"},"vehicle_type_id":"4","last_reported":1726489084,"current_range_meters":8400,"station_id":"ce4bhnp2rcd13ifvqgvg","pricing_plan_id":"cebpf4jnsgd1na2vs0mg"},{"bike_id":"2e3fa3c1-55aa-4e86-bd3e-7bdc4a6b47ac","system_id":"levelo_inurba_marseille","lat":43.275,"lon":5.42459,"is_reserved":false,"is_disabled":false,"rental_uris":{"android":"levelo://app?vid=2e3fa3c1-55aa-4e86-bd3e-7bdc4a6b47ac","ios":"levelo://app?vid=2e3fa3c1-55aa-4e86-bd3e-7bdc4a6b47ac"},"vehicle_type_id":"4","last_reported":1726489084,"current_range_meters":33200,"station_id":"ce4bhn92rcd13ifvqgrg","pricing_plan_id":"cebpf4jnsgd1na2vs0mg"},{"bike_id":"b1ab53f4-c252-4ede-a524-cbb2be02e060","system_id":"levelo_inurba_marseille","lat":43.29041,"lon":5.39959,"is_reserved":false,"is_disabled":false,"rental_uris":{"android":"levelo://app?vid=b1ab53f4-c252-4ede-a524-cbb2be02e060","ios":"levelo://app?vid=b1ab53f4-c252-4ede-a524-cbb2be02e060"},"vehicle_type_id":"4","last_reported":1726489084,"current_range_meters":26000,"station_id":"ce4bh392rcd13ifvqdm0","pricing_plan_id":"cebpf4jnsgd1na2vs0mg"},{"bike_id":"a6b6903a-771f-44bd-b668-bedff5241a0f","system_id":"levelo_inurba_marseille","lat":43.313133,"lon":5.396952,"is_reserved":false,"is_disabled":false,"rental_uris":{"android":"levelo://app?vid=a6b6903a-771f-44bd-b668-bedff5241a0f","ios":"levelo://app?vid=a6b6903a-771f-44bd-b668-bedff5241a0f"},"vehicle_type_id":"4","last_reported":1726489084,"current_range_meters":19600,"station_id":"ce4bgvp2rcd13ifvqcu0","pricing_plan_id":"cebpf4jnsgd1na2vs0mg"},{"bike_id":"2970d401-b243-4621-aaa6-4368874c4df8","system_id":"levelo_inurba_marseille","lat":43.25115,"lon":5.40324,"is_reserved":false,"is_disabled":false,"rental_uris":{"android":"levelo://app?vid=2970d401-b243-4621-aaa6-4368874c4df8","ios":"levelo://app?vid=2970d401-b243-4621-aaa6-4368874c4df8"},"vehicle_type_id":"4","last_reported":1726489084,"current_range_meters":6800,"station_id":"ce4bhlh2rcd13ifvqgig","pricing_plan_id":"cebpf4jnsgd1na2vs0mg"},{"bike_id":"a7649358-7b1e-4e20-b463-599f4ff8067d","system_id":"levelo_inurba_marseille","lat":43.25011,"lon":5.38917,"is_reserved":false,"is_disabled":false,"rental_uris":{"android":"levelo://app?vid=a7649358-7b1e-4e20-b463-599f4ff8067d","ios":"levelo://app?vid=a7649358-7b1e-4e20-b463-599f4ff8067d"},"vehicle_type_id":"4","last_reported":1726489084,"current_range_meters":34800,"station_id":"ce4bhgp2rcd13ifvqfd0","pricing_plan_id":"cebpf4jnsgd1na2vs0mg"},{"bike_id":"e5f00a14-dff4-44a8-93db-b62a037fe306","system_id":"levelo_inurba_marseille","lat":43.3055,"lon":5.36694,"is_reserved":false,"is_disabled":false,"rental_uris":{"android":"levelo://app?vid=e5f00a14-dff4-44a8-93db-b62a037fe306","ios":"levelo://app?vid=e5f00a14-dff4-44a8-93db-b62a037fe306"},"vehicle_type_id":"4","last_reported":1726489084,"current_range_meters":25600,"station_id":"ce4bgrp2rcd13ifvqc9g","pricing_plan_id":"cebpf4jnsgd1na2vs0mg"},{"bike_id":"b0076467-af2c-4620-88b9-aa243dc895fc","system_id":"levelo_inurba_marseille","lat":43.29932,"lon":5.36535,"is_reserved":false,"is_disabled":false,"rental_uris":{"android":"levelo://app?vid=b0076467-af2c-4620-88b9-aa243dc895fc","ios":"levelo://app?vid=b0076467-af2c-4620-88b9-aa243dc895fc"},"vehicle_type_id":"4","last_reported":1726489084,"current_range_meters":27600,"station_id":"ce4bgm92rcd13ifvqbr0","pricing_plan_id":"cebpf4jnsgd1na2vs0mg"},{"bike_id":"f8c32fca-eed7-4c18-bff6-8c260d3547d7","system_id":"levelo_inurba_marseille","lat":43.24085,"lon":5.37747,"is_reserved":false,"is_disabled":false,"rental_uris":{"android":"levelo://app?vid=f8c32fca-eed7-4c18-bff6-8c260d3547d7","ios":"levelo://app?vid=f8c32fca-eed7-4c18-bff6-8c260d3547d7"},"vehicle_type_id":"4","last_reported":1726489084,"current_range_meters":11200,"station_id":"ce4bhnp2rcd13ifvqgvg","pricing_plan_id":"cebpf4jnsgd1na2vs0mg"},{"bike_id":"c7f93bf2-2b30-4c5c-aa72-447b3f4a28ea","system_id":"levelo_inurba_marseille","lat":43.29897,"lon":5.4367,"is_reserved":false,"is_disabled":false,"rental_uris":{"android":"levelo://app?vid=c7f93bf2-2b30-4c5c-aa72-447b3f4a28ea","ios":"levelo://app?vid=c7f93bf2-2b30-4c5c-aa72-447b3f4a28ea"},"vehicle_type_id":"4","last_reported":1726489084,"current_range_meters":16000,"station_id":"ce4bhpp2rcd13ifvqhfg","pricing_plan_id":"cebpf4jnsgd1na2vs0mg"},{"bike_id":"fc999514-fe02-4992-8c16-8a41f694f574","system_id":"levelo_inurba_marseille","lat":43.28574,"lon":5.39505,"is_reserved":false,"is_disabled":false,"rental_uris":{"android":"levelo://app?vid=fc999514-fe02-4992-8c16-8a41f694f574","ios":"levelo://app?vid=fc999514-fe02-4992-8c16-8a41f694f574"},"vehicle_type_id":"4","last_reported":1726489084,"current_range_meters":37600,"station_id":"ce4bh292rcd13ifvqdg0","pricing_plan_id":"cebpf4jnsgd1na2vs0mg"},{"bike_id":"6b26293e-20ec-4112-913d-f2cd106998ff","system_id":"levelo_inurba_marseille","lat":43.29268,"lon":5.38458,"is_reserved":false,"is_disabled":false,"rental_uris":{"android":"levelo://app?vid=6b26293e-20ec-4112-913d-f2cd106998ff","ios":"levelo://app?vid=6b26293e-20ec-4112-913d-f2cd106998ff"},"vehicle_type_id":"4","last_reported":1726489084,"current_range_meters":17200,"station_id":"ce4bh692rcd13ifvqea0","pricing_plan_id":"cebpf4jnsgd1na2vs0mg"},{"bike_id":"26db0265-0a91-4c66-8aa8-67a94f7eef0d","system_id":"levelo_inurba_marseille","lat":43.26935,"lon":5.40053,"is_reserved":false,"is_disabled":false,"rental_uris":{"android":"levelo://app?vid=26db0265-0a91-4c66-8aa8-67a94f7eef0d","ios":"levelo://app?vid=26db0265-0a91-4c66-8aa8-67a94f7eef0d"},"vehicle_type_id":"4","last_reported":1726489084,"current_range_meters":4400,"station_id":"","pricing_plan_id":"cebpf4jnsgd1na2vs0mg"},{"bike_id":"f837a508-ded8-48f0-8fa5-451d633960b3","system_id":"levelo_inurba_marseille","lat":43.29782,"lon":5.37088,"is_reserved":false,"is_disabled":false,"rental_uris":{"android":"levelo://app?vid=f837a508-ded8-48f0-8fa5-451d633960b3","ios":"levelo://app?vid=f837a508-ded8-48f0-8fa5-451d633960b3"},"vehicle_type_id":"4","last_reported":1726489084,"current_range_meters":38000,"station_id":"ce4bgop2rcd13ifvqc1g","pricing_plan_id":"cebpf4jnsgd1na2vs0mg"},{"bike_id":"49b20a4a-88ba-4e27-8c12-a5c427e7dfa4","system_id":"levelo_inurba_marseille","lat":43.27175,"lon":5.40992,"is_reserved":false,"is_disabled":false,"rental_uris":{"android":"levelo://app?vid=49b20a4a-88ba-4e27-8c12-a5c427e7dfa4","ios":"levelo://app?vid=49b20a4a-88ba-4e27-8c12-a5c427e7dfa4"},"vehicle_type_id":"4","last_reported":1726489084,"current_range_meters":30400,"station_id":"ce4bhl12rcd13ifvqgf0","pricing_plan_id":"cebpf4jnsgd1na2vs0mg"},{"bike_id":"82a82c93-5294-4a51-b30f-59e859a904cf","system_id":"levelo_inurba_marseille","lat":43.309518,"lon":5.390302,"is_reserved":false,"is_disabled":false,"rental_uris":{"android":"levelo://app?vid=82a82c93-5294-4a51-b30f-59e859a904cf","ios":"levelo://app?vid=82a82c93-5294-4a51-b30f-59e859a904cf"},"vehicle_type_id":"4","last_reported":1726489084,"current_range_meters":8800,"station_id":"ce4bgup2rcd13ifvqcn0","pricing_plan_id":"cebpf4jnsgd1na2vs0mg"},{"bike_id":"77557f98-8af8-4115-8b75-af6e43f0f25f","system_id":"levelo_inurba_marseille","lat":43.26571,"lon":5.39003,"is_reserved":false,"is_disabled":false,"rental_uris":{"android":"levelo://app?vid=77557f98-8af8-4115-8b75-af6e43f0f25f","ios":"levelo://app?vid=77557f98-8af8-4115-8b75-af6e43f0f25f"},"vehicle_type_id":"4","last_reported":1726489084,"current_range_meters":23200,"station_id":"ce4bhe12rcd13ifvqf30","pricing_plan_id":"cebpf4jnsgd1na2vs0mg"},{"bike_id":"3da3c33e-4efe-4c0e-940d-abbd87035cc5","system_id":"levelo_inurba_marseille","lat":43.284181,"lon":5.374996,"is_reserved":false,"is_disabled":false,"rental_uris":{"android":"levelo://app?vid=3da3c33e-4efe-4c0e-940d-abbd87035cc5","ios":"levelo://app?vid=3da3c33e-4efe-4c0e-940d-abbd87035cc5"},"vehicle_type_id":"4","last_reported":1726489084,"current_range_meters":17200,"station_id":"ce4bh412rcd13ifvqds0","pricing_plan_id":"cebpf4jnsgd1na2vs0mg"},{"bike_id":"309c51a6-dc88-4a59-a6d9-a8a9cfc51a1b","system_id":"levelo_inurba_marseille","lat":43.24072,"lon":5.37755,"is_reserved":false,"is_disabled":false,"rental_uris":{"android":"levelo://app?vid=309c51a6-dc88-4a59-a6d9-a8a9cfc51a1b","ios":"levelo://app?vid=309c51a6-dc88-4a59-a6d9-a8a9cfc51a1b"},"vehicle_type_id":"4","last_reported":1726489084,"current_range_meters":27600,"station_id":"ce4bhnp2rcd13ifvqgvg","pricing_plan_id":"cebpf4jnsgd1na2vs0mg"},{"bike_id":"d65c0a74-b30f-450b-83b4-fc8d51b3a7b7","system_id":"levelo_inurba_marseille","lat":43.295008,"lon":5.386266,"is_reserved":false,"is_disabled":false,"rental_uris":{"android":"levelo://app?vid=d65c0a74-b30f-450b-83b4-fc8d51b3a7b7","ios":"levelo://app?vid=d65c0a74-b30f-450b-83b4-fc8d51b3a7b7"},"vehicle_type_id":"4","last_reported":1726489084,"current_range_meters":16000,"station_id":"ce4bgih2rcd13ifvqba0","pricing_plan_id":"cebpf4jnsgd1na2vs0mg"},{"bike_id":"4153cc51-d4e8-4e56-a8fd-c1a04ecf3fa7","system_id":"levelo_inurba_marseille","lat":43.29963,"lon":5.41322,"is_reserved":false,"is_disabled":false,"rental_uris":{"android":"levelo://app?vid=4153cc51-d4e8-4e56-a8fd-c1a04ecf3fa7","ios":"levelo://app?vid=4153cc51-d4e8-4e56-a8fd-c1a04ecf3fa7"},"vehicle_type_id":"4","last_reported":1726489084,"current_range_meters":35200,"station_id":"ce4bhp12rcd13ifvqh9g","pricing_plan_id":"cebpf4jnsgd1na2vs0mg"},{"bike_id":"704bd4ff-c6ae-4fcf-a83a-81202466c629","system_id":"levelo_inurba_marseille","lat":43.2996,"lon":5.41327,"is_reserved":false,"is_disabled":false,"rental_uris":{"android":"levelo://app?vid=704bd4ff-c6ae-4fcf-a83a-81202466c629","ios":"levelo://app?vid=704bd4ff-c6ae-4fcf-a83a-81202466c629"},"vehicle_type_id":"4","last_reported":1726489084,"current_range_meters":19600,"station_id":"ce4bhp12rcd13ifvqh9g","pricing_plan_id":"cebpf4jnsgd1na2vs0mg"},{"bike_id":"8cb592d9-f82f-4171-894f-8d7ffa6525e5","system_id":"levelo_inurba_marseille","lat":43.23205,"lon":5.35544,"is_reserved":false,"is_disabled":false,"rental_uris":{"android":"levelo://app?vid=8cb592d9-f82f-4171-894f-8d7ffa6525e5","ios":"levelo://app?vid=8cb592d9-f82f-4171-894f-8d7ffa6525e5"},"vehicle_type_id":"4","last_reported":1726489084,"current_range_meters":25200,"station_id":"ce4bhu92rcd13ifvqi70","pricing_plan_id":"cebpf4jnsgd1na2vs0mg"},{"bike_id":"4c91f91f-47f9-4d7e-afc2-2374121c44b5","system_id":"levelo_inurba_marseille","lat":43.27182,"lon":5.40996,"is_reserved":false,"is_disabled":false,"rental_uris":{"android":"levelo://app?vid=4c91f91f-47f9-4d7e-afc2-2374121c44b5","ios":"levelo://app?vid=4c91f91f-47f9-4d7e-afc2-2374121c44b5"},"vehicle_type_id":"4","last_reported":1726489084,"current_range_meters":32000,"station_id":"ce4bhl12rcd13ifvqgf0","pricing_plan_id":"cebpf4jnsgd1na2vs0mg"},{"bike_id":"79752fd1-c487-410d-a206-6bc206b43c4f","system_id":"levelo_inurba_marseille","lat":43.30149,"lon":5.37414,"is_reserved":false,"is_disabled":false,"rental_uris":{"android":"levelo://app?vid=79752fd1-c487-410d-a206-6bc206b43c4f","ios":"levelo://app?vid=79752fd1-c487-410d-a206-6bc206b43c4f"},"vehicle_type_id":"4","last_reported":1726489084,"current_range_meters":33200,"station_id":"ce4bgs92rcd13ifvqcc0","pricing_plan_id":"cebpf4jnsgd1na2vs0mg"},{"bike_id":"e8577ff1-e7d5-4bd8-af09-a820a63b8b50","system_id":"levelo_inurba_marseille","lat":43.33023,"lon":5.39036,"is_reserved":false,"is_disabled":false,"rental_uris":{"android":"levelo://app?vid=e8577ff1-e7d5-4bd8-af09-a820a63b8b50","ios":"levelo://app?vid=e8577ff1-e7d5-4bd8-af09-a820a63b8b50"},"vehicle_type_id":"4","last_reported":1726489084,"current_range_meters":20000,"station_id":"ce4bhr92rcd13ifvqhrg","pricing_plan_id":"cebpf4jnsgd1na2vs0mg"},{"bike_id":"4199e491-1515-41ac-9082-2d904e223b88","system_id":"levelo_inurba_marseille","lat":43.29035,"lon":5.35932,"is_reserved":false,"is_disabled":false,"rental_uris":{"android":"levelo://app?vid=4199e491-1515-41ac-9082-2d904e223b88","ios":"levelo://app?vid=4199e491-1515-41ac-9082-2d904e223b88"},"vehicle_type_id":"4","last_reported":1726489084,"current_range_meters":30400,"station_id":"ce4bha92rcd13ifvqeg0","pricing_plan_id":"cebpf4jnsgd1na2vs0mg"},{"bike_id":"1837b543-2499-40f5-b47e-4f33c76f3c21","system_id":"levelo_inurba_marseille","lat":43.2841,"lon":5.375099,"is_reserved":false,"is_disabled":false,"rental_uris":{"android":"levelo://app?vid=1837b543-2499-40f5-b47e-4f33c76f3c21","ios":"levelo://app?vid=1837b543-2499-40f5-b47e-4f33c76f3c21"},"vehicle_type_id":"4","last_reported":1726489084,"current_range_meters":16000,"station_id":"ce4bh412rcd13ifvqds0","pricing_plan_id":"cebpf4jnsgd1na2vs0mg"},{"bike_id":"bfc84ad0-1732-4936-a47c-389e90f81a6a","system_id":"levelo_inurba_marseille","lat":43.28946,"lon":5.36632,"is_reserved":false,"is_disabled":false,"rental_uris":{"android":"levelo://app?vid=bfc84ad0-1732-4936-a47c-389e90f81a6a","ios":"levelo://app?vid=bfc84ad0-1732-4936-a47c-389e90f81a6a"},"vehicle_type_id":"4","last_reported":1726489084,"current_range_meters":23200,"station_id":"ce4bhap2rcd13ifvqek0","pricing_plan_id":"cebpf4jnsgd1na2vs0mg"},{"bike_id":"6805348a-5a0e-4c7d-bd84-6acfcc80c643","system_id":"levelo_inurba_marseille","lat":43.295197,"lon":5.387006,"is_reserved":false,"is_disabled":false,"rental_uris":{"android":"levelo://app?vid=6805348a-5a0e-4c7d-bd84-6acfcc80c643","ios":"levelo://app?vid=6805348a-5a0e-4c7d-bd84-6acfcc80c643"},"vehicle_type_id":"4","last_reported":1726489084,"current_range_meters":13600,"station_id":"ce4bh2h2rcd13ifvqdh0","pricing_plan_id":"cebpf4jnsgd1na2vs0mg"},{"bike_id":"23af3e5f-c4dd-433e-9385-25485af76f31","system_id":"levelo_inurba_marseille","lat":43.32483,"lon":5.36566,"is_reserved":false,"is_disabled":false,"rental_uris":{"android":"levelo://app?vid=23af3e5f-c4dd-433e-9385-25485af76f31","ios":"levelo://app?vid=23af3e5f-c4dd-433e-9385-25485af76f31"},"vehicle_type_id":"4","last_reported":1726489084,"current_range_meters":18800,"station_id":"ce4bhs12rcd13ifvqhvg","pricing_plan_id":"cebpf4jnsgd1na2vs0mg"},{"bike_id":"9c25d7f9-3117-44f1-acec-713cdafffebf","system_id":"levelo_inurba_marseille","lat":43.3415,"lon":5.40915,"is_reserved":false,"is_disabled":false,"rental_uris":{"android":"levelo://app?vid=9c25d7f9-3117-44f1-acec-713cdafffebf","ios":"levelo://app?vid=9c25d7f9-3117-44f1-acec-713cdafffebf"},"vehicle_type_id":"4","last_reported":1726489084,"current_range_meters":33200,"station_id":"ce4bhqh2rcd13ifvqhlg","pricing_plan_id":"cebpf4jnsgd1na2vs0mg"},{"bike_id":"ee03414a-b8c4-44ac-abb8-99721675b523","system_id":"levelo_inurba_marseille","lat":43.28711,"lon":5.37946,"is_reserved":false,"is_disabled":false,"rental_uris":{"android":"levelo://app?vid=ee03414a-b8c4-44ac-abb8-99721675b523","ios":"levelo://app?vid=ee03414a-b8c4-44ac-abb8-99721675b523"},"vehicle_type_id":"4","last_reported":1726489084,"current_range_meters":36800,"station_id":"ce4bh9p2rcd13ifvqec0","pricing_plan_id":"cebpf4jnsgd1na2vs0mg"},{"bike_id":"3e3ff3a6-6614-480d-b38b-a276f7604b95","system_id":"levelo_inurba_marseille","lat":43.30798,"lon":5.37657,"is_reserved":false,"is_disabled":false,"rental_uris":{"android":"levelo://app?vid=3e3ff3a6-6614-480d-b38b-a276f7604b95","ios":"levelo://app?vid=3e3ff3a6-6614-480d-b38b-a276f7604b95"},"vehicle_type_id":"4","last_reported":1726489084,"current_range_meters":35200,"station_id":"ce4bgv92rcd13ifvqcq0","pricing_plan_id":"cebpf4jnsgd1na2vs0mg"},{"bike_id":"b1db6496-7d7b-4acc-a88c-e5406d38e100","system_id":"levelo_inurba_marseille","lat":43.23191,"lon":5.35552,"is_reserved":false,"is_disabled":false,"rental_uris":{"android":"levelo://app?vid=b1db6496-7d7b-4acc-a88c-e5406d38e100","ios":"levelo://app?vid=b1db6496-7d7b-4acc-a88c-e5406d38e100"},"vehicle_type_id":"4","last_reported":1726489084,"current_range_meters":32000,"station_id":"ce4bhu92rcd13ifvqi70","pricing_plan_id":"cebpf4jnsgd1na2vs0mg"},{"bike_id":"a45e584f-45ef-40d2-91fe-95472d347909","system_id":"levelo_inurba_marseille","lat":43.24552,"lon":5.39517,"is_reserved":false,"is_disabled":false,"rental_uris":{"android":"levelo://app?vid=a45e584f-45ef-40d2-91fe-95472d347909","ios":"levelo://app?vid=a45e584f-45ef-40d2-91fe-95472d347909"},"vehicle_type_id":"4","last_reported":1726489084,"current_range_meters":22400,"station_id":"ce4bhlp2rcd13ifvqgjg","pricing_plan_id":"cebpf4jnsgd1na2vs0mg"},{"bike_id":"ee721f16-71d0-49c8-9da4-858f78b55bcb","system_id":"levelo_inurba_marseille","lat":43.25944,"lon":5.40894,"is_reserved":false,"is_disabled":false,"rental_uris":{"android":"levelo://app?vid=ee721f16-71d0-49c8-9da4-858f78b55bcb","ios":"levelo://app?vid=ee721f16-71d0-49c8-9da4-858f78b55bcb"},"vehicle_type_id":"4","last_reported":1726489084,"current_range_meters":20400,"station_id":"ce4bhm92rcd13ifvqglg","pricing_plan_id":"cebpf4jnsgd1na2vs0mg"},{"bike_id":"d0d98569-4684-457d-b8c1-a6ed6dcc71d0","system_id":"levelo_inurba_marseille","lat":43.337444,"lon":5.374475,"is_reserved":false,"is_disabled":false,"rental_uris":{"android":"levelo://app?vid=d0d98569-4684-457d-b8c1-a6ed6dcc71d0","ios":"levelo://app?vid=d0d98569-4684-457d-b8c1-a6ed6dcc71d0"},"vehicle_type_id":"4","last_reported":1726489084,"current_range_meters":37600,"station_id":"ce4bh0h2rcd13ifvqd50","pricing_plan_id":"cebpf4jnsgd1na2vs0mg"},{"bike_id":"673c1b5e-9443-4dc4-bb54-52e29ea0abc7","system_id":"levelo_inurba_marseille","lat":43.23149,"lon":5.43721,"is_reserved":false,"is_disabled":false,"rental_uris":{"android":"levelo://app?vid=673c1b5e-9443-4dc4-bb54-52e29ea0abc7","ios":"levelo://app?vid=673c1b5e-9443-4dc4-bb54-52e29ea0abc7"},"vehicle_type_id":"4","last_reported":1726489084,"current_range_meters":32800,"station_id":"ce4bhmp2rcd13ifvqgog","pricing_plan_id":"cebpf4jnsgd1na2vs0mg"},{"bike_id":"5cf4c2f1-f092-4550-b8cf-369099ebc3bc","system_id":"levelo_inurba_marseille","lat":43.24564,"lon":5.41549,"is_reserved":false,"is_disabled":false,"rental_uris":{"android":"levelo://app?vid=5cf4c2f1-f092-4550-b8cf-369099ebc3bc","ios":"levelo://app?vid=5cf4c2f1-f092-4550-b8cf-369099ebc3bc"},"vehicle_type_id":"4","last_reported":1726489084,"current_range_meters":8800,"station_id":"ce4bhlh2rcd13ifvqgig","pricing_plan_id":"cebpf4jnsgd1na2vs0mg"},{"bike_id":"9e34bbbc-9120-4d2c-95e0-ad627e80a5f5","system_id":"levelo_inurba_marseille","lat":43.273778,"lon":5.362604,"is_reserved":false,"is_disabled":false,"rental_uris":{"android":"levelo://app?vid=9e34bbbc-9120-4d2c-95e0-ad627e80a5f5","ios":"levelo://app?vid=9e34bbbc-9120-4d2c-95e0-ad627e80a5f5"},"vehicle_type_id":"4","last_reported":1726489084,"current_range_meters":18800,"station_id":"ce4bgip2rcd13ifvqbb0","pricing_plan_id":"cebpf4jnsgd1na2vs0mg"},{"bike_id":"4721e0a5-8c0a-4c61-91fb-10c3ba183135","system_id":"levelo_inurba_marseille","lat":43.24079,"lon":5.3776,"is_reserved":false,"is_disabled":false,"rental_uris":{"android":"levelo://app?vid=4721e0a5-8c0a-4c61-91fb-10c3ba183135","ios":"levelo://app?vid=4721e0a5-8c0a-4c61-91fb-10c3ba183135"},"vehicle_type_id":"4","last_reported":1726489084,"current_range_meters":8800,"station_id":"ce4bhnp2rcd13ifvqgvg","pricing_plan_id":"cebpf4jnsgd1na2vs0mg"},{"bike_id":"6fabb23b-c151-4316-b1e0-1bde8d668b8c","system_id":"levelo_inurba_marseille","lat":43.24391,"lon":5.37055,"is_reserved":false,"is_disabled":false,"rental_uris":{"android":"levelo://app?vid=6fabb23b-c151-4316-b1e0-1bde8d668b8c","ios":"levelo://app?vid=6fabb23b-c151-4316-b1e0-1bde8d668b8c"},"vehicle_type_id":"4","last_reported":1726489084,"current_range_meters":8400,"station_id":"ce4bhhh2rcd13ifvqfk0","pricing_plan_id":"cebpf4jnsgd1na2vs0mg"},{"bike_id":"223bcd1f-bde5-46f7-ab5f-e5751f9d998e","system_id":"levelo_inurba_marseille","lat":43.3055,"lon":5.36696,"is_reserved":false,"is_disabled":false,"rental_uris":{"android":"levelo://app?vid=223bcd1f-bde5-46f7-ab5f-e5751f9d998e","ios":"levelo://app?vid=223bcd1f-bde5-46f7-ab5f-e5751f9d998e"},"vehicle_type_id":"4","last_reported":1726489084,"current_range_meters":20800,"station_id":"ce4bgrp2rcd13ifvqc9g","pricing_plan_id":"cebpf4jnsgd1na2vs0mg"},{"bike_id":"b08950ba-02a0-46d4-8c68-863f0b3477e8","system_id":"levelo_inurba_marseille","lat":43.32477,"lon":5.36551,"is_reserved":false,"is_disabled":false,"rental_uris":{"android":"levelo://app?vid=b08950ba-02a0-46d4-8c68-863f0b3477e8","ios":"levelo://app?vid=b08950ba-02a0-46d4-8c68-863f0b3477e8"},"vehicle_type_id":"4","last_reported":1726489084,"current_range_meters":37600,"station_id":"ce4bhs12rcd13ifvqhvg","pricing_plan_id":"cebpf4jnsgd1na2vs0mg"},{"bike_id":"b2f9af2e-d3cf-41ca-b4db-c95e29d06775","system_id":"levelo_inurba_marseille","lat":43.28161,"lon":5.42638,"is_reserved":false,"is_disabled":false,"rental_uris":{"android":"levelo://app?vid=b2f9af2e-d3cf-41ca-b4db-c95e29d06775","ios":"levelo://app?vid=b2f9af2e-d3cf-41ca-b4db-c95e29d06775"},"vehicle_type_id":"4","last_reported":1726489084,"current_range_meters":10000,"station_id":"ce4bhnh2rcd13ifvqgug","pricing_plan_id":"cebpf4jnsgd1na2vs0mg"},{"bike_id":"b645ac77-0d58-4fa9-8ad3-947af8bdb1d9","system_id":"levelo_inurba_marseille","lat":43.29899,"lon":5.43659,"is_reserved":false,"is_disabled":false,"rental_uris":{"android":"levelo://app?vid=b645ac77-0d58-4fa9-8ad3-947af8bdb1d9","ios":"levelo://app?vid=b645ac77-0d58-4fa9-8ad3-947af8bdb1d9"},"vehicle_type_id":"4","last_reported":1726489084,"current_range_meters":28800,"station_id":"ce4bhpp2rcd13ifvqhfg","pricing_plan_id":"cebpf4jnsgd1na2vs0mg"},{"bike_id":"03515e55-0de8-4f6d-953a-abbf71a9cce4","system_id":"levelo_inurba_marseille","lat":43.24075,"lon":5.37758,"is_reserved":false,"is_disabled":false,"rental_uris":{"android":"levelo://app?vid=03515e55-0de8-4f6d-953a-abbf71a9cce4","ios":"levelo://app?vid=03515e55-0de8-4f6d-953a-abbf71a9cce4"},"vehicle_type_id":"4","last_reported":1726489084,"current_range_meters":11200,"station_id":"ce4bhnp2rcd13ifvqgvg","pricing_plan_id":"cebpf4jnsgd1na2vs0mg"},{"bike_id":"e2c52835-2b67-4d84-885a-6c66b6a1bdf4","system_id":"levelo_inurba_marseille","lat":43.28935,"lon":5.36635,"is_reserved":false,"is_disabled":false,"rental_uris":{"android":"levelo://app?vid=e2c52835-2b67-4d84-885a-6c66b6a1bdf4","ios":"levelo://app?vid=e2c52835-2b67-4d84-885a-6c66b6a1bdf4"},"vehicle_type_id":"4","last_reported":1726489084,"current_range_meters":17600,"station_id":"ce4bhap2rcd13ifvqek0","pricing_plan_id":"cebpf4jnsgd1na2vs0mg"},{"bike_id":"59e66fcd-2117-48e8-8aad-05dcb04e4ce5","system_id":"levelo_inurba_marseille","lat":43.31369,"lon":5.38482,"is_reserved":false,"is_disabled":false,"rental_uris":{"android":"levelo://app?vid=59e66fcd-2117-48e8-8aad-05dcb04e4ce5","ios":"levelo://app?vid=59e66fcd-2117-48e8-8aad-05dcb04e4ce5"},"vehicle_type_id":"4","last_reported":1726489084,"current_range_meters":36400,"station_id":"ce4bgt92rcd13ifvqcf0","pricing_plan_id":"cebpf4jnsgd1na2vs0mg"},{"bike_id":"860be027-f33f-4df5-a0ec-bba6a6cfa7b3","system_id":"levelo_inurba_marseille","lat":43.3054,"lon":5.36701,"is_reserved":false,"is_disabled":false,"rental_uris":{"android":"levelo://app?vid=860be027-f33f-4df5-a0ec-bba6a6cfa7b3","ios":"levelo://app?vid=860be027-f33f-4df5-a0ec-bba6a6cfa7b3"},"vehicle_type_id":"4","last_reported":1726489084,"current_range_meters":14400,"station_id":"ce4bgrp2rcd13ifvqc9g","pricing_plan_id":"cebpf4jnsgd1na2vs0mg"},{"bike_id":"7abc2a25-404a-4f70-a7c0-c89315b5c4bc","system_id":"levelo_inurba_marseille","lat":43.29063,"lon":5.40563,"is_reserved":false,"is_disabled":false,"rental_uris":{"android":"levelo://app?vid=7abc2a25-404a-4f70-a7c0-c89315b5c4bc","ios":"levelo://app?vid=7abc2a25-404a-4f70-a7c0-c89315b5c4bc"},"vehicle_type_id":"4","last_reported":1726489084,"current_range_meters":26800,"station_id":"","pricing_plan_id":"cebpf4jnsgd1na2vs0mg"},{"bike_id":"a5306699-aa7b-4204-b727-7976ba1e747b","system_id":"levelo_inurba_marseille","lat":43.25936,"lon":5.40902,"is_reserved":false,"is_disabled":false,"rental_uris":{"android":"levelo://app?vid=a5306699-aa7b-4204-b727-7976ba1e747b","ios":"levelo://app?vid=a5306699-aa7b-4204-b727-7976ba1e747b"},"vehicle_type_id":"4","last_reported":1726489084,"current_range_meters":35600,"station_id":"ce4bhm92rcd13ifvqglg","pricing_plan_id":"cebpf4jnsgd1na2vs0mg"},{"bike_id":"5e7ff985-6410-408c-bdac-31879f5ca033","system_id":"levelo_inurba_marseille","lat":43.27677,"lon":5.38873,"is_reserved":false,"is_disabled":false,"rental_uris":{"android":"levelo://app?vid=5e7ff985-6410-408c-bdac-31879f5ca033","ios":"levelo://app?vid=5e7ff985-6410-408c-bdac-31879f5ca033"},"vehicle_type_id":"4","last_reported":1726489084,"current_range_meters":27600,"station_id":"ce4bhi12rcd13ifvqfo0","pricing_plan_id":"cebpf4jnsgd1na2vs0mg"},{"bike_id":"677498c9-746b-4650-9a8e-2c7479635944","system_id":"levelo_inurba_marseille","lat":43.33022,"lon":5.3905,"is_reserved":false,"is_disabled":false,"rental_uris":{"android":"levelo://app?vid=677498c9-746b-4650-9a8e-2c7479635944","ios":"levelo://app?vid=677498c9-746b-4650-9a8e-2c7479635944"},"vehicle_type_id":"4","last_reported":1726489084,"current_range_meters":27600,"station_id":"ce4bhr92rcd13ifvqhrg","pricing_plan_id":"cebpf4jnsgd1na2vs0mg"},{"bike_id":"87924fed-2326-4ffd-ba46-782540af92bf","system_id":"levelo_inurba_marseille","lat":43.288485,"lon":5.393141,"is_reserved":false,"is_disabled":false,"rental_uris":{"android":"levelo://app?vid=87924fed-2326-4ffd-ba46-782540af92bf","ios":"levelo://app?vid=87924fed-2326-4ffd-ba46-782540af92bf"},"vehicle_type_id":"4","last_reported":1726489084,"current_range_meters":24800,"station_id":"ce4bgop2rcd13ifvqc1g","pricing_plan_id":"cebpf4jnsgd1na2vs0mg"},{"bike_id":"38894744-911e-42cb-9034-5737d38051af","system_id":"levelo_inurba_marseille","lat":43.2827,"lon":5.35052,"is_reserved":false,"is_disabled":false,"rental_uris":{"android":"levelo://app?vid=38894744-911e-42cb-9034-5737d38051af","ios":"levelo://app?vid=38894744-911e-42cb-9034-5737d38051af"},"vehicle_type_id":"4","last_reported":1726489084,"current_range_meters":31200,"station_id":"ce4bhbp2rcd13ifvqerg","pricing_plan_id":"cebpf4jnsgd1na2vs0mg"},{"bike_id":"072a6d16-7683-4506-9dc1-09d443e8f562","system_id":"levelo_inurba_marseille","lat":43.31343,"lon":5.36716,"is_reserved":false,"is_disabled":false,"rental_uris":{"android":"levelo://app?vid=072a6d16-7683-4506-9dc1-09d443e8f562","ios":"levelo://app?vid=072a6d16-7683-4506-9dc1-09d443e8f562"},"vehicle_type_id":"4","last_reported":1726489084,"current_range_meters":26800,"station_id":"ce4bgr92rcd13ifvqc6g","pricing_plan_id":"cebpf4jnsgd1na2vs0mg"},{"bike_id":"3f5b63b5-9f49-4a52-a4be-0b706a026622","system_id":"levelo_inurba_marseille","lat":43.33029,"lon":5.39038,"is_reserved":false,"is_disabled":false,"rental_uris":{"android":"levelo://app?vid=3f5b63b5-9f49-4a52-a4be-0b706a026622","ios":"levelo://app?vid=3f5b63b5-9f49-4a52-a4be-0b706a026622"},"vehicle_type_id":"4","last_reported":1726489084,"current_range_meters":38800,"station_id":"ce4bhr92rcd13ifvqhrg","pricing_plan_id":"cebpf4jnsgd1na2vs0mg"},{"bike_id":"7e84a3ad-b6e2-47cb-a879-414e01b71399","system_id":"levelo_inurba_marseille","lat":43.27497,"lon":5.42452,"is_reserved":false,"is_disabled":false,"rental_uris":{"android":"levelo://app?vid=7e84a3ad-b6e2-47cb-a879-414e01b71399","ios":"levelo://app?vid=7e84a3ad-b6e2-47cb-a879-414e01b71399"},"vehicle_type_id":"4","last_reported":1726489084,"current_range_meters":36400,"station_id":"ce4bhn92rcd13ifvqgrg","pricing_plan_id":"cebpf4jnsgd1na2vs0mg"},{"bike_id":"095906f5-a490-4860-aa71-bb776178a509","system_id":"levelo_inurba_marseille","lat":43.24551,"lon":5.39515,"is_reserved":false,"is_disabled":false,"rental_uris":{"android":"levelo://app?vid=095906f5-a490-4860-aa71-bb776178a509","ios":"levelo://app?vid=095906f5-a490-4860-aa71-bb776178a509"},"vehicle_type_id":"4","last_reported":1726489084,"current_range_meters":12000,"station_id":"ce4bhlp2rcd13ifvqgjg","pricing_plan_id":"cebpf4jnsgd1na2vs0mg"},{"bike_id":"cf8bb925-2f34-4ac0-90a2-a3cae3790e74","system_id":"levelo_inurba_marseille","lat":43.26562,"lon":5.39,"is_reserved":false,"is_disabled":false,"rental_uris":{"android":"levelo://app?vid=cf8bb925-2f34-4ac0-90a2-a3cae3790e74","ios":"levelo://app?vid=cf8bb925-2f34-4ac0-90a2-a3cae3790e74"},"vehicle_type_id":"4","last_reported":1726489084,"current_range_meters":24400,"station_id":"ce4bhe12rcd13ifvqf30","pricing_plan_id":"cebpf4jnsgd1na2vs0mg"},{"bike_id":"8d252846-4f48-41e0-8750-fdb4b254a6e4","system_id":"levelo_inurba_marseille","lat":43.24079,"lon":5.3776,"is_reserved":false,"is_disabled":false,"rental_uris":{"android":"levelo://app?vid=8d252846-4f48-41e0-8750-fdb4b254a6e4","ios":"levelo://app?vid=8d252846-4f48-41e0-8750-fdb4b254a6e4"},"vehicle_type_id":"4","last_reported":1726489084,"current_range_meters":14000,"station_id":"ce4bhnp2rcd13ifvqgvg","pricing_plan_id":"cebpf4jnsgd1na2vs0mg"},{"bike_id":"d6563275-bced-405d-afca-a6c17d96a2be","system_id":"levelo_inurba_marseille","lat":43.25943,"lon":5.40901,"is_reserved":false,"is_disabled":false,"rental_uris":{"android":"levelo://app?vid=d6563275-bced-405d-afca-a6c17d96a2be","ios":"levelo://app?vid=d6563275-bced-405d-afca-a6c17d96a2be"},"vehicle_type_id":"4","last_reported":1726489084,"current_range_meters":27600,"station_id":"ce4bhm92rcd13ifvqglg","pricing_plan_id":"cebpf4jnsgd1na2vs0mg"},{"bike_id":"a3d0c5f5-3775-49be-aba5-48b65b48b5d2","system_id":"levelo_inurba_marseille","lat":43.24995,"lon":5.38931,"is_reserved":false,"is_disabled":false,"rental_uris":{"android":"levelo://app?vid=a3d0c5f5-3775-49be-aba5-48b65b48b5d2","ios":"levelo://app?vid=a3d0c5f5-3775-49be-aba5-48b65b48b5d2"},"vehicle_type_id":"4","last_reported":1726489084,"current_range_meters":28400,"station_id":"ce4bhgp2rcd13ifvqfd0","pricing_plan_id":"cebpf4jnsgd1na2vs0mg"},{"bike_id":"dd2d821c-8b24-431f-a2ec-388c48a5aca8","system_id":"levelo_inurba_marseille","lat":43.24668,"lon":5.38168,"is_reserved":false,"is_disabled":false,"rental_uris":{"android":"levelo://app?vid=dd2d821c-8b24-431f-a2ec-388c48a5aca8","ios":"levelo://app?vid=dd2d821c-8b24-431f-a2ec-388c48a5aca8"},"vehicle_type_id":"4","last_reported":1726489084,"current_range_meters":38800,"station_id":"ce4bhih2rcd13ifvqfr0","pricing_plan_id":"cebpf4jnsgd1na2vs0mg"},{"bike_id":"851e90fe-98e7-438e-b585-a0dcee16d8af","system_id":"levelo_inurba_marseille","lat":43.301487,"lon":5.3671,"is_reserved":false,"is_disabled":false,"rental_uris":{"android":"levelo://app?vid=851e90fe-98e7-438e-b585-a0dcee16d8af","ios":"levelo://app?vid=851e90fe-98e7-438e-b585-a0dcee16d8af"},"vehicle_type_id":"4","last_reported":1726489084,"current_range_meters":24400,"station_id":"ce4bh3p2rcd13ifvqdp0","pricing_plan_id":"cebpf4jnsgd1na2vs0mg"},{"bike_id":"7b7ee10d-31d4-42b3-8e63-8037473ea008","system_id":"levelo_inurba_marseille","lat":43.27905,"lon":5.38006,"is_reserved":false,"is_disabled":false,"rental_uris":{"android":"levelo://app?vid=7b7ee10d-31d4-42b3-8e63-8037473ea008","ios":"levelo://app?vid=7b7ee10d-31d4-42b3-8e63-8037473ea008"},"vehicle_type_id":"4","last_reported":1726489084,"current_range_meters":30400,"station_id":"ce4bhf92rcd13ifvqf50","pricing_plan_id":"cebpf4jnsgd1na2vs0mg"},{"bike_id":"8f733da8-974b-48c5-991b-191ad38cc2ec","system_id":"levelo_inurba_marseille","lat":43.25123,"lon":5.40317,"is_reserved":false,"is_disabled":false,"rental_uris":{"android":"levelo://app?vid=8f733da8-974b-48c5-991b-191ad38cc2ec","ios":"levelo://app?vid=8f733da8-974b-48c5-991b-191ad38cc2ec"},"vehicle_type_id":"4","last_reported":1726489084,"current_range_meters":38800,"station_id":"ce4bhlh2rcd13ifvqgig","pricing_plan_id":"cebpf4jnsgd1na2vs0mg"},{"bike_id":"d026a83b-f22d-4a8c-b2f2-7730a6b16272","system_id":"levelo_inurba_marseille","lat":43.23146,"lon":5.4372,"is_reserved":false,"is_disabled":false,"rental_uris":{"android":"levelo://app?vid=d026a83b-f22d-4a8c-b2f2-7730a6b16272","ios":"levelo://app?vid=d026a83b-f22d-4a8c-b2f2-7730a6b16272"},"vehicle_type_id":"4","last_reported":1726489084,"current_range_meters":38800,"station_id":"ce4bhmp2rcd13ifvqgog","pricing_plan_id":"cebpf4jnsgd1na2vs0mg"},{"bike_id":"1bbc0f8a-bbe1-432b-b29e-548a7707945e","system_id":"levelo_inurba_marseille","lat":43.25587,"lon":5.38223,"is_reserved":false,"is_disabled":false,"rental_uris":{"android":"levelo://app?vid=1bbc0f8a-bbe1-432b-b29e-548a7707945e","ios":"levelo://app?vid=1bbc0f8a-bbe1-432b-b29e-548a7707945e"},"vehicle_type_id":"4","last_reported":1726489084,"current_range_meters":22000,"station_id":"ce4bhih2rcd13ifvqfs0","pricing_plan_id":"cebpf4jnsgd1na2vs0mg"},{"bike_id":"34d94a26-ec93-4e8d-a6c6-3d558ea2d4e4","system_id":"levelo_inurba_marseille","lat":43.25941,"lon":5.40902,"is_reserved":false,"is_disabled":false,"rental_uris":{"android":"levelo://app?vid=34d94a26-ec93-4e8d-a6c6-3d558ea2d4e4","ios":"levelo://app?vid=34d94a26-ec93-4e8d-a6c6-3d558ea2d4e4"},"vehicle_type_id":"4","last_reported":1726489084,"current_range_meters":17200,"station_id":"ce4bhm92rcd13ifvqglg","pricing_plan_id":"cebpf4jnsgd1na2vs0mg"},{"bike_id":"4b2ba85a-29ad-44c1-a157-f219369e26f8","system_id":"levelo_inurba_marseille","lat":43.27497,"lon":5.4245,"is_reserved":false,"is_disabled":false,"rental_uris":{"android":"levelo://app?vid=4b2ba85a-29ad-44c1-a157-f219369e26f8","ios":"levelo://app?vid=4b2ba85a-29ad-44c1-a157-f219369e26f8"},"vehicle_type_id":"4","last_reported":1726489084,"current_range_meters":35600,"station_id":"ce4bhn92rcd13ifvqgrg","pricing_plan_id":"cebpf4jnsgd1na2vs0mg"},{"bike_id":"99684f50-b398-427b-a4e9-7ca0a0382c79","system_id":"levelo_inurba_marseille","lat":43.23202,"lon":5.35543,"is_reserved":false,"is_disabled":false,"rental_uris":{"android":"levelo://app?vid=99684f50-b398-427b-a4e9-7ca0a0382c79","ios":"levelo://app?vid=99684f50-b398-427b-a4e9-7ca0a0382c79"},"vehicle_type_id":"4","last_reported":1726489084,"current_range_meters":39200,"station_id":"ce4bhu92rcd13ifvqi70","pricing_plan_id":"cebpf4jnsgd1na2vs0mg"},{"bike_id":"a539c83d-af40-4a5b-bc2b-6b1214ec88bd","system_id":"levelo_inurba_marseille","lat":43.3031,"lon":5.36887,"is_reserved":false,"is_disabled":false,"rental_uris":{"android":"levelo://app?vid=a539c83d-af40-4a5b-bc2b-6b1214ec88bd","ios":"levelo://app?vid=a539c83d-af40-4a5b-bc2b-6b1214ec88bd"},"vehicle_type_id":"4","last_reported":1726489084,"current_range_meters":10800,"station_id":"ce4bgqh2rcd13ifvqc5g","pricing_plan_id":"cebpf4jnsgd1na2vs0mg"},{"bike_id":"11f359d6-4418-4d23-b2f6-0cb6d996e517","system_id":"levelo_inurba_marseille","lat":43.29445,"lon":5.39746,"is_reserved":false,"is_disabled":false,"rental_uris":{"android":"levelo://app?vid=11f359d6-4418-4d23-b2f6-0cb6d996e517","ios":"levelo://app?vid=11f359d6-4418-4d23-b2f6-0cb6d996e517"},"vehicle_type_id":"4","last_reported":1726489084,"current_range_meters":38800,"station_id":"ce4bh3h2rcd13ifvqdo0","pricing_plan_id":"cebpf4jnsgd1na2vs0mg"},{"bike_id":"6ac1916f-3559-4095-9d66-ee148f3ea633","system_id":"levelo_inurba_marseille","lat":43.29376,"lon":5.37848,"is_reserved":false,"is_disabled":false,"rental_uris":{"android":"levelo://app?vid=6ac1916f-3559-4095-9d66-ee148f3ea633","ios":"levelo://app?vid=6ac1916f-3559-4095-9d66-ee148f3ea633"},"vehicle_type_id":"4","last_reported":1726489084,"current_range_meters":8000,"station_id":"ce4bgjh2rcd13ifvqbf0","pricing_plan_id":"cebpf4jnsgd1na2vs0mg"},{"bike_id":"0f808d02-6df2-4fb7-b534-a56f3c6d6147","system_id":"levelo_inurba_marseille","lat":43.32484,"lon":5.36557,"is_reserved":false,"is_disabled":false,"rental_uris":{"android":"levelo://app?vid=0f808d02-6df2-4fb7-b534-a56f3c6d6147","ios":"levelo://app?vid=0f808d02-6df2-4fb7-b534-a56f3c6d6147"},"vehicle_type_id":"4","last_reported":1726489084,"current_range_meters":30800,"station_id":"ce4bhs12rcd13ifvqhvg","pricing_plan_id":"cebpf4jnsgd1na2vs0mg"},{"bike_id":"5c06497f-1680-497d-bb52-b03bd82e70e8","system_id":"levelo_inurba_marseille","lat":43.3172,"lon":5.42405,"is_reserved":false,"is_disabled":false,"rental_uris":{"android":"levelo://app?vid=5c06497f-1680-497d-bb52-b03bd82e70e8","ios":"levelo://app?vid=5c06497f-1680-497d-bb52-b03bd82e70e8"},"vehicle_type_id":"4","last_reported":1726489084,"current_range_meters":37600,"station_id":"ce4bhp92rcd13ifvqhbg","pricing_plan_id":"cebpf4jnsgd1na2vs0mg"},{"bike_id":"45164d1f-3370-471f-8859-1b0663cd18df","system_id":"levelo_inurba_marseille","lat":43.31503,"lon":5.37304,"is_reserved":false,"is_disabled":false,"rental_uris":{"android":"levelo://app?vid=45164d1f-3370-471f-8859-1b0663cd18df","ios":"levelo://app?vid=45164d1f-3370-471f-8859-1b0663cd18df"},"vehicle_type_id":"4","last_reported":1726489084,"current_range_meters":38800,"station_id":"ce4bgt12rcd13ifvqcd0","pricing_plan_id":"cebpf4jnsgd1na2vs0mg"},{"bike_id":"974d0292-e689-41dc-84d3-0fc581324517","system_id":"levelo_inurba_marseille","lat":43.31231,"lon":5.36857,"is_reserved":false,"is_disabled":false,"rental_uris":{"android":"levelo://app?vid=974d0292-e689-41dc-84d3-0fc581324517","ios":"levelo://app?vid=974d0292-e689-41dc-84d3-0fc581324517"},"vehicle_type_id":"4","last_reported":1726489084,"current_range_meters":21600,"station_id":"ce4bgl92rcd13ifvqbq0","pricing_plan_id":"cebpf4jnsgd1na2vs0mg"},{"bike_id":"2ed7cd25-577d-4205-9045-8971da5af30e","system_id":"levelo_inurba_marseille","lat":43.34147,"lon":5.40904,"is_reserved":false,"is_disabled":false,"rental_uris":{"android":"levelo://app?vid=2ed7cd25-577d-4205-9045-8971da5af30e","ios":"levelo://app?vid=2ed7cd25-577d-4205-9045-8971da5af30e"},"vehicle_type_id":"4","last_reported":1726489084,"current_range_meters":21600,"station_id":"ce4bhqh2rcd13ifvqhlg","pricing_plan_id":"cebpf4jnsgd1na2vs0mg"},{"bike_id":"591d1319-63c4-4257-9cba-984f93adf5f8","system_id":"levelo_inurba_marseille","lat":43.30273,"lon":5.37708,"is_reserved":false,"is_disabled":false,"rental_uris":{"android":"levelo://app?vid=591d1319-63c4-4257-9cba-984f93adf5f8","ios":"levelo://app?vid=591d1319-63c4-4257-9cba-984f93adf5f8"},"vehicle_type_id":"4","last_reported":1726489084,"current_range_meters":38400,"station_id":"ce4bguh2rcd13ifvqcj0","pricing_plan_id":"cebpf4jnsgd1na2vs0mg"},{"bike_id":"e2fa99e4-8bad-47d3-84a6-360fe67ed967","system_id":"levelo_inurba_marseille","lat":43.26945,"lon":5.38662,"is_reserved":false,"is_disabled":false,"rental_uris":{"android":"levelo://app?vid=e2fa99e4-8bad-47d3-84a6-360fe67ed967","ios":"levelo://app?vid=e2fa99e4-8bad-47d3-84a6-360fe67ed967"},"vehicle_type_id":"4","last_reported":1726489084,"current_range_meters":14800,"station_id":"ce4bhh92rcd13ifvqfh0","pricing_plan_id":"cebpf4jnsgd1na2vs0mg"},{"bike_id":"785783be-7bfb-4269-b660-c5c3fd28c889","system_id":"levelo_inurba_marseille","lat":43.27989,"lon":5.41652,"is_reserved":false,"is_disabled":false,"rental_uris":{"android":"levelo://app?vid=785783be-7bfb-4269-b660-c5c3fd28c889","ios":"levelo://app?vid=785783be-7bfb-4269-b660-c5c3fd28c889"},"vehicle_type_id":"4","last_reported":1726489084,"current_range_meters":29600,"station_id":"ce4bho12rcd13ifvqh1g","pricing_plan_id":"cebpf4jnsgd1na2vs0mg"},{"bike_id":"0a2e1c3b-f8e0-4541-91a6-a4751989ba76","system_id":"levelo_inurba_marseille","lat":43.3136,"lon":5.36722,"is_reserved":false,"is_disabled":false,"rental_uris":{"android":"levelo://app?vid=0a2e1c3b-f8e0-4541-91a6-a4751989ba76","ios":"levelo://app?vid=0a2e1c3b-f8e0-4541-91a6-a4751989ba76"},"vehicle_type_id":"4","last_reported":1726489084,"current_range_meters":32800,"station_id":"ce4bgr92rcd13ifvqc6g","pricing_plan_id":"cebpf4jnsgd1na2vs0mg"},{"bike_id":"97c82282-527d-4920-a011-c817068d8706","system_id":"levelo_inurba_marseille","lat":43.28944,"lon":5.36635,"is_reserved":false,"is_disabled":false,"rental_uris":{"android":"levelo://app?vid=97c82282-527d-4920-a011-c817068d8706","ios":"levelo://app?vid=97c82282-527d-4920-a011-c817068d8706"},"vehicle_type_id":"4","last_reported":1726489084,"current_range_meters":24400,"station_id":"ce4bhap2rcd13ifvqek0","pricing_plan_id":"cebpf4jnsgd1na2vs0mg"},{"bike_id":"9b63ba48-49dc-41b6-8742-1ca59afdc1a0","system_id":"levelo_inurba_marseille","lat":43.31529,"lon":5.37306,"is_reserved":false,"is_disabled":false,"rental_uris":{"android":"levelo://app?vid=9b63ba48-49dc-41b6-8742-1ca59afdc1a0","ios":"levelo://app?vid=9b63ba48-49dc-41b6-8742-1ca59afdc1a0"},"vehicle_type_id":"4","last_reported":1726489084,"current_range_meters":9200,"station_id":"","pricing_plan_id":"cebpf4jnsgd1na2vs0mg"},{"bike_id":"89acb580-d3a8-4e49-be68-ecd15b5479df","system_id":"levelo_inurba_marseille","lat":43.29103,"lon":5.38165,"is_reserved":false,"is_disabled":false,"rental_uris":{"android":"levelo://app?vid=89acb580-d3a8-4e49-be68-ecd15b5479df","ios":"levelo://app?vid=89acb580-d3a8-4e49-be68-ecd15b5479df"},"vehicle_type_id":"4","last_reported":1726489084,"current_range_meters":21600,"station_id":"ce4bh512rcd13ifvqe2g","pricing_plan_id":"cebpf4jnsgd1na2vs0mg"},{"bike_id":"315373a8-8f4c-4eea-a92f-855182dc979d","system_id":"levelo_inurba_marseille","lat":43.29624,"lon":5.37168,"is_reserved":false,"is_disabled":false,"rental_uris":{"android":"levelo://app?vid=315373a8-8f4c-4eea-a92f-855182dc979d","ios":"levelo://app?vid=315373a8-8f4c-4eea-a92f-855182dc979d"},"vehicle_type_id":"4","last_reported":1726489084,"current_range_meters":28800,"station_id":"ce4bgnh2rcd13ifvqc0g","pricing_plan_id":"cebpf4jnsgd1na2vs0mg"},{"bike_id":"e6c21cbb-a64c-440b-ad39-4a66fc0a1536","system_id":"levelo_inurba_marseille","lat":43.26236,"lon":5.37458,"is_reserved":false,"is_disabled":false,"rental_uris":{"android":"levelo://app?vid=e6c21cbb-a64c-440b-ad39-4a66fc0a1536","ios":"levelo://app?vid=e6c21cbb-a64c-440b-ad39-4a66fc0a1536"},"vehicle_type_id":"4","last_reported":1726489084,"current_range_meters":8400,"station_id":"ce4bhgp2rcd13ifvqfc0","pricing_plan_id":"cebpf4jnsgd1na2vs0mg"},{"bike_id":"5bf5403a-c988-4124-856b-c1c837c210ce","system_id":"levelo_inurba_marseille","lat":43.28679,"lon":5.38669,"is_reserved":false,"is_disabled":false,"rental_uris":{"android":"levelo://app?vid=5bf5403a-c988-4124-856b-c1c837c210ce","ios":"levelo://app?vid=5bf5403a-c988-4124-856b-c1c837c210ce"},"vehicle_type_id":"4","last_reported":1726489084,"current_range_meters":38000,"station_id":"ce4bh492rcd13ifvqdug","pricing_plan_id":"cebpf4jnsgd1na2vs0mg"},{"bike_id":"ffeb5970-3960-42a9-8bc9-d587b67c7e99","system_id":"levelo_inurba_marseille","lat":43.31712,"lon":5.37758,"is_reserved":false,"is_disabled":false,"rental_uris":{"android":"levelo://app?vid=ffeb5970-3960-42a9-8bc9-d587b67c7e99","ios":"levelo://app?vid=ffeb5970-3960-42a9-8bc9-d587b67c7e99"},"vehicle_type_id":"4","last_reported":1726489084,"current_range_meters":12400,"station_id":"ce4bgth2rcd13ifvqch0","pricing_plan_id":"cebpf4jnsgd1na2vs0mg"},{"bike_id":"ce703cb4-aa06-4ca3-9d0d-9d78109ec482","system_id":"levelo_inurba_marseille","lat":43.31237,"lon":5.36857,"is_reserved":false,"is_disabled":false,"rental_uris":{"android":"levelo://app?vid=ce703cb4-aa06-4ca3-9d0d-9d78109ec482","ios":"levelo://app?vid=ce703cb4-aa06-4ca3-9d0d-9d78109ec482"},"vehicle_type_id":"4","last_reported":1726489084,"current_range_meters":28000,"station_id":"ce4bgl92rcd13ifvqbq0","pricing_plan_id":"cebpf4jnsgd1na2vs0mg"},{"bike_id":"6ad2fe94-195b-4d58-9ac6-d3a9675a4c80","system_id":"levelo_inurba_marseille","lat":43.23069,"lon":5.3549,"is_reserved":false,"is_disabled":false,"rental_uris":{"android":"levelo://app?vid=6ad2fe94-195b-4d58-9ac6-d3a9675a4c80","ios":"levelo://app?vid=6ad2fe94-195b-4d58-9ac6-d3a9675a4c80"},"vehicle_type_id":"4","last_reported":1726489084,"current_range_meters":16800,"station_id":"cpo3342slgdg3j2ifvpg","pricing_plan_id":"cebpf4jnsgd1na2vs0mg"},{"bike_id":"6dd17a2f-59bb-4453-859d-2c09ab795824","system_id":"levelo_inurba_marseille","lat":43.33021,"lon":5.39047,"is_reserved":false,"is_disabled":false,"rental_uris":{"android":"levelo://app?vid=6dd17a2f-59bb-4453-859d-2c09ab795824","ios":"levelo://app?vid=6dd17a2f-59bb-4453-859d-2c09ab795824"},"vehicle_type_id":"4","last_reported":1726489084,"current_range_meters":37600,"station_id":"ce4bhr92rcd13ifvqhrg","pricing_plan_id":"cebpf4jnsgd1na2vs0mg"},{"bike_id":"49370a1c-b08d-4dde-abcc-8368214b28f5","system_id":"levelo_inurba_marseille","lat":43.27921,"lon":5.39574,"is_reserved":false,"is_disabled":false,"rental_uris":{"android":"levelo://app?vid=49370a1c-b08d-4dde-abcc-8368214b28f5","ios":"levelo://app?vid=49370a1c-b08d-4dde-abcc-8368214b28f5"},"vehicle_type_id":"4","last_reported":1726489084,"current_range_meters":26000,"station_id":"ce4bhf92rcd13ifvqf40","pricing_plan_id":"cebpf4jnsgd1na2vs0mg"},{"bike_id":"fc2e8ef3-f33f-4409-a28c-80d42488b868","system_id":"levelo_inurba_marseille","lat":43.24809,"lon":5.37456,"is_reserved":false,"is_disabled":false,"rental_uris":{"android":"levelo://app?vid=fc2e8ef3-f33f-4409-a28c-80d42488b868","ios":"levelo://app?vid=fc2e8ef3-f33f-4409-a28c-80d42488b868"},"vehicle_type_id":"4","last_reported":1726489084,"current_range_meters":17600,"station_id":"ce4bhgh2rcd13ifvqfb0","pricing_plan_id":"cebpf4jnsgd1na2vs0mg"},{"bike_id":"3232f0e6-4243-43ac-b8fb-b5c9b421f367","system_id":"levelo_inurba_marseille","lat":43.25938,"lon":5.40907,"is_reserved":false,"is_disabled":false,"rental_uris":{"android":"levelo://app?vid=3232f0e6-4243-43ac-b8fb-b5c9b421f367","ios":"levelo://app?vid=3232f0e6-4243-43ac-b8fb-b5c9b421f367"},"vehicle_type_id":"4","last_reported":1726489084,"current_range_meters":2800,"station_id":"ce4bhm92rcd13ifvqglg","pricing_plan_id":"cebpf4jnsgd1na2vs0mg"},{"bike_id":"726f70c5-02a6-439d-a5e1-a2121d64266e","system_id":"levelo_inurba_marseille","lat":43.27179,"lon":5.40987,"is_reserved":false,"is_disabled":false,"rental_uris":{"android":"levelo://app?vid=726f70c5-02a6-439d-a5e1-a2121d64266e","ios":"levelo://app?vid=726f70c5-02a6-439d-a5e1-a2121d64266e"},"vehicle_type_id":"4","last_reported":1726489084,"current_range_meters":39200,"station_id":"ce4bhl12rcd13ifvqgf0","pricing_plan_id":"cebpf4jnsgd1na2vs0mg"},{"bike_id":"1c79db96-5e4d-4cfe-b310-bde8716f7bfd","system_id":"levelo_inurba_marseille","lat":43.30535,"lon":5.36698,"is_reserved":false,"is_disabled":false,"rental_uris":{"android":"levelo://app?vid=1c79db96-5e4d-4cfe-b310-bde8716f7bfd","ios":"levelo://app?vid=1c79db96-5e4d-4cfe-b310-bde8716f7bfd"},"vehicle_type_id":"4","last_reported":1726489084,"current_range_meters":16400,"station_id":"ce4bgrp2rcd13ifvqc9g","pricing_plan_id":"cebpf4jnsgd1na2vs0mg"},{"bike_id":"719c6b5a-bf77-44b5-bb4f-55c69a8b5caf","system_id":"levelo_inurba_marseille","lat":43.29797,"lon":5.38096,"is_reserved":false,"is_disabled":false,"rental_uris":{"android":"levelo://app?vid=719c6b5a-bf77-44b5-bb4f-55c69a8b5caf","ios":"levelo://app?vid=719c6b5a-bf77-44b5-bb4f-55c69a8b5caf"},"vehicle_type_id":"4","last_reported":1726489084,"current_range_meters":32800,"station_id":"ce4bgip2rcd13ifvqbb0","pricing_plan_id":"cebpf4jnsgd1na2vs0mg"},{"bike_id":"ee96fd0b-2e8e-46a7-9a56-213f944d9ccc","system_id":"levelo_inurba_marseille","lat":43.32478,"lon":5.36559,"is_reserved":false,"is_disabled":false,"rental_uris":{"android":"levelo://app?vid=ee96fd0b-2e8e-46a7-9a56-213f944d9ccc","ios":"levelo://app?vid=ee96fd0b-2e8e-46a7-9a56-213f944d9ccc"},"vehicle_type_id":"4","last_reported":1726489084,"current_range_meters":32000,"station_id":"ce4bhs12rcd13ifvqhvg","pricing_plan_id":"cebpf4jnsgd1na2vs0mg"},{"bike_id":"0416018f-c443-4e25-a443-840ab0d56c6c","system_id":"levelo_inurba_marseille","lat":43.28156,"lon":5.4264,"is_reserved":false,"is_disabled":false,"rental_uris":{"android":"levelo://app?vid=0416018f-c443-4e25-a443-840ab0d56c6c","ios":"levelo://app?vid=0416018f-c443-4e25-a443-840ab0d56c6c"},"vehicle_type_id":"4","last_reported":1726489084,"current_range_meters":30400,"station_id":"ce4bhnh2rcd13ifvqgug","pricing_plan_id":"cebpf4jnsgd1na2vs0mg"},{"bike_id":"1144f570-f9b4-45ed-9f6f-77fd7ad6e2c0","system_id":"levelo_inurba_marseille","lat":43.29958,"lon":5.41313,"is_reserved":false,"is_disabled":false,"rental_uris":{"android":"levelo://app?vid=1144f570-f9b4-45ed-9f6f-77fd7ad6e2c0","ios":"levelo://app?vid=1144f570-f9b4-45ed-9f6f-77fd7ad6e2c0"},"vehicle_type_id":"4","last_reported":1726489084,"current_range_meters":22400,"station_id":"ce4bhp12rcd13ifvqh9g","pricing_plan_id":"cebpf4jnsgd1na2vs0mg"},{"bike_id":"e8215730-6dd1-4a95-8a64-fb77ebc14df4","system_id":"levelo_inurba_marseille","lat":43.30788,"lon":5.37649,"is_reserved":false,"is_disabled":false,"rental_uris":{"android":"levelo://app?vid=e8215730-6dd1-4a95-8a64-fb77ebc14df4","ios":"levelo://app?vid=e8215730-6dd1-4a95-8a64-fb77ebc14df4"},"vehicle_type_id":"4","last_reported":1726489084,"current_range_meters":31200,"station_id":"ce4bgv92rcd13ifvqcq0","pricing_plan_id":"cebpf4jnsgd1na2vs0mg"},{"bike_id":"22f26e89-4ccd-47af-bb30-5f037502847c","system_id":"levelo_inurba_marseille","lat":43.23175,"lon":5.40001,"is_reserved":false,"is_disabled":false,"rental_uris":{"android":"levelo://app?vid=22f26e89-4ccd-47af-bb30-5f037502847c","ios":"levelo://app?vid=22f26e89-4ccd-47af-bb30-5f037502847c"},"vehicle_type_id":"4","last_reported":1726489084,"current_range_meters":33200,"station_id":"ce4bhn12rcd13ifvqgqg","pricing_plan_id":"cebpf4jnsgd1na2vs0mg"},{"bike_id":"e15c09b7-21db-463f-a4ea-2ac081cf0d97","system_id":"levelo_inurba_marseille","lat":43.306,"lon":5.37208,"is_reserved":false,"is_disabled":false,"rental_uris":{"android":"levelo://app?vid=e15c09b7-21db-463f-a4ea-2ac081cf0d97","ios":"levelo://app?vid=e15c09b7-21db-463f-a4ea-2ac081cf0d97"},"vehicle_type_id":"4","last_reported":1726489084,"current_range_meters":38800,"station_id":"ce4bgqh2rcd13ifvqc4g","pricing_plan_id":"cebpf4jnsgd1na2vs0mg"},{"bike_id":"b3628e93-2abd-4717-8c63-6e885b078e62","system_id":"levelo_inurba_marseille","lat":43.25831,"lon":5.39424,"is_reserved":false,"is_disabled":false,"rental_uris":{"android":"levelo://app?vid=b3628e93-2abd-4717-8c63-6e885b078e62","ios":"levelo://app?vid=b3628e93-2abd-4717-8c63-6e885b078e62"},"vehicle_type_id":"4","last_reported":1726489084,"current_range_meters":4000,"station_id":"ce4bhip2rcd13ifvqft0","pricing_plan_id":"cebpf4jnsgd1na2vs0mg"},{"bike_id":"b989c130-d26b-4398-8df5-85e5ed4d254a","system_id":"levelo_inurba_marseille","lat":43.29421,"lon":5.38623,"is_reserved":false,"is_disabled":false,"rental_uris":{"android":"levelo://app?vid=b989c130-d26b-4398-8df5-85e5ed4d254a","ios":"levelo://app?vid=b989c130-d26b-4398-8df5-85e5ed4d254a"},"vehicle_type_id":"4","last_reported":1726489084,"current_range_meters":28800,"station_id":"ce4bh2h2rcd13ifvqdh0","pricing_plan_id":"cebpf4jnsgd1na2vs0mg"},{"bike_id":"d058256b-c6a8-498a-bee5-fce4ff6caee2","system_id":"levelo_inurba_marseille","lat":43.26947,"lon":5.40235,"is_reserved":false,"is_disabled":false,"rental_uris":{"android":"levelo://app?vid=d058256b-c6a8-498a-bee5-fce4ff6caee2","ios":"levelo://app?vid=d058256b-c6a8-498a-bee5-fce4ff6caee2"},"vehicle_type_id":"4","last_reported":1726489084,"current_range_meters":38400,"station_id":"cjm6bp8fraef2m0cb0m0","pricing_plan_id":"cebpf4jnsgd1na2vs0mg"},{"bike_id":"65eecb51-7024-4f30-af20-d65f809bce2b","system_id":"levelo_inurba_marseille","lat":43.31565,"lon":5.39242,"is_reserved":false,"is_disabled":false,"rental_uris":{"android":"levelo://app?vid=65eecb51-7024-4f30-af20-d65f809bce2b","ios":"levelo://app?vid=65eecb51-7024-4f30-af20-d65f809bce2b"},"vehicle_type_id":"4","last_reported":1726489084,"current_range_meters":14000,"station_id":"ce4bgvp2rcd13ifvqcu0","pricing_plan_id":"cebpf4jnsgd1na2vs0mg"},{"bike_id":"b28254a1-b5b2-4759-9ce2-71dcbb460406","system_id":"levelo_inurba_marseille","lat":43.29309,"lon":5.37176,"is_reserved":false,"is_disabled":false,"rental_uris":{"android":"levelo://app?vid=b28254a1-b5b2-4759-9ce2-71dcbb460406","ios":"levelo://app?vid=b28254a1-b5b2-4759-9ce2-71dcbb460406"},"vehicle_type_id":"4","last_reported":1726489084,"current_range_meters":12400,"station_id":"ce4bgh92rcd13ifvqb40","pricing_plan_id":"cebpf4jnsgd1na2vs0mg"},{"bike_id":"d1f38fcd-be46-4877-a9ac-34b365272c30","system_id":"levelo_inurba_marseille","lat":43.27098,"lon":5.43318,"is_reserved":false,"is_disabled":false,"rental_uris":{"android":"levelo://app?vid=d1f38fcd-be46-4877-a9ac-34b365272c30","ios":"levelo://app?vid=d1f38fcd-be46-4877-a9ac-34b365272c30"},"vehicle_type_id":"4","last_reported":1726489084,"current_range_meters":9600,"station_id":"","pricing_plan_id":"cebpf4jnsgd1na2vs0mg"},{"bike_id":"4221c7e7-a2ca-4a78-958f-aaf21f649d8f","system_id":"levelo_inurba_marseille","lat":43.29865,"lon":5.39748,"is_reserved":false,"is_disabled":false,"rental_uris":{"android":"levelo://app?vid=4221c7e7-a2ca-4a78-958f-aaf21f649d8f","ios":"levelo://app?vid=4221c7e7-a2ca-4a78-958f-aaf21f649d8f"},"vehicle_type_id":"4","last_reported":1726489084,"current_range_meters":36000,"station_id":"ce4bh492rcd13ifvqdvg","pricing_plan_id":"cebpf4jnsgd1na2vs0mg"},{"bike_id":"a18117be-7bd3-487f-af7a-2344c9ce9eb2","system_id":"levelo_inurba_marseille","lat":43.278351,"lon":5.392069,"is_reserved":false,"is_disabled":false,"rental_uris":{"android":"levelo://app?vid=a18117be-7bd3-487f-af7a-2344c9ce9eb2","ios":"levelo://app?vid=a18117be-7bd3-487f-af7a-2344c9ce9eb2"},"vehicle_type_id":"4","last_reported":1726489084,"current_range_meters":3200,"station_id":"ce4bhbp2rcd13ifvqerg","pricing_plan_id":"cebpf4jnsgd1na2vs0mg"},{"bike_id":"c60b4953-3c8e-4c29-9458-e5e81cd41aff","system_id":"levelo_inurba_marseille","lat":43.29912,"lon":5.37468,"is_reserved":false,"is_disabled":false,"rental_uris":{"android":"levelo://app?vid=c60b4953-3c8e-4c29-9458-e5e81cd41aff","ios":"levelo://app?vid=c60b4953-3c8e-4c29-9458-e5e81cd41aff"},"vehicle_type_id":"4","last_reported":1726489084,"current_range_meters":24800,"station_id":"ce4bgjh2rcd13ifvqbg0","pricing_plan_id":"cebpf4jnsgd1na2vs0mg"},{"bike_id":"77be640b-ac4b-4617-be22-5763d79d29be","system_id":"levelo_inurba_marseille","lat":43.32481,"lon":5.36562,"is_reserved":false,"is_disabled":false,"rental_uris":{"android":"levelo://app?vid=77be640b-ac4b-4617-be22-5763d79d29be","ios":"levelo://app?vid=77be640b-ac4b-4617-be22-5763d79d29be"},"vehicle_type_id":"4","last_reported":1726489084,"current_range_meters":28000,"station_id":"ce4bhs12rcd13ifvqhvg","pricing_plan_id":"cebpf4jnsgd1na2vs0mg"},{"bike_id":"ede27382-2e15-413e-be39-239be05fdd62","system_id":"levelo_inurba_marseille","lat":43.23194,"lon":5.39995,"is_reserved":false,"is_disabled":false,"rental_uris":{"android":"levelo://app?vid=ede27382-2e15-413e-be39-239be05fdd62","ios":"levelo://app?vid=ede27382-2e15-413e-be39-239be05fdd62"},"vehicle_type_id":"4","last_reported":1726489084,"current_range_meters":36000,"station_id":"ce4bhn12rcd13ifvqgqg","pricing_plan_id":"cebpf4jnsgd1na2vs0mg"},{"bike_id":"bd1998e9-4049-4c61-8c23-a9018ce938cc","system_id":"levelo_inurba_marseille","lat":43.27498,"lon":5.42448,"is_reserved":false,"is_disabled":false,"rental_uris":{"android":"levelo://app?vid=bd1998e9-4049-4c61-8c23-a9018ce938cc","ios":"levelo://app?vid=bd1998e9-4049-4c61-8c23-a9018ce938cc"},"vehicle_type_id":"4","last_reported":1726489084,"current_range_meters":30000,"station_id":"ce4bhn92rcd13ifvqgrg","pricing_plan_id":"cebpf4jnsgd1na2vs0mg"},{"bike_id":"27374e0c-ceef-4b28-ae67-ff8661e01535","system_id":"levelo_inurba_marseille","lat":43.30467,"lon":5.37911,"is_reserved":false,"is_disabled":false,"rental_uris":{"android":"levelo://app?vid=27374e0c-ceef-4b28-ae67-ff8661e01535","ios":"levelo://app?vid=27374e0c-ceef-4b28-ae67-ff8661e01535"},"vehicle_type_id":"4","last_reported":1726489084,"current_range_meters":38800,"station_id":"ce4bgup2rcd13ifvqcn0","pricing_plan_id":"cebpf4jnsgd1na2vs0mg"},{"bike_id":"6da566a6-1c56-4830-ad07-012b26ffeade","system_id":"levelo_inurba_marseille","lat":43.32476,"lon":5.36552,"is_reserved":false,"is_disabled":false,"rental_uris":{"android":"levelo://app?vid=6da566a6-1c56-4830-ad07-012b26ffeade","ios":"levelo://app?vid=6da566a6-1c56-4830-ad07-012b26ffeade"},"vehicle_type_id":"4","last_reported":1726489084,"current_range_meters":37600,"station_id":"ce4bhs12rcd13ifvqhvg","pricing_plan_id":"cebpf4jnsgd1na2vs0mg"},{"bike_id":"5ce3c22b-1a1d-4f74-98d5-ad1712c6cc8c","system_id":"levelo_inurba_marseille","lat":43.30547,"lon":5.36708,"is_reserved":false,"is_disabled":false,"rental_uris":{"android":"levelo://app?vid=5ce3c22b-1a1d-4f74-98d5-ad1712c6cc8c","ios":"levelo://app?vid=5ce3c22b-1a1d-4f74-98d5-ad1712c6cc8c"},"vehicle_type_id":"4","last_reported":1726489084,"current_range_meters":35600,"station_id":"ce4bgrp2rcd13ifvqc9g","pricing_plan_id":"cebpf4jnsgd1na2vs0mg"},{"bike_id":"b7e318f9-9132-411a-90fb-eba3c066fa24","system_id":"levelo_inurba_marseille","lat":43.302917,"lon":5.40058,"is_reserved":false,"is_disabled":false,"rental_uris":{"android":"levelo://app?vid=b7e318f9-9132-411a-90fb-eba3c066fa24","ios":"levelo://app?vid=b7e318f9-9132-411a-90fb-eba3c066fa24"},"vehicle_type_id":"4","last_reported":1726489084,"current_range_meters":35200,"station_id":"ce4bgih2rcd13ifvqba0","pricing_plan_id":"cebpf4jnsgd1na2vs0mg"},{"bike_id":"2e95b63c-f6e4-4c4e-808c-eb3614b140b9","system_id":"levelo_inurba_marseille","lat":43.27578,"lon":5.38417,"is_reserved":false,"is_disabled":false,"rental_uris":{"android":"levelo://app?vid=2e95b63c-f6e4-4c4e-808c-eb3614b140b9","ios":"levelo://app?vid=2e95b63c-f6e4-4c4e-808c-eb3614b140b9"},"vehicle_type_id":"4","last_reported":1726489084,"current_range_meters":30000,"station_id":"ce4bhh92rcd13ifvqfi0","pricing_plan_id":"cebpf4jnsgd1na2vs0mg"},{"bike_id":"ba113fc8-69a7-4f82-8c00-86a31e048c97","system_id":"levelo_inurba_marseille","lat":43.32546,"lon":5.41433,"is_reserved":false,"is_disabled":false,"rental_uris":{"android":"levelo://app?vid=ba113fc8-69a7-4f82-8c00-86a31e048c97","ios":"levelo://app?vid=ba113fc8-69a7-4f82-8c00-86a31e048c97"},"vehicle_type_id":"4","last_reported":1726489084,"current_range_meters":18000,"station_id":"ce4bhq12rcd13ifvqhhg","pricing_plan_id":"cebpf4jnsgd1na2vs0mg"},{"bike_id":"7b548b2f-f114-4906-b70d-33c62ec8aa3b","system_id":"levelo_inurba_marseille","lat":43.25824,"lon":5.39433,"is_reserved":false,"is_disabled":false,"rental_uris":{"android":"levelo://app?vid=7b548b2f-f114-4906-b70d-33c62ec8aa3b","ios":"levelo://app?vid=7b548b2f-f114-4906-b70d-33c62ec8aa3b"},"vehicle_type_id":"4","last_reported":1726489084,"current_range_meters":20000,"station_id":"ce4bhip2rcd13ifvqft0","pricing_plan_id":"cebpf4jnsgd1na2vs0mg"},{"bike_id":"d919000c-5aae-4fe3-9444-cda057a56741","system_id":"levelo_inurba_marseille","lat":43.30142,"lon":5.37415,"is_reserved":false,"is_disabled":false,"rental_uris":{"android":"levelo://app?vid=d919000c-5aae-4fe3-9444-cda057a56741","ios":"levelo://app?vid=d919000c-5aae-4fe3-9444-cda057a56741"},"vehicle_type_id":"4","last_reported":1726489084,"current_range_meters":38800,"station_id":"ce4bgs92rcd13ifvqcc0","pricing_plan_id":"cebpf4jnsgd1na2vs0mg"},{"bike_id":"3421bf30-d04f-4653-bef4-53cd24351fdf","system_id":"levelo_inurba_marseille","lat":43.30608,"lon":5.37224,"is_reserved":false,"is_disabled":false,"rental_uris":{"android":"levelo://app?vid=3421bf30-d04f-4653-bef4-53cd24351fdf","ios":"levelo://app?vid=3421bf30-d04f-4653-bef4-53cd24351fdf"},"vehicle_type_id":"4","last_reported":1726489084,"current_range_meters":38000,"station_id":"ce4bgqh2rcd13ifvqc4g","pricing_plan_id":"cebpf4jnsgd1na2vs0mg"},{"bike_id":"85794581-71df-4747-a4c9-a95fb851833a","system_id":"levelo_inurba_marseille","lat":43.290915,"lon":5.399793,"is_reserved":false,"is_disabled":false,"rental_uris":{"android":"levelo://app?vid=85794581-71df-4747-a4c9-a95fb851833a","ios":"levelo://app?vid=85794581-71df-4747-a4c9-a95fb851833a"},"vehicle_type_id":"4","last_reported":1726489084,"current_range_meters":12800,"station_id":"ce4bhhp2rcd13ifvqfm0","pricing_plan_id":"cebpf4jnsgd1na2vs0mg"},{"bike_id":"9310b7ad-2ca0-43b0-8762-7d9a2657eb36","system_id":"levelo_inurba_marseille","lat":43.26946,"lon":5.40244,"is_reserved":false,"is_disabled":false,"rental_uris":{"android":"levelo://app?vid=9310b7ad-2ca0-43b0-8762-7d9a2657eb36","ios":"levelo://app?vid=9310b7ad-2ca0-43b0-8762-7d9a2657eb36"},"vehicle_type_id":"4","last_reported":1726489084,"current_range_meters":33200,"station_id":"cjm6bp8fraef2m0cb0m0","pricing_plan_id":"cebpf4jnsgd1na2vs0mg"},{"bike_id":"5c62d84b-bcac-4078-9f3e-f282f882f378","system_id":"levelo_inurba_marseille","lat":43.26059,"lon":5.39392,"is_reserved":false,"is_disabled":false,"rental_uris":{"android":"levelo://app?vid=5c62d84b-bcac-4078-9f3e-f282f882f378","ios":"levelo://app?vid=5c62d84b-bcac-4078-9f3e-f282f882f378"},"vehicle_type_id":"4","last_reported":1726489084,"current_range_meters":30000,"station_id":"ce4bhh92rcd13ifvqfj0","pricing_plan_id":"cebpf4jnsgd1na2vs0mg"},{"bike_id":"103368f7-6cf9-4f61-a9f7-0e638a4ed99a","system_id":"levelo_inurba_marseille","lat":43.24076,"lon":5.37746,"is_reserved":false,"is_disabled":false,"rental_uris":{"android":"levelo://app?vid=103368f7-6cf9-4f61-a9f7-0e638a4ed99a","ios":"levelo://app?vid=103368f7-6cf9-4f61-a9f7-0e638a4ed99a"},"vehicle_type_id":"4","last_reported":1726489084,"current_range_meters":8000,"station_id":"ce4bhnp2rcd13ifvqgvg","pricing_plan_id":"cebpf4jnsgd1na2vs0mg"},{"bike_id":"af78b383-cb47-4a8e-8a00-34ed69efc3a0","system_id":"levelo_inurba_marseille","lat":43.24089,"lon":5.3775,"is_reserved":false,"is_disabled":false,"rental_uris":{"android":"levelo://app?vid=af78b383-cb47-4a8e-8a00-34ed69efc3a0","ios":"levelo://app?vid=af78b383-cb47-4a8e-8a00-34ed69efc3a0"},"vehicle_type_id":"4","last_reported":1726489084,"current_range_meters":38800,"station_id":"ce4bhnp2rcd13ifvqgvg","pricing_plan_id":"cebpf4jnsgd1na2vs0mg"},{"bike_id":"b1a73d69-2794-4fc3-bbbc-ba8384ac10f0","system_id":"levelo_inurba_marseille","lat":43.290791,"lon":5.371548,"is_reserved":false,"is_disabled":false,"rental_uris":{"android":"levelo://app?vid=b1a73d69-2794-4fc3-bbbc-ba8384ac10f0","ios":"levelo://app?vid=b1a73d69-2794-4fc3-bbbc-ba8384ac10f0"},"vehicle_type_id":"4","last_reported":1726489084,"current_range_meters":8800,"station_id":"ce4bh5p2rcd13ifvqe4g","pricing_plan_id":"cebpf4jnsgd1na2vs0mg"},{"bike_id":"227910f0-9bce-4d02-8f3e-f8c601475d9f","system_id":"levelo_inurba_marseille","lat":43.27327,"lon":5.39076,"is_reserved":false,"is_disabled":false,"rental_uris":{"android":"levelo://app?vid=227910f0-9bce-4d02-8f3e-f8c601475d9f","ios":"levelo://app?vid=227910f0-9bce-4d02-8f3e-f8c601475d9f"},"vehicle_type_id":"4","last_reported":1726489084,"current_range_meters":9600,"station_id":"ce4bhgp2rcd13ifvqfe0","pricing_plan_id":"cebpf4jnsgd1na2vs0mg"},{"bike_id":"6d915902-9c2b-4425-b105-e945344fdb1b","system_id":"levelo_inurba_marseille","lat":43.30278,"lon":5.37701,"is_reserved":false,"is_disabled":false,"rental_uris":{"android":"levelo://app?vid=6d915902-9c2b-4425-b105-e945344fdb1b","ios":"levelo://app?vid=6d915902-9c2b-4425-b105-e945344fdb1b"},"vehicle_type_id":"4","last_reported":1726489084,"current_range_meters":35200,"station_id":"ce4bguh2rcd13ifvqcj0","pricing_plan_id":"cebpf4jnsgd1na2vs0mg"},{"bike_id":"1aa4718f-9c27-4777-bb45-8e9f7bbf680a","system_id":"levelo_inurba_marseille","lat":43.28281,"lon":5.350654,"is_reserved":false,"is_disabled":false,"rental_uris":{"android":"levelo://app?vid=1aa4718f-9c27-4777-bb45-8e9f7bbf680a","ios":"levelo://app?vid=1aa4718f-9c27-4777-bb45-8e9f7bbf680a"},"vehicle_type_id":"4","last_reported":1726489084,"current_range_meters":6400,"station_id":"ce4bhbp2rcd13ifvqerg","pricing_plan_id":"cebpf4jnsgd1na2vs0mg"},{"bike_id":"efe949fd-d725-479a-ab8c-53377abedaf8","system_id":"levelo_inurba_marseille","lat":43.30143,"lon":5.38792,"is_reserved":false,"is_disabled":false,"rental_uris":{"android":"levelo://app?vid=efe949fd-d725-479a-ab8c-53377abedaf8","ios":"levelo://app?vid=efe949fd-d725-479a-ab8c-53377abedaf8"},"vehicle_type_id":"4","last_reported":1726489084,"current_range_meters":38800,"station_id":"ce4bgkh2rcd13ifvqbl0","pricing_plan_id":"cebpf4jnsgd1na2vs0mg"},{"bike_id":"5897d7f3-bccb-4c20-b95a-a44cd028be89","system_id":"levelo_inurba_marseille","lat":43.29274,"lon":5.36837,"is_reserved":false,"is_disabled":false,"rental_uris":{"android":"levelo://app?vid=5897d7f3-bccb-4c20-b95a-a44cd028be89","ios":"levelo://app?vid=5897d7f3-bccb-4c20-b95a-a44cd028be89"},"vehicle_type_id":"4","last_reported":1726489084,"current_range_meters":20400,"station_id":"ce4bhbp2rcd13ifvqesg","pricing_plan_id":"cebpf4jnsgd1na2vs0mg"},{"bike_id":"72742191-7b9c-4194-91e0-bfe36416a863","system_id":"levelo_inurba_marseille","lat":43.29421,"lon":5.38623,"is_reserved":false,"is_disabled":false,"rental_uris":{"android":"levelo://app?vid=72742191-7b9c-4194-91e0-bfe36416a863","ios":"levelo://app?vid=72742191-7b9c-4194-91e0-bfe36416a863"},"vehicle_type_id":"4","last_reported":1726489084,"current_range_meters":14800,"station_id":"ce4bh2h2rcd13ifvqdh0","pricing_plan_id":"cebpf4jnsgd1na2vs0mg"},{"bike_id":"dbf8ea2c-01ce-4252-9070-3739811ee1fa","system_id":"levelo_inurba_marseille","lat":43.31369,"lon":5.38486,"is_reserved":false,"is_disabled":false,"rental_uris":{"android":"levelo://app?vid=dbf8ea2c-01ce-4252-9070-3739811ee1fa","ios":"levelo://app?vid=dbf8ea2c-01ce-4252-9070-3739811ee1fa"},"vehicle_type_id":"4","last_reported":1726489084,"current_range_meters":27600,"station_id":"ce4bgt92rcd13ifvqcf0","pricing_plan_id":"cebpf4jnsgd1na2vs0mg"},{"bike_id":"1ee9f5bf-a4d8-4ac9-9385-430da669cae2","system_id":"levelo_inurba_marseille","lat":43.30273,"lon":5.37694,"is_reserved":false,"is_disabled":false,"rental_uris":{"android":"levelo://app?vid=1ee9f5bf-a4d8-4ac9-9385-430da669cae2","ios":"levelo://app?vid=1ee9f5bf-a4d8-4ac9-9385-430da669cae2"},"vehicle_type_id":"4","last_reported":1726489084,"current_range_meters":38800,"station_id":"ce4bguh2rcd13ifvqcj0","pricing_plan_id":"cebpf4jnsgd1na2vs0mg"},{"bike_id":"328d45f9-980e-4811-97c0-47d761861509","system_id":"levelo_inurba_marseille","lat":43.29847,"lon":5.37836,"is_reserved":false,"is_disabled":false,"rental_uris":{"android":"levelo://app?vid=328d45f9-980e-4811-97c0-47d761861509","ios":"levelo://app?vid=328d45f9-980e-4811-97c0-47d761861509"},"vehicle_type_id":"4","last_reported":1726489084,"current_range_meters":24000,"station_id":"ce4bgkh2rcd13ifvqbl0","pricing_plan_id":"cebpf4jnsgd1na2vs0mg"},{"bike_id":"4896d151-2d9e-453e-bdd1-c2fc4dc1aa85","system_id":"levelo_inurba_marseille","lat":43.24669,"lon":5.38161,"is_reserved":false,"is_disabled":false,"rental_uris":{"android":"levelo://app?vid=4896d151-2d9e-453e-bdd1-c2fc4dc1aa85","ios":"levelo://app?vid=4896d151-2d9e-453e-bdd1-c2fc4dc1aa85"},"vehicle_type_id":"4","last_reported":1726489084,"current_range_meters":38800,"station_id":"ce4bhih2rcd13ifvqfr0","pricing_plan_id":"cebpf4jnsgd1na2vs0mg"},{"bike_id":"303b6c36-033a-44f5-be5d-7c8502084743","system_id":"levelo_inurba_marseille","lat":43.2678,"lon":5.39413,"is_reserved":false,"is_disabled":false,"rental_uris":{"android":"levelo://app?vid=303b6c36-033a-44f5-be5d-7c8502084743","ios":"levelo://app?vid=303b6c36-033a-44f5-be5d-7c8502084743"},"vehicle_type_id":"4","last_reported":1726489084,"current_range_meters":38800,"station_id":"ce4bhh12rcd13ifvqfg0","pricing_plan_id":"cebpf4jnsgd1na2vs0mg"},{"bike_id":"03fcd348-65dd-4ce7-8e09-0ca6e760c880","system_id":"levelo_inurba_marseille","lat":43.28853,"lon":5.39297,"is_reserved":false,"is_disabled":false,"rental_uris":{"android":"levelo://app?vid=03fcd348-65dd-4ce7-8e09-0ca6e760c880","ios":"levelo://app?vid=03fcd348-65dd-4ce7-8e09-0ca6e760c880"},"vehicle_type_id":"4","last_reported":1726489084,"current_range_meters":2000,"station_id":"ce4bh2p2rcd13ifvqdi0","pricing_plan_id":"cebpf4jnsgd1na2vs0mg"},{"bike_id":"faf816e6-4e87-4e93-88d4-5861eae33b5c","system_id":"levelo_inurba_marseille","lat":43.24088,"lon":5.3776,"is_reserved":false,"is_disabled":false,"rental_uris":{"android":"levelo://app?vid=faf816e6-4e87-4e93-88d4-5861eae33b5c","ios":"levelo://app?vid=faf816e6-4e87-4e93-88d4-5861eae33b5c"},"vehicle_type_id":"4","last_reported":1726489084,"current_range_meters":20400,"station_id":"ce4bhnp2rcd13ifvqgvg","pricing_plan_id":"cebpf4jnsgd1na2vs0mg"},{"bike_id":"d1bc1a92-c34f-45bd-b470-2fca788491ee","system_id":"levelo_inurba_marseille","lat":43.32481,"lon":5.36576,"is_reserved":false,"is_disabled":false,"rental_uris":{"android":"levelo://app?vid=d1bc1a92-c34f-45bd-b470-2fca788491ee","ios":"levelo://app?vid=d1bc1a92-c34f-45bd-b470-2fca788491ee"},"vehicle_type_id":"4","last_reported":1726489084,"current_range_meters":37600,"station_id":"ce4bhs12rcd13ifvqhvg","pricing_plan_id":"cebpf4jnsgd1na2vs0mg"},{"bike_id":"78b312f5-c1e3-4bf1-bee0-121660a437d4","system_id":"levelo_inurba_marseille","lat":43.29264,"lon":5.3845,"is_reserved":false,"is_disabled":false,"rental_uris":{"android":"levelo://app?vid=78b312f5-c1e3-4bf1-bee0-121660a437d4","ios":"levelo://app?vid=78b312f5-c1e3-4bf1-bee0-121660a437d4"},"vehicle_type_id":"4","last_reported":1726489084,"current_range_meters":28800,"station_id":"ce4bh692rcd13ifvqea0","pricing_plan_id":"cebpf4jnsgd1na2vs0mg"},{"bike_id":"009c7e0a-a052-421a-8cf8-bac7ad9b461e","system_id":"levelo_inurba_marseille","lat":43.26685,"lon":5.38267,"is_reserved":false,"is_disabled":false,"rental_uris":{"android":"levelo://app?vid=009c7e0a-a052-421a-8cf8-bac7ad9b461e","ios":"levelo://app?vid=009c7e0a-a052-421a-8cf8-bac7ad9b461e"},"vehicle_type_id":"4","last_reported":1726489084,"current_range_meters":30800,"station_id":"ce4bhg92rcd13ifvqf90","pricing_plan_id":"cebpf4jnsgd1na2vs0mg"},{"bike_id":"fa690805-233a-4a70-a9f3-33f1b67cdb1f","system_id":"levelo_inurba_marseille","lat":43.32295,"lon":5.3826,"is_reserved":false,"is_disabled":false,"rental_uris":{"android":"levelo://app?vid=fa690805-233a-4a70-a9f3-33f1b67cdb1f","ios":"levelo://app?vid=fa690805-233a-4a70-a9f3-33f1b67cdb1f"},"vehicle_type_id":"4","last_reported":1726489084,"current_range_meters":37600,"station_id":"ce4bhr12rcd13ifvqhqg","pricing_plan_id":"cebpf4jnsgd1na2vs0mg"},{"bike_id":"8b608b96-fedf-4511-8d4b-09bad2606e1a","system_id":"levelo_inurba_marseille","lat":43.27737,"lon":5.41132,"is_reserved":false,"is_disabled":false,"rental_uris":{"android":"levelo://app?vid=8b608b96-fedf-4511-8d4b-09bad2606e1a","ios":"levelo://app?vid=8b608b96-fedf-4511-8d4b-09bad2606e1a"},"vehicle_type_id":"4","last_reported":1726489084,"current_range_meters":16400,"station_id":"","pricing_plan_id":"cebpf4jnsgd1na2vs0mg"},{"bike_id":"d687a8dc-c1c6-418b-a078-1f315f5fdb26","system_id":"levelo_inurba_marseille","lat":43.32483,"lon":5.36584,"is_reserved":false,"is_disabled":false,"rental_uris":{"android":"levelo://app?vid=d687a8dc-c1c6-418b-a078-1f315f5fdb26","ios":"levelo://app?vid=d687a8dc-c1c6-418b-a078-1f315f5fdb26"},"vehicle_type_id":"4","last_reported":1726489084,"current_range_meters":22400,"station_id":"ce4bhs12rcd13ifvqhvg","pricing_plan_id":"cebpf4jnsgd1na2vs0mg"},{"bike_id":"086643d7-2ce0-4165-9a5f-4cb425e571fc","system_id":"levelo_inurba_marseille","lat":43.29813,"lon":5.3808,"is_reserved":false,"is_disabled":false,"rental_uris":{"android":"levelo://app?vid=086643d7-2ce0-4165-9a5f-4cb425e571fc","ios":"levelo://app?vid=086643d7-2ce0-4165-9a5f-4cb425e571fc"},"vehicle_type_id":"4","last_reported":1726489084,"current_range_meters":28000,"station_id":"ce4bgip2rcd13ifvqbb0","pricing_plan_id":"cebpf4jnsgd1na2vs0mg"},{"bike_id":"ab2d7128-9deb-4bb0-9706-8b564c1875c2","system_id":"levelo_inurba_marseille","lat":43.24085,"lon":5.37743,"is_reserved":false,"is_disabled":false,"rental_uris":{"android":"levelo://app?vid=ab2d7128-9deb-4bb0-9706-8b564c1875c2","ios":"levelo://app?vid=ab2d7128-9deb-4bb0-9706-8b564c1875c2"},"vehicle_type_id":"4","last_reported":1726489084,"current_range_meters":13600,"station_id":"ce4bhnp2rcd13ifvqgvg","pricing_plan_id":"cebpf4jnsgd1na2vs0mg"},{"bike_id":"fa2b0a9f-66ad-4cd1-b7bb-93b9cffdc904","system_id":"levelo_inurba_marseille","lat":43.25934,"lon":5.40916,"is_reserved":false,"is_disabled":false,"rental_uris":{"android":"levelo://app?vid=fa2b0a9f-66ad-4cd1-b7bb-93b9cffdc904","ios":"levelo://app?vid=fa2b0a9f-66ad-4cd1-b7bb-93b9cffdc904"},"vehicle_type_id":"4","last_reported":1726489084,"current_range_meters":27600,"station_id":"ce4bhm92rcd13ifvqglg","pricing_plan_id":"cebpf4jnsgd1na2vs0mg"},{"bike_id":"d4c88bd5-a352-4ca1-93b6-38ee5b0f1032","system_id":"levelo_inurba_marseille","lat":43.28272,"lon":5.35054,"is_reserved":false,"is_disabled":false,"rental_uris":{"android":"levelo://app?vid=d4c88bd5-a352-4ca1-93b6-38ee5b0f1032","ios":"levelo://app?vid=d4c88bd5-a352-4ca1-93b6-38ee5b0f1032"},"vehicle_type_id":"4","last_reported":1726489084,"current_range_meters":20400,"station_id":"ce4bhbp2rcd13ifvqerg","pricing_plan_id":"cebpf4jnsgd1na2vs0mg"},{"bike_id":"28c6d943-5531-4458-8f95-af9087750f51","system_id":"levelo_inurba_marseille","lat":43.30545,"lon":5.36695,"is_reserved":false,"is_disabled":false,"rental_uris":{"android":"levelo://app?vid=28c6d943-5531-4458-8f95-af9087750f51","ios":"levelo://app?vid=28c6d943-5531-4458-8f95-af9087750f51"},"vehicle_type_id":"4","last_reported":1726489084,"current_range_meters":38800,"station_id":"ce4bgrp2rcd13ifvqc9g","pricing_plan_id":"cebpf4jnsgd1na2vs0mg"},{"bike_id":"fdbcf5c9-cbf7-4e0b-9305-306429af78a0","system_id":"levelo_inurba_marseille","lat":43.29452,"lon":5.39743,"is_reserved":false,"is_disabled":false,"rental_uris":{"android":"levelo://app?vid=fdbcf5c9-cbf7-4e0b-9305-306429af78a0","ios":"levelo://app?vid=fdbcf5c9-cbf7-4e0b-9305-306429af78a0"},"vehicle_type_id":"4","last_reported":1726489084,"current_range_meters":33600,"station_id":"ce4bh3h2rcd13ifvqdo0","pricing_plan_id":"cebpf4jnsgd1na2vs0mg"},{"bike_id":"2bc00c15-b391-445f-8056-cc4a33f1972d","system_id":"levelo_inurba_marseille","lat":43.25719,"lon":5.4111,"is_reserved":false,"is_disabled":false,"rental_uris":{"android":"levelo://app?vid=2bc00c15-b391-445f-8056-cc4a33f1972d","ios":"levelo://app?vid=2bc00c15-b391-445f-8056-cc4a33f1972d"},"vehicle_type_id":"4","last_reported":1726489084,"current_range_meters":24400,"station_id":"ce4bhkp2rcd13ifvqgd0","pricing_plan_id":"cebpf4jnsgd1na2vs0mg"},{"bike_id":"d2ca61ed-07b0-4f91-990e-b98a38e76d1b","system_id":"levelo_inurba_marseille","lat":43.24073,"lon":5.37752,"is_reserved":false,"is_disabled":false,"rental_uris":{"android":"levelo://app?vid=d2ca61ed-07b0-4f91-990e-b98a38e76d1b","ios":"levelo://app?vid=d2ca61ed-07b0-4f91-990e-b98a38e76d1b"},"vehicle_type_id":"4","last_reported":1726489084,"current_range_meters":38800,"station_id":"ce4bhnp2rcd13ifvqgvg","pricing_plan_id":"cebpf4jnsgd1na2vs0mg"},{"bike_id":"05676a45-5ad0-47a1-bce0-8e23f33b2fbd","system_id":"levelo_inurba_marseille","lat":43.25944,"lon":5.40901,"is_reserved":false,"is_disabled":false,"rental_uris":{"android":"levelo://app?vid=05676a45-5ad0-47a1-bce0-8e23f33b2fbd","ios":"levelo://app?vid=05676a45-5ad0-47a1-bce0-8e23f33b2fbd"},"vehicle_type_id":"4","last_reported":1726489084,"current_range_meters":20800,"station_id":"ce4bhm92rcd13ifvqglg","pricing_plan_id":"cebpf4jnsgd1na2vs0mg"},{"bike_id":"08d3ccd5-b854-4cd9-9fe1-8a9735c5a051","system_id":"levelo_inurba_marseille","lat":43.31713,"lon":5.37748,"is_reserved":false,"is_disabled":false,"rental_uris":{"android":"levelo://app?vid=08d3ccd5-b854-4cd9-9fe1-8a9735c5a051","ios":"levelo://app?vid=08d3ccd5-b854-4cd9-9fe1-8a9735c5a051"},"vehicle_type_id":"4","last_reported":1726489084,"current_range_meters":19600,"station_id":"ce4bgth2rcd13ifvqch0","pricing_plan_id":"cebpf4jnsgd1na2vs0mg"},{"bike_id":"8ce5a7f4-7567-41a9-933e-bdcf2ff2d630","system_id":"levelo_inurba_marseille","lat":43.2408,"lon":5.37757,"is_reserved":false,"is_disabled":false,"rental_uris":{"android":"levelo://app?vid=8ce5a7f4-7567-41a9-933e-bdcf2ff2d630","ios":"levelo://app?vid=8ce5a7f4-7567-41a9-933e-bdcf2ff2d630"},"vehicle_type_id":"4","last_reported":1726489084,"current_range_meters":16000,"station_id":"ce4bhnp2rcd13ifvqgvg","pricing_plan_id":"cebpf4jnsgd1na2vs0mg"},{"bike_id":"a6450a4f-ab7d-46ce-8102-3f9585ec3842","system_id":"levelo_inurba_marseille","lat":43.298982,"lon":5.397486,"is_reserved":false,"is_disabled":false,"rental_uris":{"android":"levelo://app?vid=a6450a4f-ab7d-46ce-8102-3f9585ec3842","ios":"levelo://app?vid=a6450a4f-ab7d-46ce-8102-3f9585ec3842"},"vehicle_type_id":"4","last_reported":1726489084,"current_range_meters":38800,"station_id":"ce4bh0h2rcd13ifvqd50","pricing_plan_id":"cebpf4jnsgd1na2vs0mg"},