{"last_updated":1747113031,"ttl":60,"version":"2.2","data":{"bikes":[{"bike_id":"fc2577e7-1497-425b-9d4f-ab8d7dc843c6","system_id":"levelo_inurba_marseille","lat":43.33771,"lon":5.37485,"is_reserved":false,"is_disabled":false,"rental_uris":{"android":"levelo://app?vid=fc2577e7-1497-425b-9d4f-ab8d7dc843c6","ios":"levelo://app?vid=fc2577e7-1497-425b-9d4f-ab8d7dc843c6"},"vehicle_type_id":"4","last_reported":1747113031,"current_range_meters":2800,"station_id":"","pricing_plan_id":"cebpf4jnsgd1na2vs0mg"},{"bike_id":"3ae1cd74-71fb-47ba-ac9b-3b9bc8cd8449","system_id":"levelo_inurba_marseille","lat":43.217397,"lon":5.346075,"is_reserved":false,"is_disabled":false,"rental_uris":{"android":"levelo://app?vid=3ae1cd74-71fb-47ba-ac9b-3b9bc8cd8449","ios":"levelo://app?vid=3ae1cd74-71fb-47ba-ac9b-3b9bc8cd8449"},"vehicle_type_id":"4","last_reported":1747113031,"current_range_meters":2800,"station_id":"st_cvj6r9ubvosntc0bgbag","pricing_plan_id":"cebpf4jnsgd1na2vs0mg"},{"bike_id":"2d789099-a508-4f13-9b86-cbba56b0c5b7","system_id":"levelo_inurba_marseille","lat":43.26555,"lon":5.39044,"is_reserved":false,"is_disabled":false,"rental_uris":{"android":"levelo://app?vid=2d789099-a508-4f13-9b86-cbba56b0c5b7","ios":"levelo://app?vid=2d789099-a508-4f13-9b86-cbba56b0c5b7"},"vehicle_type_id":"4","last_reported":1747113031,"current_range_meters":2800,"station_id":"ce4bhe12rcd13ifvqf30","pricing_plan_id":"cebpf4jnsgd1na2vs0mg"},{"bike_id":"0fedde00-40eb-40d2-8fc2-e61ecce46b7b","system_id":"levelo_inurba_marseille","lat":43.28287,"lon":5.43216,"is_reserved":false,"is_disabled":false,"rental_uris":{"android":"levelo://app?vid=0fedde00-40eb-40d2-8fc2-e61ecce46b7b","ios":"levelo://app?vid=0fedde00-40eb-40d2-8fc2-e61ecce46b7b"},"vehicle_type_id":"4","last_reported":1747113031,"current_range_meters":2800,"station_id":"","pricing_plan_id":"cebpf4jnsgd1na2vs0mg"},{"bike_id":"14fb0c6b-a461-472f-bfa9-bb6477469595","system_id":"levelo_inurba_marseille","lat":43.29035,"lon":5.39965,"is_reserved":false,"is_disabled":false,"rental_uris":{"android":"levelo://app?vid=14fb0c6b-a461-472f-bfa9-bb6477469595","ios":"levelo://app?vid=14fb0c6b-a461-472f-bfa9-bb6477469595"},"vehicle_type_id":"4","last_reported":1747113031,"current_range_meters":2800,"station_id":"ce4bh392rcd13ifvqdm0","pricing_plan_id":"cebpf4jnsgd1na2vs0mg"},{"bike_id":"aba16c61-ea08-4da4-9b4a-99504f3e1a5f","system_id":"levelo_inurba_marseille","lat":43.2468,"lon":5.38204,"is_reserved":false,"is_disabled":false,"rental_uris":{"android":"levelo://app?vid=aba16c61-ea08-4da4-9b4a-99504f3e1a5f","ios":"levelo://app?vid=aba16c61-ea08-4da4-9b4a-99504f3e1a5f"},"vehicle_type_id":"4","last_reported":1747113031,"current_range_meters":3200,"station_id":"ce4bhih2rcd13ifvqfr0","pricing_plan_id":"cebpf4jnsgd1na2vs0mg"},{"bike_id":"1838afde-afc3-4eda-8678-62b4dcd0e305","system_id":"levelo_inurba_marseille","lat":43.24067,"lon":5.37755,"is_reserved":false,"is_disabled":false,"rental_uris":{"android":"levelo://app?vid=1838afde-afc3-4eda-8678-62b4dcd0e305","ios":"levelo://app?vid=1838afde-afc3-4eda-8678-62b4dcd0e305"},"vehicle_type_id":"4","last_reported":1747113031,"current_range_meters":3200,"station_id":"ce4bhnp2rcd13ifvqgvg","pricing_plan_id":"cebpf4jnsgd1na2vs0mg"},{"bike_id":"b1b8c807-8597-4a9c-bbcd-a2746fd63865","system_id":"levelo_inurba_marseille","lat":43.252794,"lon":5.399203,"is_reserved":false,"is_disabled":false,"rental_uris":{"android":"levelo://app?vid=b1b8c807-8597-4a9c-bbcd-a2746fd63865","ios":"levelo://app?vid=b1b8c807-8597-4a9c-bbcd-a2746fd63865"},"vehicle_type_id":"4","last_reported":1747113031,"current_range_meters":3200,"station_id":"","pricing_plan_id":"cebpf4jnsgd1na2vs0mg"},{"bike_id":"129c03ab-3dcf-46d9-96ab-a3c8ac304f4a","system_id":"levelo_inurba_marseille","lat":43.26556,"lon":5.390205,"is_reserved":false,"is_disabled":true,"rental_uris":{"android":"levelo://app?vid=129c03ab-3dcf-46d9-96ab-a3c8ac304f4a","ios":"levelo://app?vid=129c03ab-3dcf-46d9-96ab-a3c8ac304f4a"},"vehicle_type_id":"4","last_reported":1747113031,"current_range_meters":3200,"station_id":"ce4bhe12rcd13ifvqf30","pricing_plan_id":"cebpf4jnsgd1na2vs0mg"},{"bike_id":"83a81ffb-3d1c-4122-a406-60b114a380fc","system_id":"levelo_inurba_marseille","lat":43.21216,"lon":5.35078,"is_reserved":false,"is_disabled":false,"rental_uris":{"android":"levelo://app?vid=83a81ffb-3d1c-4122-a406-60b114a380fc","ios":"levelo://app?vid=83a81ffb-3d1c-4122-a406-60b114a380fc"},"vehicle_type_id":"4","last_reported":1747113031,"current_range_meters":3600,"station_id":"st_cvj6sg6p6f1abm77japg","pricing_plan_id":"cebpf4jnsgd1na2vs0mg"},{"bike_id":"3af4ea27-8b9d-4242-9959-92c20ce66e63","system_id":"levelo_inurba_marseille","lat":43.27573,"lon":5.38411,"is_reserved":false,"is_disabled":false,"rental_uris":{"android":"levelo://app?vid=3af4ea27-8b9d-4242-9959-92c20ce66e63","ios":"levelo://app?vid=3af4ea27-8b9d-4242-9959-92c20ce66e63"},"vehicle_type_id":"4","last_reported":1747113031,"current_range_meters":4000,"station_id":"ce4bhh92rcd13ifvqfi0","pricing_plan_id":"cebpf4jnsgd1na2vs0mg"},{"bike_id":"842512c1-c47a-4299-8023-743fe242896b","system_id":"levelo_inurba_marseille","lat":43.24654,"lon":5.38931,"is_reserved":false,"is_disabled":false,"rental_uris":{"android":"levelo://app?vid=842512c1-c47a-4299-8023-743fe242896b","ios":"levelo://app?vid=842512c1-c47a-4299-8023-743fe242896b"},"vehicle_type_id":"4","last_reported":1747113031,"current_range_meters":4000,"station_id":"","pricing_plan_id":"cebpf4jnsgd1na2vs0mg"},{"bike_id":"37de1aed-1149-4673-8960-0c1e46b86a56","system_id":"levelo_inurba_marseille","lat":43.319961,"lon":5.381454,"is_reserved":false,"is_disabled":false,"rental_uris":{"android":"levelo://app?vid=37de1aed-1149-4673-8960-0c1e46b86a56","ios":"levelo://app?vid=37de1aed-1149-4673-8960-0c1e46b86a56"},"vehicle_type_id":"4","last_reported":1747113031,"current_range_meters":4400,"station_id":"ce4bhr12rcd13ifvqhpg","pricing_plan_id":"cebpf4jnsgd1na2vs0mg"},{"bike_id":"5f9b62df-1db7-4452-8caf-5538e3287ca8","system_id":"levelo_inurba_marseille","lat":43.293609,"lon":5.42829,"is_reserved":false,"is_disabled":false,"rental_uris":{"android":"levelo://app?vid=5f9b62df-1db7-4452-8caf-5538e3287ca8","ios":"levelo://app?vid=5f9b62df-1db7-4452-8caf-5538e3287ca8"},"vehicle_type_id":"4","last_reported":1747113031,"current_range_meters":4400,"station_id":"","pricing_plan_id":"cebpf4jnsgd1na2vs0mg"},{"bike_id":"79f767b1-523b-4188-996e-cfe61a261e86","system_id":"levelo_inurba_marseille","lat":43.241736,"lon":5.397372,"is_reserved":false,"is_disabled":false,"rental_uris":{"android":"levelo://app?vid=79f767b1-523b-4188-996e-cfe61a261e86","ios":"levelo://app?vid=79f767b1-523b-4188-996e-cfe61a261e86"},"vehicle_type_id":"4","last_reported":1747113031,"current_range_meters":4800,"station_id":"ce4bhn12rcd13ifvqgpg","pricing_plan_id":"cebpf4jnsgd1na2vs0mg"},{"bike_id":"2deb1013-2a4e-4281-83f4-5de1b133ca70","system_id":"levelo_inurba_marseille","lat":43.29902,"lon":5.43682,"is_reserved":false,"is_disabled":false,"rental_uris":{"android":"levelo://app?vid=2deb1013-2a4e-4281-83f4-5de1b133ca70","ios":"levelo://app?vid=2deb1013-2a4e-4281-83f4-5de1b133ca70"},"vehicle_type_id":"4","last_reported":1747113031,"current_range_meters":4800,"station_id":"ce4bhpp2rcd13ifvqhfg","pricing_plan_id":"cebpf4jnsgd1na2vs0mg"},{"bike_id":"c166edd6-904a-4bc0-bde0-4462b8738864","system_id":"levelo_inurba_marseille","lat":43.24166,"lon":5.36424,"is_reserved":false,"is_disabled":false,"rental_uris":{"android":"levelo://app?vid=c166edd6-904a-4bc0-bde0-4462b8738864","ios":"levelo://app?vid=c166edd6-904a-4bc0-bde0-4462b8738864"},"vehicle_type_id":"4","last_reported":1747113031,"current_range_meters":5600,"station_id":"cpo36qri1sfpv3e86is0","pricing_plan_id":"cebpf4jnsgd1na2vs0mg"},{"bike_id":"daf4e063-31f2-4b88-aa14-a8b6f4bed22c","system_id":"levelo_inurba_marseille","lat":43.30409,"lon":5.39756,"is_reserved":false,"is_disabled":true,"rental_uris":{"android":"levelo://app?vid=daf4e063-31f2-4b88-aa14-a8b6f4bed22c","ios":"levelo://app?vid=daf4e063-31f2-4b88-aa14-a8b6f4bed22c"},"vehicle_type_id":"4","last_reported":1747113031,"current_range_meters":6000,"station_id":"ce4bh092rcd13ifvqd20","pricing_plan_id":"cebpf4jnsgd1na2vs0mg"},{"bike_id":"864ce70f-1098-4973-90a9-d5c9b927170c","system_id":"levelo_inurba_marseille","lat":43.30406,"lon":5.42494,"is_reserved":false,"is_disabled":false,"rental_uris":{"android":"levelo://app?vid=864ce70f-1098-4973-90a9-d5c9b927170c","ios":"levelo://app?vid=864ce70f-1098-4973-90a9-d5c9b927170c"},"vehicle_type_id":"4","last_reported":1747113031,"current_range_meters":6400,"station_id":"ce4bghh2rcd13ifvqb60","pricing_plan_id":"cebpf4jnsgd1na2vs0mg"},{"bike_id":"1efd5ed7-ddfe-407c-bfe9-7df51383e995","system_id":"levelo_inurba_marseille","lat":43.28416,"lon":5.34998,"is_reserved":false,"is_disabled":false,"rental_uris":{"android":"levelo://app?vid=1efd5ed7-ddfe-407c-bfe9-7df51383e995","ios":"levelo://app?vid=1efd5ed7-ddfe-407c-bfe9-7df51383e995"},"vehicle_type_id":"4","last_reported":1747113031,"current_range_meters":6400,"station_id":"ce4bhbh2rcd13ifvqepg","pricing_plan_id":"cebpf4jnsgd1na2vs0mg"},{"bike_id":"07906222-2b4a-41c8-81b8-764e1af25193","system_id":"levelo_inurba_marseille","lat":43.29027,"lon":5.37573,"is_reserved":false,"is_disabled":false,"rental_uris":{"android":"levelo://app?vid=07906222-2b4a-41c8-81b8-764e1af25193","ios":"levelo://app?vid=07906222-2b4a-41c8-81b8-764e1af25193"},"vehicle_type_id":"4","last_reported":1747113031,"current_range_meters":6000,"station_id":"ce4bh692rcd13ifvqe90","pricing_plan_id":"cebpf4jnsgd1na2vs0mg"},{"bike_id":"f39bbe5a-4dad-40ae-9813-fc9649277bd5","system_id":"levelo_inurba_marseille","lat":43.231851,"lon":5.355749,"is_reserved":false,"is_disabled":false,"rental_uris":{"android":"levelo://app?vid=f39bbe5a-4dad-40ae-9813-fc9649277bd5","ios":"levelo://app?vid=f39bbe5a-4dad-40ae-9813-fc9649277bd5"},"vehicle_type_id":"4","last_reported":1747113031,"current_range_meters":6400,"station_id":"ce4bhu92rcd13ifvqi70","pricing_plan_id":"cebpf4jnsgd1na2vs0mg"},{"bike_id":"63e9444f-c14c-435d-9c33-22d8afa9b431","system_id":"levelo_inurba_marseille","lat":43.28593,"lon":5.39537,"is_reserved":false,"is_disabled":true,"rental_uris":{"android":"levelo://app?vid=63e9444f-c14c-435d-9c33-22d8afa9b431","ios":"levelo://app?vid=63e9444f-c14c-435d-9c33-22d8afa9b431"},"vehicle_type_id":"4","last_reported":1747113031,"current_range_meters":6400,"station_id":"ce4bh292rcd13ifvqdg0","pricing_plan_id":"cebpf4jnsgd1na2vs0mg"},{"bike_id":"671f1f53-8d82-4ed4-ade1-f1720e0973b5","system_id":"levelo_inurba_marseille","lat":43.28162,"lon":5.42669,"is_reserved":false,"is_disabled":false,"rental_uris":{"android":"levelo://app?vid=671f1f53-8d82-4ed4-ade1-f1720e0973b5","ios":"levelo://app?vid=671f1f53-8d82-4ed4-ade1-f1720e0973b5"},"vehicle_type_id":"4","last_reported":1747113031,"current_range_meters":6800,"station_id":"ce4bhnh2rcd13ifvqgug","pricing_plan_id":"cebpf4jnsgd1na2vs0mg"},{"bike_id":"b2e8f874-de9c-484f-9976-af989bbdd976","system_id":"levelo_inurba_marseille","lat":43.306379,"lon":5.40073,"is_reserved":false,"is_disabled":false,"rental_uris":{"android":"levelo://app?vid=b2e8f874-de9c-484f-9976-af989bbdd976","ios":"levelo://app?vid=b2e8f874-de9c-484f-9976-af989bbdd976"},"vehicle_type_id":"4","last_reported":1747113031,"current_range_meters":6800,"station_id":"ce4bh112rcd13ifvqda0","pricing_plan_id":"cebpf4jnsgd1na2vs0mg"},{"bike_id":"b0ac8040-90e0-41ee-a2e3-e5462910fefc","system_id":"levelo_inurba_marseille","lat":43.275408,"lon":5.412865,"is_reserved":false,"is_disabled":false,"rental_uris":{"android":"levelo://app?vid=b0ac8040-90e0-41ee-a2e3-e5462910fefc","ios":"levelo://app?vid=b0ac8040-90e0-41ee-a2e3-e5462910fefc"},"vehicle_type_id":"4","last_reported":1747113031,"current_range_meters":6800,"station_id":"","pricing_plan_id":"cebpf4jnsgd1na2vs0mg"},{"bike_id":"6fbf8556-6e02-401a-9936-76b195c94bae","system_id":"levelo_inurba_marseille","lat":43.31325,"lon":5.39686,"is_reserved":false,"is_disabled":false,"rental_uris":{"android":"levelo://app?vid=6fbf8556-6e02-401a-9936-76b195c94bae","ios":"levelo://app?vid=6fbf8556-6e02-401a-9936-76b195c94bae"},"vehicle_type_id":"4","last_reported":1747113031,"current_range_meters":6800,"station_id":"ce4bgvp2rcd13ifvqcu0","pricing_plan_id":"cebpf4jnsgd1na2vs0mg"},{"bike_id":"c47d6331-3490-479f-8407-edd7635a0103","system_id":"levelo_inurba_marseille","lat":43.281529,"lon":5.426451,"is_reserved":false,"is_disabled":false,"rental_uris":{"android":"levelo://app?vid=c47d6331-3490-479f-8407-edd7635a0103","ios":"levelo://app?vid=c47d6331-3490-479f-8407-edd7635a0103"},"vehicle_type_id":"4","last_reported":1747113031,"current_range_meters":6800,"station_id":"ce4bhnh2rcd13ifvqgug","pricing_plan_id":"cebpf4jnsgd1na2vs0mg"},{"bike_id":"98bccbc0-f31c-46d1-b09c-025d734bf0d8","system_id":"levelo_inurba_marseille","lat":43.30531,"lon":5.36708,"is_reserved":false,"is_disabled":false,"rental_uris":{"android":"levelo://app?vid=98bccbc0-f31c-46d1-b09c-025d734bf0d8","ios":"levelo://app?vid=98bccbc0-f31c-46d1-b09c-025d734bf0d8"},"vehicle_type_id":"4","last_reported":1747113031,"current_range_meters":7200,"station_id":"ce4bgrp2rcd13ifvqc9g","pricing_plan_id":"cebpf4jnsgd1na2vs0mg"},{"bike_id":"817ae355-323f-4b59-ad3f-7cabef227558","system_id":"levelo_inurba_marseille","lat":43.314834,"lon":5.373066,"is_reserved":false,"is_disabled":false,"rental_uris":{"android":"levelo://app?vid=817ae355-323f-4b59-ad3f-7cabef227558","ios":"levelo://app?vid=817ae355-323f-4b59-ad3f-7cabef227558"},"vehicle_type_id":"4","last_reported":1747113031,"current_range_meters":7200,"station_id":"ce4bgt12rcd13ifvqcd0","pricing_plan_id":"cebpf4jnsgd1na2vs0mg"},{"bike_id":"69173211-7418-4279-9c31-e67b6b55d52f","system_id":"levelo_inurba_marseille","lat":43.30672,"lon":5.40071,"is_reserved":false,"is_disabled":false,"rental_uris":{"android":"levelo://app?vid=69173211-7418-4279-9c31-e67b6b55d52f","ios":"levelo://app?vid=69173211-7418-4279-9c31-e67b6b55d52f"},"vehicle_type_id":"4","last_reported":1747113031,"current_range_meters":7200,"station_id":"ce4bh112rcd13ifvqda0","pricing_plan_id":"cebpf4jnsgd1na2vs0mg"},{"bike_id":"0a7e584e-880e-41a6-aef5-ff83f35e27d8","system_id":"levelo_inurba_marseille","lat":43.3061,"lon":5.40459,"is_reserved":false,"is_disabled":false,"rental_uris":{"android":"levelo://app?vid=0a7e584e-880e-41a6-aef5-ff83f35e27d8","ios":"levelo://app?vid=0a7e584e-880e-41a6-aef5-ff83f35e27d8"},"vehicle_type_id":"4","last_reported":1747113031,"current_range_meters":7200,"station_id":"","pricing_plan_id":"cebpf4jnsgd1na2vs0mg"},{"bike_id":"ea43783d-8b54-48fc-b7dc-9031385273ca","system_id":"levelo_inurba_marseille","lat":43.26067,"lon":5.39396,"is_reserved":false,"is_disabled":true,"rental_uris":{"android":"levelo://app?vid=ea43783d-8b54-48fc-b7dc-9031385273ca","ios":"levelo://app?vid=ea43783d-8b54-48fc-b7dc-9031385273ca"},"vehicle_type_id":"4","last_reported":1747113031,"current_range_meters":7200,"station_id":"ce4bhh92rcd13ifvqfj0","pricing_plan_id":"cebpf4jnsgd1na2vs0mg"},{"bike_id":"de4a530f-3b17-41b9-bd98-d22e64d46bdc","system_id":"levelo_inurba_marseille","lat":43.321026,"lon":5.367856,"is_reserved":false,"is_disabled":false,"rental_uris":{"android":"levelo://app?vid=de4a530f-3b17-41b9-bd98-d22e64d46bdc","ios":"levelo://app?vid=de4a530f-3b17-41b9-bd98-d22e64d46bdc"},"vehicle_type_id":"4","last_reported":1747113031,"current_range_meters":7200,"station_id":"ce4bhrh2rcd13ifvqhug","pricing_plan_id":"cebpf4jnsgd1na2vs0mg"},{"bike_id":"8713ea68-2d18-4f02-b58b-17c62786319e","system_id":"levelo_inurba_marseille","lat":43.32356,"lon":5.40612,"is_reserved":false,"is_disabled":false,"rental_uris":{"android":"levelo://app?vid=8713ea68-2d18-4f02-b58b-17c62786319e","ios":"levelo://app?vid=8713ea68-2d18-4f02-b58b-17c62786319e"},"vehicle_type_id":"4","last_reported":1747113031,"current_range_meters":8000,"station_id":"ce4bhq92rcd13ifvqhjg","pricing_plan_id":"cebpf4jnsgd1na2vs0mg"},{"bike_id":"c5eb53b8-783c-4568-bc58-af7e2dd00aa0","system_id":"levelo_inurba_marseille","lat":43.32357,"lon":5.36767,"is_reserved":false,"is_disabled":false,"rental_uris":{"android":"levelo://app?vid=c5eb53b8-783c-4568-bc58-af7e2dd00aa0","ios":"levelo://app?vid=c5eb53b8-783c-4568-bc58-af7e2dd00aa0"},"vehicle_type_id":"4","last_reported":1747113031,"current_range_meters":8000,"station_id":"ce4bhsh2rcd13ifvqi2g","pricing_plan_id":"cebpf4jnsgd1na2vs0mg"},{"bike_id":"d6defe93-e44a-481d-a104-e0a4d7584d2f","system_id":"levelo_inurba_marseille","lat":43.313188,"lon":5.397363,"is_reserved":false,"is_disabled":false,"rental_uris":{"android":"levelo://app?vid=d6defe93-e44a-481d-a104-e0a4d7584d2f","ios":"levelo://app?vid=d6defe93-e44a-481d-a104-e0a4d7584d2f"},"vehicle_type_id":"4","last_reported":1747113031,"current_range_meters":8000,"station_id":"ce4bgvp2rcd13ifvqcu0","pricing_plan_id":"cebpf4jnsgd1na2vs0mg"},{"bike_id":"decd7b5f-cddf-4dc2-a45b-9dd01f4b7747","system_id":"levelo_inurba_marseille","lat":43.24179,"lon":5.39735,"is_reserved":false,"is_disabled":false,"rental_uris":{"android":"levelo://app?vid=decd7b5f-cddf-4dc2-a45b-9dd01f4b7747","ios":"levelo://app?vid=decd7b5f-cddf-4dc2-a45b-9dd01f4b7747"},"vehicle_type_id":"4","last_reported":1747113031,"current_range_meters":8000,"station_id":"","pricing_plan_id":"cebpf4jnsgd1na2vs0mg"},{"bike_id":"96e57902-a51d-4ff0-abf7-329ea18a5e12","system_id":"levelo_inurba_marseille","lat":43.28036,"lon":5.36964,"is_reserved":false,"is_disabled":false,"rental_uris":{"android":"levelo://app?vid=96e57902-a51d-4ff0-abf7-329ea18a5e12","ios":"levelo://app?vid=96e57902-a51d-4ff0-abf7-329ea18a5e12"},"vehicle_type_id":"4","last_reported":1747113031,"current_range_meters":8000,"station_id":"ce4bha12rcd13ifvqef0","pricing_plan_id":"cebpf4jnsgd1na2vs0mg"},{"bike_id":"8b3eac21-bb1f-4170-9c40-95292bcf13c4","system_id":"levelo_inurba_marseille","lat":43.31721,"lon":5.40438,"is_reserved":false,"is_disabled":false,"rental_uris":{"android":"levelo://app?vid=8b3eac21-bb1f-4170-9c40-95292bcf13c4","ios":"levelo://app?vid=8b3eac21-bb1f-4170-9c40-95292bcf13c4"},"vehicle_type_id":"4","last_reported":1747113031,"current_range_meters":8000,"station_id":"","pricing_plan_id":"cebpf4jnsgd1na2vs0mg"},{"bike_id":"810f35a6-3e2a-45d4-885d-7ce79d7dde52","system_id":"levelo_inurba_marseille","lat":43.29046,"lon":5.399584,"is_reserved":false,"is_disabled":false,"rental_uris":{"android":"levelo://app?vid=810f35a6-3e2a-45d4-885d-7ce79d7dde52","ios":"levelo://app?vid=810f35a6-3e2a-45d4-885d-7ce79d7dde52"},"vehicle_type_id":"4","last_reported":1747113031,"current_range_meters":8000,"station_id":"ce4bh392rcd13ifvqdm0","pricing_plan_id":"cebpf4jnsgd1na2vs0mg"},{"bike_id":"cf119389-8c06-4449-a205-2b18fbb577ee","system_id":"levelo_inurba_marseille","lat":43.31768,"lon":5.40403,"is_reserved":false,"is_disabled":false,"rental_uris":{"android":"levelo://app?vid=cf119389-8c06-4449-a205-2b18fbb577ee","ios":"levelo://app?vid=cf119389-8c06-4449-a205-2b18fbb577ee"},"vehicle_type_id":"4","last_reported":1747113031,"current_range_meters":8000,"station_id":"","pricing_plan_id":"cebpf4jnsgd1na2vs0mg"},{"bike_id":"7b0310c2-4dd8-4d0d-9eaf-d38f3b6639d2","system_id":"levelo_inurba_marseille","lat":43.27285,"lon":5.39171,"is_reserved":false,"is_disabled":true,"rental_uris":{"android":"levelo://app?vid=7b0310c2-4dd8-4d0d-9eaf-d38f3b6639d2","ios":"levelo://app?vid=7b0310c2-4dd8-4d0d-9eaf-d38f3b6639d2"},"vehicle_type_id":"4","last_reported":1747113031,"current_range_meters":8400,"station_id":"ce4bhhp2rcd13ifvqfm0","pricing_plan_id":"cebpf4jnsgd1na2vs0mg"},{"bike_id":"b3d7a4d3-78a5-43a0-9843-e302414df266","system_id":"levelo_inurba_marseille","lat":43.27898,"lon":5.3959,"is_reserved":false,"is_disabled":false,"rental_uris":{"android":"levelo://app?vid=b3d7a4d3-78a5-43a0-9843-e302414df266","ios":"levelo://app?vid=b3d7a4d3-78a5-43a0-9843-e302414df266"},"vehicle_type_id":"4","last_reported":1747113031,"current_range_meters":8400,"station_id":"ce4bhf92rcd13ifvqf40","pricing_plan_id":"cebpf4jnsgd1na2vs0mg"},{"bike_id":"e0b16578-b75c-49a0-be9b-59a4685629b7","system_id":"levelo_inurba_marseille","lat":43.28135,"lon":5.42642,"is_reserved":false,"is_disabled":false,"rental_uris":{"android":"levelo://app?vid=e0b16578-b75c-49a0-be9b-59a4685629b7","ios":"levelo://app?vid=e0b16578-b75c-49a0-be9b-59a4685629b7"},"vehicle_type_id":"4","last_reported":1747113031,"current_range_meters":8400,"station_id":"ce4bhnh2rcd13ifvqgug","pricing_plan_id":"cebpf4jnsgd1na2vs0mg"},{"bike_id":"acca8498-5f9b-48da-a0fd-34e73dfe9abc","system_id":"levelo_inurba_marseille","lat":43.28398,"lon":5.37529,"is_reserved":false,"is_disabled":false,"rental_uris":{"android":"levelo://app?vid=acca8498-5f9b-48da-a0fd-34e73dfe9abc","ios":"levelo://app?vid=acca8498-5f9b-48da-a0fd-34e73dfe9abc"},"vehicle_type_id":"4","last_reported":1747113031,"current_range_meters":8800,"station_id":"ce4bh412rcd13ifvqds0","pricing_plan_id":"cebpf4jnsgd1na2vs0mg"},{"bike_id":"cc1bcafa-eaff-46f7-b925-7e722bd2b66b","system_id":"levelo_inurba_marseille","lat":43.26818,"lon":5.4022,"is_reserved":false,"is_disabled":false,"rental_uris":{"android":"levelo://app?vid=cc1bcafa-eaff-46f7-b925-7e722bd2b66b","ios":"levelo://app?vid=cc1bcafa-eaff-46f7-b925-7e722bd2b66b"},"vehicle_type_id":"4","last_reported":1747113031,"current_range_meters":8800,"station_id":"ce501612rcd8frsf0b60","pricing_plan_id":"cebpf4jnsgd1na2vs0mg"},{"bike_id":"3c281eff-7dc7-407f-8e9d-0238a4fa94bd","system_id":"levelo_inurba_marseille","lat":43.31325,"lon":5.39718,"is_reserved":false,"is_disabled":false,"rental_uris":{"android":"levelo://app?vid=3c281eff-7dc7-407f-8e9d-0238a4fa94bd","ios":"levelo://app?vid=3c281eff-7dc7-407f-8e9d-0238a4fa94bd"},"vehicle_type_id":"4","last_reported":1747113031,"current_range_meters":8800,"station_id":"ce4bgvp2rcd13ifvqcu0","pricing_plan_id":"cebpf4jnsgd1na2vs0mg"},{"bike_id":"716e0f00-1566-4a7e-a8b9-e05eb17ac39c","system_id":"levelo_inurba_marseille","lat":43.31175,"lon":5.38706,"is_reserved":false,"is_disabled":false,"rental_uris":{"android":"levelo://app?vid=716e0f00-1566-4a7e-a8b9-e05eb17ac39c","ios":"levelo://app?vid=716e0f00-1566-4a7e-a8b9-e05eb17ac39c"},"vehicle_type_id":"4","last_reported":1747113031,"current_range_meters":8800,"station_id":"ce4bgv12rcd13ifvqcp0","pricing_plan_id":"cebpf4jnsgd1na2vs0mg"},{"bike_id":"b72a4969-059b-4185-8447-533da62c3c19","system_id":"levelo_inurba_marseille","lat":43.24689,"lon":5.38184,"is_reserved":false,"is_disabled":false,"rental_uris":{"android":"levelo://app?vid=b72a4969-059b-4185-8447-533da62c3c19","ios":"levelo://app?vid=b72a4969-059b-4185-8447-533da62c3c19"},"vehicle_type_id":"4","last_reported":1747113031,"current_range_meters":8800,"station_id":"ce4bhih2rcd13ifvqfr0","pricing_plan_id":"cebpf4jnsgd1na2vs0mg"},{"bike_id":"cbc7eed1-f7c6-43f2-b64f-3b59b18e7401","system_id":"levelo_inurba_marseille","lat":43.22482,"lon":5.34756,"is_reserved":false,"is_disabled":true,"rental_uris":{"android":"levelo://app?vid=cbc7eed1-f7c6-43f2-b64f-3b59b18e7401","ios":"levelo://app?vid=cbc7eed1-f7c6-43f2-b64f-3b59b18e7401"},"vehicle_type_id":"4","last_reported":1747113031,"current_range_meters":8800,"station_id":"st_cvj5dfep6f1abm77gieg","pricing_plan_id":"cebpf4jnsgd1na2vs0mg"},{"bike_id":"2ee4d910-0ee1-4bc5-86c8-c77afad12b4f","system_id":"levelo_inurba_marseille","lat":43.320999,"lon":5.367999,"is_reserved":false,"is_disabled":false,"rental_uris":{"android":"levelo://app?vid=2ee4d910-0ee1-4bc5-86c8-c77afad12b4f","ios":"levelo://app?vid=2ee4d910-0ee1-4bc5-86c8-c77afad12b4f"},"vehicle_type_id":"4","last_reported":1747113031,"current_range_meters":8800,"station_id":"ce4bhrh2rcd13ifvqhug","pricing_plan_id":"cebpf4jnsgd1na2vs0mg"},{"bike_id":"ebacf0ee-0e7d-49e6-afdb-a7b7548fb163","system_id":"levelo_inurba_marseille","lat":43.301437,"lon":5.380942,"is_reserved":false,"is_disabled":false,"rental_uris":{"android":"levelo://app?vid=ebacf0ee-0e7d-49e6-afdb-a7b7548fb163","ios":"levelo://app?vid=ebacf0ee-0e7d-49e6-afdb-a7b7548fb163"},"vehicle_type_id":"4","last_reported":1747113031,"current_range_meters":9200,"station_id":"ce4bgjp2rcd13ifvqbh0","pricing_plan_id":"cebpf4jnsgd1na2vs0mg"},{"bike_id":"b49c1e48-4bbf-4fd1-bf90-fe88ef997d43","system_id":"levelo_inurba_marseille","lat":43.309273,"lon":5.401461,"is_reserved":false,"is_disabled":false,"rental_uris":{"android":"levelo://app?vid=b49c1e48-4bbf-4fd1-bf90-fe88ef997d43","ios":"levelo://app?vid=b49c1e48-4bbf-4fd1-bf90-fe88ef997d43"},"vehicle_type_id":"4","last_reported":1747113031,"current_range_meters":9200,"station_id":"ce4bgvp2rcd13ifvqct0","pricing_plan_id":"cebpf4jnsgd1na2vs0mg"},{"bike_id":"7263ec53-2f0d-4a95-a3f3-91e07271074c","system_id":"levelo_inurba_marseille","lat":43.285,"lon":5.38426,"is_reserved":false,"is_disabled":false,"rental_uris":{"android":"levelo://app?vid=7263ec53-2f0d-4a95-a3f3-91e07271074c","ios":"levelo://app?vid=7263ec53-2f0d-4a95-a3f3-91e07271074c"},"vehicle_type_id":"4","last_reported":1747113031,"current_range_meters":9200,"station_id":"ce4bh512rcd13ifvqe3g","pricing_plan_id":"cebpf4jnsgd1na2vs0mg"},{"bike_id":"09667552-604c-472f-b05c-2be0e1fd2bf4","system_id":"levelo_inurba_marseille","lat":43.280331,"lon":5.369374,"is_reserved":false,"is_disabled":false,"rental_uris":{"android":"levelo://app?vid=09667552-604c-472f-b05c-2be0e1fd2bf4","ios":"levelo://app?vid=09667552-604c-472f-b05c-2be0e1fd2bf4"},"vehicle_type_id":"4","last_reported":1747113031,"current_range_meters":9200,"station_id":"ce4bha12rcd13ifvqef0","pricing_plan_id":"cebpf4jnsgd1na2vs0mg"},{"bike_id":"bb34b67e-c841-4c7a-b6c4-2655e42a61b7","system_id":"levelo_inurba_marseille","lat":43.30459,"lon":5.37903,"is_reserved":false,"is_disabled":false,"rental_uris":{"android":"levelo://app?vid=bb34b67e-c841-4c7a-b6c4-2655e42a61b7","ios":"levelo://app?vid=bb34b67e-c841-4c7a-b6c4-2655e42a61b7"},"vehicle_type_id":"4","last_reported":1747113031,"current_range_meters":9200,"station_id":"ce4bgup2rcd13ifvqcn0","pricing_plan_id":"cebpf4jnsgd1na2vs0mg"},{"bike_id":"f93d7148-cc3e-4f2f-a6f4-5ba6d803042d","system_id":"levelo_inurba_marseille","lat":43.279405,"lon":5.387194,"is_reserved":false,"is_disabled":false,"rental_uris":{"android":"levelo://app?vid=f93d7148-cc3e-4f2f-a6f4-5ba6d803042d","ios":"levelo://app?vid=f93d7148-cc3e-4f2f-a6f4-5ba6d803042d"},"vehicle_type_id":"4","last_reported":1747113031,"current_range_meters":9600,"station_id":"ce4bhg12rcd13ifvqf80","pricing_plan_id":"cebpf4jnsgd1na2vs0mg"},{"bike_id":"8f22a717-4ce8-42f7-9922-ecd69d0f4e5e","system_id":"levelo_inurba_marseille","lat":43.29243,"lon":5.4092,"is_reserved":false,"is_disabled":false,"rental_uris":{"android":"levelo://app?vid=8f22a717-4ce8-42f7-9922-ecd69d0f4e5e","ios":"levelo://app?vid=8f22a717-4ce8-42f7-9922-ecd69d0f4e5e"},"vehicle_type_id":"4","last_reported":1747113031,"current_range_meters":9600,"station_id":"ce4bh192rcd13ifvqdc0","pricing_plan_id":"cebpf4jnsgd1na2vs0mg"},{"bike_id":"4aeeb270-983d-4694-b1e3-dd9e93409636","system_id":"levelo_inurba_marseille","lat":43.29845,"lon":5.36268,"is_reserved":false,"is_disabled":false,"rental_uris":{"android":"levelo://app?vid=4aeeb270-983d-4694-b1e3-dd9e93409636","ios":"levelo://app?vid=4aeeb270-983d-4694-b1e3-dd9e93409636"},"vehicle_type_id":"4","last_reported":1747113031,"current_range_meters":9600,"station_id":"ce4bgpp2rcd13ifvqc3g","pricing_plan_id":"cebpf4jnsgd1na2vs0mg"},{"bike_id":"0941c3ab-af0d-4eb6-acb1-450ee3e543df","system_id":"levelo_inurba_marseille","lat":43.28265,"lon":5.35074,"is_reserved":false,"is_disabled":false,"rental_uris":{"android":"levelo://app?vid=0941c3ab-af0d-4eb6-acb1-450ee3e543df","ios":"levelo://app?vid=0941c3ab-af0d-4eb6-acb1-450ee3e543df"},"vehicle_type_id":"4","last_reported":1747113031,"current_range_meters":9600,"station_id":"ce4bhbp2rcd13ifvqerg","pricing_plan_id":"cebpf4jnsgd1na2vs0mg"},{"bike_id":"480977bd-d894-40ad-9026-4ea290dc9528","system_id":"levelo_inurba_marseille","lat":43.24153,"lon":5.3641,"is_reserved":false,"is_disabled":false,"rental_uris":{"android":"levelo://app?vid=480977bd-d894-40ad-9026-4ea290dc9528","ios":"levelo://app?vid=480977bd-d894-40ad-9026-4ea290dc9528"},"vehicle_type_id":"4","last_reported":1747113031,"current_range_meters":10000,"station_id":"cpo36qri1sfpv3e86is0","pricing_plan_id":"cebpf4jnsgd1na2vs0mg"},{"bike_id":"05617d14-03fb-41f1-810f-0dc29b93dde8","system_id":"levelo_inurba_marseille","lat":43.27943,"lon":5.3872,"is_reserved":false,"is_disabled":false,"rental_uris":{"android":"levelo://app?vid=05617d14-03fb-41f1-810f-0dc29b93dde8","ios":"levelo://app?vid=05617d14-03fb-41f1-810f-0dc29b93dde8"},"vehicle_type_id":"4","last_reported":1747113031,"current_range_meters":10000,"station_id":"ce4bhg12rcd13ifvqf80","pricing_plan_id":"cebpf4jnsgd1na2vs0mg"},{"bike_id":"514b5930-0fdf-4acd-bbcd-af58d719758f","system_id":"levelo_inurba_marseille","lat":43.34164,"lon":5.40922,"is_reserved":false,"is_disabled":true,"rental_uris":{"android":"levelo://app?vid=514b5930-0fdf-4acd-bbcd-af58d719758f","ios":"levelo://app?vid=514b5930-0fdf-4acd-bbcd-af58d719758f"},"vehicle_type_id":"4","last_reported":1747113031,"current_range_meters":10000,"station_id":"ce4bhqh2rcd13ifvqhlg","pricing_plan_id":"cebpf4jnsgd1na2vs0mg"},{"bike_id":"1c6eb6d7-18a7-475f-bf1d-bf448cfe2c5d","system_id":"levelo_inurba_marseille","lat":43.27909,"lon":5.39592,"is_reserved":false,"is_disabled":false,"rental_uris":{"android":"levelo://app?vid=1c6eb6d7-18a7-475f-bf1d-bf448cfe2c5d","ios":"levelo://app?vid=1c6eb6d7-18a7-475f-bf1d-bf448cfe2c5d"},"vehicle_type_id":"4","last_reported":1747113031,"current_range_meters":10000,"station_id":"ce4bhf92rcd13ifvqf40","pricing_plan_id":"cebpf4jnsgd1na2vs0mg"},{"bike_id":"779f5c3b-06ef-48f1-897e-15c00ef24199","system_id":"levelo_inurba_marseille","lat":43.28077,"lon":5.39664,"is_reserved":false,"is_disabled":false,"rental_uris":{"android":"levelo://app?vid=779f5c3b-06ef-48f1-897e-15c00ef24199","ios":"levelo://app?vid=779f5c3b-06ef-48f1-897e-15c00ef24199"},"vehicle_type_id":"4","last_reported":1747113031,"current_range_meters":10000,"station_id":"ce4bho12rcd13ifvqh2g","pricing_plan_id":"cebpf4jnsgd1na2vs0mg"},{"bike_id":"c87ad494-e1b6-4f9f-b251-de412ee48149","system_id":"levelo_inurba_marseille","lat":43.281569,"lon":5.426424,"is_reserved":false,"is_disabled":false,"rental_uris":{"android":"levelo://app?vid=c87ad494-e1b6-4f9f-b251-de412ee48149","ios":"levelo://app?vid=c87ad494-e1b6-4f9f-b251-de412ee48149"},"vehicle_type_id":"4","last_reported":1747113031,"current_range_meters":10800,"station_id":"ce4bhnh2rcd13ifvqgug","pricing_plan_id":"cebpf4jnsgd1na2vs0mg"},{"bike_id":"3d8eff64-3568-4b32-b8e0-e6710e6b904b","system_id":"levelo_inurba_marseille","lat":43.330683,"lon":5.408203,"is_reserved":false,"is_disabled":false,"rental_uris":{"android":"levelo://app?vid=3d8eff64-3568-4b32-b8e0-e6710e6b904b","ios":"levelo://app?vid=3d8eff64-3568-4b32-b8e0-e6710e6b904b"},"vehicle_type_id":"4","last_reported":1747113031,"current_range_meters":10800,"station_id":"","pricing_plan_id":"cebpf4jnsgd1na2vs0mg"},{"bike_id":"65842b62-6dfe-4b9d-b0b7-9c58aa824100","system_id":"levelo_inurba_marseille","lat":43.2753,"lon":5.38437,"is_reserved":false,"is_disabled":false,"rental_uris":{"android":"levelo://app?vid=65842b62-6dfe-4b9d-b0b7-9c58aa824100","ios":"levelo://app?vid=65842b62-6dfe-4b9d-b0b7-9c58aa824100"},"vehicle_type_id":"4","last_reported":1747113031,"current_range_meters":10800,"station_id":"ce4bhh92rcd13ifvqfi0","pricing_plan_id":"cebpf4jnsgd1na2vs0mg"},{"bike_id":"37947ea2-4144-498b-9773-6d6e7497365c","system_id":"levelo_inurba_marseille","lat":43.314778,"lon":5.373179,"is_reserved":false,"is_disabled":false,"rental_uris":{"android":"levelo://app?vid=37947ea2-4144-498b-9773-6d6e7497365c","ios":"levelo://app?vid=37947ea2-4144-498b-9773-6d6e7497365c"},"vehicle_type_id":"4","last_reported":1747113031,"current_range_meters":10800,"station_id":"ce4bgt12rcd13ifvqcd0","pricing_plan_id":"cebpf4jnsgd1na2vs0mg"},{"bike_id":"0e89a721-196d-4572-b905-e39e1dafff7a","system_id":"levelo_inurba_marseille","lat":43.321039,"lon":5.367746,"is_reserved":false,"is_disabled":false,"rental_uris":{"android":"levelo://app?vid=0e89a721-196d-4572-b905-e39e1dafff7a","ios":"levelo://app?vid=0e89a721-196d-4572-b905-e39e1dafff7a"},"vehicle_type_id":"4","last_reported":1747113031,"current_range_meters":10800,"station_id":"ce4bhrh2rcd13ifvqhug","pricing_plan_id":"cebpf4jnsgd1na2vs0mg"},{"bike_id":"c45660a4-2a75-4fe5-babc-ce5f32b31b47","system_id":"levelo_inurba_marseille","lat":43.30928,"lon":5.40159,"is_reserved":false,"is_disabled":false,"rental_uris":{"android":"levelo://app?vid=c45660a4-2a75-4fe5-babc-ce5f32b31b47","ios":"levelo://app?vid=c45660a4-2a75-4fe5-babc-ce5f32b31b47"},"vehicle_type_id":"4","last_reported":1747113031,"current_range_meters":10800,"station_id":"ce4bgvp2rcd13ifvqct0","pricing_plan_id":"cebpf4jnsgd1na2vs0mg"},{"bike_id":"855e05e9-a0e5-426c-b2ce-3b3fc636f06b","system_id":"levelo_inurba_marseille","lat":43.251092,"lon":5.403343,"is_reserved":false,"is_disabled":false,"rental_uris":{"android":"levelo://app?vid=855e05e9-a0e5-426c-b2ce-3b3fc636f06b","ios":"levelo://app?vid=855e05e9-a0e5-426c-b2ce-3b3fc636f06b"},"vehicle_type_id":"4","last_reported":1747113031,"current_range_meters":11200,"station_id":"ce4bhlh2rcd13ifvqgig","pricing_plan_id":"cebpf4jnsgd1na2vs0mg"},{"bike_id":"b95a3da1-d84f-4349-bc15-21030c7174b6","system_id":"levelo_inurba_marseille","lat":43.292759,"lon":5.401326,"is_reserved":false,"is_disabled":false,"rental_uris":{"android":"levelo://app?vid=b95a3da1-d84f-4349-bc15-21030c7174b6","ios":"levelo://app?vid=b95a3da1-d84f-4349-bc15-21030c7174b6"},"vehicle_type_id":"4","last_reported":1747113031,"current_range_meters":11200,"station_id":"ce4bh312rcd13ifvqdk0","pricing_plan_id":"cebpf4jnsgd1na2vs0mg"},{"bike_id":"ac3030fa-1740-4828-ad83-daded8929ecc","system_id":"levelo_inurba_marseille","lat":43.25523,"lon":5.40088,"is_reserved":false,"is_disabled":false,"rental_uris":{"android":"levelo://app?vid=ac3030fa-1740-4828-ad83-daded8929ecc","ios":"levelo://app?vid=ac3030fa-1740-4828-ad83-daded8929ecc"},"vehicle_type_id":"4","last_reported":1747113031,"current_range_meters":11200,"station_id":"","pricing_plan_id":"cebpf4jnsgd1na2vs0mg"},{"bike_id":"9b58c434-4f3b-4687-a714-9c8986208408","system_id":"levelo_inurba_marseille","lat":43.27912,"lon":5.39605,"is_reserved":false,"is_disabled":false,"rental_uris":{"android":"levelo://app?vid=9b58c434-4f3b-4687-a714-9c8986208408","ios":"levelo://app?vid=9b58c434-4f3b-4687-a714-9c8986208408"},"vehicle_type_id":"4","last_reported":1747113031,"current_range_meters":11200,"station_id":"ce4bhf92rcd13ifvqf40","pricing_plan_id":"cebpf4jnsgd1na2vs0mg"},{"bike_id":"315c9aa5-cd9f-4a60-8ba2-a8f8830c3824","system_id":"levelo_inurba_marseille","lat":43.32343,"lon":5.40598,"is_reserved":false,"is_disabled":false,"rental_uris":{"android":"levelo://app?vid=315c9aa5-cd9f-4a60-8ba2-a8f8830c3824","ios":"levelo://app?vid=315c9aa5-cd9f-4a60-8ba2-a8f8830c3824"},"vehicle_type_id":"4","last_reported":1747113031,"current_range_meters":11200,"station_id":"ce4bhq92rcd13ifvqhjg","pricing_plan_id":"cebpf4jnsgd1na2vs0mg"},{"bike_id":"4acebf5d-90de-4f34-bd54-e2958ed913ff","system_id":"levelo_inurba_marseille","lat":43.29277,"lon":5.40154,"is_reserved":false,"is_disabled":false,"rental_uris":{"android":"levelo://app?vid=4acebf5d-90de-4f34-bd54-e2958ed913ff","ios":"levelo://app?vid=4acebf5d-90de-4f34-bd54-e2958ed913ff"},"vehicle_type_id":"4","last_reported":1747113031,"current_range_meters":11200,"station_id":"ce4bh312rcd13ifvqdk0","pricing_plan_id":"cebpf4jnsgd1na2vs0mg"},{"bike_id":"5de1e8df-cec1-47cf-b554-41f6e726d337","system_id":"levelo_inurba_marseille","lat":43.274136,"lon":5.406119,"is_reserved":false,"is_disabled":false,"rental_uris":{"android":"levelo://app?vid=5de1e8df-cec1-47cf-b554-41f6e726d337","ios":"levelo://app?vid=5de1e8df-cec1-47cf-b554-41f6e726d337"},"vehicle_type_id":"4","last_reported":1747113031,"current_range_meters":11200,"station_id":"","pricing_plan_id":"cebpf4jnsgd1na2vs0mg"},{"bike_id":"41da10f9-c4df-4a4d-81d7-007f46c00b73","system_id":"levelo_inurba_marseille","lat":43.231859,"lon":5.399796,"is_reserved":false,"is_disabled":false,"rental_uris":{"android":"levelo://app?vid=41da10f9-c4df-4a4d-81d7-007f46c00b73","ios":"levelo://app?vid=41da10f9-c4df-4a4d-81d7-007f46c00b73"},"vehicle_type_id":"4","last_reported":1747113031,"current_range_meters":11600,"station_id":"ce4bhn12rcd13ifvqgqg","pricing_plan_id":"cebpf4jnsgd1na2vs0mg"},{"bike_id":"198d6fcd-54b0-4522-a846-5bc9669dd62a","system_id":"levelo_inurba_marseille","lat":43.31364,"lon":5.38498,"is_reserved":false,"is_disabled":false,"rental_uris":{"android":"levelo://app?vid=198d6fcd-54b0-4522-a846-5bc9669dd62a","ios":"levelo://app?vid=198d6fcd-54b0-4522-a846-5bc9669dd62a"},"vehicle_type_id":"4","last_reported":1747113031,"current_range_meters":12000,"station_id":"ce4bgt92rcd13ifvqcf0","pricing_plan_id":"cebpf4jnsgd1na2vs0mg"},{"bike_id":"f632851d-fa22-4914-8918-2ea31d10714b","system_id":"levelo_inurba_marseille","lat":43.30581,"lon":5.393576,"is_reserved":false,"is_disabled":false,"rental_uris":{"android":"levelo://app?vid=f632851d-fa22-4914-8918-2ea31d10714b","ios":"levelo://app?vid=f632851d-fa22-4914-8918-2ea31d10714b"},"vehicle_type_id":"4","last_reported":1747113031,"current_range_meters":12000,"station_id":"","pricing_plan_id":"cebpf4jnsgd1na2vs0mg"},{"bike_id":"a07af238-1d5a-492e-88df-35771675e17b","system_id":"levelo_inurba_marseille","lat":43.28718,"lon":5.37388,"is_reserved":false,"is_disabled":false,"rental_uris":{"android":"levelo://app?vid=a07af238-1d5a-492e-88df-35771675e17b","ios":"levelo://app?vid=a07af238-1d5a-492e-88df-35771675e17b"},"vehicle_type_id":"4","last_reported":1747113031,"current_range_meters":12000,"station_id":"ce4bh3p2rcd13ifvqdq0","pricing_plan_id":"cebpf4jnsgd1na2vs0mg"},{"bike_id":"354f0639-e2ee-49bc-b649-f0d89cf9efb0","system_id":"levelo_inurba_marseille","lat":43.32479,"lon":5.36584,"is_reserved":false,"is_disabled":true,"rental_uris":{"android":"levelo://app?vid=354f0639-e2ee-49bc-b649-f0d89cf9efb0","ios":"levelo://app?vid=354f0639-e2ee-49bc-b649-f0d89cf9efb0"},"vehicle_type_id":"4","last_reported":1747113031,"current_range_meters":12000,"station_id":"ce4bhs12rcd13ifvqhvg","pricing_plan_id":"cebpf4jnsgd1na2vs0mg"},{"bike_id":"5a218374-bda4-403e-a4e6-48c86af72cd3","system_id":"levelo_inurba_marseille","lat":43.30565,"lon":5.38956,"is_reserved":false,"is_disabled":false,"rental_uris":{"android":"levelo://app?vid=5a218374-bda4-403e-a4e6-48c86af72cd3","ios":"levelo://app?vid=5a218374-bda4-403e-a4e6-48c86af72cd3"},"vehicle_type_id":"4","last_reported":1747113031,"current_range_meters":12400,"station_id":"","pricing_plan_id":"cebpf4jnsgd1na2vs0mg"},{"bike_id":"c860cf20-2d6d-4124-bd93-cf59a1e3f8b8","system_id":"levelo_inurba_marseille","lat":43.265583,"lon":5.372917,"is_reserved":false,"is_disabled":false,"rental_uris":{"android":"levelo://app?vid=c860cf20-2d6d-4124-bd93-cf59a1e3f8b8","ios":"levelo://app?vid=c860cf20-2d6d-4124-bd93-cf59a1e3f8b8"},"vehicle_type_id":"4","last_reported":1747113031,"current_range_meters":12400,"station_id":"ce4bhg12rcd13ifvqf70","pricing_plan_id":"cebpf4jnsgd1na2vs0mg"},{"bike_id":"de95d53c-a8d8-42e2-bf5c-cb50d31548c5","system_id":"levelo_inurba_marseille","lat":43.28108,"lon":5.37832,"is_reserved":false,"is_disabled":false,"rental_uris":{"android":"levelo://app?vid=de95d53c-a8d8-42e2-bf5c-cb50d31548c5","ios":"levelo://app?vid=de95d53c-a8d8-42e2-bf5c-cb50d31548c5"},"vehicle_type_id":"4","last_reported":1747113031,"current_range_meters":12800,"station_id":"ce4bha12rcd13ifvqee0","pricing_plan_id":"cebpf4jnsgd1na2vs0mg"},{"bike_id":"82a2983a-aad6-4341-9119-63bff39dd4f7","system_id":"levelo_inurba_marseille","lat":43.23175,"lon":5.39985,"is_reserved":false,"is_disabled":false,"rental_uris":{"android":"levelo://app?vid=82a2983a-aad6-4341-9119-63bff39dd4f7","ios":"levelo://app?vid=82a2983a-aad6-4341-9119-63bff39dd4f7"},"vehicle_type_id":"4","last_reported":1747113031,"current_range_meters":12800,"station_id":"ce4bhn12rcd13ifvqgqg","pricing_plan_id":"cebpf4jnsgd1na2vs0mg"},{"bike_id":"719988f1-166f-483a-9ea1-617debf71305","system_id":"levelo_inurba_marseille","lat":43.28731,"lon":5.37934,"is_reserved":false,"is_disabled":false,"rental_uris":{"android":"levelo://app?vid=719988f1-166f-483a-9ea1-617debf71305","ios":"levelo://app?vid=719988f1-166f-483a-9ea1-617debf71305"},"vehicle_type_id":"4","last_reported":1747113031,"current_range_meters":12800,"station_id":"ce4bh9p2rcd13ifvqec0","pricing_plan_id":"cebpf4jnsgd1na2vs0mg"},{"bike_id":"ed82de67-f99c-423e-a19e-5a8396700ec6","system_id":"levelo_inurba_marseille","lat":43.306559,"lon":5.400857,"is_reserved":false,"is_disabled":false,"rental_uris":{"android":"levelo://app?vid=ed82de67-f99c-423e-a19e-5a8396700ec6","ios":"levelo://app?vid=ed82de67-f99c-423e-a19e-5a8396700ec6"},"vehicle_type_id":"4","last_reported":1747113031,"current_range_meters":12800,"station_id":"ce4bh112rcd13ifvqda0","pricing_plan_id":"cebpf4jnsgd1na2vs0mg"},{"bike_id":"d7562856-1d32-4d7a-bb22-ce3f7c96ebd8","system_id":"levelo_inurba_marseille","lat":43.27056,"lon":5.40264,"is_reserved":false,"is_disabled":false,"rental_uris":{"android":"levelo://app?vid=d7562856-1d32-4d7a-bb22-ce3f7c96ebd8","ios":"levelo://app?vid=d7562856-1d32-4d7a-bb22-ce3f7c96ebd8"},"vehicle_type_id":"4","last_reported":1747113031,"current_range_meters":13600,"station_id":"ce4bhk92rcd13ifvqgc0","pricing_plan_id":"cebpf4jnsgd1na2vs0mg"},{"bike_id":"dc8472a8-1e0e-48c9-8d42-8e60b4ffb2cb","system_id":"levelo_inurba_marseille","lat":43.28653,"lon":5.36362,"is_reserved":false,"is_disabled":false,"rental_uris":{"android":"levelo://app?vid=dc8472a8-1e0e-48c9-8d42-8e60b4ffb2cb","ios":"levelo://app?vid=dc8472a8-1e0e-48c9-8d42-8e60b4ffb2cb"},"vehicle_type_id":"4","last_reported":1747113031,"current_range_meters":13600,"station_id":"ce4bhah2rcd13ifvqej0","pricing_plan_id":"cebpf4jnsgd1na2vs0mg"},{"bike_id":"f702f1f1-baff-4710-b092-d4b131f8acb6","system_id":"levelo_inurba_marseille","lat":43.303761,"lon":5.424856,"is_reserved":false,"is_disabled":false,"rental_uris":{"android":"levelo://app?vid=f702f1f1-baff-4710-b092-d4b131f8acb6","ios":"levelo://app?vid=f702f1f1-baff-4710-b092-d4b131f8acb6"},"vehicle_type_id":"4","last_reported":1747113031,"current_range_meters":13600,"station_id":"ce4bhoh2rcd13ifvqh6g","pricing_plan_id":"cebpf4jnsgd1na2vs0mg"},{"bike_id":"e6ad97f1-b73e-46fd-a80f-360ecb6587de","system_id":"levelo_inurba_marseille","lat":43.27998,"lon":5.40033,"is_reserved":false,"is_disabled":false,"rental_uris":{"android":"levelo://app?vid=e6ad97f1-b73e-46fd-a80f-360ecb6587de","ios":"levelo://app?vid=e6ad97f1-b73e-46fd-a80f-360ecb6587de"},"vehicle_type_id":"4","last_reported":1747113031,"current_range_meters":13600,"station_id":"ce4bho92rcd13ifvqh4g","pricing_plan_id":"cebpf4jnsgd1na2vs0mg"},{"bike_id":"2fdc8039-2a91-416c-8148-d1e7c0df93ae","system_id":"levelo_inurba_marseille","lat":43.2291,"lon":5.35384,"is_reserved":false,"is_disabled":true,"rental_uris":{"android":"levelo://app?vid=2fdc8039-2a91-416c-8148-d1e7c0df93ae","ios":"levelo://app?vid=2fdc8039-2a91-416c-8148-d1e7c0df93ae"},"vehicle_type_id":"4","last_reported":1747113031,"current_range_meters":14000,"station_id":"cpo3532slgdg3j2ikp40","pricing_plan_id":"cebpf4jnsgd1na2vs0mg"},{"bike_id":"e8df05ea-9d41-44ac-8a3f-146c6d975e87","system_id":"levelo_inurba_marseille","lat":43.27934,"lon":5.39627,"is_reserved":false,"is_disabled":false,"rental_uris":{"android":"levelo://app?vid=e8df05ea-9d41-44ac-8a3f-146c6d975e87","ios":"levelo://app?vid=e8df05ea-9d41-44ac-8a3f-146c6d975e87"},"vehicle_type_id":"4","last_reported":1747113031,"current_range_meters":14000,"station_id":"ce4bhf92rcd13ifvqf40","pricing_plan_id":"cebpf4jnsgd1na2vs0mg"},{"bike_id":"8888139d-c848-4841-afea-959dffeb0a3c","system_id":"levelo_inurba_marseille","lat":43.29609,"lon":5.37734,"is_reserved":false,"is_disabled":false,"rental_uris":{"android":"levelo://app?vid=8888139d-c848-4841-afea-959dffeb0a3c","ios":"levelo://app?vid=8888139d-c848-4841-afea-959dffeb0a3c"},"vehicle_type_id":"4","last_reported":1747113031,"current_range_meters":14000,"station_id":"ce4bgi92rcd13ifvqb90","pricing_plan_id":"cebpf4jnsgd1na2vs0mg"},{"bike_id":"556e7d69-5d47-4a34-9e72-f2f8167566e6","system_id":"levelo_inurba_marseille","lat":43.30135,"lon":5.38787,"is_reserved":false,"is_disabled":true,"rental_uris":{"android":"levelo://app?vid=556e7d69-5d47-4a34-9e72-f2f8167566e6","ios":"levelo://app?vid=556e7d69-5d47-4a34-9e72-f2f8167566e6"},"vehicle_type_id":"4","last_reported":1747113031,"current_range_meters":14000,"station_id":"ce4bghh2rcd13ifvqb60","pricing_plan_id":"cebpf4jnsgd1na2vs0mg"},{"bike_id":"42557dae-bbe0-42c6-8015-b1021735213b","system_id":"levelo_inurba_marseille","lat":43.28443,"lon":5.35894,"is_reserved":false,"is_disabled":true,"rental_uris":{"android":"levelo://app?vid=42557dae-bbe0-42c6-8015-b1021735213b","ios":"levelo://app?vid=42557dae-bbe0-42c6-8015-b1021735213b"},"vehicle_type_id":"4","last_reported":1747113031,"current_range_meters":14400,"station_id":"ce4bhah2rcd13ifvqei0","pricing_plan_id":"cebpf4jnsgd1na2vs0mg"},{"bike_id":"d91707b8-7a71-4f5b-ad0d-d1a6247b4ed5","system_id":"levelo_inurba_marseille","lat":43.29214,"lon":5.36062,"is_reserved":false,"is_disabled":false,"rental_uris":{"android":"levelo://app?vid=d91707b8-7a71-4f5b-ad0d-d1a6247b4ed5","ios":"levelo://app?vid=d91707b8-7a71-4f5b-ad0d-d1a6247b4ed5"},"vehicle_type_id":"4","last_reported":1747113031,"current_range_meters":14400,"station_id":"ce4bhbh2rcd13ifvqeqg","pricing_plan_id":"cebpf4jnsgd1na2vs0mg"},{"bike_id":"a8d98450-92cc-44d0-b272-436af46aa0f9","system_id":"levelo_inurba_marseille","lat":43.29411,"lon":5.38619,"is_reserved":false,"is_disabled":true,"rental_uris":{"android":"levelo://app?vid=a8d98450-92cc-44d0-b272-436af46aa0f9","ios":"levelo://app?vid=a8d98450-92cc-44d0-b272-436af46aa0f9"},"vehicle_type_id":"4","last_reported":1747113031,"current_range_meters":14800,"station_id":"ce4bh2h2rcd13ifvqdh0","pricing_plan_id":"cebpf4jnsgd1na2vs0mg"},{"bike_id":"ef0f891e-d6e3-4198-aa9f-2547ee9950fb","system_id":"levelo_inurba_marseille","lat":43.281521,"lon":5.426391,"is_reserved":false,"is_disabled":false,"rental_uris":{"android":"levelo://app?vid=ef0f891e-d6e3-4198-aa9f-2547ee9950fb","ios":"levelo://app?vid=ef0f891e-d6e3-4198-aa9f-2547ee9950fb"},"vehicle_type_id":"4","last_reported":1747113031,"current_range_meters":14800,"station_id":"ce4bhnh2rcd13ifvqgug","pricing_plan_id":"cebpf4jnsgd1na2vs0mg"},{"bike_id":"60cfea43-65dd-49c5-be74-cbe13c14c76d","system_id":"levelo_inurba_marseille","lat":43.28472,"lon":5.35886,"is_reserved":false,"is_disabled":false,"rental_uris":{"android":"levelo://app?vid=60cfea43-65dd-49c5-be74-cbe13c14c76d","ios":"levelo://app?vid=60cfea43-65dd-49c5-be74-cbe13c14c76d"},"vehicle_type_id":"4","last_reported":1747113031,"current_range_meters":14800,"station_id":"ce4bhah2rcd13ifvqei0","pricing_plan_id":"cebpf4jnsgd1na2vs0mg"},{"bike_id":"817270a4-9a01-4414-b690-0ea4101d3373","system_id":"levelo_inurba_marseille","lat":43.303779,"lon":5.424878,"is_reserved":false,"is_disabled":false,"rental_uris":{"android":"levelo://app?vid=817270a4-9a01-4414-b690-0ea4101d3373","ios":"levelo://app?vid=817270a4-9a01-4414-b690-0ea4101d3373"},"vehicle_type_id":"4","last_reported":1747113031,"current_range_meters":15200,"station_id":"ce4bhoh2rcd13ifvqh6g","pricing_plan_id":"cebpf4jnsgd1na2vs0mg"},{"bike_id":"152a8b5e-e8fc-4c70-a7fd-9add15ef06b9","system_id":"levelo_inurba_marseille","lat":43.30178,"lon":5.36658,"is_reserved":false,"is_disabled":false,"rental_uris":{"android":"levelo://app?vid=152a8b5e-e8fc-4c70-a7fd-9add15ef06b9","ios":"levelo://app?vid=152a8b5e-e8fc-4c70-a7fd-9add15ef06b9"},"vehicle_type_id":"4","last_reported":1747113031,"current_range_meters":15200,"station_id":"ce4bgrh2rcd13ifvqc8g","pricing_plan_id":"cebpf4jnsgd1na2vs0mg"},{"bike_id":"56804647-9200-40e3-b22d-163739b0e936","system_id":"levelo_inurba_marseille","lat":43.306437,"lon":5.400739,"is_reserved":false,"is_disabled":false,"rental_uris":{"android":"levelo://app?vid=56804647-9200-40e3-b22d-163739b0e936","ios":"levelo://app?vid=56804647-9200-40e3-b22d-163739b0e936"},"vehicle_type_id":"4","last_reported":1747113031,"current_range_meters":16000,"station_id":"ce4bh112rcd13ifvqda0","pricing_plan_id":"cebpf4jnsgd1na2vs0mg"},{"bike_id":"386d5dbf-2a14-4801-8ee7-a8f50e4a87d8","system_id":"levelo_inurba_marseille","lat":43.21743,"lon":5.346253,"is_reserved":false,"is_disabled":false,"rental_uris":{"android":"levelo://app?vid=386d5dbf-2a14-4801-8ee7-a8f50e4a87d8","ios":"levelo://app?vid=386d5dbf-2a14-4801-8ee7-a8f50e4a87d8"},"vehicle_type_id":"4","last_reported":1747113031,"current_range_meters":16000,"station_id":"st_cvj6r9ubvosntc0bgbag","pricing_plan_id":"cebpf4jnsgd1na2vs0mg"},{"bike_id":"ef12a5ea-c05f-466b-b152-54518f397510","system_id":"levelo_inurba_marseille","lat":43.34153,"lon":5.40913,"is_reserved":false,"is_disabled":false,"rental_uris":{"android":"levelo://app?vid=ef12a5ea-c05f-466b-b152-54518f397510","ios":"levelo://app?vid=ef12a5ea-c05f-466b-b152-54518f397510"},"vehicle_type_id":"4","last_reported":1747113031,"current_range_meters":16000,"station_id":"ce4bhqh2rcd13ifvqhlg","pricing_plan_id":"cebpf4jnsgd1na2vs0mg"},{"bike_id":"49a975d3-8be0-49f2-b26a-3bee576a3c73","system_id":"levelo_inurba_marseille","lat":43.24669,"lon":5.38162,"is_reserved":false,"is_disabled":false,"rental_uris":{"android":"levelo://app?vid=49a975d3-8be0-49f2-b26a-3bee576a3c73","ios":"levelo://app?vid=49a975d3-8be0-49f2-b26a-3bee576a3c73"},"vehicle_type_id":"4","last_reported":1747113031,"current_range_meters":16000,"station_id":"ce4bhih2rcd13ifvqfr0","pricing_plan_id":"cebpf4jnsgd1na2vs0mg"},{"bike_id":"a3c63390-4929-4cbb-9c7d-5d07b98266ab","system_id":"levelo_inurba_marseille","lat":43.30956,"lon":5.39049,"is_reserved":false,"is_disabled":false,"rental_uris":{"android":"levelo://app?vid=a3c63390-4929-4cbb-9c7d-5d07b98266ab","ios":"levelo://app?vid=a3c63390-4929-4cbb-9c7d-5d07b98266ab"},"vehicle_type_id":"4","last_reported":1747113031,"current_range_meters":16000,"station_id":"ce4bgup2rcd13ifvqco0","pricing_plan_id":"cebpf4jnsgd1na2vs0mg"},{"bike_id":"0e123c4d-e8d0-4826-91b5-bc1bd261f062","system_id":"levelo_inurba_marseille","lat":43.292691,"lon":5.401277,"is_reserved":false,"is_disabled":true,"rental_uris":{"android":"levelo://app?vid=0e123c4d-e8d0-4826-91b5-bc1bd261f062","ios":"levelo://app?vid=0e123c4d-e8d0-4826-91b5-bc1bd261f062"},"vehicle_type_id":"4","last_reported":1747113031,"current_range_meters":16000,"station_id":"ce4bh312rcd13ifvqdk0","pricing_plan_id":"cebpf4jnsgd1na2vs0mg"},{"bike_id":"aaa65e13-bb51-40c2-9c98-77b97e5da3dd","system_id":"levelo_inurba_marseille","lat":43.32475,"lon":5.36566,"is_reserved":false,"is_disabled":false,"rental_uris":{"android":"levelo://app?vid=aaa65e13-bb51-40c2-9c98-77b97e5da3dd","ios":"levelo://app?vid=aaa65e13-bb51-40c2-9c98-77b97e5da3dd"},"vehicle_type_id":"4","last_reported":1747113031,"current_range_meters":16000,"station_id":"ce4bhs12rcd13ifvqhvg","pricing_plan_id":"cebpf4jnsgd1na2vs0mg"},{"bike_id":"d9a784dc-2620-459d-afd5-260a793dcba9","system_id":"levelo_inurba_marseille","lat":43.30872,"lon":5.39661,"is_reserved":false,"is_disabled":false,"rental_uris":{"android":"levelo://app?vid=d9a784dc-2620-459d-afd5-260a793dcba9","ios":"levelo://app?vid=d9a784dc-2620-459d-afd5-260a793dcba9"},"vehicle_type_id":"4","last_reported":1747113031,"current_range_meters":16400,"station_id":"ce4bh012rcd13ifvqcv0","pricing_plan_id":"cebpf4jnsgd1na2vs0mg"},{"bike_id":"f6974a9d-f445-4f9d-802d-62b54dcd3467","system_id":"levelo_inurba_marseille","lat":43.279152,"lon":5.395844,"is_reserved":false,"is_disabled":false,"rental_uris":{"android":"levelo://app?vid=f6974a9d-f445-4f9d-802d-62b54dcd3467","ios":"levelo://app?vid=f6974a9d-f445-4f9d-802d-62b54dcd3467"},"vehicle_type_id":"4","last_reported":1747113031,"current_range_meters":16400,"station_id":"ce4bhf92rcd13ifvqf40","pricing_plan_id":"cebpf4jnsgd1na2vs0mg"},{"bike_id":"520f07fc-e2a5-442e-bcdc-caa8376efe3e","system_id":"levelo_inurba_marseille","lat":43.31701,"lon":5.40426,"is_reserved":false,"is_disabled":false,"rental_uris":{"android":"levelo://app?vid=520f07fc-e2a5-442e-bcdc-caa8376efe3e","ios":"levelo://app?vid=520f07fc-e2a5-442e-bcdc-caa8376efe3e"},"vehicle_type_id":"4","last_reported":1747113031,"current_range_meters":16400,"station_id":"ce4bh012rcd13ifvqd00","pricing_plan_id":"cebpf4jnsgd1na2vs0mg"},{"bike_id":"849551c5-240b-48cd-88b2-3e23f9d3b406","system_id":"levelo_inurba_marseille","lat":43.284118,"lon":5.375191,"is_reserved":false,"is_disabled":false,"rental_uris":{"android":"levelo://app?vid=849551c5-240b-48cd-88b2-3e23f9d3b406","ios":"levelo://app?vid=849551c5-240b-48cd-88b2-3e23f9d3b406"},"vehicle_type_id":"4","last_reported":1747113031,"current_range_meters":16800,"station_id":"ce4bh412rcd13ifvqds0","pricing_plan_id":"cebpf4jnsgd1na2vs0mg"},{"bike_id":"9d352004-7b2c-43e3-9328-20e4f737c9c4","system_id":"levelo_inurba_marseille","lat":43.262294,"lon":5.404539,"is_reserved":false,"is_disabled":true,"rental_uris":{"android":"levelo://app?vid=9d352004-7b2c-43e3-9328-20e4f737c9c4","ios":"levelo://app?vid=9d352004-7b2c-43e3-9328-20e4f737c9c4"},"vehicle_type_id":"4","last_reported":1747113031,"current_range_meters":16800,"station_id":"","pricing_plan_id":"cebpf4jnsgd1na2vs0mg"},{"bike_id":"d918b222-ecc9-4b5a-8e3c-8dddf0848024","system_id":"levelo_inurba_marseille","lat":43.303993,"lon":5.423591,"is_reserved":false,"is_disabled":false,"rental_uris":{"android":"levelo://app?vid=d918b222-ecc9-4b5a-8e3c-8dddf0848024","ios":"levelo://app?vid=d918b222-ecc9-4b5a-8e3c-8dddf0848024"},"vehicle_type_id":"4","last_reported":1747113031,"current_range_meters":16800,"station_id":"ce4bhoh2rcd13ifvqh6g","pricing_plan_id":"cebpf4jnsgd1na2vs0mg"},{"bike_id":"2064d8ad-c121-472c-a67d-5dfda4a122da","system_id":"levelo_inurba_marseille","lat":43.29581,"lon":5.375,"is_reserved":false,"is_disabled":true,"rental_uris":{"android":"levelo://app?vid=2064d8ad-c121-472c-a67d-5dfda4a122da","ios":"levelo://app?vid=2064d8ad-c121-472c-a67d-5dfda4a122da"},"vehicle_type_id":"4","last_reported":1747113031,"current_range_meters":16800,"station_id":"ce4bgh92rcd13ifvqb50","pricing_plan_id":"cebpf4jnsgd1na2vs0mg"},{"bike_id":"79bb0198-c0e7-4a4d-971f-338c22111321","system_id":"levelo_inurba_marseille","lat":43.306423,"lon":5.400721,"is_reserved":false,"is_disabled":false,"rental_uris":{"android":"levelo://app?vid=79bb0198-c0e7-4a4d-971f-338c22111321","ios":"levelo://app?vid=79bb0198-c0e7-4a4d-971f-338c22111321"},"vehicle_type_id":"4","last_reported":1747113031,"current_range_meters":17200,"station_id":"ce4bh112rcd13ifvqda0","pricing_plan_id":"cebpf4jnsgd1na2vs0mg"},{"bike_id":"3f241b5b-2106-4780-a5ac-9c4c044fa6b7","system_id":"levelo_inurba_marseille","lat":43.292803,"lon":5.401263,"is_reserved":false,"is_disabled":false,"rental_uris":{"android":"levelo://app?vid=3f241b5b-2106-4780-a5ac-9c4c044fa6b7","ios":"levelo://app?vid=3f241b5b-2106-4780-a5ac-9c4c044fa6b7"},"vehicle_type_id":"4","last_reported":1747113031,"current_range_meters":17200,"station_id":"ce4bh312rcd13ifvqdk0","pricing_plan_id":"cebpf4jnsgd1na2vs0mg"},{"bike_id":"e2b7593a-dbbc-4a30-b5c1-ee286ff2c1a1","system_id":"levelo_inurba_marseille","lat":43.24698,"lon":5.38144,"is_reserved":false,"is_disabled":false,"rental_uris":{"android":"levelo://app?vid=e2b7593a-dbbc-4a30-b5c1-ee286ff2c1a1","ios":"levelo://app?vid=e2b7593a-dbbc-4a30-b5c1-ee286ff2c1a1"},"vehicle_type_id":"4","last_reported":1747113031,"current_range_meters":17200,"station_id":"ce4bhih2rcd13ifvqfr0","pricing_plan_id":"cebpf4jnsgd1na2vs0mg"},{"bike_id":"6612848c-309d-4d62-ac1d-f61c33129268","system_id":"levelo_inurba_marseille","lat":43.306468,"lon":5.400695,"is_reserved":false,"is_disabled":false,"rental_uris":{"android":"levelo://app?vid=6612848c-309d-4d62-ac1d-f61c33129268","ios":"levelo://app?vid=6612848c-309d-4d62-ac1d-f61c33129268"},"vehicle_type_id":"4","last_reported":1747113031,"current_range_meters":17200,"station_id":"ce4bh112rcd13ifvqda0","pricing_plan_id":"cebpf4jnsgd1na2vs0mg"},{"bike_id":"93ddefd7-b17e-4643-9c51-9ff2311d7114","system_id":"levelo_inurba_marseille","lat":43.309292,"lon":5.401472,"is_reserved":false,"is_disabled":false,"rental_uris":{"android":"levelo://app?vid=93ddefd7-b17e-4643-9c51-9ff2311d7114","ios":"levelo://app?vid=93ddefd7-b17e-4643-9c51-9ff2311d7114"},"vehicle_type_id":"4","last_reported":1747113031,"current_range_meters":17200,"station_id":"ce4bgvp2rcd13ifvqct0","pricing_plan_id":"cebpf4jnsgd1na2vs0mg"},{"bike_id":"1095b252-790e-4155-ab4e-86136a24d6fc","system_id":"levelo_inurba_marseille","lat":43.28477,"lon":5.35892,"is_reserved":false,"is_disabled":false,"rental_uris":{"android":"levelo://app?vid=1095b252-790e-4155-ab4e-86136a24d6fc","ios":"levelo://app?vid=1095b252-790e-4155-ab4e-86136a24d6fc"},"vehicle_type_id":"4","last_reported":1747113031,"current_range_meters":17200,"station_id":"ce4bhah2rcd13ifvqei0","pricing_plan_id":"cebpf4jnsgd1na2vs0mg"},{"bike_id":"2b02467a-5ffd-42c5-bd01-79712910f637","system_id":"levelo_inurba_marseille","lat":43.281509,"lon":5.426446,"is_reserved":false,"is_disabled":false,"rental_uris":{"android":"levelo://app?vid=2b02467a-5ffd-42c5-bd01-79712910f637","ios":"levelo://app?vid=2b02467a-5ffd-42c5-bd01-79712910f637"},"vehicle_type_id":"4","last_reported":1747113031,"current_range_meters":17200,"station_id":"ce4bhnh2rcd13ifvqgug","pricing_plan_id":"cebpf4jnsgd1na2vs0mg"},{"bike_id":"c898206a-f917-4a97-a896-23d0ca1417ca","system_id":"levelo_inurba_marseille","lat":43.31716,"lon":5.4371,"is_reserved":false,"is_disabled":false,"rental_uris":{"android":"levelo://app?vid=c898206a-f917-4a97-a896-23d0ca1417ca","ios":"levelo://app?vid=c898206a-f917-4a97-a896-23d0ca1417ca"},"vehicle_type_id":"4","last_reported":1747113031,"current_range_meters":17600,"station_id":"ce4bhp92rcd13ifvqhcg","pricing_plan_id":"cebpf4jnsgd1na2vs0mg"},{"bike_id":"39a6bd1f-7072-469f-8856-342cea40130d","system_id":"levelo_inurba_marseille","lat":43.24662,"lon":5.38892,"is_reserved":false,"is_disabled":false,"rental_uris":{"android":"levelo://app?vid=39a6bd1f-7072-469f-8856-342cea40130d","ios":"levelo://app?vid=39a6bd1f-7072-469f-8856-342cea40130d"},"vehicle_type_id":"4","last_reported":1747113031,"current_range_meters":17600,"station_id":"ce4bhg12rcd13ifvqf60","pricing_plan_id":"cebpf4jnsgd1na2vs0mg"},{"bike_id":"302b8f99-619b-481d-a346-4fb377ba7c79","system_id":"levelo_inurba_marseille","lat":43.3201,"lon":5.38136,"is_reserved":false,"is_disabled":false,"rental_uris":{"android":"levelo://app?vid=302b8f99-619b-481d-a346-4fb377ba7c79","ios":"levelo://app?vid=302b8f99-619b-481d-a346-4fb377ba7c79"},"vehicle_type_id":"4","last_reported":1747113031,"current_range_meters":17600,"station_id":"ce4bhr12rcd13ifvqhpg","pricing_plan_id":"cebpf4jnsgd1na2vs0mg"},{"bike_id":"e0809dbb-caf4-4db3-afc9-1a31c8833d65","system_id":"levelo_inurba_marseille","lat":43.279024,"lon":5.39591,"is_reserved":false,"is_disabled":false,"rental_uris":{"android":"levelo://app?vid=e0809dbb-caf4-4db3-afc9-1a31c8833d65","ios":"levelo://app?vid=e0809dbb-caf4-4db3-afc9-1a31c8833d65"},"vehicle_type_id":"4","last_reported":1747113031,"current_range_meters":17600,"station_id":"ce4bhf92rcd13ifvqf40","pricing_plan_id":"cebpf4jnsgd1na2vs0mg"},{"bike_id":"6eb0004f-6ee3-4804-97a0-f050ea148c7b","system_id":"levelo_inurba_marseille","lat":43.29785,"lon":5.39371,"is_reserved":false,"is_disabled":false,"rental_uris":{"android":"levelo://app?vid=6eb0004f-6ee3-4804-97a0-f050ea148c7b","ios":"levelo://app?vid=6eb0004f-6ee3-4804-97a0-f050ea148c7b"},"vehicle_type_id":"4","last_reported":1747113031,"current_range_meters":18000,"station_id":"chh1huq6cuj3fo74tm60","pricing_plan_id":"cebpf4jnsgd1na2vs0mg"},{"bike_id":"eb53baed-3ccb-4d89-8b80-6c2346cbd305","system_id":"levelo_inurba_marseille","lat":43.30788,"lon":5.376469,"is_reserved":false,"is_disabled":false,"rental_uris":{"android":"levelo://app?vid=eb53baed-3ccb-4d89-8b80-6c2346cbd305","ios":"levelo://app?vid=eb53baed-3ccb-4d89-8b80-6c2346cbd305"},"vehicle_type_id":"4","last_reported":1747113031,"current_range_meters":17600,"station_id":"ce4bgv92rcd13ifvqcq0","pricing_plan_id":"cebpf4jnsgd1na2vs0mg"},{"bike_id":"241a000d-cef4-427c-b5ef-e2f8e2d74bbb","system_id":"levelo_inurba_marseille","lat":43.286965,"lon":5.37396,"is_reserved":false,"is_disabled":false,"rental_uris":{"android":"levelo://app?vid=241a000d-cef4-427c-b5ef-e2f8e2d74bbb","ios":"levelo://app?vid=241a000d-cef4-427c-b5ef-e2f8e2d74bbb"},"vehicle_type_id":"4","last_reported":1747113031,"current_range_meters":18000,"station_id":"ce4bh3p2rcd13ifvqdq0","pricing_plan_id":"cebpf4jnsgd1na2vs0mg"},{"bike_id":"0c893fb7-8626-4706-85bf-f404b871dea5","system_id":"levelo_inurba_marseille","lat":43.281249,"lon":5.445904,"is_reserved":false,"is_disabled":false,"rental_uris":{"android":"levelo://app?vid=0c893fb7-8626-4706-85bf-f404b871dea5","ios":"levelo://app?vid=0c893fb7-8626-4706-85bf-f404b871dea5"},"vehicle_type_id":"4","last_reported":1747113031,"current_range_meters":18800,"station_id":"","pricing_plan_id":"cebpf4jnsgd1na2vs0mg"},{"bike_id":"59bd68ff-a61f-444d-9496-d2f88e27ccd4","system_id":"levelo_inurba_marseille","lat":43.28717,"lon":5.3999,"is_reserved":false,"is_disabled":false,"rental_uris":{"android":"levelo://app?vid=59bd68ff-a61f-444d-9496-d2f88e27ccd4","ios":"levelo://app?vid=59bd68ff-a61f-444d-9496-d2f88e27ccd4"},"vehicle_type_id":"4","last_reported":1747113031,"current_range_meters":18800,"station_id":"ce4bho92rcd13ifvqh3g","pricing_plan_id":"cebpf4jnsgd1na2vs0mg"},{"bike_id":"fd146880-44e0-4bd0-8aa8-d0a4e1e1a964","system_id":"levelo_inurba_marseille","lat":43.30741,"lon":5.42442,"is_reserved":false,"is_disabled":false,"rental_uris":{"android":"levelo://app?vid=fd146880-44e0-4bd0-8aa8-d0a4e1e1a964","ios":"levelo://app?vid=fd146880-44e0-4bd0-8aa8-d0a4e1e1a964"},"vehicle_type_id":"4","last_reported":1747113031,"current_range_meters":18800,"station_id":"st_cvj6ca6bvosntc0bfgr0","pricing_plan_id":"cebpf4jnsgd1na2vs0mg"},{"bike_id":"9d76660f-c284-49a2-8765-48337aa51471","system_id":"levelo_inurba_marseille","lat":43.32099,"lon":5.36807,"is_reserved":false,"is_disabled":false,"rental_uris":{"android":"levelo://app?vid=9d76660f-c284-49a2-8765-48337aa51471","ios":"levelo://app?vid=9d76660f-c284-49a2-8765-48337aa51471"},"vehicle_type_id":"4","last_reported":1747113031,"current_range_meters":18800,"station_id":"ce4bhrh2rcd13ifvqhug","pricing_plan_id":"cebpf4jnsgd1na2vs0mg"},{"bike_id":"85bb6071-e792-4f67-a718-8548b40eced6","system_id":"levelo_inurba_marseille","lat":43.28712,"lon":5.38629,"is_reserved":false,"is_disabled":true,"rental_uris":{"android":"levelo://app?vid=85bb6071-e792-4f67-a718-8548b40eced6","ios":"levelo://app?vid=85bb6071-e792-4f67-a718-8548b40eced6"},"vehicle_type_id":"4","last_reported":1747113031,"current_range_meters":18800,"station_id":"","pricing_plan_id":"cebpf4jnsgd1na2vs0mg"},{"bike_id":"50838afa-4db6-4810-a427-67691cd7c935","system_id":"levelo_inurba_marseille","lat":43.279134,"lon":5.395881,"is_reserved":false,"is_disabled":false,"rental_uris":{"android":"levelo://app?vid=50838afa-4db6-4810-a427-67691cd7c935","ios":"levelo://app?vid=50838afa-4db6-4810-a427-67691cd7c935"},"vehicle_type_id":"4","last_reported":1747113031,"current_range_meters":18800,"station_id":"ce4bhf92rcd13ifvqf40","pricing_plan_id":"cebpf4jnsgd1na2vs0mg"},{"bike_id":"acc5833a-6427-49df-a603-fbea78aca361","system_id":"levelo_inurba_marseille","lat":43.30933,"lon":5.401675,"is_reserved":false,"is_disabled":false,"rental_uris":{"android":"levelo://app?vid=acc5833a-6427-49df-a603-fbea78aca361","ios":"levelo://app?vid=acc5833a-6427-49df-a603-fbea78aca361"},"vehicle_type_id":"4","last_reported":1747113031,"current_range_meters":18800,"station_id":"ce4bgvp2rcd13ifvqct0","pricing_plan_id":"cebpf4jnsgd1na2vs0mg"},{"bike_id":"1d15caa1-ff72-4db4-a9a2-e282a058595e","system_id":"levelo_inurba_marseille","lat":43.30153,"lon":5.38083,"is_reserved":false,"is_disabled":false,"rental_uris":{"android":"levelo://app?vid=1d15caa1-ff72-4db4-a9a2-e282a058595e","ios":"levelo://app?vid=1d15caa1-ff72-4db4-a9a2-e282a058595e"},"vehicle_type_id":"4","last_reported":1747113031,"current_range_meters":18800,"station_id":"ce4bgjp2rcd13ifvqbh0","pricing_plan_id":"cebpf4jnsgd1na2vs0mg"},{"bike_id":"d32141a3-bc2d-4773-a44e-5bf9a3ff868b","system_id":"levelo_inurba_marseille","lat":43.25732,"lon":5.41088,"is_reserved":false,"is_disabled":false,"rental_uris":{"android":"levelo://app?vid=d32141a3-bc2d-4773-a44e-5bf9a3ff868b","ios":"levelo://app?vid=d32141a3-bc2d-4773-a44e-5bf9a3ff868b"},"vehicle_type_id":"4","last_reported":1747113031,"current_range_meters":19200,"station_id":"ce4bhkp2rcd13ifvqgd0","pricing_plan_id":"cebpf4jnsgd1na2vs0mg"},{"bike_id":"e81304a7-b84e-45bb-ac30-343bf46aa7a7","system_id":"levelo_inurba_marseille","lat":43.279154,"lon":5.395847,"is_reserved":false,"is_disabled":false,"rental_uris":{"android":"levelo://app?vid=e81304a7-b84e-45bb-ac30-343bf46aa7a7","ios":"levelo://app?vid=e81304a7-b84e-45bb-ac30-343bf46aa7a7"},"vehicle_type_id":"4","last_reported":1747113031,"current_range_meters":19200,"station_id":"ce4bhf92rcd13ifvqf40","pricing_plan_id":"cebpf4jnsgd1na2vs0mg"},{"bike_id":"e83dcaca-181c-4b02-bf44-8d4da8809b5b","system_id":"levelo_inurba_marseille","lat":43.31716,"lon":5.437041,"is_reserved":false,"is_disabled":false,"rental_uris":{"android":"levelo://app?vid=e83dcaca-181c-4b02-bf44-8d4da8809b5b","ios":"levelo://app?vid=e83dcaca-181c-4b02-bf44-8d4da8809b5b"},"vehicle_type_id":"4","last_reported":1747113031,"current_range_meters":19200,"station_id":"ce4bhp92rcd13ifvqhcg","pricing_plan_id":"cebpf4jnsgd1na2vs0mg"},{"bike_id":"e9f11e1d-6d2c-42c2-95ba-10e98b48f437","system_id":"levelo_inurba_marseille","lat":43.30462,"lon":5.37907,"is_reserved":false,"is_disabled":false,"rental_uris":{"android":"levelo://app?vid=e9f11e1d-6d2c-42c2-95ba-10e98b48f437","ios":"levelo://app?vid=e9f11e1d-6d2c-42c2-95ba-10e98b48f437"},"vehicle_type_id":"4","last_reported":1747113031,"current_range_meters":18800,"station_id":"ce4bgup2rcd13ifvqcn0","pricing_plan_id":"cebpf4jnsgd1na2vs0mg"},{"bike_id":"232fdd02-c431-4842-9a6d-aecb75d62cd2","system_id":"levelo_inurba_marseille","lat":43.27494,"lon":5.42448,"is_reserved":false,"is_disabled":false,"rental_uris":{"android":"levelo://app?vid=232fdd02-c431-4842-9a6d-aecb75d62cd2","ios":"levelo://app?vid=232fdd02-c431-4842-9a6d-aecb75d62cd2"},"vehicle_type_id":"4","last_reported":1747113031,"current_range_meters":19200,"station_id":"ce4bhn92rcd13ifvqgrg","pricing_plan_id":"cebpf4jnsgd1na2vs0mg"},{"bike_id":"eeb882a8-fe36-4d5c-a964-fc0d0f965523","system_id":"levelo_inurba_marseille","lat":43.30688,"lon":5.36697,"is_reserved":false,"is_disabled":false,"rental_uris":{"android":"levelo://app?vid=eeb882a8-fe36-4d5c-a964-fc0d0f965523","ios":"levelo://app?vid=eeb882a8-fe36-4d5c-a964-fc0d0f965523"},"vehicle_type_id":"4","last_reported":1747113031,"current_range_meters":19200,"station_id":"","pricing_plan_id":"cebpf4jnsgd1na2vs0mg"},{"bike_id":"581a76c6-406f-436c-80cf-424046378536","system_id":"levelo_inurba_marseille","lat":43.2314,"lon":5.43712,"is_reserved":false,"is_disabled":false,"rental_uris":{"android":"levelo://app?vid=581a76c6-406f-436c-80cf-424046378536","ios":"levelo://app?vid=581a76c6-406f-436c-80cf-424046378536"},"vehicle_type_id":"4","last_reported":1747113031,"current_range_meters":19200,"station_id":"ce4bhmp2rcd13ifvqgog","pricing_plan_id":"cebpf4jnsgd1na2vs0mg"},{"bike_id":"1e297e0e-a907-489c-9a22-1dfb89bfb64f","system_id":"levelo_inurba_marseille","lat":43.2925,"lon":5.3642,"is_reserved":false,"is_disabled":true,"rental_uris":{"android":"levelo://app?vid=1e297e0e-a907-489c-9a22-1dfb89bfb64f","ios":"levelo://app?vid=1e297e0e-a907-489c-9a22-1dfb89bfb64f"},"vehicle_type_id":"4","last_reported":1747113031,"current_range_meters":19600,"station_id":"","pricing_plan_id":"cebpf4jnsgd1na2vs0mg"},{"bike_id":"0cd08830-fc84-4017-9483-59e593e66c02","system_id":"levelo_inurba_marseille","lat":43.24388,"lon":5.37063,"is_reserved":false,"is_disabled":true,"rental_uris":{"android":"levelo://app?vid=0cd08830-fc84-4017-9483-59e593e66c02","ios":"levelo://app?vid=0cd08830-fc84-4017-9483-59e593e66c02"},"vehicle_type_id":"4","last_reported":1747113031,"current_range_meters":19600,"station_id":"ce4bhhh2rcd13ifvqfk0","pricing_plan_id":"cebpf4jnsgd1na2vs0mg"},{"bike_id":"3161144a-408c-4586-b7ff-23edd431593d","system_id":"levelo_inurba_marseille","lat":43.28607,"lon":5.35097,"is_reserved":false,"is_disabled":true,"rental_uris":{"android":"levelo://app?vid=3161144a-408c-4586-b7ff-23edd431593d","ios":"levelo://app?vid=3161144a-408c-4586-b7ff-23edd431593d"},"vehicle_type_id":"4","last_reported":1747113031,"current_range_meters":19600,"station_id":"ce4bhch2rcd13ifvqeug","pricing_plan_id":"cebpf4jnsgd1na2vs0mg"},{"bike_id":"b67742bf-3e86-4b2b-9c02-75c56b43889b","system_id":"levelo_inurba_marseille","lat":43.31344,"lon":5.39704,"is_reserved":false,"is_disabled":false,"rental_uris":{"android":"levelo://app?vid=b67742bf-3e86-4b2b-9c02-75c56b43889b","ios":"levelo://app?vid=b67742bf-3e86-4b2b-9c02-75c56b43889b"},"vehicle_type_id":"4","last_reported":1747113031,"current_range_meters":19600,"station_id":"ce4bgvp2rcd13ifvqcu0","pricing_plan_id":"cebpf4jnsgd1na2vs0mg"},{"bike_id":"9e7ebd91-af82-4549-976b-c088b359c00b","system_id":"levelo_inurba_marseille","lat":43.32121,"lon":5.36758,"is_reserved":false,"is_disabled":false,"rental_uris":{"android":"levelo://app?vid=9e7ebd91-af82-4549-976b-c088b359c00b","ios":"levelo://app?vid=9e7ebd91-af82-4549-976b-c088b359c00b"},"vehicle_type_id":"4","last_reported":1747113031,"current_range_meters":19600,"station_id":"ce4bhrh2rcd13ifvqhug","pricing_plan_id":"cebpf4jnsgd1na2vs0mg"},{"bike_id":"7bbe04aa-a6c2-4879-9033-3215adcfc4ce","system_id":"levelo_inurba_marseille","lat":43.29008,"lon":5.35606,"is_reserved":false,"is_disabled":false,"rental_uris":{"android":"levelo://app?vid=7bbe04aa-a6c2-4879-9033-3215adcfc4ce","ios":"levelo://app?vid=7bbe04aa-a6c2-4879-9033-3215adcfc4ce"},"vehicle_type_id":"4","last_reported":1747113031,"current_range_meters":20000,"station_id":"ce4bhb92rcd13ifvqen0","pricing_plan_id":"cebpf4jnsgd1na2vs0mg"},{"bike_id":"bb1746d7-068d-4837-bf23-ca3e2bd391fb","system_id":"levelo_inurba_marseille","lat":43.26191,"lon":5.374729,"is_reserved":false,"is_disabled":true,"rental_uris":{"android":"levelo://app?vid=bb1746d7-068d-4837-bf23-ca3e2bd391fb","ios":"levelo://app?vid=bb1746d7-068d-4837-bf23-ca3e2bd391fb"},"vehicle_type_id":"4","last_reported":1747113031,"current_range_meters":20000,"station_id":"ce4bhgp2rcd13ifvqfc0","pricing_plan_id":"cebpf4jnsgd1na2vs0mg"},{"bike_id":"0344e0e8-f261-4332-b969-30800ba38c53","system_id":"levelo_inurba_marseille","lat":43.27986,"lon":5.40067,"is_reserved":false,"is_disabled":false,"rental_uris":{"android":"levelo://app?vid=0344e0e8-f261-4332-b969-30800ba38c53","ios":"levelo://app?vid=0344e0e8-f261-4332-b969-30800ba38c53"},"vehicle_type_id":"4","last_reported":1747113031,"current_range_meters":20400,"station_id":"ce4bho92rcd13ifvqh4g","pricing_plan_id":"cebpf4jnsgd1na2vs0mg"},{"bike_id":"41a4bf39-49b2-4db9-8370-a61b5011ecbd","system_id":"levelo_inurba_marseille","lat":43.28975,"lon":5.37832,"is_reserved":false,"is_disabled":true,"rental_uris":{"android":"levelo://app?vid=41a4bf39-49b2-4db9-8370-a61b5011ecbd","ios":"levelo://app?vid=41a4bf39-49b2-4db9-8370-a61b5011ecbd"},"vehicle_type_id":"4","last_reported":1747113031,"current_range_meters":20400,"station_id":"ce4bh9p2rcd13ifvqed0","pricing_plan_id":"cebpf4jnsgd1na2vs0mg"},{"bike_id":"f1651654-a33f-4e9c-8950-8a1aea49abac","system_id":"levelo_inurba_marseille","lat":43.28711,"lon":5.36093,"is_reserved":false,"is_disabled":false,"rental_uris":{"android":"levelo://app?vid=f1651654-a33f-4e9c-8950-8a1aea49abac","ios":"levelo://app?vid=f1651654-a33f-4e9c-8950-8a1aea49abac"},"vehicle_type_id":"4","last_reported":1747113031,"current_range_meters":20800,"station_id":"cki0cbj6b192h4jlfktg","pricing_plan_id":"cebpf4jnsgd1na2vs0mg"},{"bike_id":"b65fd085-9b65-46d6-ad1e-68d0a7c6954c","system_id":"levelo_inurba_marseille","lat":43.278066,"lon":5.407121,"is_reserved":false,"is_disabled":false,"rental_uris":{"android":"levelo://app?vid=b65fd085-9b65-46d6-ad1e-68d0a7c6954c","ios":"levelo://app?vid=b65fd085-9b65-46d6-ad1e-68d0a7c6954c"},"vehicle_type_id":"4","last_reported":1747113031,"current_range_meters":20800,"station_id":"ce4bhnh2rcd13ifvqgtg","pricing_plan_id":"cebpf4jnsgd1na2vs0mg"},{"bike_id":"2a8d6c84-f97c-47ac-97e8-b5252d886c6b","system_id":"levelo_inurba_marseille","lat":43.306493,"lon":5.400647,"is_reserved":false,"is_disabled":false,"rental_uris":{"android":"levelo://app?vid=2a8d6c84-f97c-47ac-97e8-b5252d886c6b","ios":"levelo://app?vid=2a8d6c84-f97c-47ac-97e8-b5252d886c6b"},"vehicle_type_id":"4","last_reported":1747113031,"current_range_meters":20800,"station_id":"ce4bh112rcd13ifvqda0","pricing_plan_id":"cebpf4jnsgd1na2vs0mg"},{"bike_id":"84951397-69e9-4cc4-a9b3-8bac0d4c150d","system_id":"levelo_inurba_marseille","lat":43.30377,"lon":5.424888,"is_reserved":false,"is_disabled":false,"rental_uris":{"android":"levelo://app?vid=84951397-69e9-4cc4-a9b3-8bac0d4c150d","ios":"levelo://app?vid=84951397-69e9-4cc4-a9b3-8bac0d4c150d"},"vehicle_type_id":"4","last_reported":1747113031,"current_range_meters":20800,"station_id":"ce4bhoh2rcd13ifvqh6g","pricing_plan_id":"cebpf4jnsgd1na2vs0mg"},{"bike_id":"4fd65110-4af1-43c2-bbf7-d781c50e7606","system_id":"levelo_inurba_marseille","lat":43.28421,"lon":5.35002,"is_reserved":false,"is_disabled":false,"rental_uris":{"android":"levelo://app?vid=4fd65110-4af1-43c2-bbf7-d781c50e7606","ios":"levelo://app?vid=4fd65110-4af1-43c2-bbf7-d781c50e7606"},"vehicle_type_id":"4","last_reported":1747113031,"current_range_meters":20800,"station_id":"ce4bhbh2rcd13ifvqepg","pricing_plan_id":"cebpf4jnsgd1na2vs0mg"},{"bike_id":"b60055ff-62a4-4767-b719-c049db3676b4","system_id":"levelo_inurba_marseille","lat":43.29005,"lon":5.35607,"is_reserved":false,"is_disabled":false,"rental_uris":{"android":"levelo://app?vid=b60055ff-62a4-4767-b719-c049db3676b4","ios":"levelo://app?vid=b60055ff-62a4-4767-b719-c049db3676b4"},"vehicle_type_id":"4","last_reported":1747113031,"current_range_meters":20800,"station_id":"ce4bhb92rcd13ifvqen0","pricing_plan_id":"cebpf4jnsgd1na2vs0mg"},{"bike_id":"0c636178-8025-443a-881d-ec35507d7129","system_id":"levelo_inurba_marseille","lat":43.24556,"lon":5.39538,"is_reserved":false,"is_disabled":false,"rental_uris":{"android":"levelo://app?vid=0c636178-8025-443a-881d-ec35507d7129","ios":"levelo://app?vid=0c636178-8025-443a-881d-ec35507d7129"},"vehicle_type_id":"4","last_reported":1747113031,"current_range_meters":20800,"station_id":"ce4bhlp2rcd13ifvqgjg","pricing_plan_id":"cebpf4jnsgd1na2vs0mg"},{"bike_id":"a6613d3f-10bf-4275-a3fe-2d2c08b0abd0","system_id":"levelo_inurba_marseille","lat":43.246479,"lon":5.388768,"is_reserved":false,"is_disabled":false,"rental_uris":{"android":"levelo://app?vid=a6613d3f-10bf-4275-a3fe-2d2c08b0abd0","ios":"levelo://app?vid=a6613d3f-10bf-4275-a3fe-2d2c08b0abd0"},"vehicle_type_id":"4","last_reported":1747113031,"current_range_meters":21600,"station_id":"ce4bhg12rcd13ifvqf60","pricing_plan_id":"cebpf4jnsgd1na2vs0mg"},{"bike_id":"746d6870-f129-46ea-9cce-9733ae5747f5","system_id":"levelo_inurba_marseille","lat":43.24169,"lon":5.39723,"is_reserved":false,"is_disabled":false,"rental_uris":{"android":"levelo://app?vid=746d6870-f129-46ea-9cce-9733ae5747f5","ios":"levelo://app?vid=746d6870-f129-46ea-9cce-9733ae5747f5"},"vehicle_type_id":"4","last_reported":1747113031,"current_range_meters":21600,"station_id":"ce4bhn12rcd13ifvqgpg","pricing_plan_id":"cebpf4jnsgd1na2vs0mg"},{"bike_id":"7edae4e3-02d9-44f7-8013-99c1fec4bf3b","system_id":"levelo_inurba_marseille","lat":43.31727,"lon":5.40438,"is_reserved":false,"is_disabled":false,"rental_uris":{"android":"levelo://app?vid=7edae4e3-02d9-44f7-8013-99c1fec4bf3b","ios":"levelo://app?vid=7edae4e3-02d9-44f7-8013-99c1fec4bf3b"},"vehicle_type_id":"4","last_reported":1747113031,"current_range_meters":21600,"station_id":"","pricing_plan_id":"cebpf4jnsgd1na2vs0mg"},{"bike_id":"0a12ae31-9f3b-467f-bf3b-3e289283c812","system_id":"levelo_inurba_marseille","lat":43.30779,"lon":5.37124,"is_reserved":false,"is_disabled":true,"rental_uris":{"android":"levelo://app?vid=0a12ae31-9f3b-467f-bf3b-3e289283c812","ios":"levelo://app?vid=0a12ae31-9f3b-467f-bf3b-3e289283c812"},"vehicle_type_id":"4","last_reported":1747113031,"current_range_meters":21600,"station_id":"","pricing_plan_id":"cebpf4jnsgd1na2vs0mg"},{"bike_id":"a1811688-68e4-477a-bc8b-271e96fe4451","system_id":"levelo_inurba_marseille","lat":43.29036,"lon":5.38661,"is_reserved":false,"is_disabled":true,"rental_uris":{"android":"levelo://app?vid=a1811688-68e4-477a-bc8b-271e96fe4451","ios":"levelo://app?vid=a1811688-68e4-477a-bc8b-271e96fe4451"},"vehicle_type_id":"4","last_reported":1747113031,"current_range_meters":22000,"station_id":"ce4bh4p2rcd13ifvqe0g","pricing_plan_id":"cebpf4jnsgd1na2vs0mg"},{"bike_id":"0754b4a2-a909-4615-b862-bb6d331feff4","system_id":"levelo_inurba_marseille","lat":43.30669,"lon":5.4009,"is_reserved":false,"is_disabled":false,"rental_uris":{"android":"levelo://app?vid=0754b4a2-a909-4615-b862-bb6d331feff4","ios":"levelo://app?vid=0754b4a2-a909-4615-b862-bb6d331feff4"},"vehicle_type_id":"4","last_reported":1747113031,"current_range_meters":22000,"station_id":"ce4bh112rcd13ifvqda0","pricing_plan_id":"cebpf4jnsgd1na2vs0mg"},{"bike_id":"48a8b53a-5cd4-449c-b6b6-ea36e619d6c5","system_id":"levelo_inurba_marseille","lat":43.313344,"lon":5.397023,"is_reserved":false,"is_disabled":false,"rental_uris":{"android":"levelo://app?vid=48a8b53a-5cd4-449c-b6b6-ea36e619d6c5","ios":"levelo://app?vid=48a8b53a-5cd4-449c-b6b6-ea36e619d6c5"},"vehicle_type_id":"4","last_reported":1747113031,"current_range_meters":22000,"station_id":"ce4bgvp2rcd13ifvqcu0","pricing_plan_id":"cebpf4jnsgd1na2vs0mg"},{"bike_id":"267706f6-7d7d-4040-aa8b-9fe9b3a19d88","system_id":"levelo_inurba_marseille","lat":43.25732,"lon":5.4111,"is_reserved":false,"is_disabled":false,"rental_uris":{"android":"levelo://app?vid=267706f6-7d7d-4040-aa8b-9fe9b3a19d88","ios":"levelo://app?vid=267706f6-7d7d-4040-aa8b-9fe9b3a19d88"},"vehicle_type_id":"4","last_reported":1747113031,"current_range_meters":22000,"station_id":"ce4bhkp2rcd13ifvqgd0","pricing_plan_id":"cebpf4jnsgd1na2vs0mg"},{"bike_id":"1a1535cc-fdb1-4c30-be7c-09fef5089f0a","system_id":"levelo_inurba_marseille","lat":43.27977,"lon":5.38742,"is_reserved":false,"is_disabled":false,"rental_uris":{"android":"levelo://app?vid=1a1535cc-fdb1-4c30-be7c-09fef5089f0a","ios":"levelo://app?vid=1a1535cc-fdb1-4c30-be7c-09fef5089f0a"},"vehicle_type_id":"4","last_reported":1747113031,"current_range_meters":22000,"station_id":"ce4bhg12rcd13ifvqf80","pricing_plan_id":"cebpf4jnsgd1na2vs0mg"},{"bike_id":"460d29b6-cc74-4902-a343-e63328bd33fb","system_id":"levelo_inurba_marseille","lat":43.30275,"lon":5.37721,"is_reserved":false,"is_disabled":false,"rental_uris":{"android":"levelo://app?vid=460d29b6-cc74-4902-a343-e63328bd33fb","ios":"levelo://app?vid=460d29b6-cc74-4902-a343-e63328bd33fb"},"vehicle_type_id":"4","last_reported":1747113031,"current_range_meters":22400,"station_id":"ce4bguh2rcd13ifvqcj0","pricing_plan_id":"cebpf4jnsgd1na2vs0mg"},{"bike_id":"01fd7024-c5dd-4846-aa4d-1c0e2b80f49d","system_id":"levelo_inurba_marseille","lat":43.30173,"lon":5.38094,"is_reserved":false,"is_disabled":false,"rental_uris":{"android":"levelo://app?vid=01fd7024-c5dd-4846-aa4d-1c0e2b80f49d","ios":"levelo://app?vid=01fd7024-c5dd-4846-aa4d-1c0e2b80f49d"},"vehicle_type_id":"4","last_reported":1747113031,"current_range_meters":22400,"station_id":"ce4bgjp2rcd13ifvqbh0","pricing_plan_id":"cebpf4jnsgd1na2vs0mg"},{"bike_id":"13f23f22-878f-4513-a985-79b027048394","system_id":"levelo_inurba_marseille","lat":43.28455,"lon":5.35902,"is_reserved":false,"is_disabled":false,"rental_uris":{"android":"levelo://app?vid=13f23f22-878f-4513-a985-79b027048394","ios":"levelo://app?vid=13f23f22-878f-4513-a985-79b027048394"},"vehicle_type_id":"4","last_reported":1747113031,"current_range_meters":23200,"station_id":"ce4bhah2rcd13ifvqei0","pricing_plan_id":"cebpf4jnsgd1na2vs0mg"},{"bike_id":"5647a91f-31a6-41fb-82bb-83893a94fc73","system_id":"levelo_inurba_marseille","lat":43.21191,"lon":5.35083,"is_reserved":false,"is_disabled":false,"rental_uris":{"android":"levelo://app?vid=5647a91f-31a6-41fb-82bb-83893a94fc73","ios":"levelo://app?vid=5647a91f-31a6-41fb-82bb-83893a94fc73"},"vehicle_type_id":"4","last_reported":1747113031,"current_range_meters":23200,"station_id":"st_cvj6sg6p6f1abm77japg","pricing_plan_id":"cebpf4jnsgd1na2vs0mg"},{"bike_id":"a55a8e89-7507-44c1-8a58-75c7621a3117","system_id":"levelo_inurba_marseille","lat":43.24087,"lon":5.37793,"is_reserved":false,"is_disabled":false,"rental_uris":{"android":"levelo://app?vid=a55a8e89-7507-44c1-8a58-75c7621a3117","ios":"levelo://app?vid=a55a8e89-7507-44c1-8a58-75c7621a3117"},"vehicle_type_id":"4","last_reported":1747113031,"current_range_meters":23200,"station_id":"ce4bhnp2rcd13ifvqgvg","pricing_plan_id":"cebpf4jnsgd1na2vs0mg"},{"bike_id":"53c2c5b1-547e-454a-9252-c33846187b27","system_id":"levelo_inurba_marseille","lat":43.323444,"lon":5.406134,"is_reserved":false,"is_disabled":false,"rental_uris":{"android":"levelo://app?vid=53c2c5b1-547e-454a-9252-c33846187b27","ios":"levelo://app?vid=53c2c5b1-547e-454a-9252-c33846187b27"},"vehicle_type_id":"4","last_reported":1747113031,"current_range_meters":23200,"station_id":"ce4bhq92rcd13ifvqhjg","pricing_plan_id":"cebpf4jnsgd1na2vs0mg"},{"bike_id":"312cf0fa-89c7-41e2-ab6c-83d3c271172c","system_id":"levelo_inurba_marseille","lat":43.31719,"lon":5.40412,"is_reserved":false,"is_disabled":false,"rental_uris":{"android":"levelo://app?vid=312cf0fa-89c7-41e2-ab6c-83d3c271172c","ios":"levelo://app?vid=312cf0fa-89c7-41e2-ab6c-83d3c271172c"},"vehicle_type_id":"4","last_reported":1747113031,"current_range_meters":23200,"station_id":"","pricing_plan_id":"cebpf4jnsgd1na2vs0mg"},{"bike_id":"c34feeff-0c5c-435d-86aa-6e217f5f0091","system_id":"levelo_inurba_marseille","lat":43.3095,"lon":5.39025,"is_reserved":false,"is_disabled":false,"rental_uris":{"android":"levelo://app?vid=c34feeff-0c5c-435d-86aa-6e217f5f0091","ios":"levelo://app?vid=c34feeff-0c5c-435d-86aa-6e217f5f0091"},"vehicle_type_id":"4","last_reported":1747113031,"current_range_meters":23200,"station_id":"ce4bgup2rcd13ifvqco0","pricing_plan_id":"cebpf4jnsgd1na2vs0mg"},{"bike_id":"122d19df-7ece-499b-be36-5b90e232caeb","system_id":"levelo_inurba_marseille","lat":43.30943,"lon":5.40043,"is_reserved":false,"is_disabled":false,"rental_uris":{"android":"levelo://app?vid=122d19df-7ece-499b-be36-5b90e232caeb","ios":"levelo://app?vid=122d19df-7ece-499b-be36-5b90e232caeb"},"vehicle_type_id":"4","last_reported":1747113031,"current_range_meters":23200,"station_id":"ce4bgvp2rcd13ifvqct0","pricing_plan_id":"cebpf4jnsgd1na2vs0mg"},{"bike_id":"b963eb7d-609a-45f1-bafd-6ea623ae7fbf","system_id":"levelo_inurba_marseille","lat":43.28152,"lon":5.42647,"is_reserved":false,"is_disabled":false,"rental_uris":{"android":"levelo://app?vid=b963eb7d-609a-45f1-bafd-6ea623ae7fbf","ios":"levelo://app?vid=b963eb7d-609a-45f1-bafd-6ea623ae7fbf"},"vehicle_type_id":"4","last_reported":1747113031,"current_range_meters":23200,"station_id":"ce4bhnh2rcd13ifvqgug","pricing_plan_id":"cebpf4jnsgd1na2vs0mg"},{"bike_id":"899fa6ca-8fac-4775-a022-ab48a2f4e3c5","system_id":"levelo_inurba_marseille","lat":43.24691,"lon":5.38153,"is_reserved":false,"is_disabled":false,"rental_uris":{"android":"levelo://app?vid=899fa6ca-8fac-4775-a022-ab48a2f4e3c5","ios":"levelo://app?vid=899fa6ca-8fac-4775-a022-ab48a2f4e3c5"},"vehicle_type_id":"4","last_reported":1747113031,"current_range_meters":23200,"station_id":"ce4bhih2rcd13ifvqfr0","pricing_plan_id":"cebpf4jnsgd1na2vs0mg"},{"bike_id":"0a8ca5c2-40f2-4245-9b84-8e8cc11c2ffd","system_id":"levelo_inurba_marseille","lat":43.26068,"lon":5.39392,"is_reserved":false,"is_disabled":true,"rental_uris":{"android":"levelo://app?vid=0a8ca5c2-40f2-4245-9b84-8e8cc11c2ffd","ios":"levelo://app?vid=0a8ca5c2-40f2-4245-9b84-8e8cc11c2ffd"},"vehicle_type_id":"4","last_reported":1747113031,"current_range_meters":23200,"station_id":"ce4bhh92rcd13ifvqfj0","pricing_plan_id":"cebpf4jnsgd1na2vs0mg"},{"bike_id":"00f5910a-85fe-4277-94b8-7c8bc5f3d78f","system_id":"levelo_inurba_marseille","lat":43.29556,"lon":5.42288,"is_reserved":false,"is_disabled":false,"rental_uris":{"android":"levelo://app?vid=00f5910a-85fe-4277-94b8-7c8bc5f3d78f","ios":"levelo://app?vid=00f5910a-85fe-4277-94b8-7c8bc5f3d78f"},"vehicle_type_id":"4","last_reported":1747113031,"current_range_meters":24000,"station_id":"ce4bhph2rcd13ifvqhdg","pricing_plan_id":"cebpf4jnsgd1na2vs0mg"},{"bike_id":"2bfa74bf-fda9-4adc-b534-0462a96bf861","system_id":"levelo_inurba_marseille","lat":43.31356,"lon":5.36719,"is_reserved":false,"is_disabled":false,"rental_uris":{"android":"levelo://app?vid=2bfa74bf-fda9-4adc-b534-0462a96bf861","ios":"levelo://app?vid=2bfa74bf-fda9-4adc-b534-0462a96bf861"},"vehicle_type_id":"4","last_reported":1747113031,"current_range_meters":23200,"station_id":"ce4bgr92rcd13ifvqc6g","pricing_plan_id":"cebpf4jnsgd1na2vs0mg"},{"bike_id":"8e75da86-6032-4e55-9cbb-6493ed73b892","system_id":"levelo_inurba_marseille","lat":43.301468,"lon":5.380849,"is_reserved":false,"is_disabled":false,"rental_uris":{"android":"levelo://app?vid=8e75da86-6032-4e55-9cbb-6493ed73b892","ios":"levelo://app?vid=8e75da86-6032-4e55-9cbb-6493ed73b892"},"vehicle_type_id":"4","last_reported":1747113031,"current_range_meters":24000,"station_id":"ce4bgjp2rcd13ifvqbh0","pricing_plan_id":"cebpf4jnsgd1na2vs0mg"},{"bike_id":"6a823f1a-6318-4c59-8ef1-0310574389dd","system_id":"levelo_inurba_marseille","lat":43.29586,"lon":5.39971,"is_reserved":false,"is_disabled":false,"rental_uris":{"android":"levelo://app?vid=6a823f1a-6318-4c59-8ef1-0310574389dd","ios":"levelo://app?vid=6a823f1a-6318-4c59-8ef1-0310574389dd"},"vehicle_type_id":"4","last_reported":1747113031,"current_range_meters":24000,"station_id":"ce4bh312rcd13ifvqdj0","pricing_plan_id":"cebpf4jnsgd1na2vs0mg"},{"bike_id":"118d5b17-7204-43b2-a58f-b0555d2ee4c8","system_id":"levelo_inurba_marseille","lat":43.30461,"lon":5.37904,"is_reserved":false,"is_disabled":false,"rental_uris":{"android":"levelo://app?vid=118d5b17-7204-43b2-a58f-b0555d2ee4c8","ios":"levelo://app?vid=118d5b17-7204-43b2-a58f-b0555d2ee4c8"},"vehicle_type_id":"4","last_reported":1747113031,"current_range_meters":24000,"station_id":"ce4bgup2rcd13ifvqcn0","pricing_plan_id":"cebpf4jnsgd1na2vs0mg"},{"bike_id":"3ea93f15-db04-4894-a901-ee3874ff2ab2","system_id":"levelo_inurba_marseille","lat":43.283408,"lon":5.381105,"is_reserved":false,"is_disabled":false,"rental_uris":{"android":"levelo://app?vid=3ea93f15-db04-4894-a901-ee3874ff2ab2","ios":"levelo://app?vid=3ea93f15-db04-4894-a901-ee3874ff2ab2"},"vehicle_type_id":"4","last_reported":1747113031,"current_range_meters":24000,"station_id":"ce4bh412rcd13ifvqdr0","pricing_plan_id":"cebpf4jnsgd1na2vs0mg"},{"bike_id":"fbe1a290-f52f-439e-b97c-04f5045931d7","system_id":"levelo_inurba_marseille","lat":43.281511,"lon":5.426549,"is_reserved":false,"is_disabled":false,"rental_uris":{"android":"levelo://app?vid=fbe1a290-f52f-439e-b97c-04f5045931d7","ios":"levelo://app?vid=fbe1a290-f52f-439e-b97c-04f5045931d7"},"vehicle_type_id":"4","last_reported":1747113031,"current_range_meters":24000,"station_id":"ce4bhnh2rcd13ifvqgug","pricing_plan_id":"cebpf4jnsgd1na2vs0mg"},{"bike_id":"48069bbe-c63f-4e66-aac9-b57b0558a5ee","system_id":"levelo_inurba_marseille","lat":43.30443,"lon":5.37916,"is_reserved":false,"is_disabled":false,"rental_uris":{"android":"levelo://app?vid=48069bbe-c63f-4e66-aac9-b57b0558a5ee","ios":"levelo://app?vid=48069bbe-c63f-4e66-aac9-b57b0558a5ee"},"vehicle_type_id":"4","last_reported":1747113031,"current_range_meters":24400,"station_id":"ce4bgup2rcd13ifvqcn0","pricing_plan_id":"cebpf4jnsgd1na2vs0mg"},{"bike_id":"789f0a3f-2f71-4811-908d-a770e386fcf1","system_id":"levelo_inurba_marseille","lat":43.30468,"lon":5.37907,"is_reserved":false,"is_disabled":false,"rental_uris":{"android":"levelo://app?vid=789f0a3f-2f71-4811-908d-a770e386fcf1","ios":"levelo://app?vid=789f0a3f-2f71-4811-908d-a770e386fcf1"},"vehicle_type_id":"4","last_reported":1747113031,"current_range_meters":24400,"station_id":"ce4bgup2rcd13ifvqcn0","pricing_plan_id":"cebpf4jnsgd1na2vs0mg"},{"bike_id":"8deafdb0-b72e-42a8-9144-f28ecef9389d","system_id":"levelo_inurba_marseille","lat":43.321032,"lon":5.367542,"is_reserved":false,"is_disabled":false,"rental_uris":{"android":"levelo://app?vid=8deafdb0-b72e-42a8-9144-f28ecef9389d","ios":"levelo://app?vid=8deafdb0-b72e-42a8-9144-f28ecef9389d"},"vehicle_type_id":"4","last_reported":1747113031,"current_range_meters":24400,"station_id":"ce4bhrh2rcd13ifvqhug","pricing_plan_id":"cebpf4jnsgd1na2vs0mg"},{"bike_id":"a3efcb99-ea01-4818-bfaf-48290af8ea86","system_id":"levelo_inurba_marseille","lat":43.301453,"lon":5.380947,"is_reserved":false,"is_disabled":false,"rental_uris":{"android":"levelo://app?vid=a3efcb99-ea01-4818-bfaf-48290af8ea86","ios":"levelo://app?vid=a3efcb99-ea01-4818-bfaf-48290af8ea86"},"vehicle_type_id":"4","last_reported":1747113031,"current_range_meters":24400,"station_id":"ce4bgjp2rcd13ifvqbh0","pricing_plan_id":"cebpf4jnsgd1na2vs0mg"},{"bike_id":"93362b3f-2597-4629-a6d9-baa2de57db56","system_id":"levelo_inurba_marseille","lat":43.29515,"lon":5.39407,"is_reserved":false,"is_disabled":true,"rental_uris":{"android":"levelo://app?vid=93362b3f-2597-4629-a6d9-baa2de57db56","ios":"levelo://app?vid=93362b3f-2597-4629-a6d9-baa2de57db56"},"vehicle_type_id":"4","last_reported":1747113031,"current_range_meters":24400,"station_id":"ce4bh292rcd13ifvqdf0","pricing_plan_id":"cebpf4jnsgd1na2vs0mg"},{"bike_id":"856edd1c-41fa-4163-ac94-3c5b1ee3b929","system_id":"levelo_inurba_marseille","lat":43.27385,"lon":5.36255,"is_reserved":false,"is_disabled":true,"rental_uris":{"android":"levelo://app?vid=856edd1c-41fa-4163-ac94-3c5b1ee3b929","ios":"levelo://app?vid=856edd1c-41fa-4163-ac94-3c5b1ee3b929"},"vehicle_type_id":"4","last_reported":1747113031,"current_range_meters":24400,"station_id":"ce4bhbh2rcd13ifvqeo0","pricing_plan_id":"cebpf4jnsgd1na2vs0mg"},{"bike_id":"aa9a901d-2a7e-41ed-97e8-9ff553b5fe0f","system_id":"levelo_inurba_marseille","lat":43.30641,"lon":5.40086,"is_reserved":false,"is_disabled":false,"rental_uris":{"android":"levelo://app?vid=aa9a901d-2a7e-41ed-97e8-9ff553b5fe0f","ios":"levelo://app?vid=aa9a901d-2a7e-41ed-97e8-9ff553b5fe0f"},"vehicle_type_id":"4","last_reported":1747113031,"current_range_meters":24400,"station_id":"ce4bh112rcd13ifvqda0","pricing_plan_id":"cebpf4jnsgd1na2vs0mg"},{"bike_id":"1473dded-ea4a-40d1-94d9-615cf1e91983","system_id":"levelo_inurba_marseille","lat":43.28552,"lon":5.39497,"is_reserved":false,"is_disabled":false,"rental_uris":{"android":"levelo://app?vid=1473dded-ea4a-40d1-94d9-615cf1e91983","ios":"levelo://app?vid=1473dded-ea4a-40d1-94d9-615cf1e91983"},"vehicle_type_id":"4","last_reported":1747113031,"current_range_meters":24400,"station_id":"ce4bh292rcd13ifvqdg0","pricing_plan_id":"cebpf4jnsgd1na2vs0mg"},{"bike_id":"bce263f4-b8f0-4b86-98f7-0f8a31f5e26b","system_id":"levelo_inurba_marseille","lat":43.27811,"lon":5.4071,"is_reserved":false,"is_disabled":false,"rental_uris":{"android":"levelo://app?vid=bce263f4-b8f0-4b86-98f7-0f8a31f5e26b","ios":"levelo://app?vid=bce263f4-b8f0-4b86-98f7-0f8a31f5e26b"},"vehicle_type_id":"4","last_reported":1747113031,"current_range_meters":24400,"station_id":"ce4bhnh2rcd13ifvqgtg","pricing_plan_id":"cebpf4jnsgd1na2vs0mg"},{"bike_id":"f0af08b4-97ab-496c-bdbe-5f634755ca69","system_id":"levelo_inurba_marseille","lat":43.23959,"lon":5.36637,"is_reserved":false,"is_disabled":true,"rental_uris":{"android":"levelo://app?vid=f0af08b4-97ab-496c-bdbe-5f634755ca69","ios":"levelo://app?vid=f0af08b4-97ab-496c-bdbe-5f634755ca69"},"vehicle_type_id":"4","last_reported":1747113031,"current_range_meters":24400,"station_id":"ce4bhi12rcd13ifvqfp0","pricing_plan_id":"cebpf4jnsgd1na2vs0mg"},{"bike_id":"9670f60b-d981-469e-87fd-010a1d3c3a6e","system_id":"levelo_inurba_marseille","lat":43.32109,"lon":5.36771,"is_reserved":false,"is_disabled":false,"rental_uris":{"android":"levelo://app?vid=9670f60b-d981-469e-87fd-010a1d3c3a6e","ios":"levelo://app?vid=9670f60b-d981-469e-87fd-010a1d3c3a6e"},"vehicle_type_id":"4","last_reported":1747113031,"current_range_meters":24400,"station_id":"ce4bhrh2rcd13ifvqhug","pricing_plan_id":"cebpf4jnsgd1na2vs0mg"},{"bike_id":"18556955-6e5e-44de-8de6-34b971734618","system_id":"levelo_inurba_marseille","lat":43.32119,"lon":5.36781,"is_reserved":false,"is_disabled":false,"rental_uris":{"android":"levelo://app?vid=18556955-6e5e-44de-8de6-34b971734618","ios":"levelo://app?vid=18556955-6e5e-44de-8de6-34b971734618"},"vehicle_type_id":"4","last_reported":1747113031,"current_range_meters":24800,"station_id":"ce4bhrh2rcd13ifvqhug","pricing_plan_id":"cebpf4jnsgd1na2vs0mg"},{"bike_id":"14e1760a-e172-409d-bb8e-421c803ef4f2","system_id":"levelo_inurba_marseille","lat":43.23178,"lon":5.39983,"is_reserved":false,"is_disabled":false,"rental_uris":{"android":"levelo://app?vid=14e1760a-e172-409d-bb8e-421c803ef4f2","ios":"levelo://app?vid=14e1760a-e172-409d-bb8e-421c803ef4f2"},"vehicle_type_id":"4","last_reported":1747113031,"current_range_meters":24800,"station_id":"ce4bhn12rcd13ifvqgqg","pricing_plan_id":"cebpf4jnsgd1na2vs0mg"},{"bike_id":"6f779989-4881-454b-aebd-1adcb21c6957","system_id":"levelo_inurba_marseille","lat":43.295286,"lon":5.375079,"is_reserved":false,"is_disabled":true,"rental_uris":{"android":"levelo://app?vid=6f779989-4881-454b-aebd-1adcb21c6957","ios":"levelo://app?vid=6f779989-4881-454b-aebd-1adcb21c6957"},"vehicle_type_id":"4","last_reported":1747113031,"current_range_meters":24800,"station_id":"ce4bgkp2rcd13ifvqbmg","pricing_plan_id":"cebpf4jnsgd1na2vs0mg"},{"bike_id":"05cf6086-9201-4785-b47b-101f3186bfd0","system_id":"levelo_inurba_marseille","lat":43.337444,"lon":5.374475,"is_reserved":false,"is_disabled":false,"rental_uris":{"android":"levelo://app?vid=05cf6086-9201-4785-b47b-101f3186bfd0","ios":"levelo://app?vid=05cf6086-9201-4785-b47b-101f3186bfd0"},"vehicle_type_id":"4","last_reported":1747113031,"current_range_meters":24800,"station_id":"","pricing_plan_id":"cebpf4jnsgd1na2vs0mg"},{"bike_id":"7154209a-fe85-431d-9017-8d8f881bf4ca","system_id":"levelo_inurba_marseille","lat":43.304743,"lon":5.379073,"is_reserved":false,"is_disabled":false,"rental_uris":{"android":"levelo://app?vid=7154209a-fe85-431d-9017-8d8f881bf4ca","ios":"levelo://app?vid=7154209a-fe85-431d-9017-8d8f881bf4ca"},"vehicle_type_id":"4","last_reported":1747113031,"current_range_meters":24800,"station_id":"ce4bgup2rcd13ifvqcn0","pricing_plan_id":"cebpf4jnsgd1na2vs0mg"},{"bike_id":"7affee8a-ab3f-4a5a-9d31-297d05c8aa7b","system_id":"levelo_inurba_marseille","lat":43.30624,"lon":5.40072,"is_reserved":false,"is_disabled":false,"rental_uris":{"android":"levelo://app?vid=7affee8a-ab3f-4a5a-9d31-297d05c8aa7b","ios":"levelo://app?vid=7affee8a-ab3f-4a5a-9d31-297d05c8aa7b"},"vehicle_type_id":"4","last_reported":1747113031,"current_range_meters":24800,"station_id":"ce4bh112rcd13ifvqda0","pricing_plan_id":"cebpf4jnsgd1na2vs0mg"},{"bike_id":"5ec26f90-8dd6-447d-b560-18c3f69a73f3","system_id":"levelo_inurba_marseille","lat":43.284585,"lon":5.358947,"is_reserved":false,"is_disabled":false,"rental_uris":{"android":"levelo://app?vid=5ec26f90-8dd6-447d-b560-18c3f69a73f3","ios":"levelo://app?vid=5ec26f90-8dd6-447d-b560-18c3f69a73f3"},"vehicle_type_id":"4","last_reported":1747113031,"current_range_meters":25200,"station_id":"ce4bhah2rcd13ifvqei0","pricing_plan_id":"cebpf4jnsgd1na2vs0mg"},{"bike_id":"3d7a57b8-e15f-4786-b7e9-8bfcb063d6da","system_id":"levelo_inurba_marseille","lat":43.30478,"lon":5.37901,"is_reserved":false,"is_disabled":false,"rental_uris":{"android":"levelo://app?vid=3d7a57b8-e15f-4786-b7e9-8bfcb063d6da","ios":"levelo://app?vid=3d7a57b8-e15f-4786-b7e9-8bfcb063d6da"},"vehicle_type_id":"4","last_reported":1747113031,"current_range_meters":25200,"station_id":"ce4bgup2rcd13ifvqcn0","pricing_plan_id":"cebpf4jnsgd1na2vs0mg"},{"bike_id":"7011e51b-ee17-4a9e-a242-c97fe261890f","system_id":"levelo_inurba_marseille","lat":43.23954,"lon":5.36634,"is_reserved":false,"is_disabled":true,"rental_uris":{"android":"levelo://app?vid=7011e51b-ee17-4a9e-a242-c97fe261890f","ios":"levelo://app?vid=7011e51b-ee17-4a9e-a242-c97fe261890f"},"vehicle_type_id":"4","last_reported":1747113031,"current_range_meters":25200,"station_id":"ce4bhi12rcd13ifvqfp0","pricing_plan_id":"cebpf4jnsgd1na2vs0mg"},{"bike_id":"26307f2e-2ace-4845-b5de-9d7d358da844","system_id":"levelo_inurba_marseille","lat":43.286724,"lon":5.386632,"is_reserved":false,"is_disabled":true,"rental_uris":{"android":"levelo://app?vid=26307f2e-2ace-4845-b5de-9d7d358da844","ios":"levelo://app?vid=26307f2e-2ace-4845-b5de-9d7d358da844"},"vehicle_type_id":"4","last_reported":1747113031,"current_range_meters":25200,"station_id":"ce4bh492rcd13ifvqdug","pricing_plan_id":"cebpf4jnsgd1na2vs0mg"},{"bike_id":"df00d5f6-fb8c-4f66-a5e3-a6e28ca16ef6","system_id":"levelo_inurba_marseille","lat":43.281,"lon":5.37904,"is_reserved":false,"is_disabled":false,"rental_uris":{"android":"levelo://app?vid=df00d5f6-fb8c-4f66-a5e3-a6e28ca16ef6","ios":"levelo://app?vid=df00d5f6-fb8c-4f66-a5e3-a6e28ca16ef6"},"vehicle_type_id":"4","last_reported":1747113031,"current_range_meters":25200,"station_id":"","pricing_plan_id":"cebpf4jnsgd1na2vs0mg"},{"bike_id":"64824209-6cba-4c12-875a-1502c403c27a","system_id":"levelo_inurba_marseille","lat":43.2122,"lon":5.35091,"is_reserved":false,"is_disabled":false,"rental_uris":{"android":"levelo://app?vid=64824209-6cba-4c12-875a-1502c403c27a","ios":"levelo://app?vid=64824209-6cba-4c12-875a-1502c403c27a"},"vehicle_type_id":"4","last_reported":1747113031,"current_range_meters":25200,"station_id":"st_cvj6sg6p6f1abm77japg","pricing_plan_id":"cebpf4jnsgd1na2vs0mg"},{"bike_id":"e20c0ab0-90ea-460e-bcc0-e5fa98547380","system_id":"levelo_inurba_marseille","lat":43.31715,"lon":5.43695,"is_reserved":false,"is_disabled":false,"rental_uris":{"android":"levelo://app?vid=e20c0ab0-90ea-460e-bcc0-e5fa98547380","ios":"levelo://app?vid=e20c0ab0-90ea-460e-bcc0-e5fa98547380"},"vehicle_type_id":"4","last_reported":1747113031,"current_range_meters":25200,"station_id":"ce4bhp92rcd13ifvqhcg","pricing_plan_id":"cebpf4jnsgd1na2vs0mg"},{"bike_id":"c0b9fd4f-e181-46ce-b0bf-f5119973334f","system_id":"levelo_inurba_marseille","lat":43.33771,"lon":5.37424,"is_reserved":false,"is_disabled":false,"rental_uris":{"android":"levelo://app?vid=c0b9fd4f-e181-46ce-b0bf-f5119973334f","ios":"levelo://app?vid=c0b9fd4f-e181-46ce-b0bf-f5119973334f"},"vehicle_type_id":"4","last_reported":1747113031,"current_range_meters":25200,"station_id":"","pricing_plan_id":"cebpf4jnsgd1na2vs0mg"},{"bike_id":"6e6c15df-a003-4bec-81b0-4426b4e5ddf5","system_id":"levelo_inurba_marseille","lat":43.30934,"lon":5.40141,"is_reserved":false,"is_disabled":false,"rental_uris":{"android":"levelo://app?vid=6e6c15df-a003-4bec-81b0-4426b4e5ddf5","ios":"levelo://app?vid=6e6c15df-a003-4bec-81b0-4426b4e5ddf5"},"vehicle_type_id":"4","last_reported":1747113031,"current_range_meters":25600,"station_id":"ce4bgvp2rcd13ifvqct0","pricing_plan_id":"cebpf4jnsgd1na2vs0mg"},{"bike_id":"2a1c8644-5ff0-4b10-b062-c419ae57850d","system_id":"levelo_inurba_marseille","lat":43.294349,"lon":5.391325,"is_reserved":false,"is_disabled":false,"rental_uris":{"android":"levelo://app?vid=2a1c8644-5ff0-4b10-b062-c419ae57850d","ios":"levelo://app?vid=2a1c8644-5ff0-4b10-b062-c419ae57850d"},"vehicle_type_id":"4","last_reported":1747113031,"current_range_meters":25600,"station_id":"","pricing_plan_id":"cebpf4jnsgd1na2vs0mg"},{"bike_id":"77de0757-2a8b-4ff1-98f5-6b880537f1de","system_id":"levelo_inurba_marseille","lat":43.298041,"lon":5.404149,"is_reserved":false,"is_disabled":true,"rental_uris":{"android":"levelo://app?vid=77de0757-2a8b-4ff1-98f5-6b880537f1de","ios":"levelo://app?vid=77de0757-2a8b-4ff1-98f5-6b880537f1de"},