{"last_updated":1730891242,"ttl":60,"version":"2.2","data":{"bikes":[{"bike_id":"153f17ab-ecb9-4bce-8914-75b539f791a0","system_id":"levelo_inurba_marseille","lat":43.30951,"lon":5.39025,"is_reserved":false,"is_disabled":false,"rental_uris":{"android":"levelo://app?vid=153f17ab-ecb9-4bce-8914-75b539f791a0","ios":"levelo://app?vid=153f17ab-ecb9-4bce-8914-75b539f791a0"},"vehicle_type_id":"4","last_reported":1730891242,"current_range_meters":28000,"station_id":"ce4bh0h2rcd13ifvqd50","pricing_plan_id":"cebpf4jnsgd1na2vs0mg"},{"bike_id":"7ae96026-45f8-4be1-a705-40a234940d94","system_id":"levelo_inurba_marseille","lat":43.27996,"lon":5.40012,"is_reserved":false,"is_disabled":false,"rental_uris":{"android":"levelo://app?vid=7ae96026-45f8-4be1-a705-40a234940d94","ios":"levelo://app?vid=7ae96026-45f8-4be1-a705-40a234940d94"},"vehicle_type_id":"4","last_reported":1730891242,"current_range_meters":39200,"station_id":"ce4bho92rcd13ifvqh4g","pricing_plan_id":"cebpf4jnsgd1na2vs0mg"},{"bike_id":"da69a9f2-175d-4db0-8cbf-02479afe59b8","system_id":"levelo_inurba_marseille","lat":43.29569,"lon":5.3751,"is_reserved":false,"is_disabled":false,"rental_uris":{"android":"levelo://app?vid=da69a9f2-175d-4db0-8cbf-02479afe59b8","ios":"levelo://app?vid=da69a9f2-175d-4db0-8cbf-02479afe59b8"},"vehicle_type_id":"4","last_reported":1730891242,"current_range_meters":22000,"station_id":"ce4bgh92rcd13ifvqb50","pricing_plan_id":"cebpf4jnsgd1na2vs0mg"},{"bike_id":"19df1608-2db4-4a64-8a9a-d0d9548fc94a","system_id":"levelo_inurba_marseille","lat":43.32103,"lon":5.36769,"is_reserved":false,"is_disabled":false,"rental_uris":{"android":"levelo://app?vid=19df1608-2db4-4a64-8a9a-d0d9548fc94a","ios":"levelo://app?vid=19df1608-2db4-4a64-8a9a-d0d9548fc94a"},"vehicle_type_id":"4","last_reported":1730891242,"current_range_meters":7200,"station_id":"ce4bhrh2rcd13ifvqhug","pricing_plan_id":"cebpf4jnsgd1na2vs0mg"},{"bike_id":"e983a3a2-b468-48ef-a374-a54128068ac7","system_id":"levelo_inurba_marseille","lat":43.33028,"lon":5.39038,"is_reserved":false,"is_disabled":false,"rental_uris":{"android":"levelo://app?vid=e983a3a2-b468-48ef-a374-a54128068ac7","ios":"levelo://app?vid=e983a3a2-b468-48ef-a374-a54128068ac7"},"vehicle_type_id":"4","last_reported":1730891242,"current_range_meters":28800,"station_id":"ce4bhr92rcd13ifvqhrg","pricing_plan_id":"cebpf4jnsgd1na2vs0mg"},{"bike_id":"bc869811-1aad-4ece-b858-9965c373b037","system_id":"levelo_inurba_marseille","lat":43.23158,"lon":5.43704,"is_reserved":false,"is_disabled":false,"rental_uris":{"android":"levelo://app?vid=bc869811-1aad-4ece-b858-9965c373b037","ios":"levelo://app?vid=bc869811-1aad-4ece-b858-9965c373b037"},"vehicle_type_id":"4","last_reported":1730891242,"current_range_meters":36800,"station_id":"ce4bhmp2rcd13ifvqgog","pricing_plan_id":"cebpf4jnsgd1na2vs0mg"},{"bike_id":"ba12822a-1423-429c-ba5e-4a214c4a0dd5","system_id":"levelo_inurba_marseille","lat":43.25867,"lon":5.39894,"is_reserved":false,"is_disabled":false,"rental_uris":{"android":"levelo://app?vid=ba12822a-1423-429c-ba5e-4a214c4a0dd5","ios":"levelo://app?vid=ba12822a-1423-429c-ba5e-4a214c4a0dd5"},"vehicle_type_id":"4","last_reported":1730891242,"current_range_meters":28800,"station_id":"ce4bhl92rcd13ifvqghg","pricing_plan_id":"cebpf4jnsgd1na2vs0mg"},{"bike_id":"eee6a210-68ad-4c56-881c-8e3a55c4368c","system_id":"levelo_inurba_marseille","lat":43.30594,"lon":5.39354,"is_reserved":false,"is_disabled":false,"rental_uris":{"android":"levelo://app?vid=eee6a210-68ad-4c56-881c-8e3a55c4368c","ios":"levelo://app?vid=eee6a210-68ad-4c56-881c-8e3a55c4368c"},"vehicle_type_id":"4","last_reported":1730891242,"current_range_meters":32000,"station_id":"ce4bh0p2rcd13ifvqd80","pricing_plan_id":"cebpf4jnsgd1na2vs0mg"},{"bike_id":"f852993b-13b0-4bbf-bc13-e24a0b02622c","system_id":"levelo_inurba_marseille","lat":43.26195,"lon":5.37445,"is_reserved":false,"is_disabled":false,"rental_uris":{"android":"levelo://app?vid=f852993b-13b0-4bbf-bc13-e24a0b02622c","ios":"levelo://app?vid=f852993b-13b0-4bbf-bc13-e24a0b02622c"},"vehicle_type_id":"4","last_reported":1730891242,"current_range_meters":31200,"station_id":"ce4bhgp2rcd13ifvqfc0","pricing_plan_id":"cebpf4jnsgd1na2vs0mg"},{"bike_id":"6f24135f-ffef-4131-8fbb-c2a781cf1a6b","system_id":"levelo_inurba_marseille","lat":43.26568,"lon":5.37273,"is_reserved":false,"is_disabled":false,"rental_uris":{"android":"levelo://app?vid=6f24135f-ffef-4131-8fbb-c2a781cf1a6b","ios":"levelo://app?vid=6f24135f-ffef-4131-8fbb-c2a781cf1a6b"},"vehicle_type_id":"4","last_reported":1730891242,"current_range_meters":37600,"station_id":"ce4bhg12rcd13ifvqf70","pricing_plan_id":"cebpf4jnsgd1na2vs0mg"},{"bike_id":"aaf896be-23fc-4cde-b212-d643c208e7c1","system_id":"levelo_inurba_marseille","lat":43.30422,"lon":5.4128,"is_reserved":false,"is_disabled":false,"rental_uris":{"android":"levelo://app?vid=aaf896be-23fc-4cde-b212-d643c208e7c1","ios":"levelo://app?vid=aaf896be-23fc-4cde-b212-d643c208e7c1"},"vehicle_type_id":"4","last_reported":1730891242,"current_range_meters":38000,"station_id":"ce4bhop2rcd13ifvqh8g","pricing_plan_id":"cebpf4jnsgd1na2vs0mg"},{"bike_id":"ee568b50-afdd-4d58-8ccb-365cca32f8ef","system_id":"levelo_inurba_marseille","lat":43.28365,"lon":5.38623,"is_reserved":false,"is_disabled":false,"rental_uris":{"android":"levelo://app?vid=ee568b50-afdd-4d58-8ccb-365cca32f8ef","ios":"levelo://app?vid=ee568b50-afdd-4d58-8ccb-365cca32f8ef"},"vehicle_type_id":"4","last_reported":1730891242,"current_range_meters":38800,"station_id":"ce4bh492rcd13ifvqdvg","pricing_plan_id":"cebpf4jnsgd1na2vs0mg"},{"bike_id":"9c6e2c30-6d75-4d4b-a699-ed2b15c692ca","system_id":"levelo_inurba_marseille","lat":43.29992,"lon":5.37178,"is_reserved":false,"is_disabled":false,"rental_uris":{"android":"levelo://app?vid=9c6e2c30-6d75-4d4b-a699-ed2b15c692ca","ios":"levelo://app?vid=9c6e2c30-6d75-4d4b-a699-ed2b15c692ca"},"vehicle_type_id":"4","last_reported":1730891242,"current_range_meters":28400,"station_id":"ce4bgr92rcd13ifvqc7g","pricing_plan_id":"cebpf4jnsgd1na2vs0mg"},{"bike_id":"53e4a266-9666-4231-847d-f773fcfaddcb","system_id":"levelo_inurba_marseille","lat":43.30801,"lon":5.38145,"is_reserved":false,"is_disabled":false,"rental_uris":{"android":"levelo://app?vid=53e4a266-9666-4231-847d-f773fcfaddcb","ios":"levelo://app?vid=53e4a266-9666-4231-847d-f773fcfaddcb"},"vehicle_type_id":"4","last_reported":1730891242,"current_range_meters":36800,"station_id":"ce4bgt12rcd13ifvqce0","pricing_plan_id":"cebpf4jnsgd1na2vs0mg"},{"bike_id":"87e70852-b10c-42b4-b24b-6df1e0b92e8a","system_id":"levelo_inurba_marseille","lat":43.29308,"lon":5.37168,"is_reserved":false,"is_disabled":false,"rental_uris":{"android":"levelo://app?vid=87e70852-b10c-42b4-b24b-6df1e0b92e8a","ios":"levelo://app?vid=87e70852-b10c-42b4-b24b-6df1e0b92e8a"},"vehicle_type_id":"4","last_reported":1730891242,"current_range_meters":38800,"station_id":"ce4bgh92rcd13ifvqb40","pricing_plan_id":"cebpf4jnsgd1na2vs0mg"},{"bike_id":"1f4f294e-1081-40dd-b999-b3162a016052","system_id":"levelo_inurba_marseille","lat":43.28619,"lon":5.35102,"is_reserved":false,"is_disabled":false,"rental_uris":{"android":"levelo://app?vid=1f4f294e-1081-40dd-b999-b3162a016052","ios":"levelo://app?vid=1f4f294e-1081-40dd-b999-b3162a016052"},"vehicle_type_id":"4","last_reported":1730891242,"current_range_meters":30400,"station_id":"ce4bhch2rcd13ifvqeug","pricing_plan_id":"cebpf4jnsgd1na2vs0mg"},{"bike_id":"b140672b-ae2d-4f5c-8060-0341618fb455","system_id":"levelo_inurba_marseille","lat":43.3133,"lon":5.3969,"is_reserved":false,"is_disabled":false,"rental_uris":{"android":"levelo://app?vid=b140672b-ae2d-4f5c-8060-0341618fb455","ios":"levelo://app?vid=b140672b-ae2d-4f5c-8060-0341618fb455"},"vehicle_type_id":"4","last_reported":1730891242,"current_range_meters":39200,"station_id":"ce4bgvp2rcd13ifvqcu0","pricing_plan_id":"cebpf4jnsgd1na2vs0mg"},{"bike_id":"b8d9b873-53c4-4592-85ca-ed6f5a7e6300","system_id":"levelo_inurba_marseille","lat":43.29637,"lon":5.40597,"is_reserved":false,"is_disabled":false,"rental_uris":{"android":"levelo://app?vid=b8d9b873-53c4-4592-85ca-ed6f5a7e6300","ios":"levelo://app?vid=b8d9b873-53c4-4592-85ca-ed6f5a7e6300"},"vehicle_type_id":"4","last_reported":1730891242,"current_range_meters":21600,"station_id":"ce4bh0h2rcd13ifvqd60","pricing_plan_id":"cebpf4jnsgd1na2vs0mg"},{"bike_id":"c3164add-6c50-4254-9aa2-3f9a96194cf7","system_id":"levelo_inurba_marseille","lat":43.30534,"lon":5.36534,"is_reserved":false,"is_disabled":false,"rental_uris":{"android":"levelo://app?vid=c3164add-6c50-4254-9aa2-3f9a96194cf7","ios":"levelo://app?vid=c3164add-6c50-4254-9aa2-3f9a96194cf7"},"vehicle_type_id":"4","last_reported":1730891242,"current_range_meters":9600,"station_id":"ce4bgs12rcd13ifvqcag","pricing_plan_id":"cebpf4jnsgd1na2vs0mg"},{"bike_id":"464e1bdb-dbdc-4b9e-a9e9-e601b7206a5d","system_id":"levelo_inurba_marseille","lat":43.28471,"lon":5.38408,"is_reserved":false,"is_disabled":false,"rental_uris":{"android":"levelo://app?vid=464e1bdb-dbdc-4b9e-a9e9-e601b7206a5d","ios":"levelo://app?vid=464e1bdb-dbdc-4b9e-a9e9-e601b7206a5d"},"vehicle_type_id":"4","last_reported":1730891242,"current_range_meters":38800,"station_id":"ce4bh512rcd13ifvqe3g","pricing_plan_id":"cebpf4jnsgd1na2vs0mg"},{"bike_id":"35cf71f5-f37e-4bbb-b151-04fa72375f7a","system_id":"levelo_inurba_marseille","lat":43.23149,"lon":5.43714,"is_reserved":false,"is_disabled":false,"rental_uris":{"android":"levelo://app?vid=35cf71f5-f37e-4bbb-b151-04fa72375f7a","ios":"levelo://app?vid=35cf71f5-f37e-4bbb-b151-04fa72375f7a"},"vehicle_type_id":"4","last_reported":1730891242,"current_range_meters":37600,"station_id":"ce4bhmp2rcd13ifvqgog","pricing_plan_id":"cebpf4jnsgd1na2vs0mg"},{"bike_id":"5c958c05-0b36-4b44-b755-410a66f37e37","system_id":"levelo_inurba_marseille","lat":43.3032,"lon":5.36883,"is_reserved":false,"is_disabled":false,"rental_uris":{"android":"levelo://app?vid=5c958c05-0b36-4b44-b755-410a66f37e37","ios":"levelo://app?vid=5c958c05-0b36-4b44-b755-410a66f37e37"},"vehicle_type_id":"4","last_reported":1730891242,"current_range_meters":39200,"station_id":"ce4bgqh2rcd13ifvqc5g","pricing_plan_id":"cebpf4jnsgd1na2vs0mg"},{"bike_id":"3cd9eddc-782f-4705-8c79-c48a35475edf","system_id":"levelo_inurba_marseille","lat":43.2721,"lon":5.39164,"is_reserved":false,"is_disabled":false,"rental_uris":{"android":"levelo://app?vid=3cd9eddc-782f-4705-8c79-c48a35475edf","ios":"levelo://app?vid=3cd9eddc-782f-4705-8c79-c48a35475edf"},"vehicle_type_id":"4","last_reported":1730891242,"current_range_meters":24800,"station_id":"ce4bhhp2rcd13ifvqfm0","pricing_plan_id":"cebpf4jnsgd1na2vs0mg"},{"bike_id":"996f1d08-a65c-47e3-91ce-12af9d2d79ad","system_id":"levelo_inurba_marseille","lat":43.26933,"lon":5.3891,"is_reserved":false,"is_disabled":false,"rental_uris":{"android":"levelo://app?vid=996f1d08-a65c-47e3-91ce-12af9d2d79ad","ios":"levelo://app?vid=996f1d08-a65c-47e3-91ce-12af9d2d79ad"},"vehicle_type_id":"4","last_reported":1730891242,"current_range_meters":39200,"station_id":"ce4bhhh2rcd13ifvqfl0","pricing_plan_id":"cebpf4jnsgd1na2vs0mg"},{"bike_id":"2d4759b5-fa5d-4f38-bbd2-440518bb7918","system_id":"levelo_inurba_marseille","lat":43.29031,"lon":5.38638,"is_reserved":false,"is_disabled":false,"rental_uris":{"android":"levelo://app?vid=2d4759b5-fa5d-4f38-bbd2-440518bb7918","ios":"levelo://app?vid=2d4759b5-fa5d-4f38-bbd2-440518bb7918"},"vehicle_type_id":"4","last_reported":1730891242,"current_range_meters":4400,"station_id":"","pricing_plan_id":"cebpf4jnsgd1na2vs0mg"},{"bike_id":"9b096c8b-5296-4359-885d-0808ef9178cb","system_id":"levelo_inurba_marseille","lat":43.28268,"lon":5.35067,"is_reserved":false,"is_disabled":false,"rental_uris":{"android":"levelo://app?vid=9b096c8b-5296-4359-885d-0808ef9178cb","ios":"levelo://app?vid=9b096c8b-5296-4359-885d-0808ef9178cb"},"vehicle_type_id":"4","last_reported":1730891242,"current_range_meters":16800,"station_id":"ce4bhbp2rcd13ifvqerg","pricing_plan_id":"cebpf4jnsgd1na2vs0mg"},{"bike_id":"1d92fc5d-32ed-4984-a298-1d9f484253dc","system_id":"levelo_inurba_marseille","lat":43.33753,"lon":5.37451,"is_reserved":false,"is_disabled":false,"rental_uris":{"android":"levelo://app?vid=1d92fc5d-32ed-4984-a298-1d9f484253dc","ios":"levelo://app?vid=1d92fc5d-32ed-4984-a298-1d9f484253dc"},"vehicle_type_id":"4","last_reported":1730891242,"current_range_meters":38800,"station_id":"","pricing_plan_id":"cebpf4jnsgd1na2vs0mg"},{"bike_id":"ba77ec3c-7f8c-401e-8066-2df3fb20a76b","system_id":"levelo_inurba_marseille","lat":43.27808,"lon":5.40714,"is_reserved":false,"is_disabled":false,"rental_uris":{"android":"levelo://app?vid=ba77ec3c-7f8c-401e-8066-2df3fb20a76b","ios":"levelo://app?vid=ba77ec3c-7f8c-401e-8066-2df3fb20a76b"},"vehicle_type_id":"4","last_reported":1730891242,"current_range_meters":36400,"station_id":"ce4bhnh2rcd13ifvqgtg","pricing_plan_id":"cebpf4jnsgd1na2vs0mg"},{"bike_id":"c1b28568-9d30-4c7c-b124-553df13071a8","system_id":"levelo_inurba_marseille","lat":43.29795,"lon":5.38113,"is_reserved":false,"is_disabled":false,"rental_uris":{"android":"levelo://app?vid=c1b28568-9d30-4c7c-b124-553df13071a8","ios":"levelo://app?vid=c1b28568-9d30-4c7c-b124-553df13071a8"},"vehicle_type_id":"4","last_reported":1730891242,"current_range_meters":38800,"station_id":"ce4bgip2rcd13ifvqbb0","pricing_plan_id":"cebpf4jnsgd1na2vs0mg"},{"bike_id":"8e8d1a34-b7f3-4be5-ba1c-089af120bba2","system_id":"levelo_inurba_marseille","lat":43.28366,"lon":5.38621,"is_reserved":false,"is_disabled":false,"rental_uris":{"android":"levelo://app?vid=8e8d1a34-b7f3-4be5-ba1c-089af120bba2","ios":"levelo://app?vid=8e8d1a34-b7f3-4be5-ba1c-089af120bba2"},"vehicle_type_id":"4","last_reported":1730891242,"current_range_meters":11200,"station_id":"ce4bh492rcd13ifvqdvg","pricing_plan_id":"cebpf4jnsgd1na2vs0mg"},{"bike_id":"cc793bff-79a6-4584-a356-0e42fef798f7","system_id":"levelo_inurba_marseille","lat":43.3095,"lon":5.39034,"is_reserved":false,"is_disabled":false,"rental_uris":{"android":"levelo://app?vid=cc793bff-79a6-4584-a356-0e42fef798f7","ios":"levelo://app?vid=cc793bff-79a6-4584-a356-0e42fef798f7"},"vehicle_type_id":"4","last_reported":1730891242,"current_range_meters":32800,"station_id":"ce4bgup2rcd13ifvqco0","pricing_plan_id":"cebpf4jnsgd1na2vs0mg"},{"bike_id":"2403cfcd-a17f-47cf-bd27-27a4cb1a37ba","system_id":"levelo_inurba_marseille","lat":43.297821,"lon":5.371451,"is_reserved":false,"is_disabled":false,"rental_uris":{"android":"levelo://app?vid=2403cfcd-a17f-47cf-bd27-27a4cb1a37ba","ios":"levelo://app?vid=2403cfcd-a17f-47cf-bd27-27a4cb1a37ba"},"vehicle_type_id":"4","last_reported":1730891242,"current_range_meters":22800,"station_id":"ce4bgop2rcd13ifvqc1g","pricing_plan_id":"cebpf4jnsgd1na2vs0mg"},{"bike_id":"96b6c566-d2a6-4c57-acf7-e1e62783be68","system_id":"levelo_inurba_marseille","lat":43.30315,"lon":5.36893,"is_reserved":false,"is_disabled":false,"rental_uris":{"android":"levelo://app?vid=96b6c566-d2a6-4c57-acf7-e1e62783be68","ios":"levelo://app?vid=96b6c566-d2a6-4c57-acf7-e1e62783be68"},"vehicle_type_id":"4","last_reported":1730891242,"current_range_meters":39200,"station_id":"ce4bgqh2rcd13ifvqc5g","pricing_plan_id":"cebpf4jnsgd1na2vs0mg"},{"bike_id":"692f31da-ed64-4e18-b7cc-350f01a2fb79","system_id":"levelo_inurba_marseille","lat":43.29897,"lon":5.43663,"is_reserved":false,"is_disabled":false,"rental_uris":{"android":"levelo://app?vid=692f31da-ed64-4e18-b7cc-350f01a2fb79","ios":"levelo://app?vid=692f31da-ed64-4e18-b7cc-350f01a2fb79"},"vehicle_type_id":"4","last_reported":1730891242,"current_range_meters":19600,"station_id":"ce4bhpp2rcd13ifvqhfg","pricing_plan_id":"cebpf4jnsgd1na2vs0mg"},{"bike_id":"d6439c23-935a-4947-8e2c-b8cb55ddb7bb","system_id":"levelo_inurba_marseille","lat":43.29228,"lon":5.36069,"is_reserved":false,"is_disabled":false,"rental_uris":{"android":"levelo://app?vid=d6439c23-935a-4947-8e2c-b8cb55ddb7bb","ios":"levelo://app?vid=d6439c23-935a-4947-8e2c-b8cb55ddb7bb"},"vehicle_type_id":"4","last_reported":1730891242,"current_range_meters":35600,"station_id":"ce4bhbh2rcd13ifvqeqg","pricing_plan_id":"cebpf4jnsgd1na2vs0mg"},{"bike_id":"cee811de-d4e8-455f-88e8-6a2c711d77d4","system_id":"levelo_inurba_marseille","lat":43.27207,"lon":5.39186,"is_reserved":false,"is_disabled":false,"rental_uris":{"android":"levelo://app?vid=cee811de-d4e8-455f-88e8-6a2c711d77d4","ios":"levelo://app?vid=cee811de-d4e8-455f-88e8-6a2c711d77d4"},"vehicle_type_id":"4","last_reported":1730891242,"current_range_meters":8000,"station_id":"ce4bhhp2rcd13ifvqfm0","pricing_plan_id":"cebpf4jnsgd1na2vs0mg"},{"bike_id":"587e2033-43ab-44e0-a4f4-b4fc67d83408","system_id":"levelo_inurba_marseille","lat":43.30537,"lon":5.36688,"is_reserved":false,"is_disabled":false,"rental_uris":{"android":"levelo://app?vid=587e2033-43ab-44e0-a4f4-b4fc67d83408","ios":"levelo://app?vid=587e2033-43ab-44e0-a4f4-b4fc67d83408"},"vehicle_type_id":"4","last_reported":1730891242,"current_range_meters":38800,"station_id":"ce4bgrp2rcd13ifvqc9g","pricing_plan_id":"cebpf4jnsgd1na2vs0mg"},{"bike_id":"db79fab9-0b0c-4318-a49c-e060e76372e2","system_id":"levelo_inurba_marseille","lat":43.3014,"lon":5.39861,"is_reserved":false,"is_disabled":false,"rental_uris":{"android":"levelo://app?vid=db79fab9-0b0c-4318-a49c-e060e76372e2","ios":"levelo://app?vid=db79fab9-0b0c-4318-a49c-e060e76372e2"},"vehicle_type_id":"4","last_reported":1730891242,"current_range_meters":37600,"station_id":"ce4bh0h2rcd13ifvqd40","pricing_plan_id":"cebpf4jnsgd1na2vs0mg"},{"bike_id":"3192074c-db88-46da-a03b-4f6f28dc6a5e","system_id":"levelo_inurba_marseille","lat":43.289856,"lon":5.366364,"is_reserved":false,"is_disabled":false,"rental_uris":{"android":"levelo://app?vid=3192074c-db88-46da-a03b-4f6f28dc6a5e","ios":"levelo://app?vid=3192074c-db88-46da-a03b-4f6f28dc6a5e"},"vehicle_type_id":"4","last_reported":1730891242,"current_range_meters":33200,"station_id":"ce4bhap2rcd13ifvqek0","pricing_plan_id":"cebpf4jnsgd1na2vs0mg"},{"bike_id":"ad92d505-e54c-4fbd-9b19-09a8a7fd07da","system_id":"levelo_inurba_marseille","lat":43.313484,"lon":5.367121,"is_reserved":false,"is_disabled":false,"rental_uris":{"android":"levelo://app?vid=ad92d505-e54c-4fbd-9b19-09a8a7fd07da","ios":"levelo://app?vid=ad92d505-e54c-4fbd-9b19-09a8a7fd07da"},"vehicle_type_id":"4","last_reported":1730891242,"current_range_meters":39200,"station_id":"ce4bgr92rcd13ifvqc6g","pricing_plan_id":"cebpf4jnsgd1na2vs0mg"},{"bike_id":"ccc314b2-591e-47eb-a098-c814ce03a706","system_id":"levelo_inurba_marseille","lat":43.309,"lon":5.37197,"is_reserved":false,"is_disabled":false,"rental_uris":{"android":"levelo://app?vid=ccc314b2-591e-47eb-a098-c814ce03a706","ios":"levelo://app?vid=ccc314b2-591e-47eb-a098-c814ce03a706"},"vehicle_type_id":"4","last_reported":1730891242,"current_range_meters":37600,"station_id":"ce4bguh2rcd13ifvqckg","pricing_plan_id":"cebpf4jnsgd1na2vs0mg"},{"bike_id":"f5ceffc1-9017-420a-8e8b-320243f21c27","system_id":"levelo_inurba_marseille","lat":43.29419,"lon":5.38621,"is_reserved":false,"is_disabled":false,"rental_uris":{"android":"levelo://app?vid=f5ceffc1-9017-420a-8e8b-320243f21c27","ios":"levelo://app?vid=f5ceffc1-9017-420a-8e8b-320243f21c27"},"vehicle_type_id":"4","last_reported":1730891242,"current_range_meters":37600,"station_id":"ce4bh2h2rcd13ifvqdh0","pricing_plan_id":"cebpf4jnsgd1na2vs0mg"},{"bike_id":"d1360003-c2b1-438e-a2c4-f9644afebc85","system_id":"levelo_inurba_marseille","lat":43.27971,"lon":5.4166,"is_reserved":false,"is_disabled":false,"rental_uris":{"android":"levelo://app?vid=d1360003-c2b1-438e-a2c4-f9644afebc85","ios":"levelo://app?vid=d1360003-c2b1-438e-a2c4-f9644afebc85"},"vehicle_type_id":"4","last_reported":1730891242,"current_range_meters":8400,"station_id":"ce4bho12rcd13ifvqh1g","pricing_plan_id":"cebpf4jnsgd1na2vs0mg"},{"bike_id":"714edfac-0281-44eb-8ca4-5223c9977f04","system_id":"levelo_inurba_marseille","lat":43.23194,"lon":5.35547,"is_reserved":false,"is_disabled":false,"rental_uris":{"android":"levelo://app?vid=714edfac-0281-44eb-8ca4-5223c9977f04","ios":"levelo://app?vid=714edfac-0281-44eb-8ca4-5223c9977f04"},"vehicle_type_id":"4","last_reported":1730891242,"current_range_meters":35200,"station_id":"ce4bhu92rcd13ifvqi70","pricing_plan_id":"cebpf4jnsgd1na2vs0mg"},{"bike_id":"bdbbaea9-237d-4daf-be87-8e4a54fea7c2","system_id":"levelo_inurba_marseille","lat":43.28619,"lon":5.35107,"is_reserved":false,"is_disabled":false,"rental_uris":{"android":"levelo://app?vid=bdbbaea9-237d-4daf-be87-8e4a54fea7c2","ios":"levelo://app?vid=bdbbaea9-237d-4daf-be87-8e4a54fea7c2"},"vehicle_type_id":"4","last_reported":1730891242,"current_range_meters":28800,"station_id":"ce4bhch2rcd13ifvqeug","pricing_plan_id":"cebpf4jnsgd1na2vs0mg"},{"bike_id":"504a2677-e7f9-490d-8752-2a9c4e557185","system_id":"levelo_inurba_marseille","lat":43.27181,"lon":5.40999,"is_reserved":false,"is_disabled":false,"rental_uris":{"android":"levelo://app?vid=504a2677-e7f9-490d-8752-2a9c4e557185","ios":"levelo://app?vid=504a2677-e7f9-490d-8752-2a9c4e557185"},"vehicle_type_id":"4","last_reported":1730891242,"current_range_meters":30000,"station_id":"ce4bhl12rcd13ifvqgf0","pricing_plan_id":"cebpf4jnsgd1na2vs0mg"},{"bike_id":"a459afcf-1da7-4213-b044-b1ec382f210d","system_id":"levelo_inurba_marseille","lat":43.30801,"lon":5.38151,"is_reserved":false,"is_disabled":false,"rental_uris":{"android":"levelo://app?vid=a459afcf-1da7-4213-b044-b1ec382f210d","ios":"levelo://app?vid=a459afcf-1da7-4213-b044-b1ec382f210d"},"vehicle_type_id":"4","last_reported":1730891242,"current_range_meters":25600,"station_id":"ce4bgt12rcd13ifvqce0","pricing_plan_id":"cebpf4jnsgd1na2vs0mg"},{"bike_id":"e949d76b-9e43-405b-90f0-3ee5644a2f5b","system_id":"levelo_inurba_marseille","lat":43.28042,"lon":5.39592,"is_reserved":false,"is_disabled":false,"rental_uris":{"android":"levelo://app?vid=e949d76b-9e43-405b-90f0-3ee5644a2f5b","ios":"levelo://app?vid=e949d76b-9e43-405b-90f0-3ee5644a2f5b"},"vehicle_type_id":"4","last_reported":1730891242,"current_range_meters":37600,"station_id":"ce4bho12rcd13ifvqh2g","pricing_plan_id":"cebpf4jnsgd1na2vs0mg"},{"bike_id":"aff250ce-c4be-48fe-8936-44bd86a550b3","system_id":"levelo_inurba_marseille","lat":43.23151,"lon":5.43723,"is_reserved":false,"is_disabled":false,"rental_uris":{"android":"levelo://app?vid=aff250ce-c4be-48fe-8936-44bd86a550b3","ios":"levelo://app?vid=aff250ce-c4be-48fe-8936-44bd86a550b3"},"vehicle_type_id":"4","last_reported":1730891242,"current_range_meters":17200,"station_id":"ce4bhmp2rcd13ifvqgog","pricing_plan_id":"cebpf4jnsgd1na2vs0mg"},{"bike_id":"42163e3e-5009-401f-a1ce-f09eb7e2a510","system_id":"levelo_inurba_marseille","lat":43.31324,"lon":5.39689,"is_reserved":false,"is_disabled":false,"rental_uris":{"android":"levelo://app?vid=42163e3e-5009-401f-a1ce-f09eb7e2a510","ios":"levelo://app?vid=42163e3e-5009-401f-a1ce-f09eb7e2a510"},"vehicle_type_id":"4","last_reported":1730891242,"current_range_meters":39200,"station_id":"ce4bgvp2rcd13ifvqcu0","pricing_plan_id":"cebpf4jnsgd1na2vs0mg"},{"bike_id":"5838d11e-2b64-4694-aa0d-d21394f0d95b","system_id":"levelo_inurba_marseille","lat":43.24654,"lon":5.38892,"is_reserved":false,"is_disabled":false,"rental_uris":{"android":"levelo://app?vid=5838d11e-2b64-4694-aa0d-d21394f0d95b","ios":"levelo://app?vid=5838d11e-2b64-4694-aa0d-d21394f0d95b"},"vehicle_type_id":"4","last_reported":1730891242,"current_range_meters":36000,"station_id":"ce4bhg12rcd13ifvqf60","pricing_plan_id":"cebpf4jnsgd1na2vs0mg"},{"bike_id":"a9b55777-f1e2-44bb-bd36-ea38a2f4482b","system_id":"levelo_inurba_marseille","lat":43.29984,"lon":5.38483,"is_reserved":false,"is_disabled":false,"rental_uris":{"android":"levelo://app?vid=a9b55777-f1e2-44bb-bd36-ea38a2f4482b","ios":"levelo://app?vid=a9b55777-f1e2-44bb-bd36-ea38a2f4482b"},"vehicle_type_id":"4","last_reported":1730891242,"current_range_meters":35200,"station_id":"ce4bgj92rcd13ifvqbd0","pricing_plan_id":"cebpf4jnsgd1na2vs0mg"},{"bike_id":"b8f97a5d-99ba-4fea-9090-dfd3ecf278c7","system_id":"levelo_inurba_marseille","lat":43.308818,"lon":5.39616,"is_reserved":false,"is_disabled":false,"rental_uris":{"android":"levelo://app?vid=b8f97a5d-99ba-4fea-9090-dfd3ecf278c7","ios":"levelo://app?vid=b8f97a5d-99ba-4fea-9090-dfd3ecf278c7"},"vehicle_type_id":"4","last_reported":1730891242,"current_range_meters":38000,"station_id":"ce4bh012rcd13ifvqcv0","pricing_plan_id":"cebpf4jnsgd1na2vs0mg"},{"bike_id":"ca3080b4-27c3-4112-82c4-4d076b59ffbf","system_id":"levelo_inurba_marseille","lat":43.297866,"lon":5.39363,"is_reserved":false,"is_disabled":false,"rental_uris":{"android":"levelo://app?vid=ca3080b4-27c3-4112-82c4-4d076b59ffbf","ios":"levelo://app?vid=ca3080b4-27c3-4112-82c4-4d076b59ffbf"},"vehicle_type_id":"4","last_reported":1730891242,"current_range_meters":32000,"station_id":"chh1huq6cuj3fo74tm60","pricing_plan_id":"cebpf4jnsgd1na2vs0mg"},{"bike_id":"1eedadeb-df8a-4bf4-b21e-f728c49b14fe","system_id":"levelo_inurba_marseille","lat":43.29937,"lon":5.36539,"is_reserved":false,"is_disabled":false,"rental_uris":{"android":"levelo://app?vid=1eedadeb-df8a-4bf4-b21e-f728c49b14fe","ios":"levelo://app?vid=1eedadeb-df8a-4bf4-b21e-f728c49b14fe"},"vehicle_type_id":"4","last_reported":1730891242,"current_range_meters":25200,"station_id":"ce4bgm92rcd13ifvqbr0","pricing_plan_id":"cebpf4jnsgd1na2vs0mg"},{"bike_id":"7aa4e442-028a-4ee2-a5b5-46ed0f8bbf2d","system_id":"levelo_inurba_marseille","lat":43.29227,"lon":5.36063,"is_reserved":false,"is_disabled":false,"rental_uris":{"android":"levelo://app?vid=7aa4e442-028a-4ee2-a5b5-46ed0f8bbf2d","ios":"levelo://app?vid=7aa4e442-028a-4ee2-a5b5-46ed0f8bbf2d"},"vehicle_type_id":"4","last_reported":1730891242,"current_range_meters":21600,"station_id":"ce4bhbh2rcd13ifvqeqg","pricing_plan_id":"cebpf4jnsgd1na2vs0mg"},{"bike_id":"99f56ac1-83f8-40c7-ab3a-51bceb7ae864","system_id":"levelo_inurba_marseille","lat":43.2687,"lon":5.40438,"is_reserved":false,"is_disabled":false,"rental_uris":{"android":"levelo://app?vid=99f56ac1-83f8-40c7-ab3a-51bceb7ae864","ios":"levelo://app?vid=99f56ac1-83f8-40c7-ab3a-51bceb7ae864"},"vehicle_type_id":"4","last_reported":1730891242,"current_range_meters":25600,"station_id":"ce4bho92rcd13ifvqh3g","pricing_plan_id":"cebpf4jnsgd1na2vs0mg"},{"bike_id":"58dbcfe7-8396-4727-bcd9-e808db0688de","system_id":"levelo_inurba_marseille","lat":43.29623,"lon":5.37159,"is_reserved":false,"is_disabled":false,"rental_uris":{"android":"levelo://app?vid=58dbcfe7-8396-4727-bcd9-e808db0688de","ios":"levelo://app?vid=58dbcfe7-8396-4727-bcd9-e808db0688de"},"vehicle_type_id":"4","last_reported":1730891242,"current_range_meters":36400,"station_id":"ce4bgnh2rcd13ifvqc0g","pricing_plan_id":"cebpf4jnsgd1na2vs0mg"},{"bike_id":"2be58595-1ee4-4e97-90d2-c6d933b5e1c7","system_id":"levelo_inurba_marseille","lat":43.29897,"lon":5.43668,"is_reserved":false,"is_disabled":false,"rental_uris":{"android":"levelo://app?vid=2be58595-1ee4-4e97-90d2-c6d933b5e1c7","ios":"levelo://app?vid=2be58595-1ee4-4e97-90d2-c6d933b5e1c7"},"vehicle_type_id":"4","last_reported":1730891242,"current_range_meters":20400,"station_id":"ce4bhpp2rcd13ifvqhfg","pricing_plan_id":"cebpf4jnsgd1na2vs0mg"},{"bike_id":"0ab2d0fb-4558-435e-8a7a-e5e54e69a749","system_id":"levelo_inurba_marseille","lat":43.30419,"lon":5.4128,"is_reserved":false,"is_disabled":false,"rental_uris":{"android":"levelo://app?vid=0ab2d0fb-4558-435e-8a7a-e5e54e69a749","ios":"levelo://app?vid=0ab2d0fb-4558-435e-8a7a-e5e54e69a749"},"vehicle_type_id":"4","last_reported":1730891242,"current_range_meters":30000,"station_id":"ce4bhop2rcd13ifvqh8g","pricing_plan_id":"cebpf4jnsgd1na2vs0mg"},{"bike_id":"8538f8b2-793a-4062-bc70-4f7261f7bf96","system_id":"levelo_inurba_marseille","lat":43.26784,"lon":5.39419,"is_reserved":false,"is_disabled":false,"rental_uris":{"android":"levelo://app?vid=8538f8b2-793a-4062-bc70-4f7261f7bf96","ios":"levelo://app?vid=8538f8b2-793a-4062-bc70-4f7261f7bf96"},"vehicle_type_id":"4","last_reported":1730891242,"current_range_meters":36800,"station_id":"ce4bhh12rcd13ifvqfg0","pricing_plan_id":"cebpf4jnsgd1na2vs0mg"},{"bike_id":"cc9d94b0-5673-43e5-ade1-073c59830731","system_id":"levelo_inurba_marseille","lat":43.29224,"lon":5.36055,"is_reserved":false,"is_disabled":false,"rental_uris":{"android":"levelo://app?vid=cc9d94b0-5673-43e5-ade1-073c59830731","ios":"levelo://app?vid=cc9d94b0-5673-43e5-ade1-073c59830731"},"vehicle_type_id":"4","last_reported":1730891242,"current_range_meters":33200,"station_id":"ce4bhbh2rcd13ifvqeqg","pricing_plan_id":"cebpf4jnsgd1na2vs0mg"},{"bike_id":"8d83e863-5fcc-4967-ba53-921359542e8a","system_id":"levelo_inurba_marseille","lat":43.29039,"lon":5.37562,"is_reserved":false,"is_disabled":false,"rental_uris":{"android":"levelo://app?vid=8d83e863-5fcc-4967-ba53-921359542e8a","ios":"levelo://app?vid=8d83e863-5fcc-4967-ba53-921359542e8a"},"vehicle_type_id":"4","last_reported":1730891242,"current_range_meters":38800,"station_id":"ce4bh692rcd13ifvqe90","pricing_plan_id":"cebpf4jnsgd1na2vs0mg"},{"bike_id":"af40c465-3c25-4b8b-95c5-982f2fde9235","system_id":"levelo_inurba_marseille","lat":43.27815,"lon":5.40716,"is_reserved":false,"is_disabled":false,"rental_uris":{"android":"levelo://app?vid=af40c465-3c25-4b8b-95c5-982f2fde9235","ios":"levelo://app?vid=af40c465-3c25-4b8b-95c5-982f2fde9235"},"vehicle_type_id":"4","last_reported":1730891242,"current_range_meters":18800,"station_id":"ce4bhnh2rcd13ifvqgtg","pricing_plan_id":"cebpf4jnsgd1na2vs0mg"},{"bike_id":"1dafc3c8-1077-44b3-aea7-a66bf4d6f2cd","system_id":"levelo_inurba_marseille","lat":43.30952,"lon":5.39038,"is_reserved":false,"is_disabled":false,"rental_uris":{"android":"levelo://app?vid=1dafc3c8-1077-44b3-aea7-a66bf4d6f2cd","ios":"levelo://app?vid=1dafc3c8-1077-44b3-aea7-a66bf4d6f2cd"},"vehicle_type_id":"4","last_reported":1730891242,"current_range_meters":9200,"station_id":"ce4bgup2rcd13ifvqco0","pricing_plan_id":"cebpf4jnsgd1na2vs0mg"},{"bike_id":"f348c9f4-9a66-4443-89e4-59eadd84ea52","system_id":"levelo_inurba_marseille","lat":43.31527,"lon":5.37244,"is_reserved":false,"is_disabled":false,"rental_uris":{"android":"levelo://app?vid=f348c9f4-9a66-4443-89e4-59eadd84ea52","ios":"levelo://app?vid=f348c9f4-9a66-4443-89e4-59eadd84ea52"},"vehicle_type_id":"4","last_reported":1730891242,"current_range_meters":8000,"station_id":"","pricing_plan_id":"cebpf4jnsgd1na2vs0mg"},{"bike_id":"411f36a1-cd9c-4457-8868-0572c9ab2863","system_id":"levelo_inurba_marseille","lat":43.29815,"lon":5.3809,"is_reserved":false,"is_disabled":false,"rental_uris":{"android":"levelo://app?vid=411f36a1-cd9c-4457-8868-0572c9ab2863","ios":"levelo://app?vid=411f36a1-cd9c-4457-8868-0572c9ab2863"},"vehicle_type_id":"4","last_reported":1730891242,"current_range_meters":33200,"station_id":"ce4bgip2rcd13ifvqbb0","pricing_plan_id":"cebpf4jnsgd1na2vs0mg"},{"bike_id":"cb4447bc-2cb7-46b3-aa86-abc4ccde4149","system_id":"levelo_inurba_marseille","lat":43.24078,"lon":5.37745,"is_reserved":false,"is_disabled":false,"rental_uris":{"android":"levelo://app?vid=cb4447bc-2cb7-46b3-aa86-abc4ccde4149","ios":"levelo://app?vid=cb4447bc-2cb7-46b3-aa86-abc4ccde4149"},"vehicle_type_id":"4","last_reported":1730891242,"current_range_meters":25600,"station_id":"ce4bhnp2rcd13ifvqgvg","pricing_plan_id":"cebpf4jnsgd1na2vs0mg"},{"bike_id":"da96c2be-ffe8-410e-b05f-bd4285b4e703","system_id":"levelo_inurba_marseille","lat":43.23148,"lon":5.43714,"is_reserved":false,"is_disabled":false,"rental_uris":{"android":"levelo://app?vid=da96c2be-ffe8-410e-b05f-bd4285b4e703","ios":"levelo://app?vid=da96c2be-ffe8-410e-b05f-bd4285b4e703"},"vehicle_type_id":"4","last_reported":1730891242,"current_range_meters":20800,"station_id":"ce4bhmp2rcd13ifvqgog","pricing_plan_id":"cebpf4jnsgd1na2vs0mg"},{"bike_id":"dfc5a11b-cfc2-4ce9-8698-799cdda3d684","system_id":"levelo_inurba_marseille","lat":43.28079,"lon":5.39654,"is_reserved":false,"is_disabled":false,"rental_uris":{"android":"levelo://app?vid=dfc5a11b-cfc2-4ce9-8698-799cdda3d684","ios":"levelo://app?vid=dfc5a11b-cfc2-4ce9-8698-799cdda3d684"},"vehicle_type_id":"4","last_reported":1730891242,"current_range_meters":36000,"station_id":"ce4bho12rcd13ifvqh2g","pricing_plan_id":"cebpf4jnsgd1na2vs0mg"},{"bike_id":"41d1f86c-47c8-47d8-9882-96d09b861f50","system_id":"levelo_inurba_marseille","lat":43.31365,"lon":5.38498,"is_reserved":false,"is_disabled":false,"rental_uris":{"android":"levelo://app?vid=41d1f86c-47c8-47d8-9882-96d09b861f50","ios":"levelo://app?vid=41d1f86c-47c8-47d8-9882-96d09b861f50"},"vehicle_type_id":"4","last_reported":1730891242,"current_range_meters":37600,"station_id":"","pricing_plan_id":"cebpf4jnsgd1na2vs0mg"},{"bike_id":"d1980623-f2e9-488f-ad4c-96f1b4b18325","system_id":"levelo_inurba_marseille","lat":43.26214,"lon":5.37442,"is_reserved":false,"is_disabled":false,"rental_uris":{"android":"levelo://app?vid=d1980623-f2e9-488f-ad4c-96f1b4b18325","ios":"levelo://app?vid=d1980623-f2e9-488f-ad4c-96f1b4b18325"},"vehicle_type_id":"4","last_reported":1730891242,"current_range_meters":35200,"station_id":"ce4bhgp2rcd13ifvqfc0","pricing_plan_id":"cebpf4jnsgd1na2vs0mg"},{"bike_id":"5467f48c-ac79-4c02-a4dd-665c9574feb7","system_id":"levelo_inurba_marseille","lat":43.25003,"lon":5.38938,"is_reserved":false,"is_disabled":false,"rental_uris":{"android":"levelo://app?vid=5467f48c-ac79-4c02-a4dd-665c9574feb7","ios":"levelo://app?vid=5467f48c-ac79-4c02-a4dd-665c9574feb7"},"vehicle_type_id":"4","last_reported":1730891242,"current_range_meters":36400,"station_id":"ce4bhgp2rcd13ifvqfd0","pricing_plan_id":"cebpf4jnsgd1na2vs0mg"},{"bike_id":"ce2fb28c-ad6a-4ba1-baf0-cc04e75bf748","system_id":"levelo_inurba_marseille","lat":43.29219,"lon":5.36055,"is_reserved":false,"is_disabled":false,"rental_uris":{"android":"levelo://app?vid=ce2fb28c-ad6a-4ba1-baf0-cc04e75bf748","ios":"levelo://app?vid=ce2fb28c-ad6a-4ba1-baf0-cc04e75bf748"},"vehicle_type_id":"4","last_reported":1730891242,"current_range_meters":34800,"station_id":"ce4bhbh2rcd13ifvqeqg","pricing_plan_id":"cebpf4jnsgd1na2vs0mg"},{"bike_id":"7fd2d072-1280-4445-b1d2-ca98c3a4542c","system_id":"levelo_inurba_marseille","lat":43.2465,"lon":5.38893,"is_reserved":false,"is_disabled":false,"rental_uris":{"android":"levelo://app?vid=7fd2d072-1280-4445-b1d2-ca98c3a4542c","ios":"levelo://app?vid=7fd2d072-1280-4445-b1d2-ca98c3a4542c"},"vehicle_type_id":"4","last_reported":1730891242,"current_range_meters":31200,"station_id":"ce4bhg12rcd13ifvqf60","pricing_plan_id":"cebpf4jnsgd1na2vs0mg"},{"bike_id":"649c31a5-4b4f-4771-b5b4-111bc88e3046","system_id":"levelo_inurba_marseille","lat":43.29802,"lon":5.404,"is_reserved":false,"is_disabled":false,"rental_uris":{"android":"levelo://app?vid=649c31a5-4b4f-4771-b5b4-111bc88e3046","ios":"levelo://app?vid=649c31a5-4b4f-4771-b5b4-111bc88e3046"},"vehicle_type_id":"4","last_reported":1730891242,"current_range_meters":38000,"station_id":"ce4bh112rcd13ifvqd90","pricing_plan_id":"cebpf4jnsgd1na2vs0mg"},{"bike_id":"c18e3377-4dcd-4010-86ae-a2cf9f144b20","system_id":"levelo_inurba_marseille","lat":43.26556,"lon":5.37288,"is_reserved":false,"is_disabled":false,"rental_uris":{"android":"levelo://app?vid=c18e3377-4dcd-4010-86ae-a2cf9f144b20","ios":"levelo://app?vid=c18e3377-4dcd-4010-86ae-a2cf9f144b20"},"vehicle_type_id":"4","last_reported":1730891242,"current_range_meters":34000,"station_id":"ce4bhg12rcd13ifvqf70","pricing_plan_id":"cebpf4jnsgd1na2vs0mg"},{"bike_id":"016b8060-1768-4091-9c36-6010dcda2703","system_id":"levelo_inurba_marseille","lat":43.28473,"lon":5.3842,"is_reserved":false,"is_disabled":false,"rental_uris":{"android":"levelo://app?vid=016b8060-1768-4091-9c36-6010dcda2703","ios":"levelo://app?vid=016b8060-1768-4091-9c36-6010dcda2703"},"vehicle_type_id":"4","last_reported":1730891242,"current_range_meters":36400,"station_id":"ce4bh512rcd13ifvqe3g","pricing_plan_id":"cebpf4jnsgd1na2vs0mg"},{"bike_id":"340ee037-c5f9-4ff6-a16b-0e0f3098fa79","system_id":"levelo_inurba_marseille","lat":43.31454,"lon":5.37391,"is_reserved":false,"is_disabled":false,"rental_uris":{"android":"levelo://app?vid=340ee037-c5f9-4ff6-a16b-0e0f3098fa79","ios":"levelo://app?vid=340ee037-c5f9-4ff6-a16b-0e0f3098fa79"},"vehicle_type_id":"4","last_reported":1730891242,"current_range_meters":24400,"station_id":"","pricing_plan_id":"cebpf4jnsgd1na2vs0mg"},{"bike_id":"8f43fe37-2b63-4a02-98dd-daf0496db2f7","system_id":"levelo_inurba_marseille","lat":43.30153,"lon":5.38082,"is_reserved":false,"is_disabled":false,"rental_uris":{"android":"levelo://app?vid=8f43fe37-2b63-4a02-98dd-daf0496db2f7","ios":"levelo://app?vid=8f43fe37-2b63-4a02-98dd-daf0496db2f7"},"vehicle_type_id":"4","last_reported":1730891242,"current_range_meters":38800,"station_id":"ce4bgjp2rcd13ifvqbh0","pricing_plan_id":"cebpf4jnsgd1na2vs0mg"},{"bike_id":"3dcf2084-d2c1-4451-a57c-61086d241ea9","system_id":"levelo_inurba_marseille","lat":43.28355,"lon":5.38623,"is_reserved":false,"is_disabled":false,"rental_uris":{"android":"levelo://app?vid=3dcf2084-d2c1-4451-a57c-61086d241ea9","ios":"levelo://app?vid=3dcf2084-d2c1-4451-a57c-61086d241ea9"},"vehicle_type_id":"4","last_reported":1730891242,"current_range_meters":36800,"station_id":"ce4bh492rcd13ifvqdvg","pricing_plan_id":"cebpf4jnsgd1na2vs0mg"},{"bike_id":"b4678c20-7935-41da-9eb4-bbd1cd730c71","system_id":"levelo_inurba_marseille","lat":43.25863,"lon":5.39905,"is_reserved":false,"is_disabled":false,"rental_uris":{"android":"levelo://app?vid=b4678c20-7935-41da-9eb4-bbd1cd730c71","ios":"levelo://app?vid=b4678c20-7935-41da-9eb4-bbd1cd730c71"},"vehicle_type_id":"4","last_reported":1730891242,"current_range_meters":25600,"station_id":"ce4bhl92rcd13ifvqghg","pricing_plan_id":"cebpf4jnsgd1na2vs0mg"},{"bike_id":"cde33d01-4fdf-4588-9993-50576e545d63","system_id":"levelo_inurba_marseille","lat":43.29897,"lon":5.43658,"is_reserved":false,"is_disabled":false,"rental_uris":{"android":"levelo://app?vid=cde33d01-4fdf-4588-9993-50576e545d63","ios":"levelo://app?vid=cde33d01-4fdf-4588-9993-50576e545d63"},"vehicle_type_id":"4","last_reported":1730891242,"current_range_meters":38000,"station_id":"ce4bhpp2rcd13ifvqhfg","pricing_plan_id":"cebpf4jnsgd1na2vs0mg"},{"bike_id":"c81667d3-78ae-4f6e-b1dd-676d4e1571a5","system_id":"levelo_inurba_marseille","lat":43.29097,"lon":5.38127,"is_reserved":false,"is_disabled":false,"rental_uris":{"android":"levelo://app?vid=c81667d3-78ae-4f6e-b1dd-676d4e1571a5","ios":"levelo://app?vid=c81667d3-78ae-4f6e-b1dd-676d4e1571a5"},"vehicle_type_id":"4","last_reported":1730891242,"current_range_meters":29600,"station_id":"ce4bh512rcd13ifvqe2g","pricing_plan_id":"cebpf4jnsgd1na2vs0mg"},{"bike_id":"be5bde24-50fb-447f-a474-10ce506864d9","system_id":"levelo_inurba_marseille","lat":43.30426,"lon":5.38886,"is_reserved":false,"is_disabled":false,"rental_uris":{"android":"levelo://app?vid=be5bde24-50fb-447f-a474-10ce506864d9","ios":"levelo://app?vid=be5bde24-50fb-447f-a474-10ce506864d9"},"vehicle_type_id":"4","last_reported":1730891242,"current_range_meters":36400,"station_id":"ce4bgk12rcd13ifvqbi0","pricing_plan_id":"cebpf4jnsgd1na2vs0mg"},{"bike_id":"28e4885d-9200-4e60-96af-eaca8769468c","system_id":"levelo_inurba_marseille","lat":43.31271,"lon":5.40164,"is_reserved":false,"is_disabled":false,"rental_uris":{"android":"levelo://app?vid=28e4885d-9200-4e60-96af-eaca8769468c","ios":"levelo://app?vid=28e4885d-9200-4e60-96af-eaca8769468c"},"vehicle_type_id":"4","last_reported":1730891242,"current_range_meters":30400,"station_id":"ce4bh092rcd13ifvqd30","pricing_plan_id":"cebpf4jnsgd1na2vs0mg"},{"bike_id":"cfeb4f1a-c28e-4d28-a128-3f5ea0030cc0","system_id":"levelo_inurba_marseille","lat":43.30215,"lon":5.39463,"is_reserved":false,"is_disabled":false,"rental_uris":{"android":"levelo://app?vid=cfeb4f1a-c28e-4d28-a128-3f5ea0030cc0","ios":"levelo://app?vid=cfeb4f1a-c28e-4d28-a128-3f5ea0030cc0"},"vehicle_type_id":"4","last_reported":1730891242,"current_range_meters":28400,"station_id":"ce4bh0p2rcd13ifvqd70","pricing_plan_id":"cebpf4jnsgd1na2vs0mg"},{"bike_id":"9d9dc117-b422-4432-b305-2ee17862cef6","system_id":"levelo_inurba_marseille","lat":43.31221,"lon":5.36884,"is_reserved":false,"is_disabled":false,"rental_uris":{"android":"levelo://app?vid=9d9dc117-b422-4432-b305-2ee17862cef6","ios":"levelo://app?vid=9d9dc117-b422-4432-b305-2ee17862cef6"},"vehicle_type_id":"4","last_reported":1730891242,"current_range_meters":29600,"station_id":"ce4bgl92rcd13ifvqbq0","pricing_plan_id":"cebpf4jnsgd1na2vs0mg"},{"bike_id":"b6610bdf-8909-491b-82af-22d5ec18a8c3","system_id":"levelo_inurba_marseille","lat":43.30959,"lon":5.39043,"is_reserved":false,"is_disabled":false,"rental_uris":{"android":"levelo://app?vid=b6610bdf-8909-491b-82af-22d5ec18a8c3","ios":"levelo://app?vid=b6610bdf-8909-491b-82af-22d5ec18a8c3"},"vehicle_type_id":"4","last_reported":1730891242,"current_range_meters":10800,"station_id":"ce4bgup2rcd13ifvqco0","pricing_plan_id":"cebpf4jnsgd1na2vs0mg"},{"bike_id":"51975019-2a8d-4b3a-99c1-996ff780a67b","system_id":"levelo_inurba_marseille","lat":43.30795,"lon":5.38163,"is_reserved":false,"is_disabled":false,"rental_uris":{"android":"levelo://app?vid=51975019-2a8d-4b3a-99c1-996ff780a67b","ios":"levelo://app?vid=51975019-2a8d-4b3a-99c1-996ff780a67b"},"vehicle_type_id":"4","last_reported":1730891242,"current_range_meters":36400,"station_id":"ce4bgt12rcd13ifvqce0","pricing_plan_id":"cebpf4jnsgd1na2vs0mg"},{"bike_id":"b466dff4-58e6-4aec-a5a6-46b8ac366ead","system_id":"levelo_inurba_marseille","lat":43.25579,"lon":5.38227,"is_reserved":false,"is_disabled":false,"rental_uris":{"android":"levelo://app?vid=b466dff4-58e6-4aec-a5a6-46b8ac366ead","ios":"levelo://app?vid=b466dff4-58e6-4aec-a5a6-46b8ac366ead"},"vehicle_type_id":"4","last_reported":1730891242,"current_range_meters":38800,"station_id":"ce4bhih2rcd13ifvqfs0","pricing_plan_id":"cebpf4jnsgd1na2vs0mg"},{"bike_id":"5174ae6b-73b7-4eb9-b82e-9c61c1f78ce8","system_id":"levelo_inurba_marseille","lat":43.31223,"lon":5.40639,"is_reserved":false,"is_disabled":false,"rental_uris":{"android":"levelo://app?vid=5174ae6b-73b7-4eb9-b82e-9c61c1f78ce8","ios":"levelo://app?vid=5174ae6b-73b7-4eb9-b82e-9c61c1f78ce8"},"vehicle_type_id":"4","last_reported":1730891242,"current_range_meters":23200,"station_id":"","pricing_plan_id":"cebpf4jnsgd1na2vs0mg"},{"bike_id":"83417607-4a2c-4474-80bf-75e190ee9db8","system_id":"levelo_inurba_marseille","lat":43.30929,"lon":5.40139,"is_reserved":false,"is_disabled":false,"rental_uris":{"android":"levelo://app?vid=83417607-4a2c-4474-80bf-75e190ee9db8","ios":"levelo://app?vid=83417607-4a2c-4474-80bf-75e190ee9db8"},"vehicle_type_id":"4","last_reported":1730891242,"current_range_meters":37600,"station_id":"ce4bgvp2rcd13ifvqct0","pricing_plan_id":"cebpf4jnsgd1na2vs0mg"},{"bike_id":"8ec60746-261c-46d6-ae28-00da7b736c76","system_id":"levelo_inurba_marseille","lat":43.29996,"lon":5.38479,"is_reserved":false,"is_disabled":false,"rental_uris":{"android":"levelo://app?vid=8ec60746-261c-46d6-ae28-00da7b736c76","ios":"levelo://app?vid=8ec60746-261c-46d6-ae28-00da7b736c76"},"vehicle_type_id":"4","last_reported":1730891242,"current_range_meters":30800,"station_id":"ce4bgj92rcd13ifvqbd0","pricing_plan_id":"cebpf4jnsgd1na2vs0mg"},{"bike_id":"422ebff4-a7d6-43ff-b472-171b28ea5ae1","system_id":"levelo_inurba_marseille","lat":43.27679,"lon":5.38881,"is_reserved":false,"is_disabled":false,"rental_uris":{"android":"levelo://app?vid=422ebff4-a7d6-43ff-b472-171b28ea5ae1","ios":"levelo://app?vid=422ebff4-a7d6-43ff-b472-171b28ea5ae1"},"vehicle_type_id":"4","last_reported":1730891242,"current_range_meters":16800,"station_id":"ce4bhi12rcd13ifvqfo0","pricing_plan_id":"cebpf4jnsgd1na2vs0mg"},{"bike_id":"dea323ac-5b80-43e7-a88e-a81ff66e67db","system_id":"levelo_inurba_marseille","lat":43.2896,"lon":5.36396,"is_reserved":false,"is_disabled":false,"rental_uris":{"android":"levelo://app?vid=dea323ac-5b80-43e7-a88e-a81ff66e67db","ios":"levelo://app?vid=dea323ac-5b80-43e7-a88e-a81ff66e67db"},"vehicle_type_id":"4","last_reported":1730891242,"current_range_meters":30800,"station_id":"ce4bhc92rcd13ifvqetg","pricing_plan_id":"cebpf4jnsgd1na2vs0mg"},{"bike_id":"b723420b-bd2d-4a96-bc3e-b9bd38c780ea","system_id":"levelo_inurba_marseille","lat":43.26937,"lon":5.40246,"is_reserved":false,"is_disabled":false,"rental_uris":{"android":"levelo://app?vid=b723420b-bd2d-4a96-bc3e-b9bd38c780ea","ios":"levelo://app?vid=b723420b-bd2d-4a96-bc3e-b9bd38c780ea"},"vehicle_type_id":"4","last_reported":1730891242,"current_range_meters":35200,"station_id":"cjm6bp8fraef2m0cb0m0","pricing_plan_id":"cebpf4jnsgd1na2vs0mg"},{"bike_id":"bff19b85-fa9d-4d2e-a404-1b3282f15d63","system_id":"levelo_inurba_marseille","lat":43.2799,"lon":5.40027,"is_reserved":false,"is_disabled":false,"rental_uris":{"android":"levelo://app?vid=bff19b85-fa9d-4d2e-a404-1b3282f15d63","ios":"levelo://app?vid=bff19b85-fa9d-4d2e-a404-1b3282f15d63"},"vehicle_type_id":"4","last_reported":1730891242,"current_range_meters":38800,"station_id":"ce4bho92rcd13ifvqh4g","pricing_plan_id":"cebpf4jnsgd1na2vs0mg"},{"bike_id":"b44b0b48-9a85-405c-b983-dc9cb4802105","system_id":"levelo_inurba_marseille","lat":43.28566,"lon":5.395,"is_reserved":false,"is_disabled":false,"rental_uris":{"android":"levelo://app?vid=b44b0b48-9a85-405c-b983-dc9cb4802105","ios":"levelo://app?vid=b44b0b48-9a85-405c-b983-dc9cb4802105"},"vehicle_type_id":"4","last_reported":1730891242,"current_range_meters":38800,"station_id":"ce4bh292rcd13ifvqdg0","pricing_plan_id":"cebpf4jnsgd1na2vs0mg"},{"bike_id":"b4afb465-05a1-4e85-a5bc-bce519e820ac","system_id":"levelo_inurba_marseille","lat":43.30091,"lon":5.39079,"is_reserved":false,"is_disabled":false,"rental_uris":{"android":"levelo://app?vid=b4afb465-05a1-4e85-a5bc-bce519e820ac","ios":"levelo://app?vid=b4afb465-05a1-4e85-a5bc-bce519e820ac"},"vehicle_type_id":"4","last_reported":1730891242,"current_range_meters":32000,"station_id":"ce4bh192rcd13ifvqdb0","pricing_plan_id":"cebpf4jnsgd1na2vs0mg"},{"bike_id":"ebcf6733-e41e-4f70-b758-d56fe1de23df","system_id":"levelo_inurba_marseille","lat":43.30535,"lon":5.36532,"is_reserved":false,"is_disabled":false,"rental_uris":{"android":"levelo://app?vid=ebcf6733-e41e-4f70-b758-d56fe1de23df","ios":"levelo://app?vid=ebcf6733-e41e-4f70-b758-d56fe1de23df"},"vehicle_type_id":"4","last_reported":1730891242,"current_range_meters":38000,"station_id":"ce4bgs12rcd13ifvqcag","pricing_plan_id":"cebpf4jnsgd1na2vs0mg"},{"bike_id":"dc397fa6-87ca-400e-beb0-b20e68c09032","system_id":"levelo_inurba_marseille","lat":43.31486,"lon":5.37301,"is_reserved":false,"is_disabled":false,"rental_uris":{"android":"levelo://app?vid=dc397fa6-87ca-400e-beb0-b20e68c09032","ios":"levelo://app?vid=dc397fa6-87ca-400e-beb0-b20e68c09032"},"vehicle_type_id":"4","last_reported":1730891242,"current_range_meters":22000,"station_id":"ce4bgt12rcd13ifvqcd0","pricing_plan_id":"cebpf4jnsgd1na2vs0mg"},{"bike_id":"74c7101e-a276-4f08-ba3d-5268d2d37c34","system_id":"levelo_inurba_marseille","lat":43.30251,"lon":5.40062,"is_reserved":false,"is_disabled":false,"rental_uris":{"android":"levelo://app?vid=74c7101e-a276-4f08-ba3d-5268d2d37c34","ios":"levelo://app?vid=74c7101e-a276-4f08-ba3d-5268d2d37c34"},"vehicle_type_id":"4","last_reported":1730891242,"current_range_meters":33200,"station_id":"ce4bgvh2rcd13ifvqcs0","pricing_plan_id":"cebpf4jnsgd1na2vs0mg"},{"bike_id":"73910958-3faa-4552-9d1c-9554c009cdb0","system_id":"levelo_inurba_marseille","lat":43.29301,"lon":5.37436,"is_reserved":false,"is_disabled":false,"rental_uris":{"android":"levelo://app?vid=73910958-3faa-4552-9d1c-9554c009cdb0","ios":"levelo://app?vid=73910958-3faa-4552-9d1c-9554c009cdb0"},"vehicle_type_id":"4","last_reported":1730891242,"current_range_meters":38800,"station_id":"ce4bgi12rcd13ifvqb70","pricing_plan_id":"cebpf4jnsgd1na2vs0mg"},{"bike_id":"437037e9-de2d-4c1f-b6d8-074d1c9b96f5","system_id":"levelo_inurba_marseille","lat":43.308095,"lon":5.381446,"is_reserved":false,"is_disabled":false,"rental_uris":{"android":"levelo://app?vid=437037e9-de2d-4c1f-b6d8-074d1c9b96f5","ios":"levelo://app?vid=437037e9-de2d-4c1f-b6d8-074d1c9b96f5"},"vehicle_type_id":"4","last_reported":1730891242,"current_range_meters":9200,"station_id":"ce4bgt12rcd13ifvqce0","pricing_plan_id":"cebpf4jnsgd1na2vs0mg"},{"bike_id":"1410fdd7-8caf-4a2b-825b-7d27f9af1fec","system_id":"levelo_inurba_marseille","lat":43.31233,"lon":5.36853,"is_reserved":false,"is_disabled":false,"rental_uris":{"android":"levelo://app?vid=1410fdd7-8caf-4a2b-825b-7d27f9af1fec","ios":"levelo://app?vid=1410fdd7-8caf-4a2b-825b-7d27f9af1fec"},"vehicle_type_id":"4","last_reported":1730891242,"current_range_meters":38000,"station_id":"ce4bgl92rcd13ifvqbq0","pricing_plan_id":"cebpf4jnsgd1na2vs0mg"},{"bike_id":"7e4ef42e-38bf-4d76-b3b7-5c276a9bcb70","system_id":"levelo_inurba_marseille","lat":43.30431,"lon":5.38891,"is_reserved":false,"is_disabled":false,"rental_uris":{"android":"levelo://app?vid=7e4ef42e-38bf-4d76-b3b7-5c276a9bcb70","ios":"levelo://app?vid=7e4ef42e-38bf-4d76-b3b7-5c276a9bcb70"},"vehicle_type_id":"4","last_reported":1730891242,"current_range_meters":38800,"station_id":"ce4bgk12rcd13ifvqbi0","pricing_plan_id":"cebpf4jnsgd1na2vs0mg"},{"bike_id":"3c2414ee-3ea3-4b98-a758-6eb1155c6df5","system_id":"levelo_inurba_marseille","lat":43.29425,"lon":5.38624,"is_reserved":false,"is_disabled":false,"rental_uris":{"android":"levelo://app?vid=3c2414ee-3ea3-4b98-a758-6eb1155c6df5","ios":"levelo://app?vid=3c2414ee-3ea3-4b98-a758-6eb1155c6df5"},"vehicle_type_id":"4","last_reported":1730891242,"current_range_meters":34000,"station_id":"ce4bh2h2rcd13ifvqdh0","pricing_plan_id":"cebpf4jnsgd1na2vs0mg"},{"bike_id":"b43851ef-1c07-42cf-aee4-301658fbdbd3","system_id":"levelo_inurba_marseille","lat":43.25,"lon":5.38932,"is_reserved":false,"is_disabled":false,"rental_uris":{"android":"levelo://app?vid=b43851ef-1c07-42cf-aee4-301658fbdbd3","ios":"levelo://app?vid=b43851ef-1c07-42cf-aee4-301658fbdbd3"},"vehicle_type_id":"4","last_reported":1730891242,"current_range_meters":25600,"station_id":"ce4bhgp2rcd13ifvqfd0","pricing_plan_id":"cebpf4jnsgd1na2vs0mg"},{"bike_id":"8ba9bdd7-2fbb-4057-9790-39e8b8c10d48","system_id":"levelo_inurba_marseille","lat":43.28409,"lon":5.37906,"is_reserved":false,"is_disabled":false,"rental_uris":{"android":"levelo://app?vid=8ba9bdd7-2fbb-4057-9790-39e8b8c10d48","ios":"levelo://app?vid=8ba9bdd7-2fbb-4057-9790-39e8b8c10d48"},"vehicle_type_id":"4","last_reported":1730891242,"current_range_meters":16400,"station_id":"","pricing_plan_id":"cebpf4jnsgd1na2vs0mg"},{"bike_id":"056e213e-57dd-4779-934b-6fea5b73380b","system_id":"levelo_inurba_marseille","lat":43.30446,"lon":5.38891,"is_reserved":false,"is_disabled":false,"rental_uris":{"android":"levelo://app?vid=056e213e-57dd-4779-934b-6fea5b73380b","ios":"levelo://app?vid=056e213e-57dd-4779-934b-6fea5b73380b"},"vehicle_type_id":"4","last_reported":1730891242,"current_range_meters":38800,"station_id":"ce4bgk12rcd13ifvqbi0","pricing_plan_id":"cebpf4jnsgd1na2vs0mg"},{"bike_id":"bb10a7e5-28ee-4ce5-959a-fb4e69a519f8","system_id":"levelo_inurba_marseille","lat":43.28151,"lon":5.42643,"is_reserved":false,"is_disabled":false,"rental_uris":{"android":"levelo://app?vid=bb10a7e5-28ee-4ce5-959a-fb4e69a519f8","ios":"levelo://app?vid=bb10a7e5-28ee-4ce5-959a-fb4e69a519f8"},"vehicle_type_id":"4","last_reported":1730891242,"current_range_meters":38800,"station_id":"ce4bhnh2rcd13ifvqgug","pricing_plan_id":"cebpf4jnsgd1na2vs0mg"},{"bike_id":"2787fadf-896a-40f9-8795-f2535a51f4b6","system_id":"levelo_inurba_marseille","lat":43.3016,"lon":5.38085,"is_reserved":false,"is_disabled":false,"rental_uris":{"android":"levelo://app?vid=2787fadf-896a-40f9-8795-f2535a51f4b6","ios":"levelo://app?vid=2787fadf-896a-40f9-8795-f2535a51f4b6"},"vehicle_type_id":"4","last_reported":1730891242,"current_range_meters":28400,"station_id":"","pricing_plan_id":"cebpf4jnsgd1na2vs0mg"},{"bike_id":"ab845c95-fe57-4327-a9c4-2e5039bd70d4","system_id":"levelo_inurba_marseille","lat":43.3107,"lon":5.38365,"is_reserved":false,"is_disabled":false,"rental_uris":{"android":"levelo://app?vid=ab845c95-fe57-4327-a9c4-2e5039bd70d4","ios":"levelo://app?vid=ab845c95-fe57-4327-a9c4-2e5039bd70d4"},"vehicle_type_id":"4","last_reported":1730891242,"current_range_meters":36400,"station_id":"ce4bgv92rcd13ifvqcr0","pricing_plan_id":"cebpf4jnsgd1na2vs0mg"},{"bike_id":"2c4af81a-61a4-4b7d-9737-a21161e3b7d5","system_id":"levelo_inurba_marseille","lat":43.30548,"lon":5.3653,"is_reserved":false,"is_disabled":false,"rental_uris":{"android":"levelo://app?vid=2c4af81a-61a4-4b7d-9737-a21161e3b7d5","ios":"levelo://app?vid=2c4af81a-61a4-4b7d-9737-a21161e3b7d5"},"vehicle_type_id":"4","last_reported":1730891242,"current_range_meters":32800,"station_id":"ce4bgs12rcd13ifvqcag","pricing_plan_id":"cebpf4jnsgd1na2vs0mg"},{"bike_id":"b8d968c2-430e-4297-9b22-19cd8c0f916d","system_id":"levelo_inurba_marseille","lat":43.23159,"lon":5.4369,"is_reserved":false,"is_disabled":false,"rental_uris":{"android":"levelo://app?vid=b8d968c2-430e-4297-9b22-19cd8c0f916d","ios":"levelo://app?vid=b8d968c2-430e-4297-9b22-19cd8c0f916d"},"vehicle_type_id":"4","last_reported":1730891242,"current_range_meters":38000,"station_id":"ce4bhmp2rcd13ifvqgog","pricing_plan_id":"cebpf4jnsgd1na2vs0mg"},{"bike_id":"4eb50040-f52f-46c0-a67d-2e65f9d92d61","system_id":"levelo_inurba_marseille","lat":43.2928,"lon":5.40119,"is_reserved":false,"is_disabled":false,"rental_uris":{"android":"levelo://app?vid=4eb50040-f52f-46c0-a67d-2e65f9d92d61","ios":"levelo://app?vid=4eb50040-f52f-46c0-a67d-2e65f9d92d61"},"vehicle_type_id":"4","last_reported":1730891242,"current_range_meters":36800,"station_id":"ce4bh312rcd13ifvqdk0","pricing_plan_id":"cebpf4jnsgd1na2vs0mg"},{"bike_id":"7586d19f-1c25-48f5-a821-f601f8a8563d","system_id":"levelo_inurba_marseille","lat":43.29975,"lon":5.38493,"is_reserved":false,"is_disabled":false,"rental_uris":{"android":"levelo://app?vid=7586d19f-1c25-48f5-a821-f601f8a8563d","ios":"levelo://app?vid=7586d19f-1c25-48f5-a821-f601f8a8563d"},"vehicle_type_id":"4","last_reported":1730891242,"current_range_meters":20000,"station_id":"ce4bgj92rcd13ifvqbd0","pricing_plan_id":"cebpf4jnsgd1na2vs0mg"},{"bike_id":"f2560b82-cf64-4610-bf6e-f802ad9f72bf","system_id":"levelo_inurba_marseille","lat":43.33754,"lon":5.37442,"is_reserved":false,"is_disabled":false,"rental_uris":{"android":"levelo://app?vid=f2560b82-cf64-4610-bf6e-f802ad9f72bf","ios":"levelo://app?vid=f2560b82-cf64-4610-bf6e-f802ad9f72bf"},"vehicle_type_id":"4","last_reported":1730891242,"current_range_meters":32400,"station_id":"","pricing_plan_id":"cebpf4jnsgd1na2vs0mg"},{"bike_id":"4e5d727a-7c34-44b8-af94-45a54b88c1cc","system_id":"levelo_inurba_marseille","lat":43.33721,"lon":5.39182,"is_reserved":false,"is_disabled":false,"rental_uris":{"android":"levelo://app?vid=4e5d727a-7c34-44b8-af94-45a54b88c1cc","ios":"levelo://app?vid=4e5d727a-7c34-44b8-af94-45a54b88c1cc"},"vehicle_type_id":"4","last_reported":1730891242,"current_range_meters":38800,"station_id":"ce4bhr92rcd13ifvqhsg","pricing_plan_id":"cebpf4jnsgd1na2vs0mg"},{"bike_id":"6581b319-446e-4e29-ba37-72a798d4a653","system_id":"levelo_inurba_marseille","lat":43.31328,"lon":5.39684,"is_reserved":false,"is_disabled":false,"rental_uris":{"android":"levelo://app?vid=6581b319-446e-4e29-ba37-72a798d4a653","ios":"levelo://app?vid=6581b319-446e-4e29-ba37-72a798d4a653"},"vehicle_type_id":"4","last_reported":1730891242,"current_range_meters":36800,"station_id":"ce4bgvp2rcd13ifvqcu0","pricing_plan_id":"cebpf4jnsgd1na2vs0mg"},{"bike_id":"597b74d7-5fba-452b-a0b9-168e38ee85ca","system_id":"levelo_inurba_marseille","lat":43.30147,"lon":5.38089,"is_reserved":false,"is_disabled":false,"rental_uris":{"android":"levelo://app?vid=597b74d7-5fba-452b-a0b9-168e38ee85ca","ios":"levelo://app?vid=597b74d7-5fba-452b-a0b9-168e38ee85ca"},"vehicle_type_id":"4","last_reported":1730891242,"current_range_meters":20400,"station_id":"ce4bgjp2rcd13ifvqbh0","pricing_plan_id":"cebpf4jnsgd1na2vs0mg"},{"bike_id":"a6fe0494-3be4-434f-873b-90260f77d111","system_id":"levelo_inurba_marseille","lat":43.26793,"lon":5.39418,"is_reserved":false,"is_disabled":false,"rental_uris":{"android":"levelo://app?vid=a6fe0494-3be4-434f-873b-90260f77d111","ios":"levelo://app?vid=a6fe0494-3be4-434f-873b-90260f77d111"},"vehicle_type_id":"4","last_reported":1730891242,"current_range_meters":38800,"station_id":"ce4bhh12rcd13ifvqfg0","pricing_plan_id":"cebpf4jnsgd1na2vs0mg"},{"bike_id":"16aa4cc9-14b5-4787-b816-23c17a46d160","system_id":"levelo_inurba_marseille","lat":43.30413,"lon":5.41275,"is_reserved":false,"is_disabled":false,"rental_uris":{"android":"levelo://app?vid=16aa4cc9-14b5-4787-b816-23c17a46d160","ios":"levelo://app?vid=16aa4cc9-14b5-4787-b816-23c17a46d160"},"vehicle_type_id":"4","last_reported":1730891242,"current_range_meters":6800,"station_id":"ce4bhop2rcd13ifvqh8g","pricing_plan_id":"cebpf4jnsgd1na2vs0mg"},{"bike_id":"5977221d-8632-4cc4-8086-04bb87a4ca59","system_id":"levelo_inurba_marseille","lat":43.31705,"lon":5.37742,"is_reserved":false,"is_disabled":false,"rental_uris":{"android":"levelo://app?vid=5977221d-8632-4cc4-8086-04bb87a4ca59","ios":"levelo://app?vid=5977221d-8632-4cc4-8086-04bb87a4ca59"},"vehicle_type_id":"4","last_reported":1730891242,"current_range_meters":28400,"station_id":"ce4bgth2rcd13ifvqch0","pricing_plan_id":"cebpf4jnsgd1na2vs0mg"},{"bike_id":"a42ecc90-5ef6-4c1d-bd04-5bc5ecf8a4d2","system_id":"levelo_inurba_marseille","lat":43.30544,"lon":5.36685,"is_reserved":false,"is_disabled":false,"rental_uris":{"android":"levelo://app?vid=a42ecc90-5ef6-4c1d-bd04-5bc5ecf8a4d2","ios":"levelo://app?vid=a42ecc90-5ef6-4c1d-bd04-5bc5ecf8a4d2"},"vehicle_type_id":"4","last_reported":1730891242,"current_range_meters":38800,"station_id":"ce4bgrp2rcd13ifvqc9g","pricing_plan_id":"cebpf4jnsgd1na2vs0mg"},{"bike_id":"77f0f942-cc19-4114-9693-f96851c5cf8b","system_id":"levelo_inurba_marseille","lat":43.31075,"lon":5.38343,"is_reserved":false,"is_disabled":false,"rental_uris":{"android":"levelo://app?vid=77f0f942-cc19-4114-9693-f96851c5cf8b","ios":"levelo://app?vid=77f0f942-cc19-4114-9693-f96851c5cf8b"},"vehicle_type_id":"4","last_reported":1730891242,"current_range_meters":9600,"station_id":"ce4bgv92rcd13ifvqcr0","pricing_plan_id":"cebpf4jnsgd1na2vs0mg"},{"bike_id":"a1c09965-0b6b-4127-bac6-dcc8aed821da","system_id":"levelo_inurba_marseille","lat":43.2408,"lon":5.37741,"is_reserved":false,"is_disabled":false,"rental_uris":{"android":"levelo://app?vid=a1c09965-0b6b-4127-bac6-dcc8aed821da","ios":"levelo://app?vid=a1c09965-0b6b-4127-bac6-dcc8aed821da"},"vehicle_type_id":"4","last_reported":1730891242,"current_range_meters":33200,"station_id":"ce4bhnp2rcd13ifvqgvg","pricing_plan_id":"cebpf4jnsgd1na2vs0mg"},{"bike_id":"3249afd4-6825-4a97-ac62-b58b88ddcba3","system_id":"levelo_inurba_marseille","lat":43.2796,"lon":5.38719,"is_reserved":false,"is_disabled":false,"rental_uris":{"android":"levelo://app?vid=3249afd4-6825-4a97-ac62-b58b88ddcba3","ios":"levelo://app?vid=3249afd4-6825-4a97-ac62-b58b88ddcba3"},"vehicle_type_id":"4","last_reported":1730891242,"current_range_meters":37600,"station_id":"ce4bhg12rcd13ifvqf80","pricing_plan_id":"cebpf4jnsgd1na2vs0mg"},{"bike_id":"a1fc239c-658a-4d07-a965-c115eec530b5","system_id":"levelo_inurba_marseille","lat":43.29069,"lon":5.37174,"is_reserved":false,"is_disabled":false,"rental_uris":{"android":"levelo://app?vid=a1fc239c-658a-4d07-a965-c115eec530b5","ios":"levelo://app?vid=a1fc239c-658a-4d07-a965-c115eec530b5"},"vehicle_type_id":"4","last_reported":1730891242,"current_range_meters":38800,"station_id":"ce4bh5p2rcd13ifvqe4g","pricing_plan_id":"cebpf4jnsgd1na2vs0mg"},{"bike_id":"30e2fdac-e977-495e-8a1f-5365113b55e2","system_id":"levelo_inurba_marseille","lat":43.24074,"lon":5.37752,"is_reserved":false,"is_disabled":false,"rental_uris":{"android":"levelo://app?vid=30e2fdac-e977-495e-8a1f-5365113b55e2","ios":"levelo://app?vid=30e2fdac-e977-495e-8a1f-5365113b55e2"},"vehicle_type_id":"4","last_reported":1730891242,"current_range_meters":36400,"station_id":"ce4bhnp2rcd13ifvqgvg","pricing_plan_id":"cebpf4jnsgd1na2vs0mg"},{"bike_id":"566aaba3-94bf-4e65-aea4-37d3301bc778","system_id":"levelo_inurba_marseille","lat":43.28699,"lon":5.39981,"is_reserved":false,"is_disabled":false,"rental_uris":{"android":"levelo://app?vid=566aaba3-94bf-4e65-aea4-37d3301bc778","ios":"levelo://app?vid=566aaba3-94bf-4e65-aea4-37d3301bc778"},"vehicle_type_id":"4","last_reported":1730891242,"current_range_meters":23200,"station_id":"ce4bho92rcd13ifvqh3g","pricing_plan_id":"cebpf4jnsgd1na2vs0mg"},{"bike_id":"6a1ff42f-e89f-495d-8c70-9d353ff7b464","system_id":"levelo_inurba_marseille","lat":43.30354,"lon":5.41873,"is_reserved":false,"is_disabled":false,"rental_uris":{"android":"levelo://app?vid=6a1ff42f-e89f-495d-8c70-9d353ff7b464","ios":"levelo://app?vid=6a1ff42f-e89f-495d-8c70-9d353ff7b464"},"vehicle_type_id":"4","last_reported":1730891242,"current_range_meters":38800,"station_id":"ce4bhop2rcd13ifvqh7g","pricing_plan_id":"cebpf4jnsgd1na2vs0mg"},{"bike_id":"6fe4bc2e-51f4-4940-a67c-15377a8954c3","system_id":"levelo_inurba_marseille","lat":43.29904,"lon":5.4367,"is_reserved":false,"is_disabled":false,"rental_uris":{"android":"levelo://app?vid=6fe4bc2e-51f4-4940-a67c-15377a8954c3","ios":"levelo://app?vid=6fe4bc2e-51f4-4940-a67c-15377a8954c3"},"vehicle_type_id":"4","last_reported":1730891242,"current_range_meters":38000,"station_id":"ce4bhpp2rcd13ifvqhfg","pricing_plan_id":"cebpf4jnsgd1na2vs0mg"},{"bike_id":"0072c09f-84dc-4387-89a5-d8c408b867ad","system_id":"levelo_inurba_marseille","lat":43.30135,"lon":5.39846,"is_reserved":false,"is_disabled":false,"rental_uris":{"android":"levelo://app?vid=0072c09f-84dc-4387-89a5-d8c408b867ad","ios":"levelo://app?vid=0072c09f-84dc-4387-89a5-d8c408b867ad"},"vehicle_type_id":"4","last_reported":1730891242,"current_range_meters":38800,"station_id":"ce4bh0h2rcd13ifvqd40","pricing_plan_id":"cebpf4jnsgd1na2vs0mg"},{"bike_id":"1f66a407-7303-4c15-bf62-be3695403409","system_id":"levelo_inurba_marseille","lat":43.28003,"lon":5.40009,"is_reserved":false,"is_disabled":false,"rental_uris":{"android":"levelo://app?vid=1f66a407-7303-4c15-bf62-be3695403409","ios":"levelo://app?vid=1f66a407-7303-4c15-bf62-be3695403409"},"vehicle_type_id":"4","last_reported":1730891242,"current_range_meters":26000,"station_id":"ce4bho92rcd13ifvqh4g","pricing_plan_id":"cebpf4jnsgd1na2vs0mg"},{"bike_id":"d2f2ec05-1dc2-4606-83a7-80e188dd125b","system_id":"levelo_inurba_marseille","lat":43.27671,"lon":5.389,"is_reserved":false,"is_disabled":false,"rental_uris":{"android":"levelo://app?vid=d2f2ec05-1dc2-4606-83a7-80e188dd125b","ios":"levelo://app?vid=d2f2ec05-1dc2-4606-83a7-80e188dd125b"},"vehicle_type_id":"4","last_reported":1730891242,"current_range_meters":30400,"station_id":"ce4bhi12rcd13ifvqfo0","pricing_plan_id":"cebpf4jnsgd1na2vs0mg"},{"bike_id":"88b98dba-2073-4983-9539-ecdaff941dda","system_id":"levelo_inurba_marseille","lat":43.30537,"lon":5.36531,"is_reserved":false,"is_disabled":false,"rental_uris":{"android":"levelo://app?vid=88b98dba-2073-4983-9539-ecdaff941dda","ios":"levelo://app?vid=88b98dba-2073-4983-9539-ecdaff941dda"},"vehicle_type_id":"4","last_reported":1730891242,"current_range_meters":30000,"station_id":"ce4bgs12rcd13ifvqcag","pricing_plan_id":"cebpf4jnsgd1na2vs0mg"},{"bike_id":"35b06bc8-da46-4ba5-8c07-e31dde1f57ed","system_id":"levelo_inurba_marseille","lat":43.3034,"lon":5.40446,"is_reserved":false,"is_disabled":false,"rental_uris":{"android":"levelo://app?vid=35b06bc8-da46-4ba5-8c07-e31dde1f57ed","ios":"levelo://app?vid=35b06bc8-da46-4ba5-8c07-e31dde1f57ed"},"vehicle_type_id":"4","last_reported":1730891242,"current_range_meters":32800,"station_id":"ce4bh012rcd13ifvqd10","pricing_plan_id":"cebpf4jnsgd1na2vs0mg"},{"bike_id":"aacbc7e0-a952-4ade-b58b-8cb77188e8e5","system_id":"levelo_inurba_marseille","lat":43.29277,"lon":5.4012,"is_reserved":false,"is_disabled":false,"rental_uris":{"android":"levelo://app?vid=aacbc7e0-a952-4ade-b58b-8cb77188e8e5","ios":"levelo://app?vid=aacbc7e0-a952-4ade-b58b-8cb77188e8e5"},"vehicle_type_id":"4","last_reported":1730891242,"current_range_meters":37600,"station_id":"ce4bh312rcd13ifvqdk0","pricing_plan_id":"cebpf4jnsgd1na2vs0mg"},{"bike_id":"c7367667-89df-47fe-81c7-f08f2b8feb92","system_id":"levelo_inurba_marseille","lat":43.30416,"lon":5.41283,"is_reserved":false,"is_disabled":false,"rental_uris":{"android":"levelo://app?vid=c7367667-89df-47fe-81c7-f08f2b8feb92","ios":"levelo://app?vid=c7367667-89df-47fe-81c7-f08f2b8feb92"},"vehicle_type_id":"4","last_reported":1730891242,"current_range_meters":38400,"station_id":"ce4bhop2rcd13ifvqh8g","pricing_plan_id":"cebpf4jnsgd1na2vs0mg"},{"bike_id":"c0edb42c-9208-4ae4-93c2-922f07d5f175","system_id":"levelo_inurba_marseille","lat":43.27811,"lon":5.40719,"is_reserved":false,"is_disabled":false,"rental_uris":{"android":"levelo://app?vid=c0edb42c-9208-4ae4-93c2-922f07d5f175","ios":"levelo://app?vid=c0edb42c-9208-4ae4-93c2-922f07d5f175"},"vehicle_type_id":"4","last_reported":1730891242,"current_range_meters":22400,"station_id":"ce4bhnh2rcd13ifvqgtg","pricing_plan_id":"cebpf4jnsgd1na2vs0mg"},{"bike_id":"d016b93e-5594-41e4-bde2-25ccecc90321","system_id":"levelo_inurba_marseille","lat":43.27813,"lon":5.40703,"is_reserved":false,"is_disabled":false,"rental_uris":{"android":"levelo://app?vid=d016b93e-5594-41e4-bde2-25ccecc90321","ios":"levelo://app?vid=d016b93e-5594-41e4-bde2-25ccecc90321"},"vehicle_type_id":"4","last_reported":1730891242,"current_range_meters":36800,"station_id":"ce4bhnh2rcd13ifvqgtg","pricing_plan_id":"cebpf4jnsgd1na2vs0mg"},{"bike_id":"1f611a08-abe9-4f91-a7bd-5bbe4c291e90","system_id":"levelo_inurba_marseille","lat":43.31345,"lon":5.36721,"is_reserved":false,"is_disabled":false,"rental_uris":{"android":"levelo://app?vid=1f611a08-abe9-4f91-a7bd-5bbe4c291e90","ios":"levelo://app?vid=1f611a08-abe9-4f91-a7bd-5bbe4c291e90"},"vehicle_type_id":"4","last_reported":1730891242,"current_range_meters":28400,"station_id":"ce4bgr92rcd13ifvqc6g","pricing_plan_id":"cebpf4jnsgd1na2vs0mg"},{"bike_id":"ef65c891-f7da-4796-bc0f-1118289dbc8f","system_id":"levelo_inurba_marseille","lat":43.30131,"lon":5.39862,"is_reserved":false,"is_disabled":false,"rental_uris":{"android":"levelo://app?vid=ef65c891-f7da-4796-bc0f-1118289dbc8f","ios":"levelo://app?vid=ef65c891-f7da-4796-bc0f-1118289dbc8f"},"vehicle_type_id":"4","last_reported":1730891242,"current_range_meters":20000,"station_id":"ce4bh0h2rcd13ifvqd40","pricing_plan_id":"cebpf4jnsgd1na2vs0mg"},{"bike_id":"9ccd241e-086b-4320-b305-5d44314bc388","system_id":"levelo_inurba_marseille","lat":43.24546,"lon":5.39523,"is_reserved":false,"is_disabled":false,"rental_uris":{"android":"levelo://app?vid=9ccd241e-086b-4320-b305-5d44314bc388","ios":"levelo://app?vid=9ccd241e-086b-4320-b305-5d44314bc388"},"vehicle_type_id":"4","last_reported":1730891242,"current_range_meters":28000,"station_id":"ce4bhlp2rcd13ifvqgjg","pricing_plan_id":"cebpf4jnsgd1na2vs0mg"},{"bike_id":"ddb33c2f-c870-47fd-b70f-89144d3174ef","system_id":"levelo_inurba_marseille","lat":43.30434,"lon":5.38905,"is_reserved":false,"is_disabled":false,"rental_uris":{"android":"levelo://app?vid=ddb33c2f-c870-47fd-b70f-89144d3174ef","ios":"levelo://app?vid=ddb33c2f-c870-47fd-b70f-89144d3174ef"},"vehicle_type_id":"4","last_reported":1730891242,"current_range_meters":28400,"station_id":"ce4bgk12rcd13ifvqbi0","pricing_plan_id":"cebpf4jnsgd1na2vs0mg"},{"bike_id":"7e7a13b8-0a56-439b-9fd8-db07d130efc9","system_id":"levelo_inurba_marseille","lat":43.25088,"lon":5.39519,"is_reserved":false,"is_disabled":false,"rental_uris":{"android":"levelo://app?vid=7e7a13b8-0a56-439b-9fd8-db07d130efc9","ios":"levelo://app?vid=7e7a13b8-0a56-439b-9fd8-db07d130efc9"},"vehicle_type_id":"4","last_reported":1730891242,"current_range_meters":23200,"station_id":"ce4bhm12rcd13ifvqgkg","pricing_plan_id":"cebpf4jnsgd1na2vs0mg"},{"bike_id":"83c477a4-4eb7-416a-a5f1-380f0fe5c742","system_id":"levelo_inurba_marseille","lat":43.30327,"lon":5.40451,"is_reserved":false,"is_disabled":false,"rental_uris":{"android":"levelo://app?vid=83c477a4-4eb7-416a-a5f1-380f0fe5c742","ios":"levelo://app?vid=83c477a4-4eb7-416a-a5f1-380f0fe5c742"},"vehicle_type_id":"4","last_reported":1730891242,"current_range_meters":17600,"station_id":"ce4bh012rcd13ifvqd10","pricing_plan_id":"cebpf4jnsgd1na2vs0mg"},{"bike_id":"a98c4e4f-9217-4cbd-ad2d-c176a4698d4a","system_id":"levelo_inurba_marseille","lat":43.30528,"lon":5.36694,"is_reserved":false,"is_disabled":false,"rental_uris":{"android":"levelo://app?vid=a98c4e4f-9217-4cbd-ad2d-c176a4698d4a","ios":"levelo://app?vid=a98c4e4f-9217-4cbd-ad2d-c176a4698d4a"},"vehicle_type_id":"4","last_reported":1730891242,"current_range_meters":34000,"station_id":"ce4bgrp2rcd13ifvqc9g","pricing_plan_id":"cebpf4jnsgd1na2vs0mg"},{"bike_id":"86fb641d-9508-46ca-bfb1-4dcb8e350573","system_id":"levelo_inurba_marseille","lat":43.30885,"lon":5.37187,"is_reserved":false,"is_disabled":false,"rental_uris":{"android":"levelo://app?vid=86fb641d-9508-46ca-bfb1-4dcb8e350573","ios":"levelo://app?vid=86fb641d-9508-46ca-bfb1-4dcb8e350573"},"vehicle_type_id":"4","last_reported":1730891242,"current_range_meters":28400,"station_id":"ce4bguh2rcd13ifvqckg","pricing_plan_id":"cebpf4jnsgd1na2vs0mg"},{"bike_id":"e3d501b9-90bc-452a-b88f-9503a8d05948","system_id":"levelo_inurba_marseille","lat":43.30916,"lon":5.36847,"is_reserved":false,"is_disabled":false,"rental_uris":{"android":"levelo://app?vid=e3d501b9-90bc-452a-b88f-9503a8d05948","ios":"levelo://app?vid=e3d501b9-90bc-452a-b88f-9503a8d05948"},"vehicle_type_id":"4","last_reported":1730891242,"current_range_meters":3200,"station_id":"ce4bgn92rcd13ifvqbvg","pricing_plan_id":"cebpf4jnsgd1na2vs0mg"},{"bike_id":"4ba708c0-8ced-418c-bdca-7748a87a5ef6","system_id":"levelo_inurba_marseille","lat":43.29045,"lon":5.39958,"is_reserved":false,"is_disabled":false,"rental_uris":{"android":"levelo://app?vid=4ba708c0-8ced-418c-bdca-7748a87a5ef6","ios":"levelo://app?vid=4ba708c0-8ced-418c-bdca-7748a87a5ef6"},"vehicle_type_id":"4","last_reported":1730891242,"current_range_meters":35600,"station_id":"ce4bh392rcd13ifvqdm0","pricing_plan_id":"cebpf4jnsgd1na2vs0mg"},{"bike_id":"0a3c1a6b-eadc-4e53-adb5-ce60bbc39060","system_id":"levelo_inurba_marseille","lat":43.33023,"lon":5.3903,"is_reserved":false,"is_disabled":false,"rental_uris":{"android":"levelo://app?vid=0a3c1a6b-eadc-4e53-adb5-ce60bbc39060","ios":"levelo://app?vid=0a3c1a6b-eadc-4e53-adb5-ce60bbc39060"},"vehicle_type_id":"4","last_reported":1730891242,"current_range_meters":37600,"station_id":"ce4bhr92rcd13ifvqhrg","pricing_plan_id":"cebpf4jnsgd1na2vs0mg"},{"bike_id":"9fae83eb-b88f-49db-8a0a-1bf41cfd562c","system_id":"levelo_inurba_marseille","lat":43.28935,"lon":5.3963,"is_reserved":false,"is_disabled":false,"rental_uris":{"android":"levelo://app?vid=9fae83eb-b88f-49db-8a0a-1bf41cfd562c","ios":"levelo://app?vid=9fae83eb-b88f-49db-8a0a-1bf41cfd562c"},"vehicle_type_id":"4","last_reported":1730891242,"current_range_meters":35600,"station_id":"ce4bh3h2rcd13ifvqdn0","pricing_plan_id":"cebpf4jnsgd1na2vs0mg"},{"bike_id":"9f3b6265-125c-4f8e-b982-8c5009df44db","system_id":"levelo_inurba_marseille","lat":43.28471,"lon":5.38407,"is_reserved":false,"is_disabled":false,"rental_uris":{"android":"levelo://app?vid=9f3b6265-125c-4f8e-b982-8c5009df44db","ios":"levelo://app?vid=9f3b6265-125c-4f8e-b982-8c5009df44db"},"vehicle_type_id":"4","last_reported":1730891242,"current_range_meters":38800,"station_id":"ce4bh512rcd13ifvqe3g","pricing_plan_id":"cebpf4jnsgd1na2vs0mg"},{"bike_id":"c2c93739-ff49-408f-9874-4a8fe44cfdbc","system_id":"levelo_inurba_marseille","lat":43.27809,"lon":5.40705,"is_reserved":false,"is_disabled":false,"rental_uris":{"android":"levelo://app?vid=c2c93739-ff49-408f-9874-4a8fe44cfdbc","ios":"levelo://app?vid=c2c93739-ff49-408f-9874-4a8fe44cfdbc"},"vehicle_type_id":"4","last_reported":1730891242,"current_range_meters":38000,"station_id":"ce4bhnh2rcd13ifvqgtg","pricing_plan_id":"cebpf4jnsgd1na2vs0mg"},{"bike_id":"bed45303-abab-499e-a266-c3aa97d37e54","system_id":"levelo_inurba_marseille","lat":43.2808,"lon":5.39649,"is_reserved":false,"is_disabled":false,"rental_uris":{"android":"levelo://app?vid=bed45303-abab-499e-a266-c3aa97d37e54","ios":"levelo://app?vid=bed45303-abab-499e-a266-c3aa97d37e54"},"vehicle_type_id":"4","last_reported":1730891242,"current_range_meters":38800,"station_id":"ce4bho12rcd13ifvqh2g","pricing_plan_id":"cebpf4jnsgd1na2vs0mg"},{"bike_id":"ac3085be-2aba-453a-b37c-d1057ee9d66b","system_id":"levelo_inurba_marseille","lat":43.31267,"lon":5.40164,"is_reserved":false,"is_disabled":false,"rental_uris":{"android":"levelo://app?vid=ac3085be-2aba-453a-b37c-d1057ee9d66b","ios":"levelo://app?vid=ac3085be-2aba-453a-b37c-d1057ee9d66b"},"vehicle_type_id":"4","last_reported":1730891242,"current_range_meters":15200,"station_id":"ce4bh092rcd13ifvqd30","pricing_plan_id":"cebpf4jnsgd1na2vs0mg"},{"bike_id":"8b46309a-7199-4d2b-a754-79c7883c0aba","system_id":"levelo_inurba_marseille","lat":43.26214,"lon":5.37439,"is_reserved":false,"is_disabled":false,"rental_uris":{"android":"levelo://app?vid=8b46309a-7199-4d2b-a754-79c7883c0aba","ios":"levelo://app?vid=8b46309a-7199-4d2b-a754-79c7883c0aba"},"vehicle_type_id":"4","last_reported":1730891242,"current_range_meters":28000,"station_id":"ce4bhgp2rcd13ifvqfc0","pricing_plan_id":"cebpf4jnsgd1na2vs0mg"},{"bike_id":"39c48483-e821-43f0-8272-7808715d90cc","system_id":"levelo_inurba_marseille","lat":43.27991,"lon":5.41661,"is_reserved":false,"is_disabled":false,"rental_uris":{"android":"levelo://app?vid=39c48483-e821-43f0-8272-7808715d90cc","ios":"levelo://app?vid=39c48483-e821-43f0-8272-7808715d90cc"},"vehicle_type_id":"4","last_reported":1730891242,"current_range_meters":27600,"station_id":"ce4bho12rcd13ifvqh1g","pricing_plan_id":"cebpf4jnsgd1na2vs0mg"},{"bike_id":"859091fc-808f-4395-bb7c-90175e8112eb","system_id":"levelo_inurba_marseille","lat":43.33026,"lon":5.39034,"is_reserved":false,"is_disabled":false,"rental_uris":{"android":"levelo://app?vid=859091fc-808f-4395-bb7c-90175e8112eb","ios":"levelo://app?vid=859091fc-808f-4395-bb7c-90175e8112eb"},"vehicle_type_id":"4","last_reported":1730891242,"current_range_meters":38400,"station_id":"ce4bhr92rcd13ifvqhrg","pricing_plan_id":"cebpf4jnsgd1na2vs0mg"},{"bike_id":"c732680b-4c26-422b-9676-bea78283e55c","system_id":"levelo_inurba_marseille","lat":43.29786,"lon":5.3809,"is_reserved":false,"is_disabled":false,"rental_uris":{"android":"levelo://app?vid=c732680b-4c26-422b-9676-bea78283e55c","ios":"levelo://app?vid=c732680b-4c26-422b-9676-bea78283e55c"},"vehicle_type_id":"4","last_reported":1730891242,"current_range_meters":34800,"station_id":"ce4bgip2rcd13ifvqbb0","pricing_plan_id":"cebpf4jnsgd1na2vs0mg"},{"bike_id":"818f01a2-70c1-4282-8f3e-a5df75b74421","system_id":"levelo_inurba_marseille","lat":43.23149,"lon":5.43706,"is_reserved":false,"is_disabled":false,"rental_uris":{"android":"levelo://app?vid=818f01a2-70c1-4282-8f3e-a5df75b74421","ios":"levelo://app?vid=818f01a2-70c1-4282-8f3e-a5df75b74421"},"vehicle_type_id":"4","last_reported":1730891242,"current_range_meters":36000,"station_id":"ce4bhmp2rcd13ifvqgog","pricing_plan_id":"cebpf4jnsgd1na2vs0mg"},{"bike_id":"c61c261f-6e7c-47f2-9517-7b46566fdc27","system_id":"levelo_inurba_marseille","lat":43.24385,"lon":5.37053,"is_reserved":false,"is_disabled":false,"rental_uris":{"android":"levelo://app?vid=c61c261f-6e7c-47f2-9517-7b46566fdc27","ios":"levelo://app?vid=c61c261f-6e7c-47f2-9517-7b46566fdc27"},"vehicle_type_id":"4","last_reported":1730891242,"current_range_meters":20000,"station_id":"ce4bhhh2rcd13ifvqfk0","pricing_plan_id":"cebpf4jnsgd1na2vs0mg"},{"bike_id":"65fc5769-d693-4d47-b081-3a1d2d9e3401","system_id":"levelo_inurba_marseille","lat":43.2963,"lon":5.406,"is_reserved":false,"is_disabled":false,"rental_uris":{"android":"levelo://app?vid=65fc5769-d693-4d47-b081-3a1d2d9e3401","ios":"levelo://app?vid=65fc5769-d693-4d47-b081-3a1d2d9e3401"},"vehicle_type_id":"4","last_reported":1730891242,"current_range_meters":38800,"station_id":"ce4bh0h2rcd13ifvqd60","pricing_plan_id":"cebpf4jnsgd1na2vs0mg"},{"bike_id":"b7fbb8d8-1f6e-4ac9-8d83-0336401fffb9","system_id":"levelo_inurba_marseille","lat":43.31363,"lon":5.385,"is_reserved":false,"is_disabled":false,"rental_uris":{"android":"levelo://app?vid=b7fbb8d8-1f6e-4ac9-8d83-0336401fffb9","ios":"levelo://app?vid=b7fbb8d8-1f6e-4ac9-8d83-0336401fffb9"},"vehicle_type_id":"4","last_reported":1730891242,"current_range_meters":30800,"station_id":"ce4bgt92rcd13ifvqcf0","pricing_plan_id":"cebpf4jnsgd1na2vs0mg"},{"bike_id":"333b0aae-276c-4843-ac1a-6be197ab7b09","system_id":"levelo_inurba_marseille","lat":43.28337,"lon":5.38102,"is_reserved":false,"is_disabled":false,"rental_uris":{"android":"levelo://app?vid=333b0aae-276c-4843-ac1a-6be197ab7b09","ios":"levelo://app?vid=333b0aae-276c-4843-ac1a-6be197ab7b09"},"vehicle_type_id":"4","last_reported":1730891242,"current_range_meters":38000,"station_id":"ce4bh412rcd13ifvqdr0","pricing_plan_id":"cebpf4jnsgd1na2vs0mg"},{"bike_id":"aff4cc40-c923-4034-be9c-e88ce8ea159c","system_id":"levelo_inurba_marseille","lat":43.30914,"lon":5.36852,"is_reserved":false,"is_disabled":false,"rental_uris":{"android":"levelo://app?vid=aff4cc40-c923-4034-be9c-e88ce8ea159c","ios":"levelo://app?vid=aff4cc40-c923-4034-be9c-e88ce8ea159c"},"vehicle_type_id":"4","last_reported":1730891242,"current_range_meters":39200,"station_id":"ce4bgn92rcd13ifvqbvg","pricing_plan_id":"cebpf4jnsgd1na2vs0mg"},{"bike_id":"9d3d6aac-ae92-4938-b44d-7a31517f4a57","system_id":"levelo_inurba_marseille","lat":43.29789,"lon":5.38086,"is_reserved":false,"is_disabled":false,"rental_uris":{"android":"levelo://app?vid=9d3d6aac-ae92-4938-b44d-7a31517f4a57","ios":"levelo://app?vid=9d3d6aac-ae92-4938-b44d-7a31517f4a57"},"vehicle_type_id":"4","last_reported":1730891242,"current_range_meters":38800,"station_id":"ce4bgip2rcd13ifvqbb0","pricing_plan_id":"cebpf4jnsgd1na2vs0mg"},{"bike_id":"0e5aa828-b706-49df-9978-eada74586075","system_id":"levelo_inurba_marseille","lat":43.33606,"lon":5.410392,"is_reserved":false,"is_disabled":false,"rental_uris":{"android":"levelo://app?vid=0e5aa828-b706-49df-9978-eada74586075","ios":"levelo://app?vid=0e5aa828-b706-49df-9978-eada74586075"},"vehicle_type_id":"4","last_reported":1730891242,"current_range_meters":32400,"station_id":"ce4bhqh2rcd13ifvqhmg","pricing_plan_id":"cebpf4jnsgd1na2vs0mg"},{"bike_id":"cb88ee8d-5c92-46c2-8b0d-47e01176a68d","system_id":"levelo_inurba_marseille","lat":43.257,"lon":5.41093,"is_reserved":false,"is_disabled":false,"rental_uris":{"android":"levelo://app?vid=cb88ee8d-5c92-46c2-8b0d-47e01176a68d","ios":"levelo://app?vid=cb88ee8d-5c92-46c2-8b0d-47e01176a68d"},"vehicle_type_id":"4","last_reported":1730891242,"current_range_meters":34000,"station_id":"ce4bhkp2rcd13ifvqgd0","pricing_plan_id":"cebpf4jnsgd1na2vs0mg"},{"bike_id":"607875bb-438a-411e-984f-838d6867c879","system_id":"levelo_inurba_marseille","lat":43.23151,"lon":5.43722,"is_reserved":false,"is_disabled":false,"rental_uris":{"android":"levelo://app?vid=607875bb-438a-411e-984f-838d6867c879","ios":"levelo://app?vid=607875bb-438a-411e-984f-838d6867c879"},"vehicle_type_id":"4","last_reported":1730891242,"current_range_meters":22800,"station_id":"ce4bhmp2rcd13ifvqgog","pricing_plan_id":"cebpf4jnsgd1na2vs0mg"},{"bike_id":"9048ebe6-0239-470a-af7d-c5634530ba1b","system_id":"levelo_inurba_marseille","lat":43.33025,"lon":5.39029,"is_reserved":false,"is_disabled":false,"rental_uris":{"android":"levelo://app?vid=9048ebe6-0239-470a-af7d-c5634530ba1b","ios":"levelo://app?vid=9048ebe6-0239-470a-af7d-c5634530ba1b"},"vehicle_type_id":"4","last_reported":1730891242,"current_range_meters":20800,"station_id":"ce4bhr92rcd13ifvqhrg","pricing_plan_id":"cebpf4jnsgd1na2vs0mg"},{"bike_id":"7e81ea33-7e2f-43d9-80f3-d5c98ea0b9f6","system_id":"levelo_inurba_marseille","lat":43.30879,"lon":5.39633,"is_reserved":false,"is_disabled":false,"rental_uris":{"android":"levelo://app?vid=7e81ea33-7e2f-43d9-80f3-d5c98ea0b9f6","ios":"levelo://app?vid=7e81ea33-7e2f-43d9-80f3-d5c98ea0b9f6"},"vehicle_type_id":"4","last_reported":1730891242,"current_range_meters":30800,"station_id":"ce4bh012rcd13ifvqcv0","pricing_plan_id":"cebpf4jnsgd1na2vs0mg"},{"bike_id":"ce1990ac-3390-413c-9a93-5d1336a43aa1","system_id":"levelo_inurba_marseille","lat":43.27374,"lon":5.36239,"is_reserved":false,"is_disabled":false,"rental_uris":{"android":"levelo://app?vid=ce1990ac-3390-413c-9a93-5d1336a43aa1","ios":"levelo://app?vid=ce1990ac-3390-413c-9a93-5d1336a43aa1"},"vehicle_type_id":"4","last_reported":1730891242,"current_range_meters":36800,"station_id":"ce4bhbh2rcd13ifvqeo0","pricing_plan_id":"cebpf4jnsgd1na2vs0mg"},{"bike_id":"74695514-743b-4a43-8a3c-3ee8c9a28175","system_id":"levelo_inurba_marseille","lat":43.23196,"lon":5.35554,"is_reserved":false,"is_disabled":false,"rental_uris":{"android":"levelo://app?vid=74695514-743b-4a43-8a3c-3ee8c9a28175","ios":"levelo://app?vid=74695514-743b-4a43-8a3c-3ee8c9a28175"},"vehicle_type_id":"4","last_reported":1730891242,"current_range_meters":38800,"station_id":"ce4bhu92rcd13ifvqi70","pricing_plan_id":"cebpf4jnsgd1na2vs0mg"},{"bike_id":"3f3041da-8424-4cc3-a139-fd8a99ad9a6c","system_id":"levelo_inurba_marseille","lat":43.33614,"lon":5.41035,"is_reserved":false,"is_disabled":false,"rental_uris":{"android":"levelo://app?vid=3f3041da-8424-4cc3-a139-fd8a99ad9a6c","ios":"levelo://app?vid=3f3041da-8424-4cc3-a139-fd8a99ad9a6c"},"vehicle_type_id":"4","last_reported":1730891242,"current_range_meters":12800,"station_id":"ce4bhqh2rcd13ifvqhmg","pricing_plan_id":"cebpf4jnsgd1na2vs0mg"},{"bike_id":"21ada0ba-3690-4b1c-9dd6-116e87f878cc","system_id":"levelo_inurba_marseille","lat":43.29682,"lon":5.39153,"is_reserved":false,"is_disabled":false,"rental_uris":{"android":"levelo://app?vid=21ada0ba-3690-4b1c-9dd6-116e87f878cc","ios":"levelo://app?vid=21ada0ba-3690-4b1c-9dd6-116e87f878cc"},"vehicle_type_id":"4","last_reported":1730891242,"current_range_meters":30400,"station_id":"","pricing_plan_id":"cebpf4jnsgd1na2vs0mg"},{"bike_id":"5a21dff0-5257-44a0-8628-b52b6f2dcfaa","system_id":"levelo_inurba_marseille","lat":43.30801,"lon":5.38142,"is_reserved":false,"is_disabled":false,"rental_uris":{"android":"levelo://app?vid=5a21dff0-5257-44a0-8628-b52b6f2dcfaa","ios":"levelo://app?vid=5a21dff0-5257-44a0-8628-b52b6f2dcfaa"},"vehicle_type_id":"4","last_reported":1730891242,"current_range_meters":16400,"station_id":"ce4bgt12rcd13ifvqce0","pricing_plan_id":"cebpf4jnsgd1na2vs0mg"},{"bike_id":"f9a8c473-50f6-461e-98fa-f58e5ab7fcbc","system_id":"levelo_inurba_marseille","lat":43.30868,"lon":5.37298,"is_reserved":false,"is_disabled":false,"rental_uris":{"android":"levelo://app?vid=f9a8c473-50f6-461e-98fa-f58e5ab7fcbc","ios":"levelo://app?vid=f9a8c473-50f6-461e-98fa-f58e5ab7fcbc"},"vehicle_type_id":"4","last_reported":1730891242,"current_range_meters":37600,"station_id":"","pricing_plan_id":"cebpf4jnsgd1na2vs0mg"},{"bike_id":"e5e92a7d-2d7e-488f-a84e-7eafc78f2140","system_id":"levelo_inurba_marseille","lat":43.31169,"lon":5.40347,"is_reserved":false,"is_disabled":false,"rental_uris":{"android":"levelo://app?vid=e5e92a7d-2d7e-488f-a84e-7eafc78f2140","ios":"levelo://app?vid=e5e92a7d-2d7e-488f-a84e-7eafc78f2140"},"vehicle_type_id":"4","last_reported":1730891242,"current_range_meters":24800,"station_id":"ce4bh0h2rcd13ifvqd40","pricing_plan_id":"cebpf4jnsgd1na2vs0mg"},{"bike_id":"9c07c115-8458-42eb-a90e-dec43e520f3f","system_id":"levelo_inurba_marseille","lat":43.26028,"lon":5.37559,"is_reserved":false,"is_disabled":false,"rental_uris":{"android":"levelo://app?vid=9c07c115-8458-42eb-a90e-dec43e520f3f","ios":"levelo://app?vid=9c07c115-8458-42eb-a90e-dec43e520f3f"},"vehicle_type_id":"4","last_reported":1730891242,"current_range_meters":38000,"station_id":"ce4bhgh2rcd13ifvqfa0","pricing_plan_id":"cebpf4jnsgd1na2vs0mg"},{"bike_id":"e08b9e4b-daaa-4135-bdd2-cd7329c92a24","system_id":"levelo_inurba_marseille","lat":43.27998,"lon":5.41655,"is_reserved":false,"is_disabled":false,"rental_uris":{"android":"levelo://app?vid=e08b9e4b-daaa-4135-bdd2-cd7329c92a24","ios":"levelo://app?vid=e08b9e4b-daaa-4135-bdd2-cd7329c92a24"},"vehicle_type_id":"4","last_reported":1730891242,"current_range_meters":30000,"station_id":"ce4bho12rcd13ifvqh1g","pricing_plan_id":"cebpf4jnsgd1na2vs0mg"},{"bike_id":"e7874ce2-f692-46c5-87b4-56890b100158","system_id":"levelo_inurba_marseille","lat":43.23066,"lon":5.3549,"is_reserved":false,"is_disabled":false,"rental_uris":{"android":"levelo://app?vid=e7874ce2-f692-46c5-87b4-56890b100158","ios":"levelo://app?vid=e7874ce2-f692-46c5-87b4-56890b100158"},"vehicle_type_id":"4","last_reported":1730891242,"current_range_meters":37600,"station_id":"cpo3342slgdg3j2ifvpg","pricing_plan_id":"cebpf4jnsgd1na2vs0mg"},{"bike_id":"5762ed2d-019a-4513-8343-3f40a713eb9c","system_id":"levelo_inurba_marseille","lat":43.316918,"lon":5.404736,"is_reserved":false,"is_disabled":false,"rental_uris":{"android":"levelo://app?vid=5762ed2d-019a-4513-8343-3f40a713eb9c","ios":"levelo://app?vid=5762ed2d-019a-4513-8343-3f40a713eb9c"},"vehicle_type_id":"4","last_reported":1730891242,"current_range_meters":38800,"station_id":"ce4bh012rcd13ifvqd00","pricing_plan_id":"cebpf4jnsgd1na2vs0mg"},{"bike_id":"66c86b3c-9169-469d-a2db-a1c38c38f50d","system_id":"levelo_inurba_marseille","lat":43.30114,"lon":5.37063,"is_reserved":false,"is_disabled":false,"rental_uris":{"android":"levelo://app?vid=66c86b3c-9169-469d-a2db-a1c38c38f50d","ios":"levelo://app?vid=66c86b3c-9169-469d-a2db-a1c38c38f50d"},"vehicle_type_id":"4","last_reported":1730891242,"current_range_meters":36000,"station_id":"ce4bgr92rcd13ifvqc7g","pricing_plan_id":"cebpf4jnsgd1na2vs0mg"},{"bike_id":"25c8d424-2137-4b69-b3a8-15d57b9d4491","system_id":"levelo_inurba_marseille","lat":43.26939,"lon":5.40247,"is_reserved":false,"is_disabled":false,"rental_uris":{"android":"levelo://app?vid=25c8d424-2137-4b69-b3a8-15d57b9d4491","ios":"levelo://app?vid=25c8d424-2137-4b69-b3a8-15d57b9d4491"},"vehicle_type_id":"4","last_reported":1730891242,"current_range_meters":8000,"station_id":"cjm6bp8fraef2m0cb0m0","pricing_plan_id":"cebpf4jnsgd1na2vs0mg"},{"bike_id":"ce2b7b0a-da9e-4ad7-9541-832f2fe5f5ed","system_id":"levelo_inurba_marseille","lat":43.32479,"lon":5.36559,"is_reserved":false,"is_disabled":false,"rental_uris":{"android":"levelo://app?vid=ce2b7b0a-da9e-4ad7-9541-832f2fe5f5ed","ios":"levelo://app?vid=ce2b7b0a-da9e-4ad7-9541-832f2fe5f5ed"},"vehicle_type_id":"4","last_reported":1730891242,"current_range_meters":26000,"station_id":"ce4bhs12rcd13ifvqhvg","pricing_plan_id":"cebpf4jnsgd1na2vs0mg"},{"bike_id":"11d4048d-1741-4f88-b584-30108c43bc97","system_id":"levelo_inurba_marseille","lat":43.30221,"lon":5.3947,"is_reserved":false,"is_disabled":false,"rental_uris":{"android":"levelo://app?vid=11d4048d-1741-4f88-b584-30108c43bc97","ios":"levelo://app?vid=11d4048d-1741-4f88-b584-30108c43bc97"},"vehicle_type_id":"4","last_reported":1730891242,"current_range_meters":30800,"station_id":"ce4bh0p2rcd13ifvqd70","pricing_plan_id":"cebpf4jnsgd1na2vs0mg"},{"bike_id":"c1a1b9d6-cd57-4be7-80e3-2d5e2feac650","system_id":"levelo_inurba_marseille","lat":43.287,"lon":5.39987,"is_reserved":false,"is_disabled":false,"rental_uris":{"android":"levelo://app?vid=c1a1b9d6-cd57-4be7-80e3-2d5e2feac650","ios":"levelo://app?vid=c1a1b9d6-cd57-4be7-80e3-2d5e2feac650"},"vehicle_type_id":"4","last_reported":1730891242,"current_range_meters":28800,"station_id":"ce4bho92rcd13ifvqh3g","pricing_plan_id":"cebpf4jnsgd1na2vs0mg"},{"bike_id":"5e374225-de3c-423e-abe4-d9ab4e18c8c7","system_id":"levelo_inurba_marseille","lat":43.29032,"lon":5.39953,"is_reserved":false,"is_disabled":false,"rental_uris":{"android":"levelo://app?vid=5e374225-de3c-423e-abe4-d9ab4e18c8c7","ios":"levelo://app?vid=5e374225-de3c-423e-abe4-d9ab4e18c8c7"},"vehicle_type_id":"4","last_reported":1730891242,"current_range_meters":38800,"station_id":"ce4bh392rcd13ifvqdm0","pricing_plan_id":"cebpf4jnsgd1na2vs0mg"},{"bike_id":"9ffcc714-2d64-4f2d-a895-82e4e45755d3","system_id":"levelo_inurba_marseille","lat":43.30297,"lon":5.39199,"is_reserved":false,"is_disabled":false,"rental_uris":{"android":"levelo://app?vid=9ffcc714-2d64-4f2d-a895-82e4e45755d3","ios":"levelo://app?vid=9ffcc714-2d64-4f2d-a895-82e4e45755d3"},"vehicle_type_id":"4","last_reported":1730891242,"current_range_meters":16400,"station_id":"ce4bgkh2rcd13ifvqbk0","pricing_plan_id":"cebpf4jnsgd1na2vs0mg"},{"bike_id":"2b6a798d-c902-49d9-bde4-023e48f8d29d","system_id":"levelo_inurba_marseille","lat":43.30952,"lon":5.39017,"is_reserved":false,"is_disabled":false,"rental_uris":{"android":"levelo://app?vid=2b6a798d-c902-49d9-bde4-023e48f8d29d","ios":"levelo://app?vid=2b6a798d-c902-49d9-bde4-023e48f8d29d"},"vehicle_type_id":"4","last_reported":1730891242,"current_range_meters":12800,"station_id":"ce4bgup2rcd13ifvqco0","pricing_plan_id":"cebpf4jnsgd1na2vs0mg"},{"bike_id":"f2db6799-5c41-4fb5-bc3e-24e767bf9afd","system_id":"levelo_inurba_marseille","lat":43.26551,"lon":5.37287,"is_reserved":false,"is_disabled":false,"rental_uris":{"android":"levelo://app?vid=f2db6799-5c41-4fb5-bc3e-24e767bf9afd","ios":"levelo://app?vid=f2db6799-5c41-4fb5-bc3e-24e767bf9afd"},"vehicle_type_id":"4","last_reported":1730891242,"current_range_meters":8800,"station_id":"ce4bhg12rcd13ifvqf70","pricing_plan_id":"cebpf4jnsgd1na2vs0mg"},{"bike_id":"97fc4964-38b9-4447-957c-cced4b2491a6","system_id":"levelo_inurba_marseille","lat":43.29627,"lon":5.37162,"is_reserved":false,"is_disabled":false,"rental_uris":{"android":"levelo://app?vid=97fc4964-38b9-4447-957c-cced4b2491a6","ios":"levelo://app?vid=97fc4964-38b9-4447-957c-cced4b2491a6"},"vehicle_type_id":"4","last_reported":1730891242,"current_range_meters":30000,"station_id":"ce4bgnh2rcd13ifvqc0g","pricing_plan_id":"cebpf4jnsgd1na2vs0mg"},{"bike_id":"a0ad9079-fe37-4893-b447-7ef4518a09ca","system_id":"levelo_inurba_marseille","lat":43.29852,"lon":5.36282,"is_reserved":false,"is_disabled":false,"rental_uris":{"android":"levelo://app?vid=a0ad9079-fe37-4893-b447-7ef4518a09ca","ios":"levelo://app?vid=a0ad9079-fe37-4893-b447-7ef4518a09ca"},"vehicle_type_id":"4","last_reported":1730891242,"current_range_meters":38400,"station_id":"ce4bgpp2rcd13ifvqc3g","pricing_plan_id":"cebpf4jnsgd1na2vs0mg"},{"bike_id":"6147b518-7ead-4d97-86f2-0339c8cb56e5","system_id":"levelo_inurba_marseille","lat":43.28999,"lon":5.35607,"is_reserved":false,"is_disabled":false,"rental_uris":{"android":"levelo://app?vid=6147b518-7ead-4d97-86f2-0339c8cb56e5","ios":"levelo://app?vid=6147b518-7ead-4d97-86f2-0339c8cb56e5"},"vehicle_type_id":"4","last_reported":1730891242,"current_range_meters":36000,"station_id":"ce4bhb92rcd13ifvqen0","pricing_plan_id":"cebpf4jnsgd1na2vs0mg"},{"bike_id":"f22a3142-1175-4fba-b6ec-fb313255d9ea","system_id":"levelo_inurba_marseille","lat":43.26505,"lon":5.39526,"is_reserved":false,"is_disabled":false,"rental_uris":{"android":"levelo://app?vid=f22a3142-1175-4fba-b6ec-fb313255d9ea","ios":"levelo://app?vid=f22a3142-1175-4fba-b6ec-fb313255d9ea"},"vehicle_type_id":"4","last_reported":1730891242,"current_range_meters":32000,"station_id":"ce4bhi12rcd13ifvqfq0","pricing_plan_id":"cebpf4jnsgd1na2vs0mg"},{"bike_id":"96694cf6-bb68-438c-800f-7c9d91676e86","system_id":"levelo_inurba_marseille","lat":43.2721,"lon":5.39185,"is_reserved":false,"is_disabled":false,"rental_uris":{"android":"levelo://app?vid=96694cf6-bb68-438c-800f-7c9d91676e86","ios":"levelo://app?vid=96694cf6-bb68-438c-800f-7c9d91676e86"},"vehicle_type_id":"4","last_reported":1730891242,"current_range_meters":38800,"station_id":"ce4bhhp2rcd13ifvqfm0","pricing_plan_id":"cebpf4jnsgd1na2vs0mg"},{"bike_id":"4a7ab9f0-6a83-450c-85cb-7a624e44e41b","system_id":"levelo_inurba_marseille","lat":43.30324,"lon":5.40435,"is_reserved":false,"is_disabled":false,"rental_uris":{"android":"levelo://app?vid=4a7ab9f0-6a83-450c-85cb-7a624e44e41b","ios":"levelo://app?vid=4a7ab9f0-6a83-450c-85cb-7a624e44e41b"},"vehicle_type_id":"4","last_reported":1730891242,"current_range_meters":31200,"station_id":"ce4bh012rcd13ifvqd10","pricing_plan_id":"cebpf4jnsgd1na2vs0mg"},{"bike_id":"2fac616e-c10f-4b93-9777-09eb2ba8f7e5","system_id":"levelo_inurba_marseille","lat":43.32489,"lon":5.36578,"is_reserved":false,"is_disabled":false,"rental_uris":{"android":"levelo://app?vid=2fac616e-c10f-4b93-9777-09eb2ba8f7e5","ios":"levelo://app?vid=2fac616e-c10f-4b93-9777-09eb2ba8f7e5"},"vehicle_type_id":"4","last_reported":1730891242,"current_range_meters":36800,"station_id":"ce4bhs12rcd13ifvqhvg","pricing_plan_id":"cebpf4jnsgd1na2vs0mg"},{"bike_id":"9e53f0f1-1942-40f0-b7c9-a9e6ff704758","system_id":"levelo_inurba_marseille","lat":43.30325,"lon":5.40446,"is_reserved":false,"is_disabled":false,"rental_uris":{"android":"levelo://app?vid=9e53f0f1-1942-40f0-b7c9-a9e6ff704758","ios":"levelo://app?vid=9e53f0f1-1942-40f0-b7c9-a9e6ff704758"},"vehicle_type_id":"4","last_reported":1730891242,"current_range_meters":36800,"station_id":"ce4bh012rcd13ifvqd10","pricing_plan_id":"cebpf4jnsgd1na2vs0mg"},{"bike_id":"f3718c92-7baa-446f-af0b-24b7a49904e5","system_id":"levelo_inurba_marseille","lat":43.28857,"lon":5.3932,"is_reserved":false,"is_disabled":false,"rental_uris":{"android":"levelo://app?vid=f3718c92-7baa-446f-af0b-24b7a49904e5","ios":"levelo://app?vid=f3718c92-7baa-446f-af0b-24b7a49904e5"},"vehicle_type_id":"4","last_reported":1730891242,"current_range_meters":29600,"station_id":"ce4bh2p2rcd13ifvqdi0","pricing_plan_id":"cebpf4jnsgd1na2vs0mg"},{"bike_id":"f55cc1d3-66e2-4092-8a56-209373b1b8a1","system_id":"levelo_inurba_marseille","lat":43.27626,"lon":5.36102,"is_reserved":false,"is_disabled":false,"rental_uris":{"android":"levelo://app?vid=f55cc1d3-66e2-4092-8a56-209373b1b8a1","ios":"levelo://app?vid=f55cc1d3-66e2-4092-8a56-209373b1b8a1"},"vehicle_type_id":"4","last_reported":1730891242,"current_range_meters":24000,"station_id":"ce4bgj92rcd13ifvqbe0","pricing_plan_id":"cebpf4jnsgd1na2vs0mg"},{"bike_id":"93ad7110-4a39-4455-89cc-cf7a59526584","system_id":"levelo_inurba_marseille","lat":43.29973,"lon":5.37169,"is_reserved":false,"is_disabled":false,"rental_uris":{"android":"levelo://app?vid=93ad7110-4a39-4455-89cc-cf7a59526584","ios":"levelo://app?vid=93ad7110-4a39-4455-89cc-cf7a59526584"},"vehicle_type_id":"4","last_reported":1730891242,"current_range_meters":22000,"station_id":"ce4bgr92rcd13ifvqc7g","pricing_plan_id":"cebpf4jnsgd1na2vs0mg"},{"bike_id":"a2d64f8f-6618-42a5-a0d8-8c440fa8e6ce","system_id":"levelo_inurba_marseille","lat":43.30146,"lon":5.38088,"is_reserved":false,"is_disabled":false,"rental_uris":{"android":"levelo://app?vid=a2d64f8f-6618-42a5-a0d8-8c440fa8e6ce","ios":"levelo://app?vid=a2d64f8f-6618-42a5-a0d8-8c440fa8e6ce"},"vehicle_type_id":"4","last_reported":1730891242,"current_range_meters":38400,"station_id":"ce4bgjp2rcd13ifvqbh0","pricing_plan_id":"cebpf4jnsgd1na2vs0mg"},{"bike_id":"6475efb2-1213-4c56-b6a5-ab4ad2a80038","system_id":"levelo_inurba_marseille","lat":43.29574,"lon":5.37526,"is_reserved":false,"is_disabled":false,"rental_uris":{"android":"levelo://app?vid=6475efb2-1213-4c56-b6a5-ab4ad2a80038","ios":"levelo://app?vid=6475efb2-1213-4c56-b6a5-ab4ad2a80038"},"vehicle_type_id":"4","last_reported":1730891242,"current_range_meters":32400,"station_id":"ce4bgh92rcd13ifvqb50","pricing_plan_id":"cebpf4jnsgd1na2vs0mg"},{"bike_id":"3d466bac-623f-4666-ac06-81d512f67aca","system_id":"levelo_inurba_marseille","lat":43.25501,"lon":5.37648,"is_reserved":false,"is_disabled":false,"rental_uris":{"android":"levelo://app?vid=3d466bac-623f-4666-ac06-81d512f67aca","ios":"levelo://app?vid=3d466bac-623f-4666-ac06-81d512f67aca"},"vehicle_type_id":"4","last_reported":1730891242,"current_range_meters":32800,"station_id":"ce4bhh12rcd13ifvqff0","pricing_plan_id":"cebpf4jnsgd1na2vs0mg"},{"bike_id":"5184b831-ac28-4da3-8f4a-26abd17da980","system_id":"levelo_inurba_marseille","lat":43.30587,"lon":5.39348,"is_reserved":false,"is_disabled":false,"rental_uris":{"android":"levelo://app?vid=5184b831-ac28-4da3-8f4a-26abd17da980","ios":"levelo://app?vid=5184b831-ac28-4da3-8f4a-26abd17da980"},"vehicle_type_id":"4","last_reported":1730891242,"current_range_meters":38000,"station_id":"ce4bh0p2rcd13ifvqd80","pricing_plan_id":"cebpf4jnsgd1na2vs0mg"},{"bike_id":"cf2f0560-acb2-4726-9047-63f519c50b45","system_id":"levelo_inurba_marseille","lat":43.25585,"lon":5.38241,"is_reserved":false,"is_disabled":false,"rental_uris":{"android":"levelo://app?vid=cf2f0560-acb2-4726-9047-63f519c50b45","ios":"levelo://app?vid=cf2f0560-acb2-4726-9047-63f519c50b45"},"vehicle_type_id":"4","last_reported":1730891242,"current_range_meters":33200,"station_id":"ce4bhih2rcd13ifvqfs0","pricing_plan_id":"cebpf4jnsgd1na2vs0mg"},{"bike_id":"d0a9f2a5-2a8f-4e5b-a253-23d1fc5700bb","system_id":"levelo_inurba_marseille","lat":43.29602,"lon":5.38089,"is_reserved":false,"is_disabled":false,"rental_uris":{"android":"levelo://app?vid=d0a9f2a5-2a8f-4e5b-a253-23d1fc5700bb","ios":"levelo://app?vid=d0a9f2a5-2a8f-4e5b-a253-23d1fc5700bb"},"vehicle_type_id":"4","last_reported":1730891242,"current_range_meters":29600,"station_id":"ce4bgl12rcd13ifvqbo0","pricing_plan_id":"cebpf4jnsgd1na2vs0mg"},{"bike_id":"087c20ca-abef-4e25-b17a-c87e13f7c57f","system_id":"levelo_inurba_marseille","lat":43.30526,"lon":5.36709,"is_reserved":false,"is_disabled":false,"rental_uris":{"android":"levelo://app?vid=087c20ca-abef-4e25-b17a-c87e13f7c57f","ios":"levelo://app?vid=087c20ca-abef-4e25-b17a-c87e13f7c57f"},"vehicle_type_id":"4","last_reported":1730891242,"current_range_meters":25200,"station_id":"ce4bgrp2rcd13ifvqc9g","pricing_plan_id":"cebpf4jnsgd1na2vs0mg"},{"bike_id":"7d833a12-f582-4b54-ad49-39e60c078c56","system_id":"levelo_inurba_marseille","lat":43.3266,"lon":5.40981,"is_reserved":false,"is_disabled":false,"rental_uris":{"android":"levelo://app?vid=7d833a12-f582-4b54-ad49-39e60c078c56","ios":"levelo://app?vid=7d833a12-f582-4b54-ad49-39e60c078c56"},"vehicle_type_id":"4","last_reported":1730891242,"current_range_meters":33200,"station_id":"ce4bhpp2rcd13ifvqhgg","pricing_plan_id":"cebpf4jnsgd1na2vs0mg"},{"bike_id":"7f316980-47ce-44c8-a098-7624e315058f","system_id":"levelo_inurba_marseille","lat":43.30809,"lon":5.38155,"is_reserved":false,"is_disabled":false,"rental_uris":{"android":"levelo://app?vid=7f316980-47ce-44c8-a098-7624e315058f","ios":"levelo://app?vid=7f316980-47ce-44c8-a098-7624e315058f"},"vehicle_type_id":"4","last_reported":1730891242,"current_range_meters":27200,"station_id":"ce4bgt12rcd13ifvqce0","pricing_plan_id":"cebpf4jnsgd1na2vs0mg"},{"bike_id":"20c80413-bdb6-4737-bcdb-0a5d048834b3","system_id":"levelo_inurba_marseille","lat":43.23182,"lon":5.39977,"is_reserved":false,"is_disabled":false,"rental_uris":{"android":"levelo://app?vid=20c80413-bdb6-4737-bcdb-0a5d048834b3","ios":"levelo://app?vid=20c80413-bdb6-4737-bcdb-0a5d048834b3"},"vehicle_type_id":"4","last_reported":1730891242,"current_range_meters":38800,"station_id":"ce4bhn12rcd13ifvqgqg","pricing_plan_id":"cebpf4jnsgd1na2vs0mg"},{"bike_id":"8fd5eb3a-a59f-44c9-aa14-ae7aeb930e9b","system_id":"levelo_inurba_marseille","lat":43.2961,"lon":5.38111,"is_reserved":false,"is_disabled":false,"rental_uris":{"android":"levelo://app?vid=8fd5eb3a-a59f-44c9-aa14-ae7aeb930e9b","ios":"levelo://app?vid=8fd5eb3a-a59f-44c9-aa14-ae7aeb930e9b"},"vehicle_type_id":"4","last_reported":1730891242,"current_range_meters":20400,"station_id":"ce4bgl12rcd13ifvqbo0","pricing_plan_id":"cebpf4jnsgd1na2vs0mg"},{"bike_id":"b3fc8332-7130-4b18-a74f-f0ccddd5a572","system_id":"levelo_inurba_marseille","lat":43.24079,"lon":5.3774,"is_reserved":false,"is_disabled":false,"rental_uris":{"android":"levelo://app?vid=b3fc8332-7130-4b18-a74f-f0ccddd5a572","ios":"levelo://app?vid=b3fc8332-7130-4b18-a74f-f0ccddd5a572"},"vehicle_type_id":"4","last_reported":1730891242,"current_range_meters":36800,"station_id":"ce4bhnp2rcd13ifvqgvg","pricing_plan_id":"cebpf4jnsgd1na2vs0mg"},{"bike_id":"93a83a5c-0d3d-43a2-be24-e99a92c3575d","system_id":"levelo_inurba_marseille","lat":43.30828,"lon":5.37106,"is_reserved":false,"is_disabled":false,"rental_uris":{"android":"levelo://app?vid=93a83a5c-0d3d-43a2-be24-e99a92c3575d","ios":"levelo://app?vid=93a83a5c-0d3d-43a2-be24-e99a92c3575d"},"vehicle_type_id":"4","last_reported":1730891242,"current_range_meters":8400,"station_id":"ce4bguh2rcd13ifvqckg","pricing_plan_id":"cebpf4jnsgd1na2vs0mg"},