{"last_updated":1701670228,"ttl":30,"version":"2.2","data":{"bikes":[{"bike_id":"caa5cc04-08f4-4e1e-ae08-319f724bb0cb","system_id":"levelo_inurba_marseille","lat":43.31341,"lon":5.367098,"is_reserved":false,"is_disabled":false,"rental_uris":{"android":"levelo://app?vid=caa5cc04-08f4-4e1e-ae08-319f724bb0cb","ios":"levelo://app?vid=caa5cc04-08f4-4e1e-ae08-319f724bb0cb"},"vehicle_type_id":"4","last_reported":1701670228,"current_range_meters":31600,"station_id":"ce4bgr92rcd13ifvqc6g","pricing_plan_id":"free"},{"bike_id":"d55f2791-008f-4d93-ba5c-16c693b4e3f0","system_id":"levelo_inurba_marseille","lat":43.314811,"lon":5.373103,"is_reserved":false,"is_disabled":false,"rental_uris":{"android":"levelo://app?vid=d55f2791-008f-4d93-ba5c-16c693b4e3f0","ios":"levelo://app?vid=d55f2791-008f-4d93-ba5c-16c693b4e3f0"},"vehicle_type_id":"4","last_reported":1701670228,"current_range_meters":31600,"station_id":"ce4bgt12rcd13ifvqcd0","pricing_plan_id":"free"},{"bike_id":"77beb4c5-a8e4-4d88-aaf1-0166d39eb61d","system_id":"levelo_inurba_marseille","lat":43.314811,"lon":5.373104,"is_reserved":false,"is_disabled":false,"rental_uris":{"android":"levelo://app?vid=77beb4c5-a8e4-4d88-aaf1-0166d39eb61d","ios":"levelo://app?vid=77beb4c5-a8e4-4d88-aaf1-0166d39eb61d"},"vehicle_type_id":"4","last_reported":1701670228,"current_range_meters":16000,"station_id":"ce4bgt12rcd13ifvqcd0","pricing_plan_id":"free"},{"bike_id":"559aa65c-11bb-428f-ad4c-fa1a64bb005b","system_id":"levelo_inurba_marseille","lat":43.309039,"lon":5.371797,"is_reserved":false,"is_disabled":false,"rental_uris":{"android":"levelo://app?vid=559aa65c-11bb-428f-ad4c-fa1a64bb005b","ios":"levelo://app?vid=559aa65c-11bb-428f-ad4c-fa1a64bb005b"},"vehicle_type_id":"4","last_reported":1701670228,"current_range_meters":18000,"station_id":"ce4bguh2rcd13ifvqckg","pricing_plan_id":"free"},{"bike_id":"5c26bdfb-7b7c-43fb-8a01-250128a1a6f8","system_id":"levelo_inurba_marseille","lat":43.307566,"lon":5.370183,"is_reserved":false,"is_disabled":false,"rental_uris":{"android":"levelo://app?vid=5c26bdfb-7b7c-43fb-8a01-250128a1a6f8","ios":"levelo://app?vid=5c26bdfb-7b7c-43fb-8a01-250128a1a6f8"},"vehicle_type_id":"4","last_reported":1701670228,"current_range_meters":20800,"station_id":"","pricing_plan_id":"free"},{"bike_id":"31bb88b3-42d1-4913-bd0c-b9dc6446524c","system_id":"levelo_inurba_marseille","lat":43.305368,"lon":5.367343,"is_reserved":false,"is_disabled":false,"rental_uris":{"android":"levelo://app?vid=31bb88b3-42d1-4913-bd0c-b9dc6446524c","ios":"levelo://app?vid=31bb88b3-42d1-4913-bd0c-b9dc6446524c"},"vehicle_type_id":"4","last_reported":1701670228,"current_range_meters":22800,"station_id":"ce4bgrp2rcd13ifvqc9g","pricing_plan_id":"free"},{"bike_id":"a23d4a53-5eee-44ef-a7db-282d6b8eb78d","system_id":"levelo_inurba_marseille","lat":43.305706,"lon":5.365654,"is_reserved":false,"is_disabled":false,"rental_uris":{"android":"levelo://app?vid=a23d4a53-5eee-44ef-a7db-282d6b8eb78d","ios":"levelo://app?vid=a23d4a53-5eee-44ef-a7db-282d6b8eb78d"},"vehicle_type_id":"4","last_reported":1701670228,"current_range_meters":24800,"station_id":"ce4bgs12rcd13ifvqcag","pricing_plan_id":"free"},{"bike_id":"68b7bf8b-00ab-4e2d-baab-3b08edb4cb88","system_id":"levelo_inurba_marseille","lat":43.305706,"lon":5.365654,"is_reserved":false,"is_disabled":false,"rental_uris":{"android":"levelo://app?vid=68b7bf8b-00ab-4e2d-baab-3b08edb4cb88","ios":"levelo://app?vid=68b7bf8b-00ab-4e2d-baab-3b08edb4cb88"},"vehicle_type_id":"4","last_reported":1701670228,"current_range_meters":13600,"station_id":"ce4bgs12rcd13ifvqcag","pricing_plan_id":"free"},{"bike_id":"1fea84aa-7d31-4843-974a-304c03729fd2","system_id":"levelo_inurba_marseille","lat":43.308215,"lon":5.376525,"is_reserved":false,"is_disabled":false,"rental_uris":{"android":"levelo://app?vid=1fea84aa-7d31-4843-974a-304c03729fd2","ios":"levelo://app?vid=1fea84aa-7d31-4843-974a-304c03729fd2"},"vehicle_type_id":"4","last_reported":1701670228,"current_range_meters":2800,"station_id":"ce4bgv92rcd13ifvqcq0","pricing_plan_id":"free"},{"bike_id":"e913f328-1e31-4c22-bd87-f809ea246de4","system_id":"levelo_inurba_marseille","lat":43.317168,"lon":5.376883,"is_reserved":false,"is_disabled":false,"rental_uris":{"android":"levelo://app?vid=e913f328-1e31-4c22-bd87-f809ea246de4","ios":"levelo://app?vid=e913f328-1e31-4c22-bd87-f809ea246de4"},"vehicle_type_id":"4","last_reported":1701670228,"current_range_meters":0,"station_id":"","pricing_plan_id":"free"},{"bike_id":"1c04753e-6979-4f1e-af31-3b4feaef49b4","system_id":"levelo_inurba_marseille","lat":43.317075,"lon":5.377367,"is_reserved":false,"is_disabled":false,"rental_uris":{"android":"levelo://app?vid=1c04753e-6979-4f1e-af31-3b4feaef49b4","ios":"levelo://app?vid=1c04753e-6979-4f1e-af31-3b4feaef49b4"},"vehicle_type_id":"4","last_reported":1701670228,"current_range_meters":29600,"station_id":"ce4bgth2rcd13ifvqch0","pricing_plan_id":"free"},{"bike_id":"fb6fd937-527b-4585-9058-0dfdc6436ac8","system_id":"levelo_inurba_marseille","lat":43.31351,"lon":5.37909,"is_reserved":false,"is_disabled":false,"rental_uris":{"android":"levelo://app?vid=fb6fd937-527b-4585-9058-0dfdc6436ac8","ios":"levelo://app?vid=fb6fd937-527b-4585-9058-0dfdc6436ac8"},"vehicle_type_id":"4","last_reported":1701670228,"current_range_meters":15200,"station_id":"","pricing_plan_id":"free"},{"bike_id":"cff41ab2-5902-422f-a805-d47b357e76cf","system_id":"levelo_inurba_marseille","lat":43.303046,"lon":5.368981,"is_reserved":false,"is_disabled":false,"rental_uris":{"android":"levelo://app?vid=cff41ab2-5902-422f-a805-d47b357e76cf","ios":"levelo://app?vid=cff41ab2-5902-422f-a805-d47b357e76cf"},"vehicle_type_id":"4","last_reported":1701670228,"current_range_meters":26400,"station_id":"ce4bgqh2rcd13ifvqc5g","pricing_plan_id":"free"},{"bike_id":"ef154fd2-0af1-4700-9671-b49ff1dc5813","system_id":"levelo_inurba_marseille","lat":43.31534,"lon":5.3804,"is_reserved":false,"is_disabled":false,"rental_uris":{"android":"levelo://app?vid=ef154fd2-0af1-4700-9671-b49ff1dc5813","ios":"levelo://app?vid=ef154fd2-0af1-4700-9671-b49ff1dc5813"},"vehicle_type_id":"4","last_reported":1701670228,"current_range_meters":19200,"station_id":"ce4bhsp2rcd13ifvqi50","pricing_plan_id":"free"},{"bike_id":"e71fd6cd-e152-4ae0-a392-904e3e718e65","system_id":"levelo_inurba_marseille","lat":43.304606,"lon":5.379026,"is_reserved":false,"is_disabled":false,"rental_uris":{"android":"levelo://app?vid=e71fd6cd-e152-4ae0-a392-904e3e718e65","ios":"levelo://app?vid=e71fd6cd-e152-4ae0-a392-904e3e718e65"},"vehicle_type_id":"4","last_reported":1701670228,"current_range_meters":28400,"station_id":"ce4bgup2rcd13ifvqcn0","pricing_plan_id":"free"},{"bike_id":"ea5ba3a1-d0c2-4df3-b919-992e8076c933","system_id":"levelo_inurba_marseille","lat":43.304606,"lon":5.379026,"is_reserved":false,"is_disabled":false,"rental_uris":{"android":"levelo://app?vid=ea5ba3a1-d0c2-4df3-b919-992e8076c933","ios":"levelo://app?vid=ea5ba3a1-d0c2-4df3-b919-992e8076c933"},"vehicle_type_id":"4","last_reported":1701670228,"current_range_meters":12800,"station_id":"ce4bgup2rcd13ifvqcn0","pricing_plan_id":"free"},{"bike_id":"def01a86-45af-436e-a2f3-9badb6a6fa4c","system_id":"levelo_inurba_marseille","lat":43.304606,"lon":5.379026,"is_reserved":false,"is_disabled":false,"rental_uris":{"android":"levelo://app?vid=def01a86-45af-436e-a2f3-9badb6a6fa4c","ios":"levelo://app?vid=def01a86-45af-436e-a2f3-9badb6a6fa4c"},"vehicle_type_id":"4","last_reported":1701670228,"current_range_meters":28400,"station_id":"ce4bgup2rcd13ifvqcn0","pricing_plan_id":"free"},{"bike_id":"8476360b-564d-40a6-8315-5f39933396b7","system_id":"levelo_inurba_marseille","lat":43.304606,"lon":5.379026,"is_reserved":false,"is_disabled":false,"rental_uris":{"android":"levelo://app?vid=8476360b-564d-40a6-8315-5f39933396b7","ios":"levelo://app?vid=8476360b-564d-40a6-8315-5f39933396b7"},"vehicle_type_id":"4","last_reported":1701670228,"current_range_meters":27600,"station_id":"ce4bgup2rcd13ifvqcn0","pricing_plan_id":"free"},{"bike_id":"424e8ab3-38b4-4e6b-96c0-040917df3b67","system_id":"levelo_inurba_marseille","lat":43.304606,"lon":5.379026,"is_reserved":false,"is_disabled":false,"rental_uris":{"android":"levelo://app?vid=424e8ab3-38b4-4e6b-96c0-040917df3b67","ios":"levelo://app?vid=424e8ab3-38b4-4e6b-96c0-040917df3b67"},"vehicle_type_id":"4","last_reported":1701670228,"current_range_meters":31200,"station_id":"ce4bgup2rcd13ifvqcn0","pricing_plan_id":"free"},{"bike_id":"681d35b3-f56b-48f8-a40f-74fe57635b03","system_id":"levelo_inurba_marseille","lat":43.304606,"lon":5.379026,"is_reserved":false,"is_disabled":false,"rental_uris":{"android":"levelo://app?vid=681d35b3-f56b-48f8-a40f-74fe57635b03","ios":"levelo://app?vid=681d35b3-f56b-48f8-a40f-74fe57635b03"},"vehicle_type_id":"4","last_reported":1701670228,"current_range_meters":28400,"station_id":"ce4bgup2rcd13ifvqcn0","pricing_plan_id":"free"},{"bike_id":"a2a3bc8e-3ef5-476a-b66c-812fbb4f5e54","system_id":"levelo_inurba_marseille","lat":43.30464,"lon":5.3791,"is_reserved":false,"is_disabled":false,"rental_uris":{"android":"levelo://app?vid=a2a3bc8e-3ef5-476a-b66c-812fbb4f5e54","ios":"levelo://app?vid=a2a3bc8e-3ef5-476a-b66c-812fbb4f5e54"},"vehicle_type_id":"4","last_reported":1701670228,"current_range_meters":28400,"station_id":"ce4bgup2rcd13ifvqcn0","pricing_plan_id":"free"},{"bike_id":"f6c7d8d0-f65d-4113-beb5-104598e2f7a9","system_id":"levelo_inurba_marseille","lat":43.304606,"lon":5.379026,"is_reserved":false,"is_disabled":false,"rental_uris":{"android":"levelo://app?vid=f6c7d8d0-f65d-4113-beb5-104598e2f7a9","ios":"levelo://app?vid=f6c7d8d0-f65d-4113-beb5-104598e2f7a9"},"vehicle_type_id":"4","last_reported":1701670228,"current_range_meters":26800,"station_id":"ce4bgup2rcd13ifvqcn0","pricing_plan_id":"free"},{"bike_id":"141515a4-3480-4d8c-8a96-4138d5e36d4a","system_id":"levelo_inurba_marseille","lat":43.304606,"lon":5.379026,"is_reserved":false,"is_disabled":false,"rental_uris":{"android":"levelo://app?vid=141515a4-3480-4d8c-8a96-4138d5e36d4a","ios":"levelo://app?vid=141515a4-3480-4d8c-8a96-4138d5e36d4a"},"vehicle_type_id":"4","last_reported":1701670228,"current_range_meters":29600,"station_id":"ce4bgup2rcd13ifvqcn0","pricing_plan_id":"free"},{"bike_id":"1b836397-024f-4ce5-8ba8-e625623686d0","system_id":"levelo_inurba_marseille","lat":43.32,"lon":5.38152,"is_reserved":false,"is_disabled":false,"rental_uris":{"android":"levelo://app?vid=1b836397-024f-4ce5-8ba8-e625623686d0","ios":"levelo://app?vid=1b836397-024f-4ce5-8ba8-e625623686d0"},"vehicle_type_id":"4","last_reported":1701670228,"current_range_meters":30800,"station_id":"ce4bhr12rcd13ifvqhpg","pricing_plan_id":"free"},{"bike_id":"2275aca5-3158-4c2c-8022-ca5d2714bc86","system_id":"levelo_inurba_marseille","lat":43.319997,"lon":5.381594,"is_reserved":false,"is_disabled":false,"rental_uris":{"android":"levelo://app?vid=2275aca5-3158-4c2c-8022-ca5d2714bc86","ios":"levelo://app?vid=2275aca5-3158-4c2c-8022-ca5d2714bc86"},"vehicle_type_id":"4","last_reported":1701670228,"current_range_meters":8800,"station_id":"ce4bhr12rcd13ifvqhpg","pricing_plan_id":"free"},{"bike_id":"aaa26a12-246b-4d79-95da-dfbdfaf67518","system_id":"levelo_inurba_marseille","lat":43.313651,"lon":5.38489,"is_reserved":false,"is_disabled":false,"rental_uris":{"android":"levelo://app?vid=aaa26a12-246b-4d79-95da-dfbdfaf67518","ios":"levelo://app?vid=aaa26a12-246b-4d79-95da-dfbdfaf67518"},"vehicle_type_id":"4","last_reported":1701670228,"current_range_meters":27600,"station_id":"ce4bgt92rcd13ifvqcf0","pricing_plan_id":"free"},{"bike_id":"9fdb7f97-586d-42d2-befd-15216ba2e422","system_id":"levelo_inurba_marseille","lat":43.31183,"lon":5.38523,"is_reserved":false,"is_disabled":false,"rental_uris":{"android":"levelo://app?vid=9fdb7f97-586d-42d2-befd-15216ba2e422","ios":"levelo://app?vid=9fdb7f97-586d-42d2-befd-15216ba2e422"},"vehicle_type_id":"4","last_reported":1701670228,"current_range_meters":0,"station_id":"","pricing_plan_id":"free"},{"bike_id":"748d12ab-8e09-4ecd-b2d2-cbe0ea9624f6","system_id":"levelo_inurba_marseille","lat":43.298984,"lon":5.367316,"is_reserved":false,"is_disabled":false,"rental_uris":{"android":"levelo://app?vid=748d12ab-8e09-4ecd-b2d2-cbe0ea9624f6","ios":"levelo://app?vid=748d12ab-8e09-4ecd-b2d2-cbe0ea9624f6"},"vehicle_type_id":"4","last_reported":1701670228,"current_range_meters":0,"station_id":"","pricing_plan_id":"free"},{"bike_id":"631c0f0a-c87a-4ac2-8c86-a55effd3d60b","system_id":"levelo_inurba_marseille","lat":43.298433,"lon":5.362774,"is_reserved":false,"is_disabled":false,"rental_uris":{"android":"levelo://app?vid=631c0f0a-c87a-4ac2-8c86-a55effd3d60b","ios":"levelo://app?vid=631c0f0a-c87a-4ac2-8c86-a55effd3d60b"},"vehicle_type_id":"4","last_reported":1701670228,"current_range_meters":28400,"station_id":"ce4bgpp2rcd13ifvqc3g","pricing_plan_id":"free"},{"bike_id":"ef4a4759-ee41-4858-bef3-3718eb42e701","system_id":"levelo_inurba_marseille","lat":43.30536,"lon":5.38433,"is_reserved":false,"is_disabled":false,"rental_uris":{"android":"levelo://app?vid=ef4a4759-ee41-4858-bef3-3718eb42e701","ios":"levelo://app?vid=ef4a4759-ee41-4858-bef3-3718eb42e701"},"vehicle_type_id":"4","last_reported":1701670228,"current_range_meters":28800,"station_id":"ce4bgg92rcd13ifvqb30","pricing_plan_id":"free"},{"bike_id":"510c0c07-2d84-4bb3-b1e2-520f73f429dd","system_id":"levelo_inurba_marseille","lat":43.297794,"lon":5.370888,"is_reserved":false,"is_disabled":false,"rental_uris":{"android":"levelo://app?vid=510c0c07-2d84-4bb3-b1e2-520f73f429dd","ios":"levelo://app?vid=510c0c07-2d84-4bb3-b1e2-520f73f429dd"},"vehicle_type_id":"4","last_reported":1701670228,"current_range_meters":28400,"station_id":"ce4bgop2rcd13ifvqc1g","pricing_plan_id":"free"},{"bike_id":"0a39dd03-261e-42e4-8565-1ecf12f7bfae","system_id":"levelo_inurba_marseille","lat":43.322872,"lon":5.382756,"is_reserved":false,"is_disabled":false,"rental_uris":{"android":"levelo://app?vid=0a39dd03-261e-42e4-8565-1ecf12f7bfae","ios":"levelo://app?vid=0a39dd03-261e-42e4-8565-1ecf12f7bfae"},"vehicle_type_id":"4","last_reported":1701670228,"current_range_meters":21600,"station_id":"ce4bhr12rcd13ifvqhqg","pricing_plan_id":"free"},{"bike_id":"c477d28a-023f-48dc-9b5a-c3f6bad6c889","system_id":"levelo_inurba_marseille","lat":43.328371,"lon":5.366909,"is_reserved":false,"is_disabled":false,"rental_uris":{"android":"levelo://app?vid=c477d28a-023f-48dc-9b5a-c3f6bad6c889","ios":"levelo://app?vid=c477d28a-023f-48dc-9b5a-c3f6bad6c889"},"vehicle_type_id":"4","last_reported":1701670228,"current_range_meters":20000,"station_id":"ce4bhs92rcd13ifvqi0g","pricing_plan_id":"free"},{"bike_id":"08a721db-bf5d-46b3-9ba3-2a9c6c13bcf6","system_id":"levelo_inurba_marseille","lat":43.328256,"lon":5.366905,"is_reserved":false,"is_disabled":false,"rental_uris":{"android":"levelo://app?vid=08a721db-bf5d-46b3-9ba3-2a9c6c13bcf6","ios":"levelo://app?vid=08a721db-bf5d-46b3-9ba3-2a9c6c13bcf6"},"vehicle_type_id":"4","last_reported":1701670228,"current_range_meters":22400,"station_id":"","pricing_plan_id":"free"},{"bike_id":"c6ce3b8f-2076-4eb8-b7d5-d674dca50e8e","system_id":"levelo_inurba_marseille","lat":43.32832,"lon":5.36671,"is_reserved":false,"is_disabled":false,"rental_uris":{"android":"levelo://app?vid=c6ce3b8f-2076-4eb8-b7d5-d674dca50e8e","ios":"levelo://app?vid=c6ce3b8f-2076-4eb8-b7d5-d674dca50e8e"},"vehicle_type_id":"4","last_reported":1701670228,"current_range_meters":8000,"station_id":"ce4bhs92rcd13ifvqi0g","pricing_plan_id":"free"},{"bike_id":"6b9c8afe-a3bf-4dbf-af46-331babdf9ea6","system_id":"levelo_inurba_marseille","lat":43.297163,"lon":5.365866,"is_reserved":false,"is_disabled":false,"rental_uris":{"android":"levelo://app?vid=6b9c8afe-a3bf-4dbf-af46-331babdf9ea6","ios":"levelo://app?vid=6b9c8afe-a3bf-4dbf-af46-331babdf9ea6"},"vehicle_type_id":"4","last_reported":1701670228,"current_range_meters":31200,"station_id":"ce4bgn12rcd13ifvqbt0","pricing_plan_id":"free"},{"bike_id":"8874ef37-d11b-4860-b7df-daab8952a737","system_id":"levelo_inurba_marseille","lat":43.32833,"lon":5.3667,"is_reserved":false,"is_disabled":false,"rental_uris":{"android":"levelo://app?vid=8874ef37-d11b-4860-b7df-daab8952a737","ios":"levelo://app?vid=8874ef37-d11b-4860-b7df-daab8952a737"},"vehicle_type_id":"4","last_reported":1701670228,"current_range_meters":20400,"station_id":"ce4bhs92rcd13ifvqi0g","pricing_plan_id":"free"},{"bike_id":"5d597ddc-1808-4b9b-82bd-5e6a70aefaca","system_id":"levelo_inurba_marseille","lat":43.328735,"lon":5.36682,"is_reserved":false,"is_disabled":false,"rental_uris":{"android":"levelo://app?vid=5d597ddc-1808-4b9b-82bd-5e6a70aefaca","ios":"levelo://app?vid=5d597ddc-1808-4b9b-82bd-5e6a70aefaca"},"vehicle_type_id":"4","last_reported":1701670228,"current_range_meters":0,"station_id":"ce4bhs92rcd13ifvqi0g","pricing_plan_id":"free"},{"bike_id":"785306ad-0633-4607-9412-9fdd6eee62d1","system_id":"levelo_inurba_marseille","lat":43.2968,"lon":5.37291,"is_reserved":false,"is_disabled":false,"rental_uris":{"android":"levelo://app?vid=785306ad-0633-4607-9412-9fdd6eee62d1","ios":"levelo://app?vid=785306ad-0633-4607-9412-9fdd6eee62d1"},"vehicle_type_id":"4","last_reported":1701670228,"current_range_meters":30400,"station_id":"ce4bgk12rcd13ifvqbj0","pricing_plan_id":"free"},{"bike_id":"eaa0e7e7-2390-47fa-909b-7b240952cbef","system_id":"levelo_inurba_marseille","lat":43.316538,"lon":5.38954,"is_reserved":false,"is_disabled":false,"rental_uris":{"android":"levelo://app?vid=eaa0e7e7-2390-47fa-909b-7b240952cbef","ios":"levelo://app?vid=eaa0e7e7-2390-47fa-909b-7b240952cbef"},"vehicle_type_id":"4","last_reported":1701670228,"current_range_meters":18000,"station_id":"","pricing_plan_id":"free"},{"bike_id":"50451858-4fd4-406d-badc-776a2e8a63c3","system_id":"levelo_inurba_marseille","lat":43.32973,"lon":5.36732,"is_reserved":false,"is_disabled":false,"rental_uris":{"android":"levelo://app?vid=50451858-4fd4-406d-badc-776a2e8a63c3","ios":"levelo://app?vid=50451858-4fd4-406d-badc-776a2e8a63c3"},"vehicle_type_id":"4","last_reported":1701670228,"current_range_meters":18400,"station_id":"","pricing_plan_id":"free"},{"bike_id":"24ac2175-6441-4258-a02a-5179b59b610b","system_id":"levelo_inurba_marseille","lat":43.315025,"lon":5.390145,"is_reserved":false,"is_disabled":false,"rental_uris":{"android":"levelo://app?vid=24ac2175-6441-4258-a02a-5179b59b610b","ios":"levelo://app?vid=24ac2175-6441-4258-a02a-5179b59b610b"},"vehicle_type_id":"4","last_reported":1701670228,"current_range_meters":24000,"station_id":"","pricing_plan_id":"free"},{"bike_id":"3ea51729-8011-4693-b1ba-91764c30aa23","system_id":"levelo_inurba_marseille","lat":43.299028,"lon":5.381509,"is_reserved":false,"is_disabled":false,"rental_uris":{"android":"levelo://app?vid=3ea51729-8011-4693-b1ba-91764c30aa23","ios":"levelo://app?vid=3ea51729-8011-4693-b1ba-91764c30aa23"},"vehicle_type_id":"4","last_reported":1701670228,"current_range_meters":26000,"station_id":"ce4bgj12rcd13ifvqbc0","pricing_plan_id":"free"},{"bike_id":"bc1e6f71-ebf2-46ae-b4e9-654cef8a4ebb","system_id":"levelo_inurba_marseille","lat":43.299028,"lon":5.381509,"is_reserved":false,"is_disabled":false,"rental_uris":{"android":"levelo://app?vid=bc1e6f71-ebf2-46ae-b4e9-654cef8a4ebb","ios":"levelo://app?vid=bc1e6f71-ebf2-46ae-b4e9-654cef8a4ebb"},"vehicle_type_id":"4","last_reported":1701670228,"current_range_meters":31600,"station_id":"ce4bgj12rcd13ifvqbc0","pricing_plan_id":"free"},{"bike_id":"e95452e9-a9d7-44cd-8b62-c16b51be259c","system_id":"levelo_inurba_marseille","lat":43.309589,"lon":5.390258,"is_reserved":false,"is_disabled":false,"rental_uris":{"android":"levelo://app?vid=e95452e9-a9d7-44cd-8b62-c16b51be259c","ios":"levelo://app?vid=e95452e9-a9d7-44cd-8b62-c16b51be259c"},"vehicle_type_id":"4","last_reported":1701670228,"current_range_meters":22800,"station_id":"ce4bgup2rcd13ifvqco0","pricing_plan_id":"free"},{"bike_id":"a7d6993c-889b-472d-8005-f6e35e313883","system_id":"levelo_inurba_marseille","lat":43.309589,"lon":5.390258,"is_reserved":false,"is_disabled":false,"rental_uris":{"android":"levelo://app?vid=a7d6993c-889b-472d-8005-f6e35e313883","ios":"levelo://app?vid=a7d6993c-889b-472d-8005-f6e35e313883"},"vehicle_type_id":"4","last_reported":1701670228,"current_range_meters":26400,"station_id":"ce4bgup2rcd13ifvqco0","pricing_plan_id":"free"},{"bike_id":"e5145889-fb47-47e2-bec3-71e8daf16e52","system_id":"levelo_inurba_marseille","lat":43.309589,"lon":5.390258,"is_reserved":false,"is_disabled":false,"rental_uris":{"android":"levelo://app?vid=e5145889-fb47-47e2-bec3-71e8daf16e52","ios":"levelo://app?vid=e5145889-fb47-47e2-bec3-71e8daf16e52"},"vehicle_type_id":"4","last_reported":1701670228,"current_range_meters":16400,"station_id":"ce4bgup2rcd13ifvqco0","pricing_plan_id":"free"},{"bike_id":"4a47528a-6bee-4d65-b5a2-8efd1c39d2b1","system_id":"levelo_inurba_marseille","lat":43.309589,"lon":5.390258,"is_reserved":false,"is_disabled":false,"rental_uris":{"android":"levelo://app?vid=4a47528a-6bee-4d65-b5a2-8efd1c39d2b1","ios":"levelo://app?vid=4a47528a-6bee-4d65-b5a2-8efd1c39d2b1"},"vehicle_type_id":"4","last_reported":1701670228,"current_range_meters":31200,"station_id":"ce4bgup2rcd13ifvqco0","pricing_plan_id":"free"},{"bike_id":"a71c79c9-2e02-4efa-8ab0-fbd47268f50a","system_id":"levelo_inurba_marseille","lat":43.317525,"lon":5.39035,"is_reserved":false,"is_disabled":false,"rental_uris":{"android":"levelo://app?vid=a71c79c9-2e02-4efa-8ab0-fbd47268f50a","ios":"levelo://app?vid=a71c79c9-2e02-4efa-8ab0-fbd47268f50a"},"vehicle_type_id":"4","last_reported":1701670228,"current_range_meters":21200,"station_id":"ce4bhqp2rcd13ifvqhng","pricing_plan_id":"free"},{"bike_id":"8338f02d-152d-4cd4-90f2-4786df44e33c","system_id":"levelo_inurba_marseille","lat":43.298037,"lon":5.381066,"is_reserved":false,"is_disabled":false,"rental_uris":{"android":"levelo://app?vid=8338f02d-152d-4cd4-90f2-4786df44e33c","ios":"levelo://app?vid=8338f02d-152d-4cd4-90f2-4786df44e33c"},"vehicle_type_id":"4","last_reported":1701670228,"current_range_meters":21200,"station_id":"ce4bgip2rcd13ifvqbb0","pricing_plan_id":"free"},{"bike_id":"84f56163-afd8-4681-b642-d75744562185","system_id":"levelo_inurba_marseille","lat":43.304274,"lon":5.388873,"is_reserved":false,"is_disabled":false,"rental_uris":{"android":"levelo://app?vid=84f56163-afd8-4681-b642-d75744562185","ios":"levelo://app?vid=84f56163-afd8-4681-b642-d75744562185"},"vehicle_type_id":"4","last_reported":1701670228,"current_range_meters":29200,"station_id":"ce4bgk12rcd13ifvqbi0","pricing_plan_id":"free"},{"bike_id":"0a430961-66ab-46ec-88c4-467867970fd9","system_id":"levelo_inurba_marseille","lat":43.295748,"lon":5.37522,"is_reserved":false,"is_disabled":false,"rental_uris":{"android":"levelo://app?vid=0a430961-66ab-46ec-88c4-467867970fd9","ios":"levelo://app?vid=0a430961-66ab-46ec-88c4-467867970fd9"},"vehicle_type_id":"4","last_reported":1701670228,"current_range_meters":14800,"station_id":"ce4bgh92rcd13ifvqb50","pricing_plan_id":"free"},{"bike_id":"5a75afb3-ae08-41a4-a930-e2ba84a59b63","system_id":"levelo_inurba_marseille","lat":43.296263,"lon":5.377094,"is_reserved":false,"is_disabled":false,"rental_uris":{"android":"levelo://app?vid=5a75afb3-ae08-41a4-a930-e2ba84a59b63","ios":"levelo://app?vid=5a75afb3-ae08-41a4-a930-e2ba84a59b63"},"vehicle_type_id":"4","last_reported":1701670228,"current_range_meters":27200,"station_id":"ce4bgi92rcd13ifvqb90","pricing_plan_id":"free"},{"bike_id":"cb2e2929-1389-4f5e-9f88-0f7fe4276ea8","system_id":"levelo_inurba_marseille","lat":43.299717,"lon":5.384845,"is_reserved":false,"is_disabled":false,"rental_uris":{"android":"levelo://app?vid=cb2e2929-1389-4f5e-9f88-0f7fe4276ea8","ios":"levelo://app?vid=cb2e2929-1389-4f5e-9f88-0f7fe4276ea8"},"vehicle_type_id":"4","last_reported":1701670228,"current_range_meters":28800,"station_id":"ce4bgj92rcd13ifvqbd0","pricing_plan_id":"free"},{"bike_id":"6a04aff0-7504-4345-b16a-6818f34aeb28","system_id":"levelo_inurba_marseille","lat":43.29601,"lon":5.381084,"is_reserved":false,"is_disabled":false,"rental_uris":{"android":"levelo://app?vid=6a04aff0-7504-4345-b16a-6818f34aeb28","ios":"levelo://app?vid=6a04aff0-7504-4345-b16a-6818f34aeb28"},"vehicle_type_id":"4","last_reported":1701670228,"current_range_meters":10800,"station_id":"ce4bgl12rcd13ifvqbo0","pricing_plan_id":"free"},{"bike_id":"d69911dc-9710-4c28-b497-4723d349e126","system_id":"levelo_inurba_marseille","lat":43.292749,"lon":5.368402,"is_reserved":false,"is_disabled":false,"rental_uris":{"android":"levelo://app?vid=d69911dc-9710-4c28-b497-4723d349e126","ios":"levelo://app?vid=d69911dc-9710-4c28-b497-4723d349e126"},"vehicle_type_id":"4","last_reported":1701670228,"current_range_meters":800,"station_id":"ce4bhbp2rcd13ifvqesg","pricing_plan_id":"free"},{"bike_id":"96a62c6e-2aaf-4555-927c-52a35f622838","system_id":"levelo_inurba_marseille","lat":43.293009,"lon":5.374584,"is_reserved":false,"is_disabled":false,"rental_uris":{"android":"levelo://app?vid=96a62c6e-2aaf-4555-927c-52a35f622838","ios":"levelo://app?vid=96a62c6e-2aaf-4555-927c-52a35f622838"},"vehicle_type_id":"4","last_reported":1701670228,"current_range_meters":26400,"station_id":"ce4bgi12rcd13ifvqb70","pricing_plan_id":"free"},{"bike_id":"b8ae5278-11ad-41b7-abb1-ba54e4da502f","system_id":"levelo_inurba_marseille","lat":43.292311,"lon":5.360731,"is_reserved":false,"is_disabled":false,"rental_uris":{"android":"levelo://app?vid=b8ae5278-11ad-41b7-abb1-ba54e4da502f","ios":"levelo://app?vid=b8ae5278-11ad-41b7-abb1-ba54e4da502f"},"vehicle_type_id":"4","last_reported":1701670228,"current_range_meters":24400,"station_id":"ce4bhbh2rcd13ifvqeqg","pricing_plan_id":"free"},{"bike_id":"f28d5d1d-a748-4c11-86ad-134ef87c1bbd","system_id":"levelo_inurba_marseille","lat":43.292311,"lon":5.360731,"is_reserved":false,"is_disabled":false,"rental_uris":{"android":"levelo://app?vid=f28d5d1d-a748-4c11-86ad-134ef87c1bbd","ios":"levelo://app?vid=f28d5d1d-a748-4c11-86ad-134ef87c1bbd"},"vehicle_type_id":"4","last_reported":1701670228,"current_range_meters":13200,"station_id":"ce4bhbh2rcd13ifvqeqg","pricing_plan_id":"free"},{"bike_id":"af4c3c32-6c4d-41ce-a069-43c541b2f887","system_id":"levelo_inurba_marseille","lat":43.292195,"lon":5.36054,"is_reserved":false,"is_disabled":false,"rental_uris":{"android":"levelo://app?vid=af4c3c32-6c4d-41ce-a069-43c541b2f887","ios":"levelo://app?vid=af4c3c32-6c4d-41ce-a069-43c541b2f887"},"vehicle_type_id":"4","last_reported":1701670228,"current_range_meters":29200,"station_id":"ce4bhbh2rcd13ifvqeqg","pricing_plan_id":"free"},{"bike_id":"29afa83c-4bd7-4ecf-8c8a-6f1436c8ade0","system_id":"levelo_inurba_marseille","lat":43.309038,"lon":5.396546,"is_reserved":false,"is_disabled":false,"rental_uris":{"android":"levelo://app?vid=29afa83c-4bd7-4ecf-8c8a-6f1436c8ade0","ios":"levelo://app?vid=29afa83c-4bd7-4ecf-8c8a-6f1436c8ade0"},"vehicle_type_id":"4","last_reported":1701670228,"current_range_meters":30800,"station_id":"ce4bh012rcd13ifvqcv0","pricing_plan_id":"free"},{"bike_id":"7233bf92-8e9d-4e2e-8572-43cda1791189","system_id":"levelo_inurba_marseille","lat":43.309038,"lon":5.396546,"is_reserved":false,"is_disabled":false,"rental_uris":{"android":"levelo://app?vid=7233bf92-8e9d-4e2e-8572-43cda1791189","ios":"levelo://app?vid=7233bf92-8e9d-4e2e-8572-43cda1791189"},"vehicle_type_id":"4","last_reported":1701670228,"current_range_meters":31600,"station_id":"ce4bh012rcd13ifvqcv0","pricing_plan_id":"free"},{"bike_id":"fc7eda47-70e8-484a-a53b-6c0b757d7712","system_id":"levelo_inurba_marseille","lat":43.291915,"lon":5.357915,"is_reserved":false,"is_disabled":false,"rental_uris":{"android":"levelo://app?vid=fc7eda47-70e8-484a-a53b-6c0b757d7712","ios":"levelo://app?vid=fc7eda47-70e8-484a-a53b-6c0b757d7712"},"vehicle_type_id":"4","last_reported":1701670228,"current_range_meters":29600,"station_id":"ce4bhb12rcd13ifvqel0","pricing_plan_id":"free"},{"bike_id":"eaf3f2da-28a9-451c-9098-308f4ea38508","system_id":"levelo_inurba_marseille","lat":43.313291,"lon":5.396838,"is_reserved":false,"is_disabled":false,"rental_uris":{"android":"levelo://app?vid=eaf3f2da-28a9-451c-9098-308f4ea38508","ios":"levelo://app?vid=eaf3f2da-28a9-451c-9098-308f4ea38508"},"vehicle_type_id":"4","last_reported":1701670228,"current_range_meters":20000,"station_id":"ce4bgvp2rcd13ifvqcu0","pricing_plan_id":"free"},{"bike_id":"d9745710-3a86-4135-92cc-4c5435c365dc","system_id":"levelo_inurba_marseille","lat":43.31325,"lon":5.39695,"is_reserved":false,"is_disabled":false,"rental_uris":{"android":"levelo://app?vid=d9745710-3a86-4135-92cc-4c5435c365dc","ios":"levelo://app?vid=d9745710-3a86-4135-92cc-4c5435c365dc"},"vehicle_type_id":"4","last_reported":1701670228,"current_range_meters":23600,"station_id":"ce4bgvp2rcd13ifvqcu0","pricing_plan_id":"free"},{"bike_id":"72bcf27d-4cef-418d-b958-b47a1f0b9d06","system_id":"levelo_inurba_marseille","lat":43.31327,"lon":5.396976,"is_reserved":false,"is_disabled":false,"rental_uris":{"android":"levelo://app?vid=72bcf27d-4cef-418d-b958-b47a1f0b9d06","ios":"levelo://app?vid=72bcf27d-4cef-418d-b958-b47a1f0b9d06"},"vehicle_type_id":"4","last_reported":1701670228,"current_range_meters":28000,"station_id":"ce4bgvp2rcd13ifvqcu0","pricing_plan_id":"free"},{"bike_id":"3e3d717f-826d-4a64-8d46-3f73dbd5ff20","system_id":"levelo_inurba_marseille","lat":43.313291,"lon":5.396838,"is_reserved":false,"is_disabled":false,"rental_uris":{"android":"levelo://app?vid=3e3d717f-826d-4a64-8d46-3f73dbd5ff20","ios":"levelo://app?vid=3e3d717f-826d-4a64-8d46-3f73dbd5ff20"},"vehicle_type_id":"4","last_reported":1701670228,"current_range_meters":16800,"station_id":"ce4bgvp2rcd13ifvqcu0","pricing_plan_id":"free"},{"bike_id":"96fbd5d1-f3dd-479e-a32a-ec262acec379","system_id":"levelo_inurba_marseille","lat":43.290624,"lon":5.359245,"is_reserved":false,"is_disabled":false,"rental_uris":{"android":"levelo://app?vid=96fbd5d1-f3dd-479e-a32a-ec262acec379","ios":"levelo://app?vid=96fbd5d1-f3dd-479e-a32a-ec262acec379"},"vehicle_type_id":"4","last_reported":1701670228,"current_range_meters":30000,"station_id":"ce4bha92rcd13ifvqeg0","pricing_plan_id":"free"},{"bike_id":"8f144b89-dd88-4f70-a9a0-1888a6e00336","system_id":"levelo_inurba_marseille","lat":43.289184,"lon":5.366408,"is_reserved":false,"is_disabled":false,"rental_uris":{"android":"levelo://app?vid=8f144b89-dd88-4f70-a9a0-1888a6e00336","ios":"levelo://app?vid=8f144b89-dd88-4f70-a9a0-1888a6e00336"},"vehicle_type_id":"4","last_reported":1701670228,"current_range_meters":30400,"station_id":"ce4bhap2rcd13ifvqek0","pricing_plan_id":"free"},{"bike_id":"8992b905-d17b-44f0-b9b1-ed23aea04030","system_id":"levelo_inurba_marseille","lat":43.289468,"lon":5.363719,"is_reserved":false,"is_disabled":false,"rental_uris":{"android":"levelo://app?vid=8992b905-d17b-44f0-b9b1-ed23aea04030","ios":"levelo://app?vid=8992b905-d17b-44f0-b9b1-ed23aea04030"},"vehicle_type_id":"4","last_reported":1701670228,"current_range_meters":31600,"station_id":"ce4bhc92rcd13ifvqetg","pricing_plan_id":"free"},{"bike_id":"deea5e15-a3f6-4b59-bb72-51ca33304c34","system_id":"levelo_inurba_marseille","lat":43.292642,"lon":5.384254,"is_reserved":false,"is_disabled":false,"rental_uris":{"android":"levelo://app?vid=deea5e15-a3f6-4b59-bb72-51ca33304c34","ios":"levelo://app?vid=deea5e15-a3f6-4b59-bb72-51ca33304c34"},"vehicle_type_id":"4","last_reported":1701670228,"current_range_meters":25200,"station_id":"ce4bh692rcd13ifvqea0","pricing_plan_id":"free"},{"bike_id":"0d92d2f0-d8b4-4c09-9d0b-8904d0e9b131","system_id":"levelo_inurba_marseille","lat":43.292644,"lon":5.384257,"is_reserved":false,"is_disabled":false,"rental_uris":{"android":"levelo://app?vid=0d92d2f0-d8b4-4c09-9d0b-8904d0e9b131","ios":"levelo://app?vid=0d92d2f0-d8b4-4c09-9d0b-8904d0e9b131"},"vehicle_type_id":"4","last_reported":1701670228,"current_range_meters":30800,"station_id":"ce4bh692rcd13ifvqea0","pricing_plan_id":"free"},{"bike_id":"a8716510-5225-4836-8145-570bc279d209","system_id":"levelo_inurba_marseille","lat":43.292642,"lon":5.384254,"is_reserved":false,"is_disabled":false,"rental_uris":{"android":"levelo://app?vid=a8716510-5225-4836-8145-570bc279d209","ios":"levelo://app?vid=a8716510-5225-4836-8145-570bc279d209"},"vehicle_type_id":"4","last_reported":1701670228,"current_range_meters":28800,"station_id":"ce4bh692rcd13ifvqea0","pricing_plan_id":"free"},{"bike_id":"8f2ceb78-394d-4ee6-addf-b21d4ba659db","system_id":"levelo_inurba_marseille","lat":43.302235,"lon":5.396809,"is_reserved":false,"is_disabled":false,"rental_uris":{"android":"levelo://app?vid=8f2ceb78-394d-4ee6-addf-b21d4ba659db","ios":"levelo://app?vid=8f2ceb78-394d-4ee6-addf-b21d4ba659db"},"vehicle_type_id":"4","last_reported":1701670228,"current_range_meters":0,"station_id":"","pricing_plan_id":"free"},{"bike_id":"bdec4162-4bca-4d15-9c5f-2a26b8700ddd","system_id":"levelo_inurba_marseille","lat":43.289741,"lon":5.378306,"is_reserved":false,"is_disabled":false,"rental_uris":{"android":"levelo://app?vid=bdec4162-4bca-4d15-9c5f-2a26b8700ddd","ios":"levelo://app?vid=bdec4162-4bca-4d15-9c5f-2a26b8700ddd"},"vehicle_type_id":"4","last_reported":1701670228,"current_range_meters":9600,"station_id":"ce4bh9p2rcd13ifvqed0","pricing_plan_id":"free"},{"bike_id":"52efce49-5662-4bcd-8032-bb9f7fa74a93","system_id":"levelo_inurba_marseille","lat":43.297815,"lon":5.393548,"is_reserved":false,"is_disabled":false,"rental_uris":{"android":"levelo://app?vid=52efce49-5662-4bcd-8032-bb9f7fa74a93","ios":"levelo://app?vid=52efce49-5662-4bcd-8032-bb9f7fa74a93"},"vehicle_type_id":"4","last_reported":1701670228,"current_range_meters":31200,"station_id":"chh1huq6cuj3fo74tm60","pricing_plan_id":"free"},{"bike_id":"f5a97567-8a10-468d-b239-9ceccca69398","system_id":"levelo_inurba_marseille","lat":43.289743,"lon":5.378304,"is_reserved":false,"is_disabled":false,"rental_uris":{"android":"levelo://app?vid=f5a97567-8a10-468d-b239-9ceccca69398","ios":"levelo://app?vid=f5a97567-8a10-468d-b239-9ceccca69398"},"vehicle_type_id":"4","last_reported":1701670228,"current_range_meters":27200,"station_id":"ce4bh9p2rcd13ifvqed0","pricing_plan_id":"free"},{"bike_id":"99ffc156-6ae3-46bd-97d8-df8f40903781","system_id":"levelo_inurba_marseille","lat":43.28856,"lon":5.358371,"is_reserved":false,"is_disabled":false,"rental_uris":{"android":"levelo://app?vid=99ffc156-6ae3-46bd-97d8-df8f40903781","ios":"levelo://app?vid=99ffc156-6ae3-46bd-97d8-df8f40903781"},"vehicle_type_id":"4","last_reported":1701670228,"current_range_meters":21600,"station_id":"ce4bhb12rcd13ifvqem0","pricing_plan_id":"free"},{"bike_id":"c2920d2a-41a8-45fa-8bf8-58ef40b1983f","system_id":"levelo_inurba_marseille","lat":43.309371,"lon":5.401449,"is_reserved":false,"is_disabled":false,"rental_uris":{"android":"levelo://app?vid=c2920d2a-41a8-45fa-8bf8-58ef40b1983f","ios":"levelo://app?vid=c2920d2a-41a8-45fa-8bf8-58ef40b1983f"},"vehicle_type_id":"4","last_reported":1701670228,"current_range_meters":16400,"station_id":"ce4bgvp2rcd13ifvqct0","pricing_plan_id":"free"},{"bike_id":"0d80984f-884c-486f-afff-73b2c72742a7","system_id":"levelo_inurba_marseille","lat":43.28727,"lon":5.36078,"is_reserved":false,"is_disabled":false,"rental_uris":{"android":"levelo://app?vid=0d80984f-884c-486f-afff-73b2c72742a7","ios":"levelo://app?vid=0d80984f-884c-486f-afff-73b2c72742a7"},"vehicle_type_id":"4","last_reported":1701670228,"current_range_meters":26800,"station_id":"cki0cbj6b192h4jlfktg","pricing_plan_id":"free"},{"bike_id":"131cd1f4-cb9e-4152-b0fe-cb5c6d92a41e","system_id":"levelo_inurba_marseille","lat":43.316517,"lon":5.404375,"is_reserved":false,"is_disabled":false,"rental_uris":{"android":"levelo://app?vid=131cd1f4-cb9e-4152-b0fe-cb5c6d92a41e","ios":"levelo://app?vid=131cd1f4-cb9e-4152-b0fe-cb5c6d92a41e"},"vehicle_type_id":"4","last_reported":1701670228,"current_range_meters":20400,"station_id":"ce4bh012rcd13ifvqd00","pricing_plan_id":"free"},{"bike_id":"3c792f48-0f3b-4dbb-bbb9-6cb5dd486eab","system_id":"levelo_inurba_marseille","lat":43.31648,"lon":5.40448,"is_reserved":false,"is_disabled":false,"rental_uris":{"android":"levelo://app?vid=3c792f48-0f3b-4dbb-bbb9-6cb5dd486eab","ios":"levelo://app?vid=3c792f48-0f3b-4dbb-bbb9-6cb5dd486eab"},"vehicle_type_id":"4","last_reported":1701670228,"current_range_meters":29600,"station_id":"ce4bh012rcd13ifvqd00","pricing_plan_id":"free"},{"bike_id":"bc0d4711-370a-423f-8142-5f1dacde10f3","system_id":"levelo_inurba_marseille","lat":43.291994,"lon":5.392907,"is_reserved":false,"is_disabled":false,"rental_uris":{"android":"levelo://app?vid=bc0d4711-370a-423f-8142-5f1dacde10f3","ios":"levelo://app?vid=bc0d4711-370a-423f-8142-5f1dacde10f3"},"vehicle_type_id":"4","last_reported":1701670228,"current_range_meters":17200,"station_id":"ce4bh192rcd13ifvqdd0","pricing_plan_id":"free"},{"bike_id":"f8d35465-5138-48ac-8c93-08de0d00d41b","system_id":"levelo_inurba_marseille","lat":43.330947,"lon":5.39711,"is_reserved":false,"is_disabled":false,"rental_uris":{"android":"levelo://app?vid=f8d35465-5138-48ac-8c93-08de0d00d41b","ios":"levelo://app?vid=f8d35465-5138-48ac-8c93-08de0d00d41b"},"vehicle_type_id":"4","last_reported":1701670228,"current_range_meters":0,"station_id":"","pricing_plan_id":"free"},{"bike_id":"47e7ac63-2632-4ae8-9f67-dc575c2b67f4","system_id":"levelo_inurba_marseille","lat":43.284538,"lon":5.358657,"is_reserved":false,"is_disabled":false,"rental_uris":{"android":"levelo://app?vid=47e7ac63-2632-4ae8-9f67-dc575c2b67f4","ios":"levelo://app?vid=47e7ac63-2632-4ae8-9f67-dc575c2b67f4"},"vehicle_type_id":"4","last_reported":1701670228,"current_range_meters":30000,"station_id":"ce4bhah2rcd13ifvqei0","pricing_plan_id":"free"},{"bike_id":"3ac71beb-e675-49e3-a19b-656224be5f3f","system_id":"levelo_inurba_marseille","lat":43.28458,"lon":5.35897,"is_reserved":false,"is_disabled":false,"rental_uris":{"android":"levelo://app?vid=3ac71beb-e675-49e3-a19b-656224be5f3f","ios":"levelo://app?vid=3ac71beb-e675-49e3-a19b-656224be5f3f"},"vehicle_type_id":"4","last_reported":1701670228,"current_range_meters":25200,"station_id":"ce4bhah2rcd13ifvqei0","pricing_plan_id":"free"},{"bike_id":"2569df34-3794-4af3-8ee3-7bc267de8d2d","system_id":"levelo_inurba_marseille","lat":43.286164,"lon":5.351145,"is_reserved":false,"is_disabled":false,"rental_uris":{"android":"levelo://app?vid=2569df34-3794-4af3-8ee3-7bc267de8d2d","ios":"levelo://app?vid=2569df34-3794-4af3-8ee3-7bc267de8d2d"},"vehicle_type_id":"4","last_reported":1701670228,"current_range_meters":29600,"station_id":"ce4bhch2rcd13ifvqeug","pricing_plan_id":"free"},{"bike_id":"87d18e0a-348b-433f-8157-44f4defd13ba","system_id":"levelo_inurba_marseille","lat":43.285848,"lon":5.350787,"is_reserved":false,"is_disabled":false,"rental_uris":{"android":"levelo://app?vid=87d18e0a-348b-433f-8157-44f4defd13ba","ios":"levelo://app?vid=87d18e0a-348b-433f-8157-44f4defd13ba"},"vehicle_type_id":"4","last_reported":1701670228,"current_range_meters":29200,"station_id":"ce4bhch2rcd13ifvqeug","pricing_plan_id":"free"},{"bike_id":"bd2236d6-d32a-4260-8a5a-81580dd07ee1","system_id":"levelo_inurba_marseille","lat":43.28613,"lon":5.351145,"is_reserved":false,"is_disabled":false,"rental_uris":{"android":"levelo://app?vid=bd2236d6-d32a-4260-8a5a-81580dd07ee1","ios":"levelo://app?vid=bd2236d6-d32a-4260-8a5a-81580dd07ee1"},"vehicle_type_id":"4","last_reported":1701670228,"current_range_meters":25600,"station_id":"ce4bhch2rcd13ifvqeug","pricing_plan_id":"free"},{"bike_id":"91bf02ee-b469-4ffd-a3ac-0525d5290317","system_id":"levelo_inurba_marseille","lat":43.285848,"lon":5.350787,"is_reserved":false,"is_disabled":false,"rental_uris":{"android":"levelo://app?vid=91bf02ee-b469-4ffd-a3ac-0525d5290317","ios":"levelo://app?vid=91bf02ee-b469-4ffd-a3ac-0525d5290317"},"vehicle_type_id":"4","last_reported":1701670228,"current_range_meters":30800,"station_id":"ce4bhch2rcd13ifvqeug","pricing_plan_id":"free"},{"bike_id":"f857fd94-5c3c-43f3-8ed7-cefbe2550b2e","system_id":"levelo_inurba_marseille","lat":43.2861,"lon":5.35107,"is_reserved":false,"is_disabled":false,"rental_uris":{"android":"levelo://app?vid=f857fd94-5c3c-43f3-8ed7-cefbe2550b2e","ios":"levelo://app?vid=f857fd94-5c3c-43f3-8ed7-cefbe2550b2e"},"vehicle_type_id":"4","last_reported":1701670228,"current_range_meters":26800,"station_id":"ce4bhch2rcd13ifvqeug","pricing_plan_id":"free"},{"bike_id":"b686b8a8-ca19-4d96-b2a7-299d4f07bc59","system_id":"levelo_inurba_marseille","lat":43.286086,"lon":5.351108,"is_reserved":false,"is_disabled":false,"rental_uris":{"android":"levelo://app?vid=b686b8a8-ca19-4d96-b2a7-299d4f07bc59","ios":"levelo://app?vid=b686b8a8-ca19-4d96-b2a7-299d4f07bc59"},"vehicle_type_id":"4","last_reported":1701670228,"current_range_meters":30800,"station_id":"ce4bhch2rcd13ifvqeug","pricing_plan_id":"free"},{"bike_id":"52237efb-1cf8-4d3c-b293-83e00097bbca","system_id":"levelo_inurba_marseille","lat":43.285848,"lon":5.350787,"is_reserved":false,"is_disabled":false,"rental_uris":{"android":"levelo://app?vid=52237efb-1cf8-4d3c-b293-83e00097bbca","ios":"levelo://app?vid=52237efb-1cf8-4d3c-b293-83e00097bbca"},"vehicle_type_id":"4","last_reported":1701670228,"current_range_meters":27200,"station_id":"ce4bhch2rcd13ifvqeug","pricing_plan_id":"free"},{"bike_id":"a886d1ed-6d9d-421a-b6f1-329c6ea9c17a","system_id":"levelo_inurba_marseille","lat":43.284009,"lon":5.375288,"is_reserved":false,"is_disabled":false,"rental_uris":{"android":"levelo://app?vid=a886d1ed-6d9d-421a-b6f1-329c6ea9c17a","ios":"levelo://app?vid=a886d1ed-6d9d-421a-b6f1-329c6ea9c17a"},"vehicle_type_id":"4","last_reported":1701670228,"current_range_meters":15200,"station_id":"ce4bh412rcd13ifvqds0","pricing_plan_id":"free"},{"bike_id":"b5c02b46-3ab9-4994-93bc-b2f92d9d432d","system_id":"levelo_inurba_marseille","lat":43.295713,"lon":5.399639,"is_reserved":false,"is_disabled":false,"rental_uris":{"android":"levelo://app?vid=b5c02b46-3ab9-4994-93bc-b2f92d9d432d","ios":"levelo://app?vid=b5c02b46-3ab9-4994-93bc-b2f92d9d432d"},"vehicle_type_id":"4","last_reported":1701670228,"current_range_meters":26800,"station_id":"ce4bh312rcd13ifvqdj0","pricing_plan_id":"free"},{"bike_id":"9f2d8c5b-bdeb-42f8-b0e0-c9f775444842","system_id":"levelo_inurba_marseille","lat":43.286595,"lon":5.386795,"is_reserved":false,"is_disabled":false,"rental_uris":{"android":"levelo://app?vid=9f2d8c5b-bdeb-42f8-b0e0-c9f775444842","ios":"levelo://app?vid=9f2d8c5b-bdeb-42f8-b0e0-c9f775444842"},"vehicle_type_id":"4","last_reported":1701670228,"current_range_meters":24400,"station_id":"ce4bh492rcd13ifvqdug","pricing_plan_id":"free"},{"bike_id":"23a6e18e-5ad6-40cf-b6fb-7a4b1a6034c9","system_id":"levelo_inurba_marseille","lat":43.337431,"lon":5.391036,"is_reserved":false,"is_disabled":false,"rental_uris":{"android":"levelo://app?vid=23a6e18e-5ad6-40cf-b6fb-7a4b1a6034c9","ios":"levelo://app?vid=23a6e18e-5ad6-40cf-b6fb-7a4b1a6034c9"},"vehicle_type_id":"4","last_reported":1701670228,"current_range_meters":25200,"station_id":"","pricing_plan_id":"free"},{"bike_id":"4b021143-be23-4d8d-ac72-086548831286","system_id":"levelo_inurba_marseille","lat":43.33717,"lon":5.391857,"is_reserved":false,"is_disabled":false,"rental_uris":{"android":"levelo://app?vid=4b021143-be23-4d8d-ac72-086548831286","ios":"levelo://app?vid=4b021143-be23-4d8d-ac72-086548831286"},"vehicle_type_id":"4","last_reported":1701670228,"current_range_meters":31600,"station_id":"ce4bhr92rcd13ifvqhsg","pricing_plan_id":"free"},{"bike_id":"2f73a9c6-ea7c-45de-beee-438befc58a7b","system_id":"levelo_inurba_marseille","lat":43.33717,"lon":5.391857,"is_reserved":false,"is_disabled":false,"rental_uris":{"android":"levelo://app?vid=2f73a9c6-ea7c-45de-beee-438befc58a7b","ios":"levelo://app?vid=2f73a9c6-ea7c-45de-beee-438befc58a7b"},"vehicle_type_id":"4","last_reported":1701670228,"current_range_meters":16800,"station_id":"ce4bhr92rcd13ifvqhsg","pricing_plan_id":"free"},{"bike_id":"30ef6f7d-f741-4d29-a9b9-1a0a7d4d295b","system_id":"levelo_inurba_marseille","lat":43.323464,"lon":5.406297,"is_reserved":false,"is_disabled":false,"rental_uris":{"android":"levelo://app?vid=30ef6f7d-f741-4d29-a9b9-1a0a7d4d295b","ios":"levelo://app?vid=30ef6f7d-f741-4d29-a9b9-1a0a7d4d295b"},"vehicle_type_id":"4","last_reported":1701670228,"current_range_meters":30800,"station_id":"ce4bhq92rcd13ifvqhjg","pricing_plan_id":"free"},{"bike_id":"efb4f915-761d-48fa-ad68-f8a10ea8b0a2","system_id":"levelo_inurba_marseille","lat":43.288501,"lon":5.393087,"is_reserved":false,"is_disabled":false,"rental_uris":{"android":"levelo://app?vid=efb4f915-761d-48fa-ad68-f8a10ea8b0a2","ios":"levelo://app?vid=efb4f915-761d-48fa-ad68-f8a10ea8b0a2"},"vehicle_type_id":"4","last_reported":1701670228,"current_range_meters":31600,"station_id":"ce4bh2p2rcd13ifvqdi0","pricing_plan_id":"free"},{"bike_id":"80bffc9e-71c8-4bd9-8fc0-4b132071db62","system_id":"levelo_inurba_marseille","lat":43.29795,"lon":5.404086,"is_reserved":false,"is_disabled":false,"rental_uris":{"android":"levelo://app?vid=80bffc9e-71c8-4bd9-8fc0-4b132071db62","ios":"levelo://app?vid=80bffc9e-71c8-4bd9-8fc0-4b132071db62"},"vehicle_type_id":"4","last_reported":1701670228,"current_range_meters":24000,"station_id":"ce4bh112rcd13ifvqd90","pricing_plan_id":"free"},{"bike_id":"ab3c6bd3-96f6-4089-a881-a2a0e0d0c77e","system_id":"levelo_inurba_marseille","lat":43.283494,"lon":5.380945,"is_reserved":false,"is_disabled":false,"rental_uris":{"android":"levelo://app?vid=ab3c6bd3-96f6-4089-a881-a2a0e0d0c77e","ios":"levelo://app?vid=ab3c6bd3-96f6-4089-a881-a2a0e0d0c77e"},"vehicle_type_id":"4","last_reported":1701670228,"current_range_meters":1600,"station_id":"ce4bh412rcd13ifvqdr0","pricing_plan_id":"free"},{"bike_id":"f0c73df2-15dd-46fc-8c33-486882166415","system_id":"levelo_inurba_marseille","lat":43.284219,"lon":5.3497,"is_reserved":false,"is_disabled":false,"rental_uris":{"android":"levelo://app?vid=f0c73df2-15dd-46fc-8c33-486882166415","ios":"levelo://app?vid=f0c73df2-15dd-46fc-8c33-486882166415"},"vehicle_type_id":"4","last_reported":1701670228,"current_range_meters":28400,"station_id":"ce4bhbh2rcd13ifvqepg","pricing_plan_id":"free"},{"bike_id":"35abd5fe-92ce-409a-bfcf-b955b29a762f","system_id":"levelo_inurba_marseille","lat":43.289363,"lon":5.396322,"is_reserved":false,"is_disabled":false,"rental_uris":{"android":"levelo://app?vid=35abd5fe-92ce-409a-bfcf-b955b29a762f","ios":"levelo://app?vid=35abd5fe-92ce-409a-bfcf-b955b29a762f"},"vehicle_type_id":"4","last_reported":1701670228,"current_range_meters":26000,"station_id":"ce4bh3h2rcd13ifvqdn0","pricing_plan_id":"free"},{"bike_id":"cf80e34c-35c8-42a2-a96c-85f7ea90c382","system_id":"levelo_inurba_marseille","lat":43.283502,"lon":5.386471,"is_reserved":false,"is_disabled":false,"rental_uris":{"android":"levelo://app?vid=cf80e34c-35c8-42a2-a96c-85f7ea90c382","ios":"levelo://app?vid=cf80e34c-35c8-42a2-a96c-85f7ea90c382"},"vehicle_type_id":"4","last_reported":1701670228,"current_range_meters":17200,"station_id":"ce4bh492rcd13ifvqdvg","pricing_plan_id":"free"},{"bike_id":"68a76a1a-3048-45e0-af52-9eb8e1d0b701","system_id":"levelo_inurba_marseille","lat":43.282754,"lon":5.350519,"is_reserved":false,"is_disabled":false,"rental_uris":{"android":"levelo://app?vid=68a76a1a-3048-45e0-af52-9eb8e1d0b701","ios":"levelo://app?vid=68a76a1a-3048-45e0-af52-9eb8e1d0b701"},"vehicle_type_id":"4","last_reported":1701670228,"current_range_meters":28400,"station_id":"ce4bhbp2rcd13ifvqerg","pricing_plan_id":"free"},{"bike_id":"43736ce2-e0ef-4b8d-88d7-96224295acc2","system_id":"levelo_inurba_marseille","lat":43.283502,"lon":5.386471,"is_reserved":false,"is_disabled":false,"rental_uris":{"android":"levelo://app?vid=43736ce2-e0ef-4b8d-88d7-96224295acc2","ios":"levelo://app?vid=43736ce2-e0ef-4b8d-88d7-96224295acc2"},"vehicle_type_id":"4","last_reported":1701670228,"current_range_meters":26000,"station_id":"ce4bh492rcd13ifvqdvg","pricing_plan_id":"free"},{"bike_id":"ffd0f445-c315-47d0-bd2e-08562e20ea25","system_id":"levelo_inurba_marseille","lat":43.282744,"lon":5.350533,"is_reserved":false,"is_disabled":false,"rental_uris":{"android":"levelo://app?vid=ffd0f445-c315-47d0-bd2e-08562e20ea25","ios":"levelo://app?vid=ffd0f445-c315-47d0-bd2e-08562e20ea25"},"vehicle_type_id":"4","last_reported":1701670228,"current_range_meters":27200,"station_id":"ce4bhbp2rcd13ifvqerg","pricing_plan_id":"free"},{"bike_id":"be3d731f-340c-4afc-b716-ca40d5764240","system_id":"levelo_inurba_marseille","lat":43.283502,"lon":5.386471,"is_reserved":false,"is_disabled":false,"rental_uris":{"android":"levelo://app?vid=be3d731f-340c-4afc-b716-ca40d5764240","ios":"levelo://app?vid=be3d731f-340c-4afc-b716-ca40d5764240"},"vehicle_type_id":"4","last_reported":1701670228,"current_range_meters":31600,"station_id":"ce4bh492rcd13ifvqdvg","pricing_plan_id":"free"},{"bike_id":"1e60cd7c-2ea1-4794-9aca-b05cbb6cc2c6","system_id":"levelo_inurba_marseille","lat":43.280413,"lon":5.369486,"is_reserved":false,"is_disabled":false,"rental_uris":{"android":"levelo://app?vid=1e60cd7c-2ea1-4794-9aca-b05cbb6cc2c6","ios":"levelo://app?vid=1e60cd7c-2ea1-4794-9aca-b05cbb6cc2c6"},"vehicle_type_id":"4","last_reported":1701670228,"current_range_meters":31200,"station_id":"ce4bha12rcd13ifvqef0","pricing_plan_id":"free"},{"bike_id":"1ab6e409-57c6-4823-83ed-9b2fb9583988","system_id":"levelo_inurba_marseille","lat":43.283502,"lon":5.386471,"is_reserved":false,"is_disabled":false,"rental_uris":{"android":"levelo://app?vid=1ab6e409-57c6-4823-83ed-9b2fb9583988","ios":"levelo://app?vid=1ab6e409-57c6-4823-83ed-9b2fb9583988"},"vehicle_type_id":"4","last_reported":1701670228,"current_range_meters":14800,"station_id":"ce4bh492rcd13ifvqdvg","pricing_plan_id":"free"},{"bike_id":"570f6efa-fb40-4e1b-af98-52b2809cbf59","system_id":"levelo_inurba_marseille","lat":43.29039,"lon":5.399506,"is_reserved":false,"is_disabled":false,"rental_uris":{"android":"levelo://app?vid=570f6efa-fb40-4e1b-af98-52b2809cbf59","ios":"levelo://app?vid=570f6efa-fb40-4e1b-af98-52b2809cbf59"},"vehicle_type_id":"4","last_reported":1701670228,"current_range_meters":25200,"station_id":"ce4bh392rcd13ifvqdm0","pricing_plan_id":"free"},{"bike_id":"d34773e4-53de-42ff-b5e5-b94ea94ea31f","system_id":"levelo_inurba_marseille","lat":43.290423,"lon":5.399642,"is_reserved":false,"is_disabled":false,"rental_uris":{"android":"levelo://app?vid=d34773e4-53de-42ff-b5e5-b94ea94ea31f","ios":"levelo://app?vid=d34773e4-53de-42ff-b5e5-b94ea94ea31f"},"vehicle_type_id":"4","last_reported":1701670228,"current_range_meters":28800,"station_id":"ce4bh392rcd13ifvqdm0","pricing_plan_id":"free"},{"bike_id":"96207197-1a09-412a-9210-4cb5a4ecfae4","system_id":"levelo_inurba_marseille","lat":43.290339,"lon":5.399626,"is_reserved":false,"is_disabled":false,"rental_uris":{"android":"levelo://app?vid=96207197-1a09-412a-9210-4cb5a4ecfae4","ios":"levelo://app?vid=96207197-1a09-412a-9210-4cb5a4ecfae4"},"vehicle_type_id":"4","last_reported":1701670228,"current_range_meters":17200,"station_id":"ce4bh392rcd13ifvqdm0","pricing_plan_id":"free"},{"bike_id":"15e0c3a2-1b3f-456d-a0e5-fc530044759e","system_id":"levelo_inurba_marseille","lat":43.2904,"lon":5.39971,"is_reserved":false,"is_disabled":false,"rental_uris":{"android":"levelo://app?vid=15e0c3a2-1b3f-456d-a0e5-fc530044759e","ios":"levelo://app?vid=15e0c3a2-1b3f-456d-a0e5-fc530044759e"},"vehicle_type_id":"4","last_reported":1701670228,"current_range_meters":26400,"station_id":"ce4bh392rcd13ifvqdm0","pricing_plan_id":"free"},{"bike_id":"96559383-a678-4cf5-9a80-ec586428b8ff","system_id":"levelo_inurba_marseille","lat":43.290425,"lon":5.399745,"is_reserved":false,"is_disabled":false,"rental_uris":{"android":"levelo://app?vid=96559383-a678-4cf5-9a80-ec586428b8ff","ios":"levelo://app?vid=96559383-a678-4cf5-9a80-ec586428b8ff"},"vehicle_type_id":"4","last_reported":1701670228,"current_range_meters":26000,"station_id":"ce4bh392rcd13ifvqdm0","pricing_plan_id":"free"},{"bike_id":"dbcbf86b-13a4-4678-8bd9-66eca4d1e0c7","system_id":"levelo_inurba_marseille","lat":43.290351,"lon":5.399694,"is_reserved":false,"is_disabled":false,"rental_uris":{"android":"levelo://app?vid=dbcbf86b-13a4-4678-8bd9-66eca4d1e0c7","ios":"levelo://app?vid=dbcbf86b-13a4-4678-8bd9-66eca4d1e0c7"},"vehicle_type_id":"4","last_reported":1701670228,"current_range_meters":27600,"station_id":"ce4bh392rcd13ifvqdm0","pricing_plan_id":"free"},{"bike_id":"c2e7ec07-25a3-4392-b6e1-4106c5c3194d","system_id":"levelo_inurba_marseille","lat":43.290366,"lon":5.399714,"is_reserved":false,"is_disabled":false,"rental_uris":{"android":"levelo://app?vid=c2e7ec07-25a3-4392-b6e1-4106c5c3194d","ios":"levelo://app?vid=c2e7ec07-25a3-4392-b6e1-4106c5c3194d"},"vehicle_type_id":"4","last_reported":1701670228,"current_range_meters":17600,"station_id":"ce4bh392rcd13ifvqdm0","pricing_plan_id":"free"},{"bike_id":"e5233931-1b72-4a0d-a95d-e0549c9dbf7b","system_id":"levelo_inurba_marseille","lat":43.290325,"lon":5.399663,"is_reserved":false,"is_disabled":false,"rental_uris":{"android":"levelo://app?vid=e5233931-1b72-4a0d-a95d-e0549c9dbf7b","ios":"levelo://app?vid=e5233931-1b72-4a0d-a95d-e0549c9dbf7b"},"vehicle_type_id":"4","last_reported":1701670228,"current_range_meters":27600,"station_id":"ce4bh392rcd13ifvqdm0","pricing_plan_id":"free"},{"bike_id":"22e16aa0-943e-4392-baa8-d7779108c3f6","system_id":"levelo_inurba_marseille","lat":43.290352,"lon":5.399708,"is_reserved":false,"is_disabled":false,"rental_uris":{"android":"levelo://app?vid=22e16aa0-943e-4392-baa8-d7779108c3f6","ios":"levelo://app?vid=22e16aa0-943e-4392-baa8-d7779108c3f6"},"vehicle_type_id":"4","last_reported":1701670228,"current_range_meters":24800,"station_id":"ce4bh392rcd13ifvqdm0","pricing_plan_id":"free"},{"bike_id":"71d699ef-34cb-4fb5-b790-9187a787ae0c","system_id":"levelo_inurba_marseille","lat":43.290334,"lon":5.399717,"is_reserved":false,"is_disabled":false,"rental_uris":{"android":"levelo://app?vid=71d699ef-34cb-4fb5-b790-9187a787ae0c","ios":"levelo://app?vid=71d699ef-34cb-4fb5-b790-9187a787ae0c"},"vehicle_type_id":"4","last_reported":1701670228,"current_range_meters":24400,"station_id":"ce4bh392rcd13ifvqdm0","pricing_plan_id":"free"},{"bike_id":"24c3c60d-c67e-4865-81ff-736fa4ff165d","system_id":"levelo_inurba_marseille","lat":43.290353,"lon":5.399749,"is_reserved":false,"is_disabled":false,"rental_uris":{"android":"levelo://app?vid=24c3c60d-c67e-4865-81ff-736fa4ff165d","ios":"levelo://app?vid=24c3c60d-c67e-4865-81ff-736fa4ff165d"},"vehicle_type_id":"4","last_reported":1701670228,"current_range_meters":18400,"station_id":"ce4bh392rcd13ifvqdm0","pricing_plan_id":"free"},{"bike_id":"889da68a-4ee9-4663-a628-b18a37e19ac1","system_id":"levelo_inurba_marseille","lat":43.290305,"lon":5.39972,"is_reserved":false,"is_disabled":false,"rental_uris":{"android":"levelo://app?vid=889da68a-4ee9-4663-a628-b18a37e19ac1","ios":"levelo://app?vid=889da68a-4ee9-4663-a628-b18a37e19ac1"},"vehicle_type_id":"4","last_reported":1701670228,"current_range_meters":29200,"station_id":"ce4bh392rcd13ifvqdm0","pricing_plan_id":"free"},{"bike_id":"596a10dd-4ed5-4e09-b61d-66b163227f65","system_id":"levelo_inurba_marseille","lat":43.279087,"lon":5.380114,"is_reserved":false,"is_disabled":false,"rental_uris":{"android":"levelo://app?vid=596a10dd-4ed5-4e09-b61d-66b163227f65","ios":"levelo://app?vid=596a10dd-4ed5-4e09-b61d-66b163227f65"},"vehicle_type_id":"4","last_reported":1701670228,"current_range_meters":21600,"station_id":"ce4bhf92rcd13ifvqf50","pricing_plan_id":"free"},{"bike_id":"b848ff14-94cc-4bd7-9eb1-09264e2f3d95","system_id":"levelo_inurba_marseille","lat":43.320045,"lon":5.415048,"is_reserved":false,"is_disabled":false,"rental_uris":{"android":"levelo://app?vid=b848ff14-94cc-4bd7-9eb1-09264e2f3d95","ios":"levelo://app?vid=b848ff14-94cc-4bd7-9eb1-09264e2f3d95"},"vehicle_type_id":"4","last_reported":1701670228,"current_range_meters":18400,"station_id":"ce4bhq92rcd13ifvqhkg","pricing_plan_id":"free"},{"bike_id":"c8159ce1-4417-42f0-9ad7-233c055c89f9","system_id":"levelo_inurba_marseille","lat":43.320045,"lon":5.415048,"is_reserved":false,"is_disabled":false,"rental_uris":{"android":"levelo://app?vid=c8159ce1-4417-42f0-9ad7-233c055c89f9","ios":"levelo://app?vid=c8159ce1-4417-42f0-9ad7-233c055c89f9"},"vehicle_type_id":"4","last_reported":1701670228,"current_range_meters":31600,"station_id":"ce4bhq92rcd13ifvqhkg","pricing_plan_id":"free"},{"bike_id":"097c96f8-84ee-41ee-b796-e491ace19258","system_id":"levelo_inurba_marseille","lat":43.292569,"lon":5.409107,"is_reserved":false,"is_disabled":false,"rental_uris":{"android":"levelo://app?vid=097c96f8-84ee-41ee-b796-e491ace19258","ios":"levelo://app?vid=097c96f8-84ee-41ee-b796-e491ace19258"},"vehicle_type_id":"4","last_reported":1701670228,"current_range_meters":31600,"station_id":"ce4bh192rcd13ifvqdc0","pricing_plan_id":"free"},{"bike_id":"5a25bf69-6178-4680-ba62-eb181662b01d","system_id":"levelo_inurba_marseille","lat":43.325243,"lon":5.414326,"is_reserved":false,"is_disabled":false,"rental_uris":{"android":"levelo://app?vid=5a25bf69-6178-4680-ba62-eb181662b01d","ios":"levelo://app?vid=5a25bf69-6178-4680-ba62-eb181662b01d"},"vehicle_type_id":"4","last_reported":1701670228,"current_range_meters":27200,"station_id":"ce4bhq12rcd13ifvqhhg","pricing_plan_id":"free"},{"bike_id":"7bd2208d-341e-43cb-9d17-06f746e5d7a8","system_id":"levelo_inurba_marseille","lat":43.27611,"lon":5.36108,"is_reserved":false,"is_disabled":false,"rental_uris":{"android":"levelo://app?vid=7bd2208d-341e-43cb-9d17-06f746e5d7a8","ios":"levelo://app?vid=7bd2208d-341e-43cb-9d17-06f746e5d7a8"},"vehicle_type_id":"4","last_reported":1701670228,"current_range_meters":0,"station_id":"ce4bgj92rcd13ifvqbe0","pricing_plan_id":"free"},{"bike_id":"b6e6a6da-66e0-4775-8fca-cdd55e40c427","system_id":"levelo_inurba_marseille","lat":43.273613,"lon":5.362705,"is_reserved":false,"is_disabled":false,"rental_uris":{"android":"levelo://app?vid=b6e6a6da-66e0-4775-8fca-cdd55e40c427","ios":"levelo://app?vid=b6e6a6da-66e0-4775-8fca-cdd55e40c427"},"vehicle_type_id":"4","last_reported":1701670228,"current_range_meters":22800,"station_id":"ce4bhbh2rcd13ifvqeo0","pricing_plan_id":"free"},{"bike_id":"82055c14-bffe-447e-8bce-741f81c4ad72","system_id":"levelo_inurba_marseille","lat":43.273613,"lon":5.362705,"is_reserved":false,"is_disabled":false,"rental_uris":{"android":"levelo://app?vid=82055c14-bffe-447e-8bce-741f81c4ad72","ios":"levelo://app?vid=82055c14-bffe-447e-8bce-741f81c4ad72"},"vehicle_type_id":"4","last_reported":1701670228,"current_range_meters":19600,"station_id":"ce4bhbh2rcd13ifvqeo0","pricing_plan_id":"free"},{"bike_id":"f536eeb4-cc05-40fa-b8ef-2dc48313eddb","system_id":"levelo_inurba_marseille","lat":43.273613,"lon":5.362705,"is_reserved":false,"is_disabled":false,"rental_uris":{"android":"levelo://app?vid=f536eeb4-cc05-40fa-b8ef-2dc48313eddb","ios":"levelo://app?vid=f536eeb4-cc05-40fa-b8ef-2dc48313eddb"},"vehicle_type_id":"4","last_reported":1701670228,"current_range_meters":31600,"station_id":"ce4bhbh2rcd13ifvqeo0","pricing_plan_id":"free"},{"bike_id":"8a0e7938-1d64-4254-a270-22f5c0986632","system_id":"levelo_inurba_marseille","lat":43.273609,"lon":5.362708,"is_reserved":false,"is_disabled":false,"rental_uris":{"android":"levelo://app?vid=8a0e7938-1d64-4254-a270-22f5c0986632","ios":"levelo://app?vid=8a0e7938-1d64-4254-a270-22f5c0986632"},"vehicle_type_id":"4","last_reported":1701670228,"current_range_meters":22800,"station_id":"ce4bhbh2rcd13ifvqeo0","pricing_plan_id":"free"},{"bike_id":"728fbd19-ef99-4e0a-ab51-ca3bb2c3f515","system_id":"levelo_inurba_marseille","lat":43.273609,"lon":5.362708,"is_reserved":false,"is_disabled":false,"rental_uris":{"android":"levelo://app?vid=728fbd19-ef99-4e0a-ab51-ca3bb2c3f515","ios":"levelo://app?vid=728fbd19-ef99-4e0a-ab51-ca3bb2c3f515"},"vehicle_type_id":"4","last_reported":1701670228,"current_range_meters":30400,"station_id":"ce4bhbh2rcd13ifvqeo0","pricing_plan_id":"free"},{"bike_id":"65b985ec-9b0b-4cc2-b49c-1b93f61295be","system_id":"levelo_inurba_marseille","lat":43.273609,"lon":5.362708,"is_reserved":false,"is_disabled":false,"rental_uris":{"android":"levelo://app?vid=65b985ec-9b0b-4cc2-b49c-1b93f61295be","ios":"levelo://app?vid=65b985ec-9b0b-4cc2-b49c-1b93f61295be"},"vehicle_type_id":"4","last_reported":1701670228,"current_range_meters":31600,"station_id":"ce4bhbh2rcd13ifvqeo0","pricing_plan_id":"free"},{"bike_id":"ae9af643-001e-42d9-8c47-cb12ff606b64","system_id":"levelo_inurba_marseille","lat":43.317249,"lon":5.423969,"is_reserved":false,"is_disabled":false,"rental_uris":{"android":"levelo://app?vid=ae9af643-001e-42d9-8c47-cb12ff606b64","ios":"levelo://app?vid=ae9af643-001e-42d9-8c47-cb12ff606b64"},"vehicle_type_id":"4","last_reported":1701670228,"current_range_meters":15200,"station_id":"ce4bhp92rcd13ifvqhbg","pricing_plan_id":"free"},{"bike_id":"cb1010f4-fa9f-4bbc-b283-d588277e480a","system_id":"levelo_inurba_marseille","lat":43.31723,"lon":5.42399,"is_reserved":false,"is_disabled":false,"rental_uris":{"android":"levelo://app?vid=cb1010f4-fa9f-4bbc-b283-d588277e480a","ios":"levelo://app?vid=cb1010f4-fa9f-4bbc-b283-d588277e480a"},"vehicle_type_id":"4","last_reported":1701670228,"current_range_meters":23200,"station_id":"ce4bhp92rcd13ifvqhbg","pricing_plan_id":"free"},{"bike_id":"beb4f65b-565b-471b-a5cf-67fe74ae7ee4","system_id":"levelo_inurba_marseille","lat":43.31726,"lon":5.424,"is_reserved":false,"is_disabled":false,"rental_uris":{"android":"levelo://app?vid=beb4f65b-565b-471b-a5cf-67fe74ae7ee4","ios":"levelo://app?vid=beb4f65b-565b-471b-a5cf-67fe74ae7ee4"},"vehicle_type_id":"4","last_reported":1701670228,"current_range_meters":3600,"station_id":"ce4bhp92rcd13ifvqhbg","pricing_plan_id":"free"},{"bike_id":"4c266738-4562-4ce1-aca7-b04f03b275b5","system_id":"levelo_inurba_marseille","lat":43.317121,"lon":5.423936,"is_reserved":false,"is_disabled":false,"rental_uris":{"android":"levelo://app?vid=4c266738-4562-4ce1-aca7-b04f03b275b5","ios":"levelo://app?vid=4c266738-4562-4ce1-aca7-b04f03b275b5"},"vehicle_type_id":"4","last_reported":1701670228,"current_range_meters":30000,"station_id":"ce4bhp92rcd13ifvqhbg","pricing_plan_id":"free"},{"bike_id":"ba2cdc49-316c-4fb7-ae87-5812c3ece311","system_id":"levelo_inurba_marseille","lat":43.317221,"lon":5.424063,"is_reserved":false,"is_disabled":false,"rental_uris":{"android":"levelo://app?vid=ba2cdc49-316c-4fb7-ae87-5812c3ece311","ios":"levelo://app?vid=ba2cdc49-316c-4fb7-ae87-5812c3ece311"},"vehicle_type_id":"4","last_reported":1701670228,"current_range_meters":30800,"station_id":"ce4bhp92rcd13ifvqhbg","pricing_plan_id":"free"},{"bike_id":"910fd3aa-d2e0-4553-894a-6161d41c7fcd","system_id":"levelo_inurba_marseille","lat":43.27609,"lon":5.39475,"is_reserved":false,"is_disabled":false,"rental_uris":{"android":"levelo://app?vid=910fd3aa-d2e0-4553-894a-6161d41c7fcd","ios":"levelo://app?vid=910fd3aa-d2e0-4553-894a-6161d41c7fcd"},"vehicle_type_id":"4","last_reported":1701670228,"current_range_meters":12400,"station_id":"","pricing_plan_id":"free"},{"bike_id":"fb1e7928-1de9-4c43-97dc-e729ab674c6a","system_id":"levelo_inurba_marseille","lat":43.31723,"lon":5.42417,"is_reserved":false,"is_disabled":false,"rental_uris":{"android":"levelo://app?vid=fb1e7928-1de9-4c43-97dc-e729ab674c6a","ios":"levelo://app?vid=fb1e7928-1de9-4c43-97dc-e729ab674c6a"},"vehicle_type_id":"4","last_reported":1701670228,"current_range_meters":24800,"station_id":"ce4bhp92rcd13ifvqhbg","pricing_plan_id":"free"},{"bike_id":"68a6da79-fcec-47bb-ba2a-4d818fc0e4f8","system_id":"levelo_inurba_marseille","lat":43.340804,"lon":5.410219,"is_reserved":false,"is_disabled":false,"rental_uris":{"android":"levelo://app?vid=68a6da79-fcec-47bb-ba2a-4d818fc0e4f8","ios":"levelo://app?vid=68a6da79-fcec-47bb-ba2a-4d818fc0e4f8"},"vehicle_type_id":"4","last_reported":1701670228,"current_range_meters":27200,"station_id":"ce4bhqh2rcd13ifvqhlg","pricing_plan_id":"free"},{"bike_id":"8583a456-009f-4ce4-99a2-cd24342591d6","system_id":"levelo_inurba_marseille","lat":43.340804,"lon":5.410219,"is_reserved":false,"is_disabled":false,"rental_uris":{"android":"levelo://app?vid=8583a456-009f-4ce4-99a2-cd24342591d6","ios":"levelo://app?vid=8583a456-009f-4ce4-99a2-cd24342591d6"},"vehicle_type_id":"4","last_reported":1701670228,"current_range_meters":29600,"station_id":"ce4bhqh2rcd13ifvqhlg","pricing_plan_id":"free"},{"bike_id":"37c08c48-95e9-45aa-a491-180f3882fc9d","system_id":"levelo_inurba_marseille","lat":43.304096,"lon":5.425385,"is_reserved":false,"is_disabled":false,"rental_uris":{"android":"levelo://app?vid=37c08c48-95e9-45aa-a491-180f3882fc9d","ios":"levelo://app?vid=37c08c48-95e9-45aa-a491-180f3882fc9d"},"vehicle_type_id":"4","last_reported":1701670228,"current_range_meters":23200,"station_id":"ce4bhoh2rcd13ifvqh6g","pricing_plan_id":"free"},{"bike_id":"16ed0702-3beb-465e-8f72-aa4e21e2a2dc","system_id":"levelo_inurba_marseille","lat":43.295511,"lon":5.422926,"is_reserved":false,"is_disabled":false,"rental_uris":{"android":"levelo://app?vid=16ed0702-3beb-465e-8f72-aa4e21e2a2dc","ios":"levelo://app?vid=16ed0702-3beb-465e-8f72-aa4e21e2a2dc"},"vehicle_type_id":"4","last_reported":1701670228,"current_range_meters":31600,"station_id":"ce4bhph2rcd13ifvqhdg","pricing_plan_id":"free"},{"bike_id":"da40dd33-dee2-49bb-9461-260e39c60715","system_id":"levelo_inurba_marseille","lat":43.272116,"lon":5.391747,"is_reserved":false,"is_disabled":false,"rental_uris":{"android":"levelo://app?vid=da40dd33-dee2-49bb-9461-260e39c60715","ios":"levelo://app?vid=da40dd33-dee2-49bb-9461-260e39c60715"},"vehicle_type_id":"4","last_reported":1701670228,"current_range_meters":25600,"station_id":"ce4bhhp2rcd13ifvqfm0","pricing_plan_id":"free"},{"bike_id":"6b1af463-319c-4ec7-900e-4c248fc9af9e","system_id":"levelo_inurba_marseille","lat":43.278128,"lon":5.407195,"is_reserved":false,"is_disabled":false,"rental_uris":{"android":"levelo://app?vid=6b1af463-319c-4ec7-900e-4c248fc9af9e","ios":"levelo://app?vid=6b1af463-319c-4ec7-900e-4c248fc9af9e"},"vehicle_type_id":"4","last_reported":1701670228,"current_range_meters":31600,"station_id":"ce4bhnh2rcd13ifvqgtg","pricing_plan_id":"free"},{"bike_id":"e138e379-cf4c-482a-9eaa-737bb95ddb48","system_id":"levelo_inurba_marseille","lat":43.269467,"lon":5.386439,"is_reserved":false,"is_disabled":false,"rental_uris":{"android":"levelo://app?vid=e138e379-cf4c-482a-9eaa-737bb95ddb48","ios":"levelo://app?vid=e138e379-cf4c-482a-9eaa-737bb95ddb48"},"vehicle_type_id":"4","last_reported":1701670228,"current_range_meters":0,"station_id":"ce4bhh92rcd13ifvqfh0","pricing_plan_id":"free"},{"bike_id":"16ddbb58-e637-4c26-abf3-cec6ea4079ec","system_id":"levelo_inurba_marseille","lat":43.269467,"lon":5.386439,"is_reserved":false,"is_disabled":false,"rental_uris":{"android":"levelo://app?vid=16ddbb58-e637-4c26-abf3-cec6ea4079ec","ios":"levelo://app?vid=16ddbb58-e637-4c26-abf3-cec6ea4079ec"},"vehicle_type_id":"4","last_reported":1701670228,"current_range_meters":24000,"station_id":"ce4bhh92rcd13ifvqfh0","pricing_plan_id":"free"},{"bike_id":"d6bd0d5c-ab30-485f-8ce1-cf2a2d8b99aa","system_id":"levelo_inurba_marseille","lat":43.279465,"lon":5.410561,"is_reserved":false,"is_disabled":false,"rental_uris":{"android":"levelo://app?vid=d6bd0d5c-ab30-485f-8ce1-cf2a2d8b99aa","ios":"levelo://app?vid=d6bd0d5c-ab30-485f-8ce1-cf2a2d8b99aa"},"vehicle_type_id":"4","last_reported":1701670228,"current_range_meters":12000,"station_id":"ce4bhnp2rcd13ifvqh0g","pricing_plan_id":"free"},{"bike_id":"3a085ded-79fe-4229-ba36-720621cc3c5b","system_id":"levelo_inurba_marseille","lat":43.28007,"lon":5.41662,"is_reserved":false,"is_disabled":false,"rental_uris":{"android":"levelo://app?vid=3a085ded-79fe-4229-ba36-720621cc3c5b","ios":"levelo://app?vid=3a085ded-79fe-4229-ba36-720621cc3c5b"},"vehicle_type_id":"4","last_reported":1701670228,"current_range_meters":25600,"station_id":"ce4bho12rcd13ifvqh1g","pricing_plan_id":"free"},{"bike_id":"aef0d528-7ec1-4089-a541-e8568c02782e","system_id":"levelo_inurba_marseille","lat":43.27996,"lon":5.416624,"is_reserved":false,"is_disabled":false,"rental_uris":{"android":"levelo://app?vid=aef0d528-7ec1-4089-a541-e8568c02782e","ios":"levelo://app?vid=aef0d528-7ec1-4089-a541-e8568c02782e"},"vehicle_type_id":"4","last_reported":1701670228,"current_range_meters":25600,"station_id":"ce4bho12rcd13ifvqh1g","pricing_plan_id":"free"},{"bike_id":"a7006dc4-5865-4f95-bbaa-abd53a4cee13","system_id":"levelo_inurba_marseille","lat":43.27996,"lon":5.416624,"is_reserved":false,"is_disabled":false,"rental_uris":{"android":"levelo://app?vid=a7006dc4-5865-4f95-bbaa-abd53a4cee13","ios":"levelo://app?vid=a7006dc4-5865-4f95-bbaa-abd53a4cee13"},"vehicle_type_id":"4","last_reported":1701670228,"current_range_meters":9200,"station_id":"ce4bho12rcd13ifvqh1g","pricing_plan_id":"free"},{"bike_id":"cba086ce-2e3e-44ca-8159-8c49eaee25e6","system_id":"levelo_inurba_marseille","lat":43.27996,"lon":5.416624,"is_reserved":false,"is_disabled":false,"rental_uris":{"android":"levelo://app?vid=cba086ce-2e3e-44ca-8159-8c49eaee25e6","ios":"levelo://app?vid=cba086ce-2e3e-44ca-8159-8c49eaee25e6"},"vehicle_type_id":"4","last_reported":1701670228,"current_range_meters":31600,"station_id":"ce4bho12rcd13ifvqh1g","pricing_plan_id":"free"},{"bike_id":"ab1261d9-d8e9-4c1b-b14d-57a40a679a18","system_id":"levelo_inurba_marseille","lat":43.279893,"lon":5.416621,"is_reserved":false,"is_disabled":false,"rental_uris":{"android":"levelo://app?vid=ab1261d9-d8e9-4c1b-b14d-57a40a679a18","ios":"levelo://app?vid=ab1261d9-d8e9-4c1b-b14d-57a40a679a18"},"vehicle_type_id":"4","last_reported":1701670228,"current_range_meters":26400,"station_id":"ce4bho12rcd13ifvqh1g","pricing_plan_id":"free"},{"bike_id":"dc1148e6-327f-4b57-8e91-cc724d9ac120","system_id":"levelo_inurba_marseille","lat":43.27996,"lon":5.416624,"is_reserved":false,"is_disabled":false,"rental_uris":{"android":"levelo://app?vid=dc1148e6-327f-4b57-8e91-cc724d9ac120","ios":"levelo://app?vid=dc1148e6-327f-4b57-8e91-cc724d9ac120"},"vehicle_type_id":"4","last_reported":1701670228,"current_range_meters":17600,"station_id":"ce4bho12rcd13ifvqh1g","pricing_plan_id":"free"},{"bike_id":"08c0ebf9-bf3e-4259-9641-66f2fdb4dde0","system_id":"levelo_inurba_marseille","lat":43.317104,"lon":5.436818,"is_reserved":false,"is_disabled":false,"rental_uris":{"android":"levelo://app?vid=08c0ebf9-bf3e-4259-9641-66f2fdb4dde0","ios":"levelo://app?vid=08c0ebf9-bf3e-4259-9641-66f2fdb4dde0"},"vehicle_type_id":"4","last_reported":1701670228,"current_range_meters":30000,"station_id":"ce4bhp92rcd13ifvqhcg","pricing_plan_id":"free"},{"bike_id":"16ca5034-dda5-41f3-af77-a51c764d9f5b","system_id":"levelo_inurba_marseille","lat":43.261782,"lon":5.374515,"is_reserved":false,"is_disabled":false,"rental_uris":{"android":"levelo://app?vid=16ca5034-dda5-41f3-af77-a51c764d9f5b","ios":"levelo://app?vid=16ca5034-dda5-41f3-af77-a51c764d9f5b"},"vehicle_type_id":"4","last_reported":1701670228,"current_range_meters":13200,"station_id":"ce4bhgp2rcd13ifvqfc0","pricing_plan_id":"free"},{"bike_id":"b3a4a88c-d155-447c-ad55-fd92c25575ce","system_id":"levelo_inurba_marseille","lat":43.262012,"lon":5.379307,"is_reserved":false,"is_disabled":false,"rental_uris":{"android":"levelo://app?vid=b3a4a88c-d155-447c-ad55-fd92c25575ce","ios":"levelo://app?vid=b3a4a88c-d155-447c-ad55-fd92c25575ce"},"vehicle_type_id":"4","last_reported":1701670228,"current_range_meters":29600,"station_id":"ce4bhjp2rcd13ifvqg90","pricing_plan_id":"free"},{"bike_id":"3bb6943d-b5fe-4de5-88be-a93b0167c81b","system_id":"levelo_inurba_marseille","lat":43.281548,"lon":5.42643,"is_reserved":false,"is_disabled":false,"rental_uris":{"android":"levelo://app?vid=3bb6943d-b5fe-4de5-88be-a93b0167c81b","ios":"levelo://app?vid=3bb6943d-b5fe-4de5-88be-a93b0167c81b"},"vehicle_type_id":"4","last_reported":1701670228,"current_range_meters":28000,"station_id":"ce4bhnh2rcd13ifvqgug","pricing_plan_id":"free"},{"bike_id":"d000cda7-ec7c-4c45-8e3d-28f91aa1bc51","system_id":"levelo_inurba_marseille","lat":43.28153,"lon":5.42642,"is_reserved":false,"is_disabled":false,"rental_uris":{"android":"levelo://app?vid=d000cda7-ec7c-4c45-8e3d-28f91aa1bc51","ios":"levelo://app?vid=d000cda7-ec7c-4c45-8e3d-28f91aa1bc51"},"vehicle_type_id":"4","last_reported":1701670228,"current_range_meters":16000,"station_id":"ce4bhnh2rcd13ifvqgug","pricing_plan_id":"free"},{"bike_id":"405fc480-5734-4287-8fe7-4d4daa96fa7f","system_id":"levelo_inurba_marseille","lat":43.28158,"lon":5.4265,"is_reserved":false,"is_disabled":false,"rental_uris":{"android":"levelo://app?vid=405fc480-5734-4287-8fe7-4d4daa96fa7f","ios":"levelo://app?vid=405fc480-5734-4287-8fe7-4d4daa96fa7f"},"vehicle_type_id":"4","last_reported":1701670228,"current_range_meters":11200,"station_id":"ce4bhnh2rcd13ifvqgug","pricing_plan_id":"free"},{"bike_id":"b52fcf40-cdec-4aea-b86a-e61b22ede373","system_id":"levelo_inurba_marseille","lat":43.28151,"lon":5.42644,"is_reserved":false,"is_disabled":false,"rental_uris":{"android":"levelo://app?vid=b52fcf40-cdec-4aea-b86a-e61b22ede373","ios":"levelo://app?vid=b52fcf40-cdec-4aea-b86a-e61b22ede373"},"vehicle_type_id":"4","last_reported":1701670228,"current_range_meters":8000,"station_id":"ce4bhnh2rcd13ifvqgug","pricing_plan_id":"free"},{"bike_id":"7a96db8f-5eb4-405b-8773-67506ad37afb","system_id":"levelo_inurba_marseille","lat":43.28149,"lon":5.42646,"is_reserved":false,"is_disabled":false,"rental_uris":{"android":"levelo://app?vid=7a96db8f-5eb4-405b-8773-67506ad37afb","ios":"levelo://app?vid=7a96db8f-5eb4-405b-8773-67506ad37afb"},"vehicle_type_id":"4","last_reported":1701670228,"current_range_meters":10400,"station_id":"ce4bhnh2rcd13ifvqgug","pricing_plan_id":"free"},{"bike_id":"0fd8254e-a95a-4dc5-963d-03782d038304","system_id":"levelo_inurba_marseille","lat":43.2815,"lon":5.42647,"is_reserved":false,"is_disabled":false,"rental_uris":{"android":"levelo://app?vid=0fd8254e-a95a-4dc5-963d-03782d038304","ios":"levelo://app?vid=0fd8254e-a95a-4dc5-963d-03782d038304"},"vehicle_type_id":"4","last_reported":1701670228,"current_range_meters":20800,"station_id":"ce4bhnh2rcd13ifvqgug","pricing_plan_id":"free"},{"bike_id":"5b3e0566-b00a-45ce-bada-6ddf6f7727ce","system_id":"levelo_inurba_marseille","lat":43.2815,"lon":5.42649,"is_reserved":false,"is_disabled":false,"rental_uris":{"android":"levelo://app?vid=5b3e0566-b00a-45ce-bada-6ddf6f7727ce","ios":"levelo://app?vid=5b3e0566-b00a-45ce-bada-6ddf6f7727ce"},"vehicle_type_id":"4","last_reported":1701670228,"current_range_meters":17200,"station_id":"ce4bhnh2rcd13ifvqgug","pricing_plan_id":"free"},{"bike_id":"17f35e7a-e54c-4208-a0bd-45b6b8360203","system_id":"levelo_inurba_marseille","lat":43.27495,"lon":5.42453,"is_reserved":false,"is_disabled":false,"rental_uris":{"android":"levelo://app?vid=17f35e7a-e54c-4208-a0bd-45b6b8360203","ios":"levelo://app?vid=17f35e7a-e54c-4208-a0bd-45b6b8360203"},"vehicle_type_id":"4","last_reported":1701670228,"current_range_meters":21600,"station_id":"ce4bhn92rcd13ifvqgrg","pricing_plan_id":"free"},{"bike_id":"2896d740-c829-4769-ab23-e2aa604b10cd","system_id":"levelo_inurba_marseille","lat":43.274935,"lon":5.424521,"is_reserved":false,"is_disabled":false,"rental_uris":{"android":"levelo://app?vid=2896d740-c829-4769-ab23-e2aa604b10cd","ios":"levelo://app?vid=2896d740-c829-4769-ab23-e2aa604b10cd"},"vehicle_type_id":"4","last_reported":1701670228,"current_range_meters":28800,"station_id":"ce4bhn92rcd13ifvqgrg","pricing_plan_id":"free"},{"bike_id":"85b1c539-9677-4892-b9c4-bff8252a215a","system_id":"levelo_inurba_marseille","lat":43.25579,"lon":5.38238,"is_reserved":false,"is_disabled":false,"rental_uris":{"android":"levelo://app?vid=85b1c539-9677-4892-b9c4-bff8252a215a","ios":"levelo://app?vid=85b1c539-9677-4892-b9c4-bff8252a215a"},"vehicle_type_id":"4","last_reported":1701670228,"current_range_meters":25600,"station_id":"ce4bhih2rcd13ifvqfs0","pricing_plan_id":"free"},{"bike_id":"b84c7cf6-2ad8-4347-b6e8-77b2394a0e95","system_id":"levelo_inurba_marseille","lat":43.255755,"lon":5.38237,"is_reserved":false,"is_disabled":false,"rental_uris":{"android":"levelo://app?vid=b84c7cf6-2ad8-4347-b6e8-77b2394a0e95","ios":"levelo://app?vid=b84c7cf6-2ad8-4347-b6e8-77b2394a0e95"},"vehicle_type_id":"4","last_reported":1701670228,"current_range_meters":24000,"station_id":"ce4bhih2rcd13ifvqfs0","pricing_plan_id":"free"},{"bike_id":"91e9a8ab-02bf-4fcc-b8f1-587cd6d6e2d5","system_id":"levelo_inurba_marseille","lat":43.270721,"lon":5.422764,"is_reserved":false,"is_disabled":false,"rental_uris":{"android":"levelo://app?vid=91e9a8ab-02bf-4fcc-b8f1-587cd6d6e2d5","ios":"levelo://app?vid=91e9a8ab-02bf-4fcc-b8f1-587cd6d6e2d5"},"vehicle_type_id":"4","last_reported":1701670228,"current_range_meters":30400,"station_id":"ce4bhk92rcd13ifvqgb0","pricing_plan_id":"free"},{"bike_id":"e6fee166-d8ae-4019-abb3-6c4f3b176b93","system_id":"levelo_inurba_marseille","lat":43.270721,"lon":5.422764,"is_reserved":false,"is_disabled":false,"rental_uris":{"android":"levelo://app?vid=e6fee166-d8ae-4019-abb3-6c4f3b176b93","ios":"levelo://app?vid=e6fee166-d8ae-4019-abb3-6c4f3b176b93"},"vehicle_type_id":"4","last_reported":1701670228,"current_range_meters":31600,"station_id":"ce4bhk92rcd13ifvqgb0","pricing_plan_id":"free"},{"bike_id":"c5dda8c0-469f-496a-a8f7-bbd1aa160ecf","system_id":"levelo_inurba_marseille","lat":43.270721,"lon":5.422764,"is_reserved":false,"is_disabled":false,"rental_uris":{"android":"levelo://app?vid=c5dda8c0-469f-496a-a8f7-bbd1aa160ecf","ios":"levelo://app?vid=c5dda8c0-469f-496a-a8f7-bbd1aa160ecf"},"vehicle_type_id":"4","last_reported":1701670228,"current_range_meters":14000,"station_id":"ce4bhk92rcd13ifvqgb0","pricing_plan_id":"free"},{"bike_id":"fc9aece4-475e-42e6-9aa9-4b31f99f89e4","system_id":"levelo_inurba_marseille","lat":43.258658,"lon":5.398935,"is_reserved":false,"is_disabled":false,"rental_uris":{"android":"levelo://app?vid=fc9aece4-475e-42e6-9aa9-4b31f99f89e4","ios":"levelo://app?vid=fc9aece4-475e-42e6-9aa9-4b31f99f89e4"},"vehicle_type_id":"4","last_reported":1701670228,"current_range_meters":30800,"station_id":"ce4bhl92rcd13ifvqghg","pricing_plan_id":"free"},{"bike_id":"542024cf-da86-48e5-9a46-57c25a16bffc","system_id":"levelo_inurba_marseille","lat":43.258658,"lon":5.398935,"is_reserved":false,"is_disabled":false,"rental_uris":{"android":"levelo://app?vid=542024cf-da86-48e5-9a46-57c25a16bffc","ios":"levelo://app?vid=542024cf-da86-48e5-9a46-57c25a16bffc"},"vehicle_type_id":"4","last_reported":1701670228,"current_range_meters":25600,"station_id":"ce4bhl92rcd13ifvqghg","pricing_plan_id":"free"},{"bike_id":"ca9d0f5d-2933-436c-b221-f85ad9761023","system_id":"levelo_inurba_marseille","lat":43.257079,"lon":5.411051,"is_reserved":false,"is_disabled":false,"rental_uris":{"android":"levelo://app?vid=ca9d0f5d-2933-436c-b221-f85ad9761023","ios":"levelo://app?vid=ca9d0f5d-2933-436c-b221-f85ad9761023"},"vehicle_type_id":"4","last_reported":1701670228,"current_range_meters":30400,"station_id":"ce4bhkp2rcd13ifvqgd0","pricing_plan_id":"free"},{"bike_id":"420e58c3-b2ff-40e1-9210-59ab99aea741","system_id":"levelo_inurba_marseille","lat":43.25723,"lon":5.41116,"is_reserved":false,"is_disabled":false,"rental_uris":{"android":"levelo://app?vid=420e58c3-b2ff-40e1-9210-59ab99aea741","ios":"levelo://app?vid=420e58c3-b2ff-40e1-9210-59ab99aea741"},"vehicle_type_id":"4","last_reported":1701670228,"current_range_meters":16800,"station_id":"ce4bhkp2rcd13ifvqgd0","pricing_plan_id":"free"},{"bike_id":"0050d107-a2d5-4a6c-a474-13f7a477852a","system_id":"levelo_inurba_marseille","lat":43.250023,"lon":5.38919,"is_reserved":false,"is_disabled":false,"rental_uris":{"android":"levelo://app?vid=0050d107-a2d5-4a6c-a474-13f7a477852a","ios":"levelo://app?vid=0050d107-a2d5-4a6c-a474-13f7a477852a"},"vehicle_type_id":"4","last_reported":1701670228,"current_range_meters":27600,"station_id":"ce4bhgp2rcd13ifvqfd0","pricing_plan_id":"free"},{"bike_id":"d10a0046-453f-46e2-bcb4-5558cad0a0ca","system_id":"levelo_inurba_marseille","lat":43.250009,"lon":5.389195,"is_reserved":false,"is_disabled":false,"rental_uris":{"android":"levelo://app?vid=d10a0046-453f-46e2-bcb4-5558cad0a0ca","ios":"levelo://app?vid=d10a0046-453f-46e2-bcb4-5558cad0a0ca"},"vehicle_type_id":"4","last_reported":1701670228,"current_range_meters":30800,"station_id":"ce4bhgp2rcd13ifvqfd0","pricing_plan_id":"free"},{"bike_id":"2c92eded-66e5-4d53-98a0-b64e6c9c913c","system_id":"levelo_inurba_marseille","lat":43.25001,"lon":5.389186,"is_reserved":false,"is_disabled":false,"rental_uris":{"android":"levelo://app?vid=2c92eded-66e5-4d53-98a0-b64e6c9c913c","ios":"levelo://app?vid=2c92eded-66e5-4d53-98a0-b64e6c9c913c"},"vehicle_type_id":"4","last_reported":1701670228,"current_range_meters":10400,"station_id":"ce4bhgp2rcd13ifvqfd0","pricing_plan_id":"free"},{"bike_id":"88b6a1e0-be91-4dd6-8383-ad17e0115ed3","system_id":"levelo_inurba_marseille","lat":43.250009,"lon":5.389195,"is_reserved":false,"is_disabled":false,"rental_uris":{"android":"levelo://app?vid=88b6a1e0-be91-4dd6-8383-ad17e0115ed3","ios":"levelo://app?vid=88b6a1e0-be91-4dd6-8383-ad17e0115ed3"},"vehicle_type_id":"4","last_reported":1701670228,"current_range_meters":31600,"station_id":"ce4bhgp2rcd13ifvqfd0","pricing_plan_id":"free"},{"bike_id":"de5946ce-665f-42dd-a44a-f619a2e764be","system_id":"levelo_inurba_marseille","lat":43.250009,"lon":5.389195,"is_reserved":false,"is_disabled":false,"rental_uris":{"android":"levelo://app?vid=de5946ce-665f-42dd-a44a-f619a2e764be","ios":"levelo://app?vid=de5946ce-665f-42dd-a44a-f619a2e764be"},"vehicle_type_id":"4","last_reported":1701670228,"current_range_meters":28400,"station_id":"ce4bhgp2rcd13ifvqfd0","pricing_plan_id":"free"},{"bike_id":"f3031a93-c812-47f9-befb-cee3e4d878fb","system_id":"levelo_inurba_marseille","lat":43.2479,"lon":5.374457,"is_reserved":false,"is_disabled":false,"rental_uris":{"android":"levelo://app?vid=f3031a93-c812-47f9-befb-cee3e4d878fb","ios":"levelo://app?vid=f3031a93-c812-47f9-befb-cee3e4d878fb"},"vehicle_type_id":"4","last_reported":1701670228,"current_range_meters":30800,"station_id":"ce4bhgh2rcd13ifvqfb0","pricing_plan_id":"free"},{"bike_id":"a57c4884-a0db-43bb-9463-71f3c6989248","system_id":"levelo_inurba_marseille","lat":43.250023,"lon":5.38919,"is_reserved":false,"is_disabled":false,"rental_uris":{"android":"levelo://app?vid=a57c4884-a0db-43bb-9463-71f3c6989248","ios":"levelo://app?vid=a57c4884-a0db-43bb-9463-71f3c6989248"},"vehicle_type_id":"4","last_reported":1701670228,"current_range_meters":30800,"station_id":"ce4bhgp2rcd13ifvqfd0","pricing_plan_id":"free"},{"bike_id":"95315ee5-452e-4237-9ab9-136307729c49","system_id":"levelo_inurba_marseille","lat":43.2479,"lon":5.374457,"is_reserved":false,"is_disabled":false,"rental_uris":{"android":"levelo://app?vid=95315ee5-452e-4237-9ab9-136307729c49","ios":"levelo://app?vid=95315ee5-452e-4237-9ab9-136307729c49"},"vehicle_type_id":"4","last_reported":1701670228,"current_range_meters":23600,"station_id":"ce4bhgh2rcd13ifvqfb0","pricing_plan_id":"free"},{"bike_id":"c44bfe06-236e-4b9f-aab8-9a279bba123a","system_id":"levelo_inurba_marseille","lat":43.2479,"lon":5.374457,"is_reserved":false,"is_disabled":false,"rental_uris":{"android":"levelo://app?vid=c44bfe06-236e-4b9f-aab8-9a279bba123a","ios":"levelo://app?vid=c44bfe06-236e-4b9f-aab8-9a279bba123a"},"vehicle_type_id":"4","last_reported":1701670228,"current_range_meters":30400,"station_id":"ce4bhgh2rcd13ifvqfb0","pricing_plan_id":"free"},{"bike_id":"ab651f20-342c-401a-ba35-80bb8d257ab6","system_id":"levelo_inurba_marseille","lat":43.2479,"lon":5.374457,"is_reserved":false,"is_disabled":false,"rental_uris":{"android":"levelo://app?vid=ab651f20-342c-401a-ba35-80bb8d257ab6","ios":"levelo://app?vid=ab651f20-342c-401a-ba35-80bb8d257ab6"},"vehicle_type_id":"4","last_reported":1701670228,"current_range_meters":30800,"station_id":"ce4bhgh2rcd13ifvqfb0","pricing_plan_id":"free"},{"bike_id":"76aa2603-6a07-4909-b974-d1d2d0a62340","system_id":"levelo_inurba_marseille","lat":43.2479,"lon":5.374457,"is_reserved":false,"is_disabled":false,"rental_uris":{"android":"levelo://app?vid=76aa2603-6a07-4909-b974-d1d2d0a62340","ios":"levelo://app?vid=76aa2603-6a07-4909-b974-d1d2d0a62340"},"vehicle_type_id":"4","last_reported":1701670228,"current_range_meters":15200,"station_id":"ce4bhgh2rcd13ifvqfb0","pricing_plan_id":"free"},{"bike_id":"2991e689-649d-4f95-9ad5-1f501c09a58e","system_id":"levelo_inurba_marseille","lat":43.2479,"lon":5.374457,"is_reserved":false,"is_disabled":false,"rental_uris":{"android":"levelo://app?vid=2991e689-649d-4f95-9ad5-1f501c09a58e","ios":"levelo://app?vid=2991e689-649d-4f95-9ad5-1f501c09a58e"},"vehicle_type_id":"4","last_reported":1701670228,"current_range_meters":14000,"station_id":"ce4bhgh2rcd13ifvqfb0","pricing_plan_id":"free"},{"bike_id":"2f185611-03fb-401c-be92-79ce82267c3e","system_id":"levelo_inurba_marseille","lat":43.24693,"lon":5.382096,"is_reserved":false,"is_disabled":false,"rental_uris":{"android":"levelo://app?vid=2f185611-03fb-401c-be92-79ce82267c3e","ios":"levelo://app?vid=2f185611-03fb-401c-be92-79ce82267c3e"},"vehicle_type_id":"4","last_reported":1701670228,"current_range_meters":14400,"station_id":"ce4bhih2rcd13ifvqfr0","pricing_plan_id":"free"},{"bike_id":"2b3584ea-ff18-4cbc-96e7-77f923d9f451","system_id":"levelo_inurba_marseille","lat":43.24693,"lon":5.382096,"is_reserved":false,"is_disabled":false,"rental_uris":{"android":"levelo://app?vid=2b3584ea-ff18-4cbc-96e7-77f923d9f451","ios":"levelo://app?vid=2b3584ea-ff18-4cbc-96e7-77f923d9f451"},"vehicle_type_id":"4","last_reported":1701670228,"current_range_meters":22400,"station_id":"ce4bhih2rcd13ifvqfr0","pricing_plan_id":"free"},{"bike_id":"0b4d43f8-4b31-4b54-8b03-c02db7df8d78","system_id":"levelo_inurba_marseille","lat":43.251119,"lon":5.403239,"is_reserved":false,"is_disabled":false,"rental_uris":{"android":"levelo://app?vid=0b4d43f8-4b31-4b54-8b03-c02db7df8d78","ios":"levelo://app?vid=0b4d43f8-4b31-4b54-8b03-c02db7df8d78"},"vehicle_type_id":"4","last_reported":1701670228,"current_range_meters":13200,"station_id":"ce4bhlh2rcd13ifvqgig","pricing_plan_id":"free"},{"bike_id":"38aedc53-dfc1-4cb7-ad4c-86b3d77f0b9e","system_id":"levelo_inurba_marseille","lat":43.24649,"lon":5.38894,"is_reserved":false,"is_disabled":false,"rental_uris":{"android":"levelo://app?vid=38aedc53-dfc1-4cb7-ad4c-86b3d77f0b9e","ios":"levelo://app?vid=38aedc53-dfc1-4cb7-ad4c-86b3d77f0b9e"},"vehicle_type_id":"4","last_reported":1701670228,"current_range_meters":24000,"station_id":"ce4bhg12rcd13ifvqf60","pricing_plan_id":"free"},{"bike_id":"80476c43-ad7f-4927-b0b5-b346b4b561a5","system_id":"levelo_inurba_marseille","lat":43.240623,"lon":5.377642,"is_reserved":false,"is_disabled":false,"rental_uris":{"android":"levelo://app?vid=80476c43-ad7f-4927-b0b5-b346b4b561a5","ios":"levelo://app?vid=80476c43-ad7f-4927-b0b5-b346b4b561a5"},"vehicle_type_id":"4","last_reported":1701670228,"current_range_meters":0,"station_id":"ce4bhnp2rcd13ifvqgvg","pricing_plan_id":"free"},{"bike_id":"c75b2ba4-b197-45b4-91b3-d622061740e4","system_id":"levelo_inurba_marseille","lat":43.240741,"lon":5.377642,"is_reserved":false,"is_disabled":false,"rental_uris":{"android":"levelo://app?vid=c75b2ba4-b197-45b4-91b3-d622061740e4","ios":"levelo://app?vid=c75b2ba4-b197-45b4-91b3-d622061740e4"},"vehicle_type_id":"4","last_reported":1701670228,"current_range_meters":31200,"station_id":"ce4bhnp2rcd13ifvqgvg","pricing_plan_id":"free"},{"bike_id":"66d07158-1c05-469e-a266-b66692f04cb5","system_id":"levelo_inurba_marseille","lat":43.239588,"lon":5.366238,"is_reserved":false,"is_disabled":false,"rental_uris":{"android":"levelo://app?vid=66d07158-1c05-469e-a266-b66692f04cb5","ios":"levelo://app?vid=66d07158-1c05-469e-a266-b66692f04cb5"},"vehicle_type_id":"4","last_reported":1701670228,"current_range_meters":31600,"station_id":"ce4bhi12rcd13ifvqfp0","pricing_plan_id":"free"},{"bike_id":"f2d1c53e-c9ac-415e-8fd6-e07b040e3303","system_id":"levelo_inurba_marseille","lat":43.239601,"lon":5.366396,"is_reserved":false,"is_disabled":false,"rental_uris":{"android":"levelo://app?vid=f2d1c53e-c9ac-415e-8fd6-e07b040e3303","ios":"levelo://app?vid=f2d1c53e-c9ac-415e-8fd6-e07b040e3303"},"vehicle_type_id":"4","last_reported":1701670228,"current_range_meters":20400,"station_id":"ce4bhi12rcd13ifvqfp0","pricing_plan_id":"free"},{"bike_id":"a3aad75b-64ef-4634-9f77-a5b976c8f7fb","system_id":"levelo_inurba_marseille","lat":43.241782,"lon":5.397261,"is_reserved":false,"is_disabled":false,"rental_uris":{"android":"levelo://app?vid=a3aad75b-64ef-4634-9f77-a5b976c8f7fb","ios":"levelo://app?vid=a3aad75b-64ef-4634-9f77-a5b976c8f7fb"},"vehicle_type_id":"4","last_reported":1701670228,"current_range_meters":31200,"station_id":"ce4bhn12rcd13ifvqgpg","pricing_plan_id":"free"},{"bike_id":"9e01ee59-41e6-425c-ae1f-3e33312fefcd","system_id":"levelo_inurba_marseille","lat":43.231923,"lon":5.355545,"is_reserved":false,"is_disabled":false,"rental_uris":{"android":"levelo://app?vid=9e01ee59-41e6-425c-ae1f-3e33312fefcd","ios":"levelo://app?vid=9e01ee59-41e6-425c-ae1f-3e33312fefcd"},"vehicle_type_id":"4","last_reported":1701670228,"current_range_meters":13600,"station_id":"ce4bhu92rcd13ifvqi70","pricing_plan_id":"free"},{"bike_id":"298d55d3-e15e-4346-8dbd-e1ab38ce7aec","system_id":"levelo_inurba_marseille","lat":43.231923,"lon":5.355545,"is_reserved":false,"is_disabled":false,"rental_uris":{"android":"levelo://app?vid=298d55d3-e15e-4346-8dbd-e1ab38ce7aec","ios":"levelo://app?vid=298d55d3-e15e-4346-8dbd-e1ab38ce7aec"},"vehicle_type_id":"4","last_reported":1701670228,"current_range_meters":6000,"station_id":"ce4bhu92rcd13ifvqi70","pricing_plan_id":"free"},{"bike_id":"1dff9a6f-8f42-4c79-9ff5-6e67ab01ec87","system_id":"levelo_inurba_marseille","lat":43.231923,"lon":5.355545,"is_reserved":false,"is_disabled":false,"rental_uris":{"android":"levelo://app?vid=1dff9a6f-8f42-4c79-9ff5-6e67ab01ec87","ios":"levelo://app?vid=1dff9a6f-8f42-4c79-9ff5-6e67ab01ec87"},"vehicle_type_id":"4","last_reported":1701670228,"current_range_meters":2000,"station_id":"ce4bhu92rcd13ifvqi70","pricing_plan_id":"free"},{"bike_id":"87815193-0a9e-4a5a-8f22-63817bf9d429","system_id":"levelo_inurba_marseille","lat":43.231919,"lon":5.355532,"is_reserved":false,"is_disabled":false,"rental_uris":{"android":"levelo://app?vid=87815193-0a9e-4a5a-8f22-63817bf9d429","ios":"levelo://app?vid=87815193-0a9e-4a5a-8f22-63817bf9d429"},"vehicle_type_id":"4","last_reported":1701670228,"current_range_meters":28000,"station_id":"ce4bhu92rcd13ifvqi70","pricing_plan_id":"free"},{"bike_id":"cf3102c4-88e0-4a41-86b7-69a76932d3e6","system_id":"levelo_inurba_marseille","lat":43.231923,"lon":5.355545,"is_reserved":false,"is_disabled":false,"rental_uris":{"android":"levelo://app?vid=cf3102c4-88e0-4a41-86b7-69a76932d3e6","ios":"levelo://app?vid=cf3102c4-88e0-4a41-86b7-69a76932d3e6"},"vehicle_type_id":"4","last_reported":1701670228,"current_range_meters":31600,"station_id":"ce4bhu92rcd13ifvqi70","pricing_plan_id":"free"},{"bike_id":"2b04708e-eed8-4471-916a-9fdeea01eec7","system_id":"levelo_inurba_marseille","lat":43.231923,"lon":5.355545,"is_reserved":false,"is_disabled":false,"rental_uris":{"android":"levelo://app?vid=2b04708e-eed8-4471-916a-9fdeea01eec7","ios":"levelo://app?vid=2b04708e-eed8-4471-916a-9fdeea01eec7"},"vehicle_type_id":"4","last_reported":1701670228,"current_range_meters":29600,"station_id":"ce4bhu92rcd13ifvqi70","pricing_plan_id":"free"},{"bike_id":"58d4edcd-4441-486c-8457-28ebda4ac431","system_id":"levelo_inurba_marseille","lat":43.231919,"lon":5.355532,"is_reserved":false,"is_disabled":false,"rental_uris":{"android":"levelo://app?vid=58d4edcd-4441-486c-8457-28ebda4ac431","ios":"levelo://app?vid=58d4edcd-4441-486c-8457-28ebda4ac431"},"vehicle_type_id":"4","last_reported":1701670228,"current_range_meters":17600,"station_id":"ce4bhu92rcd13ifvqi70","pricing_plan_id":"free"},{"bike_id":"6041d620-664b-4836-b597-a0e62593a032","system_id":"levelo_inurba_marseille","lat":43.231923,"lon":5.355545,"is_reserved":false,"is_disabled":false,"rental_uris":{"android":"levelo://app?vid=6041d620-664b-4836-b597-a0e62593a032","ios":"levelo://app?vid=6041d620-664b-4836-b597-a0e62593a032"},"vehicle_type_id":"4","last_reported":1701670228,"current_range_meters":26000,"station_id":"ce4bhu92rcd13ifvqi70","pricing_plan_id":"free"},{"bike_id":"a2778a75-2f32-457d-810c-ad5c32010803","system_id":"levelo_inurba_marseille","lat":43.231919,"lon":5.355532,"is_reserved":false,"is_disabled":false,"rental_uris":{"android":"levelo://app?vid=a2778a75-2f32-457d-810c-ad5c32010803","ios":"levelo://app?vid=a2778a75-2f32-457d-810c-ad5c32010803"},"vehicle_type_id":"4","last_reported":1701670228,"current_range_meters":17600,"station_id":"ce4bhu92rcd13ifvqi70","pricing_plan_id":"free"},{"bike_id":"88cf855f-bb31-40e0-8afc-686df3c193ab","system_id":"levelo_inurba_marseille","lat":43.231794,"lon":5.400052,"is_reserved":false,"is_disabled":false,"rental_uris":{"android":"levelo://app?vid=88cf855f-bb31-40e0-8afc-686df3c193ab","ios":"levelo://app?vid=88cf855f-bb31-40e0-8afc-686df3c193ab"},"vehicle_type_id":"4","last_reported":1701670228,"current_range_meters":28800,"station_id":"ce4bhn12rcd13ifvqgqg","pricing_plan_id":"free"},{"bike_id":"e47e98e0-4256-4c41-ae86-e531a41b9213","system_id":"levelo_inurba_marseille","lat":43.231794,"lon":5.400052,"is_reserved":false,"is_disabled":false,"rental_uris":{"android":"levelo://app?vid=e47e98e0-4256-4c41-ae86-e531a41b9213","ios":"levelo://app?vid=e47e98e0-4256-4c41-ae86-e531a41b9213"},"vehicle_type_id":"4","last_reported":1701670228,"current_range_meters":31600,"station_id":"ce4bhn12rcd13ifvqgqg","pricing_plan_id":"free"},{"bike_id":"ab5eae98-96ca-4718-91b7-353de917f40d","system_id":"levelo_inurba_marseille","lat":43.231793,"lon":5.400044,"is_reserved":false,"is_disabled":false,"rental_uris":{"android":"levelo://app?vid=ab5eae98-96ca-4718-91b7-353de917f40d","ios":"levelo://app?vid=ab5eae98-96ca-4718-91b7-353de917f40d"},"vehicle_type_id":"4","last_reported":1701670228,"current_range_meters":31600,"station_id":"ce4bhn12rcd13ifvqgqg","pricing_plan_id":"free"},{"bike_id":"22bd98e3-c33f-4c44-ae2b-f96729d36f4f","system_id":"levelo_inurba_marseille","lat":43.231793,"lon":5.400044,"is_reserved":false,"is_disabled":false,"rental_uris":{"android":"levelo://app?vid=22bd98e3-c33f-4c44-ae2b-f96729d36f4f","ios":"levelo://app?vid=22bd98e3-c33f-4c44-ae2b-f96729d36f4f"},"vehicle_type_id":"4","last_reported":1701670228,"current_range_meters":31600,"station_id":"ce4bhn12rcd13ifvqgqg","pricing_plan_id":"free"},{"bike_id":"554e18bc-f6bd-448a-9d3a-a49810d0b6de","system_id":"levelo_inurba_marseille","lat":43.231794,"lon":5.400052,"is_reserved":false,"is_disabled":false,"rental_uris":{"android":"levelo://app?vid=554e18bc-f6bd-448a-9d3a-a49810d0b6de","ios":"levelo://app?vid=554e18bc-f6bd-448a-9d3a-a49810d0b6de"},"vehicle_type_id":"4","last_reported":1701670228,"current_range_meters":16000,"station_id":"ce4bhn12rcd13ifvqgqg","pricing_plan_id":"free"},{"bike_id":"118d4a35-86b4-49cc-8abc-987caa7ffe62","system_id":"levelo_inurba_marseille","lat":43.2319,"lon":5.39987,"is_reserved":false,"is_disabled":false,"rental_uris":{"android":"levelo://app?vid=118d4a35-86b4-49cc-8abc-987caa7ffe62","ios":"levelo://app?vid=118d4a35-86b4-49cc-8abc-987caa7ffe62"},"vehicle_type_id":"4","last_reported":1701670228,"current_range_meters":29600,"station_id":"ce4bhn12rcd13ifvqgqg","pricing_plan_id":"free"},{"bike_id":"d7955d6f-88ae-4e83-97c1-4a0668d076f6","system_id":"levelo_inurba_marseille","lat":43.231794,"lon":5.400052,"is_reserved":false,"is_disabled":false,"rental_uris":{"android":"levelo://app?vid=d7955d6f-88ae-4e83-97c1-4a0668d076f6","ios":"levelo://app?vid=d7955d6f-88ae-4e83-97c1-4a0668d076f6"},"vehicle_type_id":"4","last_reported":1701670228,"current_range_meters":16000,"station_id":"ce4bhn12rcd13ifvqgqg","pricing_plan_id":"free"},{"bike_id":"0cf73e26-cfe4-495a-8675-6603ab968aec","system_id":"levelo_inurba_marseille","lat":43.231794,"lon":5.400052,"is_reserved":false,"is_disabled":false,"rental_uris":{"android":"levelo://app?vid=0cf73e26-cfe4-495a-8675-6603ab968aec","ios":"levelo://app?vid=0cf73e26-cfe4-495a-8675-6603ab968aec"},"vehicle_type_id":"4","last_reported":1701670228,"current_range_meters":30000,"station_id":"ce4bhn12rcd13ifvqgqg","pricing_plan_id":"free"},{"bike_id":"7119d2ec-3a1f-47f1-97aa-a12f1d72912d","system_id":"levelo_inurba_marseille","lat":43.23189,"lon":5.39986,"is_reserved":false,"is_disabled":false,"rental_uris":{"android":"levelo://app?vid=7119d2ec-3a1f-47f1-97aa-a12f1d72912d","ios":"levelo://app?vid=7119d2ec-3a1f-47f1-97aa-a12f1d72912d"},"vehicle_type_id":"4","last_reported":1701670228,"current_range_meters":29200,"station_id":"ce4bhn12rcd13ifvqgqg","pricing_plan_id":"free"},{"bike_id":"77b1a551-da7f-429a-980e-bfc6767a5958","system_id":"levelo_inurba_marseille","lat":43.231794,"lon":5.400052,"is_reserved":false,"is_disabled":false,"rental_uris":{"android":"levelo://app?vid=77b1a551-da7f-429a-980e-bfc6767a5958","ios":"levelo://app?vid=77b1a551-da7f-429a-980e-bfc6767a5958"},"vehicle_type_id":"4","last_reported":1701670228,"current_range_meters":31600,"station_id":"ce4bhn12rcd13ifvqgqg","pricing_plan_id":"free"},{"bike_id":"8f0fb87f-53e2-432d-b05f-ab1e816b61dc","system_id":"levelo_inurba_marseille","lat":43.231794,"lon":5.400052,"is_reserved":false,"is_disabled":false,"rental_uris":{"android":"levelo://app?vid=8f0fb87f-53e2-432d-b05f-ab1e816b61dc","ios":"levelo://app?vid=8f0fb87f-53e2-432d-b05f-ab1e816b61dc"},"vehicle_type_id":"4","last_reported":1701670228,"current_range_meters":31600,"station_id":"ce4bhn12rcd13ifvqgqg","pricing_plan_id":"free"},{"bike_id":"3fdd6789-d52a-4c7f-96f4-f754cbf436d6","system_id":"levelo_inurba_marseille","lat":43.23188,"lon":5.39984,"is_reserved":false,"is_disabled":false,"rental_uris":{"android":"levelo://app?vid=3fdd6789-d52a-4c7f-96f4-f754cbf436d6","ios":"levelo://app?vid=3fdd6789-d52a-4c7f-96f4-f754cbf436d6"},"vehicle_type_id":"4","last_reported":1701670228,"current_range_meters":29600,"station_id":"ce4bhn12rcd13ifvqgqg","pricing_plan_id":"free"},{"bike_id":"8bb4a4e8-9672-4d13-b6c9-9d0eb28673b3","system_id":"levelo_inurba_marseille","lat":43.231793,"lon":5.400044,"is_reserved":false,"is_disabled":false,"rental_uris":{"android":"levelo://app?vid=8bb4a4e8-9672-4d13-b6c9-9d0eb28673b3","ios":"levelo://app?vid=8bb4a4e8-9672-4d13-b6c9-9d0eb28673b3"},"vehicle_type_id":"4","last_reported":1701670228,"current_range_meters":30400,"station_id":"ce4bhn12rcd13ifvqgqg","pricing_plan_id":"free"},{"bike_id":"e44db449-6914-4cfb-bde0-4c3cbeca97c3","system_id":"levelo_inurba_marseille","lat":43.231794,"lon":5.400052,"is_reserved":false,"is_disabled":false,"rental_uris":{"android":"levelo://app?vid=e44db449-6914-4cfb-bde0-4c3cbeca97c3","ios":"levelo://app?vid=e44db449-6914-4cfb-bde0-4c3cbeca97c3"},"vehicle_type_id":"4","last_reported":1701670228,"current_range_meters":31600,"station_id":"ce4bhn12rcd13ifvqgqg","pricing_plan_id":"free"},{"bike_id":"4c8d669a-b5bc-4cf0-b8bd-219da83f4ef3","system_id":"levelo_inurba_marseille","lat":43.231881,"lon":5.39992,"is_reserved":false,"is_disabled":false,"rental_uris":{"android":"levelo://app?vid=4c8d669a-b5bc-4cf0-b8bd-219da83f4ef3","ios":"levelo://app?vid=4c8d669a-b5bc-4cf0-b8bd-219da83f4ef3"},"vehicle_type_id":"4","last_reported":1701670228,"current_range_meters":15200,"station_id":"ce4bhn12rcd13ifvqgqg","pricing_plan_id":"free"},{"bike_id":"4ee99995-f63f-4ddb-ac4b-88a5ee23324c","system_id":"levelo_inurba_marseille","lat":43.231794,"lon":5.400052,"is_reserved":false,"is_disabled":false,"rental_uris":{"android":"levelo://app?vid=4ee99995-f63f-4ddb-ac4b-88a5ee23324c","ios":"levelo://app?vid=4ee99995-f63f-4ddb-ac4b-88a5ee23324c"},"vehicle_type_id":"4","last_reported":1701670228,"current_range_meters":30400,"station_id":"ce4bhn12rcd13ifvqgqg","pricing_plan_id":"free"},{"bike_id":"6bd9f065-50d9-4657-9ca0-a006f413d305","system_id":"levelo_inurba_marseille","lat":43.231794,"lon":5.400052,"is_reserved":false,"is_disabled":false,"rental_uris":{"android":"levelo://app?vid=6bd9f065-50d9-4657-9ca0-a006f413d305","ios":"levelo://app?vid=6bd9f065-50d9-4657-9ca0-a006f413d305"},"vehicle_type_id":"4","last_reported":1701670228,"current_range_meters":31600,"station_id":"ce4bhn12rcd13ifvqgqg","pricing_plan_id":"free"},