{"last_updated":1702168721,"ttl":30,"version":"2.2","data":{"bikes":[{"bike_id":"28cef7fc-69a5-469a-a4c8-84ff47e04462","system_id":"levelo_inurba_marseille","lat":43.31341,"lon":5.367098,"is_reserved":false,"is_disabled":false,"rental_uris":{"android":"levelo://app?vid=28cef7fc-69a5-469a-a4c8-84ff47e04462","ios":"levelo://app?vid=28cef7fc-69a5-469a-a4c8-84ff47e04462"},"vehicle_type_id":"4","last_reported":1702168721,"current_range_meters":22800,"station_id":"ce4bgr92rcd13ifvqc6g","pricing_plan_id":"free"},{"bike_id":"0fe40999-5a08-472f-9c0e-b9ab62e54a02","system_id":"levelo_inurba_marseille","lat":43.30905,"lon":5.36856,"is_reserved":false,"is_disabled":false,"rental_uris":{"android":"levelo://app?vid=0fe40999-5a08-472f-9c0e-b9ab62e54a02","ios":"levelo://app?vid=0fe40999-5a08-472f-9c0e-b9ab62e54a02"},"vehicle_type_id":"4","last_reported":1702168721,"current_range_meters":26400,"station_id":"ce4bgn92rcd13ifvqbvg","pricing_plan_id":"free"},{"bike_id":"9acd56a4-a7e5-4d3c-a878-301030793438","system_id":"levelo_inurba_marseille","lat":43.311192,"lon":5.37762,"is_reserved":false,"is_disabled":false,"rental_uris":{"android":"levelo://app?vid=9acd56a4-a7e5-4d3c-a878-301030793438","ios":"levelo://app?vid=9acd56a4-a7e5-4d3c-a878-301030793438"},"vehicle_type_id":"4","last_reported":1702168721,"current_range_meters":20400,"station_id":"ce4bgt92rcd13ifvqcg0","pricing_plan_id":"free"},{"bike_id":"39392bd5-b077-48d8-a714-cf9874181a2e","system_id":"levelo_inurba_marseille","lat":43.307945,"lon":5.376487,"is_reserved":false,"is_disabled":false,"rental_uris":{"android":"levelo://app?vid=39392bd5-b077-48d8-a714-cf9874181a2e","ios":"levelo://app?vid=39392bd5-b077-48d8-a714-cf9874181a2e"},"vehicle_type_id":"4","last_reported":1702168721,"current_range_meters":15200,"station_id":"ce4bgv92rcd13ifvqcq0","pricing_plan_id":"free"},{"bike_id":"9883ca29-c852-49ea-9b52-f2009479e128","system_id":"levelo_inurba_marseille","lat":43.307945,"lon":5.376487,"is_reserved":false,"is_disabled":false,"rental_uris":{"android":"levelo://app?vid=9883ca29-c852-49ea-9b52-f2009479e128","ios":"levelo://app?vid=9883ca29-c852-49ea-9b52-f2009479e128"},"vehicle_type_id":"4","last_reported":1702168721,"current_range_meters":19600,"station_id":"ce4bgv92rcd13ifvqcq0","pricing_plan_id":"free"},{"bike_id":"9ae367b1-a4f3-47aa-ab3b-c8db2ef55fdd","system_id":"levelo_inurba_marseille","lat":43.317075,"lon":5.377367,"is_reserved":false,"is_disabled":false,"rental_uris":{"android":"levelo://app?vid=9ae367b1-a4f3-47aa-ab3b-c8db2ef55fdd","ios":"levelo://app?vid=9ae367b1-a4f3-47aa-ab3b-c8db2ef55fdd"},"vehicle_type_id":"4","last_reported":1702168721,"current_range_meters":27200,"station_id":"ce4bgth2rcd13ifvqch0","pricing_plan_id":"free"},{"bike_id":"048fc964-a79b-47bc-9f4f-3fa10b1c40b1","system_id":"levelo_inurba_marseille","lat":43.303046,"lon":5.368981,"is_reserved":false,"is_disabled":false,"rental_uris":{"android":"levelo://app?vid=048fc964-a79b-47bc-9f4f-3fa10b1c40b1","ios":"levelo://app?vid=048fc964-a79b-47bc-9f4f-3fa10b1c40b1"},"vehicle_type_id":"4","last_reported":1702168721,"current_range_meters":23600,"station_id":"ce4bgqh2rcd13ifvqc5g","pricing_plan_id":"free"},{"bike_id":"cf63ca16-724c-4922-b38a-e44c883d7d49","system_id":"levelo_inurba_marseille","lat":43.31533,"lon":5.3804,"is_reserved":false,"is_disabled":false,"rental_uris":{"android":"levelo://app?vid=cf63ca16-724c-4922-b38a-e44c883d7d49","ios":"levelo://app?vid=cf63ca16-724c-4922-b38a-e44c883d7d49"},"vehicle_type_id":"4","last_reported":1702168721,"current_range_meters":24400,"station_id":"ce4bhsp2rcd13ifvqi50","pricing_plan_id":"free"},{"bike_id":"3d46c0af-4576-4f2f-87b0-0abde914ad06","system_id":"levelo_inurba_marseille","lat":43.308012,"lon":5.381511,"is_reserved":false,"is_disabled":false,"rental_uris":{"android":"levelo://app?vid=3d46c0af-4576-4f2f-87b0-0abde914ad06","ios":"levelo://app?vid=3d46c0af-4576-4f2f-87b0-0abde914ad06"},"vehicle_type_id":"4","last_reported":1702168721,"current_range_meters":0,"station_id":"ce4bgt12rcd13ifvqce0","pricing_plan_id":"free"},{"bike_id":"0919586d-4b99-4a47-8bad-06baa1745e51","system_id":"levelo_inurba_marseille","lat":43.301429,"lon":5.37413,"is_reserved":false,"is_disabled":false,"rental_uris":{"android":"levelo://app?vid=0919586d-4b99-4a47-8bad-06baa1745e51","ios":"levelo://app?vid=0919586d-4b99-4a47-8bad-06baa1745e51"},"vehicle_type_id":"4","last_reported":1702168721,"current_range_meters":17200,"station_id":"ce4bgs92rcd13ifvqcc0","pricing_plan_id":"free"},{"bike_id":"6e37762e-9052-4e50-acbe-d48c47a98e9a","system_id":"levelo_inurba_marseille","lat":43.30139,"lon":5.37419,"is_reserved":false,"is_disabled":false,"rental_uris":{"android":"levelo://app?vid=6e37762e-9052-4e50-acbe-d48c47a98e9a","ios":"levelo://app?vid=6e37762e-9052-4e50-acbe-d48c47a98e9a"},"vehicle_type_id":"4","last_reported":1702168721,"current_range_meters":10800,"station_id":"ce4bgs92rcd13ifvqcc0","pricing_plan_id":"free"},{"bike_id":"d8be298e-f4c0-4479-a66b-e307c680d7cc","system_id":"levelo_inurba_marseille","lat":43.31356,"lon":5.38493,"is_reserved":false,"is_disabled":false,"rental_uris":{"android":"levelo://app?vid=d8be298e-f4c0-4479-a66b-e307c680d7cc","ios":"levelo://app?vid=d8be298e-f4c0-4479-a66b-e307c680d7cc"},"vehicle_type_id":"4","last_reported":1702168721,"current_range_meters":22400,"station_id":"ce4bgt92rcd13ifvqcf0","pricing_plan_id":"free"},{"bike_id":"f4723d74-75ca-4c0c-8c85-ca822d55cdfd","system_id":"levelo_inurba_marseille","lat":43.299724,"lon":5.371829,"is_reserved":false,"is_disabled":false,"rental_uris":{"android":"levelo://app?vid=f4723d74-75ca-4c0c-8c85-ca822d55cdfd","ios":"levelo://app?vid=f4723d74-75ca-4c0c-8c85-ca822d55cdfd"},"vehicle_type_id":"4","last_reported":1702168721,"current_range_meters":22800,"station_id":"ce4bgr92rcd13ifvqc7g","pricing_plan_id":"free"},{"bike_id":"8bc9351a-2a2e-42b3-a651-fd9226da845a","system_id":"levelo_inurba_marseille","lat":43.31569,"lon":5.38596,"is_reserved":false,"is_disabled":false,"rental_uris":{"android":"levelo://app?vid=8bc9351a-2a2e-42b3-a651-fd9226da845a","ios":"levelo://app?vid=8bc9351a-2a2e-42b3-a651-fd9226da845a"},"vehicle_type_id":"4","last_reported":1702168721,"current_range_meters":24000,"station_id":"","pricing_plan_id":"free"},{"bike_id":"c0a64277-f5dd-4691-8acb-5c084fb0cfac","system_id":"levelo_inurba_marseille","lat":43.298433,"lon":5.362774,"is_reserved":false,"is_disabled":false,"rental_uris":{"android":"levelo://app?vid=c0a64277-f5dd-4691-8acb-5c084fb0cfac","ios":"levelo://app?vid=c0a64277-f5dd-4691-8acb-5c084fb0cfac"},"vehicle_type_id":"4","last_reported":1702168721,"current_range_meters":26000,"station_id":"ce4bgpp2rcd13ifvqc3g","pricing_plan_id":"free"},{"bike_id":"bbd2ff55-b4eb-46c2-b1b1-11df9760b54b","system_id":"levelo_inurba_marseille","lat":43.31179,"lon":5.38714,"is_reserved":false,"is_disabled":false,"rental_uris":{"android":"levelo://app?vid=bbd2ff55-b4eb-46c2-b1b1-11df9760b54b","ios":"levelo://app?vid=bbd2ff55-b4eb-46c2-b1b1-11df9760b54b"},"vehicle_type_id":"4","last_reported":1702168721,"current_range_meters":3200,"station_id":"ce4bgv12rcd13ifvqcp0","pricing_plan_id":"free"},{"bike_id":"07ab1349-d47d-47ce-a2b2-76c58736a9c7","system_id":"levelo_inurba_marseille","lat":43.31169,"lon":5.3872,"is_reserved":false,"is_disabled":false,"rental_uris":{"android":"levelo://app?vid=07ab1349-d47d-47ce-a2b2-76c58736a9c7","ios":"levelo://app?vid=07ab1349-d47d-47ce-a2b2-76c58736a9c7"},"vehicle_type_id":"4","last_reported":1702168721,"current_range_meters":14400,"station_id":"ce4bgv12rcd13ifvqcp0","pricing_plan_id":"free"},{"bike_id":"6bfe2fc5-7a9a-49d3-8431-23c60f93357d","system_id":"levelo_inurba_marseille","lat":43.31168,"lon":5.3872,"is_reserved":false,"is_disabled":false,"rental_uris":{"android":"levelo://app?vid=6bfe2fc5-7a9a-49d3-8431-23c60f93357d","ios":"levelo://app?vid=6bfe2fc5-7a9a-49d3-8431-23c60f93357d"},"vehicle_type_id":"4","last_reported":1702168721,"current_range_meters":20000,"station_id":"ce4bgv12rcd13ifvqcp0","pricing_plan_id":"free"},{"bike_id":"6e78c49c-9daf-476c-bfb4-9eda6cdbfec5","system_id":"levelo_inurba_marseille","lat":43.311722,"lon":5.387247,"is_reserved":false,"is_disabled":false,"rental_uris":{"android":"levelo://app?vid=6e78c49c-9daf-476c-bfb4-9eda6cdbfec5","ios":"levelo://app?vid=6e78c49c-9daf-476c-bfb4-9eda6cdbfec5"},"vehicle_type_id":"4","last_reported":1702168721,"current_range_meters":4800,"station_id":"ce4bgv12rcd13ifvqcp0","pricing_plan_id":"free"},{"bike_id":"0370f0dd-02e1-44c3-b626-7cdd11d7ffac","system_id":"levelo_inurba_marseille","lat":43.32288,"lon":5.38264,"is_reserved":false,"is_disabled":false,"rental_uris":{"android":"levelo://app?vid=0370f0dd-02e1-44c3-b626-7cdd11d7ffac","ios":"levelo://app?vid=0370f0dd-02e1-44c3-b626-7cdd11d7ffac"},"vehicle_type_id":"4","last_reported":1702168721,"current_range_meters":31200,"station_id":"ce4bhr12rcd13ifvqhqg","pricing_plan_id":"free"},{"bike_id":"c60cbb7e-9382-450f-b819-5c2450f4f643","system_id":"levelo_inurba_marseille","lat":43.32288,"lon":5.38267,"is_reserved":false,"is_disabled":false,"rental_uris":{"android":"levelo://app?vid=c60cbb7e-9382-450f-b819-5c2450f4f643","ios":"levelo://app?vid=c60cbb7e-9382-450f-b819-5c2450f4f643"},"vehicle_type_id":"4","last_reported":1702168721,"current_range_meters":3600,"station_id":"ce4bhr12rcd13ifvqhqg","pricing_plan_id":"free"},{"bike_id":"6ac675f1-e0be-498c-ad2f-b742a949d4b0","system_id":"levelo_inurba_marseille","lat":43.298218,"lon":5.374416,"is_reserved":false,"is_disabled":false,"rental_uris":{"android":"levelo://app?vid=6ac675f1-e0be-498c-ad2f-b742a949d4b0","ios":"levelo://app?vid=6ac675f1-e0be-498c-ad2f-b742a949d4b0"},"vehicle_type_id":"4","last_reported":1702168721,"current_range_meters":400,"station_id":"","pricing_plan_id":"free"},{"bike_id":"616e8526-5b38-4994-9814-0ba76b59228f","system_id":"levelo_inurba_marseille","lat":43.2968,"lon":5.37291,"is_reserved":false,"is_disabled":false,"rental_uris":{"android":"levelo://app?vid=616e8526-5b38-4994-9814-0ba76b59228f","ios":"levelo://app?vid=616e8526-5b38-4994-9814-0ba76b59228f"},"vehicle_type_id":"4","last_reported":1702168721,"current_range_meters":23600,"station_id":"ce4bgk12rcd13ifvqbj0","pricing_plan_id":"free"},{"bike_id":"92dc65d6-6823-4de3-93d4-056f738f090c","system_id":"levelo_inurba_marseille","lat":43.316538,"lon":5.38954,"is_reserved":false,"is_disabled":false,"rental_uris":{"android":"levelo://app?vid=92dc65d6-6823-4de3-93d4-056f738f090c","ios":"levelo://app?vid=92dc65d6-6823-4de3-93d4-056f738f090c"},"vehicle_type_id":"4","last_reported":1702168721,"current_range_meters":0,"station_id":"","pricing_plan_id":"free"},{"bike_id":"35068c78-4c9e-4bdf-a34b-ce4185f83def","system_id":"levelo_inurba_marseille","lat":43.309589,"lon":5.390258,"is_reserved":false,"is_disabled":false,"rental_uris":{"android":"levelo://app?vid=35068c78-4c9e-4bdf-a34b-ce4185f83def","ios":"levelo://app?vid=35068c78-4c9e-4bdf-a34b-ce4185f83def"},"vehicle_type_id":"4","last_reported":1702168721,"current_range_meters":26400,"station_id":"ce4bgup2rcd13ifvqco0","pricing_plan_id":"free"},{"bike_id":"1391f894-b835-4388-a938-963d2b7904b8","system_id":"levelo_inurba_marseille","lat":43.317557,"lon":5.390173,"is_reserved":false,"is_disabled":false,"rental_uris":{"android":"levelo://app?vid=1391f894-b835-4388-a938-963d2b7904b8","ios":"levelo://app?vid=1391f894-b835-4388-a938-963d2b7904b8"},"vehicle_type_id":"4","last_reported":1702168721,"current_range_meters":29200,"station_id":"ce4bhqp2rcd13ifvqhng","pricing_plan_id":"free"},{"bike_id":"d69f04d9-84df-4f26-bc64-9f532752e790","system_id":"levelo_inurba_marseille","lat":43.317585,"lon":5.390225,"is_reserved":false,"is_disabled":false,"rental_uris":{"android":"levelo://app?vid=d69f04d9-84df-4f26-bc64-9f532752e790","ios":"levelo://app?vid=d69f04d9-84df-4f26-bc64-9f532752e790"},"vehicle_type_id":"4","last_reported":1702168721,"current_range_meters":2800,"station_id":"ce4bhqp2rcd13ifvqhng","pricing_plan_id":"free"},{"bike_id":"99b0b525-b0bc-4df3-ae5a-018690998622","system_id":"levelo_inurba_marseille","lat":43.304278,"lon":5.388868,"is_reserved":false,"is_disabled":false,"rental_uris":{"android":"levelo://app?vid=99b0b525-b0bc-4df3-ae5a-018690998622","ios":"levelo://app?vid=99b0b525-b0bc-4df3-ae5a-018690998622"},"vehicle_type_id":"4","last_reported":1702168721,"current_range_meters":8800,"station_id":"ce4bgk12rcd13ifvqbi0","pricing_plan_id":"free"},{"bike_id":"b70c5ff6-a5eb-4e27-a6db-ae0935e92ca4","system_id":"levelo_inurba_marseille","lat":43.298483,"lon":5.383005,"is_reserved":false,"is_disabled":false,"rental_uris":{"android":"levelo://app?vid=b70c5ff6-a5eb-4e27-a6db-ae0935e92ca4","ios":"levelo://app?vid=b70c5ff6-a5eb-4e27-a6db-ae0935e92ca4"},"vehicle_type_id":"4","last_reported":1702168721,"current_range_meters":0,"station_id":"","pricing_plan_id":"free"},{"bike_id":"cba4b429-f726-4cdc-8cc7-5afb9171f120","system_id":"levelo_inurba_marseille","lat":43.32368,"lon":5.38884,"is_reserved":false,"is_disabled":false,"rental_uris":{"android":"levelo://app?vid=cba4b429-f726-4cdc-8cc7-5afb9171f120","ios":"levelo://app?vid=cba4b429-f726-4cdc-8cc7-5afb9171f120"},"vehicle_type_id":"4","last_reported":1702168721,"current_range_meters":12000,"station_id":"ce4bhqp2rcd13ifvqhog","pricing_plan_id":"free"},{"bike_id":"37f7d6ee-ee5b-47cd-94f2-f3dd92eaa842","system_id":"levelo_inurba_marseille","lat":43.293259,"lon":5.371586,"is_reserved":false,"is_disabled":false,"rental_uris":{"android":"levelo://app?vid=37f7d6ee-ee5b-47cd-94f2-f3dd92eaa842","ios":"levelo://app?vid=37f7d6ee-ee5b-47cd-94f2-f3dd92eaa842"},"vehicle_type_id":"4","last_reported":1702168721,"current_range_meters":27600,"station_id":"ce4bgh92rcd13ifvqb40","pricing_plan_id":"free"},{"bike_id":"b6b884bb-3478-43ae-b3b4-79413512b6b8","system_id":"levelo_inurba_marseille","lat":43.305994,"lon":5.393687,"is_reserved":false,"is_disabled":false,"rental_uris":{"android":"levelo://app?vid=b6b884bb-3478-43ae-b3b4-79413512b6b8","ios":"levelo://app?vid=b6b884bb-3478-43ae-b3b4-79413512b6b8"},"vehicle_type_id":"4","last_reported":1702168721,"current_range_meters":8400,"station_id":"ce4bh0p2rcd13ifvqd80","pricing_plan_id":"free"},{"bike_id":"a3a9b129-2881-4203-a574-8cd7af72549f","system_id":"levelo_inurba_marseille","lat":43.30085,"lon":5.390856,"is_reserved":false,"is_disabled":false,"rental_uris":{"android":"levelo://app?vid=a3a9b129-2881-4203-a574-8cd7af72549f","ios":"levelo://app?vid=a3a9b129-2881-4203-a574-8cd7af72549f"},"vehicle_type_id":"4","last_reported":1702168721,"current_range_meters":5600,"station_id":"ce4bh192rcd13ifvqdb0","pricing_plan_id":"free"},{"bike_id":"12254971-6f18-4736-91cb-f61b0de64a8a","system_id":"levelo_inurba_marseille","lat":43.292311,"lon":5.360731,"is_reserved":false,"is_disabled":false,"rental_uris":{"android":"levelo://app?vid=12254971-6f18-4736-91cb-f61b0de64a8a","ios":"levelo://app?vid=12254971-6f18-4736-91cb-f61b0de64a8a"},"vehicle_type_id":"4","last_reported":1702168721,"current_range_meters":5600,"station_id":"ce4bhbh2rcd13ifvqeqg","pricing_plan_id":"free"},{"bike_id":"ffe8e861-9583-46be-9da3-462d5c1037ee","system_id":"levelo_inurba_marseille","lat":43.29258,"lon":5.3763,"is_reserved":false,"is_disabled":false,"rental_uris":{"android":"levelo://app?vid=ffe8e861-9583-46be-9da3-462d5c1037ee","ios":"levelo://app?vid=ffe8e861-9583-46be-9da3-462d5c1037ee"},"vehicle_type_id":"4","last_reported":1702168721,"current_range_meters":9200,"station_id":"ce4bgi12rcd13ifvqb80","pricing_plan_id":"free"},{"bike_id":"5c79bc93-8f13-4c40-8a8c-8f35d3902245","system_id":"levelo_inurba_marseille","lat":43.332304,"lon":5.379821,"is_reserved":false,"is_disabled":false,"rental_uris":{"android":"levelo://app?vid=5c79bc93-8f13-4c40-8a8c-8f35d3902245","ios":"levelo://app?vid=5c79bc93-8f13-4c40-8a8c-8f35d3902245"},"vehicle_type_id":"4","last_reported":1702168721,"current_range_meters":11600,"station_id":"","pricing_plan_id":"free"},{"bike_id":"bb377e0c-b390-4041-a2ac-ca7c2a2c0dfe","system_id":"levelo_inurba_marseille","lat":43.291994,"lon":5.357886,"is_reserved":false,"is_disabled":false,"rental_uris":{"android":"levelo://app?vid=bb377e0c-b390-4041-a2ac-ca7c2a2c0dfe","ios":"levelo://app?vid=bb377e0c-b390-4041-a2ac-ca7c2a2c0dfe"},"vehicle_type_id":"4","last_reported":1702168721,"current_range_meters":14800,"station_id":"ce4bhb12rcd13ifvqel0","pricing_plan_id":"free"},{"bike_id":"5ed66215-e812-4934-8bd8-05fa06e2778c","system_id":"levelo_inurba_marseille","lat":43.332438,"lon":5.37983,"is_reserved":false,"is_disabled":false,"rental_uris":{"android":"levelo://app?vid=5ed66215-e812-4934-8bd8-05fa06e2778c","ios":"levelo://app?vid=5ed66215-e812-4934-8bd8-05fa06e2778c"},"vehicle_type_id":"4","last_reported":1702168721,"current_range_meters":26800,"station_id":"","pricing_plan_id":"free"},{"bike_id":"401fe086-2828-4d63-bd6b-53603201f345","system_id":"levelo_inurba_marseille","lat":43.313291,"lon":5.396838,"is_reserved":false,"is_disabled":false,"rental_uris":{"android":"levelo://app?vid=401fe086-2828-4d63-bd6b-53603201f345","ios":"levelo://app?vid=401fe086-2828-4d63-bd6b-53603201f345"},"vehicle_type_id":"4","last_reported":1702168721,"current_range_meters":3600,"station_id":"ce4bgvp2rcd13ifvqcu0","pricing_plan_id":"free"},{"bike_id":"946c553e-df8f-4ce9-b6ae-027997ed4451","system_id":"levelo_inurba_marseille","lat":43.29187,"lon":5.35797,"is_reserved":false,"is_disabled":false,"rental_uris":{"android":"levelo://app?vid=946c553e-df8f-4ce9-b6ae-027997ed4451","ios":"levelo://app?vid=946c553e-df8f-4ce9-b6ae-027997ed4451"},"vehicle_type_id":"4","last_reported":1702168721,"current_range_meters":14800,"station_id":"ce4bhb12rcd13ifvqel0","pricing_plan_id":"free"},{"bike_id":"e5e1556d-54f6-4de3-a906-092c27b81b2d","system_id":"levelo_inurba_marseille","lat":43.309038,"lon":5.396546,"is_reserved":false,"is_disabled":false,"rental_uris":{"android":"levelo://app?vid=e5e1556d-54f6-4de3-a906-092c27b81b2d","ios":"levelo://app?vid=e5e1556d-54f6-4de3-a906-092c27b81b2d"},"vehicle_type_id":"4","last_reported":1702168721,"current_range_meters":30400,"station_id":"ce4bh012rcd13ifvqcv0","pricing_plan_id":"free"},{"bike_id":"c0630aab-3bb0-43d3-8b9d-674ab7344152","system_id":"levelo_inurba_marseille","lat":43.313291,"lon":5.396838,"is_reserved":false,"is_disabled":false,"rental_uris":{"android":"levelo://app?vid=c0630aab-3bb0-43d3-8b9d-674ab7344152","ios":"levelo://app?vid=c0630aab-3bb0-43d3-8b9d-674ab7344152"},"vehicle_type_id":"4","last_reported":1702168721,"current_range_meters":10800,"station_id":"ce4bgvp2rcd13ifvqcu0","pricing_plan_id":"free"},{"bike_id":"2d2ba014-f78e-4ead-840c-da41e776ccec","system_id":"levelo_inurba_marseille","lat":43.290779,"lon":5.371482,"is_reserved":false,"is_disabled":false,"rental_uris":{"android":"levelo://app?vid=2d2ba014-f78e-4ead-840c-da41e776ccec","ios":"levelo://app?vid=2d2ba014-f78e-4ead-840c-da41e776ccec"},"vehicle_type_id":"4","last_reported":1702168721,"current_range_meters":6400,"station_id":"ce4bh5p2rcd13ifvqe4g","pricing_plan_id":"free"},{"bike_id":"fae349c8-5fce-47f7-84d4-3dd1284d1b8b","system_id":"levelo_inurba_marseille","lat":43.29443,"lon":5.38572,"is_reserved":false,"is_disabled":false,"rental_uris":{"android":"levelo://app?vid=fae349c8-5fce-47f7-84d4-3dd1284d1b8b","ios":"levelo://app?vid=fae349c8-5fce-47f7-84d4-3dd1284d1b8b"},"vehicle_type_id":"4","last_reported":1702168721,"current_range_meters":9600,"station_id":"","pricing_plan_id":"free"},{"bike_id":"96ce3018-1ef6-4157-bbb9-2980c9d4a465","system_id":"levelo_inurba_marseille","lat":43.30209,"lon":5.39472,"is_reserved":false,"is_disabled":false,"rental_uris":{"android":"levelo://app?vid=96ce3018-1ef6-4157-bbb9-2980c9d4a465","ios":"levelo://app?vid=96ce3018-1ef6-4157-bbb9-2980c9d4a465"},"vehicle_type_id":"4","last_reported":1702168721,"current_range_meters":0,"station_id":"ce4bh0p2rcd13ifvqd70","pricing_plan_id":"free"},{"bike_id":"ea39043c-001b-44d9-9aaa-7d2cf0e3185d","system_id":"levelo_inurba_marseille","lat":43.289184,"lon":5.366408,"is_reserved":false,"is_disabled":false,"rental_uris":{"android":"levelo://app?vid=ea39043c-001b-44d9-9aaa-7d2cf0e3185d","ios":"levelo://app?vid=ea39043c-001b-44d9-9aaa-7d2cf0e3185d"},"vehicle_type_id":"4","last_reported":1702168721,"current_range_meters":0,"station_id":"ce4bhap2rcd13ifvqek0","pricing_plan_id":"free"},{"bike_id":"a02a1b20-1fb1-4951-988a-77389649024d","system_id":"levelo_inurba_marseille","lat":43.289259,"lon":5.366364,"is_reserved":false,"is_disabled":false,"rental_uris":{"android":"levelo://app?vid=a02a1b20-1fb1-4951-988a-77389649024d","ios":"levelo://app?vid=a02a1b20-1fb1-4951-988a-77389649024d"},"vehicle_type_id":"4","last_reported":1702168721,"current_range_meters":10400,"station_id":"","pricing_plan_id":"free"},{"bike_id":"ed2b68dd-e73e-444e-8536-4582f91b4a3f","system_id":"levelo_inurba_marseille","lat":43.290995,"lon":5.381361,"is_reserved":false,"is_disabled":false,"rental_uris":{"android":"levelo://app?vid=ed2b68dd-e73e-444e-8536-4582f91b4a3f","ios":"levelo://app?vid=ed2b68dd-e73e-444e-8536-4582f91b4a3f"},"vehicle_type_id":"4","last_reported":1702168721,"current_range_meters":400,"station_id":"ce4bh512rcd13ifvqe2g","pricing_plan_id":"free"},{"bike_id":"fcc3f46b-a816-4120-9467-610f6fe299a9","system_id":"levelo_inurba_marseille","lat":43.2979,"lon":5.39332,"is_reserved":false,"is_disabled":false,"rental_uris":{"android":"levelo://app?vid=fcc3f46b-a816-4120-9467-610f6fe299a9","ios":"levelo://app?vid=fcc3f46b-a816-4120-9467-610f6fe299a9"},"vehicle_type_id":"4","last_reported":1702168721,"current_range_meters":26800,"station_id":"chh1huq6cuj3fo74tm60","pricing_plan_id":"free"},{"bike_id":"7229ab44-889a-4327-bbf2-a5feb65eb3e9","system_id":"levelo_inurba_marseille","lat":43.29778,"lon":5.393261,"is_reserved":false,"is_disabled":false,"rental_uris":{"android":"levelo://app?vid=7229ab44-889a-4327-bbf2-a5feb65eb3e9","ios":"levelo://app?vid=7229ab44-889a-4327-bbf2-a5feb65eb3e9"},"vehicle_type_id":"4","last_reported":1702168721,"current_range_meters":19200,"station_id":"chh1huq6cuj3fo74tm60","pricing_plan_id":"free"},{"bike_id":"a0ae4afa-bb3a-4c22-984f-2ffee1f04fd2","system_id":"levelo_inurba_marseille","lat":43.2901,"lon":5.381269,"is_reserved":false,"is_disabled":false,"rental_uris":{"android":"levelo://app?vid=a0ae4afa-bb3a-4c22-984f-2ffee1f04fd2","ios":"levelo://app?vid=a0ae4afa-bb3a-4c22-984f-2ffee1f04fd2"},"vehicle_type_id":"4","last_reported":1702168721,"current_range_meters":11600,"station_id":"ce4bh4p2rcd13ifvqe1g","pricing_plan_id":"free"},{"bike_id":"0d698495-d249-4461-aefb-fc19643eb368","system_id":"levelo_inurba_marseille","lat":43.31278,"lon":5.40172,"is_reserved":false,"is_disabled":false,"rental_uris":{"android":"levelo://app?vid=0d698495-d249-4461-aefb-fc19643eb368","ios":"levelo://app?vid=0d698495-d249-4461-aefb-fc19643eb368"},"vehicle_type_id":"4","last_reported":1702168721,"current_range_meters":29200,"station_id":"ce4bh092rcd13ifvqd30","pricing_plan_id":"free"},{"bike_id":"6fd881ef-fe4e-4790-8987-f4498052e126","system_id":"levelo_inurba_marseille","lat":43.30937,"lon":5.40141,"is_reserved":false,"is_disabled":false,"rental_uris":{"android":"levelo://app?vid=6fd881ef-fe4e-4790-8987-f4498052e126","ios":"levelo://app?vid=6fd881ef-fe4e-4790-8987-f4498052e126"},"vehicle_type_id":"4","last_reported":1702168721,"current_range_meters":27600,"station_id":"ce4bgvp2rcd13ifvqct0","pricing_plan_id":"free"},{"bike_id":"6bdf5736-d2e7-4812-ae5b-655b69deb87b","system_id":"levelo_inurba_marseille","lat":43.309244,"lon":5.401454,"is_reserved":false,"is_disabled":false,"rental_uris":{"android":"levelo://app?vid=6bdf5736-d2e7-4812-ae5b-655b69deb87b","ios":"levelo://app?vid=6bdf5736-d2e7-4812-ae5b-655b69deb87b"},"vehicle_type_id":"4","last_reported":1702168721,"current_range_meters":14400,"station_id":"ce4bgvp2rcd13ifvqct0","pricing_plan_id":"free"},{"bike_id":"d704fbb5-a62e-41e0-b672-417a9fb48975","system_id":"levelo_inurba_marseille","lat":43.306625,"lon":5.4008,"is_reserved":false,"is_disabled":false,"rental_uris":{"android":"levelo://app?vid=d704fbb5-a62e-41e0-b672-417a9fb48975","ios":"levelo://app?vid=d704fbb5-a62e-41e0-b672-417a9fb48975"},"vehicle_type_id":"4","last_reported":1702168721,"current_range_meters":0,"station_id":"ce4bh112rcd13ifvqda0","pricing_plan_id":"free"},{"bike_id":"31cfcc3f-f89f-4358-8145-e3068d1723c9","system_id":"levelo_inurba_marseille","lat":43.312782,"lon":5.401838,"is_reserved":false,"is_disabled":false,"rental_uris":{"android":"levelo://app?vid=31cfcc3f-f89f-4358-8145-e3068d1723c9","ios":"levelo://app?vid=31cfcc3f-f89f-4358-8145-e3068d1723c9"},"vehicle_type_id":"4","last_reported":1702168721,"current_range_meters":0,"station_id":"ce4bh092rcd13ifvqd30","pricing_plan_id":"free"},{"bike_id":"8c8b71c0-7431-4700-bbec-c2a893c8d07a","system_id":"levelo_inurba_marseille","lat":43.30642,"lon":5.401031,"is_reserved":false,"is_disabled":false,"rental_uris":{"android":"levelo://app?vid=8c8b71c0-7431-4700-bbec-c2a893c8d07a","ios":"levelo://app?vid=8c8b71c0-7431-4700-bbec-c2a893c8d07a"},"vehicle_type_id":"4","last_reported":1702168721,"current_range_meters":0,"station_id":"ce4bh112rcd13ifvqda0","pricing_plan_id":"free"},{"bike_id":"d973e4a3-5274-444c-9847-00f321cc4a9b","system_id":"levelo_inurba_marseille","lat":43.309371,"lon":5.401449,"is_reserved":false,"is_disabled":false,"rental_uris":{"android":"levelo://app?vid=d973e4a3-5274-444c-9847-00f321cc4a9b","ios":"levelo://app?vid=d973e4a3-5274-444c-9847-00f321cc4a9b"},"vehicle_type_id":"4","last_reported":1702168721,"current_range_meters":18800,"station_id":"ce4bgvp2rcd13ifvqct0","pricing_plan_id":"free"},{"bike_id":"4015c590-8b74-4dec-b47c-b86a2d5c5771","system_id":"levelo_inurba_marseille","lat":43.28727,"lon":5.36078,"is_reserved":false,"is_disabled":false,"rental_uris":{"android":"levelo://app?vid=4015c590-8b74-4dec-b47c-b86a2d5c5771","ios":"levelo://app?vid=4015c590-8b74-4dec-b47c-b86a2d5c5771"},"vehicle_type_id":"4","last_reported":1702168721,"current_range_meters":19600,"station_id":"cki0cbj6b192h4jlfktg","pricing_plan_id":"free"},{"bike_id":"05c7bcdb-4d6b-4e07-ac1a-125b441f90ed","system_id":"levelo_inurba_marseille","lat":43.286591,"lon":5.363346,"is_reserved":false,"is_disabled":false,"rental_uris":{"android":"levelo://app?vid=05c7bcdb-4d6b-4e07-ac1a-125b441f90ed","ios":"levelo://app?vid=05c7bcdb-4d6b-4e07-ac1a-125b441f90ed"},"vehicle_type_id":"4","last_reported":1702168721,"current_range_meters":4400,"station_id":"ce4bhah2rcd13ifvqej0","pricing_plan_id":"free"},{"bike_id":"d97a768a-b171-451b-9ab0-cb2fbde16219","system_id":"levelo_inurba_marseille","lat":43.302759,"lon":5.400793,"is_reserved":false,"is_disabled":false,"rental_uris":{"android":"levelo://app?vid=d97a768a-b171-451b-9ab0-cb2fbde16219","ios":"levelo://app?vid=d97a768a-b171-451b-9ab0-cb2fbde16219"},"vehicle_type_id":"4","last_reported":1702168721,"current_range_meters":24000,"station_id":"ce4bgvh2rcd13ifvqcs0","pricing_plan_id":"free"},{"bike_id":"d3b94379-b2aa-4cd5-aebc-857639d65bbc","system_id":"levelo_inurba_marseille","lat":43.286039,"lon":5.370681,"is_reserved":false,"is_disabled":false,"rental_uris":{"android":"levelo://app?vid=d3b94379-b2aa-4cd5-aebc-857639d65bbc","ios":"levelo://app?vid=d3b94379-b2aa-4cd5-aebc-857639d65bbc"},"vehicle_type_id":"4","last_reported":1702168721,"current_range_meters":14000,"station_id":"ce4bht12rcd13ifvqi60","pricing_plan_id":"free"},{"bike_id":"8c426643-5820-4b72-ad7e-17694fdd482f","system_id":"levelo_inurba_marseille","lat":43.284626,"lon":5.358936,"is_reserved":false,"is_disabled":false,"rental_uris":{"android":"levelo://app?vid=8c426643-5820-4b72-ad7e-17694fdd482f","ios":"levelo://app?vid=8c426643-5820-4b72-ad7e-17694fdd482f"},"vehicle_type_id":"4","last_reported":1702168721,"current_range_meters":18800,"station_id":"ce4bhah2rcd13ifvqei0","pricing_plan_id":"free"},{"bike_id":"aca2608e-e86a-4577-94f0-a5c5e96261bb","system_id":"levelo_inurba_marseille","lat":43.294314,"lon":5.397498,"is_reserved":false,"is_disabled":false,"rental_uris":{"android":"levelo://app?vid=aca2608e-e86a-4577-94f0-a5c5e96261bb","ios":"levelo://app?vid=aca2608e-e86a-4577-94f0-a5c5e96261bb"},"vehicle_type_id":"4","last_reported":1702168721,"current_range_meters":19600,"station_id":"ce4bh3h2rcd13ifvqdo0","pricing_plan_id":"free"},{"bike_id":"ed500275-818a-4865-8236-806f5101581a","system_id":"levelo_inurba_marseille","lat":43.2842,"lon":5.37509,"is_reserved":false,"is_disabled":false,"rental_uris":{"android":"levelo://app?vid=ed500275-818a-4865-8236-806f5101581a","ios":"levelo://app?vid=ed500275-818a-4865-8236-806f5101581a"},"vehicle_type_id":"4","last_reported":1702168721,"current_range_meters":17200,"station_id":"ce4bh412rcd13ifvqds0","pricing_plan_id":"free"},{"bike_id":"f62e772d-72e6-46b0-828a-0d9a20a3b0fa","system_id":"levelo_inurba_marseille","lat":43.283998,"lon":5.375062,"is_reserved":false,"is_disabled":false,"rental_uris":{"android":"levelo://app?vid=f62e772d-72e6-46b0-828a-0d9a20a3b0fa","ios":"levelo://app?vid=f62e772d-72e6-46b0-828a-0d9a20a3b0fa"},"vehicle_type_id":"4","last_reported":1702168721,"current_range_meters":5600,"station_id":"ce4bh412rcd13ifvqds0","pricing_plan_id":"free"},{"bike_id":"a6933e1c-ff44-4387-b09b-3e19c18e88b4","system_id":"levelo_inurba_marseille","lat":43.323464,"lon":5.406297,"is_reserved":false,"is_disabled":false,"rental_uris":{"android":"levelo://app?vid=a6933e1c-ff44-4387-b09b-3e19c18e88b4","ios":"levelo://app?vid=a6933e1c-ff44-4387-b09b-3e19c18e88b4"},"vehicle_type_id":"4","last_reported":1702168721,"current_range_meters":20800,"station_id":"ce4bhq92rcd13ifvqhjg","pricing_plan_id":"free"},{"bike_id":"06b3aba6-9d1c-4e37-9a84-95de7cc08875","system_id":"levelo_inurba_marseille","lat":43.323464,"lon":5.406297,"is_reserved":false,"is_disabled":false,"rental_uris":{"android":"levelo://app?vid=06b3aba6-9d1c-4e37-9a84-95de7cc08875","ios":"levelo://app?vid=06b3aba6-9d1c-4e37-9a84-95de7cc08875"},"vehicle_type_id":"4","last_reported":1702168721,"current_range_meters":30400,"station_id":"ce4bhq92rcd13ifvqhjg","pricing_plan_id":"free"},{"bike_id":"2e3f5d1b-7227-4fd1-a3be-fcff682e2738","system_id":"levelo_inurba_marseille","lat":43.323464,"lon":5.406297,"is_reserved":false,"is_disabled":false,"rental_uris":{"android":"levelo://app?vid=2e3f5d1b-7227-4fd1-a3be-fcff682e2738","ios":"levelo://app?vid=2e3f5d1b-7227-4fd1-a3be-fcff682e2738"},"vehicle_type_id":"4","last_reported":1702168721,"current_range_meters":31200,"station_id":"ce4bhq92rcd13ifvqhjg","pricing_plan_id":"free"},{"bike_id":"33d78b75-41af-4f7b-ad4a-0b93d22b7176","system_id":"levelo_inurba_marseille","lat":43.323464,"lon":5.406297,"is_reserved":false,"is_disabled":false,"rental_uris":{"android":"levelo://app?vid=33d78b75-41af-4f7b-ad4a-0b93d22b7176","ios":"levelo://app?vid=33d78b75-41af-4f7b-ad4a-0b93d22b7176"},"vehicle_type_id":"4","last_reported":1702168721,"current_range_meters":20800,"station_id":"ce4bhq92rcd13ifvqhjg","pricing_plan_id":"free"},{"bike_id":"4da7061c-0a7d-407c-8ed7-5b8d45e64490","system_id":"levelo_inurba_marseille","lat":43.323464,"lon":5.406297,"is_reserved":false,"is_disabled":false,"rental_uris":{"android":"levelo://app?vid=4da7061c-0a7d-407c-8ed7-5b8d45e64490","ios":"levelo://app?vid=4da7061c-0a7d-407c-8ed7-5b8d45e64490"},"vehicle_type_id":"4","last_reported":1702168721,"current_range_meters":30000,"station_id":"ce4bhq92rcd13ifvqhjg","pricing_plan_id":"free"},{"bike_id":"8fd46938-9c98-4bdd-95cd-a70fdf894d36","system_id":"levelo_inurba_marseille","lat":43.284793,"lon":5.384113,"is_reserved":false,"is_disabled":false,"rental_uris":{"android":"levelo://app?vid=8fd46938-9c98-4bdd-95cd-a70fdf894d36","ios":"levelo://app?vid=8fd46938-9c98-4bdd-95cd-a70fdf894d36"},"vehicle_type_id":"4","last_reported":1702168721,"current_range_meters":1200,"station_id":"ce4bh512rcd13ifvqe3g","pricing_plan_id":"free"},{"bike_id":"94f70355-bc77-449f-ba93-c21822de3cd5","system_id":"levelo_inurba_marseille","lat":43.288501,"lon":5.393087,"is_reserved":false,"is_disabled":false,"rental_uris":{"android":"levelo://app?vid=94f70355-bc77-449f-ba93-c21822de3cd5","ios":"levelo://app?vid=94f70355-bc77-449f-ba93-c21822de3cd5"},"vehicle_type_id":"4","last_reported":1702168721,"current_range_meters":6000,"station_id":"ce4bh2p2rcd13ifvqdi0","pricing_plan_id":"free"},{"bike_id":"73375684-6305-4b9c-81ef-e9a1fb36e8dc","system_id":"levelo_inurba_marseille","lat":43.283502,"lon":5.386471,"is_reserved":false,"is_disabled":false,"rental_uris":{"android":"levelo://app?vid=73375684-6305-4b9c-81ef-e9a1fb36e8dc","ios":"levelo://app?vid=73375684-6305-4b9c-81ef-e9a1fb36e8dc"},"vehicle_type_id":"4","last_reported":1702168721,"current_range_meters":18800,"station_id":"ce4bh492rcd13ifvqdvg","pricing_plan_id":"free"},{"bike_id":"bbbb4a29-4dac-4a28-bc20-f74ceb75c186","system_id":"levelo_inurba_marseille","lat":43.28112,"lon":5.37837,"is_reserved":false,"is_disabled":false,"rental_uris":{"android":"levelo://app?vid=bbbb4a29-4dac-4a28-bc20-f74ceb75c186","ios":"levelo://app?vid=bbbb4a29-4dac-4a28-bc20-f74ceb75c186"},"vehicle_type_id":"4","last_reported":1702168721,"current_range_meters":0,"station_id":"ce4bha12rcd13ifvqee0","pricing_plan_id":"free"},{"bike_id":"ab7908d2-c4d2-42d4-8752-7de5f0ac26d7","system_id":"levelo_inurba_marseille","lat":43.296263,"lon":5.40601,"is_reserved":false,"is_disabled":false,"rental_uris":{"android":"levelo://app?vid=ab7908d2-c4d2-42d4-8752-7de5f0ac26d7","ios":"levelo://app?vid=ab7908d2-c4d2-42d4-8752-7de5f0ac26d7"},"vehicle_type_id":"4","last_reported":1702168721,"current_range_meters":25600,"station_id":"ce4bh0h2rcd13ifvqd60","pricing_plan_id":"free"},{"bike_id":"130f4392-f78a-4479-b25d-58a7d67aabe1","system_id":"levelo_inurba_marseille","lat":43.304188,"lon":5.412904,"is_reserved":false,"is_disabled":false,"rental_uris":{"android":"levelo://app?vid=130f4392-f78a-4479-b25d-58a7d67aabe1","ios":"levelo://app?vid=130f4392-f78a-4479-b25d-58a7d67aabe1"},"vehicle_type_id":"4","last_reported":1702168721,"current_range_meters":16000,"station_id":"ce4bhop2rcd13ifvqh8g","pricing_plan_id":"free"},{"bike_id":"0bc1eb45-a665-44a3-8a8b-d748ef95b051","system_id":"levelo_inurba_marseille","lat":43.304188,"lon":5.412904,"is_reserved":false,"is_disabled":false,"rental_uris":{"android":"levelo://app?vid=0bc1eb45-a665-44a3-8a8b-d748ef95b051","ios":"levelo://app?vid=0bc1eb45-a665-44a3-8a8b-d748ef95b051"},"vehicle_type_id":"4","last_reported":1702168721,"current_range_meters":24800,"station_id":"ce4bhop2rcd13ifvqh8g","pricing_plan_id":"free"},{"bike_id":"9e9dcb1a-f924-4518-b89b-3fb99ebdf849","system_id":"levelo_inurba_marseille","lat":43.279087,"lon":5.380114,"is_reserved":false,"is_disabled":false,"rental_uris":{"android":"levelo://app?vid=9e9dcb1a-f924-4518-b89b-3fb99ebdf849","ios":"levelo://app?vid=9e9dcb1a-f924-4518-b89b-3fb99ebdf849"},"vehicle_type_id":"4","last_reported":1702168721,"current_range_meters":11600,"station_id":"ce4bhf92rcd13ifvqf50","pricing_plan_id":"free"},{"bike_id":"e13da240-b979-40a8-bced-c55269ed8fc1","system_id":"levelo_inurba_marseille","lat":43.279087,"lon":5.380114,"is_reserved":false,"is_disabled":false,"rental_uris":{"android":"levelo://app?vid=e13da240-b979-40a8-bced-c55269ed8fc1","ios":"levelo://app?vid=e13da240-b979-40a8-bced-c55269ed8fc1"},"vehicle_type_id":"4","last_reported":1702168721,"current_range_meters":29600,"station_id":"ce4bhf92rcd13ifvqf50","pricing_plan_id":"free"},{"bike_id":"58f52f1b-f682-43f9-888f-474549184cf8","system_id":"levelo_inurba_marseille","lat":43.32215,"lon":5.41467,"is_reserved":false,"is_disabled":false,"rental_uris":{"android":"levelo://app?vid=58f52f1b-f682-43f9-888f-474549184cf8","ios":"levelo://app?vid=58f52f1b-f682-43f9-888f-474549184cf8"},"vehicle_type_id":"4","last_reported":1702168721,"current_range_meters":15600,"station_id":"","pricing_plan_id":"free"},{"bike_id":"84520233-7c1d-425e-b28d-d323f0b15b3b","system_id":"levelo_inurba_marseille","lat":43.299579,"lon":5.413255,"is_reserved":false,"is_disabled":false,"rental_uris":{"android":"levelo://app?vid=84520233-7c1d-425e-b28d-d323f0b15b3b","ios":"levelo://app?vid=84520233-7c1d-425e-b28d-d323f0b15b3b"},"vehicle_type_id":"4","last_reported":1702168721,"current_range_meters":17200,"station_id":"ce4bhp12rcd13ifvqh9g","pricing_plan_id":"free"},{"bike_id":"b6b5a374-b5cc-463c-8476-f747f6769864","system_id":"levelo_inurba_marseille","lat":43.292571,"lon":5.409107,"is_reserved":false,"is_disabled":false,"rental_uris":{"android":"levelo://app?vid=b6b5a374-b5cc-463c-8476-f747f6769864","ios":"levelo://app?vid=b6b5a374-b5cc-463c-8476-f747f6769864"},"vehicle_type_id":"4","last_reported":1702168721,"current_range_meters":18400,"station_id":"ce4bh192rcd13ifvqdc0","pricing_plan_id":"free"},{"bike_id":"dfa92ed6-65e2-4d7b-afad-926463d2b88b","system_id":"levelo_inurba_marseille","lat":43.303837,"lon":5.418724,"is_reserved":false,"is_disabled":false,"rental_uris":{"android":"levelo://app?vid=dfa92ed6-65e2-4d7b-afad-926463d2b88b","ios":"levelo://app?vid=dfa92ed6-65e2-4d7b-afad-926463d2b88b"},"vehicle_type_id":"4","last_reported":1702168721,"current_range_meters":26000,"station_id":"ce4bhop2rcd13ifvqh7g","pricing_plan_id":"free"},{"bike_id":"37782980-a2df-4c49-97da-d323dad0d1c3","system_id":"levelo_inurba_marseille","lat":43.27836,"lon":5.39202,"is_reserved":false,"is_disabled":false,"rental_uris":{"android":"levelo://app?vid=37782980-a2df-4c49-97da-d323dad0d1c3","ios":"levelo://app?vid=37782980-a2df-4c49-97da-d323dad0d1c3"},"vehicle_type_id":"4","last_reported":1702168721,"current_range_meters":5200,"station_id":"ce4bhjp2rcd13ifvqga0","pricing_plan_id":"free"},{"bike_id":"4796beb2-3a14-49b4-bf74-72347a2a8caf","system_id":"levelo_inurba_marseille","lat":43.27577,"lon":5.38395,"is_reserved":false,"is_disabled":false,"rental_uris":{"android":"levelo://app?vid=4796beb2-3a14-49b4-bf74-72347a2a8caf","ios":"levelo://app?vid=4796beb2-3a14-49b4-bf74-72347a2a8caf"},"vehicle_type_id":"4","last_reported":1702168721,"current_range_meters":0,"station_id":"ce4bhh92rcd13ifvqfi0","pricing_plan_id":"free"},{"bike_id":"1b3cd507-c4d1-401b-9b23-755b513551b2","system_id":"levelo_inurba_marseille","lat":43.275625,"lon":5.384392,"is_reserved":false,"is_disabled":false,"rental_uris":{"android":"levelo://app?vid=1b3cd507-c4d1-401b-9b23-755b513551b2","ios":"levelo://app?vid=1b3cd507-c4d1-401b-9b23-755b513551b2"},"vehicle_type_id":"4","last_reported":1702168721,"current_range_meters":28400,"station_id":"ce4bhh92rcd13ifvqfi0","pricing_plan_id":"free"},{"bike_id":"6653323c-ce52-45ab-b010-5e270f0c1b09","system_id":"levelo_inurba_marseille","lat":43.336148,"lon":5.410349,"is_reserved":false,"is_disabled":false,"rental_uris":{"android":"levelo://app?vid=6653323c-ce52-45ab-b010-5e270f0c1b09","ios":"levelo://app?vid=6653323c-ce52-45ab-b010-5e270f0c1b09"},"vehicle_type_id":"4","last_reported":1702168721,"current_range_meters":27600,"station_id":"ce4bhqh2rcd13ifvqhmg","pricing_plan_id":"free"},{"bike_id":"980ce821-5a5f-4dfb-a895-9c119d96e24a","system_id":"levelo_inurba_marseille","lat":43.336148,"lon":5.410349,"is_reserved":false,"is_disabled":false,"rental_uris":{"android":"levelo://app?vid=980ce821-5a5f-4dfb-a895-9c119d96e24a","ios":"levelo://app?vid=980ce821-5a5f-4dfb-a895-9c119d96e24a"},"vehicle_type_id":"4","last_reported":1702168721,"current_range_meters":19200,"station_id":"ce4bhqh2rcd13ifvqhmg","pricing_plan_id":"free"},{"bike_id":"88e59060-d458-48a8-8abe-8a1913097d92","system_id":"levelo_inurba_marseille","lat":43.31716,"lon":5.42402,"is_reserved":false,"is_disabled":false,"rental_uris":{"android":"levelo://app?vid=88e59060-d458-48a8-8abe-8a1913097d92","ios":"levelo://app?vid=88e59060-d458-48a8-8abe-8a1913097d92"},"vehicle_type_id":"4","last_reported":1702168721,"current_range_meters":22800,"station_id":"ce4bhp92rcd13ifvqhbg","pricing_plan_id":"free"},{"bike_id":"80038031-3601-4c51-b66a-c6c9131d41d1","system_id":"levelo_inurba_marseille","lat":43.310785,"lon":5.424305,"is_reserved":false,"is_disabled":false,"rental_uris":{"android":"levelo://app?vid=80038031-3601-4c51-b66a-c6c9131d41d1","ios":"levelo://app?vid=80038031-3601-4c51-b66a-c6c9131d41d1"},"vehicle_type_id":"4","last_reported":1702168721,"current_range_meters":30000,"station_id":"ce4bhp92rcd13ifvqhag","pricing_plan_id":"free"},{"bike_id":"02791883-a925-42a0-9dd3-b7193f6a574b","system_id":"levelo_inurba_marseille","lat":43.317139,"lon":5.424037,"is_reserved":false,"is_disabled":false,"rental_uris":{"android":"levelo://app?vid=02791883-a925-42a0-9dd3-b7193f6a574b","ios":"levelo://app?vid=02791883-a925-42a0-9dd3-b7193f6a574b"},"vehicle_type_id":"4","last_reported":1702168721,"current_range_meters":28800,"station_id":"ce4bhp92rcd13ifvqhbg","pricing_plan_id":"free"},{"bike_id":"e7bd1e73-4f86-473d-905c-a7b0f3d6ad8a","system_id":"levelo_inurba_marseille","lat":43.31723,"lon":5.42405,"is_reserved":false,"is_disabled":false,"rental_uris":{"android":"levelo://app?vid=e7bd1e73-4f86-473d-905c-a7b0f3d6ad8a","ios":"levelo://app?vid=e7bd1e73-4f86-473d-905c-a7b0f3d6ad8a"},"vehicle_type_id":"4","last_reported":1702168721,"current_range_meters":15200,"station_id":"ce4bhp92rcd13ifvqhbg","pricing_plan_id":"free"},{"bike_id":"63133364-316e-458e-b234-bbd4926c63fc","system_id":"levelo_inurba_marseille","lat":43.27583,"lon":5.39474,"is_reserved":false,"is_disabled":false,"rental_uris":{"android":"levelo://app?vid=63133364-316e-458e-b234-bbd4926c63fc","ios":"levelo://app?vid=63133364-316e-458e-b234-bbd4926c63fc"},"vehicle_type_id":"4","last_reported":1702168721,"current_range_meters":5600,"station_id":"","pricing_plan_id":"free"},{"bike_id":"ea5b214b-e6ad-4713-a80f-64532b6a087e","system_id":"levelo_inurba_marseille","lat":43.295511,"lon":5.422926,"is_reserved":false,"is_disabled":false,"rental_uris":{"android":"levelo://app?vid=ea5b214b-e6ad-4713-a80f-64532b6a087e","ios":"levelo://app?vid=ea5b214b-e6ad-4713-a80f-64532b6a087e"},"vehicle_type_id":"4","last_reported":1702168721,"current_range_meters":27200,"station_id":"ce4bhph2rcd13ifvqhdg","pricing_plan_id":"free"},{"bike_id":"8f021145-48f8-459b-aef0-f8921e18b0a0","system_id":"levelo_inurba_marseille","lat":43.27214,"lon":5.3925,"is_reserved":false,"is_disabled":false,"rental_uris":{"android":"levelo://app?vid=8f021145-48f8-459b-aef0-f8921e18b0a0","ios":"levelo://app?vid=8f021145-48f8-459b-aef0-f8921e18b0a0"},"vehicle_type_id":"4","last_reported":1702168721,"current_range_meters":0,"station_id":"","pricing_plan_id":"free"},{"bike_id":"f0ebddec-d6cc-4cea-9205-f0ce292b2962","system_id":"levelo_inurba_marseille","lat":43.278128,"lon":5.407195,"is_reserved":false,"is_disabled":false,"rental_uris":{"android":"levelo://app?vid=f0ebddec-d6cc-4cea-9205-f0ce292b2962","ios":"levelo://app?vid=f0ebddec-d6cc-4cea-9205-f0ce292b2962"},"vehicle_type_id":"4","last_reported":1702168721,"current_range_meters":26000,"station_id":"ce4bhnh2rcd13ifvqgtg","pricing_plan_id":"free"},{"bike_id":"19cc942f-ece9-40d3-8083-cccfba7fe5b1","system_id":"levelo_inurba_marseille","lat":43.279881,"lon":5.416579,"is_reserved":false,"is_disabled":false,"rental_uris":{"android":"levelo://app?vid=19cc942f-ece9-40d3-8083-cccfba7fe5b1","ios":"levelo://app?vid=19cc942f-ece9-40d3-8083-cccfba7fe5b1"},"vehicle_type_id":"4","last_reported":1702168721,"current_range_meters":1200,"station_id":"ce4bho12rcd13ifvqh1g","pricing_plan_id":"free"},{"bike_id":"74945471-49c2-4e6d-a307-30ade296f3ca","system_id":"levelo_inurba_marseille","lat":43.26361,"lon":5.37539,"is_reserved":false,"is_disabled":false,"rental_uris":{"android":"levelo://app?vid=74945471-49c2-4e6d-a307-30ade296f3ca","ios":"levelo://app?vid=74945471-49c2-4e6d-a307-30ade296f3ca"},"vehicle_type_id":"4","last_reported":1702168721,"current_range_meters":12400,"station_id":"","pricing_plan_id":"free"},{"bike_id":"983ed045-1f7b-4579-b9d1-f93588aba3b1","system_id":"levelo_inurba_marseille","lat":43.308051,"lon":5.43527,"is_reserved":false,"is_disabled":false,"rental_uris":{"android":"levelo://app?vid=983ed045-1f7b-4579-b9d1-f93588aba3b1","ios":"levelo://app?vid=983ed045-1f7b-4579-b9d1-f93588aba3b1"},"vehicle_type_id":"4","last_reported":1702168721,"current_range_meters":11600,"station_id":"ce4bhph2rcd13ifvqheg","pricing_plan_id":"free"},{"bike_id":"74afee2e-33f9-45b7-9e80-407f2de301ef","system_id":"levelo_inurba_marseille","lat":43.2656,"lon":5.39016,"is_reserved":false,"is_disabled":false,"rental_uris":{"android":"levelo://app?vid=74afee2e-33f9-45b7-9e80-407f2de301ef","ios":"levelo://app?vid=74afee2e-33f9-45b7-9e80-407f2de301ef"},"vehicle_type_id":"4","last_reported":1702168721,"current_range_meters":12000,"station_id":"ce4bhe12rcd13ifvqf30","pricing_plan_id":"free"},{"bike_id":"11871828-ae64-4564-829b-281241935d90","system_id":"levelo_inurba_marseille","lat":43.26949,"lon":5.40262,"is_reserved":false,"is_disabled":false,"rental_uris":{"android":"levelo://app?vid=11871828-ae64-4564-829b-281241935d90","ios":"levelo://app?vid=11871828-ae64-4564-829b-281241935d90"},"vehicle_type_id":"4","last_reported":1702168721,"current_range_meters":25200,"station_id":"cjm6bp8fraef2m0cb0m0","pricing_plan_id":"free"},{"bike_id":"efce3206-6d32-4826-b5d6-39f58e58c1ba","system_id":"levelo_inurba_marseille","lat":43.26941,"lon":5.4025,"is_reserved":false,"is_disabled":false,"rental_uris":{"android":"levelo://app?vid=efce3206-6d32-4826-b5d6-39f58e58c1ba","ios":"levelo://app?vid=efce3206-6d32-4826-b5d6-39f58e58c1ba"},"vehicle_type_id":"4","last_reported":1702168721,"current_range_meters":14400,"station_id":"cjm6bp8fraef2m0cb0m0","pricing_plan_id":"free"},{"bike_id":"dbacbb4a-9e99-4a7a-9713-43dac221ae4c","system_id":"levelo_inurba_marseille","lat":43.317104,"lon":5.436818,"is_reserved":false,"is_disabled":false,"rental_uris":{"android":"levelo://app?vid=dbacbb4a-9e99-4a7a-9713-43dac221ae4c","ios":"levelo://app?vid=dbacbb4a-9e99-4a7a-9713-43dac221ae4c"},"vehicle_type_id":"4","last_reported":1702168721,"current_range_meters":31600,"station_id":"ce4bhp92rcd13ifvqhcg","pricing_plan_id":"free"},{"bike_id":"6e4ef9a4-8ece-4932-b43b-b3a60d61a2ca","system_id":"levelo_inurba_marseille","lat":43.317104,"lon":5.436818,"is_reserved":false,"is_disabled":false,"rental_uris":{"android":"levelo://app?vid=6e4ef9a4-8ece-4932-b43b-b3a60d61a2ca","ios":"levelo://app?vid=6e4ef9a4-8ece-4932-b43b-b3a60d61a2ca"},"vehicle_type_id":"4","last_reported":1702168721,"current_range_meters":2800,"station_id":"ce4bhp92rcd13ifvqhcg","pricing_plan_id":"free"},{"bike_id":"3ef100ae-f89f-44f5-89e8-967b4acd17f5","system_id":"levelo_inurba_marseille","lat":43.26202,"lon":5.379299,"is_reserved":false,"is_disabled":false,"rental_uris":{"android":"levelo://app?vid=3ef100ae-f89f-44f5-89e8-967b4acd17f5","ios":"levelo://app?vid=3ef100ae-f89f-44f5-89e8-967b4acd17f5"},"vehicle_type_id":"4","last_reported":1702168721,"current_range_meters":19600,"station_id":"ce4bhjp2rcd13ifvqg90","pricing_plan_id":"free"},{"bike_id":"e2a5fdfb-8206-4159-81d6-1ab96fe4d7e7","system_id":"levelo_inurba_marseille","lat":43.262012,"lon":5.379307,"is_reserved":false,"is_disabled":false,"rental_uris":{"android":"levelo://app?vid=e2a5fdfb-8206-4159-81d6-1ab96fe4d7e7","ios":"levelo://app?vid=e2a5fdfb-8206-4159-81d6-1ab96fe4d7e7"},"vehicle_type_id":"4","last_reported":1702168721,"current_range_meters":26800,"station_id":"ce4bhjp2rcd13ifvqg90","pricing_plan_id":"free"},{"bike_id":"d14fddf3-3638-41ff-a2e7-5c41cc7e7327","system_id":"levelo_inurba_marseille","lat":43.271368,"lon":5.40928,"is_reserved":false,"is_disabled":false,"rental_uris":{"android":"levelo://app?vid=d14fddf3-3638-41ff-a2e7-5c41cc7e7327","ios":"levelo://app?vid=d14fddf3-3638-41ff-a2e7-5c41cc7e7327"},"vehicle_type_id":"4","last_reported":1702168721,"current_range_meters":14800,"station_id":"ce4bhl12rcd13ifvqgf0","pricing_plan_id":"free"},{"bike_id":"02ded675-7ceb-43e4-8c10-e9b948276c7b","system_id":"levelo_inurba_marseille","lat":43.267959,"lon":5.402687,"is_reserved":false,"is_disabled":false,"rental_uris":{"android":"levelo://app?vid=02ded675-7ceb-43e4-8c10-e9b948276c7b","ios":"levelo://app?vid=02ded675-7ceb-43e4-8c10-e9b948276c7b"},"vehicle_type_id":"4","last_reported":1702168721,"current_range_meters":3200,"station_id":"ce501612rcd8frsf0b60","pricing_plan_id":"free"},{"bike_id":"80c7a52b-aa97-49e8-9052-f1316167c45b","system_id":"levelo_inurba_marseille","lat":43.2675,"lon":5.40219,"is_reserved":false,"is_disabled":false,"rental_uris":{"android":"levelo://app?vid=80c7a52b-aa97-49e8-9052-f1316167c45b","ios":"levelo://app?vid=80c7a52b-aa97-49e8-9052-f1316167c45b"},"vehicle_type_id":"4","last_reported":1702168721,"current_range_meters":14800,"station_id":"","pricing_plan_id":"free"},{"bike_id":"2e501ecb-19fc-480f-9a67-fa584e9ea359","system_id":"levelo_inurba_marseille","lat":43.26752,"lon":5.40227,"is_reserved":false,"is_disabled":false,"rental_uris":{"android":"levelo://app?vid=2e501ecb-19fc-480f-9a67-fa584e9ea359","ios":"levelo://app?vid=2e501ecb-19fc-480f-9a67-fa584e9ea359"},"vehicle_type_id":"4","last_reported":1702168721,"current_range_meters":24800,"station_id":"","pricing_plan_id":"free"},{"bike_id":"5f2d3882-2773-4d5c-828c-4c3c96bb97f7","system_id":"levelo_inurba_marseille","lat":43.298768,"lon":5.43643,"is_reserved":false,"is_disabled":false,"rental_uris":{"android":"levelo://app?vid=5f2d3882-2773-4d5c-828c-4c3c96bb97f7","ios":"levelo://app?vid=5f2d3882-2773-4d5c-828c-4c3c96bb97f7"},"vehicle_type_id":"4","last_reported":1702168721,"current_range_meters":30800,"station_id":"ce4bhpp2rcd13ifvqhfg","pricing_plan_id":"free"},{"bike_id":"c4a32d8b-8a0b-4189-aa9f-2983a413dfe8","system_id":"levelo_inurba_marseille","lat":43.299,"lon":5.43662,"is_reserved":false,"is_disabled":false,"rental_uris":{"android":"levelo://app?vid=c4a32d8b-8a0b-4189-aa9f-2983a413dfe8","ios":"levelo://app?vid=c4a32d8b-8a0b-4189-aa9f-2983a413dfe8"},"vehicle_type_id":"4","last_reported":1702168721,"current_range_meters":28800,"station_id":"ce4bhpp2rcd13ifvqhfg","pricing_plan_id":"free"},{"bike_id":"4f68f183-a711-4386-a731-e8ea8e2f115e","system_id":"levelo_inurba_marseille","lat":43.298768,"lon":5.43643,"is_reserved":false,"is_disabled":false,"rental_uris":{"android":"levelo://app?vid=4f68f183-a711-4386-a731-e8ea8e2f115e","ios":"levelo://app?vid=4f68f183-a711-4386-a731-e8ea8e2f115e"},"vehicle_type_id":"4","last_reported":1702168721,"current_range_meters":25600,"station_id":"ce4bhpp2rcd13ifvqhfg","pricing_plan_id":"free"},{"bike_id":"83e2018e-7127-4415-8bbf-2e347a9c6750","system_id":"levelo_inurba_marseille","lat":43.298938,"lon":5.436615,"is_reserved":false,"is_disabled":false,"rental_uris":{"android":"levelo://app?vid=83e2018e-7127-4415-8bbf-2e347a9c6750","ios":"levelo://app?vid=83e2018e-7127-4415-8bbf-2e347a9c6750"},"vehicle_type_id":"4","last_reported":1702168721,"current_range_meters":28000,"station_id":"ce4bhpp2rcd13ifvqhfg","pricing_plan_id":"free"},{"bike_id":"6b17b896-99f2-456b-929e-df3811eeb274","system_id":"levelo_inurba_marseille","lat":43.298768,"lon":5.43643,"is_reserved":false,"is_disabled":false,"rental_uris":{"android":"levelo://app?vid=6b17b896-99f2-456b-929e-df3811eeb274","ios":"levelo://app?vid=6b17b896-99f2-456b-929e-df3811eeb274"},"vehicle_type_id":"4","last_reported":1702168721,"current_range_meters":28400,"station_id":"ce4bhpp2rcd13ifvqhfg","pricing_plan_id":"free"},{"bike_id":"70c52fa1-91be-4fbd-9217-7a0c668f9310","system_id":"levelo_inurba_marseille","lat":43.299,"lon":5.43665,"is_reserved":false,"is_disabled":false,"rental_uris":{"android":"levelo://app?vid=70c52fa1-91be-4fbd-9217-7a0c668f9310","ios":"levelo://app?vid=70c52fa1-91be-4fbd-9217-7a0c668f9310"},"vehicle_type_id":"4","last_reported":1702168721,"current_range_meters":23600,"station_id":"ce4bhpp2rcd13ifvqhfg","pricing_plan_id":"free"},{"bike_id":"571189d9-1aa6-4660-b785-d8f0d693eb50","system_id":"levelo_inurba_marseille","lat":43.281548,"lon":5.42643,"is_reserved":false,"is_disabled":false,"rental_uris":{"android":"levelo://app?vid=571189d9-1aa6-4660-b785-d8f0d693eb50","ios":"levelo://app?vid=571189d9-1aa6-4660-b785-d8f0d693eb50"},"vehicle_type_id":"4","last_reported":1702168721,"current_range_meters":27600,"station_id":"ce4bhnh2rcd13ifvqgug","pricing_plan_id":"free"},{"bike_id":"ae2ee4ec-e0be-4650-a25d-ad306c6973d5","system_id":"levelo_inurba_marseille","lat":43.281548,"lon":5.42643,"is_reserved":false,"is_disabled":false,"rental_uris":{"android":"levelo://app?vid=ae2ee4ec-e0be-4650-a25d-ad306c6973d5","ios":"levelo://app?vid=ae2ee4ec-e0be-4650-a25d-ad306c6973d5"},"vehicle_type_id":"4","last_reported":1702168721,"current_range_meters":26800,"station_id":"ce4bhnh2rcd13ifvqgug","pricing_plan_id":"free"},{"bike_id":"ced98caa-8305-48e5-ae90-b812f3200f31","system_id":"levelo_inurba_marseille","lat":43.281548,"lon":5.42643,"is_reserved":false,"is_disabled":false,"rental_uris":{"android":"levelo://app?vid=ced98caa-8305-48e5-ae90-b812f3200f31","ios":"levelo://app?vid=ced98caa-8305-48e5-ae90-b812f3200f31"},"vehicle_type_id":"4","last_reported":1702168721,"current_range_meters":26800,"station_id":"ce4bhnh2rcd13ifvqgug","pricing_plan_id":"free"},{"bike_id":"c03e7c65-94ee-4f51-bb31-7322ab7baa32","system_id":"levelo_inurba_marseille","lat":43.281548,"lon":5.42643,"is_reserved":false,"is_disabled":false,"rental_uris":{"android":"levelo://app?vid=c03e7c65-94ee-4f51-bb31-7322ab7baa32","ios":"levelo://app?vid=c03e7c65-94ee-4f51-bb31-7322ab7baa32"},"vehicle_type_id":"4","last_reported":1702168721,"current_range_meters":0,"station_id":"ce4bhnh2rcd13ifvqgug","pricing_plan_id":"free"},{"bike_id":"139a27c7-f3ae-47e4-b585-f0759b6ba5b6","system_id":"levelo_inurba_marseille","lat":43.281548,"lon":5.42643,"is_reserved":false,"is_disabled":false,"rental_uris":{"android":"levelo://app?vid=139a27c7-f3ae-47e4-b585-f0759b6ba5b6","ios":"levelo://app?vid=139a27c7-f3ae-47e4-b585-f0759b6ba5b6"},"vehicle_type_id":"4","last_reported":1702168721,"current_range_meters":21600,"station_id":"ce4bhnh2rcd13ifvqgug","pricing_plan_id":"free"},{"bike_id":"971d63c2-83dd-41d1-be29-18106b6fda3e","system_id":"levelo_inurba_marseille","lat":43.281548,"lon":5.42643,"is_reserved":false,"is_disabled":false,"rental_uris":{"android":"levelo://app?vid=971d63c2-83dd-41d1-be29-18106b6fda3e","ios":"levelo://app?vid=971d63c2-83dd-41d1-be29-18106b6fda3e"},"vehicle_type_id":"4","last_reported":1702168721,"current_range_meters":5200,"station_id":"ce4bhnh2rcd13ifvqgug","pricing_plan_id":"free"},{"bike_id":"5525a139-c8f9-4163-ad42-51992063b245","system_id":"levelo_inurba_marseille","lat":43.281548,"lon":5.42643,"is_reserved":false,"is_disabled":false,"rental_uris":{"android":"levelo://app?vid=5525a139-c8f9-4163-ad42-51992063b245","ios":"levelo://app?vid=5525a139-c8f9-4163-ad42-51992063b245"},"vehicle_type_id":"4","last_reported":1702168721,"current_range_meters":23200,"station_id":"ce4bhnh2rcd13ifvqgug","pricing_plan_id":"free"},{"bike_id":"b9063a33-13b5-4cca-826c-3f51be03f8ec","system_id":"levelo_inurba_marseille","lat":43.281548,"lon":5.42643,"is_reserved":false,"is_disabled":false,"rental_uris":{"android":"levelo://app?vid=b9063a33-13b5-4cca-826c-3f51be03f8ec","ios":"levelo://app?vid=b9063a33-13b5-4cca-826c-3f51be03f8ec"},"vehicle_type_id":"4","last_reported":1702168721,"current_range_meters":31600,"station_id":"ce4bhnh2rcd13ifvqgug","pricing_plan_id":"free"},{"bike_id":"a7b35256-5fbf-430f-9cf0-9272f7f5b3c7","system_id":"levelo_inurba_marseille","lat":43.281548,"lon":5.42643,"is_reserved":false,"is_disabled":false,"rental_uris":{"android":"levelo://app?vid=a7b35256-5fbf-430f-9cf0-9272f7f5b3c7","ios":"levelo://app?vid=a7b35256-5fbf-430f-9cf0-9272f7f5b3c7"},"vehicle_type_id":"4","last_reported":1702168721,"current_range_meters":6800,"station_id":"ce4bhnh2rcd13ifvqgug","pricing_plan_id":"free"},{"bike_id":"8381b6c0-a970-418d-b394-9f8eb4bf2cb5","system_id":"levelo_inurba_marseille","lat":43.281548,"lon":5.42643,"is_reserved":false,"is_disabled":false,"rental_uris":{"android":"levelo://app?vid=8381b6c0-a970-418d-b394-9f8eb4bf2cb5","ios":"levelo://app?vid=8381b6c0-a970-418d-b394-9f8eb4bf2cb5"},"vehicle_type_id":"4","last_reported":1702168721,"current_range_meters":14000,"station_id":"ce4bhnh2rcd13ifvqgug","pricing_plan_id":"free"},{"bike_id":"eff31df2-7ae9-40b9-a76c-a299b0d5fc7f","system_id":"levelo_inurba_marseille","lat":43.2607,"lon":5.393983,"is_reserved":false,"is_disabled":false,"rental_uris":{"android":"levelo://app?vid=eff31df2-7ae9-40b9-a76c-a299b0d5fc7f","ios":"levelo://app?vid=eff31df2-7ae9-40b9-a76c-a299b0d5fc7f"},"vehicle_type_id":"4","last_reported":1702168721,"current_range_meters":800,"station_id":"ce4bhh92rcd13ifvqfj0","pricing_plan_id":"free"},{"bike_id":"84da0aff-d57f-465d-8040-80416986e196","system_id":"levelo_inurba_marseille","lat":43.2607,"lon":5.393983,"is_reserved":false,"is_disabled":false,"rental_uris":{"android":"levelo://app?vid=84da0aff-d57f-465d-8040-80416986e196","ios":"levelo://app?vid=84da0aff-d57f-465d-8040-80416986e196"},"vehicle_type_id":"4","last_reported":1702168721,"current_range_meters":4400,"station_id":"ce4bhh92rcd13ifvqfj0","pricing_plan_id":"free"},{"bike_id":"245fd099-81f6-433e-9b1b-b31e5c49e2ba","system_id":"levelo_inurba_marseille","lat":43.2607,"lon":5.393983,"is_reserved":false,"is_disabled":false,"rental_uris":{"android":"levelo://app?vid=245fd099-81f6-433e-9b1b-b31e5c49e2ba","ios":"levelo://app?vid=245fd099-81f6-433e-9b1b-b31e5c49e2ba"},"vehicle_type_id":"4","last_reported":1702168721,"current_range_meters":16400,"station_id":"ce4bhh92rcd13ifvqfj0","pricing_plan_id":"free"},{"bike_id":"4b961cec-d7ea-47bd-8b69-193b02ff897c","system_id":"levelo_inurba_marseille","lat":43.2607,"lon":5.393983,"is_reserved":false,"is_disabled":false,"rental_uris":{"android":"levelo://app?vid=4b961cec-d7ea-47bd-8b69-193b02ff897c","ios":"levelo://app?vid=4b961cec-d7ea-47bd-8b69-193b02ff897c"},"vehicle_type_id":"4","last_reported":1702168721,"current_range_meters":28400,"station_id":"ce4bhh92rcd13ifvqfj0","pricing_plan_id":"free"},{"bike_id":"c7ca1942-a897-4ebb-8b6b-b9e34177741c","system_id":"levelo_inurba_marseille","lat":43.2607,"lon":5.393983,"is_reserved":false,"is_disabled":false,"rental_uris":{"android":"levelo://app?vid=c7ca1942-a897-4ebb-8b6b-b9e34177741c","ios":"levelo://app?vid=c7ca1942-a897-4ebb-8b6b-b9e34177741c"},"vehicle_type_id":"4","last_reported":1702168721,"current_range_meters":20800,"station_id":"ce4bhh92rcd13ifvqfj0","pricing_plan_id":"free"},{"bike_id":"0341a2e7-04a4-4d8e-b96d-44e5882da047","system_id":"levelo_inurba_marseille","lat":43.275028,"lon":5.424534,"is_reserved":false,"is_disabled":false,"rental_uris":{"android":"levelo://app?vid=0341a2e7-04a4-4d8e-b96d-44e5882da047","ios":"levelo://app?vid=0341a2e7-04a4-4d8e-b96d-44e5882da047"},"vehicle_type_id":"4","last_reported":1702168721,"current_range_meters":26000,"station_id":"ce4bhn92rcd13ifvqgrg","pricing_plan_id":"free"},{"bike_id":"6a285a92-a82b-4ae9-b162-6bd6726e1bb9","system_id":"levelo_inurba_marseille","lat":43.258224,"lon":5.394369,"is_reserved":false,"is_disabled":false,"rental_uris":{"android":"levelo://app?vid=6a285a92-a82b-4ae9-b162-6bd6726e1bb9","ios":"levelo://app?vid=6a285a92-a82b-4ae9-b162-6bd6726e1bb9"},"vehicle_type_id":"4","last_reported":1702168721,"current_range_meters":28400,"station_id":"ce4bhip2rcd13ifvqft0","pricing_plan_id":"free"},{"bike_id":"deb6f3d1-b1dc-42f8-bb73-1372e62a4fce","system_id":"levelo_inurba_marseille","lat":43.258224,"lon":5.394369,"is_reserved":false,"is_disabled":false,"rental_uris":{"android":"levelo://app?vid=deb6f3d1-b1dc-42f8-bb73-1372e62a4fce","ios":"levelo://app?vid=deb6f3d1-b1dc-42f8-bb73-1372e62a4fce"},"vehicle_type_id":"4","last_reported":1702168721,"current_range_meters":21200,"station_id":"ce4bhip2rcd13ifvqft0","pricing_plan_id":"free"},{"bike_id":"9403a47c-9166-4906-a009-e96cb999ffef","system_id":"levelo_inurba_marseille","lat":43.254947,"lon":5.376454,"is_reserved":false,"is_disabled":false,"rental_uris":{"android":"levelo://app?vid=9403a47c-9166-4906-a009-e96cb999ffef","ios":"levelo://app?vid=9403a47c-9166-4906-a009-e96cb999ffef"},"vehicle_type_id":"4","last_reported":1702168721,"current_range_meters":17200,"station_id":"ce4bhh12rcd13ifvqff0","pricing_plan_id":"free"},{"bike_id":"46488328-c339-4346-9280-ec5f809f328b","system_id":"levelo_inurba_marseille","lat":43.270721,"lon":5.422764,"is_reserved":false,"is_disabled":false,"rental_uris":{"android":"levelo://app?vid=46488328-c339-4346-9280-ec5f809f328b","ios":"levelo://app?vid=46488328-c339-4346-9280-ec5f809f328b"},"vehicle_type_id":"4","last_reported":1702168721,"current_range_meters":800,"station_id":"ce4bhk92rcd13ifvqgb0","pricing_plan_id":"free"},{"bike_id":"d7389dfc-e0b8-468d-9cf6-2db040fd468b","system_id":"levelo_inurba_marseille","lat":43.258658,"lon":5.398935,"is_reserved":false,"is_disabled":false,"rental_uris":{"android":"levelo://app?vid=d7389dfc-e0b8-468d-9cf6-2db040fd468b","ios":"levelo://app?vid=d7389dfc-e0b8-468d-9cf6-2db040fd468b"},"vehicle_type_id":"4","last_reported":1702168721,"current_range_meters":26800,"station_id":"ce4bhl92rcd13ifvqghg","pricing_plan_id":"free"},{"bike_id":"84d2787f-fa52-48db-8cc7-7da61e6dd23e","system_id":"levelo_inurba_marseille","lat":43.257079,"lon":5.411051,"is_reserved":false,"is_disabled":false,"rental_uris":{"android":"levelo://app?vid=84d2787f-fa52-48db-8cc7-7da61e6dd23e","ios":"levelo://app?vid=84d2787f-fa52-48db-8cc7-7da61e6dd23e"},"vehicle_type_id":"4","last_reported":1702168721,"current_range_meters":30400,"station_id":"ce4bhkp2rcd13ifvqgd0","pricing_plan_id":"free"},{"bike_id":"ec7e0f25-2b57-406c-9174-5c941d354982","system_id":"levelo_inurba_marseille","lat":43.250009,"lon":5.389195,"is_reserved":false,"is_disabled":false,"rental_uris":{"android":"levelo://app?vid=ec7e0f25-2b57-406c-9174-5c941d354982","ios":"levelo://app?vid=ec7e0f25-2b57-406c-9174-5c941d354982"},"vehicle_type_id":"4","last_reported":1702168721,"current_range_meters":15200,"station_id":"ce4bhgp2rcd13ifvqfd0","pricing_plan_id":"free"},{"bike_id":"d85e0116-7863-4004-ac64-e9aa2fe6b1ca","system_id":"levelo_inurba_marseille","lat":43.2479,"lon":5.374457,"is_reserved":false,"is_disabled":false,"rental_uris":{"android":"levelo://app?vid=d85e0116-7863-4004-ac64-e9aa2fe6b1ca","ios":"levelo://app?vid=d85e0116-7863-4004-ac64-e9aa2fe6b1ca"},"vehicle_type_id":"4","last_reported":1702168721,"current_range_meters":24400,"station_id":"ce4bhgh2rcd13ifvqfb0","pricing_plan_id":"free"},{"bike_id":"b6576ee4-2f7f-4310-b857-13c49295b39e","system_id":"levelo_inurba_marseille","lat":43.2479,"lon":5.374457,"is_reserved":false,"is_disabled":false,"rental_uris":{"android":"levelo://app?vid=b6576ee4-2f7f-4310-b857-13c49295b39e","ios":"levelo://app?vid=b6576ee4-2f7f-4310-b857-13c49295b39e"},"vehicle_type_id":"4","last_reported":1702168721,"current_range_meters":20400,"station_id":"ce4bhgh2rcd13ifvqfb0","pricing_plan_id":"free"},{"bike_id":"89f6b9c7-2e47-467d-a5da-27592e88272c","system_id":"levelo_inurba_marseille","lat":43.250966,"lon":5.395186,"is_reserved":false,"is_disabled":false,"rental_uris":{"android":"levelo://app?vid=89f6b9c7-2e47-467d-a5da-27592e88272c","ios":"levelo://app?vid=89f6b9c7-2e47-467d-a5da-27592e88272c"},"vehicle_type_id":"4","last_reported":1702168721,"current_range_meters":31200,"station_id":"ce4bhm12rcd13ifvqgkg","pricing_plan_id":"free"},{"bike_id":"1ce69da6-03d1-4d60-a985-a8a09de81e79","system_id":"levelo_inurba_marseille","lat":43.250966,"lon":5.395186,"is_reserved":false,"is_disabled":false,"rental_uris":{"android":"levelo://app?vid=1ce69da6-03d1-4d60-a985-a8a09de81e79","ios":"levelo://app?vid=1ce69da6-03d1-4d60-a985-a8a09de81e79"},"vehicle_type_id":"4","last_reported":1702168721,"current_range_meters":16400,"station_id":"ce4bhm12rcd13ifvqgkg","pricing_plan_id":"free"},{"bike_id":"b22231f4-482d-4c32-aebb-e689c78d98cc","system_id":"levelo_inurba_marseille","lat":43.24693,"lon":5.382096,"is_reserved":false,"is_disabled":false,"rental_uris":{"android":"levelo://app?vid=b22231f4-482d-4c32-aebb-e689c78d98cc","ios":"levelo://app?vid=b22231f4-482d-4c32-aebb-e689c78d98cc"},"vehicle_type_id":"4","last_reported":1702168721,"current_range_meters":20800,"station_id":"ce4bhih2rcd13ifvqfr0","pricing_plan_id":"free"},{"bike_id":"a8920d8d-5ea0-4643-b10d-8e8ab5bf009a","system_id":"levelo_inurba_marseille","lat":43.24693,"lon":5.382096,"is_reserved":false,"is_disabled":false,"rental_uris":{"android":"levelo://app?vid=a8920d8d-5ea0-4643-b10d-8e8ab5bf009a","ios":"levelo://app?vid=a8920d8d-5ea0-4643-b10d-8e8ab5bf009a"},"vehicle_type_id":"4","last_reported":1702168721,"current_range_meters":0,"station_id":"ce4bhih2rcd13ifvqfr0","pricing_plan_id":"free"},{"bike_id":"312e2cea-f904-48a8-b935-fb3c2c38e35f","system_id":"levelo_inurba_marseille","lat":43.24693,"lon":5.382096,"is_reserved":false,"is_disabled":false,"rental_uris":{"android":"levelo://app?vid=312e2cea-f904-48a8-b935-fb3c2c38e35f","ios":"levelo://app?vid=312e2cea-f904-48a8-b935-fb3c2c38e35f"},"vehicle_type_id":"4","last_reported":1702168721,"current_range_meters":18800,"station_id":"ce4bhih2rcd13ifvqfr0","pricing_plan_id":"free"},{"bike_id":"3f2977c7-2d3e-4b05-813b-c8cad00b1d30","system_id":"levelo_inurba_marseille","lat":43.25102,"lon":5.403214,"is_reserved":false,"is_disabled":false,"rental_uris":{"android":"levelo://app?vid=3f2977c7-2d3e-4b05-813b-c8cad00b1d30","ios":"levelo://app?vid=3f2977c7-2d3e-4b05-813b-c8cad00b1d30"},"vehicle_type_id":"4","last_reported":1702168721,"current_range_meters":5200,"station_id":"ce4bhlh2rcd13ifvqgig","pricing_plan_id":"free"},{"bike_id":"9dc6e68a-3233-4e75-b32d-e08b4c53470d","system_id":"levelo_inurba_marseille","lat":43.25109,"lon":5.40324,"is_reserved":false,"is_disabled":false,"rental_uris":{"android":"levelo://app?vid=9dc6e68a-3233-4e75-b32d-e08b4c53470d","ios":"levelo://app?vid=9dc6e68a-3233-4e75-b32d-e08b4c53470d"},"vehicle_type_id":"4","last_reported":1702168721,"current_range_meters":19600,"station_id":"ce4bhlh2rcd13ifvqgig","pricing_plan_id":"free"},{"bike_id":"d608bd2a-1e64-45d8-8604-2f7a0c32cafc","system_id":"levelo_inurba_marseille","lat":43.25105,"lon":5.40322,"is_reserved":false,"is_disabled":false,"rental_uris":{"android":"levelo://app?vid=d608bd2a-1e64-45d8-8604-2f7a0c32cafc","ios":"levelo://app?vid=d608bd2a-1e64-45d8-8604-2f7a0c32cafc"},"vehicle_type_id":"4","last_reported":1702168721,"current_range_meters":20000,"station_id":"ce4bhlh2rcd13ifvqgig","pricing_plan_id":"free"},{"bike_id":"1a23636c-273b-427e-ba3a-4cc57a24dce9","system_id":"levelo_inurba_marseille","lat":43.246467,"lon":5.388984,"is_reserved":false,"is_disabled":false,"rental_uris":{"android":"levelo://app?vid=1a23636c-273b-427e-ba3a-4cc57a24dce9","ios":"levelo://app?vid=1a23636c-273b-427e-ba3a-4cc57a24dce9"},"vehicle_type_id":"4","last_reported":1702168721,"current_range_meters":4800,"station_id":"ce4bhg12rcd13ifvqf60","pricing_plan_id":"free"},{"bike_id":"d66641e6-78f2-4e47-8b40-cd8655dd05c7","system_id":"levelo_inurba_marseille","lat":43.243884,"lon":5.370737,"is_reserved":false,"is_disabled":false,"rental_uris":{"android":"levelo://app?vid=d66641e6-78f2-4e47-8b40-cd8655dd05c7","ios":"levelo://app?vid=d66641e6-78f2-4e47-8b40-cd8655dd05c7"},"vehicle_type_id":"4","last_reported":1702168721,"current_range_meters":26000,"station_id":"ce4bhhh2rcd13ifvqfk0","pricing_plan_id":"free"},{"bike_id":"deaae709-a376-4d80-a3cb-eb5b90731b26","system_id":"levelo_inurba_marseille","lat":43.245581,"lon":5.395069,"is_reserved":false,"is_disabled":false,"rental_uris":{"android":"levelo://app?vid=deaae709-a376-4d80-a3cb-eb5b90731b26","ios":"levelo://app?vid=deaae709-a376-4d80-a3cb-eb5b90731b26"},"vehicle_type_id":"4","last_reported":1702168721,"current_range_meters":24800,"station_id":"ce4bhlp2rcd13ifvqgjg","pricing_plan_id":"free"},{"bike_id":"e23e6f4c-b4a9-4b45-8d2d-3376b5cc5c6a","system_id":"levelo_inurba_marseille","lat":43.240623,"lon":5.377642,"is_reserved":false,"is_disabled":false,"rental_uris":{"android":"levelo://app?vid=e23e6f4c-b4a9-4b45-8d2d-3376b5cc5c6a","ios":"levelo://app?vid=e23e6f4c-b4a9-4b45-8d2d-3376b5cc5c6a"},"vehicle_type_id":"4","last_reported":1702168721,"current_range_meters":21200,"station_id":"ce4bhnp2rcd13ifvqgvg","pricing_plan_id":"free"},{"bike_id":"e0027151-3876-4e17-8b4a-b5c8f5b31988","system_id":"levelo_inurba_marseille","lat":43.24072,"lon":5.37766,"is_reserved":false,"is_disabled":false,"rental_uris":{"android":"levelo://app?vid=e0027151-3876-4e17-8b4a-b5c8f5b31988","ios":"levelo://app?vid=e0027151-3876-4e17-8b4a-b5c8f5b31988"},"vehicle_type_id":"4","last_reported":1702168721,"current_range_meters":16000,"station_id":"ce4bhnp2rcd13ifvqgvg","pricing_plan_id":"free"},{"bike_id":"dd51e42e-76c5-4a71-b86f-36ea61792ecb","system_id":"levelo_inurba_marseille","lat":43.24183,"lon":5.3972,"is_reserved":false,"is_disabled":false,"rental_uris":{"android":"levelo://app?vid=dd51e42e-76c5-4a71-b86f-36ea61792ecb","ios":"levelo://app?vid=dd51e42e-76c5-4a71-b86f-36ea61792ecb"},"vehicle_type_id":"4","last_reported":1702168721,"current_range_meters":14800,"station_id":"ce4bhn12rcd13ifvqgpg","pricing_plan_id":"free"},{"bike_id":"b17e00c2-bf59-4ac0-bf9d-4e8ada93c9ba","system_id":"levelo_inurba_marseille","lat":43.241782,"lon":5.397261,"is_reserved":false,"is_disabled":false,"rental_uris":{"android":"levelo://app?vid=b17e00c2-bf59-4ac0-bf9d-4e8ada93c9ba","ios":"levelo://app?vid=b17e00c2-bf59-4ac0-bf9d-4e8ada93c9ba"},"vehicle_type_id":"4","last_reported":1702168721,"current_range_meters":25200,"station_id":"ce4bhn12rcd13ifvqgpg","pricing_plan_id":"free"},{"bike_id":"ab17fc38-eb79-448d-9157-5f64e2805185","system_id":"levelo_inurba_marseille","lat":43.232,"lon":5.35554,"is_reserved":false,"is_disabled":false,"rental_uris":{"android":"levelo://app?vid=ab17fc38-eb79-448d-9157-5f64e2805185","ios":"levelo://app?vid=ab17fc38-eb79-448d-9157-5f64e2805185"},"vehicle_type_id":"4","last_reported":1702168721,"current_range_meters":12400,"station_id":"ce4bhu92rcd13ifvqi70","pricing_plan_id":"free"},{"bike_id":"8b55a09a-4145-4ec5-a5e4-2721ec70ed5c","system_id":"levelo_inurba_marseille","lat":43.231923,"lon":5.355545,"is_reserved":false,"is_disabled":false,"rental_uris":{"android":"levelo://app?vid=8b55a09a-4145-4ec5-a5e4-2721ec70ed5c","ios":"levelo://app?vid=8b55a09a-4145-4ec5-a5e4-2721ec70ed5c"},"vehicle_type_id":"4","last_reported":1702168721,"current_range_meters":13200,"station_id":"ce4bhu92rcd13ifvqi70","pricing_plan_id":"free"},{"bike_id":"efdf0b62-a012-45f2-a093-48aedd562b0c","system_id":"levelo_inurba_marseille","lat":43.231919,"lon":5.355532,"is_reserved":false,"is_disabled":false,"rental_uris":{"android":"levelo://app?vid=efdf0b62-a012-45f2-a093-48aedd562b0c","ios":"levelo://app?vid=efdf0b62-a012-45f2-a093-48aedd562b0c"},"vehicle_type_id":"4","last_reported":1702168721,"current_range_meters":20400,"station_id":"ce4bhu92rcd13ifvqi70","pricing_plan_id":"free"},{"bike_id":"bb7bc747-ded6-4030-8110-5ea800f6fe96","system_id":"levelo_inurba_marseille","lat":43.231923,"lon":5.355545,"is_reserved":false,"is_disabled":false,"rental_uris":{"android":"levelo://app?vid=bb7bc747-ded6-4030-8110-5ea800f6fe96","ios":"levelo://app?vid=bb7bc747-ded6-4030-8110-5ea800f6fe96"},"vehicle_type_id":"4","last_reported":1702168721,"current_range_meters":6800,"station_id":"ce4bhu92rcd13ifvqi70","pricing_plan_id":"free"},{"bike_id":"db837267-81e3-439e-98cb-2684c730942d","system_id":"levelo_inurba_marseille","lat":43.23194,"lon":5.355441,"is_reserved":false,"is_disabled":false,"rental_uris":{"android":"levelo://app?vid=db837267-81e3-439e-98cb-2684c730942d","ios":"levelo://app?vid=db837267-81e3-439e-98cb-2684c730942d"},"vehicle_type_id":"4","last_reported":1702168721,"current_range_meters":18400,"station_id":"ce4bhu92rcd13ifvqi70","pricing_plan_id":"free"},{"bike_id":"bf6071ec-6f6f-44cb-a34f-a35e0ed40cbc","system_id":"levelo_inurba_marseille","lat":43.23193,"lon":5.35554,"is_reserved":false,"is_disabled":false,"rental_uris":{"android":"levelo://app?vid=bf6071ec-6f6f-44cb-a34f-a35e0ed40cbc","ios":"levelo://app?vid=bf6071ec-6f6f-44cb-a34f-a35e0ed40cbc"},"vehicle_type_id":"4","last_reported":1702168721,"current_range_meters":3600,"station_id":"ce4bhu92rcd13ifvqi70","pricing_plan_id":"free"},{"bike_id":"529449ae-9bd0-4a42-b2ad-b913b1c62c25","system_id":"levelo_inurba_marseille","lat":43.23193,"lon":5.3555,"is_reserved":false,"is_disabled":false,"rental_uris":{"android":"levelo://app?vid=529449ae-9bd0-4a42-b2ad-b913b1c62c25","ios":"levelo://app?vid=529449ae-9bd0-4a42-b2ad-b913b1c62c25"},"vehicle_type_id":"4","last_reported":1702168721,"current_range_meters":30000,"station_id":"ce4bhu92rcd13ifvqi70","pricing_plan_id":"free"},{"bike_id":"a8c501f0-1f0c-4126-b8d3-0e787022ce6a","system_id":"levelo_inurba_marseille","lat":43.231919,"lon":5.355532,"is_reserved":false,"is_disabled":false,"rental_uris":{"android":"levelo://app?vid=a8c501f0-1f0c-4126-b8d3-0e787022ce6a","ios":"levelo://app?vid=a8c501f0-1f0c-4126-b8d3-0e787022ce6a"},"vehicle_type_id":"4","last_reported":1702168721,"current_range_meters":31200,"station_id":"ce4bhu92rcd13ifvqi70","pricing_plan_id":"free"},{"bike_id":"446663db-0ff0-41b4-80f1-111b68ced5a4","system_id":"levelo_inurba_marseille","lat":43.231919,"lon":5.355532,"is_reserved":false,"is_disabled":false,"rental_uris":{"android":"levelo://app?vid=446663db-0ff0-41b4-80f1-111b68ced5a4","ios":"levelo://app?vid=446663db-0ff0-41b4-80f1-111b68ced5a4"},"vehicle_type_id":"4","last_reported":1702168721,"current_range_meters":16800,"station_id":"ce4bhu92rcd13ifvqi70","pricing_plan_id":"free"},{"bike_id":"88360225-83fa-42a7-aa9d-04d6e2f27256","system_id":"levelo_inurba_marseille","lat":43.231919,"lon":5.355532,"is_reserved":false,"is_disabled":false,"rental_uris":{"android":"levelo://app?vid=88360225-83fa-42a7-aa9d-04d6e2f27256","ios":"levelo://app?vid=88360225-83fa-42a7-aa9d-04d6e2f27256"},"vehicle_type_id":"4","last_reported":1702168721,"current_range_meters":28800,"station_id":"ce4bhu92rcd13ifvqi70","pricing_plan_id":"free"},{"bike_id":"80019cd3-e779-4c71-b181-3cecb4aeecdb","system_id":"levelo_inurba_marseille","lat":43.231794,"lon":5.400052,"is_reserved":false,"is_disabled":false,"rental_uris":{"android":"levelo://app?vid=80019cd3-e779-4c71-b181-3cecb4aeecdb","ios":"levelo://app?vid=80019cd3-e779-4c71-b181-3cecb4aeecdb"},"vehicle_type_id":"4","last_reported":1702168721,"current_range_meters":12400,"station_id":"ce4bhn12rcd13ifvqgqg","pricing_plan_id":"free"},{"bike_id":"bfbb4102-66c5-4281-8850-ca35098b4665","system_id":"levelo_inurba_marseille","lat":43.231794,"lon":5.400052,"is_reserved":false,"is_disabled":false,"rental_uris":{"android":"levelo://app?vid=bfbb4102-66c5-4281-8850-ca35098b4665","ios":"levelo://app?vid=bfbb4102-66c5-4281-8850-ca35098b4665"},"vehicle_type_id":"4","last_reported":1702168721,"current_range_meters":24400,"station_id":"ce4bhn12rcd13ifvqgqg","pricing_plan_id":"free"},{"bike_id":"291500d0-9d8c-4548-9a9d-9a7f79b46317","system_id":"levelo_inurba_marseille","lat":43.231794,"lon":5.400052,"is_reserved":false,"is_disabled":false,"rental_uris":{"android":"levelo://app?vid=291500d0-9d8c-4548-9a9d-9a7f79b46317","ios":"levelo://app?vid=291500d0-9d8c-4548-9a9d-9a7f79b46317"},"vehicle_type_id":"4","last_reported":1702168721,"current_range_meters":29600,"station_id":"ce4bhn12rcd13ifvqgqg","pricing_plan_id":"free"},{"bike_id":"92e5148d-4fb4-4386-8a07-4b4b7dd6e12c","system_id":"levelo_inurba_marseille","lat":43.231793,"lon":5.400044,"is_reserved":false,"is_disabled":false,"rental_uris":{"android":"levelo://app?vid=92e5148d-4fb4-4386-8a07-4b4b7dd6e12c","ios":"levelo://app?vid=92e5148d-4fb4-4386-8a07-4b4b7dd6e12c"},"vehicle_type_id":"4","last_reported":1702168721,"current_range_meters":27600,"station_id":"ce4bhn12rcd13ifvqgqg","pricing_plan_id":"free"}]}}