{"last_updated":1727712715,"ttl":60,"version":"2.2","data":{"bikes":[{"bike_id":"7202c962-1591-4f62-8346-406e84523413","system_id":"levelo_inurba_marseille","lat":43.31122,"lon":5.37754,"is_reserved":false,"is_disabled":false,"rental_uris":{"android":"levelo://app?vid=7202c962-1591-4f62-8346-406e84523413","ios":"levelo://app?vid=7202c962-1591-4f62-8346-406e84523413"},"vehicle_type_id":"4","last_reported":1727712715,"current_range_meters":38800,"station_id":"ce4bgt92rcd13ifvqcg0","pricing_plan_id":"cebpf4jnsgd1na2vs0mg"},{"bike_id":"9d32dcbc-8ead-4d60-b9de-9a6f184651e1","system_id":"levelo_inurba_marseille","lat":43.27797,"lon":5.40714,"is_reserved":false,"is_disabled":false,"rental_uris":{"android":"levelo://app?vid=9d32dcbc-8ead-4d60-b9de-9a6f184651e1","ios":"levelo://app?vid=9d32dcbc-8ead-4d60-b9de-9a6f184651e1"},"vehicle_type_id":"4","last_reported":1727712715,"current_range_meters":38800,"station_id":"ce4bhnh2rcd13ifvqgtg","pricing_plan_id":"cebpf4jnsgd1na2vs0mg"},{"bike_id":"e6e28ef2-1888-4d92-b946-6c487c26c917","system_id":"levelo_inurba_marseille","lat":43.29435,"lon":5.39761,"is_reserved":false,"is_disabled":false,"rental_uris":{"android":"levelo://app?vid=e6e28ef2-1888-4d92-b946-6c487c26c917","ios":"levelo://app?vid=e6e28ef2-1888-4d92-b946-6c487c26c917"},"vehicle_type_id":"4","last_reported":1727712715,"current_range_meters":13600,"station_id":"ce4bh3h2rcd13ifvqdo0","pricing_plan_id":"cebpf4jnsgd1na2vs0mg"},{"bike_id":"389da56c-7e1e-446d-9187-c76e4a5d2b14","system_id":"levelo_inurba_marseille","lat":43.33728,"lon":5.39185,"is_reserved":false,"is_disabled":false,"rental_uris":{"android":"levelo://app?vid=389da56c-7e1e-446d-9187-c76e4a5d2b14","ios":"levelo://app?vid=389da56c-7e1e-446d-9187-c76e4a5d2b14"},"vehicle_type_id":"4","last_reported":1727712715,"current_range_meters":6000,"station_id":"ce4bhr92rcd13ifvqhsg","pricing_plan_id":"cebpf4jnsgd1na2vs0mg"},{"bike_id":"c8f89296-829a-442b-bddd-40f118ea9330","system_id":"levelo_inurba_marseille","lat":43.28417,"lon":5.34978,"is_reserved":false,"is_disabled":false,"rental_uris":{"android":"levelo://app?vid=c8f89296-829a-442b-bddd-40f118ea9330","ios":"levelo://app?vid=c8f89296-829a-442b-bddd-40f118ea9330"},"vehicle_type_id":"4","last_reported":1727712715,"current_range_meters":26000,"station_id":"ce4bhbh2rcd13ifvqepg","pricing_plan_id":"cebpf4jnsgd1na2vs0mg"},{"bike_id":"a4f724f0-e440-463c-b6c1-89c6d353f978","system_id":"levelo_inurba_marseille","lat":43.24808,"lon":5.37456,"is_reserved":false,"is_disabled":false,"rental_uris":{"android":"levelo://app?vid=a4f724f0-e440-463c-b6c1-89c6d353f978","ios":"levelo://app?vid=a4f724f0-e440-463c-b6c1-89c6d353f978"},"vehicle_type_id":"4","last_reported":1727712715,"current_range_meters":23200,"station_id":"ce4bhgh2rcd13ifvqfb0","pricing_plan_id":"cebpf4jnsgd1na2vs0mg"},{"bike_id":"f17f79ce-44e1-4d1b-9aa2-259f70fbd142","system_id":"levelo_inurba_marseille","lat":43.31762,"lon":5.39014,"is_reserved":false,"is_disabled":false,"rental_uris":{"android":"levelo://app?vid=f17f79ce-44e1-4d1b-9aa2-259f70fbd142","ios":"levelo://app?vid=f17f79ce-44e1-4d1b-9aa2-259f70fbd142"},"vehicle_type_id":"4","last_reported":1727712715,"current_range_meters":24800,"station_id":"ce4bhqp2rcd13ifvqhng","pricing_plan_id":"cebpf4jnsgd1na2vs0mg"},{"bike_id":"43defcf7-27fa-4722-b56f-e45a1dfc2de3","system_id":"levelo_inurba_marseille","lat":43.32405,"lon":5.38354,"is_reserved":false,"is_disabled":false,"rental_uris":{"android":"levelo://app?vid=43defcf7-27fa-4722-b56f-e45a1dfc2de3","ios":"levelo://app?vid=43defcf7-27fa-4722-b56f-e45a1dfc2de3"},"vehicle_type_id":"4","last_reported":1727712715,"current_range_meters":20400,"station_id":"","pricing_plan_id":"cebpf4jnsgd1na2vs0mg"},{"bike_id":"df2b664d-5bac-465f-88e7-ae06dcb5ed98","system_id":"levelo_inurba_marseille","lat":43.24176,"lon":5.36394,"is_reserved":false,"is_disabled":false,"rental_uris":{"android":"levelo://app?vid=df2b664d-5bac-465f-88e7-ae06dcb5ed98","ios":"levelo://app?vid=df2b664d-5bac-465f-88e7-ae06dcb5ed98"},"vehicle_type_id":"4","last_reported":1727712715,"current_range_meters":19600,"station_id":"cpo36qri1sfpv3e86is0","pricing_plan_id":"cebpf4jnsgd1na2vs0mg"},{"bike_id":"646a6c32-a389-4be7-aa79-8bbd6a4378c6","system_id":"levelo_inurba_marseille","lat":43.29875,"lon":5.39741,"is_reserved":false,"is_disabled":false,"rental_uris":{"android":"levelo://app?vid=646a6c32-a389-4be7-aa79-8bbd6a4378c6","ios":"levelo://app?vid=646a6c32-a389-4be7-aa79-8bbd6a4378c6"},"vehicle_type_id":"4","last_reported":1727712715,"current_range_meters":6800,"station_id":"ce4bh0h2rcd13ifvqd50","pricing_plan_id":"cebpf4jnsgd1na2vs0mg"},{"bike_id":"12b4c2ac-17aa-444b-a2ff-0ec6f2ec5cdf","system_id":"levelo_inurba_marseille","lat":43.29008,"lon":5.35617,"is_reserved":false,"is_disabled":false,"rental_uris":{"android":"levelo://app?vid=12b4c2ac-17aa-444b-a2ff-0ec6f2ec5cdf","ios":"levelo://app?vid=12b4c2ac-17aa-444b-a2ff-0ec6f2ec5cdf"},"vehicle_type_id":"4","last_reported":1727712715,"current_range_meters":24000,"station_id":"ce4bhb92rcd13ifvqen0","pricing_plan_id":"cebpf4jnsgd1na2vs0mg"},{"bike_id":"cf53fcd0-9bed-4d8c-baf2-0448e62ca31a","system_id":"levelo_inurba_marseille","lat":43.28003,"lon":5.40011,"is_reserved":false,"is_disabled":false,"rental_uris":{"android":"levelo://app?vid=cf53fcd0-9bed-4d8c-baf2-0448e62ca31a","ios":"levelo://app?vid=cf53fcd0-9bed-4d8c-baf2-0448e62ca31a"},"vehicle_type_id":"4","last_reported":1727712715,"current_range_meters":32400,"station_id":"ce4bho92rcd13ifvqh4g","pricing_plan_id":"cebpf4jnsgd1na2vs0mg"},{"bike_id":"8055f079-6e90-44df-9cfb-27a58383eeaa","system_id":"levelo_inurba_marseille","lat":43.3081,"lon":5.43516,"is_reserved":false,"is_disabled":false,"rental_uris":{"android":"levelo://app?vid=8055f079-6e90-44df-9cfb-27a58383eeaa","ios":"levelo://app?vid=8055f079-6e90-44df-9cfb-27a58383eeaa"},"vehicle_type_id":"4","last_reported":1727712715,"current_range_meters":20000,"station_id":"ce4bhph2rcd13ifvqheg","pricing_plan_id":"cebpf4jnsgd1na2vs0mg"},{"bike_id":"380892d5-0c07-4382-989e-ba79e6cba25e","system_id":"levelo_inurba_marseille","lat":43.28027,"lon":5.36079,"is_reserved":false,"is_disabled":false,"rental_uris":{"android":"levelo://app?vid=380892d5-0c07-4382-989e-ba79e6cba25e","ios":"levelo://app?vid=380892d5-0c07-4382-989e-ba79e6cba25e"},"vehicle_type_id":"4","last_reported":1727712715,"current_range_meters":17600,"station_id":"","pricing_plan_id":"cebpf4jnsgd1na2vs0mg"},{"bike_id":"9535c8f9-ed82-49ce-a9e1-68a7bf625b17","system_id":"levelo_inurba_marseille","lat":43.295724,"lon":5.399846,"is_reserved":false,"is_disabled":false,"rental_uris":{"android":"levelo://app?vid=9535c8f9-ed82-49ce-a9e1-68a7bf625b17","ios":"levelo://app?vid=9535c8f9-ed82-49ce-a9e1-68a7bf625b17"},"vehicle_type_id":"4","last_reported":1727712715,"current_range_meters":20800,"station_id":"ce4bh312rcd13ifvqdj0","pricing_plan_id":"cebpf4jnsgd1na2vs0mg"},{"bike_id":"c2a87b1d-c503-4e83-94f3-d2d073385f24","system_id":"levelo_inurba_marseille","lat":43.2866,"lon":5.36363,"is_reserved":false,"is_disabled":false,"rental_uris":{"android":"levelo://app?vid=c2a87b1d-c503-4e83-94f3-d2d073385f24","ios":"levelo://app?vid=c2a87b1d-c503-4e83-94f3-d2d073385f24"},"vehicle_type_id":"4","last_reported":1727712715,"current_range_meters":38800,"station_id":"ce4bhah2rcd13ifvqej0","pricing_plan_id":"cebpf4jnsgd1na2vs0mg"},{"bike_id":"99c94ba0-4c57-48e2-8ddc-c5f2e97b4684","system_id":"levelo_inurba_marseille","lat":43.27697,"lon":5.38925,"is_reserved":false,"is_disabled":false,"rental_uris":{"android":"levelo://app?vid=99c94ba0-4c57-48e2-8ddc-c5f2e97b4684","ios":"levelo://app?vid=99c94ba0-4c57-48e2-8ddc-c5f2e97b4684"},"vehicle_type_id":"4","last_reported":1727712715,"current_range_meters":7200,"station_id":"ce4bhi12rcd13ifvqfo0","pricing_plan_id":"cebpf4jnsgd1na2vs0mg"},{"bike_id":"b25a55c7-65b5-46e1-b5d0-9a079be4acdc","system_id":"levelo_inurba_marseille","lat":43.24391,"lon":5.37062,"is_reserved":false,"is_disabled":false,"rental_uris":{"android":"levelo://app?vid=b25a55c7-65b5-46e1-b5d0-9a079be4acdc","ios":"levelo://app?vid=b25a55c7-65b5-46e1-b5d0-9a079be4acdc"},"vehicle_type_id":"4","last_reported":1727712715,"current_range_meters":38800,"station_id":"ce4bhhh2rcd13ifvqfk0","pricing_plan_id":"cebpf4jnsgd1na2vs0mg"},{"bike_id":"a4c23c2f-7443-4b27-b9dc-3ead8cdee352","system_id":"levelo_inurba_marseille","lat":43.28614,"lon":5.35101,"is_reserved":false,"is_disabled":false,"rental_uris":{"android":"levelo://app?vid=a4c23c2f-7443-4b27-b9dc-3ead8cdee352","ios":"levelo://app?vid=a4c23c2f-7443-4b27-b9dc-3ead8cdee352"},"vehicle_type_id":"4","last_reported":1727712715,"current_range_meters":37600,"station_id":"ce4bhch2rcd13ifvqeug","pricing_plan_id":"cebpf4jnsgd1na2vs0mg"},{"bike_id":"5d141ba8-414b-477b-b931-f7ef5ab683fe","system_id":"levelo_inurba_marseille","lat":43.28458,"lon":5.35884,"is_reserved":false,"is_disabled":false,"rental_uris":{"android":"levelo://app?vid=5d141ba8-414b-477b-b931-f7ef5ab683fe","ios":"levelo://app?vid=5d141ba8-414b-477b-b931-f7ef5ab683fe"},"vehicle_type_id":"4","last_reported":1727712715,"current_range_meters":34800,"station_id":"ce4bhah2rcd13ifvqei0","pricing_plan_id":"cebpf4jnsgd1na2vs0mg"},{"bike_id":"2fa07107-16bb-4793-bad9-5710b709fba9","system_id":"levelo_inurba_marseille","lat":43.26504,"lon":5.39539,"is_reserved":false,"is_disabled":false,"rental_uris":{"android":"levelo://app?vid=2fa07107-16bb-4793-bad9-5710b709fba9","ios":"levelo://app?vid=2fa07107-16bb-4793-bad9-5710b709fba9"},"vehicle_type_id":"4","last_reported":1727712715,"current_range_meters":6000,"station_id":"ce4bhi12rcd13ifvqfq0","pricing_plan_id":"cebpf4jnsgd1na2vs0mg"},{"bike_id":"916194e4-2af2-48af-97bf-5bbb2cf82a97","system_id":"levelo_inurba_marseille","lat":43.283234,"lon":5.350298,"is_reserved":false,"is_disabled":false,"rental_uris":{"android":"levelo://app?vid=916194e4-2af2-48af-97bf-5bbb2cf82a97","ios":"levelo://app?vid=916194e4-2af2-48af-97bf-5bbb2cf82a97"},"vehicle_type_id":"4","last_reported":1727712715,"current_range_meters":22800,"station_id":"ce4bhbp2rcd13ifvqerg","pricing_plan_id":"cebpf4jnsgd1na2vs0mg"},{"bike_id":"28ca53be-bd4c-48a6-8ea3-7212146607be","system_id":"levelo_inurba_marseille","lat":43.28272,"lon":5.35065,"is_reserved":false,"is_disabled":false,"rental_uris":{"android":"levelo://app?vid=28ca53be-bd4c-48a6-8ea3-7212146607be","ios":"levelo://app?vid=28ca53be-bd4c-48a6-8ea3-7212146607be"},"vehicle_type_id":"4","last_reported":1727712715,"current_range_meters":4000,"station_id":"ce4bhbp2rcd13ifvqerg","pricing_plan_id":"cebpf4jnsgd1na2vs0mg"},{"bike_id":"43c06965-23b9-4d30-b7e8-7a5ba49ffbec","system_id":"levelo_inurba_marseille","lat":43.32318,"lon":5.38295,"is_reserved":false,"is_disabled":false,"rental_uris":{"android":"levelo://app?vid=43c06965-23b9-4d30-b7e8-7a5ba49ffbec","ios":"levelo://app?vid=43c06965-23b9-4d30-b7e8-7a5ba49ffbec"},"vehicle_type_id":"4","last_reported":1727712715,"current_range_meters":32400,"station_id":"ce4bhr12rcd13ifvqhqg","pricing_plan_id":"cebpf4jnsgd1na2vs0mg"},{"bike_id":"329d1caf-e9c4-482b-bb07-92c1a096fbe2","system_id":"levelo_inurba_marseille","lat":43.29009,"lon":5.3562,"is_reserved":false,"is_disabled":false,"rental_uris":{"android":"levelo://app?vid=329d1caf-e9c4-482b-bb07-92c1a096fbe2","ios":"levelo://app?vid=329d1caf-e9c4-482b-bb07-92c1a096fbe2"},"vehicle_type_id":"4","last_reported":1727712715,"current_range_meters":28800,"station_id":"ce4bhb92rcd13ifvqen0","pricing_plan_id":"cebpf4jnsgd1na2vs0mg"},{"bike_id":"16a5f456-a08a-4ad6-b086-e7dd45135d65","system_id":"levelo_inurba_marseille","lat":43.29283,"lon":5.36846,"is_reserved":false,"is_disabled":false,"rental_uris":{"android":"levelo://app?vid=16a5f456-a08a-4ad6-b086-e7dd45135d65","ios":"levelo://app?vid=16a5f456-a08a-4ad6-b086-e7dd45135d65"},"vehicle_type_id":"4","last_reported":1727712715,"current_range_meters":38800,"station_id":"ce4bhbp2rcd13ifvqesg","pricing_plan_id":"cebpf4jnsgd1na2vs0mg"},{"bike_id":"c53b57a8-0fcc-41a1-8432-debf6c8a3a15","system_id":"levelo_inurba_marseille","lat":43.29878,"lon":5.38911,"is_reserved":false,"is_disabled":false,"rental_uris":{"android":"levelo://app?vid=c53b57a8-0fcc-41a1-8432-debf6c8a3a15","ios":"levelo://app?vid=c53b57a8-0fcc-41a1-8432-debf6c8a3a15"},"vehicle_type_id":"4","last_reported":1727712715,"current_range_meters":17600,"station_id":"ce4bh392rcd13ifvqdl0","pricing_plan_id":"cebpf4jnsgd1na2vs0mg"},{"bike_id":"1a6e3be2-5c4a-46a0-8364-af3217685d39","system_id":"levelo_inurba_marseille","lat":43.33728,"lon":5.391988,"is_reserved":false,"is_disabled":false,"rental_uris":{"android":"levelo://app?vid=1a6e3be2-5c4a-46a0-8364-af3217685d39","ios":"levelo://app?vid=1a6e3be2-5c4a-46a0-8364-af3217685d39"},"vehicle_type_id":"4","last_reported":1727712715,"current_range_meters":4000,"station_id":"ce4bhr92rcd13ifvqhsg","pricing_plan_id":"cebpf4jnsgd1na2vs0mg"},{"bike_id":"58303d09-2231-4d94-8ee6-9f07e0a1e318","system_id":"levelo_inurba_marseille","lat":43.29897,"lon":5.4366,"is_reserved":false,"is_disabled":false,"rental_uris":{"android":"levelo://app?vid=58303d09-2231-4d94-8ee6-9f07e0a1e318","ios":"levelo://app?vid=58303d09-2231-4d94-8ee6-9f07e0a1e318"},"vehicle_type_id":"4","last_reported":1727712715,"current_range_meters":39200,"station_id":"ce4bhpp2rcd13ifvqhfg","pricing_plan_id":"cebpf4jnsgd1na2vs0mg"},{"bike_id":"b60cf780-f518-4fe7-bad3-cfb489b2ea06","system_id":"levelo_inurba_marseille","lat":43.26213,"lon":5.37443,"is_reserved":false,"is_disabled":false,"rental_uris":{"android":"levelo://app?vid=b60cf780-f518-4fe7-bad3-cfb489b2ea06","ios":"levelo://app?vid=b60cf780-f518-4fe7-bad3-cfb489b2ea06"},"vehicle_type_id":"4","last_reported":1727712715,"current_range_meters":3600,"station_id":"ce4bhgp2rcd13ifvqfc0","pricing_plan_id":"cebpf4jnsgd1na2vs0mg"},{"bike_id":"dbecae2e-c8b4-4ad4-a5fe-579db51c4729","system_id":"levelo_inurba_marseille","lat":43.24387,"lon":5.37055,"is_reserved":false,"is_disabled":false,"rental_uris":{"android":"levelo://app?vid=dbecae2e-c8b4-4ad4-a5fe-579db51c4729","ios":"levelo://app?vid=dbecae2e-c8b4-4ad4-a5fe-579db51c4729"},"vehicle_type_id":"4","last_reported":1727712715,"current_range_meters":16000,"station_id":"ce4bhhh2rcd13ifvqfk0","pricing_plan_id":"cebpf4jnsgd1na2vs0mg"},{"bike_id":"62110c18-ba6e-4a54-8b88-fbfbaf57e32e","system_id":"levelo_inurba_marseille","lat":43.32558,"lon":5.41419,"is_reserved":false,"is_disabled":false,"rental_uris":{"android":"levelo://app?vid=62110c18-ba6e-4a54-8b88-fbfbaf57e32e","ios":"levelo://app?vid=62110c18-ba6e-4a54-8b88-fbfbaf57e32e"},"vehicle_type_id":"4","last_reported":1727712715,"current_range_meters":38800,"station_id":"ce4bhq12rcd13ifvqhhg","pricing_plan_id":"cebpf4jnsgd1na2vs0mg"},{"bike_id":"1398068d-8859-408a-836b-25561bc538f5","system_id":"levelo_inurba_marseille","lat":43.23188,"lon":5.400172,"is_reserved":false,"is_disabled":false,"rental_uris":{"android":"levelo://app?vid=1398068d-8859-408a-836b-25561bc538f5","ios":"levelo://app?vid=1398068d-8859-408a-836b-25561bc538f5"},"vehicle_type_id":"4","last_reported":1727712715,"current_range_meters":17200,"station_id":"ce4bhn12rcd13ifvqgqg","pricing_plan_id":"cebpf4jnsgd1na2vs0mg"},{"bike_id":"ce34fca1-51ab-4dae-a585-e0ebb9623574","system_id":"levelo_inurba_marseille","lat":43.26776,"lon":5.3942,"is_reserved":false,"is_disabled":false,"rental_uris":{"android":"levelo://app?vid=ce34fca1-51ab-4dae-a585-e0ebb9623574","ios":"levelo://app?vid=ce34fca1-51ab-4dae-a585-e0ebb9623574"},"vehicle_type_id":"4","last_reported":1727712715,"current_range_meters":4800,"station_id":"ce4bhh12rcd13ifvqfg0","pricing_plan_id":"cebpf4jnsgd1na2vs0mg"},{"bike_id":"3b8cfa36-6f4f-461f-adf5-82ba3ae9d7c1","system_id":"levelo_inurba_marseille","lat":43.28363,"lon":5.36756,"is_reserved":false,"is_disabled":false,"rental_uris":{"android":"levelo://app?vid=3b8cfa36-6f4f-461f-adf5-82ba3ae9d7c1","ios":"levelo://app?vid=3b8cfa36-6f4f-461f-adf5-82ba3ae9d7c1"},"vehicle_type_id":"4","last_reported":1727712715,"current_range_meters":6400,"station_id":"ce4bgj92rcd13ifvqbe0","pricing_plan_id":"cebpf4jnsgd1na2vs0mg"},{"bike_id":"1b7dc95d-5419-4444-b7f0-c23a4655af29","system_id":"levelo_inurba_marseille","lat":43.30331,"lon":5.40435,"is_reserved":false,"is_disabled":false,"rental_uris":{"android":"levelo://app?vid=1b7dc95d-5419-4444-b7f0-c23a4655af29","ios":"levelo://app?vid=1b7dc95d-5419-4444-b7f0-c23a4655af29"},"vehicle_type_id":"4","last_reported":1727712715,"current_range_meters":2800,"station_id":"ce4bh012rcd13ifvqd10","pricing_plan_id":"cebpf4jnsgd1na2vs0mg"},{"bike_id":"b8782dfb-3d3c-4390-963a-fd029beb80a0","system_id":"levelo_inurba_marseille","lat":43.31756,"lon":5.39018,"is_reserved":false,"is_disabled":false,"rental_uris":{"android":"levelo://app?vid=b8782dfb-3d3c-4390-963a-fd029beb80a0","ios":"levelo://app?vid=b8782dfb-3d3c-4390-963a-fd029beb80a0"},"vehicle_type_id":"4","last_reported":1727712715,"current_range_meters":6400,"station_id":"ce4bhqp2rcd13ifvqhng","pricing_plan_id":"cebpf4jnsgd1na2vs0mg"},{"bike_id":"13d3dd1f-f299-4595-8a29-321875f13700","system_id":"levelo_inurba_marseille","lat":43.27319,"lon":5.39079,"is_reserved":false,"is_disabled":false,"rental_uris":{"android":"levelo://app?vid=13d3dd1f-f299-4595-8a29-321875f13700","ios":"levelo://app?vid=13d3dd1f-f299-4595-8a29-321875f13700"},"vehicle_type_id":"4","last_reported":1727712715,"current_range_meters":16000,"station_id":"ce4bhgp2rcd13ifvqfe0","pricing_plan_id":"cebpf4jnsgd1na2vs0mg"},{"bike_id":"5b7dd23e-31f6-4edf-aa4e-06e5860433e7","system_id":"levelo_inurba_marseille","lat":43.28855,"lon":5.39323,"is_reserved":false,"is_disabled":false,"rental_uris":{"android":"levelo://app?vid=5b7dd23e-31f6-4edf-aa4e-06e5860433e7","ios":"levelo://app?vid=5b7dd23e-31f6-4edf-aa4e-06e5860433e7"},"vehicle_type_id":"4","last_reported":1727712715,"current_range_meters":16400,"station_id":"ce4bh2p2rcd13ifvqdi0","pricing_plan_id":"cebpf4jnsgd1na2vs0mg"},{"bike_id":"791778cb-b9b1-46da-80e8-ce0940cdd61d","system_id":"levelo_inurba_marseille","lat":43.23197,"lon":5.35545,"is_reserved":false,"is_disabled":false,"rental_uris":{"android":"levelo://app?vid=791778cb-b9b1-46da-80e8-ce0940cdd61d","ios":"levelo://app?vid=791778cb-b9b1-46da-80e8-ce0940cdd61d"},"vehicle_type_id":"4","last_reported":1727712715,"current_range_meters":9600,"station_id":"ce4bhu92rcd13ifvqi70","pricing_plan_id":"cebpf4jnsgd1na2vs0mg"},{"bike_id":"0569ffd9-5d73-439a-979a-a1c88b9a1061","system_id":"levelo_inurba_marseille","lat":43.32912,"lon":5.39066,"is_reserved":false,"is_disabled":false,"rental_uris":{"android":"levelo://app?vid=0569ffd9-5d73-439a-979a-a1c88b9a1061","ios":"levelo://app?vid=0569ffd9-5d73-439a-979a-a1c88b9a1061"},"vehicle_type_id":"4","last_reported":1727712715,"current_range_meters":32000,"station_id":"","pricing_plan_id":"cebpf4jnsgd1na2vs0mg"},{"bike_id":"67551869-0fa9-45a6-901b-7fc888de25ae","system_id":"levelo_inurba_marseille","lat":43.28421,"lon":5.34995,"is_reserved":false,"is_disabled":false,"rental_uris":{"android":"levelo://app?vid=67551869-0fa9-45a6-901b-7fc888de25ae","ios":"levelo://app?vid=67551869-0fa9-45a6-901b-7fc888de25ae"},"vehicle_type_id":"4","last_reported":1727712715,"current_range_meters":38000,"station_id":"ce4bhbh2rcd13ifvqepg","pricing_plan_id":"cebpf4jnsgd1na2vs0mg"},{"bike_id":"f4a45212-b7a6-4a74-b3cf-6290ea10c9f8","system_id":"levelo_inurba_marseille","lat":43.32479,"lon":5.36569,"is_reserved":false,"is_disabled":false,"rental_uris":{"android":"levelo://app?vid=f4a45212-b7a6-4a74-b3cf-6290ea10c9f8","ios":"levelo://app?vid=f4a45212-b7a6-4a74-b3cf-6290ea10c9f8"},"vehicle_type_id":"4","last_reported":1727712715,"current_range_meters":36800,"station_id":"ce4bhs12rcd13ifvqhvg","pricing_plan_id":"cebpf4jnsgd1na2vs0mg"},{"bike_id":"95e36b3b-6531-4210-88dd-829df3190a04","system_id":"levelo_inurba_marseille","lat":43.29939,"lon":5.36557,"is_reserved":false,"is_disabled":false,"rental_uris":{"android":"levelo://app?vid=95e36b3b-6531-4210-88dd-829df3190a04","ios":"levelo://app?vid=95e36b3b-6531-4210-88dd-829df3190a04"},"vehicle_type_id":"4","last_reported":1727712715,"current_range_meters":21600,"station_id":"ce4bgm92rcd13ifvqbr0","pricing_plan_id":"cebpf4jnsgd1na2vs0mg"},{"bike_id":"92be404b-5602-40c2-9b82-459d41dd0c6e","system_id":"levelo_inurba_marseille","lat":43.31325,"lon":5.39693,"is_reserved":false,"is_disabled":false,"rental_uris":{"android":"levelo://app?vid=92be404b-5602-40c2-9b82-459d41dd0c6e","ios":"levelo://app?vid=92be404b-5602-40c2-9b82-459d41dd0c6e"},"vehicle_type_id":"4","last_reported":1727712715,"current_range_meters":10000,"station_id":"ce4bgvp2rcd13ifvqcu0","pricing_plan_id":"cebpf4jnsgd1na2vs0mg"},{"bike_id":"53b8b279-3e36-4185-b3b0-4688e1a414fb","system_id":"levelo_inurba_marseille","lat":43.28428,"lon":5.34977,"is_reserved":false,"is_disabled":false,"rental_uris":{"android":"levelo://app?vid=53b8b279-3e36-4185-b3b0-4688e1a414fb","ios":"levelo://app?vid=53b8b279-3e36-4185-b3b0-4688e1a414fb"},"vehicle_type_id":"4","last_reported":1727712715,"current_range_meters":35600,"station_id":"ce4bhbh2rcd13ifvqepg","pricing_plan_id":"cebpf4jnsgd1na2vs0mg"},{"bike_id":"dee5b9ff-8d68-499c-80b9-de02bbf04c83","system_id":"levelo_inurba_marseille","lat":43.29905,"lon":5.43672,"is_reserved":false,"is_disabled":false,"rental_uris":{"android":"levelo://app?vid=dee5b9ff-8d68-499c-80b9-de02bbf04c83","ios":"levelo://app?vid=dee5b9ff-8d68-499c-80b9-de02bbf04c83"},"vehicle_type_id":"4","last_reported":1727712715,"current_range_meters":31200,"station_id":"ce4bhpp2rcd13ifvqhfg","pricing_plan_id":"cebpf4jnsgd1na2vs0mg"},{"bike_id":"6e86392e-cc5f-416f-8278-5ce3253378c9","system_id":"levelo_inurba_marseille","lat":43.286133,"lon":5.351156,"is_reserved":false,"is_disabled":false,"rental_uris":{"android":"levelo://app?vid=6e86392e-cc5f-416f-8278-5ce3253378c9","ios":"levelo://app?vid=6e86392e-cc5f-416f-8278-5ce3253378c9"},"vehicle_type_id":"4","last_reported":1727712715,"current_range_meters":20400,"station_id":"ce4bhch2rcd13ifvqeug","pricing_plan_id":"cebpf4jnsgd1na2vs0mg"},{"bike_id":"73724201-dbd7-4311-9d8a-b54a14361c28","system_id":"levelo_inurba_marseille","lat":43.2603,"lon":5.37547,"is_reserved":false,"is_disabled":false,"rental_uris":{"android":"levelo://app?vid=73724201-dbd7-4311-9d8a-b54a14361c28","ios":"levelo://app?vid=73724201-dbd7-4311-9d8a-b54a14361c28"},"vehicle_type_id":"4","last_reported":1727712715,"current_range_meters":33600,"station_id":"ce4bhgh2rcd13ifvqfa0","pricing_plan_id":"cebpf4jnsgd1na2vs0mg"},{"bike_id":"6fd6819b-7863-4901-8443-b78ffad57798","system_id":"levelo_inurba_marseille","lat":43.29899,"lon":5.43672,"is_reserved":false,"is_disabled":false,"rental_uris":{"android":"levelo://app?vid=6fd6819b-7863-4901-8443-b78ffad57798","ios":"levelo://app?vid=6fd6819b-7863-4901-8443-b78ffad57798"},"vehicle_type_id":"4","last_reported":1727712715,"current_range_meters":8400,"station_id":"ce4bhpp2rcd13ifvqhfg","pricing_plan_id":"cebpf4jnsgd1na2vs0mg"},{"bike_id":"56e8f6fc-7d82-4eea-bd5a-75cd370c4193","system_id":"levelo_inurba_marseille","lat":43.29025,"lon":5.38635,"is_reserved":false,"is_disabled":false,"rental_uris":{"android":"levelo://app?vid=56e8f6fc-7d82-4eea-bd5a-75cd370c4193","ios":"levelo://app?vid=56e8f6fc-7d82-4eea-bd5a-75cd370c4193"},"vehicle_type_id":"4","last_reported":1727712715,"current_range_meters":38800,"station_id":"ce4bh4p2rcd13ifvqe0g","pricing_plan_id":"cebpf4jnsgd1na2vs0mg"},{"bike_id":"bcaa5a50-cfb8-48b0-b963-d20775f3d79f","system_id":"levelo_inurba_marseille","lat":43.24089,"lon":5.37755,"is_reserved":false,"is_disabled":false,"rental_uris":{"android":"levelo://app?vid=bcaa5a50-cfb8-48b0-b963-d20775f3d79f","ios":"levelo://app?vid=bcaa5a50-cfb8-48b0-b963-d20775f3d79f"},"vehicle_type_id":"4","last_reported":1727712715,"current_range_meters":20000,"station_id":"ce4bhnp2rcd13ifvqgvg","pricing_plan_id":"cebpf4jnsgd1na2vs0mg"},{"bike_id":"7b182882-c84a-411e-8225-f70a8a0e8dcf","system_id":"levelo_inurba_marseille","lat":43.28005,"lon":5.40009,"is_reserved":false,"is_disabled":false,"rental_uris":{"android":"levelo://app?vid=7b182882-c84a-411e-8225-f70a8a0e8dcf","ios":"levelo://app?vid=7b182882-c84a-411e-8225-f70a8a0e8dcf"},"vehicle_type_id":"4","last_reported":1727712715,"current_range_meters":35200,"station_id":"ce4bho92rcd13ifvqh4g","pricing_plan_id":"cebpf4jnsgd1na2vs0mg"},{"bike_id":"7361d3c6-1041-443a-a1c6-806dea56c5e4","system_id":"levelo_inurba_marseille","lat":43.28567,"lon":5.39521,"is_reserved":false,"is_disabled":false,"rental_uris":{"android":"levelo://app?vid=7361d3c6-1041-443a-a1c6-806dea56c5e4","ios":"levelo://app?vid=7361d3c6-1041-443a-a1c6-806dea56c5e4"},"vehicle_type_id":"4","last_reported":1727712715,"current_range_meters":37600,"station_id":"ce4bh292rcd13ifvqdg0","pricing_plan_id":"cebpf4jnsgd1na2vs0mg"},{"bike_id":"a8f8ad02-46b5-4d6a-a854-00233af9598f","system_id":"levelo_inurba_marseille","lat":43.25005,"lon":5.38928,"is_reserved":false,"is_disabled":false,"rental_uris":{"android":"levelo://app?vid=a8f8ad02-46b5-4d6a-a854-00233af9598f","ios":"levelo://app?vid=a8f8ad02-46b5-4d6a-a854-00233af9598f"},"vehicle_type_id":"4","last_reported":1727712715,"current_range_meters":11200,"station_id":"ce4bhgp2rcd13ifvqfd0","pricing_plan_id":"cebpf4jnsgd1na2vs0mg"},{"bike_id":"72019758-2206-41b0-a8cb-9b11c49b91c6","system_id":"levelo_inurba_marseille","lat":43.29977,"lon":5.38481,"is_reserved":false,"is_disabled":false,"rental_uris":{"android":"levelo://app?vid=72019758-2206-41b0-a8cb-9b11c49b91c6","ios":"levelo://app?vid=72019758-2206-41b0-a8cb-9b11c49b91c6"},"vehicle_type_id":"4","last_reported":1727712715,"current_range_meters":24400,"station_id":"ce4bgj92rcd13ifvqbd0","pricing_plan_id":"cebpf4jnsgd1na2vs0mg"},{"bike_id":"add4398b-998e-45a8-b041-0e8fdaf0e18a","system_id":"levelo_inurba_marseille","lat":43.29415,"lon":5.38612,"is_reserved":false,"is_disabled":false,"rental_uris":{"android":"levelo://app?vid=add4398b-998e-45a8-b041-0e8fdaf0e18a","ios":"levelo://app?vid=add4398b-998e-45a8-b041-0e8fdaf0e18a"},"vehicle_type_id":"4","last_reported":1727712715,"current_range_meters":33200,"station_id":"ce4bh2h2rcd13ifvqdh0","pricing_plan_id":"cebpf4jnsgd1na2vs0mg"},{"bike_id":"92a3a46b-172a-4f6e-bb73-63607cd1e177","system_id":"levelo_inurba_marseille","lat":43.30362,"lon":5.41882,"is_reserved":false,"is_disabled":false,"rental_uris":{"android":"levelo://app?vid=92a3a46b-172a-4f6e-bb73-63607cd1e177","ios":"levelo://app?vid=92a3a46b-172a-4f6e-bb73-63607cd1e177"},"vehicle_type_id":"4","last_reported":1727712715,"current_range_meters":38800,"station_id":"ce4bhop2rcd13ifvqh7g","pricing_plan_id":"cebpf4jnsgd1na2vs0mg"},{"bike_id":"9c46b226-a0b6-4e8d-b3cd-f63133064ded","system_id":"levelo_inurba_marseille","lat":43.31326,"lon":5.39684,"is_reserved":false,"is_disabled":false,"rental_uris":{"android":"levelo://app?vid=9c46b226-a0b6-4e8d-b3cd-f63133064ded","ios":"levelo://app?vid=9c46b226-a0b6-4e8d-b3cd-f63133064ded"},"vehicle_type_id":"4","last_reported":1727712715,"current_range_meters":3600,"station_id":"ce4bgvp2rcd13ifvqcu0","pricing_plan_id":"cebpf4jnsgd1na2vs0mg"},{"bike_id":"c401dba4-1723-41b5-8245-09382eea96a2","system_id":"levelo_inurba_marseille","lat":43.28613,"lon":5.35102,"is_reserved":false,"is_disabled":false,"rental_uris":{"android":"levelo://app?vid=c401dba4-1723-41b5-8245-09382eea96a2","ios":"levelo://app?vid=c401dba4-1723-41b5-8245-09382eea96a2"},"vehicle_type_id":"4","last_reported":1727712715,"current_range_meters":29600,"station_id":"ce4bhch2rcd13ifvqeug","pricing_plan_id":"cebpf4jnsgd1na2vs0mg"},{"bike_id":"de0c70d7-bba2-4335-87f1-b29967e166f5","system_id":"levelo_inurba_marseille","lat":43.2784,"lon":5.40691,"is_reserved":false,"is_disabled":false,"rental_uris":{"android":"levelo://app?vid=de0c70d7-bba2-4335-87f1-b29967e166f5","ios":"levelo://app?vid=de0c70d7-bba2-4335-87f1-b29967e166f5"},"vehicle_type_id":"4","last_reported":1727712715,"current_range_meters":8000,"station_id":"ce4bhnh2rcd13ifvqgtg","pricing_plan_id":"cebpf4jnsgd1na2vs0mg"},{"bike_id":"7977a9c9-5512-4fa7-9026-3e7c33952b44","system_id":"levelo_inurba_marseille","lat":43.26727,"lon":5.40135,"is_reserved":false,"is_disabled":false,"rental_uris":{"android":"levelo://app?vid=7977a9c9-5512-4fa7-9026-3e7c33952b44","ios":"levelo://app?vid=7977a9c9-5512-4fa7-9026-3e7c33952b44"},"vehicle_type_id":"4","last_reported":1727712715,"current_range_meters":18000,"station_id":"ce4bhm92rcd13ifvqglg","pricing_plan_id":"cebpf4jnsgd1na2vs0mg"},{"bike_id":"9aa0f42e-1fe9-4cd3-a257-4983172720fe","system_id":"levelo_inurba_marseille","lat":43.26499,"lon":5.39546,"is_reserved":false,"is_disabled":false,"rental_uris":{"android":"levelo://app?vid=9aa0f42e-1fe9-4cd3-a257-4983172720fe","ios":"levelo://app?vid=9aa0f42e-1fe9-4cd3-a257-4983172720fe"},"vehicle_type_id":"4","last_reported":1727712715,"current_range_meters":36400,"station_id":"ce4bhi12rcd13ifvqfq0","pricing_plan_id":"cebpf4jnsgd1na2vs0mg"},{"bike_id":"d05ea0c3-8bb2-4593-9b1a-c7e3acd0f8de","system_id":"levelo_inurba_marseille","lat":43.31758,"lon":5.3901,"is_reserved":false,"is_disabled":false,"rental_uris":{"android":"levelo://app?vid=d05ea0c3-8bb2-4593-9b1a-c7e3acd0f8de","ios":"levelo://app?vid=d05ea0c3-8bb2-4593-9b1a-c7e3acd0f8de"},"vehicle_type_id":"4","last_reported":1727712715,"current_range_meters":38000,"station_id":"ce4bhqp2rcd13ifvqhng","pricing_plan_id":"cebpf4jnsgd1na2vs0mg"},{"bike_id":"d8373c82-3f27-46ba-8d5c-a6babce39445","system_id":"levelo_inurba_marseille","lat":43.26063,"lon":5.39406,"is_reserved":false,"is_disabled":false,"rental_uris":{"android":"levelo://app?vid=d8373c82-3f27-46ba-8d5c-a6babce39445","ios":"levelo://app?vid=d8373c82-3f27-46ba-8d5c-a6babce39445"},"vehicle_type_id":"4","last_reported":1727712715,"current_range_meters":3200,"station_id":"ce4bhh92rcd13ifvqfj0","pricing_plan_id":"cebpf4jnsgd1na2vs0mg"},{"bike_id":"ea70ddf9-4535-43c6-8b46-27a004b883b9","system_id":"levelo_inurba_marseille","lat":43.29229,"lon":5.36058,"is_reserved":false,"is_disabled":false,"rental_uris":{"android":"levelo://app?vid=ea70ddf9-4535-43c6-8b46-27a004b883b9","ios":"levelo://app?vid=ea70ddf9-4535-43c6-8b46-27a004b883b9"},"vehicle_type_id":"4","last_reported":1727712715,"current_range_meters":17600,"station_id":"ce4bhbh2rcd13ifvqeqg","pricing_plan_id":"cebpf4jnsgd1na2vs0mg"},{"bike_id":"579e0032-e9bb-4403-8ef9-ad54b9c6a3e4","system_id":"levelo_inurba_marseille","lat":43.28424,"lon":5.34992,"is_reserved":false,"is_disabled":false,"rental_uris":{"android":"levelo://app?vid=579e0032-e9bb-4403-8ef9-ad54b9c6a3e4","ios":"levelo://app?vid=579e0032-e9bb-4403-8ef9-ad54b9c6a3e4"},"vehicle_type_id":"4","last_reported":1727712715,"current_range_meters":12000,"station_id":"ce4bhbh2rcd13ifvqepg","pricing_plan_id":"cebpf4jnsgd1na2vs0mg"},{"bike_id":"0f1f9acd-cc6f-410e-a54c-e34872ebdaa6","system_id":"levelo_inurba_marseille","lat":43.28274,"lon":5.35064,"is_reserved":false,"is_disabled":false,"rental_uris":{"android":"levelo://app?vid=0f1f9acd-cc6f-410e-a54c-e34872ebdaa6","ios":"levelo://app?vid=0f1f9acd-cc6f-410e-a54c-e34872ebdaa6"},"vehicle_type_id":"4","last_reported":1727712715,"current_range_meters":3200,"station_id":"ce4bhbp2rcd13ifvqerg","pricing_plan_id":"cebpf4jnsgd1na2vs0mg"},{"bike_id":"0afe2cd9-cc41-4246-8d85-185e9180fbb1","system_id":"levelo_inurba_marseille","lat":43.23188,"lon":5.39985,"is_reserved":false,"is_disabled":false,"rental_uris":{"android":"levelo://app?vid=0afe2cd9-cc41-4246-8d85-185e9180fbb1","ios":"levelo://app?vid=0afe2cd9-cc41-4246-8d85-185e9180fbb1"},"vehicle_type_id":"4","last_reported":1727712715,"current_range_meters":6800,"station_id":"ce4bhn12rcd13ifvqgqg","pricing_plan_id":"cebpf4jnsgd1na2vs0mg"},{"bike_id":"5f5feaf6-953c-4ab3-b1b9-502fc5ee8b0f","system_id":"levelo_inurba_marseille","lat":43.23194,"lon":5.35556,"is_reserved":false,"is_disabled":false,"rental_uris":{"android":"levelo://app?vid=5f5feaf6-953c-4ab3-b1b9-502fc5ee8b0f","ios":"levelo://app?vid=5f5feaf6-953c-4ab3-b1b9-502fc5ee8b0f"},"vehicle_type_id":"4","last_reported":1727712715,"current_range_meters":18000,"station_id":"ce4bhu92rcd13ifvqi70","pricing_plan_id":"cebpf4jnsgd1na2vs0mg"},{"bike_id":"4373af99-de10-4044-a9ef-6cf8ea570f0e","system_id":"levelo_inurba_marseille","lat":43.25868,"lon":5.39895,"is_reserved":false,"is_disabled":false,"rental_uris":{"android":"levelo://app?vid=4373af99-de10-4044-a9ef-6cf8ea570f0e","ios":"levelo://app?vid=4373af99-de10-4044-a9ef-6cf8ea570f0e"},"vehicle_type_id":"4","last_reported":1727712715,"current_range_meters":30400,"station_id":"ce4bhl92rcd13ifvqghg","pricing_plan_id":"cebpf4jnsgd1na2vs0mg"},{"bike_id":"7b6aea48-b804-438d-91f6-6a6abe2022ae","system_id":"levelo_inurba_marseille","lat":43.24479,"lon":5.37256,"is_reserved":false,"is_disabled":false,"rental_uris":{"android":"levelo://app?vid=7b6aea48-b804-438d-91f6-6a6abe2022ae","ios":"levelo://app?vid=7b6aea48-b804-438d-91f6-6a6abe2022ae"},"vehicle_type_id":"4","last_reported":1727712715,"current_range_meters":14400,"station_id":"","pricing_plan_id":"cebpf4jnsgd1na2vs0mg"},{"bike_id":"f081a7d2-35ec-423c-9dff-1867662c1cb6","system_id":"levelo_inurba_marseille","lat":43.26806,"lon":5.40263,"is_reserved":false,"is_disabled":false,"rental_uris":{"android":"levelo://app?vid=f081a7d2-35ec-423c-9dff-1867662c1cb6","ios":"levelo://app?vid=f081a7d2-35ec-423c-9dff-1867662c1cb6"},"vehicle_type_id":"4","last_reported":1727712715,"current_range_meters":28800,"station_id":"ce501612rcd8frsf0b60","pricing_plan_id":"cebpf4jnsgd1na2vs0mg"},{"bike_id":"09002830-71d8-423e-9994-c5a67a42748d","system_id":"levelo_inurba_marseille","lat":43.2926,"lon":5.40908,"is_reserved":false,"is_disabled":false,"rental_uris":{"android":"levelo://app?vid=09002830-71d8-423e-9994-c5a67a42748d","ios":"levelo://app?vid=09002830-71d8-423e-9994-c5a67a42748d"},"vehicle_type_id":"4","last_reported":1727712715,"current_range_meters":19600,"station_id":"ce4bh192rcd13ifvqdc0","pricing_plan_id":"cebpf4jnsgd1na2vs0mg"},{"bike_id":"cf33b555-cac1-43f8-89f7-e84b64897cfd","system_id":"levelo_inurba_marseille","lat":43.28378,"lon":5.37291,"is_reserved":false,"is_disabled":false,"rental_uris":{"android":"levelo://app?vid=cf33b555-cac1-43f8-89f7-e84b64897cfd","ios":"levelo://app?vid=cf33b555-cac1-43f8-89f7-e84b64897cfd"},"vehicle_type_id":"4","last_reported":1727712715,"current_range_meters":4000,"station_id":"","pricing_plan_id":"cebpf4jnsgd1na2vs0mg"},{"bike_id":"5c71e3e5-e086-4205-900d-59f05fd86daf","system_id":"levelo_inurba_marseille","lat":43.276203,"lon":5.361036,"is_reserved":false,"is_disabled":false,"rental_uris":{"android":"levelo://app?vid=5c71e3e5-e086-4205-900d-59f05fd86daf","ios":"levelo://app?vid=5c71e3e5-e086-4205-900d-59f05fd86daf"},"vehicle_type_id":"4","last_reported":1727712715,"current_range_meters":27600,"station_id":"ce4bgj92rcd13ifvqbe0","pricing_plan_id":"cebpf4jnsgd1na2vs0mg"},{"bike_id":"f41e6ac7-d39b-432c-a205-b5e52984b1b4","system_id":"levelo_inurba_marseille","lat":43.33028,"lon":5.39378,"is_reserved":false,"is_disabled":false,"rental_uris":{"android":"levelo://app?vid=f41e6ac7-d39b-432c-a205-b5e52984b1b4","ios":"levelo://app?vid=f41e6ac7-d39b-432c-a205-b5e52984b1b4"},"vehicle_type_id":"4","last_reported":1727712715,"current_range_meters":36000,"station_id":"","pricing_plan_id":"cebpf4jnsgd1na2vs0mg"},{"bike_id":"9bb56387-bf27-4db2-b6ef-3a72df1a86da","system_id":"levelo_inurba_marseille","lat":43.282603,"lon":5.350628,"is_reserved":false,"is_disabled":false,"rental_uris":{"android":"levelo://app?vid=9bb56387-bf27-4db2-b6ef-3a72df1a86da","ios":"levelo://app?vid=9bb56387-bf27-4db2-b6ef-3a72df1a86da"},"vehicle_type_id":"4","last_reported":1727712715,"current_range_meters":10000,"station_id":"ce4bhbp2rcd13ifvqerg","pricing_plan_id":"cebpf4jnsgd1na2vs0mg"},{"bike_id":"e70f9978-2c1b-45f5-8b66-c4f6fb86eceb","system_id":"levelo_inurba_marseille","lat":43.292969,"lon":5.369227,"is_reserved":false,"is_disabled":false,"rental_uris":{"android":"levelo://app?vid=e70f9978-2c1b-45f5-8b66-c4f6fb86eceb","ios":"levelo://app?vid=e70f9978-2c1b-45f5-8b66-c4f6fb86eceb"},"vehicle_type_id":"4","last_reported":1727712715,"current_range_meters":25200,"station_id":"ce4bhbp2rcd13ifvqesg","pricing_plan_id":"cebpf4jnsgd1na2vs0mg"},{"bike_id":"f621b13d-0d43-4ba5-baae-b97abe480c1d","system_id":"levelo_inurba_marseille","lat":43.29529,"lon":5.39055,"is_reserved":false,"is_disabled":false,"rental_uris":{"android":"levelo://app?vid=f621b13d-0d43-4ba5-baae-b97abe480c1d","ios":"levelo://app?vid=f621b13d-0d43-4ba5-baae-b97abe480c1d"},"vehicle_type_id":"4","last_reported":1727712715,"current_range_meters":7200,"station_id":"ce4bh3p2rcd13ifvqdp0","pricing_plan_id":"cebpf4jnsgd1na2vs0mg"},{"bike_id":"641b3508-e14e-46fe-bf10-a79efc489df3","system_id":"levelo_inurba_marseille","lat":43.28934,"lon":5.36395,"is_reserved":false,"is_disabled":false,"rental_uris":{"android":"levelo://app?vid=641b3508-e14e-46fe-bf10-a79efc489df3","ios":"levelo://app?vid=641b3508-e14e-46fe-bf10-a79efc489df3"},"vehicle_type_id":"4","last_reported":1727712715,"current_range_meters":20400,"station_id":"ce4bhc92rcd13ifvqetg","pricing_plan_id":"cebpf4jnsgd1na2vs0mg"},{"bike_id":"134610c0-98ef-4835-8cd3-1745cfe76245","system_id":"levelo_inurba_marseille","lat":43.29557,"lon":5.42292,"is_reserved":false,"is_disabled":false,"rental_uris":{"android":"levelo://app?vid=134610c0-98ef-4835-8cd3-1745cfe76245","ios":"levelo://app?vid=134610c0-98ef-4835-8cd3-1745cfe76245"},"vehicle_type_id":"4","last_reported":1727712715,"current_range_meters":16800,"station_id":"ce4bhph2rcd13ifvqhdg","pricing_plan_id":"cebpf4jnsgd1na2vs0mg"},{"bike_id":"92a377c1-c83e-4ce0-8033-a37f64060b32","system_id":"levelo_inurba_marseille","lat":43.29891,"lon":5.43656,"is_reserved":false,"is_disabled":false,"rental_uris":{"android":"levelo://app?vid=92a377c1-c83e-4ce0-8033-a37f64060b32","ios":"levelo://app?vid=92a377c1-c83e-4ce0-8033-a37f64060b32"},"vehicle_type_id":"4","last_reported":1727712715,"current_range_meters":22000,"station_id":"ce4bhpp2rcd13ifvqhfg","pricing_plan_id":"cebpf4jnsgd1na2vs0mg"},{"bike_id":"8491d166-6b1b-432d-9c13-91f51b06a3ca","system_id":"levelo_inurba_marseille","lat":43.28115,"lon":5.3955,"is_reserved":false,"is_disabled":false,"rental_uris":{"android":"levelo://app?vid=8491d166-6b1b-432d-9c13-91f51b06a3ca","ios":"levelo://app?vid=8491d166-6b1b-432d-9c13-91f51b06a3ca"},"vehicle_type_id":"4","last_reported":1727712715,"current_range_meters":11200,"station_id":"ce4bho92rcd13ifvqh4g","pricing_plan_id":"cebpf4jnsgd1na2vs0mg"},{"bike_id":"ea88f175-1253-4005-ab4b-521849ff489d","system_id":"levelo_inurba_marseille","lat":43.32366,"lon":5.38887,"is_reserved":false,"is_disabled":false,"rental_uris":{"android":"levelo://app?vid=ea88f175-1253-4005-ab4b-521849ff489d","ios":"levelo://app?vid=ea88f175-1253-4005-ab4b-521849ff489d"},"vehicle_type_id":"4","last_reported":1727712715,"current_range_meters":27600,"station_id":"ce4bhqp2rcd13ifvqhog","pricing_plan_id":"cebpf4jnsgd1na2vs0mg"},{"bike_id":"d023689d-a609-403d-8ad4-0f84e064dd73","system_id":"levelo_inurba_marseille","lat":43.29872,"lon":5.39731,"is_reserved":false,"is_disabled":false,"rental_uris":{"android":"levelo://app?vid=d023689d-a609-403d-8ad4-0f84e064dd73","ios":"levelo://app?vid=d023689d-a609-403d-8ad4-0f84e064dd73"},"vehicle_type_id":"4","last_reported":1727712715,"current_range_meters":15200,"station_id":"ce4bh0h2rcd13ifvqd50","pricing_plan_id":"cebpf4jnsgd1na2vs0mg"},{"bike_id":"f67a9d7d-29df-41d5-b7a4-c2154a67c266","system_id":"levelo_inurba_marseille","lat":43.28419,"lon":5.34987,"is_reserved":false,"is_disabled":false,"rental_uris":{"android":"levelo://app?vid=f67a9d7d-29df-41d5-b7a4-c2154a67c266","ios":"levelo://app?vid=f67a9d7d-29df-41d5-b7a4-c2154a67c266"},"vehicle_type_id":"4","last_reported":1727712715,"current_range_meters":21600,"station_id":"ce4bhbh2rcd13ifvqepg","pricing_plan_id":"cebpf4jnsgd1na2vs0mg"},{"bike_id":"df2c5911-edd0-40e3-b330-264f052f7a6a","system_id":"levelo_inurba_marseille","lat":43.28421,"lon":5.34974,"is_reserved":false,"is_disabled":false,"rental_uris":{"android":"levelo://app?vid=df2c5911-edd0-40e3-b330-264f052f7a6a","ios":"levelo://app?vid=df2c5911-edd0-40e3-b330-264f052f7a6a"},"vehicle_type_id":"4","last_reported":1727712715,"current_range_meters":10800,"station_id":"ce4bhbh2rcd13ifvqepg","pricing_plan_id":"cebpf4jnsgd1na2vs0mg"},{"bike_id":"3edfc01a-a4ef-4bb5-8efa-f0ea29a3ce1d","system_id":"levelo_inurba_marseille","lat":43.29716,"lon":5.36617,"is_reserved":false,"is_disabled":false,"rental_uris":{"android":"levelo://app?vid=3edfc01a-a4ef-4bb5-8efa-f0ea29a3ce1d","ios":"levelo://app?vid=3edfc01a-a4ef-4bb5-8efa-f0ea29a3ce1d"},"vehicle_type_id":"4","last_reported":1727712715,"current_range_meters":20000,"station_id":"ce4bgn12rcd13ifvqbt0","pricing_plan_id":"cebpf4jnsgd1na2vs0mg"},{"bike_id":"9a80ff08-a1df-4364-be08-f5c7d6b3d97e","system_id":"levelo_inurba_marseille","lat":43.2927,"lon":5.4012,"is_reserved":false,"is_disabled":false,"rental_uris":{"android":"levelo://app?vid=9a80ff08-a1df-4364-be08-f5c7d6b3d97e","ios":"levelo://app?vid=9a80ff08-a1df-4364-be08-f5c7d6b3d97e"},"vehicle_type_id":"4","last_reported":1727712715,"current_range_meters":38400,"station_id":"ce4bh312rcd13ifvqdk0","pricing_plan_id":"cebpf4jnsgd1na2vs0mg"},{"bike_id":"8490e44e-0aff-4d7e-8a96-481d57cd3987","system_id":"levelo_inurba_marseille","lat":43.28525,"lon":5.39137,"is_reserved":false,"is_disabled":false,"rental_uris":{"android":"levelo://app?vid=8490e44e-0aff-4d7e-8a96-481d57cd3987","ios":"levelo://app?vid=8490e44e-0aff-4d7e-8a96-481d57cd3987"},"vehicle_type_id":"4","last_reported":1727712715,"current_range_meters":23200,"station_id":"ce4bh3p2rcd13ifvqdp0","pricing_plan_id":"cebpf4jnsgd1na2vs0mg"},{"bike_id":"93037e49-c985-4d73-8f67-127e6ecdf61a","system_id":"levelo_inurba_marseille","lat":43.28707,"lon":5.37385,"is_reserved":false,"is_disabled":false,"rental_uris":{"android":"levelo://app?vid=93037e49-c985-4d73-8f67-127e6ecdf61a","ios":"levelo://app?vid=93037e49-c985-4d73-8f67-127e6ecdf61a"},"vehicle_type_id":"4","last_reported":1727712715,"current_range_meters":16000,"station_id":"ce4bh3p2rcd13ifvqdq0","pricing_plan_id":"cebpf4jnsgd1na2vs0mg"},{"bike_id":"65dcc76e-9790-4f4b-a2c2-030038a59057","system_id":"levelo_inurba_marseille","lat":43.28715,"lon":5.37375,"is_reserved":false,"is_disabled":false,"rental_uris":{"android":"levelo://app?vid=65dcc76e-9790-4f4b-a2c2-030038a59057","ios":"levelo://app?vid=65dcc76e-9790-4f4b-a2c2-030038a59057"},"vehicle_type_id":"4","last_reported":1727712715,"current_range_meters":38800,"station_id":"ce4bh3p2rcd13ifvqdq0","pricing_plan_id":"cebpf4jnsgd1na2vs0mg"},{"bike_id":"d45b517b-33e7-4367-8f0a-9da29fc3ed2a","system_id":"levelo_inurba_marseille","lat":43.29421,"lon":5.38624,"is_reserved":false,"is_disabled":false,"rental_uris":{"android":"levelo://app?vid=d45b517b-33e7-4367-8f0a-9da29fc3ed2a","ios":"levelo://app?vid=d45b517b-33e7-4367-8f0a-9da29fc3ed2a"},"vehicle_type_id":"4","last_reported":1727712715,"current_range_meters":23200,"station_id":"ce4bh2h2rcd13ifvqdh0","pricing_plan_id":"cebpf4jnsgd1na2vs0mg"},{"bike_id":"f54334eb-2195-4db5-889a-3481da52f9df","system_id":"levelo_inurba_marseille","lat":43.323,"lon":5.38266,"is_reserved":false,"is_disabled":false,"rental_uris":{"android":"levelo://app?vid=f54334eb-2195-4db5-889a-3481da52f9df","ios":"levelo://app?vid=f54334eb-2195-4db5-889a-3481da52f9df"},"vehicle_type_id":"4","last_reported":1727712715,"current_range_meters":39200,"station_id":"ce4bhr12rcd13ifvqhqg","pricing_plan_id":"cebpf4jnsgd1na2vs0mg"},{"bike_id":"e91f8afc-c392-4251-bb35-cd7835b4308b","system_id":"levelo_inurba_marseille","lat":43.2927,"lon":5.38434,"is_reserved":false,"is_disabled":false,"rental_uris":{"android":"levelo://app?vid=e91f8afc-c392-4251-bb35-cd7835b4308b","ios":"levelo://app?vid=e91f8afc-c392-4251-bb35-cd7835b4308b"},"vehicle_type_id":"4","last_reported":1727712715,"current_range_meters":6400,"station_id":"ce4bh692rcd13ifvqea0","pricing_plan_id":"cebpf4jnsgd1na2vs0mg"},{"bike_id":"cd10a943-31d5-49df-ab63-1b4027ea6505","system_id":"levelo_inurba_marseille","lat":43.26032,"lon":5.37544,"is_reserved":false,"is_disabled":false,"rental_uris":{"android":"levelo://app?vid=cd10a943-31d5-49df-ab63-1b4027ea6505","ios":"levelo://app?vid=cd10a943-31d5-49df-ab63-1b4027ea6505"},"vehicle_type_id":"4","last_reported":1727712715,"current_range_meters":38000,"station_id":"ce4bhgh2rcd13ifvqfa0","pricing_plan_id":"cebpf4jnsgd1na2vs0mg"},{"bike_id":"5dfd9658-fa7f-46fc-b68f-ea8f76487a17","system_id":"levelo_inurba_marseille","lat":43.337444,"lon":5.374475,"is_reserved":false,"is_disabled":false,"rental_uris":{"android":"levelo://app?vid=5dfd9658-fa7f-46fc-b68f-ea8f76487a17","ios":"levelo://app?vid=5dfd9658-fa7f-46fc-b68f-ea8f76487a17"},"vehicle_type_id":"4","last_reported":1727712715,"current_range_meters":20800,"station_id":"","pricing_plan_id":"cebpf4jnsgd1na2vs0mg"},{"bike_id":"eab30390-0c07-449c-a891-cba8bee1096b","system_id":"levelo_inurba_marseille","lat":43.32313,"lon":5.38284,"is_reserved":false,"is_disabled":false,"rental_uris":{"android":"levelo://app?vid=eab30390-0c07-449c-a891-cba8bee1096b","ios":"levelo://app?vid=eab30390-0c07-449c-a891-cba8bee1096b"},"vehicle_type_id":"4","last_reported":1727712715,"current_range_meters":36400,"station_id":"ce4bhr12rcd13ifvqhqg","pricing_plan_id":"cebpf4jnsgd1na2vs0mg"},{"bike_id":"fdef7ae9-ba96-44b0-b95b-7baf90afc649","system_id":"levelo_inurba_marseille","lat":43.23959,"lon":5.36626,"is_reserved":false,"is_disabled":false,"rental_uris":{"android":"levelo://app?vid=fdef7ae9-ba96-44b0-b95b-7baf90afc649","ios":"levelo://app?vid=fdef7ae9-ba96-44b0-b95b-7baf90afc649"},"vehicle_type_id":"4","last_reported":1727712715,"current_range_meters":24000,"station_id":"ce4bhi12rcd13ifvqfp0","pricing_plan_id":"cebpf4jnsgd1na2vs0mg"},{"bike_id":"897fa26c-4ba6-47b6-bce8-2f31350b926c","system_id":"levelo_inurba_marseille","lat":43.30254,"lon":5.37726,"is_reserved":false,"is_disabled":false,"rental_uris":{"android":"levelo://app?vid=897fa26c-4ba6-47b6-bce8-2f31350b926c","ios":"levelo://app?vid=897fa26c-4ba6-47b6-bce8-2f31350b926c"},"vehicle_type_id":"4","last_reported":1727712715,"current_range_meters":6800,"station_id":"ce4bhr92rcd13ifvqhsg","pricing_plan_id":"cebpf4jnsgd1na2vs0mg"},{"bike_id":"f42cbcd5-2a74-472e-9b8e-95e2c7c39a6a","system_id":"levelo_inurba_marseille","lat":43.30798,"lon":5.43524,"is_reserved":false,"is_disabled":false,"rental_uris":{"android":"levelo://app?vid=f42cbcd5-2a74-472e-9b8e-95e2c7c39a6a","ios":"levelo://app?vid=f42cbcd5-2a74-472e-9b8e-95e2c7c39a6a"},"vehicle_type_id":"4","last_reported":1727712715,"current_range_meters":30000,"station_id":"ce4bhph2rcd13ifvqheg","pricing_plan_id":"cebpf4jnsgd1na2vs0mg"},{"bike_id":"04a8bad5-b591-4639-a70d-89d3ac0f2e88","system_id":"levelo_inurba_marseille","lat":43.309082,"lon":5.402909,"is_reserved":false,"is_disabled":false,"rental_uris":{"android":"levelo://app?vid=04a8bad5-b591-4639-a70d-89d3ac0f2e88","ios":"levelo://app?vid=04a8bad5-b591-4639-a70d-89d3ac0f2e88"},"vehicle_type_id":"4","last_reported":1727712715,"current_range_meters":26000,"station_id":"ce4bhq92rcd13ifvqhjg","pricing_plan_id":"cebpf4jnsgd1na2vs0mg"},{"bike_id":"8752d0f7-b112-48c1-848a-e670abf70f1b","system_id":"levelo_inurba_marseille","lat":43.292,"lon":5.39325,"is_reserved":false,"is_disabled":false,"rental_uris":{"android":"levelo://app?vid=8752d0f7-b112-48c1-848a-e670abf70f1b","ios":"levelo://app?vid=8752d0f7-b112-48c1-848a-e670abf70f1b"},"vehicle_type_id":"4","last_reported":1727712715,"current_range_meters":27600,"station_id":"ce4bh192rcd13ifvqdd0","pricing_plan_id":"cebpf4jnsgd1na2vs0mg"},{"bike_id":"a9d94fc0-5899-49ba-a07e-e9ffffddb5c4","system_id":"levelo_inurba_marseille","lat":43.23068,"lon":5.35495,"is_reserved":false,"is_disabled":false,"rental_uris":{"android":"levelo://app?vid=a9d94fc0-5899-49ba-a07e-e9ffffddb5c4","ios":"levelo://app?vid=a9d94fc0-5899-49ba-a07e-e9ffffddb5c4"},"vehicle_type_id":"4","last_reported":1727712715,"current_range_meters":24400,"station_id":"cpo3342slgdg3j2ifvpg","pricing_plan_id":"cebpf4jnsgd1na2vs0mg"},{"bike_id":"877c2151-96e4-4af9-95cc-9bbf8692eac8","system_id":"levelo_inurba_marseille","lat":43.27571,"lon":5.38421,"is_reserved":false,"is_disabled":false,"rental_uris":{"android":"levelo://app?vid=877c2151-96e4-4af9-95cc-9bbf8692eac8","ios":"levelo://app?vid=877c2151-96e4-4af9-95cc-9bbf8692eac8"},"vehicle_type_id":"4","last_reported":1727712715,"current_range_meters":19200,"station_id":"ce4bhh92rcd13ifvqfi0","pricing_plan_id":"cebpf4jnsgd1na2vs0mg"},{"bike_id":"ce0a6298-7234-4702-b5b4-87c097f2e621","system_id":"levelo_inurba_marseille","lat":43.22931,"lon":5.35384,"is_reserved":false,"is_disabled":false,"rental_uris":{"android":"levelo://app?vid=ce0a6298-7234-4702-b5b4-87c097f2e621","ios":"levelo://app?vid=ce0a6298-7234-4702-b5b4-87c097f2e621"},"vehicle_type_id":"4","last_reported":1727712715,"current_range_meters":11600,"station_id":"cpo3532slgdg3j2ikp40","pricing_plan_id":"cebpf4jnsgd1na2vs0mg"},{"bike_id":"94a335ac-0965-4655-a8be-f55c15304f15","system_id":"levelo_inurba_marseille","lat":43.31719,"lon":5.37747,"is_reserved":false,"is_disabled":false,"rental_uris":{"android":"levelo://app?vid=94a335ac-0965-4655-a8be-f55c15304f15","ios":"levelo://app?vid=94a335ac-0965-4655-a8be-f55c15304f15"},"vehicle_type_id":"4","last_reported":1727712715,"current_range_meters":10000,"station_id":"ce4bgth2rcd13ifvqch0","pricing_plan_id":"cebpf4jnsgd1na2vs0mg"},{"bike_id":"7fae0be7-c4bb-49ce-a06d-9bee282252b1","system_id":"levelo_inurba_marseille","lat":43.25589,"lon":5.38233,"is_reserved":false,"is_disabled":false,"rental_uris":{"android":"levelo://app?vid=7fae0be7-c4bb-49ce-a06d-9bee282252b1","ios":"levelo://app?vid=7fae0be7-c4bb-49ce-a06d-9bee282252b1"},"vehicle_type_id":"4","last_reported":1727712715,"current_range_meters":37600,"station_id":"ce4bhih2rcd13ifvqfs0","pricing_plan_id":"cebpf4jnsgd1na2vs0mg"},{"bike_id":"d7ca246b-bc32-4e93-8bdc-a0c0a2f94fc5","system_id":"levelo_inurba_marseille","lat":43.29787,"lon":5.39349,"is_reserved":false,"is_disabled":false,"rental_uris":{"android":"levelo://app?vid=d7ca246b-bc32-4e93-8bdc-a0c0a2f94fc5","ios":"levelo://app?vid=d7ca246b-bc32-4e93-8bdc-a0c0a2f94fc5"},"vehicle_type_id":"4","last_reported":1727712715,"current_range_meters":8000,"station_id":"chh1huq6cuj3fo74tm60","pricing_plan_id":"cebpf4jnsgd1na2vs0mg"},{"bike_id":"80cd62fe-448a-4dac-b53b-623d9ac172c9","system_id":"levelo_inurba_marseille","lat":43.2928,"lon":5.36847,"is_reserved":false,"is_disabled":false,"rental_uris":{"android":"levelo://app?vid=80cd62fe-448a-4dac-b53b-623d9ac172c9","ios":"levelo://app?vid=80cd62fe-448a-4dac-b53b-623d9ac172c9"},"vehicle_type_id":"4","last_reported":1727712715,"current_range_meters":35200,"station_id":"ce4bhbp2rcd13ifvqesg","pricing_plan_id":"cebpf4jnsgd1na2vs0mg"},{"bike_id":"bb94a374-ef76-4ca0-8975-3bcbdc1d9450","system_id":"levelo_inurba_marseille","lat":43.26196,"lon":5.37448,"is_reserved":false,"is_disabled":false,"rental_uris":{"android":"levelo://app?vid=bb94a374-ef76-4ca0-8975-3bcbdc1d9450","ios":"levelo://app?vid=bb94a374-ef76-4ca0-8975-3bcbdc1d9450"},"vehicle_type_id":"4","last_reported":1727712715,"current_range_meters":28400,"station_id":"ce4bhgp2rcd13ifvqfc0","pricing_plan_id":"cebpf4jnsgd1na2vs0mg"},{"bike_id":"2b5998d2-d309-431d-82c7-13ac086d96cf","system_id":"levelo_inurba_marseille","lat":43.29907,"lon":5.38148,"is_reserved":false,"is_disabled":false,"rental_uris":{"android":"levelo://app?vid=2b5998d2-d309-431d-82c7-13ac086d96cf","ios":"levelo://app?vid=2b5998d2-d309-431d-82c7-13ac086d96cf"},"vehicle_type_id":"4","last_reported":1727712715,"current_range_meters":33600,"station_id":"ce4bgj12rcd13ifvqbc0","pricing_plan_id":"cebpf4jnsgd1na2vs0mg"},{"bike_id":"d94c9e9a-bf4a-4249-8ffd-2984ec413562","system_id":"levelo_inurba_marseille","lat":43.31759,"lon":5.3902,"is_reserved":false,"is_disabled":false,"rental_uris":{"android":"levelo://app?vid=d94c9e9a-bf4a-4249-8ffd-2984ec413562","ios":"levelo://app?vid=d94c9e9a-bf4a-4249-8ffd-2984ec413562"},"vehicle_type_id":"4","last_reported":1727712715,"current_range_meters":13600,"station_id":"ce4bhqp2rcd13ifvqhng","pricing_plan_id":"cebpf4jnsgd1na2vs0mg"},{"bike_id":"47f49616-7c71-4952-9d4a-4f331e2b2fae","system_id":"levelo_inurba_marseille","lat":43.29954,"lon":5.38642,"is_reserved":false,"is_disabled":false,"rental_uris":{"android":"levelo://app?vid=47f49616-7c71-4952-9d4a-4f331e2b2fae","ios":"levelo://app?vid=47f49616-7c71-4952-9d4a-4f331e2b2fae"},"vehicle_type_id":"4","last_reported":1727712715,"current_range_meters":9200,"station_id":"ce4bh0p2rcd13ifvqd70","pricing_plan_id":"cebpf4jnsgd1na2vs0mg"},{"bike_id":"64d96b78-fd08-49b3-8c86-064e10657112","system_id":"levelo_inurba_marseille","lat":43.30807,"lon":5.43518,"is_reserved":false,"is_disabled":false,"rental_uris":{"android":"levelo://app?vid=64d96b78-fd08-49b3-8c86-064e10657112","ios":"levelo://app?vid=64d96b78-fd08-49b3-8c86-064e10657112"},"vehicle_type_id":"4","last_reported":1727712715,"current_range_meters":6000,"station_id":"ce4bhph2rcd13ifvqheg","pricing_plan_id":"cebpf4jnsgd1na2vs0mg"},{"bike_id":"f6a17653-60fe-4905-8fcc-171ea7153dd8","system_id":"levelo_inurba_marseille","lat":43.337444,"lon":5.374475,"is_reserved":false,"is_disabled":false,"rental_uris":{"android":"levelo://app?vid=f6a17653-60fe-4905-8fcc-171ea7153dd8","ios":"levelo://app?vid=f6a17653-60fe-4905-8fcc-171ea7153dd8"},"vehicle_type_id":"4","last_reported":1727712715,"current_range_meters":35600,"station_id":"","pricing_plan_id":"cebpf4jnsgd1na2vs0mg"},{"bike_id":"79e3b807-678c-4e9f-bcb7-05c9cb3c6740","system_id":"levelo_inurba_marseille","lat":43.32268,"lon":5.38272,"is_reserved":false,"is_disabled":false,"rental_uris":{"android":"levelo://app?vid=79e3b807-678c-4e9f-bcb7-05c9cb3c6740","ios":"levelo://app?vid=79e3b807-678c-4e9f-bcb7-05c9cb3c6740"},"vehicle_type_id":"4","last_reported":1727712715,"current_range_meters":6000,"station_id":"ce4bhr12rcd13ifvqhqg","pricing_plan_id":"cebpf4jnsgd1na2vs0mg"},{"bike_id":"37ee78ef-1fa9-40e4-bc02-684f7ec5cde5","system_id":"levelo_inurba_marseille","lat":43.29559,"lon":5.4229,"is_reserved":false,"is_disabled":false,"rental_uris":{"android":"levelo://app?vid=37ee78ef-1fa9-40e4-bc02-684f7ec5cde5","ios":"levelo://app?vid=37ee78ef-1fa9-40e4-bc02-684f7ec5cde5"},"vehicle_type_id":"4","last_reported":1727712715,"current_range_meters":23200,"station_id":"ce4bhph2rcd13ifvqhdg","pricing_plan_id":"cebpf4jnsgd1na2vs0mg"},{"bike_id":"28e23b31-a1de-43a5-aa85-c15becbae179","system_id":"levelo_inurba_marseille","lat":43.32298,"lon":5.38264,"is_reserved":false,"is_disabled":false,"rental_uris":{"android":"levelo://app?vid=28e23b31-a1de-43a5-aa85-c15becbae179","ios":"levelo://app?vid=28e23b31-a1de-43a5-aa85-c15becbae179"},"vehicle_type_id":"4","last_reported":1727712715,"current_range_meters":20400,"station_id":"ce4bhr12rcd13ifvqhqg","pricing_plan_id":"cebpf4jnsgd1na2vs0mg"},{"bike_id":"aabb8170-0444-49d1-9d45-4a822cd98d80","system_id":"levelo_inurba_marseille","lat":43.28615,"lon":5.35106,"is_reserved":false,"is_disabled":false,"rental_uris":{"android":"levelo://app?vid=aabb8170-0444-49d1-9d45-4a822cd98d80","ios":"levelo://app?vid=aabb8170-0444-49d1-9d45-4a822cd98d80"},"vehicle_type_id":"4","last_reported":1727712715,"current_range_meters":37600,"station_id":"ce4bhch2rcd13ifvqeug","pricing_plan_id":"cebpf4jnsgd1na2vs0mg"},{"bike_id":"65518d0c-7533-4746-a79a-2b9e824013dd","system_id":"levelo_inurba_marseille","lat":43.28277,"lon":5.35054,"is_reserved":false,"is_disabled":false,"rental_uris":{"android":"levelo://app?vid=65518d0c-7533-4746-a79a-2b9e824013dd","ios":"levelo://app?vid=65518d0c-7533-4746-a79a-2b9e824013dd"},"vehicle_type_id":"4","last_reported":1727712715,"current_range_meters":4800,"station_id":"ce4bhbp2rcd13ifvqerg","pricing_plan_id":"cebpf4jnsgd1na2vs0mg"},{"bike_id":"c45c3a46-642d-41d9-b2fb-4cf7c0603661","system_id":"levelo_inurba_marseille","lat":43.264145,"lon":5.374162,"is_reserved":false,"is_disabled":false,"rental_uris":{"android":"levelo://app?vid=c45c3a46-642d-41d9-b2fb-4cf7c0603661","ios":"levelo://app?vid=c45c3a46-642d-41d9-b2fb-4cf7c0603661"},"vehicle_type_id":"4","last_reported":1727712715,"current_range_meters":7200,"station_id":"ce4bhgp2rcd13ifvqfc0","pricing_plan_id":"cebpf4jnsgd1na2vs0mg"},{"bike_id":"dbb401c1-d648-4b46-b654-f9eb34fcd375","system_id":"levelo_inurba_marseille","lat":43.31371,"lon":5.38503,"is_reserved":false,"is_disabled":false,"rental_uris":{"android":"levelo://app?vid=dbb401c1-d648-4b46-b654-f9eb34fcd375","ios":"levelo://app?vid=dbb401c1-d648-4b46-b654-f9eb34fcd375"},"vehicle_type_id":"4","last_reported":1727712715,"current_range_meters":19200,"station_id":"ce4bgt92rcd13ifvqcf0","pricing_plan_id":"cebpf4jnsgd1na2vs0mg"},{"bike_id":"bf5c76a8-c55b-4f2c-b861-862979e310d0","system_id":"levelo_inurba_marseille","lat":43.30934,"lon":5.40144,"is_reserved":false,"is_disabled":false,"rental_uris":{"android":"levelo://app?vid=bf5c76a8-c55b-4f2c-b861-862979e310d0","ios":"levelo://app?vid=bf5c76a8-c55b-4f2c-b861-862979e310d0"},"vehicle_type_id":"4","last_reported":1727712715,"current_range_meters":16000,"station_id":"ce4bgvp2rcd13ifvqct0","pricing_plan_id":"cebpf4jnsgd1na2vs0mg"},{"bike_id":"3f54d858-b90e-4631-8b26-cad747cb9c07","system_id":"levelo_inurba_marseille","lat":43.29005,"lon":5.35616,"is_reserved":false,"is_disabled":false,"rental_uris":{"android":"levelo://app?vid=3f54d858-b90e-4631-8b26-cad747cb9c07","ios":"levelo://app?vid=3f54d858-b90e-4631-8b26-cad747cb9c07"},"vehicle_type_id":"4","last_reported":1727712715,"current_range_meters":10800,"station_id":"ce4bhb92rcd13ifvqen0","pricing_plan_id":"cebpf4jnsgd1na2vs0mg"},{"bike_id":"ec5aab69-dce1-477c-9ad5-3caf6a1372ac","system_id":"levelo_inurba_marseille","lat":43.24667,"lon":5.38154,"is_reserved":false,"is_disabled":false,"rental_uris":{"android":"levelo://app?vid=ec5aab69-dce1-477c-9ad5-3caf6a1372ac","ios":"levelo://app?vid=ec5aab69-dce1-477c-9ad5-3caf6a1372ac"},"vehicle_type_id":"4","last_reported":1727712715,"current_range_meters":33600,"station_id":"ce4bhih2rcd13ifvqfr0","pricing_plan_id":"cebpf4jnsgd1na2vs0mg"},{"bike_id":"1fc85630-2ca5-4e01-8581-b588b169b0e7","system_id":"levelo_inurba_marseille","lat":43.23191,"lon":5.39978,"is_reserved":false,"is_disabled":false,"rental_uris":{"android":"levelo://app?vid=1fc85630-2ca5-4e01-8581-b588b169b0e7","ios":"levelo://app?vid=1fc85630-2ca5-4e01-8581-b588b169b0e7"},"vehicle_type_id":"4","last_reported":1727712715,"current_range_meters":20800,"station_id":"ce4bhn12rcd13ifvqgqg","pricing_plan_id":"cebpf4jnsgd1na2vs0mg"},{"bike_id":"fea8e3f7-0b42-4f6e-a190-65aa25b2b6f5","system_id":"levelo_inurba_marseille","lat":43.30434,"lon":5.39746,"is_reserved":false,"is_disabled":false,"rental_uris":{"android":"levelo://app?vid=fea8e3f7-0b42-4f6e-a190-65aa25b2b6f5","ios":"levelo://app?vid=fea8e3f7-0b42-4f6e-a190-65aa25b2b6f5"},"vehicle_type_id":"4","last_reported":1727712715,"current_range_meters":28000,"station_id":"ce4bh092rcd13ifvqd20","pricing_plan_id":"cebpf4jnsgd1na2vs0mg"},{"bike_id":"cd863fc7-cfcd-47b6-a7f3-4dc8809215a9","system_id":"levelo_inurba_marseille","lat":43.28617,"lon":5.35105,"is_reserved":false,"is_disabled":false,"rental_uris":{"android":"levelo://app?vid=cd863fc7-cfcd-47b6-a7f3-4dc8809215a9","ios":"levelo://app?vid=cd863fc7-cfcd-47b6-a7f3-4dc8809215a9"},"vehicle_type_id":"4","last_reported":1727712715,"current_range_meters":24400,"station_id":"ce4bhch2rcd13ifvqeug","pricing_plan_id":"cebpf4jnsgd1na2vs0mg"},{"bike_id":"bbb23734-6aed-4ea8-8851-f38712ae567b","system_id":"levelo_inurba_marseille","lat":43.32392,"lon":5.3899,"is_reserved":false,"is_disabled":false,"rental_uris":{"android":"levelo://app?vid=bbb23734-6aed-4ea8-8851-f38712ae567b","ios":"levelo://app?vid=bbb23734-6aed-4ea8-8851-f38712ae567b"},"vehicle_type_id":"4","last_reported":1727712715,"current_range_meters":24800,"station_id":"","pricing_plan_id":"cebpf4jnsgd1na2vs0mg"},{"bike_id":"58d868a4-d7e0-4212-86ea-bfe8be426db0","system_id":"levelo_inurba_marseille","lat":43.308,"lon":5.37631,"is_reserved":false,"is_disabled":false,"rental_uris":{"android":"levelo://app?vid=58d868a4-d7e0-4212-86ea-bfe8be426db0","ios":"levelo://app?vid=58d868a4-d7e0-4212-86ea-bfe8be426db0"},"vehicle_type_id":"4","last_reported":1727712715,"current_range_meters":25200,"station_id":"ce4bgv92rcd13ifvqcq0","pricing_plan_id":"cebpf4jnsgd1na2vs0mg"},{"bike_id":"6c9947dc-ed0f-49ea-bd99-10f95db5fbaf","system_id":"levelo_inurba_marseille","lat":43.2919,"lon":5.39321,"is_reserved":false,"is_disabled":false,"rental_uris":{"android":"levelo://app?vid=6c9947dc-ed0f-49ea-bd99-10f95db5fbaf","ios":"levelo://app?vid=6c9947dc-ed0f-49ea-bd99-10f95db5fbaf"},"vehicle_type_id":"4","last_reported":1727712715,"current_range_meters":14400,"station_id":"ce4bh192rcd13ifvqdd0","pricing_plan_id":"cebpf4jnsgd1na2vs0mg"},{"bike_id":"53ce3c2a-f71b-4dc6-b9c3-49e4a224cc3f","system_id":"levelo_inurba_marseille","lat":43.28668,"lon":5.36344,"is_reserved":false,"is_disabled":false,"rental_uris":{"android":"levelo://app?vid=53ce3c2a-f71b-4dc6-b9c3-49e4a224cc3f","ios":"levelo://app?vid=53ce3c2a-f71b-4dc6-b9c3-49e4a224cc3f"},"vehicle_type_id":"4","last_reported":1727712715,"current_range_meters":24800,"station_id":"ce4bhah2rcd13ifvqej0","pricing_plan_id":"cebpf4jnsgd1na2vs0mg"},{"bike_id":"c64da153-a562-4f86-9f35-286156edb213","system_id":"levelo_inurba_marseille","lat":43.32371,"lon":5.38865,"is_reserved":false,"is_disabled":false,"rental_uris":{"android":"levelo://app?vid=c64da153-a562-4f86-9f35-286156edb213","ios":"levelo://app?vid=c64da153-a562-4f86-9f35-286156edb213"},"vehicle_type_id":"4","last_reported":1727712715,"current_range_meters":16400,"station_id":"ce4bhqp2rcd13ifvqhog","pricing_plan_id":"cebpf4jnsgd1na2vs0mg"},{"bike_id":"5da4e193-fa9e-41ee-a99c-486b3fe8c147","system_id":"levelo_inurba_marseille","lat":43.31329,"lon":5.39692,"is_reserved":false,"is_disabled":false,"rental_uris":{"android":"levelo://app?vid=5da4e193-fa9e-41ee-a99c-486b3fe8c147","ios":"levelo://app?vid=5da4e193-fa9e-41ee-a99c-486b3fe8c147"},"vehicle_type_id":"4","last_reported":1727712715,"current_range_meters":9600,"station_id":"ce4bgvp2rcd13ifvqcu0","pricing_plan_id":"cebpf4jnsgd1na2vs0mg"},{"bike_id":"08ae673a-994f-42ca-be9b-401c162e6133","system_id":"levelo_inurba_marseille","lat":43.28618,"lon":5.35096,"is_reserved":false,"is_disabled":false,"rental_uris":{"android":"levelo://app?vid=08ae673a-994f-42ca-be9b-401c162e6133","ios":"levelo://app?vid=08ae673a-994f-42ca-be9b-401c162e6133"},"vehicle_type_id":"4","last_reported":1727712715,"current_range_meters":16400,"station_id":"ce4bhch2rcd13ifvqeug","pricing_plan_id":"cebpf4jnsgd1na2vs0mg"},{"bike_id":"0b897fcf-6db0-4c9e-ac24-f3f5ee3320ce","system_id":"levelo_inurba_marseille","lat":43.23969,"lon":5.36631,"is_reserved":false,"is_disabled":false,"rental_uris":{"android":"levelo://app?vid=0b897fcf-6db0-4c9e-ac24-f3f5ee3320ce","ios":"levelo://app?vid=0b897fcf-6db0-4c9e-ac24-f3f5ee3320ce"},"vehicle_type_id":"4","last_reported":1727712715,"current_range_meters":10000,"station_id":"ce4bhi12rcd13ifvqfp0","pricing_plan_id":"cebpf4jnsgd1na2vs0mg"},{"bike_id":"a3fb2098-a3d1-439d-95b9-6e4364eb59ec","system_id":"levelo_inurba_marseille","lat":43.24493,"lon":5.37837,"is_reserved":false,"is_disabled":false,"rental_uris":{"android":"levelo://app?vid=a3fb2098-a3d1-439d-95b9-6e4364eb59ec","ios":"levelo://app?vid=a3fb2098-a3d1-439d-95b9-6e4364eb59ec"},"vehicle_type_id":"4","last_reported":1727712715,"current_range_meters":15200,"station_id":"","pricing_plan_id":"cebpf4jnsgd1na2vs0mg"},{"bike_id":"511de942-d8c0-4970-ac1f-59bc72ccc425","system_id":"levelo_inurba_marseille","lat":43.29421,"lon":5.38626,"is_reserved":false,"is_disabled":false,"rental_uris":{"android":"levelo://app?vid=511de942-d8c0-4970-ac1f-59bc72ccc425","ios":"levelo://app?vid=511de942-d8c0-4970-ac1f-59bc72ccc425"},"vehicle_type_id":"4","last_reported":1727712715,"current_range_meters":21600,"station_id":"ce4bh2h2rcd13ifvqdh0","pricing_plan_id":"cebpf4jnsgd1na2vs0mg"},{"bike_id":"201621f6-5724-4477-886e-23d690a7ff59","system_id":"levelo_inurba_marseille","lat":43.23197,"lon":5.35546,"is_reserved":false,"is_disabled":false,"rental_uris":{"android":"levelo://app?vid=201621f6-5724-4477-886e-23d690a7ff59","ios":"levelo://app?vid=201621f6-5724-4477-886e-23d690a7ff59"},"vehicle_type_id":"4","last_reported":1727712715,"current_range_meters":38000,"station_id":"ce4bhu92rcd13ifvqi70","pricing_plan_id":"cebpf4jnsgd1na2vs0mg"},{"bike_id":"c4a9b464-4926-4b7c-b8ad-3831bdfb6cc5","system_id":"levelo_inurba_marseille","lat":43.32297,"lon":5.38268,"is_reserved":false,"is_disabled":false,"rental_uris":{"android":"levelo://app?vid=c4a9b464-4926-4b7c-b8ad-3831bdfb6cc5","ios":"levelo://app?vid=c4a9b464-4926-4b7c-b8ad-3831bdfb6cc5"},"vehicle_type_id":"4","last_reported":1727712715,"current_range_meters":22000,"station_id":"ce4bhr12rcd13ifvqhqg","pricing_plan_id":"cebpf4jnsgd1na2vs0mg"},{"bike_id":"d6b8d43c-2c9b-4207-a13b-9aca5d35203a","system_id":"levelo_inurba_marseille","lat":43.32285,"lon":5.38259,"is_reserved":false,"is_disabled":false,"rental_uris":{"android":"levelo://app?vid=d6b8d43c-2c9b-4207-a13b-9aca5d35203a","ios":"levelo://app?vid=d6b8d43c-2c9b-4207-a13b-9aca5d35203a"},"vehicle_type_id":"4","last_reported":1727712715,"current_range_meters":27200,"station_id":"ce4bhr12rcd13ifvqhqg","pricing_plan_id":"cebpf4jnsgd1na2vs0mg"},{"bike_id":"23ae8e0b-85b9-4e45-9948-a0f5b8116df8","system_id":"levelo_inurba_marseille","lat":43.32368,"lon":5.38883,"is_reserved":false,"is_disabled":false,"rental_uris":{"android":"levelo://app?vid=23ae8e0b-85b9-4e45-9948-a0f5b8116df8","ios":"levelo://app?vid=23ae8e0b-85b9-4e45-9948-a0f5b8116df8"},"vehicle_type_id":"4","last_reported":1727712715,"current_range_meters":31200,"station_id":"ce4bhqp2rcd13ifvqhog","pricing_plan_id":"cebpf4jnsgd1na2vs0mg"},{"bike_id":"22ae09b8-0c36-423d-9890-1c63f73addde","system_id":"levelo_inurba_marseille","lat":43.28619,"lon":5.35103,"is_reserved":false,"is_disabled":false,"rental_uris":{"android":"levelo://app?vid=22ae09b8-0c36-423d-9890-1c63f73addde","ios":"levelo://app?vid=22ae09b8-0c36-423d-9890-1c63f73addde"},"vehicle_type_id":"4","last_reported":1727712715,"current_range_meters":20000,"station_id":"ce4bhch2rcd13ifvqeug","pricing_plan_id":"cebpf4jnsgd1na2vs0mg"},{"bike_id":"7b727cb0-3aa6-4c80-89c9-e9e2d8b42a92","system_id":"levelo_inurba_marseille","lat":43.28,"lon":5.40002,"is_reserved":false,"is_disabled":false,"rental_uris":{"android":"levelo://app?vid=7b727cb0-3aa6-4c80-89c9-e9e2d8b42a92","ios":"levelo://app?vid=7b727cb0-3aa6-4c80-89c9-e9e2d8b42a92"},"vehicle_type_id":"4","last_reported":1727712715,"current_range_meters":19600,"station_id":"ce4bho92rcd13ifvqh4g","pricing_plan_id":"cebpf4jnsgd1na2vs0mg"},{"bike_id":"7961b8c1-7b28-4346-835b-27167053072e","system_id":"levelo_inurba_marseille","lat":43.28615,"lon":5.35105,"is_reserved":false,"is_disabled":false,"rental_uris":{"android":"levelo://app?vid=7961b8c1-7b28-4346-835b-27167053072e","ios":"levelo://app?vid=7961b8c1-7b28-4346-835b-27167053072e"},"vehicle_type_id":"4","last_reported":1727712715,"current_range_meters":35200,"station_id":"ce4bhch2rcd13ifvqeug","pricing_plan_id":"cebpf4jnsgd1na2vs0mg"},{"bike_id":"ac3c6b88-0238-493b-a765-8c86b816297d","system_id":"levelo_inurba_marseille","lat":43.25495,"lon":5.37648,"is_reserved":false,"is_disabled":false,"rental_uris":{"android":"levelo://app?vid=ac3c6b88-0238-493b-a765-8c86b816297d","ios":"levelo://app?vid=ac3c6b88-0238-493b-a765-8c86b816297d"},"vehicle_type_id":"4","last_reported":1727712715,"current_range_meters":28800,"station_id":"ce4bhh12rcd13ifvqff0","pricing_plan_id":"cebpf4jnsgd1na2vs0mg"},{"bike_id":"9627f3f8-2020-4663-9321-54392ba3f0e6","system_id":"levelo_inurba_marseille","lat":43.28428,"lon":5.34998,"is_reserved":false,"is_disabled":false,"rental_uris":{"android":"levelo://app?vid=9627f3f8-2020-4663-9321-54392ba3f0e6","ios":"levelo://app?vid=9627f3f8-2020-4663-9321-54392ba3f0e6"},"vehicle_type_id":"4","last_reported":1727712715,"current_range_meters":14000,"station_id":"ce4bhbh2rcd13ifvqepg","pricing_plan_id":"cebpf4jnsgd1na2vs0mg"},{"bike_id":"c3cc3e58-406f-4c42-b243-84fa63d2b305","system_id":"levelo_inurba_marseille","lat":43.284149,"lon":5.349841,"is_reserved":false,"is_disabled":false,"rental_uris":{"android":"levelo://app?vid=c3cc3e58-406f-4c42-b243-84fa63d2b305","ios":"levelo://app?vid=c3cc3e58-406f-4c42-b243-84fa63d2b305"},"vehicle_type_id":"4","last_reported":1727712715,"current_range_meters":6400,"station_id":"ce4bhbh2rcd13ifvqepg","pricing_plan_id":"cebpf4jnsgd1na2vs0mg"},{"bike_id":"6ba9656b-a998-473c-95eb-e053bcf23343","system_id":"levelo_inurba_marseille","lat":43.3248,"lon":5.36566,"is_reserved":false,"is_disabled":false,"rental_uris":{"android":"levelo://app?vid=6ba9656b-a998-473c-95eb-e053bcf23343","ios":"levelo://app?vid=6ba9656b-a998-473c-95eb-e053bcf23343"},"vehicle_type_id":"4","last_reported":1727712715,"current_range_meters":3600,"station_id":"ce4bhs12rcd13ifvqhvg","pricing_plan_id":"cebpf4jnsgd1na2vs0mg"},{"bike_id":"4068bebe-562b-479b-aac9-c6ed8e24e072","system_id":"levelo_inurba_marseille","lat":43.307,"lon":5.38242,"is_reserved":false,"is_disabled":false,"rental_uris":{"android":"levelo://app?vid=4068bebe-562b-479b-aac9-c6ed8e24e072","ios":"levelo://app?vid=4068bebe-562b-479b-aac9-c6ed8e24e072"},"vehicle_type_id":"4","last_reported":1727712715,"current_range_meters":30400,"station_id":"","pricing_plan_id":"cebpf4jnsgd1na2vs0mg"},{"bike_id":"145041c7-adbf-40f3-9343-a07a350baa17","system_id":"levelo_inurba_marseille","lat":43.30864,"lon":5.37299,"is_reserved":false,"is_disabled":false,"rental_uris":{"android":"levelo://app?vid=145041c7-adbf-40f3-9343-a07a350baa17","ios":"levelo://app?vid=145041c7-adbf-40f3-9343-a07a350baa17"},"vehicle_type_id":"4","last_reported":1727712715,"current_range_meters":38800,"station_id":"ce4bguh2rcd13ifvqckg","pricing_plan_id":"cebpf4jnsgd1na2vs0mg"},{"bike_id":"65d38791-c517-46c4-81f1-3dcda82310f8","system_id":"levelo_inurba_marseille","lat":43.27944,"lon":5.41052,"is_reserved":false,"is_disabled":false,"rental_uris":{"android":"levelo://app?vid=65d38791-c517-46c4-81f1-3dcda82310f8","ios":"levelo://app?vid=65d38791-c517-46c4-81f1-3dcda82310f8"},"vehicle_type_id":"4","last_reported":1727712715,"current_range_meters":8000,"station_id":"ce4bhnp2rcd13ifvqh0g","pricing_plan_id":"cebpf4jnsgd1na2vs0mg"},{"bike_id":"e0ec798c-1a2e-4db9-a8f7-cd88ce7c2e7b","system_id":"levelo_inurba_marseille","lat":43.30356,"lon":5.4188,"is_reserved":false,"is_disabled":false,"rental_uris":{"android":"levelo://app?vid=e0ec798c-1a2e-4db9-a8f7-cd88ce7c2e7b","ios":"levelo://app?vid=e0ec798c-1a2e-4db9-a8f7-cd88ce7c2e7b"},"vehicle_type_id":"4","last_reported":1727712715,"current_range_meters":38000,"station_id":"ce4bhop2rcd13ifvqh7g","pricing_plan_id":"cebpf4jnsgd1na2vs0mg"},{"bike_id":"63ee894d-1b4e-49de-a68f-667ac5ff10f9","system_id":"levelo_inurba_marseille","lat":43.29577,"lon":5.39984,"is_reserved":false,"is_disabled":false,"rental_uris":{"android":"levelo://app?vid=63ee894d-1b4e-49de-a68f-667ac5ff10f9","ios":"levelo://app?vid=63ee894d-1b4e-49de-a68f-667ac5ff10f9"},"vehicle_type_id":"4","last_reported":1727712715,"current_range_meters":16000,"station_id":"ce4bh312rcd13ifvqdj0","pricing_plan_id":"cebpf4jnsgd1na2vs0mg"},{"bike_id":"0f174ba7-41e6-44ee-a8c9-d16d6ebbe5c9","system_id":"levelo_inurba_marseille","lat":43.30187,"lon":5.36621,"is_reserved":false,"is_disabled":false,"rental_uris":{"android":"levelo://app?vid=0f174ba7-41e6-44ee-a8c9-d16d6ebbe5c9","ios":"levelo://app?vid=0f174ba7-41e6-44ee-a8c9-d16d6ebbe5c9"},"vehicle_type_id":"4","last_reported":1727712715,"current_range_meters":39200,"station_id":"ce4bgrh2rcd13ifvqc8g","pricing_plan_id":"cebpf4jnsgd1na2vs0mg"},{"bike_id":"2e1a3ab6-e0d9-4c85-b59e-7c580e5828ae","system_id":"levelo_inurba_marseille","lat":43.29799,"lon":5.40402,"is_reserved":false,"is_disabled":false,"rental_uris":{"android":"levelo://app?vid=2e1a3ab6-e0d9-4c85-b59e-7c580e5828ae","ios":"levelo://app?vid=2e1a3ab6-e0d9-4c85-b59e-7c580e5828ae"},"vehicle_type_id":"4","last_reported":1727712715,"current_range_meters":28400,"station_id":"ce4bh112rcd13ifvqd90","pricing_plan_id":"cebpf4jnsgd1na2vs0mg"},{"bike_id":"b1fc0db7-9527-40fd-bcf4-65d8dc4523d8","system_id":"levelo_inurba_marseille","lat":43.26497,"lon":5.39538,"is_reserved":false,"is_disabled":false,"rental_uris":{"android":"levelo://app?vid=b1fc0db7-9527-40fd-bcf4-65d8dc4523d8","ios":"levelo://app?vid=b1fc0db7-9527-40fd-bcf4-65d8dc4523d8"},"vehicle_type_id":"4","last_reported":1727712715,"current_range_meters":8000,"station_id":"ce4bhi12rcd13ifvqfq0","pricing_plan_id":"cebpf4jnsgd1na2vs0mg"},{"bike_id":"464d97a4-9185-44d1-a6ac-86b73bd26941","system_id":"levelo_inurba_marseille","lat":43.30314,"lon":5.36907,"is_reserved":false,"is_disabled":false,"rental_uris":{"android":"levelo://app?vid=464d97a4-9185-44d1-a6ac-86b73bd26941","ios":"levelo://app?vid=464d97a4-9185-44d1-a6ac-86b73bd26941"},"vehicle_type_id":"4","last_reported":1727712715,"current_range_meters":38800,"station_id":"ce4bgqh2rcd13ifvqc5g","pricing_plan_id":"cebpf4jnsgd1na2vs0mg"},{"bike_id":"f1467ff3-be24-448e-85a8-d8d7862609dd","system_id":"levelo_inurba_marseille","lat":43.32366,"lon":5.38884,"is_reserved":false,"is_disabled":false,"rental_uris":{"android":"levelo://app?vid=f1467ff3-be24-448e-85a8-d8d7862609dd","ios":"levelo://app?vid=f1467ff3-be24-448e-85a8-d8d7862609dd"},"vehicle_type_id":"4","last_reported":1727712715,"current_range_meters":3600,"station_id":"ce4bhqp2rcd13ifvqhog","pricing_plan_id":"cebpf4jnsgd1na2vs0mg"},{"bike_id":"c4b0a0f5-e652-45c0-ac59-98649daeff9c","system_id":"levelo_inurba_marseille","lat":43.27205,"lon":5.3919,"is_reserved":false,"is_disabled":false,"rental_uris":{"android":"levelo://app?vid=c4b0a0f5-e652-45c0-ac59-98649daeff9c","ios":"levelo://app?vid=c4b0a0f5-e652-45c0-ac59-98649daeff9c"},"vehicle_type_id":"4","last_reported":1727712715,"current_range_meters":36800,"station_id":"ce4bhhp2rcd13ifvqfm0","pricing_plan_id":"cebpf4jnsgd1na2vs0mg"},{"bike_id":"904a2ca0-530e-406a-96c7-dee5d9e24175","system_id":"levelo_inurba_marseille","lat":43.29022,"lon":5.38646,"is_reserved":false,"is_disabled":false,"rental_uris":{"android":"levelo://app?vid=904a2ca0-530e-406a-96c7-dee5d9e24175","ios":"levelo://app?vid=904a2ca0-530e-406a-96c7-dee5d9e24175"},"vehicle_type_id":"4","last_reported":1727712715,"current_range_meters":20400,"station_id":"ce4bh4p2rcd13ifvqe0g","pricing_plan_id":"cebpf4jnsgd1na2vs0mg"},{"bike_id":"8e5e4e8d-007e-4a2d-8eae-e79374ce979d","system_id":"levelo_inurba_marseille","lat":43.28424,"lon":5.34991,"is_reserved":false,"is_disabled":false,"rental_uris":{"android":"levelo://app?vid=8e5e4e8d-007e-4a2d-8eae-e79374ce979d","ios":"levelo://app?vid=8e5e4e8d-007e-4a2d-8eae-e79374ce979d"},"vehicle_type_id":"4","last_reported":1727712715,"current_range_meters":38800,"station_id":"ce4bhbh2rcd13ifvqepg","pricing_plan_id":"cebpf4jnsgd1na2vs0mg"},{"bike_id":"8059d20d-01ca-4462-a9fb-e42683b729f4","system_id":"levelo_inurba_marseille","lat":43.29785,"lon":5.39337,"is_reserved":false,"is_disabled":false,"rental_uris":{"android":"levelo://app?vid=8059d20d-01ca-4462-a9fb-e42683b729f4","ios":"levelo://app?vid=8059d20d-01ca-4462-a9fb-e42683b729f4"},"vehicle_type_id":"4","last_reported":1727712715,"current_range_meters":19600,"station_id":"chh1huq6cuj3fo74tm60","pricing_plan_id":"cebpf4jnsgd1na2vs0mg"},{"bike_id":"3722af9c-1789-4b06-80da-7cac231c5e05","system_id":"levelo_inurba_marseille","lat":43.30093,"lon":5.39078,"is_reserved":false,"is_disabled":false,"rental_uris":{"android":"levelo://app?vid=3722af9c-1789-4b06-80da-7cac231c5e05","ios":"levelo://app?vid=3722af9c-1789-4b06-80da-7cac231c5e05"},"vehicle_type_id":"4","last_reported":1727712715,"current_range_meters":29600,"station_id":"ce4bh192rcd13ifvqdb0","pricing_plan_id":"cebpf4jnsgd1na2vs0mg"},{"bike_id":"456786fd-b8f6-4555-8256-faefc4e1fad1","system_id":"levelo_inurba_marseille","lat":43.31706,"lon":5.37725,"is_reserved":false,"is_disabled":false,"rental_uris":{"android":"levelo://app?vid=456786fd-b8f6-4555-8256-faefc4e1fad1","ios":"levelo://app?vid=456786fd-b8f6-4555-8256-faefc4e1fad1"},"vehicle_type_id":"4","last_reported":1727712715,"current_range_meters":9200,"station_id":"ce4bgth2rcd13ifvqch0","pricing_plan_id":"cebpf4jnsgd1na2vs0mg"},{"bike_id":"244a3c92-cc38-4c00-a1c1-586a746d0a7f","system_id":"levelo_inurba_marseille","lat":43.28716,"lon":5.37941,"is_reserved":false,"is_disabled":false,"rental_uris":{"android":"levelo://app?vid=244a3c92-cc38-4c00-a1c1-586a746d0a7f","ios":"levelo://app?vid=244a3c92-cc38-4c00-a1c1-586a746d0a7f"},"vehicle_type_id":"4","last_reported":1727712715,"current_range_meters":24400,"station_id":"ce4bh9p2rcd13ifvqec0","pricing_plan_id":"cebpf4jnsgd1na2vs0mg"},{"bike_id":"c999d287-fb6a-49ce-bf87-9473a2d5b293","system_id":"levelo_inurba_marseille","lat":43.32293,"lon":5.38273,"is_reserved":false,"is_disabled":false,"rental_uris":{"android":"levelo://app?vid=c999d287-fb6a-49ce-bf87-9473a2d5b293","ios":"levelo://app?vid=c999d287-fb6a-49ce-bf87-9473a2d5b293"},"vehicle_type_id":"4","last_reported":1727712715,"current_range_meters":24400,"station_id":"ce4bhr12rcd13ifvqhqg","pricing_plan_id":"cebpf4jnsgd1na2vs0mg"},{"bike_id":"7b187a78-50df-4525-83fa-a6f1954709a1","system_id":"levelo_inurba_marseille","lat":43.27815,"lon":5.40711,"is_reserved":false,"is_disabled":false,"rental_uris":{"android":"levelo://app?vid=7b187a78-50df-4525-83fa-a6f1954709a1","ios":"levelo://app?vid=7b187a78-50df-4525-83fa-a6f1954709a1"},"vehicle_type_id":"4","last_reported":1727712715,"current_range_meters":18000,"station_id":"ce4bhnh2rcd13ifvqgtg","pricing_plan_id":"cebpf4jnsgd1na2vs0mg"},{"bike_id":"bc84429f-e061-4ce2-904b-527a9184d1fc","system_id":"levelo_inurba_marseille","lat":43.28427,"lon":5.34986,"is_reserved":false,"is_disabled":false,"rental_uris":{"android":"levelo://app?vid=bc84429f-e061-4ce2-904b-527a9184d1fc","ios":"levelo://app?vid=bc84429f-e061-4ce2-904b-527a9184d1fc"},"vehicle_type_id":"4","last_reported":1727712715,"current_range_meters":37600,"station_id":"ce4bhbh2rcd13ifvqepg","pricing_plan_id":"cebpf4jnsgd1na2vs0mg"},{"bike_id":"51d28c1a-79ab-4445-b12c-c744e7bc7c93","system_id":"levelo_inurba_marseille","lat":43.29642,"lon":5.3896,"is_reserved":false,"is_disabled":false,"rental_uris":{"android":"levelo://app?vid=51d28c1a-79ab-4445-b12c-c744e7bc7c93","ios":"levelo://app?vid=51d28c1a-79ab-4445-b12c-c744e7bc7c93"},"vehicle_type_id":"4","last_reported":1727712715,"current_range_meters":38000,"station_id":"ce4bh2h2rcd13ifvqdh0","pricing_plan_id":"cebpf4jnsgd1na2vs0mg"},{"bike_id":"0cb3d3e8-14be-412a-8eaf-47058b5f6397","system_id":"levelo_inurba_marseille","lat":43.2466,"lon":5.38165,"is_reserved":false,"is_disabled":false,"rental_uris":{"android":"levelo://app?vid=0cb3d3e8-14be-412a-8eaf-47058b5f6397","ios":"levelo://app?vid=0cb3d3e8-14be-412a-8eaf-47058b5f6397"},"vehicle_type_id":"4","last_reported":1727712715,"current_range_meters":28400,"station_id":"ce4bhih2rcd13ifvqfr0","pricing_plan_id":"cebpf4jnsgd1na2vs0mg"},{"bike_id":"c5798406-ddf9-4714-be85-f2f0086218fe","system_id":"levelo_inurba_marseille","lat":43.3025,"lon":5.400712,"is_reserved":false,"is_disabled":false,"rental_uris":{"android":"levelo://app?vid=c5798406-ddf9-4714-be85-f2f0086218fe","ios":"levelo://app?vid=c5798406-ddf9-4714-be85-f2f0086218fe"},"vehicle_type_id":"4","last_reported":1727712715,"current_range_meters":11600,"station_id":"ce4bgvh2rcd13ifvqcs0","pricing_plan_id":"cebpf4jnsgd1na2vs0mg"},{"bike_id":"1193550f-2d3b-448d-b9f0-5cac3702a6e4","system_id":"levelo_inurba_marseille","lat":43.29266,"lon":5.38436,"is_reserved":false,"is_disabled":false,"rental_uris":{"android":"levelo://app?vid=1193550f-2d3b-448d-b9f0-5cac3702a6e4","ios":"levelo://app?vid=1193550f-2d3b-448d-b9f0-5cac3702a6e4"},"vehicle_type_id":"4","last_reported":1727712715,"current_range_meters":28800,"station_id":"ce4bh692rcd13ifvqea0","pricing_plan_id":"cebpf4jnsgd1na2vs0mg"},{"bike_id":"a5786550-17e9-4744-a5ca-fba416a7473c","system_id":"levelo_inurba_marseille","lat":43.27371,"lon":5.36257,"is_reserved":false,"is_disabled":false,"rental_uris":{"android":"levelo://app?vid=a5786550-17e9-4744-a5ca-fba416a7473c","ios":"levelo://app?vid=a5786550-17e9-4744-a5ca-fba416a7473c"},"vehicle_type_id":"4","last_reported":1727712715,"current_range_meters":33200,"station_id":"ce4bhbh2rcd13ifvqeo0","pricing_plan_id":"cebpf4jnsgd1na2vs0mg"},{"bike_id":"62368e7c-9371-4f86-b9ff-a4e88e7bdfe4","system_id":"levelo_inurba_marseille","lat":43.2793,"lon":5.41895,"is_reserved":false,"is_disabled":false,"rental_uris":{"android":"levelo://app?vid=62368e7c-9371-4f86-b9ff-a4e88e7bdfe4","ios":"levelo://app?vid=62368e7c-9371-4f86-b9ff-a4e88e7bdfe4"},"vehicle_type_id":"4","last_reported":1727712715,"current_range_meters":19200,"station_id":"","pricing_plan_id":"cebpf4jnsgd1na2vs0mg"},{"bike_id":"978778fd-2d95-4166-bb72-710590df69fd","system_id":"levelo_inurba_marseille","lat":43.3024,"lon":5.40083,"is_reserved":false,"is_disabled":false,"rental_uris":{"android":"levelo://app?vid=978778fd-2d95-4166-bb72-710590df69fd","ios":"levelo://app?vid=978778fd-2d95-4166-bb72-710590df69fd"},"vehicle_type_id":"4","last_reported":1727712715,"current_range_meters":12800,"station_id":"ce4bgvh2rcd13ifvqcs0","pricing_plan_id":"cebpf4jnsgd1na2vs0mg"},{"bike_id":"328d2c52-ec29-45cc-9905-6c3e2d856f88","system_id":"levelo_inurba_marseille","lat":43.281,"lon":5.37837,"is_reserved":false,"is_disabled":false,"rental_uris":{"android":"levelo://app?vid=328d2c52-ec29-45cc-9905-6c3e2d856f88","ios":"levelo://app?vid=328d2c52-ec29-45cc-9905-6c3e2d856f88"},"vehicle_type_id":"4","last_reported":1727712715,"current_range_meters":18800,"station_id":"ce4bha12rcd13ifvqee0","pricing_plan_id":"cebpf4jnsgd1na2vs0mg"},{"bike_id":"53a10dc5-5d9f-43a9-b591-3da65f9309c4","system_id":"levelo_inurba_marseille","lat":43.305432,"lon":5.365449,"is_reserved":false,"is_disabled":false,"rental_uris":{"android":"levelo://app?vid=53a10dc5-5d9f-43a9-b591-3da65f9309c4","ios":"levelo://app?vid=53a10dc5-5d9f-43a9-b591-3da65f9309c4"},"vehicle_type_id":"4","last_reported":1727712715,"current_range_meters":35600,"station_id":"ce4bh3p2rcd13ifvqdq0","pricing_plan_id":"cebpf4jnsgd1na2vs0mg"},{"bike_id":"4e1d7e36-68ce-44ca-b0e9-1e92bf5d4631","system_id":"levelo_inurba_marseille","lat":43.31129,"lon":5.38344,"is_reserved":false,"is_disabled":false,"rental_uris":{"android":"levelo://app?vid=4e1d7e36-68ce-44ca-b0e9-1e92bf5d4631","ios":"levelo://app?vid=4e1d7e36-68ce-44ca-b0e9-1e92bf5d4631"},"vehicle_type_id":"4","last_reported":1727712715,"current_range_meters":6400,"station_id":"ce4bgv92rcd13ifvqcr0","pricing_plan_id":"cebpf4jnsgd1na2vs0mg"},{"bike_id":"a150f202-8348-40ad-8093-22201f9f3ba5","system_id":"levelo_inurba_marseille","lat":43.2439,"lon":5.37059,"is_reserved":false,"is_disabled":false,"rental_uris":{"android":"levelo://app?vid=a150f202-8348-40ad-8093-22201f9f3ba5","ios":"levelo://app?vid=a150f202-8348-40ad-8093-22201f9f3ba5"},"vehicle_type_id":"4","last_reported":1727712715,"current_range_meters":32800,"station_id":"ce4bhhh2rcd13ifvqfk0","pricing_plan_id":"cebpf4jnsgd1na2vs0mg"},{"bike_id":"cf804898-9eb3-46eb-aaa0-14e3dafccf8d","system_id":"levelo_inurba_marseille","lat":43.32478,"lon":5.36785,"is_reserved":false,"is_disabled":false,"rental_uris":{"android":"levelo://app?vid=cf804898-9eb3-46eb-aaa0-14e3dafccf8d","ios":"levelo://app?vid=cf804898-9eb3-46eb-aaa0-14e3dafccf8d"},"vehicle_type_id":"4","last_reported":1727712715,"current_range_meters":22000,"station_id":"","pricing_plan_id":"cebpf4jnsgd1na2vs0mg"},{"bike_id":"f64e0391-1c55-4137-b61a-81833535303e","system_id":"levelo_inurba_marseille","lat":43.25006,"lon":5.38916,"is_reserved":false,"is_disabled":false,"rental_uris":{"android":"levelo://app?vid=f64e0391-1c55-4137-b61a-81833535303e","ios":"levelo://app?vid=f64e0391-1c55-4137-b61a-81833535303e"},"vehicle_type_id":"4","last_reported":1727712715,"current_range_meters":31200,"station_id":"ce4bhgp2rcd13ifvqfd0","pricing_plan_id":"cebpf4jnsgd1na2vs0mg"},{"bike_id":"899534c0-4689-46f1-9dec-bd06f90bad07","system_id":"levelo_inurba_marseille","lat":43.29932,"lon":5.36545,"is_reserved":false,"is_disabled":false,"rental_uris":{"android":"levelo://app?vid=899534c0-4689-46f1-9dec-bd06f90bad07","ios":"levelo://app?vid=899534c0-4689-46f1-9dec-bd06f90bad07"},"vehicle_type_id":"4","last_reported":1727712715,"current_range_meters":28000,"station_id":"ce4bgm92rcd13ifvqbr0","pricing_plan_id":"cebpf4jnsgd1na2vs0mg"},{"bike_id":"6c636533-4ca1-4582-8e80-7d519067a192","system_id":"levelo_inurba_marseille","lat":43.33721,"lon":5.39185,"is_reserved":false,"is_disabled":false,"rental_uris":{"android":"levelo://app?vid=6c636533-4ca1-4582-8e80-7d519067a192","ios":"levelo://app?vid=6c636533-4ca1-4582-8e80-7d519067a192"},"vehicle_type_id":"4","last_reported":1727712715,"current_range_meters":38800,"station_id":"ce4bhr92rcd13ifvqhsg","pricing_plan_id":"cebpf4jnsgd1na2vs0mg"},{"bike_id":"53aec0ee-4822-464f-aec0-53c6ee75c03a","system_id":"levelo_inurba_marseille","lat":43.31279,"lon":5.4017,"is_reserved":false,"is_disabled":false,"rental_uris":{"android":"levelo://app?vid=53aec0ee-4822-464f-aec0-53c6ee75c03a","ios":"levelo://app?vid=53aec0ee-4822-464f-aec0-53c6ee75c03a"},"vehicle_type_id":"4","last_reported":1727712715,"current_range_meters":10000,"station_id":"ce4bh092rcd13ifvqd30","pricing_plan_id":"cebpf4jnsgd1na2vs0mg"},{"bike_id":"d1725c43-49ec-408e-bc8a-433ec4332930","system_id":"levelo_inurba_marseille","lat":43.30265,"lon":5.40083,"is_reserved":false,"is_disabled":false,"rental_uris":{"android":"levelo://app?vid=d1725c43-49ec-408e-bc8a-433ec4332930","ios":"levelo://app?vid=d1725c43-49ec-408e-bc8a-433ec4332930"},"vehicle_type_id":"4","last_reported":1727712715,"current_range_meters":8400,"station_id":"ce4bgvh2rcd13ifvqcs0","pricing_plan_id":"cebpf4jnsgd1na2vs0mg"},{"bike_id":"307f8ed2-e0dd-40b3-9fdc-7d5c03c78c60","system_id":"levelo_inurba_marseille","lat":43.231968,"lon":5.355497,"is_reserved":false,"is_disabled":false,"rental_uris":{"android":"levelo://app?vid=307f8ed2-e0dd-40b3-9fdc-7d5c03c78c60","ios":"levelo://app?vid=307f8ed2-e0dd-40b3-9fdc-7d5c03c78c60"},"vehicle_type_id":"4","last_reported":1727712715,"current_range_meters":7200,"station_id":"ce4bhu92rcd13ifvqi70","pricing_plan_id":"cebpf4jnsgd1na2vs0mg"},{"bike_id":"339e52a2-02e5-4209-a52f-d09eda2d8c61","system_id":"levelo_inurba_marseille","lat":43.3211,"lon":5.36763,"is_reserved":false,"is_disabled":false,"rental_uris":{"android":"levelo://app?vid=339e52a2-02e5-4209-a52f-d09eda2d8c61","ios":"levelo://app?vid=339e52a2-02e5-4209-a52f-d09eda2d8c61"},"vehicle_type_id":"4","last_reported":1727712715,"current_range_meters":7200,"station_id":"ce4bhrh2rcd13ifvqhug","pricing_plan_id":"cebpf4jnsgd1na2vs0mg"},{"bike_id":"963201f0-9d11-4b4a-9193-3fae32c918cb","system_id":"levelo_inurba_marseille","lat":43.31886,"lon":5.40737,"is_reserved":false,"is_disabled":false,"rental_uris":{"android":"levelo://app?vid=963201f0-9d11-4b4a-9193-3fae32c918cb","ios":"levelo://app?vid=963201f0-9d11-4b4a-9193-3fae32c918cb"},"vehicle_type_id":"4","last_reported":1727712715,"current_range_meters":24800,"station_id":"ce4bhq12rcd13ifvqhig","pricing_plan_id":"cebpf4jnsgd1na2vs0mg"},{"bike_id":"d6e2d8de-0336-4efb-9132-61d069674653","system_id":"levelo_inurba_marseille","lat":43.2816,"lon":5.42642,"is_reserved":false,"is_disabled":false,"rental_uris":{"android":"levelo://app?vid=d6e2d8de-0336-4efb-9132-61d069674653","ios":"levelo://app?vid=d6e2d8de-0336-4efb-9132-61d069674653"},"vehicle_type_id":"4","last_reported":1727712715,"current_range_meters":26000,"station_id":"ce4bhnh2rcd13ifvqgug","pricing_plan_id":"cebpf4jnsgd1na2vs0mg"},{"bike_id":"2b1cd0da-67fb-4db8-bfa5-0dc15ea7ec7a","system_id":"levelo_inurba_marseille","lat":43.23203,"lon":5.3555,"is_reserved":false,"is_disabled":false,"rental_uris":{"android":"levelo://app?vid=2b1cd0da-67fb-4db8-bfa5-0dc15ea7ec7a","ios":"levelo://app?vid=2b1cd0da-67fb-4db8-bfa5-0dc15ea7ec7a"},"vehicle_type_id":"4","last_reported":1727712715,"current_range_meters":4400,"station_id":"ce4bhu92rcd13ifvqi70","pricing_plan_id":"cebpf4jnsgd1na2vs0mg"},{"bike_id":"7da47487-5c91-4cc0-ac57-918c4159a054","system_id":"levelo_inurba_marseille","lat":43.28415,"lon":5.34994,"is_reserved":false,"is_disabled":false,"rental_uris":{"android":"levelo://app?vid=7da47487-5c91-4cc0-ac57-918c4159a054","ios":"levelo://app?vid=7da47487-5c91-4cc0-ac57-918c4159a054"},"vehicle_type_id":"4","last_reported":1727712715,"current_range_meters":32800,"station_id":"ce4bhbh2rcd13ifvqepg","pricing_plan_id":"cebpf4jnsgd1na2vs0mg"},{"bike_id":"8e919286-0bfb-4e09-983e-7f3a47ac1109","system_id":"levelo_inurba_marseille","lat":43.28708,"lon":5.3739,"is_reserved":false,"is_disabled":false,"rental_uris":{"android":"levelo://app?vid=8e919286-0bfb-4e09-983e-7f3a47ac1109","ios":"levelo://app?vid=8e919286-0bfb-4e09-983e-7f3a47ac1109"},"vehicle_type_id":"4","last_reported":1727712715,"current_range_meters":10800,"station_id":"ce4bh3p2rcd13ifvqdq0","pricing_plan_id":"cebpf4jnsgd1na2vs0mg"},{"bike_id":"313e573e-ee0b-4d0f-84f3-ab4df05905d9","system_id":"levelo_inurba_marseille","lat":43.31449,"lon":5.37365,"is_reserved":false,"is_disabled":false,"rental_uris":{"android":"levelo://app?vid=313e573e-ee0b-4d0f-84f3-ab4df05905d9","ios":"levelo://app?vid=313e573e-ee0b-4d0f-84f3-ab4df05905d9"},"vehicle_type_id":"4","last_reported":1727712715,"current_range_meters":36000,"station_id":"ce4bgt12rcd13ifvqcd0","pricing_plan_id":"cebpf4jnsgd1na2vs0mg"},{"bike_id":"e572f6b8-5940-4fc8-b7f1-e2ac3438d65b","system_id":"levelo_inurba_marseille","lat":43.26945,"lon":5.40248,"is_reserved":false,"is_disabled":false,"rental_uris":{"android":"levelo://app?vid=e572f6b8-5940-4fc8-b7f1-e2ac3438d65b","ios":"levelo://app?vid=e572f6b8-5940-4fc8-b7f1-e2ac3438d65b"},"vehicle_type_id":"4","last_reported":1727712715,"current_range_meters":27200,"station_id":"cjm6bp8fraef2m0cb0m0","pricing_plan_id":"cebpf4jnsgd1na2vs0mg"},{"bike_id":"5f5b8759-f5b1-4c3b-ab5a-92a875bc85b3","system_id":"levelo_inurba_marseille","lat":43.29029,"lon":5.37566,"is_reserved":false,"is_disabled":false,"rental_uris":{"android":"levelo://app?vid=5f5b8759-f5b1-4c3b-ab5a-92a875bc85b3","ios":"levelo://app?vid=5f5b8759-f5b1-4c3b-ab5a-92a875bc85b3"},"vehicle_type_id":"4","last_reported":1727712715,"current_range_meters":4000,"station_id":"ce4bh692rcd13ifvqe90","pricing_plan_id":"cebpf4jnsgd1na2vs0mg"},{"bike_id":"5109cace-a4e7-4ea2-b284-696ccf4f7da1","system_id":"levelo_inurba_marseille","lat":43.294525,"lon":5.385711,"is_reserved":false,"is_disabled":false,"rental_uris":{"android":"levelo://app?vid=5109cace-a4e7-4ea2-b284-696ccf4f7da1","ios":"levelo://app?vid=5109cace-a4e7-4ea2-b284-696ccf4f7da1"},"vehicle_type_id":"4","last_reported":1727712715,"current_range_meters":20400,"station_id":"","pricing_plan_id":"cebpf4jnsgd1na2vs0mg"},{"bike_id":"00690498-9481-440d-a499-c54a25f28684","system_id":"levelo_inurba_marseille","lat":43.26504,"lon":5.39567,"is_reserved":false,"is_disabled":false,"rental_uris":{"android":"levelo://app?vid=00690498-9481-440d-a499-c54a25f28684","ios":"levelo://app?vid=00690498-9481-440d-a499-c54a25f28684"},"vehicle_type_id":"4","last_reported":1727712715,"current_range_meters":9600,"station_id":"ce4bhi12rcd13ifvqfq0","pricing_plan_id":"cebpf4jnsgd1na2vs0mg"},{"bike_id":"7a804289-f19e-4a09-81bd-69fdbd315d6a","system_id":"levelo_inurba_marseille","lat":43.26028,"lon":5.37547,"is_reserved":false,"is_disabled":false,"rental_uris":{"android":"levelo://app?vid=7a804289-f19e-4a09-81bd-69fdbd315d6a","ios":"levelo://app?vid=7a804289-f19e-4a09-81bd-69fdbd315d6a"},"vehicle_type_id":"4","last_reported":1727712715,"current_range_meters":34800,"station_id":"ce4bhgh2rcd13ifvqfa0","pricing_plan_id":"cebpf4jnsgd1na2vs0mg"},{"bike_id":"19b2c8b5-3003-41f7-b16e-b3ecd3eb5ec6","system_id":"levelo_inurba_marseille","lat":43.3372,"lon":5.39177,"is_reserved":false,"is_disabled":false,"rental_uris":{"android":"levelo://app?vid=19b2c8b5-3003-41f7-b16e-b3ecd3eb5ec6","ios":"levelo://app?vid=19b2c8b5-3003-41f7-b16e-b3ecd3eb5ec6"},"vehicle_type_id":"4","last_reported":1727712715,"current_range_meters":33600,"station_id":"ce4bhr92rcd13ifvqhsg","pricing_plan_id":"cebpf4jnsgd1na2vs0mg"},{"bike_id":"468dcd6e-4b56-42e3-98c8-49599d8fdd38","system_id":"levelo_inurba_marseille","lat":43.25934,"lon":5.40918,"is_reserved":false,"is_disabled":false,"rental_uris":{"android":"levelo://app?vid=468dcd6e-4b56-42e3-98c8-49599d8fdd38","ios":"levelo://app?vid=468dcd6e-4b56-42e3-98c8-49599d8fdd38"},"vehicle_type_id":"4","last_reported":1727712715,"current_range_meters":30400,"station_id":"ce4bhm92rcd13ifvqglg","pricing_plan_id":"cebpf4jnsgd1na2vs0mg"},{"bike_id":"ab6dea5e-dc65-4b07-a79a-0f09b46c898e","system_id":"levelo_inurba_marseille","lat":43.28426,"lon":5.34985,"is_reserved":false,"is_disabled":false,"rental_uris":{"android":"levelo://app?vid=ab6dea5e-dc65-4b07-a79a-0f09b46c898e","ios":"levelo://app?vid=ab6dea5e-dc65-4b07-a79a-0f09b46c898e"},"vehicle_type_id":"4","last_reported":1727712715,"current_range_meters":8000,"station_id":"ce4bhbh2rcd13ifvqepg","pricing_plan_id":"cebpf4jnsgd1na2vs0mg"},{"bike_id":"e4e4ce84-fafd-4e08-b433-1559fd037617","system_id":"levelo_inurba_marseille","lat":43.30603,"lon":5.39353,"is_reserved":false,"is_disabled":false,"rental_uris":{"android":"levelo://app?vid=e4e4ce84-fafd-4e08-b433-1559fd037617","ios":"levelo://app?vid=e4e4ce84-fafd-4e08-b433-1559fd037617"},"vehicle_type_id":"4","last_reported":1727712715,"current_range_meters":2800,"station_id":"ce4bh0p2rcd13ifvqd80","pricing_plan_id":"cebpf4jnsgd1na2vs0mg"},{"bike_id":"b4a68f6c-f94e-4446-8f87-76d1498021f6","system_id":"levelo_inurba_marseille","lat":43.26067,"lon":5.39398,"is_reserved":false,"is_disabled":false,"rental_uris":{"android":"levelo://app?vid=b4a68f6c-f94e-4446-8f87-76d1498021f6","ios":"levelo://app?vid=b4a68f6c-f94e-4446-8f87-76d1498021f6"},"vehicle_type_id":"4","last_reported":1727712715,"current_range_meters":11200,"station_id":"ce4bhh92rcd13ifvqfj0","pricing_plan_id":"cebpf4jnsgd1na2vs0mg"},{"bike_id":"f200281b-137d-4d03-9c62-0dd33c3bef09","system_id":"levelo_inurba_marseille","lat":43.30597,"lon":5.39361,"is_reserved":false,"is_disabled":false,"rental_uris":{"android":"levelo://app?vid=f200281b-137d-4d03-9c62-0dd33c3bef09","ios":"levelo://app?vid=f200281b-137d-4d03-9c62-0dd33c3bef09"},"vehicle_type_id":"4","last_reported":1727712715,"current_range_meters":16800,"station_id":"ce4bh0p2rcd13ifvqd80","pricing_plan_id":"cebpf4jnsgd1na2vs0mg"},{"bike_id":"bb244073-a7bd-4532-9ab2-b039bbae8ab6","system_id":"levelo_inurba_marseille","lat":43.299103,"lon":5.374764,"is_reserved":false,"is_disabled":false,"rental_uris":{"android":"levelo://app?vid=bb244073-a7bd-4532-9ab2-b039bbae8ab6","ios":"levelo://app?vid=bb244073-a7bd-4532-9ab2-b039bbae8ab6"},"vehicle_type_id":"4","last_reported":1727712715,"current_range_meters":11600,"station_id":"ce4bgs12rcd13ifvqcag","pricing_plan_id":"cebpf4jnsgd1na2vs0mg"},{"bike_id":"a6d6da6e-50ef-472f-92be-9a97c92e353b","system_id":"levelo_inurba_marseille","lat":43.279122,"lon":5.395738,"is_reserved":false,"is_disabled":false,"rental_uris":{"android":"levelo://app?vid=a6d6da6e-50ef-472f-92be-9a97c92e353b","ios":"levelo://app?vid=a6d6da6e-50ef-472f-92be-9a97c92e353b"},"vehicle_type_id":"4","last_reported":1727712715,"current_range_meters":14400,"station_id":"ce4bh292rcd13ifvqdg0","pricing_plan_id":"cebpf4jnsgd1na2vs0mg"},{"bike_id":"53e4ccc3-d7b5-4984-8a89-1924b30d7eca","system_id":"levelo_inurba_marseille","lat":43.24515,"lon":5.40092,"is_reserved":false,"is_disabled":false,"rental_uris":{"android":"levelo://app?vid=53e4ccc3-d7b5-4984-8a89-1924b30d7eca","ios":"levelo://app?vid=53e4ccc3-d7b5-4984-8a89-1924b30d7eca"},"vehicle_type_id":"4","last_reported":1727712715,"current_range_meters":4000,"station_id":"","pricing_plan_id":"cebpf4jnsgd1na2vs0mg"},{"bike_id":"43cd7da8-c159-4b89-9108-c1ef44ca849f","system_id":"levelo_inurba_marseille","lat":43.29575,"lon":5.37514,"is_reserved":false,"is_disabled":false,"rental_uris":{"android":"levelo://app?vid=43cd7da8-c159-4b89-9108-c1ef44ca849f","ios":"levelo://app?vid=43cd7da8-c159-4b89-9108-c1ef44ca849f"},"vehicle_type_id":"4","last_reported":1727712715,"current_range_meters":38800,"station_id":"ce4bgh92rcd13ifvqb50","pricing_plan_id":"cebpf4jnsgd1na2vs0mg"},{"bike_id":"e86fbba9-83fc-4e35-b42d-3afe9c2118bc","system_id":"levelo_inurba_marseille","lat":43.23198,"lon":5.35552,"is_reserved":false,"is_disabled":false,"rental_uris":{"android":"levelo://app?vid=e86fbba9-83fc-4e35-b42d-3afe9c2118bc","ios":"levelo://app?vid=e86fbba9-83fc-4e35-b42d-3afe9c2118bc"},"vehicle_type_id":"4","last_reported":1727712715,"current_range_meters":20800,"station_id":"ce4bhu92rcd13ifvqi70","pricing_plan_id":"cebpf4jnsgd1na2vs0mg"},{"bike_id":"6fbfbd82-182d-4460-862b-85ce162cd46e","system_id":"levelo_inurba_marseille","lat":43.25582,"lon":5.38231,"is_reserved":false,"is_disabled":false,"rental_uris":{"android":"levelo://app?vid=6fbfbd82-182d-4460-862b-85ce162cd46e","ios":"levelo://app?vid=6fbfbd82-182d-4460-862b-85ce162cd46e"},"vehicle_type_id":"4","last_reported":1727712715,"current_range_meters":24000,"station_id":"ce4bhih2rcd13ifvqfs0","pricing_plan_id":"cebpf4jnsgd1na2vs0mg"},{"bike_id":"c1065f03-ffd2-46c7-b0b2-2fe366a441cc","system_id":"levelo_inurba_marseille","lat":43.29562,"lon":5.42282,"is_reserved":false,"is_disabled":false,"rental_uris":{"android":"levelo://app?vid=c1065f03-ffd2-46c7-b0b2-2fe366a441cc","ios":"levelo://app?vid=c1065f03-ffd2-46c7-b0b2-2fe366a441cc"},"vehicle_type_id":"4","last_reported":1727712715,"current_range_meters":28800,"station_id":"ce4bhph2rcd13ifvqhdg","pricing_plan_id":"cebpf4jnsgd1na2vs0mg"},{"bike_id":"65b64aba-f6fe-4b0a-8574-37672068ea5c","system_id":"levelo_inurba_marseille","lat":43.30093,"lon":5.39079,"is_reserved":false,"is_disabled":false,"rental_uris":{"android":"levelo://app?vid=65b64aba-f6fe-4b0a-8574-37672068ea5c","ios":"levelo://app?vid=65b64aba-f6fe-4b0a-8574-37672068ea5c"},"vehicle_type_id":"4","last_reported":1727712715,"current_range_meters":24000,"station_id":"ce4bh192rcd13ifvqdb0","pricing_plan_id":"cebpf4jnsgd1na2vs0mg"},{"bike_id":"2d3ca1b0-0e1d-4af9-81bd-51dd9a43ae4c","system_id":"levelo_inurba_marseille","lat":43.299,"lon":5.43672,"is_reserved":false,"is_disabled":false,"rental_uris":{"android":"levelo://app?vid=2d3ca1b0-0e1d-4af9-81bd-51dd9a43ae4c","ios":"levelo://app?vid=2d3ca1b0-0e1d-4af9-81bd-51dd9a43ae4c"},"vehicle_type_id":"4","last_reported":1727712715,"current_range_meters":10000,"station_id":"ce4bhpp2rcd13ifvqhfg","pricing_plan_id":"cebpf4jnsgd1na2vs0mg"},{"bike_id":"885253e9-c213-49e3-9d7e-4da972f342c6","system_id":"levelo_inurba_marseille","lat":43.27962,"lon":5.38727,"is_reserved":false,"is_disabled":false,"rental_uris":{"android":"levelo://app?vid=885253e9-c213-49e3-9d7e-4da972f342c6","ios":"levelo://app?vid=885253e9-c213-49e3-9d7e-4da972f342c6"},"vehicle_type_id":"4","last_reported":1727712715,"current_range_meters":24000,"station_id":"ce4bhg12rcd13ifvqf80","pricing_plan_id":"cebpf4jnsgd1na2vs0mg"},{"bike_id":"ce58adc4-1421-47f7-8ef6-4bfeeb9d02c5","system_id":"levelo_inurba_marseille","lat":43.33722,"lon":5.39191,"is_reserved":false,"is_disabled":false,"rental_uris":{"android":"levelo://app?vid=ce58adc4-1421-47f7-8ef6-4bfeeb9d02c5","ios":"levelo://app?vid=ce58adc4-1421-47f7-8ef6-4bfeeb9d02c5"},"vehicle_type_id":"4","last_reported":1727712715,"current_range_meters":36800,"station_id":"ce4bhr92rcd13ifvqhsg","pricing_plan_id":"cebpf4jnsgd1na2vs0mg"},{"bike_id":"85104b5a-c0be-4a39-8ec8-eb084788319c","system_id":"levelo_inurba_marseille","lat":43.32339,"lon":5.40621,"is_reserved":false,"is_disabled":false,"rental_uris":{"android":"levelo://app?vid=85104b5a-c0be-4a39-8ec8-eb084788319c","ios":"levelo://app?vid=85104b5a-c0be-4a39-8ec8-eb084788319c"},"vehicle_type_id":"4","last_reported":1727712715,"current_range_meters":6400,"station_id":"ce4bhq92rcd13ifvqhjg","pricing_plan_id":"cebpf4jnsgd1na2vs0mg"},