{"last_updated":1750601379,"ttl":60,"version":"2.2","data":{"bikes":[{"bike_id":"3da29fb8-fc97-44c6-b9ac-31dd456b2fd4","system_id":"levelo_inurba_marseille","lat":43.33771,"lon":5.37424,"is_reserved":false,"is_disabled":true,"rental_uris":{"android":"levelo://app?vid=3da29fb8-fc97-44c6-b9ac-31dd456b2fd4","ios":"levelo://app?vid=3da29fb8-fc97-44c6-b9ac-31dd456b2fd4"},"vehicle_type_id":"4","last_reported":1750601379,"current_range_meters":0,"station_id":"","pricing_plan_id":"cebpf4jnsgd1na2vs0mg"},{"bike_id":"01861ad8-a8d7-4be6-816e-651927c87584","system_id":"levelo_inurba_marseille","lat":43.33751,"lon":5.37456,"is_reserved":false,"is_disabled":true,"rental_uris":{"android":"levelo://app?vid=01861ad8-a8d7-4be6-816e-651927c87584","ios":"levelo://app?vid=01861ad8-a8d7-4be6-816e-651927c87584"},"vehicle_type_id":"4","last_reported":1750601379,"current_range_meters":0,"station_id":"","pricing_plan_id":"cebpf4jnsgd1na2vs0mg"},{"bike_id":"8aac1d05-8d34-4cb9-9043-c80980ff219d","system_id":"levelo_inurba_marseille","lat":43.25231,"lon":5.4191,"is_reserved":false,"is_disabled":true,"rental_uris":{"android":"levelo://app?vid=8aac1d05-8d34-4cb9-9043-c80980ff219d","ios":"levelo://app?vid=8aac1d05-8d34-4cb9-9043-c80980ff219d"},"vehicle_type_id":"4","last_reported":1750601379,"current_range_meters":0,"station_id":"","pricing_plan_id":"cebpf4jnsgd1na2vs0mg"},{"bike_id":"f0a1d594-9817-42ab-a8d6-aea4947e8858","system_id":"levelo_inurba_marseille","lat":43.28805,"lon":5.43416,"is_reserved":false,"is_disabled":true,"rental_uris":{"android":"levelo://app?vid=f0a1d594-9817-42ab-a8d6-aea4947e8858","ios":"levelo://app?vid=f0a1d594-9817-42ab-a8d6-aea4947e8858"},"vehicle_type_id":"4","last_reported":1750601379,"current_range_meters":0,"station_id":"","pricing_plan_id":"cebpf4jnsgd1na2vs0mg"},{"bike_id":"62a493c7-4534-4419-ad43-0582de34a72a","system_id":"levelo_inurba_marseille","lat":43.21366,"lon":5.355183,"is_reserved":false,"is_disabled":true,"rental_uris":{"android":"levelo://app?vid=62a493c7-4534-4419-ad43-0582de34a72a","ios":"levelo://app?vid=62a493c7-4534-4419-ad43-0582de34a72a"},"vehicle_type_id":"4","last_reported":1750601379,"current_range_meters":0,"station_id":"","pricing_plan_id":"cebpf4jnsgd1na2vs0mg"},{"bike_id":"ffa6bd9a-2058-4b26-a35e-7647d43580d8","system_id":"levelo_inurba_marseille","lat":43.2641,"lon":5.37319,"is_reserved":false,"is_disabled":true,"rental_uris":{"android":"levelo://app?vid=ffa6bd9a-2058-4b26-a35e-7647d43580d8","ios":"levelo://app?vid=ffa6bd9a-2058-4b26-a35e-7647d43580d8"},"vehicle_type_id":"4","last_reported":1750601379,"current_range_meters":0,"station_id":"","pricing_plan_id":"cebpf4jnsgd1na2vs0mg"},{"bike_id":"3a3a1818-f20a-442b-bfcf-0e0a18008f43","system_id":"levelo_inurba_marseille","lat":43.266142,"lon":5.374775,"is_reserved":false,"is_disabled":true,"rental_uris":{"android":"levelo://app?vid=3a3a1818-f20a-442b-bfcf-0e0a18008f43","ios":"levelo://app?vid=3a3a1818-f20a-442b-bfcf-0e0a18008f43"},"vehicle_type_id":"4","last_reported":1750601379,"current_range_meters":0,"station_id":"","pricing_plan_id":"cebpf4jnsgd1na2vs0mg"},{"bike_id":"88393bee-2e8a-437d-b0b1-4aa69b0186dc","system_id":"levelo_inurba_marseille","lat":43.247629,"lon":5.401762,"is_reserved":false,"is_disabled":true,"rental_uris":{"android":"levelo://app?vid=88393bee-2e8a-437d-b0b1-4aa69b0186dc","ios":"levelo://app?vid=88393bee-2e8a-437d-b0b1-4aa69b0186dc"},"vehicle_type_id":"4","last_reported":1750601379,"current_range_meters":0,"station_id":"","pricing_plan_id":"cebpf4jnsgd1na2vs0mg"},{"bike_id":"d6609b4f-333b-43c1-9ebe-8726f5e76e88","system_id":"levelo_inurba_marseille","lat":43.337444,"lon":5.374475,"is_reserved":false,"is_disabled":true,"rental_uris":{"android":"levelo://app?vid=d6609b4f-333b-43c1-9ebe-8726f5e76e88","ios":"levelo://app?vid=d6609b4f-333b-43c1-9ebe-8726f5e76e88"},"vehicle_type_id":"4","last_reported":1750601379,"current_range_meters":0,"station_id":"","pricing_plan_id":"cebpf4jnsgd1na2vs0mg"},{"bike_id":"e8b2899a-4211-4f31-b803-6ec5b4d26202","system_id":"levelo_inurba_marseille","lat":43.275845,"lon":5.397019,"is_reserved":false,"is_disabled":true,"rental_uris":{"android":"levelo://app?vid=e8b2899a-4211-4f31-b803-6ec5b4d26202","ios":"levelo://app?vid=e8b2899a-4211-4f31-b803-6ec5b4d26202"},"vehicle_type_id":"4","last_reported":1750601379,"current_range_meters":0,"station_id":"","pricing_plan_id":"cebpf4jnsgd1na2vs0mg"},{"bike_id":"a2d8a218-5e8c-42bc-bf37-717fb0cd1068","system_id":"levelo_inurba_marseille","lat":43.29986,"lon":5.37481,"is_reserved":false,"is_disabled":true,"rental_uris":{"android":"levelo://app?vid=a2d8a218-5e8c-42bc-bf37-717fb0cd1068","ios":"levelo://app?vid=a2d8a218-5e8c-42bc-bf37-717fb0cd1068"},"vehicle_type_id":"4","last_reported":1750601379,"current_range_meters":0,"station_id":"","pricing_plan_id":"cebpf4jnsgd1na2vs0mg"},{"bike_id":"0c86cdad-b64a-47bf-ba91-5b398064181c","system_id":"levelo_inurba_marseille","lat":43.38486,"lon":5.36055,"is_reserved":false,"is_disabled":true,"rental_uris":{"android":"levelo://app?vid=0c86cdad-b64a-47bf-ba91-5b398064181c","ios":"levelo://app?vid=0c86cdad-b64a-47bf-ba91-5b398064181c"},"vehicle_type_id":"4","last_reported":1750601379,"current_range_meters":0,"station_id":"","pricing_plan_id":"cebpf4jnsgd1na2vs0mg"},{"bike_id":"e51bcca5-4eaa-43cb-b6f3-2cb510112d45","system_id":"levelo_inurba_marseille","lat":43.29915,"lon":5.37462,"is_reserved":false,"is_disabled":true,"rental_uris":{"android":"levelo://app?vid=e51bcca5-4eaa-43cb-b6f3-2cb510112d45","ios":"levelo://app?vid=e51bcca5-4eaa-43cb-b6f3-2cb510112d45"},"vehicle_type_id":"4","last_reported":1750601379,"current_range_meters":0,"station_id":"ce4bgjh2rcd13ifvqbg0","pricing_plan_id":"cebpf4jnsgd1na2vs0mg"},{"bike_id":"54630e9e-1f43-41db-8da0-a7a6e132d09f","system_id":"levelo_inurba_marseille","lat":43.29595,"lon":5.38103,"is_reserved":false,"is_disabled":true,"rental_uris":{"android":"levelo://app?vid=54630e9e-1f43-41db-8da0-a7a6e132d09f","ios":"levelo://app?vid=54630e9e-1f43-41db-8da0-a7a6e132d09f"},"vehicle_type_id":"4","last_reported":1750601379,"current_range_meters":0,"station_id":"ce4bgl12rcd13ifvqbo0","pricing_plan_id":"cebpf4jnsgd1na2vs0mg"},{"bike_id":"0bb12baf-d34e-4a48-99b0-c4346c424abe","system_id":"levelo_inurba_marseille","lat":43.29707,"lon":5.36619,"is_reserved":false,"is_disabled":true,"rental_uris":{"android":"levelo://app?vid=0bb12baf-d34e-4a48-99b0-c4346c424abe","ios":"levelo://app?vid=0bb12baf-d34e-4a48-99b0-c4346c424abe"},"vehicle_type_id":"4","last_reported":1750601379,"current_range_meters":0,"station_id":"ce4bgn12rcd13ifvqbt0","pricing_plan_id":"cebpf4jnsgd1na2vs0mg"},{"bike_id":"73fc15a6-a658-4404-907f-2d855146162d","system_id":"levelo_inurba_marseille","lat":43.2962,"lon":5.37171,"is_reserved":false,"is_disabled":true,"rental_uris":{"android":"levelo://app?vid=73fc15a6-a658-4404-907f-2d855146162d","ios":"levelo://app?vid=73fc15a6-a658-4404-907f-2d855146162d"},"vehicle_type_id":"4","last_reported":1750601379,"current_range_meters":0,"station_id":"ce4bgnh2rcd13ifvqc0g","pricing_plan_id":"cebpf4jnsgd1na2vs0mg"},{"bike_id":"54b0e058-9dfe-46f7-88ae-eb3a8e14339a","system_id":"levelo_inurba_marseille","lat":43.31187,"lon":5.38717,"is_reserved":false,"is_disabled":true,"rental_uris":{"android":"levelo://app?vid=54b0e058-9dfe-46f7-88ae-eb3a8e14339a","ios":"levelo://app?vid=54b0e058-9dfe-46f7-88ae-eb3a8e14339a"},"vehicle_type_id":"4","last_reported":1750601379,"current_range_meters":0,"station_id":"ce4bgv12rcd13ifvqcp0","pricing_plan_id":"cebpf4jnsgd1na2vs0mg"},{"bike_id":"6b95793b-8d34-44f8-bb20-8409c29df777","system_id":"levelo_inurba_marseille","lat":43.302125,"lon":5.394712,"is_reserved":false,"is_disabled":true,"rental_uris":{"android":"levelo://app?vid=6b95793b-8d34-44f8-bb20-8409c29df777","ios":"levelo://app?vid=6b95793b-8d34-44f8-bb20-8409c29df777"},"vehicle_type_id":"4","last_reported":1750601379,"current_range_meters":0,"station_id":"ce4bh0p2rcd13ifvqd70","pricing_plan_id":"cebpf4jnsgd1na2vs0mg"},{"bike_id":"1f2fbb84-6009-47f9-9583-08bca3c60b3d","system_id":"levelo_inurba_marseille","lat":43.284857,"lon":5.384205,"is_reserved":false,"is_disabled":true,"rental_uris":{"android":"levelo://app?vid=1f2fbb84-6009-47f9-9583-08bca3c60b3d","ios":"levelo://app?vid=1f2fbb84-6009-47f9-9583-08bca3c60b3d"},"vehicle_type_id":"4","last_reported":1750601379,"current_range_meters":0,"station_id":"ce4bh512rcd13ifvqe3g","pricing_plan_id":"cebpf4jnsgd1na2vs0mg"},{"bike_id":"5c9a4f74-3b51-4fb0-8ac9-19c8d4ab1e04","system_id":"levelo_inurba_marseille","lat":43.27377,"lon":5.36254,"is_reserved":false,"is_disabled":true,"rental_uris":{"android":"levelo://app?vid=5c9a4f74-3b51-4fb0-8ac9-19c8d4ab1e04","ios":"levelo://app?vid=5c9a4f74-3b51-4fb0-8ac9-19c8d4ab1e04"},"vehicle_type_id":"4","last_reported":1750601379,"current_range_meters":0,"station_id":"ce4bhbh2rcd13ifvqeo0","pricing_plan_id":"cebpf4jnsgd1na2vs0mg"},{"bike_id":"9afd2554-f3ab-4b76-8fb8-de6c611cc1b5","system_id":"levelo_inurba_marseille","lat":43.29279,"lon":5.36844,"is_reserved":false,"is_disabled":true,"rental_uris":{"android":"levelo://app?vid=9afd2554-f3ab-4b76-8fb8-de6c611cc1b5","ios":"levelo://app?vid=9afd2554-f3ab-4b76-8fb8-de6c611cc1b5"},"vehicle_type_id":"4","last_reported":1750601379,"current_range_meters":0,"station_id":"ce4bhbp2rcd13ifvqesg","pricing_plan_id":"cebpf4jnsgd1na2vs0mg"},{"bike_id":"b7e3eefd-2b54-484f-adbf-ea7ffa068107","system_id":"levelo_inurba_marseille","lat":43.29293,"lon":5.36842,"is_reserved":false,"is_disabled":true,"rental_uris":{"android":"levelo://app?vid=b7e3eefd-2b54-484f-adbf-ea7ffa068107","ios":"levelo://app?vid=b7e3eefd-2b54-484f-adbf-ea7ffa068107"},"vehicle_type_id":"4","last_reported":1750601379,"current_range_meters":0,"station_id":"ce4bhbp2rcd13ifvqesg","pricing_plan_id":"cebpf4jnsgd1na2vs0mg"},{"bike_id":"b2df52dc-336a-40c3-9b98-2b6477a8aa89","system_id":"levelo_inurba_marseille","lat":43.28618,"lon":5.35102,"is_reserved":false,"is_disabled":true,"rental_uris":{"android":"levelo://app?vid=b2df52dc-336a-40c3-9b98-2b6477a8aa89","ios":"levelo://app?vid=b2df52dc-336a-40c3-9b98-2b6477a8aa89"},"vehicle_type_id":"4","last_reported":1750601379,"current_range_meters":0,"station_id":"ce4bhch2rcd13ifvqeug","pricing_plan_id":"cebpf4jnsgd1na2vs0mg"},{"bike_id":"8b79b2d2-f030-490b-b33b-76170f3f2d26","system_id":"levelo_inurba_marseille","lat":43.27566,"lon":5.3844,"is_reserved":false,"is_disabled":true,"rental_uris":{"android":"levelo://app?vid=8b79b2d2-f030-490b-b33b-76170f3f2d26","ios":"levelo://app?vid=8b79b2d2-f030-490b-b33b-76170f3f2d26"},"vehicle_type_id":"4","last_reported":1750601379,"current_range_meters":0,"station_id":"ce4bhh92rcd13ifvqfi0","pricing_plan_id":"cebpf4jnsgd1na2vs0mg"},{"bike_id":"8559ab1e-0e5a-4428-a027-d5383a3be045","system_id":"levelo_inurba_marseille","lat":43.2314,"lon":5.43714,"is_reserved":false,"is_disabled":true,"rental_uris":{"android":"levelo://app?vid=8559ab1e-0e5a-4428-a027-d5383a3be045","ios":"levelo://app?vid=8559ab1e-0e5a-4428-a027-d5383a3be045"},"vehicle_type_id":"4","last_reported":1750601379,"current_range_meters":0,"station_id":"ce4bhmp2rcd13ifvqgog","pricing_plan_id":"cebpf4jnsgd1na2vs0mg"},{"bike_id":"f837e9aa-6236-4fbb-a219-5ea34d415718","system_id":"levelo_inurba_marseille","lat":43.30375,"lon":5.42489,"is_reserved":false,"is_disabled":true,"rental_uris":{"android":"levelo://app?vid=f837e9aa-6236-4fbb-a219-5ea34d415718","ios":"levelo://app?vid=f837e9aa-6236-4fbb-a219-5ea34d415718"},"vehicle_type_id":"4","last_reported":1750601379,"current_range_meters":0,"station_id":"ce4bhoh2rcd13ifvqh6g","pricing_plan_id":"cebpf4jnsgd1na2vs0mg"},{"bike_id":"3db268bb-355a-499e-8044-38eedfe84d15","system_id":"levelo_inurba_marseille","lat":43.29568,"lon":5.42296,"is_reserved":false,"is_disabled":true,"rental_uris":{"android":"levelo://app?vid=3db268bb-355a-499e-8044-38eedfe84d15","ios":"levelo://app?vid=3db268bb-355a-499e-8044-38eedfe84d15"},"vehicle_type_id":"4","last_reported":1750601379,"current_range_meters":0,"station_id":"ce4bhph2rcd13ifvqhdg","pricing_plan_id":"cebpf4jnsgd1na2vs0mg"},{"bike_id":"c71dd65a-3497-49a8-b62a-93216c31244d","system_id":"levelo_inurba_marseille","lat":43.22937,"lon":5.35386,"is_reserved":false,"is_disabled":true,"rental_uris":{"android":"levelo://app?vid=c71dd65a-3497-49a8-b62a-93216c31244d","ios":"levelo://app?vid=c71dd65a-3497-49a8-b62a-93216c31244d"},"vehicle_type_id":"4","last_reported":1750601379,"current_range_meters":0,"station_id":"cpo3532slgdg3j2ikp40","pricing_plan_id":"cebpf4jnsgd1na2vs0mg"},{"bike_id":"c811a362-db2a-4fc9-a569-bd367fd9708a","system_id":"levelo_inurba_marseille","lat":43.2417,"lon":5.36398,"is_reserved":false,"is_disabled":true,"rental_uris":{"android":"levelo://app?vid=c811a362-db2a-4fc9-a569-bd367fd9708a","ios":"levelo://app?vid=c811a362-db2a-4fc9-a569-bd367fd9708a"},"vehicle_type_id":"4","last_reported":1750601379,"current_range_meters":0,"station_id":"cpo36qri1sfpv3e86is0","pricing_plan_id":"cebpf4jnsgd1na2vs0mg"},{"bike_id":"cf1c87b0-6d75-4000-9262-a99e593b79f1","system_id":"levelo_inurba_marseille","lat":43.24172,"lon":5.3642,"is_reserved":false,"is_disabled":true,"rental_uris":{"android":"levelo://app?vid=cf1c87b0-6d75-4000-9262-a99e593b79f1","ios":"levelo://app?vid=cf1c87b0-6d75-4000-9262-a99e593b79f1"},"vehicle_type_id":"4","last_reported":1750601379,"current_range_meters":0,"station_id":"cpo36qri1sfpv3e86is0","pricing_plan_id":"cebpf4jnsgd1na2vs0mg"},{"bike_id":"b35db14a-9b66-4d99-9233-b3621bb980f4","system_id":"levelo_inurba_marseille","lat":43.307263,"lon":5.424587,"is_reserved":false,"is_disabled":true,"rental_uris":{"android":"levelo://app?vid=b35db14a-9b66-4d99-9233-b3621bb980f4","ios":"levelo://app?vid=b35db14a-9b66-4d99-9233-b3621bb980f4"},"vehicle_type_id":"4","last_reported":1750601379,"current_range_meters":0,"station_id":"st_cvj6ca6bvosntc0bfgr0","pricing_plan_id":"cebpf4jnsgd1na2vs0mg"},{"bike_id":"2b08da1e-24ea-442f-903c-68462361ef67","system_id":"levelo_inurba_marseille","lat":43.28268,"lon":5.35074,"is_reserved":false,"is_disabled":true,"rental_uris":{"android":"levelo://app?vid=2b08da1e-24ea-442f-903c-68462361ef67","ios":"levelo://app?vid=2b08da1e-24ea-442f-903c-68462361ef67"},"vehicle_type_id":"4","last_reported":1750601379,"current_range_meters":400,"station_id":"ce4bhbp2rcd13ifvqerg","pricing_plan_id":"cebpf4jnsgd1na2vs0mg"},{"bike_id":"4319e19f-7427-4e18-b487-f6d642f94624","system_id":"levelo_inurba_marseille","lat":43.28616,"lon":5.35109,"is_reserved":false,"is_disabled":true,"rental_uris":{"android":"levelo://app?vid=4319e19f-7427-4e18-b487-f6d642f94624","ios":"levelo://app?vid=4319e19f-7427-4e18-b487-f6d642f94624"},"vehicle_type_id":"4","last_reported":1750601379,"current_range_meters":400,"station_id":"ce4bhch2rcd13ifvqeug","pricing_plan_id":"cebpf4jnsgd1na2vs0mg"},{"bike_id":"994787b1-239c-41aa-b8c3-d68ce07387a3","system_id":"levelo_inurba_marseille","lat":43.26559,"lon":5.39014,"is_reserved":false,"is_disabled":true,"rental_uris":{"android":"levelo://app?vid=994787b1-239c-41aa-b8c3-d68ce07387a3","ios":"levelo://app?vid=994787b1-239c-41aa-b8c3-d68ce07387a3"},"vehicle_type_id":"4","last_reported":1750601379,"current_range_meters":400,"station_id":"ce4bhe12rcd13ifvqf30","pricing_plan_id":"cebpf4jnsgd1na2vs0mg"},{"bike_id":"82f7611c-a85b-42a8-b6d9-2720e1abba48","system_id":"levelo_inurba_marseille","lat":43.26199,"lon":5.37927,"is_reserved":false,"is_disabled":true,"rental_uris":{"android":"levelo://app?vid=82f7611c-a85b-42a8-b6d9-2720e1abba48","ios":"levelo://app?vid=82f7611c-a85b-42a8-b6d9-2720e1abba48"},"vehicle_type_id":"4","last_reported":1750601379,"current_range_meters":400,"station_id":"ce4bhjp2rcd13ifvqg90","pricing_plan_id":"cebpf4jnsgd1na2vs0mg"},{"bike_id":"0e120520-af69-4041-8a8b-1983931e7168","system_id":"levelo_inurba_marseille","lat":43.29578,"lon":5.367422,"is_reserved":false,"is_disabled":true,"rental_uris":{"android":"levelo://app?vid=0e120520-af69-4041-8a8b-1983931e7168","ios":"levelo://app?vid=0e120520-af69-4041-8a8b-1983931e7168"},"vehicle_type_id":"4","last_reported":1750601379,"current_range_meters":800,"station_id":"ce4bgph2rcd13ifvqc2g","pricing_plan_id":"cebpf4jnsgd1na2vs0mg"},{"bike_id":"63115db7-fded-4326-83e9-9175a5036507","system_id":"levelo_inurba_marseille","lat":43.284241,"lon":5.349822,"is_reserved":false,"is_disabled":true,"rental_uris":{"android":"levelo://app?vid=63115db7-fded-4326-83e9-9175a5036507","ios":"levelo://app?vid=63115db7-fded-4326-83e9-9175a5036507"},"vehicle_type_id":"4","last_reported":1750601379,"current_range_meters":800,"station_id":"ce4bhb12rcd13ifvqel0","pricing_plan_id":"cebpf4jnsgd1na2vs0mg"},{"bike_id":"64ef1b9c-d7cf-4cd0-a124-2ff5baf228af","system_id":"levelo_inurba_marseille","lat":43.28415,"lon":5.35003,"is_reserved":false,"is_disabled":true,"rental_uris":{"android":"levelo://app?vid=64ef1b9c-d7cf-4cd0-a124-2ff5baf228af","ios":"levelo://app?vid=64ef1b9c-d7cf-4cd0-a124-2ff5baf228af"},"vehicle_type_id":"4","last_reported":1750601379,"current_range_meters":800,"station_id":"ce4bhbh2rcd13ifvqepg","pricing_plan_id":"cebpf4jnsgd1na2vs0mg"},{"bike_id":"f86cb147-ea9d-422d-81ab-a672fc438a41","system_id":"levelo_inurba_marseille","lat":43.29033,"lon":5.38659,"is_reserved":false,"is_disabled":true,"rental_uris":{"android":"levelo://app?vid=f86cb147-ea9d-422d-81ab-a672fc438a41","ios":"levelo://app?vid=f86cb147-ea9d-422d-81ab-a672fc438a41"},"vehicle_type_id":"4","last_reported":1750601379,"current_range_meters":1200,"station_id":"ce4bh4p2rcd13ifvqe0g","pricing_plan_id":"cebpf4jnsgd1na2vs0mg"},{"bike_id":"cebb894f-f672-428d-a694-99032846c02c","system_id":"levelo_inurba_marseille","lat":43.28274,"lon":5.35079,"is_reserved":false,"is_disabled":true,"rental_uris":{"android":"levelo://app?vid=cebb894f-f672-428d-a694-99032846c02c","ios":"levelo://app?vid=cebb894f-f672-428d-a694-99032846c02c"},"vehicle_type_id":"4","last_reported":1750601379,"current_range_meters":1200,"station_id":"ce4bhbp2rcd13ifvqerg","pricing_plan_id":"cebpf4jnsgd1na2vs0mg"},{"bike_id":"68dfc638-9adc-4b0d-95d4-1c9110d3addc","system_id":"levelo_inurba_marseille","lat":43.28275,"lon":5.35092,"is_reserved":false,"is_disabled":true,"rental_uris":{"android":"levelo://app?vid=68dfc638-9adc-4b0d-95d4-1c9110d3addc","ios":"levelo://app?vid=68dfc638-9adc-4b0d-95d4-1c9110d3addc"},"vehicle_type_id":"4","last_reported":1750601379,"current_range_meters":1200,"station_id":"ce4bhbp2rcd13ifvqerg","pricing_plan_id":"cebpf4jnsgd1na2vs0mg"},{"bike_id":"dc0b4e63-a7ab-4c03-9f08-43e68e4899a7","system_id":"levelo_inurba_marseille","lat":43.262027,"lon":5.374428,"is_reserved":false,"is_disabled":true,"rental_uris":{"android":"levelo://app?vid=dc0b4e63-a7ab-4c03-9f08-43e68e4899a7","ios":"levelo://app?vid=dc0b4e63-a7ab-4c03-9f08-43e68e4899a7"},"vehicle_type_id":"4","last_reported":1750601379,"current_range_meters":1200,"station_id":"ce4bhch2rcd13ifvqeug","pricing_plan_id":"cebpf4jnsgd1na2vs0mg"},{"bike_id":"0b0d3870-5f21-479e-ae51-3bfbac924c16","system_id":"levelo_inurba_marseille","lat":43.22928,"lon":5.35387,"is_reserved":false,"is_disabled":true,"rental_uris":{"android":"levelo://app?vid=0b0d3870-5f21-479e-ae51-3bfbac924c16","ios":"levelo://app?vid=0b0d3870-5f21-479e-ae51-3bfbac924c16"},"vehicle_type_id":"4","last_reported":1750601379,"current_range_meters":1200,"station_id":"cpo3532slgdg3j2ikp40","pricing_plan_id":"cebpf4jnsgd1na2vs0mg"},{"bike_id":"a617d68b-3c7e-4854-ae02-88a413d81f51","system_id":"levelo_inurba_marseille","lat":43.25753,"lon":5.41034,"is_reserved":false,"is_disabled":true,"rental_uris":{"android":"levelo://app?vid=a617d68b-3c7e-4854-ae02-88a413d81f51","ios":"levelo://app?vid=a617d68b-3c7e-4854-ae02-88a413d81f51"},"vehicle_type_id":"4","last_reported":1750601379,"current_range_meters":1600,"station_id":"","pricing_plan_id":"cebpf4jnsgd1na2vs0mg"},{"bike_id":"252bb98b-6055-4b9b-956c-1f9de1b3b333","system_id":"levelo_inurba_marseille","lat":43.29313,"lon":5.37182,"is_reserved":false,"is_disabled":true,"rental_uris":{"android":"levelo://app?vid=252bb98b-6055-4b9b-956c-1f9de1b3b333","ios":"levelo://app?vid=252bb98b-6055-4b9b-956c-1f9de1b3b333"},"vehicle_type_id":"4","last_reported":1750601379,"current_range_meters":1600,"station_id":"ce4bgh92rcd13ifvqb40","pricing_plan_id":"cebpf4jnsgd1na2vs0mg"},{"bike_id":"a611c9e6-3852-465e-9c7b-7b8ac33c07f9","system_id":"levelo_inurba_marseille","lat":43.28357,"lon":5.38642,"is_reserved":false,"is_disabled":true,"rental_uris":{"android":"levelo://app?vid=a611c9e6-3852-465e-9c7b-7b8ac33c07f9","ios":"levelo://app?vid=a611c9e6-3852-465e-9c7b-7b8ac33c07f9"},"vehicle_type_id":"4","last_reported":1750601379,"current_range_meters":1600,"station_id":"ce4bh492rcd13ifvqdvg","pricing_plan_id":"cebpf4jnsgd1na2vs0mg"},{"bike_id":"10f21650-741d-490f-a40d-71407f56363c","system_id":"levelo_inurba_marseille","lat":43.29037,"lon":5.38141,"is_reserved":false,"is_disabled":true,"rental_uris":{"android":"levelo://app?vid=10f21650-741d-490f-a40d-71407f56363c","ios":"levelo://app?vid=10f21650-741d-490f-a40d-71407f56363c"},"vehicle_type_id":"4","last_reported":1750601379,"current_range_meters":1600,"station_id":"ce4bh4p2rcd13ifvqe1g","pricing_plan_id":"cebpf4jnsgd1na2vs0mg"},{"bike_id":"266a2c82-7274-410b-b0c3-cb8237954ce2","system_id":"levelo_inurba_marseille","lat":43.26194,"lon":5.37451,"is_reserved":false,"is_disabled":true,"rental_uris":{"android":"levelo://app?vid=266a2c82-7274-410b-b0c3-cb8237954ce2","ios":"levelo://app?vid=266a2c82-7274-410b-b0c3-cb8237954ce2"},"vehicle_type_id":"4","last_reported":1750601379,"current_range_meters":1600,"station_id":"ce4bhgp2rcd13ifvqfc0","pricing_plan_id":"cebpf4jnsgd1na2vs0mg"},{"bike_id":"6a1cd1fe-c4be-4230-a6dc-cf82b9efd1ee","system_id":"levelo_inurba_marseille","lat":43.25493,"lon":5.37656,"is_reserved":false,"is_disabled":true,"rental_uris":{"android":"levelo://app?vid=6a1cd1fe-c4be-4230-a6dc-cf82b9efd1ee","ios":"levelo://app?vid=6a1cd1fe-c4be-4230-a6dc-cf82b9efd1ee"},"vehicle_type_id":"4","last_reported":1750601379,"current_range_meters":1600,"station_id":"ce4bhh12rcd13ifvqff0","pricing_plan_id":"cebpf4jnsgd1na2vs0mg"},{"bike_id":"2f3c9a46-53a6-4bfc-a398-7882e4f2763d","system_id":"levelo_inurba_marseille","lat":43.30789,"lon":5.38152,"is_reserved":false,"is_disabled":true,"rental_uris":{"android":"levelo://app?vid=2f3c9a46-53a6-4bfc-a398-7882e4f2763d","ios":"levelo://app?vid=2f3c9a46-53a6-4bfc-a398-7882e4f2763d"},"vehicle_type_id":"4","last_reported":1750601379,"current_range_meters":2000,"station_id":"ce4bgt12rcd13ifvqce0","pricing_plan_id":"cebpf4jnsgd1na2vs0mg"},{"bike_id":"03a40873-8d31-4693-8f35-f25d899c5190","system_id":"levelo_inurba_marseille","lat":43.30463,"lon":5.37904,"is_reserved":false,"is_disabled":true,"rental_uris":{"android":"levelo://app?vid=03a40873-8d31-4693-8f35-f25d899c5190","ios":"levelo://app?vid=03a40873-8d31-4693-8f35-f25d899c5190"},"vehicle_type_id":"4","last_reported":1750601379,"current_range_meters":2000,"station_id":"ce4bgup2rcd13ifvqcn0","pricing_plan_id":"cebpf4jnsgd1na2vs0mg"},{"bike_id":"62777be6-cf11-4cbc-9eb2-793f887bcb3c","system_id":"levelo_inurba_marseille","lat":43.28409,"lon":5.35,"is_reserved":false,"is_disabled":true,"rental_uris":{"android":"levelo://app?vid=62777be6-cf11-4cbc-9eb2-793f887bcb3c","ios":"levelo://app?vid=62777be6-cf11-4cbc-9eb2-793f887bcb3c"},"vehicle_type_id":"4","last_reported":1750601379,"current_range_meters":2000,"station_id":"ce4bhbh2rcd13ifvqepg","pricing_plan_id":"cebpf4jnsgd1na2vs0mg"},{"bike_id":"f57dc0fc-a9db-4d26-a673-c5cf6d52d05e","system_id":"levelo_inurba_marseille","lat":43.24386,"lon":5.37062,"is_reserved":false,"is_disabled":true,"rental_uris":{"android":"levelo://app?vid=f57dc0fc-a9db-4d26-a673-c5cf6d52d05e","ios":"levelo://app?vid=f57dc0fc-a9db-4d26-a673-c5cf6d52d05e"},"vehicle_type_id":"4","last_reported":1750601379,"current_range_meters":2000,"station_id":"ce4bhhh2rcd13ifvqfk0","pricing_plan_id":"cebpf4jnsgd1na2vs0mg"},{"bike_id":"4d81def3-e396-40d4-b287-aaea02493d12","system_id":"levelo_inurba_marseille","lat":43.28613,"lon":5.35179,"is_reserved":false,"is_disabled":false,"rental_uris":{"android":"levelo://app?vid=4d81def3-e396-40d4-b287-aaea02493d12","ios":"levelo://app?vid=4d81def3-e396-40d4-b287-aaea02493d12"},"vehicle_type_id":"4","last_reported":1750601379,"current_range_meters":2800,"station_id":"","pricing_plan_id":"cebpf4jnsgd1na2vs0mg"},{"bike_id":"1ab7b122-4554-4c5d-9077-b98360416477","system_id":"levelo_inurba_marseille","lat":43.23964,"lon":5.36633,"is_reserved":false,"is_disabled":false,"rental_uris":{"android":"levelo://app?vid=1ab7b122-4554-4c5d-9077-b98360416477","ios":"levelo://app?vid=1ab7b122-4554-4c5d-9077-b98360416477"},"vehicle_type_id":"4","last_reported":1750601379,"current_range_meters":2800,"station_id":"ce4bhi12rcd13ifvqfp0","pricing_plan_id":"cebpf4jnsgd1na2vs0mg"},{"bike_id":"b33d6ef9-ce0f-483b-b075-af1be1bdfd44","system_id":"levelo_inurba_marseille","lat":43.23961,"lon":5.36623,"is_reserved":false,"is_disabled":false,"rental_uris":{"android":"levelo://app?vid=b33d6ef9-ce0f-483b-b075-af1be1bdfd44","ios":"levelo://app?vid=b33d6ef9-ce0f-483b-b075-af1be1bdfd44"},"vehicle_type_id":"4","last_reported":1750601379,"current_range_meters":2800,"station_id":"ce4bhi12rcd13ifvqfp0","pricing_plan_id":"cebpf4jnsgd1na2vs0mg"},{"bike_id":"c595d0e1-c778-4abe-9c79-a9dd74f54e27","system_id":"levelo_inurba_marseille","lat":43.24484,"lon":5.37209,"is_reserved":false,"is_disabled":false,"rental_uris":{"android":"levelo://app?vid=c595d0e1-c778-4abe-9c79-a9dd74f54e27","ios":"levelo://app?vid=c595d0e1-c778-4abe-9c79-a9dd74f54e27"},"vehicle_type_id":"4","last_reported":1750601379,"current_range_meters":3200,"station_id":"","pricing_plan_id":"cebpf4jnsgd1na2vs0mg"},{"bike_id":"e2455fad-50ce-4275-8f1f-5d9d0ac8bd93","system_id":"levelo_inurba_marseille","lat":43.30328,"lon":5.40435,"is_reserved":false,"is_disabled":false,"rental_uris":{"android":"levelo://app?vid=e2455fad-50ce-4275-8f1f-5d9d0ac8bd93","ios":"levelo://app?vid=e2455fad-50ce-4275-8f1f-5d9d0ac8bd93"},"vehicle_type_id":"4","last_reported":1750601379,"current_range_meters":3600,"station_id":"ce4bh012rcd13ifvqd10","pricing_plan_id":"cebpf4jnsgd1na2vs0mg"},{"bike_id":"261c5a4f-abb1-45db-acbe-67d4159e1188","system_id":"levelo_inurba_marseille","lat":43.28464,"lon":5.35877,"is_reserved":false,"is_disabled":false,"rental_uris":{"android":"levelo://app?vid=261c5a4f-abb1-45db-acbe-67d4159e1188","ios":"levelo://app?vid=261c5a4f-abb1-45db-acbe-67d4159e1188"},"vehicle_type_id":"4","last_reported":1750601379,"current_range_meters":3600,"station_id":"ce4bhah2rcd13ifvqei0","pricing_plan_id":"cebpf4jnsgd1na2vs0mg"},{"bike_id":"e32aaf60-16dd-4826-82cf-1ee0abe5daf0","system_id":"levelo_inurba_marseille","lat":43.282684,"lon":5.350609,"is_reserved":false,"is_disabled":false,"rental_uris":{"android":"levelo://app?vid=e32aaf60-16dd-4826-82cf-1ee0abe5daf0","ios":"levelo://app?vid=e32aaf60-16dd-4826-82cf-1ee0abe5daf0"},"vehicle_type_id":"4","last_reported":1750601379,"current_range_meters":4000,"station_id":"ce4bhbp2rcd13ifvqerg","pricing_plan_id":"cebpf4jnsgd1na2vs0mg"},{"bike_id":"1f45f11a-6f94-4012-9a43-cda2465b42a3","system_id":"levelo_inurba_marseille","lat":43.28422,"lon":5.35019,"is_reserved":false,"is_disabled":false,"rental_uris":{"android":"levelo://app?vid=1f45f11a-6f94-4012-9a43-cda2465b42a3","ios":"levelo://app?vid=1f45f11a-6f94-4012-9a43-cda2465b42a3"},"vehicle_type_id":"4","last_reported":1750601379,"current_range_meters":4400,"station_id":"ce4bhbh2rcd13ifvqepg","pricing_plan_id":"cebpf4jnsgd1na2vs0mg"},{"bike_id":"ae498aa3-7a5d-4126-baac-26172126321a","system_id":"levelo_inurba_marseille","lat":43.284,"lon":5.35005,"is_reserved":false,"is_disabled":false,"rental_uris":{"android":"levelo://app?vid=ae498aa3-7a5d-4126-baac-26172126321a","ios":"levelo://app?vid=ae498aa3-7a5d-4126-baac-26172126321a"},"vehicle_type_id":"4","last_reported":1750601379,"current_range_meters":4800,"station_id":"ce4bhbh2rcd13ifvqepg","pricing_plan_id":"cebpf4jnsgd1na2vs0mg"},{"bike_id":"8300812b-c3f4-4460-a462-0c10590e5460","system_id":"levelo_inurba_marseille","lat":43.32966,"lon":5.40563,"is_reserved":false,"is_disabled":false,"rental_uris":{"android":"levelo://app?vid=8300812b-c3f4-4460-a462-0c10590e5460","ios":"levelo://app?vid=8300812b-c3f4-4460-a462-0c10590e5460"},"vehicle_type_id":"4","last_reported":1750601379,"current_range_meters":5600,"station_id":"","pricing_plan_id":"cebpf4jnsgd1na2vs0mg"},{"bike_id":"199c2831-e081-4bc0-9b94-19503817091d","system_id":"levelo_inurba_marseille","lat":43.249075,"lon":5.406689,"is_reserved":false,"is_disabled":false,"rental_uris":{"android":"levelo://app?vid=199c2831-e081-4bc0-9b94-19503817091d","ios":"levelo://app?vid=199c2831-e081-4bc0-9b94-19503817091d"},"vehicle_type_id":"4","last_reported":1750601379,"current_range_meters":5600,"station_id":"","pricing_plan_id":"cebpf4jnsgd1na2vs0mg"},{"bike_id":"8093f737-7df8-424e-b634-17de321d9f05","system_id":"levelo_inurba_marseille","lat":43.28407,"lon":5.35001,"is_reserved":false,"is_disabled":false,"rental_uris":{"android":"levelo://app?vid=8093f737-7df8-424e-b634-17de321d9f05","ios":"levelo://app?vid=8093f737-7df8-424e-b634-17de321d9f05"},"vehicle_type_id":"4","last_reported":1750601379,"current_range_meters":5600,"station_id":"ce4bhbh2rcd13ifvqepg","pricing_plan_id":"cebpf4jnsgd1na2vs0mg"},{"bike_id":"453e0010-908e-456b-a5d3-c11c9f161895","system_id":"levelo_inurba_marseille","lat":43.30808,"lon":5.43523,"is_reserved":false,"is_disabled":false,"rental_uris":{"android":"levelo://app?vid=453e0010-908e-456b-a5d3-c11c9f161895","ios":"levelo://app?vid=453e0010-908e-456b-a5d3-c11c9f161895"},"vehicle_type_id":"4","last_reported":1750601379,"current_range_meters":5600,"station_id":"ce4bhph2rcd13ifvqheg","pricing_plan_id":"cebpf4jnsgd1na2vs0mg"},{"bike_id":"9dcf293c-ff31-4cbf-b0e9-5f37f5011d2b","system_id":"levelo_inurba_marseille","lat":43.28461,"lon":5.3588,"is_reserved":false,"is_disabled":false,"rental_uris":{"android":"levelo://app?vid=9dcf293c-ff31-4cbf-b0e9-5f37f5011d2b","ios":"levelo://app?vid=9dcf293c-ff31-4cbf-b0e9-5f37f5011d2b"},"vehicle_type_id":"4","last_reported":1750601379,"current_range_meters":6000,"station_id":"ce4bhah2rcd13ifvqei0","pricing_plan_id":"cebpf4jnsgd1na2vs0mg"},{"bike_id":"603995cc-c99c-4a9a-816f-558a88cce062","system_id":"levelo_inurba_marseille","lat":43.28422,"lon":5.35007,"is_reserved":false,"is_disabled":false,"rental_uris":{"android":"levelo://app?vid=603995cc-c99c-4a9a-816f-558a88cce062","ios":"levelo://app?vid=603995cc-c99c-4a9a-816f-558a88cce062"},"vehicle_type_id":"4","last_reported":1750601379,"current_range_meters":6000,"station_id":"ce4bhbh2rcd13ifvqepg","pricing_plan_id":"cebpf4jnsgd1na2vs0mg"},{"bike_id":"bc2bbcf6-575a-4cff-8766-9adb20ceca31","system_id":"levelo_inurba_marseille","lat":43.32059,"lon":5.41547,"is_reserved":false,"is_disabled":false,"rental_uris":{"android":"levelo://app?vid=bc2bbcf6-575a-4cff-8766-9adb20ceca31","ios":"levelo://app?vid=bc2bbcf6-575a-4cff-8766-9adb20ceca31"},"vehicle_type_id":"4","last_reported":1750601379,"current_range_meters":6000,"station_id":"ce4bhq92rcd13ifvqhkg","pricing_plan_id":"cebpf4jnsgd1na2vs0mg"},{"bike_id":"2086f3ca-f45f-486b-8f8c-d47b10632ba0","system_id":"levelo_inurba_marseille","lat":43.22931,"lon":5.35379,"is_reserved":false,"is_disabled":false,"rental_uris":{"android":"levelo://app?vid=2086f3ca-f45f-486b-8f8c-d47b10632ba0","ios":"levelo://app?vid=2086f3ca-f45f-486b-8f8c-d47b10632ba0"},"vehicle_type_id":"4","last_reported":1750601379,"current_range_meters":6000,"station_id":"cpo3532slgdg3j2ikp40","pricing_plan_id":"cebpf4jnsgd1na2vs0mg"},{"bike_id":"bd27fe72-6fbc-453f-8b77-bee10ab3b13c","system_id":"levelo_inurba_marseille","lat":43.2954,"lon":5.42368,"is_reserved":false,"is_disabled":false,"rental_uris":{"android":"levelo://app?vid=bd27fe72-6fbc-453f-8b77-bee10ab3b13c","ios":"levelo://app?vid=bd27fe72-6fbc-453f-8b77-bee10ab3b13c"},"vehicle_type_id":"4","last_reported":1750601379,"current_range_meters":6400,"station_id":"","pricing_plan_id":"cebpf4jnsgd1na2vs0mg"},{"bike_id":"d0429569-d49f-4724-b809-ae863c5028b8","system_id":"levelo_inurba_marseille","lat":43.28356,"lon":5.38647,"is_reserved":false,"is_disabled":false,"rental_uris":{"android":"levelo://app?vid=d0429569-d49f-4724-b809-ae863c5028b8","ios":"levelo://app?vid=d0429569-d49f-4724-b809-ae863c5028b8"},"vehicle_type_id":"4","last_reported":1750601379,"current_range_meters":6400,"station_id":"ce4bh492rcd13ifvqdvg","pricing_plan_id":"cebpf4jnsgd1na2vs0mg"},{"bike_id":"84efd8ff-2090-432c-8699-076991b121dc","system_id":"levelo_inurba_marseille","lat":43.262085,"lon":5.374408,"is_reserved":false,"is_disabled":false,"rental_uris":{"android":"levelo://app?vid=84efd8ff-2090-432c-8699-076991b121dc","ios":"levelo://app?vid=84efd8ff-2090-432c-8699-076991b121dc"},"vehicle_type_id":"4","last_reported":1750601379,"current_range_meters":6400,"station_id":"ce4bhgp2rcd13ifvqfc0","pricing_plan_id":"cebpf4jnsgd1na2vs0mg"},{"bike_id":"13f7aa5e-9a78-41f7-8f63-3f7a54374a00","system_id":"levelo_inurba_marseille","lat":43.27978,"lon":5.41657,"is_reserved":false,"is_disabled":false,"rental_uris":{"android":"levelo://app?vid=13f7aa5e-9a78-41f7-8f63-3f7a54374a00","ios":"levelo://app?vid=13f7aa5e-9a78-41f7-8f63-3f7a54374a00"},"vehicle_type_id":"4","last_reported":1750601379,"current_range_meters":6400,"station_id":"ce4bho12rcd13ifvqh1g","pricing_plan_id":"cebpf4jnsgd1na2vs0mg"},{"bike_id":"028a5a54-e867-49a9-8cd9-42809d0b81fa","system_id":"levelo_inurba_marseille","lat":43.21748,"lon":5.34614,"is_reserved":false,"is_disabled":false,"rental_uris":{"android":"levelo://app?vid=028a5a54-e867-49a9-8cd9-42809d0b81fa","ios":"levelo://app?vid=028a5a54-e867-49a9-8cd9-42809d0b81fa"},"vehicle_type_id":"4","last_reported":1750601379,"current_range_meters":6800,"station_id":"st_cvj6r9ubvosntc0bgbag","pricing_plan_id":"cebpf4jnsgd1na2vs0mg"},{"bike_id":"d40af265-11b5-43a6-9bb6-f910f57901ba","system_id":"levelo_inurba_marseille","lat":43.33033,"lon":5.38002,"is_reserved":false,"is_disabled":false,"rental_uris":{"android":"levelo://app?vid=d40af265-11b5-43a6-9bb6-f910f57901ba","ios":"levelo://app?vid=d40af265-11b5-43a6-9bb6-f910f57901ba"},"vehicle_type_id":"4","last_reported":1750601379,"current_range_meters":7200,"station_id":"","pricing_plan_id":"cebpf4jnsgd1na2vs0mg"},{"bike_id":"47f139f2-8bd5-4552-a6ab-130bfb2aba4d","system_id":"levelo_inurba_marseille","lat":43.26021,"lon":5.41751,"is_reserved":false,"is_disabled":false,"rental_uris":{"android":"levelo://app?vid=47f139f2-8bd5-4552-a6ab-130bfb2aba4d","ios":"levelo://app?vid=47f139f2-8bd5-4552-a6ab-130bfb2aba4d"},"vehicle_type_id":"4","last_reported":1750601379,"current_range_meters":7200,"station_id":"","pricing_plan_id":"cebpf4jnsgd1na2vs0mg"},{"bike_id":"bd709d87-af0a-436f-9b5f-ea9f687fcc16","system_id":"levelo_inurba_marseille","lat":43.29517,"lon":5.39399,"is_reserved":false,"is_disabled":false,"rental_uris":{"android":"levelo://app?vid=bd709d87-af0a-436f-9b5f-ea9f687fcc16","ios":"levelo://app?vid=bd709d87-af0a-436f-9b5f-ea9f687fcc16"},"vehicle_type_id":"4","last_reported":1750601379,"current_range_meters":7200,"station_id":"ce4bh292rcd13ifvqdf0","pricing_plan_id":"cebpf4jnsgd1na2vs0mg"},{"bike_id":"f0f60799-5240-4c49-8bef-2a6d342c6659","system_id":"levelo_inurba_marseille","lat":43.25553,"lon":5.38207,"is_reserved":false,"is_disabled":false,"rental_uris":{"android":"levelo://app?vid=f0f60799-5240-4c49-8bef-2a6d342c6659","ios":"levelo://app?vid=f0f60799-5240-4c49-8bef-2a6d342c6659"},"vehicle_type_id":"4","last_reported":1750601379,"current_range_meters":7200,"station_id":"ce4bhih2rcd13ifvqfs0","pricing_plan_id":"cebpf4jnsgd1na2vs0mg"},{"bike_id":"6c7d5f2d-fd11-422c-acc4-74dbc0fb02c2","system_id":"levelo_inurba_marseille","lat":43.298995,"lon":5.436685,"is_reserved":false,"is_disabled":false,"rental_uris":{"android":"levelo://app?vid=6c7d5f2d-fd11-422c-acc4-74dbc0fb02c2","ios":"levelo://app?vid=6c7d5f2d-fd11-422c-acc4-74dbc0fb02c2"},"vehicle_type_id":"4","last_reported":1750601379,"current_range_meters":7200,"station_id":"ce4bhpp2rcd13ifvqhfg","pricing_plan_id":"cebpf4jnsgd1na2vs0mg"},{"bike_id":"cdad3616-6d2a-4c29-a0b8-b5bc84209c59","system_id":"levelo_inurba_marseille","lat":43.32744,"lon":5.3923,"is_reserved":false,"is_disabled":false,"rental_uris":{"android":"levelo://app?vid=cdad3616-6d2a-4c29-a0b8-b5bc84209c59","ios":"levelo://app?vid=cdad3616-6d2a-4c29-a0b8-b5bc84209c59"},"vehicle_type_id":"4","last_reported":1750601379,"current_range_meters":8000,"station_id":"","pricing_plan_id":"cebpf4jnsgd1na2vs0mg"},{"bike_id":"073cc134-90c8-4f2f-a7ec-1eaaddf52ba5","system_id":"levelo_inurba_marseille","lat":43.28437,"lon":5.35008,"is_reserved":false,"is_disabled":false,"rental_uris":{"android":"levelo://app?vid=073cc134-90c8-4f2f-a7ec-1eaaddf52ba5","ios":"levelo://app?vid=073cc134-90c8-4f2f-a7ec-1eaaddf52ba5"},"vehicle_type_id":"4","last_reported":1750601379,"current_range_meters":8000,"station_id":"ce4bhbh2rcd13ifvqepg","pricing_plan_id":"cebpf4jnsgd1na2vs0mg"},{"bike_id":"95280fb2-ef1b-4b2c-a0a8-7d9c2f195d85","system_id":"levelo_inurba_marseille","lat":43.24803,"lon":5.37432,"is_reserved":false,"is_disabled":false,"rental_uris":{"android":"levelo://app?vid=95280fb2-ef1b-4b2c-a0a8-7d9c2f195d85","ios":"levelo://app?vid=95280fb2-ef1b-4b2c-a0a8-7d9c2f195d85"},"vehicle_type_id":"4","last_reported":1750601379,"current_range_meters":8000,"station_id":"ce4bhgh2rcd13ifvqfb0","pricing_plan_id":"cebpf4jnsgd1na2vs0mg"},{"bike_id":"c964ac9b-8d5f-481d-b875-76a6986b0f14","system_id":"levelo_inurba_marseille","lat":43.261841,"lon":5.374489,"is_reserved":false,"is_disabled":false,"rental_uris":{"android":"levelo://app?vid=c964ac9b-8d5f-481d-b875-76a6986b0f14","ios":"levelo://app?vid=c964ac9b-8d5f-481d-b875-76a6986b0f14"},"vehicle_type_id":"4","last_reported":1750601379,"current_range_meters":8000,"station_id":"ce4bhgp2rcd13ifvqfc0","pricing_plan_id":"cebpf4jnsgd1na2vs0mg"},{"bike_id":"3af8e414-6142-4432-a6dc-f481c7269c68","system_id":"levelo_inurba_marseille","lat":43.231238,"lon":5.366108,"is_reserved":false,"is_disabled":false,"rental_uris":{"android":"levelo://app?vid=3af8e414-6142-4432-a6dc-f481c7269c68","ios":"levelo://app?vid=3af8e414-6142-4432-a6dc-f481c7269c68"},"vehicle_type_id":"4","last_reported":1750601379,"current_range_meters":8400,"station_id":"","pricing_plan_id":"cebpf4jnsgd1na2vs0mg"},{"bike_id":"5d57b9c3-fabf-43e4-8294-b9138dfc1ddd","system_id":"levelo_inurba_marseille","lat":43.25147,"lon":5.4031,"is_reserved":false,"is_disabled":false,"rental_uris":{"android":"levelo://app?vid=5d57b9c3-fabf-43e4-8294-b9138dfc1ddd","ios":"levelo://app?vid=5d57b9c3-fabf-43e4-8294-b9138dfc1ddd"},"vehicle_type_id":"4","last_reported":1750601379,"current_range_meters":8400,"station_id":"","pricing_plan_id":"cebpf4jnsgd1na2vs0mg"},{"bike_id":"02a65e1c-f29e-4b46-b807-96fc7880fd56","system_id":"levelo_inurba_marseille","lat":43.27372,"lon":5.36256,"is_reserved":false,"is_disabled":false,"rental_uris":{"android":"levelo://app?vid=02a65e1c-f29e-4b46-b807-96fc7880fd56","ios":"levelo://app?vid=02a65e1c-f29e-4b46-b807-96fc7880fd56"},"vehicle_type_id":"4","last_reported":1750601379,"current_range_meters":8400,"station_id":"ce4bhbh2rcd13ifvqeo0","pricing_plan_id":"cebpf4jnsgd1na2vs0mg"},{"bike_id":"b018c1ac-39d5-40fe-addd-0eef2d8248e3","system_id":"levelo_inurba_marseille","lat":43.26572,"lon":5.39012,"is_reserved":false,"is_disabled":false,"rental_uris":{"android":"levelo://app?vid=b018c1ac-39d5-40fe-addd-0eef2d8248e3","ios":"levelo://app?vid=b018c1ac-39d5-40fe-addd-0eef2d8248e3"},"vehicle_type_id":"4","last_reported":1750601379,"current_range_meters":8400,"station_id":"ce4bhe12rcd13ifvqf30","pricing_plan_id":"cebpf4jnsgd1na2vs0mg"},{"bike_id":"f73df0d7-b3c1-4afb-8a3c-5fdf71c204d2","system_id":"levelo_inurba_marseille","lat":43.26558,"lon":5.37306,"is_reserved":false,"is_disabled":false,"rental_uris":{"android":"levelo://app?vid=f73df0d7-b3c1-4afb-8a3c-5fdf71c204d2","ios":"levelo://app?vid=f73df0d7-b3c1-4afb-8a3c-5fdf71c204d2"},"vehicle_type_id":"4","last_reported":1750601379,"current_range_meters":8400,"station_id":"ce4bhg12rcd13ifvqf70","pricing_plan_id":"cebpf4jnsgd1na2vs0mg"},{"bike_id":"4aefd1ab-3220-470c-ab79-f92d68e437e9","system_id":"levelo_inurba_marseille","lat":43.23968,"lon":5.36651,"is_reserved":false,"is_disabled":false,"rental_uris":{"android":"levelo://app?vid=4aefd1ab-3220-470c-ab79-f92d68e437e9","ios":"levelo://app?vid=4aefd1ab-3220-470c-ab79-f92d68e437e9"},"vehicle_type_id":"4","last_reported":1750601379,"current_range_meters":8400,"station_id":"ce4bhi12rcd13ifvqfp0","pricing_plan_id":"cebpf4jnsgd1na2vs0mg"},{"bike_id":"a9738db2-ea43-470f-a988-6a2900317084","system_id":"levelo_inurba_marseille","lat":43.23217,"lon":5.35559,"is_reserved":false,"is_disabled":false,"rental_uris":{"android":"levelo://app?vid=a9738db2-ea43-470f-a988-6a2900317084","ios":"levelo://app?vid=a9738db2-ea43-470f-a988-6a2900317084"},"vehicle_type_id":"4","last_reported":1750601379,"current_range_meters":8400,"station_id":"ce4bhu92rcd13ifvqi70","pricing_plan_id":"cebpf4jnsgd1na2vs0mg"},{"bike_id":"dcd09717-ed61-4dd0-817c-1abe723b367e","system_id":"levelo_inurba_marseille","lat":43.24163,"lon":5.3639,"is_reserved":false,"is_disabled":false,"rental_uris":{"android":"levelo://app?vid=dcd09717-ed61-4dd0-817c-1abe723b367e","ios":"levelo://app?vid=dcd09717-ed61-4dd0-817c-1abe723b367e"},"vehicle_type_id":"4","last_reported":1750601379,"current_range_meters":8400,"station_id":"cpo36qri1sfpv3e86is0","pricing_plan_id":"cebpf4jnsgd1na2vs0mg"},{"bike_id":"a22aa312-0025-4f42-88e2-b1e95e79340f","system_id":"levelo_inurba_marseille","lat":43.31623,"lon":5.38353,"is_reserved":false,"is_disabled":false,"rental_uris":{"android":"levelo://app?vid=a22aa312-0025-4f42-88e2-b1e95e79340f","ios":"levelo://app?vid=a22aa312-0025-4f42-88e2-b1e95e79340f"},"vehicle_type_id":"4","last_reported":1750601379,"current_range_meters":8800,"station_id":"","pricing_plan_id":"cebpf4jnsgd1na2vs0mg"},{"bike_id":"94733a87-ab0f-4c0e-ba48-316b3ac1807e","system_id":"levelo_inurba_marseille","lat":43.26209,"lon":5.37438,"is_reserved":false,"is_disabled":false,"rental_uris":{"android":"levelo://app?vid=94733a87-ab0f-4c0e-ba48-316b3ac1807e","ios":"levelo://app?vid=94733a87-ab0f-4c0e-ba48-316b3ac1807e"},"vehicle_type_id":"4","last_reported":1750601379,"current_range_meters":8800,"station_id":"ce4bhgp2rcd13ifvqfc0","pricing_plan_id":"cebpf4jnsgd1na2vs0mg"},{"bike_id":"58fadc2e-a36a-4a9b-8df9-de072fd3d41d","system_id":"levelo_inurba_marseille","lat":43.32542,"lon":5.4146,"is_reserved":false,"is_disabled":false,"rental_uris":{"android":"levelo://app?vid=58fadc2e-a36a-4a9b-8df9-de072fd3d41d","ios":"levelo://app?vid=58fadc2e-a36a-4a9b-8df9-de072fd3d41d"},"vehicle_type_id":"4","last_reported":1750601379,"current_range_meters":9200,"station_id":"ce4bhq12rcd13ifvqhhg","pricing_plan_id":"cebpf4jnsgd1na2vs0mg"},{"bike_id":"f0346c68-04bd-4fe1-ae97-71a8a19b4339","system_id":"levelo_inurba_marseille","lat":43.24171,"lon":5.364,"is_reserved":false,"is_disabled":false,"rental_uris":{"android":"levelo://app?vid=f0346c68-04bd-4fe1-ae97-71a8a19b4339","ios":"levelo://app?vid=f0346c68-04bd-4fe1-ae97-71a8a19b4339"},"vehicle_type_id":"4","last_reported":1750601379,"current_range_meters":9200,"station_id":"cpo36qri1sfpv3e86is0","pricing_plan_id":"cebpf4jnsgd1na2vs0mg"},{"bike_id":"2460bdfc-baea-45e5-9f51-4be6cc8872c8","system_id":"levelo_inurba_marseille","lat":43.25114,"lon":5.40381,"is_reserved":false,"is_disabled":false,"rental_uris":{"android":"levelo://app?vid=2460bdfc-baea-45e5-9f51-4be6cc8872c8","ios":"levelo://app?vid=2460bdfc-baea-45e5-9f51-4be6cc8872c8"},"vehicle_type_id":"4","last_reported":1750601379,"current_range_meters":9600,"station_id":"","pricing_plan_id":"cebpf4jnsgd1na2vs0mg"},{"bike_id":"01914ce7-e1f1-4e29-87cc-7a844a610bdf","system_id":"levelo_inurba_marseille","lat":43.28414,"lon":5.34991,"is_reserved":false,"is_disabled":false,"rental_uris":{"android":"levelo://app?vid=01914ce7-e1f1-4e29-87cc-7a844a610bdf","ios":"levelo://app?vid=01914ce7-e1f1-4e29-87cc-7a844a610bdf"},"vehicle_type_id":"4","last_reported":1750601379,"current_range_meters":9600,"station_id":"ce4bhbh2rcd13ifvqepg","pricing_plan_id":"cebpf4jnsgd1na2vs0mg"},{"bike_id":"b7036bc1-c072-4f36-9c66-21ff695540f4","system_id":"levelo_inurba_marseille","lat":43.246854,"lon":5.394394,"is_reserved":false,"is_disabled":false,"rental_uris":{"android":"levelo://app?vid=b7036bc1-c072-4f36-9c66-21ff695540f4","ios":"levelo://app?vid=b7036bc1-c072-4f36-9c66-21ff695540f4"},"vehicle_type_id":"4","last_reported":1750601379,"current_range_meters":10000,"station_id":"","pricing_plan_id":"cebpf4jnsgd1na2vs0mg"},{"bike_id":"cdc35ecc-6fcf-47d5-8dff-cc2797279ea1","system_id":"levelo_inurba_marseille","lat":43.28421,"lon":5.34998,"is_reserved":false,"is_disabled":false,"rental_uris":{"android":"levelo://app?vid=cdc35ecc-6fcf-47d5-8dff-cc2797279ea1","ios":"levelo://app?vid=cdc35ecc-6fcf-47d5-8dff-cc2797279ea1"},"vehicle_type_id":"4","last_reported":1750601379,"current_range_meters":10000,"station_id":"ce4bhbh2rcd13ifvqepg","pricing_plan_id":"cebpf4jnsgd1na2vs0mg"},{"bike_id":"ec41df0a-ecd2-468b-afa3-eb7c88b4166b","system_id":"levelo_inurba_marseille","lat":43.25498,"lon":5.37651,"is_reserved":false,"is_disabled":false,"rental_uris":{"android":"levelo://app?vid=ec41df0a-ecd2-468b-afa3-eb7c88b4166b","ios":"levelo://app?vid=ec41df0a-ecd2-468b-afa3-eb7c88b4166b"},"vehicle_type_id":"4","last_reported":1750601379,"current_range_meters":10000,"station_id":"ce4bhh12rcd13ifvqff0","pricing_plan_id":"cebpf4jnsgd1na2vs0mg"},{"bike_id":"e7a53cce-1ea5-4838-ac31-e4815334d28b","system_id":"levelo_inurba_marseille","lat":43.24409,"lon":5.37074,"is_reserved":false,"is_disabled":false,"rental_uris":{"android":"levelo://app?vid=e7a53cce-1ea5-4838-ac31-e4815334d28b","ios":"levelo://app?vid=e7a53cce-1ea5-4838-ac31-e4815334d28b"},"vehicle_type_id":"4","last_reported":1750601379,"current_range_meters":10000,"station_id":"ce4bhhh2rcd13ifvqfk0","pricing_plan_id":"cebpf4jnsgd1na2vs0mg"},{"bike_id":"a04172fa-6698-415a-aa1f-b67e5fe804e3","system_id":"levelo_inurba_marseille","lat":43.23963,"lon":5.36637,"is_reserved":false,"is_disabled":false,"rental_uris":{"android":"levelo://app?vid=a04172fa-6698-415a-aa1f-b67e5fe804e3","ios":"levelo://app?vid=a04172fa-6698-415a-aa1f-b67e5fe804e3"},"vehicle_type_id":"4","last_reported":1750601379,"current_range_meters":10000,"station_id":"ce4bhi12rcd13ifvqfp0","pricing_plan_id":"cebpf4jnsgd1na2vs0mg"},{"bike_id":"246eb31c-fea6-4861-ab57-3e764683ed5b","system_id":"levelo_inurba_marseille","lat":43.26208,"lon":5.37924,"is_reserved":false,"is_disabled":false,"rental_uris":{"android":"levelo://app?vid=246eb31c-fea6-4861-ab57-3e764683ed5b","ios":"levelo://app?vid=246eb31c-fea6-4861-ab57-3e764683ed5b"},"vehicle_type_id":"4","last_reported":1750601379,"current_range_meters":10000,"station_id":"ce4bhjp2rcd13ifvqg90","pricing_plan_id":"cebpf4jnsgd1na2vs0mg"},{"bike_id":"1ba66dc9-0643-453e-b7dc-afe6e2c585fd","system_id":"levelo_inurba_marseille","lat":43.231569,"lon":5.43705,"is_reserved":false,"is_disabled":false,"rental_uris":{"android":"levelo://app?vid=1ba66dc9-0643-453e-b7dc-afe6e2c585fd","ios":"levelo://app?vid=1ba66dc9-0643-453e-b7dc-afe6e2c585fd"},"vehicle_type_id":"4","last_reported":1750601379,"current_range_meters":10000,"station_id":"ce4bhmp2rcd13ifvqgog","pricing_plan_id":"cebpf4jnsgd1na2vs0mg"},{"bike_id":"573e8eee-69b2-4cb7-8c3f-8e1bf869867f","system_id":"levelo_inurba_marseille","lat":43.31881,"lon":5.40744,"is_reserved":false,"is_disabled":false,"rental_uris":{"android":"levelo://app?vid=573e8eee-69b2-4cb7-8c3f-8e1bf869867f","ios":"levelo://app?vid=573e8eee-69b2-4cb7-8c3f-8e1bf869867f"},"vehicle_type_id":"4","last_reported":1750601379,"current_range_meters":10000,"station_id":"ce4bhq12rcd13ifvqhig","pricing_plan_id":"cebpf4jnsgd1na2vs0mg"},{"bike_id":"f48425cf-611c-4160-aff9-97d658cfa133","system_id":"levelo_inurba_marseille","lat":43.33748,"lon":5.3918,"is_reserved":false,"is_disabled":false,"rental_uris":{"android":"levelo://app?vid=f48425cf-611c-4160-aff9-97d658cfa133","ios":"levelo://app?vid=f48425cf-611c-4160-aff9-97d658cfa133"},"vehicle_type_id":"4","last_reported":1750601379,"current_range_meters":10000,"station_id":"ce4bhr92rcd13ifvqhsg","pricing_plan_id":"cebpf4jnsgd1na2vs0mg"},{"bike_id":"e672c7ab-9539-485a-b360-1e12bbab178b","system_id":"levelo_inurba_marseille","lat":43.30341,"lon":5.43493,"is_reserved":false,"is_disabled":false,"rental_uris":{"android":"levelo://app?vid=e672c7ab-9539-485a-b360-1e12bbab178b","ios":"levelo://app?vid=e672c7ab-9539-485a-b360-1e12bbab178b"},"vehicle_type_id":"4","last_reported":1750601379,"current_range_meters":10800,"station_id":"","pricing_plan_id":"cebpf4jnsgd1na2vs0mg"},{"bike_id":"c6de15b0-d7a3-49e8-a5e1-e3c321aa829a","system_id":"levelo_inurba_marseille","lat":43.27614,"lon":5.36102,"is_reserved":false,"is_disabled":false,"rental_uris":{"android":"levelo://app?vid=c6de15b0-d7a3-49e8-a5e1-e3c321aa829a","ios":"levelo://app?vid=c6de15b0-d7a3-49e8-a5e1-e3c321aa829a"},"vehicle_type_id":"4","last_reported":1750601379,"current_range_meters":10800,"station_id":"ce4bgj92rcd13ifvqbe0","pricing_plan_id":"cebpf4jnsgd1na2vs0mg"},{"bike_id":"a3eae1d9-690f-469d-af29-379421fd5887","system_id":"levelo_inurba_marseille","lat":43.273775,"lon":5.362551,"is_reserved":false,"is_disabled":false,"rental_uris":{"android":"levelo://app?vid=a3eae1d9-690f-469d-af29-379421fd5887","ios":"levelo://app?vid=a3eae1d9-690f-469d-af29-379421fd5887"},"vehicle_type_id":"4","last_reported":1750601379,"current_range_meters":10800,"station_id":"ce4bhbh2rcd13ifvqeo0","pricing_plan_id":"cebpf4jnsgd1na2vs0mg"},{"bike_id":"242baff6-2cd3-441f-a7ad-08f8c6f12d44","system_id":"levelo_inurba_marseille","lat":43.25093,"lon":5.39531,"is_reserved":false,"is_disabled":false,"rental_uris":{"android":"levelo://app?vid=242baff6-2cd3-441f-a7ad-08f8c6f12d44","ios":"levelo://app?vid=242baff6-2cd3-441f-a7ad-08f8c6f12d44"},"vehicle_type_id":"4","last_reported":1750601379,"current_range_meters":10800,"station_id":"ce4bhm12rcd13ifvqgkg","pricing_plan_id":"cebpf4jnsgd1na2vs0mg"},{"bike_id":"6b27f7b8-51cc-4f28-87d5-18fcd331832c","system_id":"levelo_inurba_marseille","lat":43.2319,"lon":5.35554,"is_reserved":false,"is_disabled":false,"rental_uris":{"android":"levelo://app?vid=6b27f7b8-51cc-4f28-87d5-18fcd331832c","ios":"levelo://app?vid=6b27f7b8-51cc-4f28-87d5-18fcd331832c"},"vehicle_type_id":"4","last_reported":1750601379,"current_range_meters":10800,"station_id":"ce4bhu92rcd13ifvqi70","pricing_plan_id":"cebpf4jnsgd1na2vs0mg"},{"bike_id":"8d197929-9fd5-4312-a5f7-b6d7fc6475a8","system_id":"levelo_inurba_marseille","lat":43.23531,"lon":5.36028,"is_reserved":false,"is_disabled":false,"rental_uris":{"android":"levelo://app?vid=8d197929-9fd5-4312-a5f7-b6d7fc6475a8","ios":"levelo://app?vid=8d197929-9fd5-4312-a5f7-b6d7fc6475a8"},"vehicle_type_id":"4","last_reported":1750601379,"current_range_meters":11200,"station_id":"","pricing_plan_id":"cebpf4jnsgd1na2vs0mg"},{"bike_id":"b639ca5d-b29f-4854-8151-e8055afbcb5c","system_id":"levelo_inurba_marseille","lat":43.27378,"lon":5.36252,"is_reserved":false,"is_disabled":false,"rental_uris":{"android":"levelo://app?vid=b639ca5d-b29f-4854-8151-e8055afbcb5c","ios":"levelo://app?vid=b639ca5d-b29f-4854-8151-e8055afbcb5c"},"vehicle_type_id":"4","last_reported":1750601379,"current_range_meters":11200,"station_id":"ce4bhbh2rcd13ifvqeo0","pricing_plan_id":"cebpf4jnsgd1na2vs0mg"},{"bike_id":"9bb2de17-a3c0-4e39-a88c-7f8be3a52562","system_id":"levelo_inurba_marseille","lat":43.28406,"lon":5.34999,"is_reserved":false,"is_disabled":false,"rental_uris":{"android":"levelo://app?vid=9bb2de17-a3c0-4e39-a88c-7f8be3a52562","ios":"levelo://app?vid=9bb2de17-a3c0-4e39-a88c-7f8be3a52562"},"vehicle_type_id":"4","last_reported":1750601379,"current_range_meters":11200,"station_id":"ce4bhbh2rcd13ifvqepg","pricing_plan_id":"cebpf4jnsgd1na2vs0mg"},{"bike_id":"2fd3e9c7-f429-42d1-9511-8d538637e947","system_id":"levelo_inurba_marseille","lat":43.26028,"lon":5.37552,"is_reserved":false,"is_disabled":false,"rental_uris":{"android":"levelo://app?vid=2fd3e9c7-f429-42d1-9511-8d538637e947","ios":"levelo://app?vid=2fd3e9c7-f429-42d1-9511-8d538637e947"},"vehicle_type_id":"4","last_reported":1750601379,"current_range_meters":11200,"station_id":"ce4bhgh2rcd13ifvqfa0","pricing_plan_id":"cebpf4jnsgd1na2vs0mg"},{"bike_id":"2ef31fed-8dcf-469a-a124-23a7f2536432","system_id":"levelo_inurba_marseille","lat":43.22927,"lon":5.35368,"is_reserved":false,"is_disabled":false,"rental_uris":{"android":"levelo://app?vid=2ef31fed-8dcf-469a-a124-23a7f2536432","ios":"levelo://app?vid=2ef31fed-8dcf-469a-a124-23a7f2536432"},"vehicle_type_id":"4","last_reported":1750601379,"current_range_meters":11200,"station_id":"cpo3532slgdg3j2ikp40","pricing_plan_id":"cebpf4jnsgd1na2vs0mg"},{"bike_id":"5d3e199f-4449-4268-b4f1-515d3a2c7418","system_id":"levelo_inurba_marseille","lat":43.24174,"lon":5.3641,"is_reserved":false,"is_disabled":false,"rental_uris":{"android":"levelo://app?vid=5d3e199f-4449-4268-b4f1-515d3a2c7418","ios":"levelo://app?vid=5d3e199f-4449-4268-b4f1-515d3a2c7418"},"vehicle_type_id":"4","last_reported":1750601379,"current_range_meters":11200,"station_id":"cpo36qri1sfpv3e86is0","pricing_plan_id":"cebpf4jnsgd1na2vs0mg"},{"bike_id":"d49a4eff-3c92-43f6-b5dc-57b333b95e02","system_id":"levelo_inurba_marseille","lat":43.211892,"lon":5.35074,"is_reserved":false,"is_disabled":false,"rental_uris":{"android":"levelo://app?vid=d49a4eff-3c92-43f6-b5dc-57b333b95e02","ios":"levelo://app?vid=d49a4eff-3c92-43f6-b5dc-57b333b95e02"},"vehicle_type_id":"4","last_reported":1750601379,"current_range_meters":11200,"station_id":"st_cvj6sg6p6f1abm77japg","pricing_plan_id":"cebpf4jnsgd1na2vs0mg"},{"bike_id":"4d80d21e-3dc9-4004-a3c0-eb7b371a8ccf","system_id":"levelo_inurba_marseille","lat":43.33034,"lon":5.39353,"is_reserved":false,"is_disabled":false,"rental_uris":{"android":"levelo://app?vid=4d80d21e-3dc9-4004-a3c0-eb7b371a8ccf","ios":"levelo://app?vid=4d80d21e-3dc9-4004-a3c0-eb7b371a8ccf"},"vehicle_type_id":"4","last_reported":1750601379,"current_range_meters":11600,"station_id":"","pricing_plan_id":"cebpf4jnsgd1na2vs0mg"},{"bike_id":"c1e40350-8acd-42a0-a7f5-a4f24ca51864","system_id":"levelo_inurba_marseille","lat":43.23183,"lon":5.4371,"is_reserved":false,"is_disabled":false,"rental_uris":{"android":"levelo://app?vid=c1e40350-8acd-42a0-a7f5-a4f24ca51864","ios":"levelo://app?vid=c1e40350-8acd-42a0-a7f5-a4f24ca51864"},"vehicle_type_id":"4","last_reported":1750601379,"current_range_meters":11600,"station_id":"ce4bhmp2rcd13ifvqgog","pricing_plan_id":"cebpf4jnsgd1na2vs0mg"},{"bike_id":"383f6c23-5900-403c-9f1d-b77754335d0d","system_id":"levelo_inurba_marseille","lat":43.225026,"lon":5.347822,"is_reserved":false,"is_disabled":false,"rental_uris":{"android":"levelo://app?vid=383f6c23-5900-403c-9f1d-b77754335d0d","ios":"levelo://app?vid=383f6c23-5900-403c-9f1d-b77754335d0d"},"vehicle_type_id":"4","last_reported":1750601379,"current_range_meters":11600,"station_id":"st_cvj5dfep6f1abm77gieg","pricing_plan_id":"cebpf4jnsgd1na2vs0mg"},{"bike_id":"c691a3c7-1c2d-4e78-929c-1c9e95dbb4f3","system_id":"levelo_inurba_marseille","lat":43.23324,"lon":5.36168,"is_reserved":false,"is_disabled":false,"rental_uris":{"android":"levelo://app?vid=c691a3c7-1c2d-4e78-929c-1c9e95dbb4f3","ios":"levelo://app?vid=c691a3c7-1c2d-4e78-929c-1c9e95dbb4f3"},"vehicle_type_id":"4","last_reported":1750601379,"current_range_meters":12000,"station_id":"","pricing_plan_id":"cebpf4jnsgd1na2vs0mg"},{"bike_id":"f848bc29-dd47-4de0-9c47-5a491c375836","system_id":"levelo_inurba_marseille","lat":43.28257,"lon":5.35065,"is_reserved":false,"is_disabled":false,"rental_uris":{"android":"levelo://app?vid=f848bc29-dd47-4de0-9c47-5a491c375836","ios":"levelo://app?vid=f848bc29-dd47-4de0-9c47-5a491c375836"},"vehicle_type_id":"4","last_reported":1750601379,"current_range_meters":12400,"station_id":"ce4bhbp2rcd13ifvqerg","pricing_plan_id":"cebpf4jnsgd1na2vs0mg"},{"bike_id":"eb8e0445-594f-44a0-85cb-9b475413e1ad","system_id":"levelo_inurba_marseille","lat":43.29541,"lon":5.4228,"is_reserved":false,"is_disabled":false,"rental_uris":{"android":"levelo://app?vid=eb8e0445-594f-44a0-85cb-9b475413e1ad","ios":"levelo://app?vid=eb8e0445-594f-44a0-85cb-9b475413e1ad"},"vehicle_type_id":"4","last_reported":1750601379,"current_range_meters":12400,"station_id":"ce4bhph2rcd13ifvqhdg","pricing_plan_id":"cebpf4jnsgd1na2vs0mg"},{"bike_id":"4bc4f8a4-a961-4a4e-b49b-e8c235b4ba74","system_id":"levelo_inurba_marseille","lat":43.21752,"lon":5.34618,"is_reserved":false,"is_disabled":false,"rental_uris":{"android":"levelo://app?vid=4bc4f8a4-a961-4a4e-b49b-e8c235b4ba74","ios":"levelo://app?vid=4bc4f8a4-a961-4a4e-b49b-e8c235b4ba74"},"vehicle_type_id":"4","last_reported":1750601379,"current_range_meters":12400,"station_id":"st_cvj6r9ubvosntc0bgbag","pricing_plan_id":"cebpf4jnsgd1na2vs0mg"},{"bike_id":"ffbb0c22-3f4e-4cdb-a0e5-79e3b9f3e1a2","system_id":"levelo_inurba_marseille","lat":43.33769,"lon":5.37469,"is_reserved":false,"is_disabled":false,"rental_uris":{"android":"levelo://app?vid=ffbb0c22-3f4e-4cdb-a0e5-79e3b9f3e1a2","ios":"levelo://app?vid=ffbb0c22-3f4e-4cdb-a0e5-79e3b9f3e1a2"},"vehicle_type_id":"4","last_reported":1750601379,"current_range_meters":12800,"station_id":"","pricing_plan_id":"cebpf4jnsgd1na2vs0mg"},{"bike_id":"dcf2f8dd-68ea-4b6f-adad-8f0375fb4780","system_id":"levelo_inurba_marseille","lat":43.26196,"lon":5.37453,"is_reserved":false,"is_disabled":false,"rental_uris":{"android":"levelo://app?vid=dcf2f8dd-68ea-4b6f-adad-8f0375fb4780","ios":"levelo://app?vid=dcf2f8dd-68ea-4b6f-adad-8f0375fb4780"},"vehicle_type_id":"4","last_reported":1750601379,"current_range_meters":12800,"station_id":"ce4bhgp2rcd13ifvqfc0","pricing_plan_id":"cebpf4jnsgd1na2vs0mg"},{"bike_id":"9cd3553f-492d-491a-979d-a7d8018b9e5f","system_id":"levelo_inurba_marseille","lat":43.2175,"lon":5.34604,"is_reserved":false,"is_disabled":false,"rental_uris":{"android":"levelo://app?vid=9cd3553f-492d-491a-979d-a7d8018b9e5f","ios":"levelo://app?vid=9cd3553f-492d-491a-979d-a7d8018b9e5f"},"vehicle_type_id":"4","last_reported":1750601379,"current_range_meters":12800,"station_id":"st_cvj6r9ubvosntc0bgbag","pricing_plan_id":"cebpf4jnsgd1na2vs0mg"},{"bike_id":"a9e5e555-fdaf-49c0-b286-f0f2659b17d0","system_id":"levelo_inurba_marseille","lat":43.283332,"lon":5.43252,"is_reserved":false,"is_disabled":false,"rental_uris":{"android":"levelo://app?vid=a9e5e555-fdaf-49c0-b286-f0f2659b17d0","ios":"levelo://app?vid=a9e5e555-fdaf-49c0-b286-f0f2659b17d0"},"vehicle_type_id":"4","last_reported":1750601379,"current_range_meters":13600,"station_id":"","pricing_plan_id":"cebpf4jnsgd1na2vs0mg"},{"bike_id":"0f728bd5-528c-4806-920b-f283f7c67029","system_id":"levelo_inurba_marseille","lat":43.31258,"lon":5.40176,"is_reserved":false,"is_disabled":false,"rental_uris":{"android":"levelo://app?vid=0f728bd5-528c-4806-920b-f283f7c67029","ios":"levelo://app?vid=0f728bd5-528c-4806-920b-f283f7c67029"},"vehicle_type_id":"4","last_reported":1750601379,"current_range_meters":13600,"station_id":"ce4bh092rcd13ifvqd30","pricing_plan_id":"cebpf4jnsgd1na2vs0mg"},{"bike_id":"466b05bf-6321-4f1e-995e-ec7d67169935","system_id":"levelo_inurba_marseille","lat":43.26555,"lon":5.37289,"is_reserved":false,"is_disabled":false,"rental_uris":{"android":"levelo://app?vid=466b05bf-6321-4f1e-995e-ec7d67169935","ios":"levelo://app?vid=466b05bf-6321-4f1e-995e-ec7d67169935"},"vehicle_type_id":"4","last_reported":1750601379,"current_range_meters":13600,"station_id":"ce4bhg12rcd13ifvqf70","pricing_plan_id":"cebpf4jnsgd1na2vs0mg"},{"bike_id":"3d9cb31e-3600-4f24-b4dc-9e2d1a3fc341","system_id":"levelo_inurba_marseille","lat":43.26197,"lon":5.37455,"is_reserved":false,"is_disabled":false,"rental_uris":{"android":"levelo://app?vid=3d9cb31e-3600-4f24-b4dc-9e2d1a3fc341","ios":"levelo://app?vid=3d9cb31e-3600-4f24-b4dc-9e2d1a3fc341"},"vehicle_type_id":"4","last_reported":1750601379,"current_range_meters":13600,"station_id":"ce4bhgp2rcd13ifvqfc0","pricing_plan_id":"cebpf4jnsgd1na2vs0mg"},{"bike_id":"5817c670-80c2-4844-a196-1386c955daa4","system_id":"levelo_inurba_marseille","lat":43.25507,"lon":5.3765,"is_reserved":false,"is_disabled":false,"rental_uris":{"android":"levelo://app?vid=5817c670-80c2-4844-a196-1386c955daa4","ios":"levelo://app?vid=5817c670-80c2-4844-a196-1386c955daa4"},"vehicle_type_id":"4","last_reported":1750601379,"current_range_meters":13600,"station_id":"ce4bhh12rcd13ifvqff0","pricing_plan_id":"cebpf4jnsgd1na2vs0mg"},{"bike_id":"c6ce529e-50db-43ac-9727-6dd531cecf53","system_id":"levelo_inurba_marseille","lat":43.23158,"lon":5.43704,"is_reserved":false,"is_disabled":false,"rental_uris":{"android":"levelo://app?vid=c6ce529e-50db-43ac-9727-6dd531cecf53","ios":"levelo://app?vid=c6ce529e-50db-43ac-9727-6dd531cecf53"},"vehicle_type_id":"4","last_reported":1750601379,"current_range_meters":13600,"station_id":"ce4bhmp2rcd13ifvqgog","pricing_plan_id":"cebpf4jnsgd1na2vs0mg"},{"bike_id":"ac672664-2bcb-4fee-82c4-756f19f6e113","system_id":"levelo_inurba_marseille","lat":43.28171,"lon":5.42672,"is_reserved":false,"is_disabled":false,"rental_uris":{"android":"levelo://app?vid=ac672664-2bcb-4fee-82c4-756f19f6e113","ios":"levelo://app?vid=ac672664-2bcb-4fee-82c4-756f19f6e113"},"vehicle_type_id":"4","last_reported":1750601379,"current_range_meters":13600,"station_id":"ce4bhnh2rcd13ifvqgug","pricing_plan_id":"cebpf4jnsgd1na2vs0mg"},{"bike_id":"fc1701fb-c8d2-4e92-b4e7-64fbd1db5917","system_id":"levelo_inurba_marseille","lat":43.325432,"lon":5.414288,"is_reserved":false,"is_disabled":false,"rental_uris":{"android":"levelo://app?vid=fc1701fb-c8d2-4e92-b4e7-64fbd1db5917","ios":"levelo://app?vid=fc1701fb-c8d2-4e92-b4e7-64fbd1db5917"},"vehicle_type_id":"4","last_reported":1750601379,"current_range_meters":13600,"station_id":"ce4bhq12rcd13ifvqhhg","pricing_plan_id":"cebpf4jnsgd1na2vs0mg"},{"bike_id":"dee38bf7-052a-44ff-8d9b-2ef73b99dcfa","system_id":"levelo_inurba_marseille","lat":43.25497,"lon":5.37653,"is_reserved":false,"is_disabled":false,"rental_uris":{"android":"levelo://app?vid=dee38bf7-052a-44ff-8d9b-2ef73b99dcfa","ios":"levelo://app?vid=dee38bf7-052a-44ff-8d9b-2ef73b99dcfa"},"vehicle_type_id":"4","last_reported":1750601379,"current_range_meters":14000,"station_id":"ce4bhh12rcd13ifvqff0","pricing_plan_id":"cebpf4jnsgd1na2vs0mg"},{"bike_id":"b557ac4e-7c35-4c68-ac5e-24c2c13cbf6d","system_id":"levelo_inurba_marseille","lat":43.25113,"lon":5.40343,"is_reserved":false,"is_disabled":false,"rental_uris":{"android":"levelo://app?vid=b557ac4e-7c35-4c68-ac5e-24c2c13cbf6d","ios":"levelo://app?vid=b557ac4e-7c35-4c68-ac5e-24c2c13cbf6d"},"vehicle_type_id":"4","last_reported":1750601379,"current_range_meters":14000,"station_id":"ce4bhlh2rcd13ifvqgig","pricing_plan_id":"cebpf4jnsgd1na2vs0mg"},{"bike_id":"af8e30cc-284f-45ce-8163-141354b935c5","system_id":"levelo_inurba_marseille","lat":43.31887,"lon":5.40737,"is_reserved":false,"is_disabled":false,"rental_uris":{"android":"levelo://app?vid=af8e30cc-284f-45ce-8163-141354b935c5","ios":"levelo://app?vid=af8e30cc-284f-45ce-8163-141354b935c5"},"vehicle_type_id":"4","last_reported":1750601379,"current_range_meters":14000,"station_id":"ce4bhq12rcd13ifvqhig","pricing_plan_id":"cebpf4jnsgd1na2vs0mg"},{"bike_id":"802c5b7f-fa99-4f48-a365-a322752f6996","system_id":"levelo_inurba_marseille","lat":43.23198,"lon":5.35554,"is_reserved":false,"is_disabled":false,"rental_uris":{"android":"levelo://app?vid=802c5b7f-fa99-4f48-a365-a322752f6996","ios":"levelo://app?vid=802c5b7f-fa99-4f48-a365-a322752f6996"},"vehicle_type_id":"4","last_reported":1750601379,"current_range_meters":14000,"station_id":"ce4bhu92rcd13ifvqi70","pricing_plan_id":"cebpf4jnsgd1na2vs0mg"},{"bike_id":"f10e38ce-c08a-4001-873a-ec3e8846285a","system_id":"levelo_inurba_marseille","lat":43.329,"lon":5.38063,"is_reserved":false,"is_disabled":false,"rental_uris":{"android":"levelo://app?vid=f10e38ce-c08a-4001-873a-ec3e8846285a","ios":"levelo://app?vid=f10e38ce-c08a-4001-873a-ec3e8846285a"},"vehicle_type_id":"4","last_reported":1750601379,"current_range_meters":14400,"station_id":"","pricing_plan_id":"cebpf4jnsgd1na2vs0mg"},{"bike_id":"41147ef4-8dc8-4dd0-9239-5b4289f4ad35","system_id":"levelo_inurba_marseille","lat":43.23962,"lon":5.36635,"is_reserved":false,"is_disabled":false,"rental_uris":{"android":"levelo://app?vid=41147ef4-8dc8-4dd0-9239-5b4289f4ad35","ios":"levelo://app?vid=41147ef4-8dc8-4dd0-9239-5b4289f4ad35"},"vehicle_type_id":"4","last_reported":1750601379,"current_range_meters":14400,"station_id":"ce4bhi12rcd13ifvqfp0","pricing_plan_id":"cebpf4jnsgd1na2vs0mg"},{"bike_id":"f21b3f46-ed1c-4a2d-8be3-aad894af421c","system_id":"levelo_inurba_marseille","lat":43.231508,"lon":5.437226,"is_reserved":false,"is_disabled":false,"rental_uris":{"android":"levelo://app?vid=f21b3f46-ed1c-4a2d-8be3-aad894af421c","ios":"levelo://app?vid=f21b3f46-ed1c-4a2d-8be3-aad894af421c"},"vehicle_type_id":"4","last_reported":1750601379,"current_range_meters":14400,"station_id":"ce4bhmp2rcd13ifvqgog","pricing_plan_id":"cebpf4jnsgd1na2vs0mg"},{"bike_id":"301ca1de-5ab6-40c8-802e-4abec08c6c2d","system_id":"levelo_inurba_marseille","lat":43.28163,"lon":5.4267,"is_reserved":false,"is_disabled":false,"rental_uris":{"android":"levelo://app?vid=301ca1de-5ab6-40c8-802e-4abec08c6c2d","ios":"levelo://app?vid=301ca1de-5ab6-40c8-802e-4abec08c6c2d"},"vehicle_type_id":"4","last_reported":1750601379,"current_range_meters":14400,"station_id":"ce4bhnh2rcd13ifvqgug","pricing_plan_id":"cebpf4jnsgd1na2vs0mg"},{"bike_id":"7b6937df-9911-4114-85be-7284cf1e38fb","system_id":"levelo_inurba_marseille","lat":43.31371,"lon":5.38507,"is_reserved":false,"is_disabled":false,"rental_uris":{"android":"levelo://app?vid=7b6937df-9911-4114-85be-7284cf1e38fb","ios":"levelo://app?vid=7b6937df-9911-4114-85be-7284cf1e38fb"},"vehicle_type_id":"4","last_reported":1750601379,"current_range_meters":14800,"station_id":"ce4bgt92rcd13ifvqcf0","pricing_plan_id":"cebpf4jnsgd1na2vs0mg"},{"bike_id":"a1f6a6f5-912b-4b03-b917-cd4d1fdab5c3","system_id":"levelo_inurba_marseille","lat":43.241691,"lon":5.364047,"is_reserved":false,"is_disabled":false,"rental_uris":{"android":"levelo://app?vid=a1f6a6f5-912b-4b03-b917-cd4d1fdab5c3","ios":"levelo://app?vid=a1f6a6f5-912b-4b03-b917-cd4d1fdab5c3"},"vehicle_type_id":"4","last_reported":1750601379,"current_range_meters":14800,"station_id":"cpo36qri1sfpv3e86is0","pricing_plan_id":"cebpf4jnsgd1na2vs0mg"},{"bike_id":"70764641-799a-4261-99bd-903918c1b74a","system_id":"levelo_inurba_marseille","lat":43.32891,"lon":5.38377,"is_reserved":false,"is_disabled":false,"rental_uris":{"android":"levelo://app?vid=70764641-799a-4261-99bd-903918c1b74a","ios":"levelo://app?vid=70764641-799a-4261-99bd-903918c1b74a"},"vehicle_type_id":"4","last_reported":1750601379,"current_range_meters":15200,"station_id":"","pricing_plan_id":"cebpf4jnsgd1na2vs0mg"},{"bike_id":"1c00ed5c-d23b-4f3b-b478-c16a1e956047","system_id":"levelo_inurba_marseille","lat":43.25528,"lon":5.40958,"is_reserved":false,"is_disabled":false,"rental_uris":{"android":"levelo://app?vid=1c00ed5c-d23b-4f3b-b478-c16a1e956047","ios":"levelo://app?vid=1c00ed5c-d23b-4f3b-b478-c16a1e956047"},"vehicle_type_id":"4","last_reported":1750601379,"current_range_meters":15200,"station_id":"","pricing_plan_id":"cebpf4jnsgd1na2vs0mg"},{"bike_id":"1fe2bcb3-1581-44e1-a2c5-8e1131560c90","system_id":"levelo_inurba_marseille","lat":43.28409,"lon":5.35,"is_reserved":false,"is_disabled":false,"rental_uris":{"android":"levelo://app?vid=1fe2bcb3-1581-44e1-a2c5-8e1131560c90","ios":"levelo://app?vid=1fe2bcb3-1581-44e1-a2c5-8e1131560c90"},"vehicle_type_id":"4","last_reported":1750601379,"current_range_meters":15200,"station_id":"ce4bhbh2rcd13ifvqepg","pricing_plan_id":"cebpf4jnsgd1na2vs0mg"},{"bike_id":"e5b241b5-a7a5-4792-b8e1-f0dddc8293c0","system_id":"levelo_inurba_marseille","lat":43.25006,"lon":5.38925,"is_reserved":false,"is_disabled":false,"rental_uris":{"android":"levelo://app?vid=e5b241b5-a7a5-4792-b8e1-f0dddc8293c0","ios":"levelo://app?vid=e5b241b5-a7a5-4792-b8e1-f0dddc8293c0"},"vehicle_type_id":"4","last_reported":1750601379,"current_range_meters":15200,"station_id":"ce4bhgp2rcd13ifvqfd0","pricing_plan_id":"cebpf4jnsgd1na2vs0mg"},{"bike_id":"fa245547-7507-4318-b002-258a9c113acd","system_id":"levelo_inurba_marseille","lat":43.24665,"lon":5.38156,"is_reserved":false,"is_disabled":false,"rental_uris":{"android":"levelo://app?vid=fa245547-7507-4318-b002-258a9c113acd","ios":"levelo://app?vid=fa245547-7507-4318-b002-258a9c113acd"},"vehicle_type_id":"4","last_reported":1750601379,"current_range_meters":15200,"station_id":"ce4bhih2rcd13ifvqfr0","pricing_plan_id":"cebpf4jnsgd1na2vs0mg"},{"bike_id":"e8ef6de9-c15f-4847-9906-498958079494","system_id":"levelo_inurba_marseille","lat":43.29003,"lon":5.356283,"is_reserved":false,"is_disabled":false,"rental_uris":{"android":"levelo://app?vid=e8ef6de9-c15f-4847-9906-498958079494","ios":"levelo://app?vid=e8ef6de9-c15f-4847-9906-498958079494"},"vehicle_type_id":"4","last_reported":1750601379,"current_range_meters":16000,"station_id":"ce4bhb92rcd13ifvqen0","pricing_plan_id":"cebpf4jnsgd1na2vs0mg"},{"bike_id":"b97e40a1-c8a9-43e2-9a83-11432e8c1372","system_id":"levelo_inurba_marseille","lat":43.2514,"lon":5.40333,"is_reserved":false,"is_disabled":false,"rental_uris":{"android":"levelo://app?vid=b97e40a1-c8a9-43e2-9a83-11432e8c1372","ios":"levelo://app?vid=b97e40a1-c8a9-43e2-9a83-11432e8c1372"},"vehicle_type_id":"4","last_reported":1750601379,"current_range_meters":16000,"station_id":"ce4bhlh2rcd13ifvqgig","pricing_plan_id":"cebpf4jnsgd1na2vs0mg"},{"bike_id":"36e20b5b-ed57-467b-8ab0-f4d8a7a2b602","system_id":"levelo_inurba_marseille","lat":43.262372,"lon":5.404686,"is_reserved":false,"is_disabled":false,"rental_uris":{"android":"levelo://app?vid=36e20b5b-ed57-467b-8ab0-f4d8a7a2b602","ios":"levelo://app?vid=36e20b5b-ed57-467b-8ab0-f4d8a7a2b602"},"vehicle_type_id":"4","last_reported":1750601379,"current_range_meters":16000,"station_id":"ce4bhmh2rcd13ifvqgmg","pricing_plan_id":"cebpf4jnsgd1na2vs0mg"},{"bike_id":"97949f71-f9b1-406c-a366-15f981639631","system_id":"levelo_inurba_marseille","lat":43.33631,"lon":5.4104,"is_reserved":false,"is_disabled":false,"rental_uris":{"android":"levelo://app?vid=97949f71-f9b1-406c-a366-15f981639631","ios":"levelo://app?vid=97949f71-f9b1-406c-a366-15f981639631"},"vehicle_type_id":"4","last_reported":1750601379,"current_range_meters":16000,"station_id":"ce4bhqh2rcd13ifvqhmg","pricing_plan_id":"cebpf4jnsgd1na2vs0mg"},{"bike_id":"9363287f-6df2-4a2e-9407-f36e5156253d","system_id":"levelo_inurba_marseille","lat":43.24166,"lon":5.36397,"is_reserved":false,"is_disabled":false,"rental_uris":{"android":"levelo://app?vid=9363287f-6df2-4a2e-9407-f36e5156253d","ios":"levelo://app?vid=9363287f-6df2-4a2e-9407-f36e5156253d"},"vehicle_type_id":"4","last_reported":1750601379,"current_range_meters":16000,"station_id":"cpo36qri1sfpv3e86is0","pricing_plan_id":"cebpf4jnsgd1na2vs0mg"},{"bike_id":"c39e11e2-7441-4b60-9e7e-6a100678ea3e","system_id":"levelo_inurba_marseille","lat":43.21763,"lon":5.34602,"is_reserved":false,"is_disabled":false,"rental_uris":{"android":"levelo://app?vid=c39e11e2-7441-4b60-9e7e-6a100678ea3e","ios":"levelo://app?vid=c39e11e2-7441-4b60-9e7e-6a100678ea3e"},"vehicle_type_id":"4","last_reported":1750601379,"current_range_meters":16000,"station_id":"st_cvj6r9ubvosntc0bgbag","pricing_plan_id":"cebpf4jnsgd1na2vs0mg"},{"bike_id":"f4f79626-6189-4461-8ee6-5f825c69973d","system_id":"levelo_inurba_marseille","lat":43.217438,"lon":5.34608,"is_reserved":false,"is_disabled":false,"rental_uris":{"android":"levelo://app?vid=f4f79626-6189-4461-8ee6-5f825c69973d","ios":"levelo://app?vid=f4f79626-6189-4461-8ee6-5f825c69973d"},"vehicle_type_id":"4","last_reported":1750601379,"current_range_meters":16000,"station_id":"st_cvj6r9ubvosntc0bgbag","pricing_plan_id":"cebpf4jnsgd1na2vs0mg"},{"bike_id":"cfd7d34e-81c9-4b41-9687-525714073580","system_id":"levelo_inurba_marseille","lat":43.32489,"lon":5.38661,"is_reserved":false,"is_disabled":false,"rental_uris":{"android":"levelo://app?vid=cfd7d34e-81c9-4b41-9687-525714073580","ios":"levelo://app?vid=cfd7d34e-81c9-4b41-9687-525714073580"},"vehicle_type_id":"4","last_reported":1750601379,"current_range_meters":16400,"station_id":"","pricing_plan_id":"cebpf4jnsgd1na2vs0mg"},{"bike_id":"deb33a22-c71e-46e8-8444-837a38fbff09","system_id":"levelo_inurba_marseille","lat":43.262085,"lon":5.374406,"is_reserved":false,"is_disabled":false,"rental_uris":{"android":"levelo://app?vid=deb33a22-c71e-46e8-8444-837a38fbff09","ios":"levelo://app?vid=deb33a22-c71e-46e8-8444-837a38fbff09"},"vehicle_type_id":"4","last_reported":1750601379,"current_range_meters":16400,"station_id":"ce4bhgp2rcd13ifvqfc0","pricing_plan_id":"cebpf4jnsgd1na2vs0mg"},{"bike_id":"8607fd9f-da94-4744-b97a-8997398d4989","system_id":"levelo_inurba_marseille","lat":43.24702,"lon":5.38166,"is_reserved":false,"is_disabled":false,"rental_uris":{"android":"levelo://app?vid=8607fd9f-da94-4744-b97a-8997398d4989","ios":"levelo://app?vid=8607fd9f-da94-4744-b97a-8997398d4989"},"vehicle_type_id":"4","last_reported":1750601379,"current_range_meters":16400,"station_id":"ce4bhih2rcd13ifvqfr0","pricing_plan_id":"cebpf4jnsgd1na2vs0mg"},{"bike_id":"d8c823da-174d-451e-ba75-f5d5106bae3d","system_id":"levelo_inurba_marseille","lat":43.262271,"lon":5.40465,"is_reserved":false,"is_disabled":false,"rental_uris":{"android":"levelo://app?vid=d8c823da-174d-451e-ba75-f5d5106bae3d","ios":"levelo://app?vid=d8c823da-174d-451e-ba75-f5d5106bae3d"},"vehicle_type_id":"4","last_reported":1750601379,"current_range_meters":16800,"station_id":"ce4bhmh2rcd13ifvqgmg","pricing_plan_id":"cebpf4jnsgd1na2vs0mg"},{"bike_id":"bb68df3f-135c-4f6b-b658-a61885a9abd7","system_id":"levelo_inurba_marseille","lat":43.30812,"lon":5.4355,"is_reserved":false,"is_disabled":false,"rental_uris":{"android":"levelo://app?vid=bb68df3f-135c-4f6b-b658-a61885a9abd7","ios":"levelo://app?vid=bb68df3f-135c-4f6b-b658-a61885a9abd7"},"vehicle_type_id":"4","last_reported":1750601379,"current_range_meters":16800,"station_id":"ce4bhph2rcd13ifvqheg","pricing_plan_id":"cebpf4jnsgd1na2vs0mg"},{"bike_id":"f3bcc310-a280-4745-9f55-a0e6260b0cbd","system_id":"levelo_inurba_marseille","lat":43.21759,"lon":5.34634,"is_reserved":false,"is_disabled":false,"rental_uris":{"android":"levelo://app?vid=f3bcc310-a280-4745-9f55-a0e6260b0cbd","ios":"levelo://app?vid=f3bcc310-a280-4745-9f55-a0e6260b0cbd"},"vehicle_type_id":"4","last_reported":1750601379,"current_range_meters":16800,"station_id":"st_cvj6r9ubvosntc0bgbag","pricing_plan_id":"cebpf4jnsgd1na2vs0mg"},{"bike_id":"e481a050-18f9-4c11-b780-55255c113af8","system_id":"levelo_inurba_marseille","lat":43.284293,"lon":5.349762,"is_reserved":false,"is_disabled":false,"rental_uris":{"android":"levelo://app?vid=e481a050-18f9-4c11-b780-55255c113af8","ios":"levelo://app?vid=e481a050-18f9-4c11-b780-55255c113af8"},"vehicle_type_id":"4","last_reported":1750601379,"current_range_meters":17200,"station_id":"ce4bhbh2rcd13ifvqepg","pricing_plan_id":"cebpf4jnsgd1na2vs0mg"},{"bike_id":"14c99257-8427-4442-aa65-f7263bfb8ec8","system_id":"levelo_inurba_marseille","lat":43.25503,"lon":5.37648,"is_reserved":false,"is_disabled":false,"rental_uris":{"android":"levelo://app?vid=14c99257-8427-4442-aa65-f7263bfb8ec8","ios":"levelo://app?vid=14c99257-8427-4442-aa65-f7263bfb8ec8"},"vehicle_type_id":"4","last_reported":1750601379,"current_range_meters":17200,"station_id":"ce4bhh12rcd13ifvqff0","pricing_plan_id":"cebpf4jnsgd1na2vs0mg"},{"bike_id":"d7123836-6839-441a-908e-92ab766b1bc0","system_id":"levelo_inurba_marseille","lat":43.33598,"lon":5.40978,"is_reserved":false,"is_disabled":false,"rental_uris":{"android":"levelo://app?vid=d7123836-6839-441a-908e-92ab766b1bc0","ios":"levelo://app?vid=d7123836-6839-441a-908e-92ab766b1bc0"},"vehicle_type_id":"4","last_reported":1750601379,"current_range_meters":17200,"station_id":"ce4bhqh2rcd13ifvqhmg","pricing_plan_id":"cebpf4jnsgd1na2vs0mg"},{"bike_id":"d6445367-ef97-4d3d-8a6d-b8b0bfc28181","system_id":"levelo_inurba_marseille","lat":43.2417,"lon":5.36396,"is_reserved":false,"is_disabled":false,"rental_uris":{"android":"levelo://app?vid=d6445367-ef97-4d3d-8a6d-b8b0bfc28181","ios":"levelo://app?vid=d6445367-ef97-4d3d-8a6d-b8b0bfc28181"},"vehicle_type_id":"4","last_reported":1750601379,"current_range_meters":17200,"station_id":"cpo36qri1sfpv3e86is0","pricing_plan_id":"cebpf4jnsgd1na2vs0mg"},{"bike_id":"a7858566-d658-41ac-b103-479c32c0de8f","system_id":"levelo_inurba_marseille","lat":43.2119,"lon":5.35079,"is_reserved":false,"is_disabled":false,"rental_uris":{"android":"levelo://app?vid=a7858566-d658-41ac-b103-479c32c0de8f","ios":"levelo://app?vid=a7858566-d658-41ac-b103-479c32c0de8f"},"vehicle_type_id":"4","last_reported":1750601379,"current_range_meters":17200,"station_id":"st_cvj6sg6p6f1abm77japg","pricing_plan_id":"cebpf4jnsgd1na2vs0mg"},{"bike_id":"8de85499-8599-4d52-8200-922ced65e53e","system_id":"levelo_inurba_marseille","lat":43.21195,"lon":5.35081,"is_reserved":false,"is_disabled":false,"rental_uris":{"android":"levelo://app?vid=8de85499-8599-4d52-8200-922ced65e53e","ios":"levelo://app?vid=8de85499-8599-4d52-8200-922ced65e53e"},"vehicle_type_id":"4","last_reported":1750601379,"current_range_meters":17200,"station_id":"st_cvj6sg6p6f1abm77japg","pricing_plan_id":"cebpf4jnsgd1na2vs0mg"},{"bike_id":"247de6d6-464f-4280-a501-020c0eabf0c5","system_id":"levelo_inurba_marseille","lat":43.24391,"lon":5.37062,"is_reserved":false,"is_disabled":false,"rental_uris":{"android":"levelo://app?vid=247de6d6-464f-4280-a501-020c0eabf0c5","ios":"levelo://app?vid=247de6d6-464f-4280-a501-020c0eabf0c5"},"vehicle_type_id":"4","last_reported":1750601379,"current_range_meters":17600,"station_id":"ce4bhhh2rcd13ifvqfk0","pricing_plan_id":"cebpf4jnsgd1na2vs0mg"},{"bike_id":"8a101407-b05c-414b-8bbf-588cd11760c1","system_id":"levelo_inurba_marseille","lat":43.25823,"lon":5.39432,"is_reserved":false,"is_disabled":false,"rental_uris":{"android":"levelo://app?vid=8a101407-b05c-414b-8bbf-588cd11760c1","ios":"levelo://app?vid=8a101407-b05c-414b-8bbf-588cd11760c1"},"vehicle_type_id":"4","last_reported":1750601379,"current_range_meters":17600,"station_id":"ce4bhip2rcd13ifvqft0","pricing_plan_id":"cebpf4jnsgd1na2vs0mg"},{"bike_id":"56ae7983-8a3b-4349-b166-789921242c31","system_id":"levelo_inurba_marseille","lat":43.21196,"lon":5.35077,"is_reserved":false,"is_disabled":false,"rental_uris":{"android":"levelo://app?vid=56ae7983-8a3b-4349-b166-789921242c31","ios":"levelo://app?vid=56ae7983-8a3b-4349-b166-789921242c31"},"vehicle_type_id":"4","last_reported":1750601379,"current_range_meters":17600,"station_id":"st_cvj6sg6p6f1abm77japg","pricing_plan_id":"cebpf4jnsgd1na2vs0mg"},{"bike_id":"9e71aa2b-d7c7-4efc-8ae0-81f35d2f3182","system_id":"levelo_inurba_marseille","lat":43.34196,"lon":5.40844,"is_reserved":false,"is_disabled":false,"rental_uris":{"android":"levelo://app?vid=9e71aa2b-d7c7-4efc-8ae0-81f35d2f3182","ios":"levelo://app?vid=9e71aa2b-d7c7-4efc-8ae0-81f35d2f3182"},"vehicle_type_id":"4","last_reported":1750601379,"current_range_meters":18000,"station_id":"","pricing_plan_id":"cebpf4jnsgd1na2vs0mg"},{"bike_id":"d27ad868-f379-4315-8a69-cd5fa5a3e786","system_id":"levelo_inurba_marseille","lat":43.29841,"lon":5.36269,"is_reserved":false,"is_disabled":false,"rental_uris":{"android":"levelo://app?vid=d27ad868-f379-4315-8a69-cd5fa5a3e786","ios":"levelo://app?vid=d27ad868-f379-4315-8a69-cd5fa5a3e786"},"vehicle_type_id":"4","last_reported":1750601379,"current_range_meters":18000,"station_id":"ce4bgpp2rcd13ifvqc3g","pricing_plan_id":"cebpf4jnsgd1na2vs0mg"},{"bike_id":"251cb968-9107-4e75-934d-6c20cea3ccef","system_id":"levelo_inurba_marseille","lat":43.28428,"lon":5.34985,"is_reserved":false,"is_disabled":false,"rental_uris":{"android":"levelo://app?vid=251cb968-9107-4e75-934d-6c20cea3ccef","ios":"levelo://app?vid=251cb968-9107-4e75-934d-6c20cea3ccef"},"vehicle_type_id":"4","last_reported":1750601379,"current_range_meters":18000,"station_id":"ce4bhbh2rcd13ifvqepg","pricing_plan_id":"cebpf4jnsgd1na2vs0mg"},{"bike_id":"1634ba79-1e0f-402e-8615-238d7b091789","system_id":"levelo_inurba_marseille","lat":43.255,"lon":5.376486,"is_reserved":false,"is_disabled":false,"rental_uris":{"android":"levelo://app?vid=1634ba79-1e0f-402e-8615-238d7b091789","ios":"levelo://app?vid=1634ba79-1e0f-402e-8615-238d7b091789"},"vehicle_type_id":"4","last_reported":1750601379,"current_range_meters":18000,"station_id":"ce4bhh12rcd13ifvqff0","pricing_plan_id":"cebpf4jnsgd1na2vs0mg"},{"bike_id":"8ef031ff-d27f-4af4-a29b-cd944b337ade","system_id":"levelo_inurba_marseille","lat":43.23961,"lon":5.36635,"is_reserved":false,"is_disabled":false,"rental_uris":{"android":"levelo://app?vid=8ef031ff-d27f-4af4-a29b-cd944b337ade","ios":"levelo://app?vid=8ef031ff-d27f-4af4-a29b-cd944b337ade"},"vehicle_type_id":"4","last_reported":1750601379,"current_range_meters":18000,"station_id":"ce4bhi12rcd13ifvqfp0","pricing_plan_id":"cebpf4jnsgd1na2vs0mg"},{"bike_id":"92407afe-2e73-42e5-9701-169e66be890b","system_id":"levelo_inurba_marseille","lat":43.25827,"lon":5.39434,"is_reserved":false,"is_disabled":false,"rental_uris":{"android":"levelo://app?vid=92407afe-2e73-42e5-9701-169e66be890b","ios":"levelo://app?vid=92407afe-2e73-42e5-9701-169e66be890b"},"vehicle_type_id":"4","last_reported":1750601379,"current_range_meters":18000,"station_id":"ce4bhip2rcd13ifvqft0","pricing_plan_id":"cebpf4jnsgd1na2vs0mg"},{"bike_id":"0bf40f02-a305-40e9-8f74-4d58baf152f5","system_id":"levelo_inurba_marseille","lat":43.23154,"lon":5.437059,"is_reserved":false,"is_disabled":false,"rental_uris":{"android":"levelo://app?vid=0bf40f02-a305-40e9-8f74-4d58baf152f5","ios":"levelo://app?vid=0bf40f02-a305-40e9-8f74-4d58baf152f5"},"vehicle_type_id":"4","last_reported":1750601379,"current_range_meters":18800,"station_id":"","pricing_plan_id":"cebpf4jnsgd1na2vs0mg"},{"bike_id":"117735fe-cb0b-4e71-b2b8-1110e7df8364","system_id":"levelo_inurba_marseille","lat":43.29582,"lon":5.36741,"is_reserved":false,"is_disabled":false,"rental_uris":{"android":"levelo://app?vid=117735fe-cb0b-4e71-b2b8-1110e7df8364","ios":"levelo://app?vid=117735fe-cb0b-4e71-b2b8-1110e7df8364"},"vehicle_type_id":"4","last_reported":1750601379,"current_range_meters":18800,"station_id":"ce4bgph2rcd13ifvqc2g","pricing_plan_id":"cebpf4jnsgd1na2vs0mg"},{"bike_id":"573714aa-8459-4097-bd28-287de04d58fa","system_id":"levelo_inurba_marseille","lat":43.33627,"lon":5.41003,"is_reserved":false,"is_disabled":false,"rental_uris":{"android":"levelo://app?vid=573714aa-8459-4097-bd28-287de04d58fa","ios":"levelo://app?vid=573714aa-8459-4097-bd28-287de04d58fa"},"vehicle_type_id":"4","last_reported":1750601379,"current_range_meters":18800,"station_id":"ce4bhqh2rcd13ifvqhmg","pricing_plan_id":"cebpf4jnsgd1na2vs0mg"},{"bike_id":"c1a8e226-f1a8-4f78-8085-80d368102749","system_id":"levelo_inurba_marseille","lat":43.24162,"lon":5.36398,"is_reserved":false,"is_disabled":false,"rental_uris":{"android":"levelo://app?vid=c1a8e226-f1a8-4f78-8085-80d368102749","ios":"levelo://app?vid=c1a8e226-f1a8-4f78-8085-80d368102749"},"vehicle_type_id":"4","last_reported":1750601379,"current_range_meters":18800,"station_id":"cpo36qri1sfpv3e86is0","pricing_plan_id":"cebpf4jnsgd1na2vs0mg"},{"bike_id":"5d3c87f6-c3d1-4103-a580-84a4f3bfe550","system_id":"levelo_inurba_marseille","lat":43.26566,"lon":5.37267,"is_reserved":false,"is_disabled":false,"rental_uris":{"android":"levelo://app?vid=5d3c87f6-c3d1-4103-a580-84a4f3bfe550","ios":"levelo://app?vid=5d3c87f6-c3d1-4103-a580-84a4f3bfe550"},"vehicle_type_id":"4","last_reported":1750601379,"current_range_meters":19200,"station_id":"ce4bhg12rcd13ifvqf70","pricing_plan_id":"cebpf4jnsgd1na2vs0mg"},{"bike_id":"af3d763d-480a-4972-a3a8-34f78ee85f3b","system_id":"levelo_inurba_marseille","lat":43.25593,"lon":5.38244,"is_reserved":false,"is_disabled":false,"rental_uris":{"android":"levelo://app?vid=af3d763d-480a-4972-a3a8-34f78ee85f3b","ios":"levelo://app?vid=af3d763d-480a-4972-a3a8-34f78ee85f3b"},"vehicle_type_id":"4","last_reported":1750601379,"current_range_meters":19200,"station_id":"ce4bhih2rcd13ifvqfs0","pricing_plan_id":"cebpf4jnsgd1na2vs0mg"},{"bike_id":"e3c98ea9-5ede-4f57-8f11-2e25041a9538","system_id":"levelo_inurba_marseille","lat":43.29896,"lon":5.43663,"is_reserved":false,"is_disabled":false,"rental_uris":{"android":"levelo://app?vid=e3c98ea9-5ede-4f57-8f11-2e25041a9538","ios":"levelo://app?vid=e3c98ea9-5ede-4f57-8f11-2e25041a9538"},"vehicle_type_id":"4","last_reported":1750601379,"current_range_meters":19200,"station_id":"ce4bhpp2rcd13ifvqhfg","pricing_plan_id":"cebpf4jnsgd1na2vs0mg"},{"bike_id":"0bd80610-51a3-4160-8e25-c5bcce33f817","system_id":"levelo_inurba_marseille","lat":43.31105,"lon":5.3776,"is_reserved":false,"is_disabled":false,"rental_uris":{"android":"levelo://app?vid=0bd80610-51a3-4160-8e25-c5bcce33f817","ios":"levelo://app?vid=0bd80610-51a3-4160-8e25-c5bcce33f817"},"vehicle_type_id":"4","last_reported":1750601379,"current_range_meters":19600,"station_id":"ce4bgt92rcd13ifvqcg0","pricing_plan_id":"cebpf4jnsgd1na2vs0mg"},{"bike_id":"3f5feefb-afac-4fae-bf96-2312f50939a4","system_id":"levelo_inurba_marseille","lat":43.21189,"lon":5.35087,"is_reserved":false,"is_disabled":false,"rental_uris":{"android":"levelo://app?vid=3f5feefb-afac-4fae-bf96-2312f50939a4","ios":"levelo://app?vid=3f5feefb-afac-4fae-bf96-2312f50939a4"},"vehicle_type_id":"4","last_reported":1750601379,"current_range_meters":19600,"station_id":"st_cvj6sg6p6f1abm77japg","pricing_plan_id":"cebpf4jnsgd1na2vs0mg"},{"bike_id":"ad2b24c7-c559-4c8d-8ff7-225b0f1f9c9b","system_id":"levelo_inurba_marseille","lat":43.295472,"lon":5.422982,"is_reserved":false,"is_disabled":false,"rental_uris":{"android":"levelo://app?vid=ad2b24c7-c559-4c8d-8ff7-225b0f1f9c9b","ios":"levelo://app?vid=ad2b24c7-c559-4c8d-8ff7-225b0f1f9c9b"},"vehicle_type_id":"4","last_reported":1750601379,"current_range_meters":20000,"station_id":"","pricing_plan_id":"cebpf4jnsgd1na2vs0mg"},{"bike_id":"7f4d8d3b-910a-46cb-a6ed-9f849e4e085d","system_id":"levelo_inurba_marseille","lat":43.3303,"lon":5.38025,"is_reserved":false,"is_disabled":false,"rental_uris":{"android":"levelo://app?vid=7f4d8d3b-910a-46cb-a6ed-9f849e4e085d","ios":"levelo://app?vid=7f4d8d3b-910a-46cb-a6ed-9f849e4e085d"},"vehicle_type_id":"4","last_reported":1750601379,"current_range_meters":20000,"station_id":"","pricing_plan_id":"cebpf4jnsgd1na2vs0mg"},{"bike_id":"d87fcc73-963a-479e-8a55-b8bb71baf2fe","system_id":"levelo_inurba_marseille","lat":43.30813,"lon":5.43555,"is_reserved":false,"is_disabled":false,"rental_uris":{"android":"levelo://app?vid=d87fcc73-963a-479e-8a55-b8bb71baf2fe","ios":"levelo://app?vid=d87fcc73-963a-479e-8a55-b8bb71baf2fe"},"vehicle_type_id":"4","last_reported":1750601379,"current_range_meters":20000,"station_id":"ce4bhph2rcd13ifvqheg","pricing_plan_id":"cebpf4jnsgd1na2vs0mg"},{"bike_id":"d3b4acd1-475d-43e1-bb04-3b5b22c96457","system_id":"levelo_inurba_marseille","lat":43.29898,"lon":5.43675,"is_reserved":false,"is_disabled":false,"rental_uris":{"android":"levelo://app?vid=d3b4acd1-475d-43e1-bb04-3b5b22c96457","ios":"levelo://app?vid=d3b4acd1-475d-43e1-bb04-3b5b22c96457"},"vehicle_type_id":"4","last_reported":1750601379,"current_range_meters":20400,"station_id":"ce4bhpp2rcd13ifvqhfg","pricing_plan_id":"cebpf4jnsgd1na2vs0mg"},{"bike_id":"869d91a6-21a4-4cf1-b287-142fa74043e2","system_id":"levelo_inurba_marseille","lat":43.21755,"lon":5.34604,"is_reserved":false,"is_disabled":false,"rental_uris":{"android":"levelo://app?vid=869d91a6-21a4-4cf1-b287-142fa74043e2","ios":"levelo://app?vid=869d91a6-21a4-4cf1-b287-142fa74043e2"},"vehicle_type_id":"4","last_reported":1750601379,"current_range_meters":20400,"station_id":"st_cvj6r9ubvosntc0bgbag","pricing_plan_id":"cebpf4jnsgd1na2vs0mg"},{"bike_id":"c3b67a3c-755c-43da-b7f2-a4d8a045bf9d","system_id":"levelo_inurba_marseille","lat":43.21182,"lon":5.3506,"is_reserved":false,"is_disabled":false,"rental_uris":{"android":"levelo://app?vid=c3b67a3c-755c-43da-b7f2-a4d8a045bf9d","ios":"levelo://app?vid=c3b67a3c-755c-43da-b7f2-a4d8a045bf9d"},"vehicle_type_id":"4","last_reported":1750601379,"current_range_meters":20400,"station_id":"st_cvj6sg6p6f1abm77japg","pricing_plan_id":"cebpf4jnsgd1na2vs0mg"},{"bike_id":"4f93454d-d7de-45bb-a8ff-e1efc822483f","system_id":"levelo_inurba_marseille","lat":43.21207,"lon":5.35063,"is_reserved":false,"is_disabled":false,"rental_uris":{"android":"levelo://app?vid=4f93454d-d7de-45bb-a8ff-e1efc822483f","ios":"levelo://app?vid=4f93454d-d7de-45bb-a8ff-e1efc822483f"},"vehicle_type_id":"4","last_reported":1750601379,"current_range_meters":20400,"station_id":"st_cvj6sg6p6f1abm77japg","pricing_plan_id":"cebpf4jnsgd1na2vs0mg"},{"bike_id":"ff359b06-e82b-4518-b602-f9c62162a27d","system_id":"levelo_inurba_marseille","lat":43.21183,"lon":5.35075,"is_reserved":false,"is_disabled":false,"rental_uris":{"android":"levelo://app?vid=ff359b06-e82b-4518-b602-f9c62162a27d","ios":"levelo://app?vid=ff359b06-e82b-4518-b602-f9c62162a27d"},"vehicle_type_id":"4","last_reported":1750601379,"current_range_meters":20400,"station_id":"st_cvj6sg6p6f1abm77japg","pricing_plan_id":"cebpf4jnsgd1na2vs0mg"},{"bike_id":"556a37e9-e8e9-467d-8fdd-4449e0c4d857","system_id":"levelo_inurba_marseille","lat":43.28275,"lon":5.35073,"is_reserved":false,"is_disabled":false,"rental_uris":{"android":"levelo://app?vid=556a37e9-e8e9-467d-8fdd-4449e0c4d857","ios":"levelo://app?vid=556a37e9-e8e9-467d-8fdd-4449e0c4d857"},"vehicle_type_id":"4","last_reported":1750601379,"current_range_meters":20800,"station_id":"ce4bhbp2rcd13ifvqerg","pricing_plan_id":"cebpf4jnsgd1na2vs0mg"},{"bike_id":"0783249e-9f70-464a-b769-adb77239d765","system_id":"levelo_inurba_marseille","lat":43.21208,"lon":5.3508,"is_reserved":false,"is_disabled":false,"rental_uris":{"android":"levelo://app?vid=0783249e-9f70-464a-b769-adb77239d765","ios":"levelo://app?vid=0783249e-9f70-464a-b769-adb77239d765"},"vehicle_type_id":"4","last_reported":1750601379,"current_range_meters":20800,"station_id":"st_cvj6sg6p6f1abm77japg","pricing_plan_id":"cebpf4jnsgd1na2vs0mg"},{"bike_id":"dfee5ca5-321b-406a-a1cb-a60e250adc61","system_id":"levelo_inurba_marseille","lat":43.21794,"lon":5.34589,"is_reserved":false,"is_disabled":false,"rental_uris":{"android":"levelo://app?vid=dfee5ca5-321b-406a-a1cb-a60e250adc61","ios":"levelo://app?vid=dfee5ca5-321b-406a-a1cb-a60e250adc61"},"vehicle_type_id":"4","last_reported":1750601379,"current_range_meters":21600,"station_id":"","pricing_plan_id":"cebpf4jnsgd1na2vs0mg"},{"bike_id":"7bd7ab6e-0284-4340-acb8-397b5bd3427c","system_id":"levelo_inurba_marseille","lat":43.32022,"lon":5.36827,"is_reserved":false,"is_disabled":false,"rental_uris":{"android":"levelo://app?vid=7bd7ab6e-0284-4340-acb8-397b5bd3427c","ios":"levelo://app?vid=7bd7ab6e-0284-4340-acb8-397b5bd3427c"},"vehicle_type_id":"4","last_reported":1750601379,"current_range_meters":21600,"station_id":"","pricing_plan_id":"cebpf4jnsgd1na2vs0mg"},{"bike_id":"801c2515-e061-4ec1-b305-97c3a566a070","system_id":"levelo_inurba_marseille","lat":43.2119,"lon":5.35097,"is_reserved":false,"is_disabled":false,"rental_uris":{"android":"levelo://app?vid=801c2515-e061-4ec1-b305-97c3a566a070","ios":"levelo://app?vid=801c2515-e061-4ec1-b305-97c3a566a070"},"vehicle_type_id":"4","last_reported":1750601379,"current_range_meters":21600,"station_id":"st_cvj6sg6p6f1abm77japg","pricing_plan_id":"cebpf4jnsgd1na2vs0mg"},{"bike_id":"dbcf2e4d-0017-4ca6-8d5f-fac8c8bf35b6","system_id":"levelo_inurba_marseille","lat":43.30504,"lon":5.37215,"is_reserved":false,"is_disabled":false,"rental_uris":{"android":"levelo://app?vid=dbcf2e4d-0017-4ca6-8d5f-fac8c8bf35b6","ios":"levelo://app?vid=dbcf2e4d-0017-4ca6-8d5f-fac8c8bf35b6"},"vehicle_type_id":"4","last_reported":1750601379,"current_range_meters":22000,"station_id":"","pricing_plan_id":"cebpf4jnsgd1na2vs0mg"},{"bike_id":"846c5bc6-4e3a-4df1-834a-d9dfcbd713b4","system_id":"levelo_inurba_marseille","lat":43.28419,"lon":5.35003,"is_reserved":false,"is_disabled":false,"rental_uris":{"android":"levelo://app?vid=846c5bc6-4e3a-4df1-834a-d9dfcbd713b4","ios":"levelo://app?vid=846c5bc6-4e3a-4df1-834a-d9dfcbd713b4"},"vehicle_type_id":"4","last_reported":1750601379,"current_range_meters":22000,"station_id":"ce4bhbh2rcd13ifvqepg","pricing_plan_id":"cebpf4jnsgd1na2vs0mg"},{"bike_id":"77729ccb-f9b7-49de-aa3f-c1f6cac6c9de","system_id":"levelo_inurba_marseille","lat":43.2319,"lon":5.35573,"is_reserved":false,"is_disabled":false,"rental_uris":{"android":"levelo://app?vid=77729ccb-f9b7-49de-aa3f-c1f6cac6c9de","ios":"levelo://app?vid=77729ccb-f9b7-49de-aa3f-c1f6cac6c9de"},"vehicle_type_id":"4","last_reported":1750601379,"current_range_meters":22000,"station_id":"ce4bhu92rcd13ifvqi70","pricing_plan_id":"cebpf4jnsgd1na2vs0mg"},{"bike_id":"66fe660e-bbbe-4cd1-b5fb-9344c71cb66e","system_id":"levelo_inurba_marseille","lat":43.21193,"lon":5.35076,"is_reserved":false,"is_disabled":false,"rental_uris":{"android":"levelo://app?vid=66fe660e-bbbe-4cd1-b5fb-9344c71cb66e","ios":"levelo://app?vid=66fe660e-bbbe-4cd1-b5fb-9344c71cb66e"},"vehicle_type_id":"4","last_reported":1750601379,"current_range_meters":22000,"station_id":"st_cvj6sg6p6f1abm77japg","pricing_plan_id":"cebpf4jnsgd1na2vs0mg"},{"bike_id":"787ea272-63ca-42a4-984b-782499e67897","system_id":"levelo_inurba_marseille","lat":43.24395,"lon":5.370557,"is_reserved":false,"is_disabled":false,"rental_uris":{"android":"levelo://app?vid=787ea272-63ca-42a4-984b-782499e67897","ios":"levelo://app?vid=787ea272-63ca-42a4-984b-782499e67897"},"vehicle_type_id":"4","last_reported":1750601379,"current_range_meters":22400,"station_id":"ce4bhhh2rcd13ifvqfk0","pricing_plan_id":"cebpf4jnsgd1na2vs0mg"},{"bike_id":"232ca7d5-c471-4cc6-b1ee-941125969ee7","system_id":"levelo_inurba_marseille","lat":43.2174,"lon":5.346,"is_reserved":false,"is_disabled":false,"rental_uris":{"android":"levelo://app?vid=232ca7d5-c471-4cc6-b1ee-941125969ee7","ios":"levelo://app?vid=232ca7d5-c471-4cc6-b1ee-941125969ee7"},"vehicle_type_id":"4","last_reported":1750601379,"current_range_meters":22400,"station_id":"st_cvj6r9ubvosntc0bgbag","pricing_plan_id":"cebpf4jnsgd1na2vs0mg"},{"bike_id":"48a45d67-615d-4313-afae-c1c8c1dd1118","system_id":"levelo_inurba_marseille","lat":43.32278,"lon":5.38275,"is_reserved":false,"is_disabled":false,"rental_uris":{"android":"levelo://app?vid=48a45d67-615d-4313-afae-c1c8c1dd1118","ios":"levelo://app?vid=48a45d67-615d-4313-afae-c1c8c1dd1118"},"vehicle_type_id":"4","last_reported":1750601379,"current_range_meters":22800,"station_id":"ce4bhr12rcd13ifvqhqg","pricing_plan_id":"cebpf4jnsgd1na2vs0mg"},{"bike_id":"9c1a8857-af7f-4266-9e10-72d6cfa27179","system_id":"levelo_inurba_marseille","lat":43.24167,"lon":5.3645,"is_reserved":false,"is_disabled":false,"rental_uris":{"android":"levelo://app?vid=9c1a8857-af7f-4266-9e10-72d6cfa27179","ios":"levelo://app?vid=9c1a8857-af7f-4266-9e10-72d6cfa27179"},"vehicle_type_id":"4","last_reported":1750601379,"current_range_meters":22800,"station_id":"cpo36qri1sfpv3e86is0","pricing_plan_id":"cebpf4jnsgd1na2vs0mg"},{"bike_id":"0549df17-3226-494c-a658-3597e6e5034f","system_id":"levelo_inurba_marseille","lat":43.21744,"lon":5.34605,"is_reserved":false,"is_disabled":false,"rental_uris":{"android":"levelo://app?vid=0549df17-3226-494c-a658-3597e6e5034f","ios":"levelo://app?vid=0549df17-3226-494c-a658-3597e6e5034f"},"vehicle_type_id":"4","last_reported":1750601379,"current_range_meters":22800,"station_id":"st_cvj6r9ubvosntc0bgbag","pricing_plan_id":"cebpf4jnsgd1na2vs0mg"},{"bike_id":"7f645385-71ee-4fab-9b34-7befb56d29a6","system_id":"levelo_inurba_marseille","lat":43.21191,"lon":5.35073,"is_reserved":false,"is_disabled":false,"rental_uris":{"android":"levelo://app?vid=7f645385-71ee-4fab-9b34-7befb56d29a6","ios":"levelo://app?vid=7f645385-71ee-4fab-9b34-7befb56d29a6"},"vehicle_type_id":"4","last_reported":1750601379,"current_range_meters":22800,"station_id":"st_cvj6sg6p6f1abm77japg","pricing_plan_id":"cebpf4jnsgd1na2vs0mg"},{"bike_id":"854144b2-066c-44ae-ad97-6bccc321bed3","system_id":"levelo_inurba_marseille","lat":43.21759,"lon":5.34597,"is_reserved":false,"is_disabled":false,"rental_uris":{"android":"levelo://app?vid=854144b2-066c-44ae-ad97-6bccc321bed3","ios":"levelo://app?vid=854144b2-066c-44ae-ad97-6bccc321bed3"},"vehicle_type_id":"4","last_reported":1750601379,"current_range_meters":23200,"station_id":"","pricing_plan_id":"cebpf4jnsgd1na2vs0mg"},{"bike_id":"5fa736a7-401a-4291-971e-10293fa2ffb4","system_id":"levelo_inurba_marseille","lat":43.23965,"lon":5.36647,"is_reserved":false,"is_disabled":false,"rental_uris":{"android":"levelo://app?vid=5fa736a7-401a-4291-971e-10293fa2ffb4","ios":"levelo://app?vid=5fa736a7-401a-4291-971e-10293fa2ffb4"},"vehicle_type_id":"4","last_reported":1750601379,"current_range_meters":23200,"station_id":"ce4bhi12rcd13ifvqfp0","pricing_plan_id":"cebpf4jnsgd1na2vs0mg"},{"bike_id":"4e58eb78-702f-4bc1-b58a-0069c5782265","system_id":"levelo_inurba_marseille","lat":43.23971,"lon":5.366457,"is_reserved":false,"is_disabled":false,"rental_uris":{"android":"levelo://app?vid=4e58eb78-702f-4bc1-b58a-0069c5782265","ios":"levelo://app?vid=4e58eb78-702f-4bc1-b58a-0069c5782265"},"vehicle_type_id":"4","last_reported":1750601379,"current_range_meters":23200,"station_id":"ce4bhi12rcd13ifvqfp0","pricing_plan_id":"cebpf4jnsgd1na2vs0mg"},{"bike_id":"b67be1ca-3ae8-461f-a9c3-5de42b64cc86","system_id":"levelo_inurba_marseille","lat":43.25746,"lon":5.41095,"is_reserved":false,"is_disabled":false,"rental_uris":{"android":"levelo://app?vid=b67be1ca-3ae8-461f-a9c3-5de42b64cc86","ios":"levelo://app?vid=b67be1ca-3ae8-461f-a9c3-5de42b64cc86"},"vehicle_type_id":"4","last_reported":1750601379,"current_range_meters":23200,"station_id":"ce4bhkp2rcd13ifvqgd0","pricing_plan_id":"cebpf4jnsgd1na2vs0mg"},{"bike_id":"d96c493a-87dc-4f36-8d8e-156dddd4ac95","system_id":"levelo_inurba_marseille","lat":43.25114,"lon":5.40322,"is_reserved":false,"is_disabled":false,"rental_uris":{"android":"levelo://app?vid=d96c493a-87dc-4f36-8d8e-156dddd4ac95","ios":"levelo://app?vid=d96c493a-87dc-4f36-8d8e-156dddd4ac95"},"vehicle_type_id":"4","last_reported":1750601379,"current_range_meters":23200,"station_id":"ce4bhlh2rcd13ifvqgig","pricing_plan_id":"cebpf4jnsgd1na2vs0mg"},{"bike_id":"50bacf2f-19bd-405a-94c6-7e89639b1ca5","system_id":"levelo_inurba_marseille","lat":43.29901,"lon":5.43685,"is_reserved":false,"is_disabled":false,"rental_uris":{"android":"levelo://app?vid=50bacf2f-19bd-405a-94c6-7e89639b1ca5","ios":"levelo://app?vid=50bacf2f-19bd-405a-94c6-7e89639b1ca5"},"vehicle_type_id":"4","last_reported":1750601379,"current_range_meters":23200,"station_id":"ce4bhpp2rcd13ifvqhfg","pricing_plan_id":"cebpf4jnsgd1na2vs0mg"},{"bike_id":"31ed8572-2428-4146-a3f9-00356ef6071e","system_id":"levelo_inurba_marseille","lat":43.32491,"lon":5.36554,"is_reserved":false,"is_disabled":false,"rental_uris":{"android":"levelo://app?vid=31ed8572-2428-4146-a3f9-00356ef6071e","ios":"levelo://app?vid=31ed8572-2428-4146-a3f9-00356ef6071e"},"vehicle_type_id":"4","last_reported":1750601379,"current_range_meters":23200,"station_id":"ce4bhs12rcd13ifvqhvg","pricing_plan_id":"cebpf4jnsgd1na2vs0mg"},{"bike_id":"6cee847f-159f-45ce-b91d-8b69d37ae043","system_id":"levelo_inurba_marseille","lat":43.337444,"lon":5.374475,"is_reserved":false,"is_disabled":false,"rental_uris":{"android":"levelo://app?vid=6cee847f-159f-45ce-b91d-8b69d37ae043","ios":"levelo://app?vid=6cee847f-159f-45ce-b91d-8b69d37ae043"},"vehicle_type_id":"4","last_reported":1750601379,"current_range_meters":24000,"station_id":"","pricing_plan_id":"cebpf4jnsgd1na2vs0mg"},{"bike_id":"6ba80795-26da-43fa-ab60-6831760385ff","system_id":"levelo_inurba_marseille","lat":43.3264,"lon":5.419657,"is_reserved":false,"is_disabled":false,"rental_uris":{"android":"levelo://app?vid=6ba80795-26da-43fa-ab60-6831760385ff","ios":"levelo://app?vid=6ba80795-26da-43fa-ab60-6831760385ff"},"vehicle_type_id":"4","last_reported":1750601379,"current_range_meters":24000,"station_id":"","pricing_plan_id":"cebpf4jnsgd1na2vs0mg"},