{"last_updated":1729832995,"ttl":60,"version":"2.2","data":{"bikes":[{"bike_id":"38e93332-d7ca-4607-a597-8ea4f6db744e","system_id":"levelo_inurba_marseille","lat":43.2861,"lon":5.37059,"is_reserved":false,"is_disabled":false,"rental_uris":{"android":"levelo://app?vid=38e93332-d7ca-4607-a597-8ea4f6db744e","ios":"levelo://app?vid=38e93332-d7ca-4607-a597-8ea4f6db744e"},"vehicle_type_id":"4","last_reported":1729832995,"current_range_meters":28400,"station_id":"ce4bht12rcd13ifvqi60","pricing_plan_id":"cebpf4jnsgd1na2vs0mg"},{"bike_id":"6425eea3-7f3b-46b6-9c09-b162a4653231","system_id":"levelo_inurba_marseille","lat":43.27912,"lon":5.3958,"is_reserved":false,"is_disabled":false,"rental_uris":{"android":"levelo://app?vid=6425eea3-7f3b-46b6-9c09-b162a4653231","ios":"levelo://app?vid=6425eea3-7f3b-46b6-9c09-b162a4653231"},"vehicle_type_id":"4","last_reported":1729832995,"current_range_meters":26800,"station_id":"ce4bhf92rcd13ifvqf40","pricing_plan_id":"cebpf4jnsgd1na2vs0mg"},{"bike_id":"1568e98d-3e80-4d3a-913a-84af01bba11e","system_id":"levelo_inurba_marseille","lat":43.28153,"lon":5.42634,"is_reserved":false,"is_disabled":false,"rental_uris":{"android":"levelo://app?vid=1568e98d-3e80-4d3a-913a-84af01bba11e","ios":"levelo://app?vid=1568e98d-3e80-4d3a-913a-84af01bba11e"},"vehicle_type_id":"4","last_reported":1729832995,"current_range_meters":36000,"station_id":"ce4bhnh2rcd13ifvqgug","pricing_plan_id":"cebpf4jnsgd1na2vs0mg"},{"bike_id":"bb563c27-5980-4524-8a7b-385062619cba","system_id":"levelo_inurba_marseille","lat":43.27666,"lon":5.38889,"is_reserved":false,"is_disabled":false,"rental_uris":{"android":"levelo://app?vid=bb563c27-5980-4524-8a7b-385062619cba","ios":"levelo://app?vid=bb563c27-5980-4524-8a7b-385062619cba"},"vehicle_type_id":"4","last_reported":1729832995,"current_range_meters":38800,"station_id":"ce4bhi12rcd13ifvqfo0","pricing_plan_id":"cebpf4jnsgd1na2vs0mg"},{"bike_id":"02b88303-f07a-410b-8e09-9fbc37dda972","system_id":"levelo_inurba_marseille","lat":43.310687,"lon":5.383534,"is_reserved":false,"is_disabled":false,"rental_uris":{"android":"levelo://app?vid=02b88303-f07a-410b-8e09-9fbc37dda972","ios":"levelo://app?vid=02b88303-f07a-410b-8e09-9fbc37dda972"},"vehicle_type_id":"4","last_reported":1729832995,"current_range_meters":38400,"station_id":"ce4bgv92rcd13ifvqcr0","pricing_plan_id":"cebpf4jnsgd1na2vs0mg"},{"bike_id":"0305f07b-3d86-40ef-b6b1-15fef9ab5479","system_id":"levelo_inurba_marseille","lat":43.23957,"lon":5.36636,"is_reserved":false,"is_disabled":false,"rental_uris":{"android":"levelo://app?vid=0305f07b-3d86-40ef-b6b1-15fef9ab5479","ios":"levelo://app?vid=0305f07b-3d86-40ef-b6b1-15fef9ab5479"},"vehicle_type_id":"4","last_reported":1729832995,"current_range_meters":36800,"station_id":"ce4bhi12rcd13ifvqfp0","pricing_plan_id":"cebpf4jnsgd1na2vs0mg"},{"bike_id":"5134f3b1-3ef2-40bd-bb7b-0664f2444bbd","system_id":"levelo_inurba_marseille","lat":43.32033,"lon":5.41569,"is_reserved":false,"is_disabled":false,"rental_uris":{"android":"levelo://app?vid=5134f3b1-3ef2-40bd-bb7b-0664f2444bbd","ios":"levelo://app?vid=5134f3b1-3ef2-40bd-bb7b-0664f2444bbd"},"vehicle_type_id":"4","last_reported":1729832995,"current_range_meters":38000,"station_id":"ce4bhq92rcd13ifvqhkg","pricing_plan_id":"cebpf4jnsgd1na2vs0mg"},{"bike_id":"b127b2b4-729c-4a0b-820c-f99fb01ed4db","system_id":"levelo_inurba_marseille","lat":43.24182,"lon":5.3973,"is_reserved":false,"is_disabled":false,"rental_uris":{"android":"levelo://app?vid=b127b2b4-729c-4a0b-820c-f99fb01ed4db","ios":"levelo://app?vid=b127b2b4-729c-4a0b-820c-f99fb01ed4db"},"vehicle_type_id":"4","last_reported":1729832995,"current_range_meters":6400,"station_id":"ce4bhn12rcd13ifvqgpg","pricing_plan_id":"cebpf4jnsgd1na2vs0mg"},{"bike_id":"408d48c7-1ac8-43cc-829a-0b00e4e3a502","system_id":"levelo_inurba_marseille","lat":43.308035,"lon":5.381547,"is_reserved":false,"is_disabled":false,"rental_uris":{"android":"levelo://app?vid=408d48c7-1ac8-43cc-829a-0b00e4e3a502","ios":"levelo://app?vid=408d48c7-1ac8-43cc-829a-0b00e4e3a502"},"vehicle_type_id":"4","last_reported":1729832995,"current_range_meters":6400,"station_id":"ce4bgt12rcd13ifvqce0","pricing_plan_id":"cebpf4jnsgd1na2vs0mg"},{"bike_id":"ec0e4238-9ad4-485a-87c7-5fbe81030bd9","system_id":"levelo_inurba_marseille","lat":43.25111,"lon":5.40325,"is_reserved":false,"is_disabled":false,"rental_uris":{"android":"levelo://app?vid=ec0e4238-9ad4-485a-87c7-5fbe81030bd9","ios":"levelo://app?vid=ec0e4238-9ad4-485a-87c7-5fbe81030bd9"},"vehicle_type_id":"4","last_reported":1729832995,"current_range_meters":28000,"station_id":"ce4bhlh2rcd13ifvqgig","pricing_plan_id":"cebpf4jnsgd1na2vs0mg"},{"bike_id":"f8109ec4-3d40-439f-a973-a4245f3f57cb","system_id":"levelo_inurba_marseille","lat":43.31371,"lon":5.38498,"is_reserved":false,"is_disabled":false,"rental_uris":{"android":"levelo://app?vid=f8109ec4-3d40-439f-a973-a4245f3f57cb","ios":"levelo://app?vid=f8109ec4-3d40-439f-a973-a4245f3f57cb"},"vehicle_type_id":"4","last_reported":1729832995,"current_range_meters":27200,"station_id":"ce4bgt92rcd13ifvqcf0","pricing_plan_id":"cebpf4jnsgd1na2vs0mg"},{"bike_id":"15a72434-6c63-4059-a6c9-0dd3a19b7eb4","system_id":"levelo_inurba_marseille","lat":43.24668,"lon":5.38161,"is_reserved":false,"is_disabled":false,"rental_uris":{"android":"levelo://app?vid=15a72434-6c63-4059-a6c9-0dd3a19b7eb4","ios":"levelo://app?vid=15a72434-6c63-4059-a6c9-0dd3a19b7eb4"},"vehicle_type_id":"4","last_reported":1729832995,"current_range_meters":16800,"station_id":"ce4bhih2rcd13ifvqfr0","pricing_plan_id":"cebpf4jnsgd1na2vs0mg"},{"bike_id":"bf0a88b7-2d6b-43c6-b839-758311f688b3","system_id":"levelo_inurba_marseille","lat":43.30139,"lon":5.39881,"is_reserved":false,"is_disabled":false,"rental_uris":{"android":"levelo://app?vid=bf0a88b7-2d6b-43c6-b839-758311f688b3","ios":"levelo://app?vid=bf0a88b7-2d6b-43c6-b839-758311f688b3"},"vehicle_type_id":"4","last_reported":1729832995,"current_range_meters":38800,"station_id":"ce4bh0h2rcd13ifvqd40","pricing_plan_id":"cebpf4jnsgd1na2vs0mg"},{"bike_id":"07c824f2-4a2f-42b3-9ca9-c6ef1c1086ec","system_id":"levelo_inurba_marseille","lat":43.2838,"lon":5.38635,"is_reserved":false,"is_disabled":false,"rental_uris":{"android":"levelo://app?vid=07c824f2-4a2f-42b3-9ca9-c6ef1c1086ec","ios":"levelo://app?vid=07c824f2-4a2f-42b3-9ca9-c6ef1c1086ec"},"vehicle_type_id":"4","last_reported":1729832995,"current_range_meters":39200,"station_id":"ce4bh492rcd13ifvqdvg","pricing_plan_id":"cebpf4jnsgd1na2vs0mg"},{"bike_id":"378a3403-d96c-4cc5-97b0-67102ea47686","system_id":"levelo_inurba_marseille","lat":43.31116,"lon":5.37752,"is_reserved":false,"is_disabled":false,"rental_uris":{"android":"levelo://app?vid=378a3403-d96c-4cc5-97b0-67102ea47686","ios":"levelo://app?vid=378a3403-d96c-4cc5-97b0-67102ea47686"},"vehicle_type_id":"4","last_reported":1729832995,"current_range_meters":31200,"station_id":"ce4bgt92rcd13ifvqcg0","pricing_plan_id":"cebpf4jnsgd1na2vs0mg"},{"bike_id":"d8baf404-58b3-4cf8-bcf7-a6dbe086a9d9","system_id":"levelo_inurba_marseille","lat":43.29048,"lon":5.359139,"is_reserved":false,"is_disabled":false,"rental_uris":{"android":"levelo://app?vid=d8baf404-58b3-4cf8-bcf7-a6dbe086a9d9","ios":"levelo://app?vid=d8baf404-58b3-4cf8-bcf7-a6dbe086a9d9"},"vehicle_type_id":"4","last_reported":1729832995,"current_range_meters":19600,"station_id":"ce4bha92rcd13ifvqeg0","pricing_plan_id":"cebpf4jnsgd1na2vs0mg"},{"bike_id":"167202dc-8aec-4a7f-a651-8d9d7f86665a","system_id":"levelo_inurba_marseille","lat":43.30887,"lon":5.39649,"is_reserved":false,"is_disabled":false,"rental_uris":{"android":"levelo://app?vid=167202dc-8aec-4a7f-a651-8d9d7f86665a","ios":"levelo://app?vid=167202dc-8aec-4a7f-a651-8d9d7f86665a"},"vehicle_type_id":"4","last_reported":1729832995,"current_range_meters":33200,"station_id":"ce4bh012rcd13ifvqcv0","pricing_plan_id":"cebpf4jnsgd1na2vs0mg"},{"bike_id":"7a39ac62-f73e-405f-baad-436efacf2521","system_id":"levelo_inurba_marseille","lat":43.270735,"lon":5.422796,"is_reserved":false,"is_disabled":false,"rental_uris":{"android":"levelo://app?vid=7a39ac62-f73e-405f-baad-436efacf2521","ios":"levelo://app?vid=7a39ac62-f73e-405f-baad-436efacf2521"},"vehicle_type_id":"4","last_reported":1729832995,"current_range_meters":38800,"station_id":"ce4bhk92rcd13ifvqgb0","pricing_plan_id":"cebpf4jnsgd1na2vs0mg"},{"bike_id":"3d485760-1c3c-4c7e-a95a-57d189d25473","system_id":"levelo_inurba_marseille","lat":43.30143,"lon":5.38079,"is_reserved":false,"is_disabled":false,"rental_uris":{"android":"levelo://app?vid=3d485760-1c3c-4c7e-a95a-57d189d25473","ios":"levelo://app?vid=3d485760-1c3c-4c7e-a95a-57d189d25473"},"vehicle_type_id":"4","last_reported":1729832995,"current_range_meters":36400,"station_id":"ce4bgjp2rcd13ifvqbh0","pricing_plan_id":"cebpf4jnsgd1na2vs0mg"},{"bike_id":"e130cf78-8420-42ef-935c-589ad91611cf","system_id":"levelo_inurba_marseille","lat":43.32653,"lon":5.4099,"is_reserved":false,"is_disabled":false,"rental_uris":{"android":"levelo://app?vid=e130cf78-8420-42ef-935c-589ad91611cf","ios":"levelo://app?vid=e130cf78-8420-42ef-935c-589ad91611cf"},"vehicle_type_id":"4","last_reported":1729832995,"current_range_meters":37600,"station_id":"ce4bhpp2rcd13ifvqhgg","pricing_plan_id":"cebpf4jnsgd1na2vs0mg"},{"bike_id":"83b93c0d-fd1e-413e-9772-9048be31d163","system_id":"levelo_inurba_marseille","lat":43.31699,"lon":5.37749,"is_reserved":false,"is_disabled":false,"rental_uris":{"android":"levelo://app?vid=83b93c0d-fd1e-413e-9772-9048be31d163","ios":"levelo://app?vid=83b93c0d-fd1e-413e-9772-9048be31d163"},"vehicle_type_id":"4","last_reported":1729832995,"current_range_meters":38800,"station_id":"ce4bgth2rcd13ifvqch0","pricing_plan_id":"cebpf4jnsgd1na2vs0mg"},{"bike_id":"dda8d9a0-b609-4e95-95d8-4c8bccb89b10","system_id":"levelo_inurba_marseille","lat":43.2455,"lon":5.39518,"is_reserved":false,"is_disabled":false,"rental_uris":{"android":"levelo://app?vid=dda8d9a0-b609-4e95-95d8-4c8bccb89b10","ios":"levelo://app?vid=dda8d9a0-b609-4e95-95d8-4c8bccb89b10"},"vehicle_type_id":"4","last_reported":1729832995,"current_range_meters":6800,"station_id":"ce4bhlp2rcd13ifvqgjg","pricing_plan_id":"cebpf4jnsgd1na2vs0mg"},{"bike_id":"784dd773-f509-4455-843a-8e8b8177e5e1","system_id":"levelo_inurba_marseille","lat":43.31704,"lon":5.37769,"is_reserved":false,"is_disabled":false,"rental_uris":{"android":"levelo://app?vid=784dd773-f509-4455-843a-8e8b8177e5e1","ios":"levelo://app?vid=784dd773-f509-4455-843a-8e8b8177e5e1"},"vehicle_type_id":"4","last_reported":1729832995,"current_range_meters":39200,"station_id":"ce4bgth2rcd13ifvqch0","pricing_plan_id":"cebpf4jnsgd1na2vs0mg"},{"bike_id":"123bba5e-f5a9-4d52-bf87-981f8dbc6f9b","system_id":"levelo_inurba_marseille","lat":43.28692,"lon":5.39985,"is_reserved":false,"is_disabled":false,"rental_uris":{"android":"levelo://app?vid=123bba5e-f5a9-4d52-bf87-981f8dbc6f9b","ios":"levelo://app?vid=123bba5e-f5a9-4d52-bf87-981f8dbc6f9b"},"vehicle_type_id":"4","last_reported":1729832995,"current_range_meters":14800,"station_id":"ce4bho92rcd13ifvqh3g","pricing_plan_id":"cebpf4jnsgd1na2vs0mg"},{"bike_id":"3c877646-9bd0-4b26-8907-0eb1cd28dfd3","system_id":"levelo_inurba_marseille","lat":43.25117,"lon":5.40323,"is_reserved":false,"is_disabled":false,"rental_uris":{"android":"levelo://app?vid=3c877646-9bd0-4b26-8907-0eb1cd28dfd3","ios":"levelo://app?vid=3c877646-9bd0-4b26-8907-0eb1cd28dfd3"},"vehicle_type_id":"4","last_reported":1729832995,"current_range_meters":25200,"station_id":"ce4bhlh2rcd13ifvqgig","pricing_plan_id":"cebpf4jnsgd1na2vs0mg"},{"bike_id":"d0c5e064-d453-4368-8128-07f628b36c5b","system_id":"levelo_inurba_marseille","lat":43.27208,"lon":5.39186,"is_reserved":false,"is_disabled":false,"rental_uris":{"android":"levelo://app?vid=d0c5e064-d453-4368-8128-07f628b36c5b","ios":"levelo://app?vid=d0c5e064-d453-4368-8128-07f628b36c5b"},"vehicle_type_id":"4","last_reported":1729832995,"current_range_meters":28400,"station_id":"ce4bhhp2rcd13ifvqfm0","pricing_plan_id":"cebpf4jnsgd1na2vs0mg"},{"bike_id":"483c62d9-8122-431e-af57-3adb4afbad43","system_id":"levelo_inurba_marseille","lat":43.27559,"lon":5.38433,"is_reserved":false,"is_disabled":false,"rental_uris":{"android":"levelo://app?vid=483c62d9-8122-431e-af57-3adb4afbad43","ios":"levelo://app?vid=483c62d9-8122-431e-af57-3adb4afbad43"},"vehicle_type_id":"4","last_reported":1729832995,"current_range_meters":20000,"station_id":"ce4bhh92rcd13ifvqfi0","pricing_plan_id":"cebpf4jnsgd1na2vs0mg"},{"bike_id":"58ddb80b-166e-4e4e-83db-b9284e31a595","system_id":"levelo_inurba_marseille","lat":43.24183,"lon":5.39729,"is_reserved":false,"is_disabled":false,"rental_uris":{"android":"levelo://app?vid=58ddb80b-166e-4e4e-83db-b9284e31a595","ios":"levelo://app?vid=58ddb80b-166e-4e4e-83db-b9284e31a595"},"vehicle_type_id":"4","last_reported":1729832995,"current_range_meters":38000,"station_id":"ce4bhn12rcd13ifvqgpg","pricing_plan_id":"cebpf4jnsgd1na2vs0mg"},{"bike_id":"7baa1284-7d53-4b57-8d12-01f6e68bcd73","system_id":"levelo_inurba_marseille","lat":43.30452,"lon":5.3789,"is_reserved":false,"is_disabled":false,"rental_uris":{"android":"levelo://app?vid=7baa1284-7d53-4b57-8d12-01f6e68bcd73","ios":"levelo://app?vid=7baa1284-7d53-4b57-8d12-01f6e68bcd73"},"vehicle_type_id":"4","last_reported":1729832995,"current_range_meters":28800,"station_id":"ce4bgup2rcd13ifvqcn0","pricing_plan_id":"cebpf4jnsgd1na2vs0mg"},{"bike_id":"84d3e8f1-f014-454b-be31-aa94870141e3","system_id":"levelo_inurba_marseille","lat":43.30926,"lon":5.40132,"is_reserved":false,"is_disabled":false,"rental_uris":{"android":"levelo://app?vid=84d3e8f1-f014-454b-be31-aa94870141e3","ios":"levelo://app?vid=84d3e8f1-f014-454b-be31-aa94870141e3"},"vehicle_type_id":"4","last_reported":1729832995,"current_range_meters":27200,"station_id":"ce4bgvp2rcd13ifvqct0","pricing_plan_id":"cebpf4jnsgd1na2vs0mg"},{"bike_id":"b837a7c0-b2da-4c41-9c7a-e37b4e2f978e","system_id":"levelo_inurba_marseille","lat":43.29706,"lon":5.37715,"is_reserved":false,"is_disabled":false,"rental_uris":{"android":"levelo://app?vid=b837a7c0-b2da-4c41-9c7a-e37b4e2f978e","ios":"levelo://app?vid=b837a7c0-b2da-4c41-9c7a-e37b4e2f978e"},"vehicle_type_id":"4","last_reported":1729832995,"current_range_meters":16000,"station_id":"ce4bgkh2rcd13ifvqbl0","pricing_plan_id":"cebpf4jnsgd1na2vs0mg"},{"bike_id":"46e85f9c-1bad-4940-8580-20c0eeba5600","system_id":"levelo_inurba_marseille","lat":43.32344,"lon":5.40629,"is_reserved":false,"is_disabled":false,"rental_uris":{"android":"levelo://app?vid=46e85f9c-1bad-4940-8580-20c0eeba5600","ios":"levelo://app?vid=46e85f9c-1bad-4940-8580-20c0eeba5600"},"vehicle_type_id":"4","last_reported":1729832995,"current_range_meters":38000,"station_id":"ce4bhq92rcd13ifvqhjg","pricing_plan_id":"cebpf4jnsgd1na2vs0mg"},{"bike_id":"ce3eef46-b9e3-41dc-9130-106cb5f09144","system_id":"levelo_inurba_marseille","lat":43.246519,"lon":5.389014,"is_reserved":false,"is_disabled":false,"rental_uris":{"android":"levelo://app?vid=ce3eef46-b9e3-41dc-9130-106cb5f09144","ios":"levelo://app?vid=ce3eef46-b9e3-41dc-9130-106cb5f09144"},"vehicle_type_id":"4","last_reported":1729832995,"current_range_meters":39200,"station_id":"ce4bhg12rcd13ifvqf60","pricing_plan_id":"cebpf4jnsgd1na2vs0mg"},{"bike_id":"4bedeb59-6c2d-4af4-aaa0-e18439b1b0c1","system_id":"levelo_inurba_marseille","lat":43.2465,"lon":5.38904,"is_reserved":false,"is_disabled":false,"rental_uris":{"android":"levelo://app?vid=4bedeb59-6c2d-4af4-aaa0-e18439b1b0c1","ios":"levelo://app?vid=4bedeb59-6c2d-4af4-aaa0-e18439b1b0c1"},"vehicle_type_id":"4","last_reported":1729832995,"current_range_meters":6000,"station_id":"ce4bhg12rcd13ifvqf60","pricing_plan_id":"cebpf4jnsgd1na2vs0mg"},{"bike_id":"d8c777a5-ff2f-4acd-9afb-ab01807654a6","system_id":"levelo_inurba_marseille","lat":43.30888,"lon":5.37193,"is_reserved":false,"is_disabled":false,"rental_uris":{"android":"levelo://app?vid=d8c777a5-ff2f-4acd-9afb-ab01807654a6","ios":"levelo://app?vid=d8c777a5-ff2f-4acd-9afb-ab01807654a6"},"vehicle_type_id":"4","last_reported":1729832995,"current_range_meters":38800,"station_id":"ce4bguh2rcd13ifvqckg","pricing_plan_id":"cebpf4jnsgd1na2vs0mg"},{"bike_id":"8d1c0522-fd15-4481-ab3c-a4d59c43a230","system_id":"levelo_inurba_marseille","lat":43.313644,"lon":5.384942,"is_reserved":false,"is_disabled":false,"rental_uris":{"android":"levelo://app?vid=8d1c0522-fd15-4481-ab3c-a4d59c43a230","ios":"levelo://app?vid=8d1c0522-fd15-4481-ab3c-a4d59c43a230"},"vehicle_type_id":"4","last_reported":1729832995,"current_range_meters":38800,"station_id":"ce4bgt92rcd13ifvqcf0","pricing_plan_id":"cebpf4jnsgd1na2vs0mg"},{"bike_id":"97ce6431-cdfe-4c86-8575-534875aed7f5","system_id":"levelo_inurba_marseille","lat":43.3053,"lon":5.36659,"is_reserved":false,"is_disabled":false,"rental_uris":{"android":"levelo://app?vid=97ce6431-cdfe-4c86-8575-534875aed7f5","ios":"levelo://app?vid=97ce6431-cdfe-4c86-8575-534875aed7f5"},"vehicle_type_id":"4","last_reported":1729832995,"current_range_meters":4000,"station_id":"","pricing_plan_id":"cebpf4jnsgd1na2vs0mg"},{"bike_id":"4d217311-81f7-41c2-94f3-1a941de93f8e","system_id":"levelo_inurba_marseille","lat":43.28271,"lon":5.35064,"is_reserved":false,"is_disabled":false,"rental_uris":{"android":"levelo://app?vid=4d217311-81f7-41c2-94f3-1a941de93f8e","ios":"levelo://app?vid=4d217311-81f7-41c2-94f3-1a941de93f8e"},"vehicle_type_id":"4","last_reported":1729832995,"current_range_meters":37600,"station_id":"ce4bhbp2rcd13ifvqerg","pricing_plan_id":"cebpf4jnsgd1na2vs0mg"},{"bike_id":"ddf1220d-b7b8-47ef-b02e-eb813f8e3275","system_id":"levelo_inurba_marseille","lat":43.30347,"lon":5.4188,"is_reserved":false,"is_disabled":false,"rental_uris":{"android":"levelo://app?vid=ddf1220d-b7b8-47ef-b02e-eb813f8e3275","ios":"levelo://app?vid=ddf1220d-b7b8-47ef-b02e-eb813f8e3275"},"vehicle_type_id":"4","last_reported":1729832995,"current_range_meters":38800,"station_id":"ce4bhop2rcd13ifvqh7g","pricing_plan_id":"cebpf4jnsgd1na2vs0mg"},{"bike_id":"ae543776-75ee-42a8-a677-3e246bf772ec","system_id":"levelo_inurba_marseille","lat":43.3171,"lon":5.43708,"is_reserved":false,"is_disabled":false,"rental_uris":{"android":"levelo://app?vid=ae543776-75ee-42a8-a677-3e246bf772ec","ios":"levelo://app?vid=ae543776-75ee-42a8-a677-3e246bf772ec"},"vehicle_type_id":"4","last_reported":1729832995,"current_range_meters":4800,"station_id":"ce4bhp92rcd13ifvqhcg","pricing_plan_id":"cebpf4jnsgd1na2vs0mg"},{"bike_id":"72484aba-c053-4b6a-bab2-52f761ddcf68","system_id":"levelo_inurba_marseille","lat":43.26678,"lon":5.38266,"is_reserved":false,"is_disabled":false,"rental_uris":{"android":"levelo://app?vid=72484aba-c053-4b6a-bab2-52f761ddcf68","ios":"levelo://app?vid=72484aba-c053-4b6a-bab2-52f761ddcf68"},"vehicle_type_id":"4","last_reported":1729832995,"current_range_meters":33600,"station_id":"ce4bhg92rcd13ifvqf90","pricing_plan_id":"cebpf4jnsgd1na2vs0mg"},{"bike_id":"334e9050-29c3-43a0-b2bb-4fc7f06bf291","system_id":"levelo_inurba_marseille","lat":43.24647,"lon":5.38897,"is_reserved":false,"is_disabled":false,"rental_uris":{"android":"levelo://app?vid=334e9050-29c3-43a0-b2bb-4fc7f06bf291","ios":"levelo://app?vid=334e9050-29c3-43a0-b2bb-4fc7f06bf291"},"vehicle_type_id":"4","last_reported":1729832995,"current_range_meters":39200,"station_id":"ce4bhg12rcd13ifvqf60","pricing_plan_id":"cebpf4jnsgd1na2vs0mg"},{"bike_id":"3416557b-1536-448a-ac57-bb27af24b942","system_id":"levelo_inurba_marseille","lat":43.33727,"lon":5.39189,"is_reserved":false,"is_disabled":false,"rental_uris":{"android":"levelo://app?vid=3416557b-1536-448a-ac57-bb27af24b942","ios":"levelo://app?vid=3416557b-1536-448a-ac57-bb27af24b942"},"vehicle_type_id":"4","last_reported":1729832995,"current_range_meters":16400,"station_id":"ce4bhr92rcd13ifvqhsg","pricing_plan_id":"cebpf4jnsgd1na2vs0mg"},{"bike_id":"fc2ed8f0-08f1-4040-919c-3bc9567bc1d2","system_id":"levelo_inurba_marseille","lat":43.286591,"lon":5.363484,"is_reserved":false,"is_disabled":false,"rental_uris":{"android":"levelo://app?vid=fc2ed8f0-08f1-4040-919c-3bc9567bc1d2","ios":"levelo://app?vid=fc2ed8f0-08f1-4040-919c-3bc9567bc1d2"},"vehicle_type_id":"4","last_reported":1729832995,"current_range_meters":38400,"station_id":"ce4bhah2rcd13ifvqej0","pricing_plan_id":"cebpf4jnsgd1na2vs0mg"},{"bike_id":"70e1a8a7-658b-4362-8767-c157d871f93b","system_id":"levelo_inurba_marseille","lat":43.22925,"lon":5.35373,"is_reserved":false,"is_disabled":false,"rental_uris":{"android":"levelo://app?vid=70e1a8a7-658b-4362-8767-c157d871f93b","ios":"levelo://app?vid=70e1a8a7-658b-4362-8767-c157d871f93b"},"vehicle_type_id":"4","last_reported":1729832995,"current_range_meters":35600,"station_id":"cpo3532slgdg3j2ikp40","pricing_plan_id":"cebpf4jnsgd1na2vs0mg"},{"bike_id":"c47ee947-2909-41a5-bbe0-603cbb5c8694","system_id":"levelo_inurba_marseille","lat":43.27957,"lon":5.41042,"is_reserved":false,"is_disabled":false,"rental_uris":{"android":"levelo://app?vid=c47ee947-2909-41a5-bbe0-603cbb5c8694","ios":"levelo://app?vid=c47ee947-2909-41a5-bbe0-603cbb5c8694"},"vehicle_type_id":"4","last_reported":1729832995,"current_range_meters":13600,"station_id":"ce4bhnp2rcd13ifvqh0g","pricing_plan_id":"cebpf4jnsgd1na2vs0mg"},{"bike_id":"8486fe9d-9ef0-4e60-ba73-6eb6a17c52a8","system_id":"levelo_inurba_marseille","lat":43.31561,"lon":5.4057,"is_reserved":false,"is_disabled":false,"rental_uris":{"android":"levelo://app?vid=8486fe9d-9ef0-4e60-ba73-6eb6a17c52a8","ios":"levelo://app?vid=8486fe9d-9ef0-4e60-ba73-6eb6a17c52a8"},"vehicle_type_id":"4","last_reported":1729832995,"current_range_meters":10000,"station_id":"","pricing_plan_id":"cebpf4jnsgd1na2vs0mg"},{"bike_id":"172208e9-70cd-4b52-b8b5-db9312e32f6a","system_id":"levelo_inurba_marseille","lat":43.24543,"lon":5.39517,"is_reserved":false,"is_disabled":false,"rental_uris":{"android":"levelo://app?vid=172208e9-70cd-4b52-b8b5-db9312e32f6a","ios":"levelo://app?vid=172208e9-70cd-4b52-b8b5-db9312e32f6a"},"vehicle_type_id":"4","last_reported":1729832995,"current_range_meters":27200,"station_id":"ce4bhlp2rcd13ifvqgjg","pricing_plan_id":"cebpf4jnsgd1na2vs0mg"},{"bike_id":"dda4a36c-79b5-42cc-bd67-2abe044c6bd4","system_id":"levelo_inurba_marseille","lat":43.28595,"lon":5.35152,"is_reserved":false,"is_disabled":false,"rental_uris":{"android":"levelo://app?vid=dda4a36c-79b5-42cc-bd67-2abe044c6bd4","ios":"levelo://app?vid=dda4a36c-79b5-42cc-bd67-2abe044c6bd4"},"vehicle_type_id":"4","last_reported":1729832995,"current_range_meters":36400,"station_id":"ce4bhch2rcd13ifvqeug","pricing_plan_id":"cebpf4jnsgd1na2vs0mg"},{"bike_id":"513a0b7c-587f-4831-ab19-554f4fffc4e0","system_id":"levelo_inurba_marseille","lat":43.28473,"lon":5.38401,"is_reserved":false,"is_disabled":false,"rental_uris":{"android":"levelo://app?vid=513a0b7c-587f-4831-ab19-554f4fffc4e0","ios":"levelo://app?vid=513a0b7c-587f-4831-ab19-554f4fffc4e0"},"vehicle_type_id":"4","last_reported":1729832995,"current_range_meters":15200,"station_id":"ce4bh512rcd13ifvqe3g","pricing_plan_id":"cebpf4jnsgd1na2vs0mg"},{"bike_id":"ddc9fb91-f700-4f7f-b7c3-f9bb9582f31c","system_id":"levelo_inurba_marseille","lat":43.3106,"lon":5.38343,"is_reserved":false,"is_disabled":false,"rental_uris":{"android":"levelo://app?vid=ddc9fb91-f700-4f7f-b7c3-f9bb9582f31c","ios":"levelo://app?vid=ddc9fb91-f700-4f7f-b7c3-f9bb9582f31c"},"vehicle_type_id":"4","last_reported":1729832995,"current_range_meters":32400,"station_id":"ce4bgv92rcd13ifvqcr0","pricing_plan_id":"cebpf4jnsgd1na2vs0mg"},{"bike_id":"2e51bb4c-38d0-4679-9e02-09df0e49da69","system_id":"levelo_inurba_marseille","lat":43.3332,"lon":5.41261,"is_reserved":false,"is_disabled":false,"rental_uris":{"android":"levelo://app?vid=2e51bb4c-38d0-4679-9e02-09df0e49da69","ios":"levelo://app?vid=2e51bb4c-38d0-4679-9e02-09df0e49da69"},"vehicle_type_id":"4","last_reported":1729832995,"current_range_meters":34800,"station_id":"","pricing_plan_id":"cebpf4jnsgd1na2vs0mg"},{"bike_id":"f0715fd3-9003-4307-b00b-9a05b5a050b6","system_id":"levelo_inurba_marseille","lat":43.26937,"lon":5.40258,"is_reserved":false,"is_disabled":false,"rental_uris":{"android":"levelo://app?vid=f0715fd3-9003-4307-b00b-9a05b5a050b6","ios":"levelo://app?vid=f0715fd3-9003-4307-b00b-9a05b5a050b6"},"vehicle_type_id":"4","last_reported":1729832995,"current_range_meters":36800,"station_id":"cjm6bp8fraef2m0cb0m0","pricing_plan_id":"cebpf4jnsgd1na2vs0mg"},{"bike_id":"9ea9f28c-ab25-4d3f-82d1-3c631ddafe7b","system_id":"levelo_inurba_marseille","lat":43.31698,"lon":5.37763,"is_reserved":false,"is_disabled":false,"rental_uris":{"android":"levelo://app?vid=9ea9f28c-ab25-4d3f-82d1-3c631ddafe7b","ios":"levelo://app?vid=9ea9f28c-ab25-4d3f-82d1-3c631ddafe7b"},"vehicle_type_id":"4","last_reported":1729832995,"current_range_meters":34000,"station_id":"ce4bgth2rcd13ifvqch0","pricing_plan_id":"cebpf4jnsgd1na2vs0mg"},{"bike_id":"19ce95ff-4cb9-489d-88e8-f0dd6c1bac5d","system_id":"levelo_inurba_marseille","lat":43.24179,"lon":5.39737,"is_reserved":false,"is_disabled":false,"rental_uris":{"android":"levelo://app?vid=19ce95ff-4cb9-489d-88e8-f0dd6c1bac5d","ios":"levelo://app?vid=19ce95ff-4cb9-489d-88e8-f0dd6c1bac5d"},"vehicle_type_id":"4","last_reported":1729832995,"current_range_meters":14400,"station_id":"ce4bhn12rcd13ifvqgpg","pricing_plan_id":"cebpf4jnsgd1na2vs0mg"},{"bike_id":"d6b07a2e-2780-4a49-b6a3-18f516cc0458","system_id":"levelo_inurba_marseille","lat":43.2844,"lon":5.39175,"is_reserved":false,"is_disabled":false,"rental_uris":{"android":"levelo://app?vid=d6b07a2e-2780-4a49-b6a3-18f516cc0458","ios":"levelo://app?vid=d6b07a2e-2780-4a49-b6a3-18f516cc0458"},"vehicle_type_id":"4","last_reported":1729832995,"current_range_meters":38800,"station_id":"ce4bhoh2rcd13ifvqh5g","pricing_plan_id":"cebpf4jnsgd1na2vs0mg"},{"bike_id":"95737883-9128-4e6a-9da2-74a4e489d571","system_id":"levelo_inurba_marseille","lat":43.30943,"lon":5.40148,"is_reserved":false,"is_disabled":false,"rental_uris":{"android":"levelo://app?vid=95737883-9128-4e6a-9da2-74a4e489d571","ios":"levelo://app?vid=95737883-9128-4e6a-9da2-74a4e489d571"},"vehicle_type_id":"4","last_reported":1729832995,"current_range_meters":16000,"station_id":"ce4bgvp2rcd13ifvqct0","pricing_plan_id":"cebpf4jnsgd1na2vs0mg"},{"bike_id":"759075f6-19f5-44e8-83e7-108ff66d3ab5","system_id":"levelo_inurba_marseille","lat":43.3133,"lon":5.3969,"is_reserved":false,"is_disabled":false,"rental_uris":{"android":"levelo://app?vid=759075f6-19f5-44e8-83e7-108ff66d3ab5","ios":"levelo://app?vid=759075f6-19f5-44e8-83e7-108ff66d3ab5"},"vehicle_type_id":"4","last_reported":1729832995,"current_range_meters":29600,"station_id":"ce4bgvp2rcd13ifvqcu0","pricing_plan_id":"cebpf4jnsgd1na2vs0mg"},{"bike_id":"8a81d8aa-b8e8-4d59-8aec-731c562b08c0","system_id":"levelo_inurba_marseille","lat":43.24548,"lon":5.39523,"is_reserved":false,"is_disabled":false,"rental_uris":{"android":"levelo://app?vid=8a81d8aa-b8e8-4d59-8aec-731c562b08c0","ios":"levelo://app?vid=8a81d8aa-b8e8-4d59-8aec-731c562b08c0"},"vehicle_type_id":"4","last_reported":1729832995,"current_range_meters":38800,"station_id":"ce4bhlp2rcd13ifvqgjg","pricing_plan_id":"cebpf4jnsgd1na2vs0mg"},{"bike_id":"67449323-dba1-4f5f-94ad-8d67c84bea65","system_id":"levelo_inurba_marseille","lat":43.269383,"lon":5.4025,"is_reserved":false,"is_disabled":false,"rental_uris":{"android":"levelo://app?vid=67449323-dba1-4f5f-94ad-8d67c84bea65","ios":"levelo://app?vid=67449323-dba1-4f5f-94ad-8d67c84bea65"},"vehicle_type_id":"4","last_reported":1729832995,"current_range_meters":34800,"station_id":"cjm6bp8fraef2m0cb0m0","pricing_plan_id":"cebpf4jnsgd1na2vs0mg"},{"bike_id":"75ee64f1-76d9-4853-8e44-c4621da65cda","system_id":"levelo_inurba_marseille","lat":43.28618,"lon":5.350967,"is_reserved":false,"is_disabled":false,"rental_uris":{"android":"levelo://app?vid=75ee64f1-76d9-4853-8e44-c4621da65cda","ios":"levelo://app?vid=75ee64f1-76d9-4853-8e44-c4621da65cda"},"vehicle_type_id":"4","last_reported":1729832995,"current_range_meters":15200,"station_id":"ce4bhch2rcd13ifvqeug","pricing_plan_id":"cebpf4jnsgd1na2vs0mg"},{"bike_id":"624555c1-053f-483e-89e4-acc1f11fbe3d","system_id":"levelo_inurba_marseille","lat":43.29256,"lon":5.40897,"is_reserved":false,"is_disabled":false,"rental_uris":{"android":"levelo://app?vid=624555c1-053f-483e-89e4-acc1f11fbe3d","ios":"levelo://app?vid=624555c1-053f-483e-89e4-acc1f11fbe3d"},"vehicle_type_id":"4","last_reported":1729832995,"current_range_meters":32800,"station_id":"ce4bh192rcd13ifvqdc0","pricing_plan_id":"cebpf4jnsgd1na2vs0mg"},{"bike_id":"933557ef-e951-4c8f-adab-063805190575","system_id":"levelo_inurba_marseille","lat":43.27492,"lon":5.42457,"is_reserved":false,"is_disabled":false,"rental_uris":{"android":"levelo://app?vid=933557ef-e951-4c8f-adab-063805190575","ios":"levelo://app?vid=933557ef-e951-4c8f-adab-063805190575"},"vehicle_type_id":"4","last_reported":1729832995,"current_range_meters":22800,"station_id":"ce4bhn92rcd13ifvqgrg","pricing_plan_id":"cebpf4jnsgd1na2vs0mg"},{"bike_id":"d3bbf7db-dbd7-4c37-82f1-086f96c4acff","system_id":"levelo_inurba_marseille","lat":43.30915,"lon":5.36844,"is_reserved":false,"is_disabled":false,"rental_uris":{"android":"levelo://app?vid=d3bbf7db-dbd7-4c37-82f1-086f96c4acff","ios":"levelo://app?vid=d3bbf7db-dbd7-4c37-82f1-086f96c4acff"},"vehicle_type_id":"4","last_reported":1729832995,"current_range_meters":32800,"station_id":"ce4bgn92rcd13ifvqbvg","pricing_plan_id":"cebpf4jnsgd1na2vs0mg"},{"bike_id":"9435038c-1b3b-43d9-87f4-8e07cec3ad6e","system_id":"levelo_inurba_marseille","lat":43.25492,"lon":5.37653,"is_reserved":false,"is_disabled":false,"rental_uris":{"android":"levelo://app?vid=9435038c-1b3b-43d9-87f4-8e07cec3ad6e","ios":"levelo://app?vid=9435038c-1b3b-43d9-87f4-8e07cec3ad6e"},"vehicle_type_id":"4","last_reported":1729832995,"current_range_meters":38800,"station_id":"ce4bhh12rcd13ifvqff0","pricing_plan_id":"cebpf4jnsgd1na2vs0mg"},{"bike_id":"cb5fc251-329c-4495-95a2-d60053cd30b3","system_id":"levelo_inurba_marseille","lat":43.25579,"lon":5.3824,"is_reserved":false,"is_disabled":false,"rental_uris":{"android":"levelo://app?vid=cb5fc251-329c-4495-95a2-d60053cd30b3","ios":"levelo://app?vid=cb5fc251-329c-4495-95a2-d60053cd30b3"},"vehicle_type_id":"4","last_reported":1729832995,"current_range_meters":38800,"station_id":"ce4bhih2rcd13ifvqfs0","pricing_plan_id":"cebpf4jnsgd1na2vs0mg"},{"bike_id":"797c7c2f-8e5b-4da8-a3dc-43bae184c07f","system_id":"levelo_inurba_marseille","lat":43.29001,"lon":5.35607,"is_reserved":false,"is_disabled":false,"rental_uris":{"android":"levelo://app?vid=797c7c2f-8e5b-4da8-a3dc-43bae184c07f","ios":"levelo://app?vid=797c7c2f-8e5b-4da8-a3dc-43bae184c07f"},"vehicle_type_id":"4","last_reported":1729832995,"current_range_meters":38800,"station_id":"ce4bhb92rcd13ifvqen0","pricing_plan_id":"cebpf4jnsgd1na2vs0mg"},{"bike_id":"be8fbca4-3dcd-4e0e-96d2-8c570f59713c","system_id":"levelo_inurba_marseille","lat":43.32479,"lon":5.36566,"is_reserved":false,"is_disabled":false,"rental_uris":{"android":"levelo://app?vid=be8fbca4-3dcd-4e0e-96d2-8c570f59713c","ios":"levelo://app?vid=be8fbca4-3dcd-4e0e-96d2-8c570f59713c"},"vehicle_type_id":"4","last_reported":1729832995,"current_range_meters":20000,"station_id":"ce4bhs12rcd13ifvqhvg","pricing_plan_id":"cebpf4jnsgd1na2vs0mg"},{"bike_id":"26ad481f-d61e-41f1-ba2b-ef8f1c06f2cb","system_id":"levelo_inurba_marseille","lat":43.28712,"lon":5.39988,"is_reserved":false,"is_disabled":false,"rental_uris":{"android":"levelo://app?vid=26ad481f-d61e-41f1-ba2b-ef8f1c06f2cb","ios":"levelo://app?vid=26ad481f-d61e-41f1-ba2b-ef8f1c06f2cb"},"vehicle_type_id":"4","last_reported":1729832995,"current_range_meters":30400,"station_id":"ce4bho92rcd13ifvqh3g","pricing_plan_id":"cebpf4jnsgd1na2vs0mg"},{"bike_id":"2c83906e-34b2-4de1-a842-6d257980343c","system_id":"levelo_inurba_marseille","lat":43.32354,"lon":5.38908,"is_reserved":false,"is_disabled":false,"rental_uris":{"android":"levelo://app?vid=2c83906e-34b2-4de1-a842-6d257980343c","ios":"levelo://app?vid=2c83906e-34b2-4de1-a842-6d257980343c"},"vehicle_type_id":"4","last_reported":1729832995,"current_range_meters":15200,"station_id":"ce4bhqp2rcd13ifvqhog","pricing_plan_id":"cebpf4jnsgd1na2vs0mg"},{"bike_id":"f6a0b76a-a003-4830-9be9-66274ad91ac1","system_id":"levelo_inurba_marseille","lat":43.2803,"lon":5.36939,"is_reserved":false,"is_disabled":false,"rental_uris":{"android":"levelo://app?vid=f6a0b76a-a003-4830-9be9-66274ad91ac1","ios":"levelo://app?vid=f6a0b76a-a003-4830-9be9-66274ad91ac1"},"vehicle_type_id":"4","last_reported":1729832995,"current_range_meters":38800,"station_id":"ce4bha12rcd13ifvqef0","pricing_plan_id":"cebpf4jnsgd1na2vs0mg"},{"bike_id":"925107c6-03ef-44b1-8fd4-6d0b60c2847e","system_id":"levelo_inurba_marseille","lat":43.28714,"lon":5.39984,"is_reserved":false,"is_disabled":false,"rental_uris":{"android":"levelo://app?vid=925107c6-03ef-44b1-8fd4-6d0b60c2847e","ios":"levelo://app?vid=925107c6-03ef-44b1-8fd4-6d0b60c2847e"},"vehicle_type_id":"4","last_reported":1729832995,"current_range_meters":28000,"station_id":"ce4bho92rcd13ifvqh3g","pricing_plan_id":"cebpf4jnsgd1na2vs0mg"},{"bike_id":"a41d3bb8-558d-4841-8839-04a68cf59693","system_id":"levelo_inurba_marseille","lat":43.29252,"lon":5.40907,"is_reserved":false,"is_disabled":false,"rental_uris":{"android":"levelo://app?vid=a41d3bb8-558d-4841-8839-04a68cf59693","ios":"levelo://app?vid=a41d3bb8-558d-4841-8839-04a68cf59693"},"vehicle_type_id":"4","last_reported":1729832995,"current_range_meters":24800,"station_id":"ce4bh192rcd13ifvqdc0","pricing_plan_id":"cebpf4jnsgd1na2vs0mg"},{"bike_id":"3e1f7e12-6a01-424e-a55a-963fc3ad4353","system_id":"levelo_inurba_marseille","lat":43.32478,"lon":5.36581,"is_reserved":false,"is_disabled":false,"rental_uris":{"android":"levelo://app?vid=3e1f7e12-6a01-424e-a55a-963fc3ad4353","ios":"levelo://app?vid=3e1f7e12-6a01-424e-a55a-963fc3ad4353"},"vehicle_type_id":"4","last_reported":1729832995,"current_range_meters":38800,"station_id":"ce4bhs12rcd13ifvqhvg","pricing_plan_id":"cebpf4jnsgd1na2vs0mg"},{"bike_id":"1b95b40c-622e-4262-aedf-502366ac096f","system_id":"levelo_inurba_marseille","lat":43.28408,"lon":5.3751,"is_reserved":false,"is_disabled":false,"rental_uris":{"android":"levelo://app?vid=1b95b40c-622e-4262-aedf-502366ac096f","ios":"levelo://app?vid=1b95b40c-622e-4262-aedf-502366ac096f"},"vehicle_type_id":"4","last_reported":1729832995,"current_range_meters":34800,"station_id":"ce4bh412rcd13ifvqds0","pricing_plan_id":"cebpf4jnsgd1na2vs0mg"},{"bike_id":"87ebe34b-a6a0-4a0e-8406-5523611e8f5f","system_id":"levelo_inurba_marseille","lat":43.28434,"lon":5.39187,"is_reserved":false,"is_disabled":false,"rental_uris":{"android":"levelo://app?vid=87ebe34b-a6a0-4a0e-8406-5523611e8f5f","ios":"levelo://app?vid=87ebe34b-a6a0-4a0e-8406-5523611e8f5f"},"vehicle_type_id":"4","last_reported":1729832995,"current_range_meters":38800,"station_id":"ce4bhoh2rcd13ifvqh5g","pricing_plan_id":"cebpf4jnsgd1na2vs0mg"},{"bike_id":"82d8898e-e94c-47af-b02a-d946261e7001","system_id":"levelo_inurba_marseille","lat":43.31709,"lon":5.37758,"is_reserved":false,"is_disabled":false,"rental_uris":{"android":"levelo://app?vid=82d8898e-e94c-47af-b02a-d946261e7001","ios":"levelo://app?vid=82d8898e-e94c-47af-b02a-d946261e7001"},"vehicle_type_id":"4","last_reported":1729832995,"current_range_meters":38800,"station_id":"ce4bgth2rcd13ifvqch0","pricing_plan_id":"cebpf4jnsgd1na2vs0mg"},{"bike_id":"074bc2f0-eb25-4025-8a7a-f99d4dfce244","system_id":"levelo_inurba_marseille","lat":43.30799,"lon":5.43529,"is_reserved":false,"is_disabled":false,"rental_uris":{"android":"levelo://app?vid=074bc2f0-eb25-4025-8a7a-f99d4dfce244","ios":"levelo://app?vid=074bc2f0-eb25-4025-8a7a-f99d4dfce244"},"vehicle_type_id":"4","last_reported":1729832995,"current_range_meters":38000,"station_id":"ce4bhph2rcd13ifvqheg","pricing_plan_id":"cebpf4jnsgd1na2vs0mg"},{"bike_id":"70d78abf-97dd-4b84-9d48-1abe981bdd92","system_id":"levelo_inurba_marseille","lat":43.29874,"lon":5.3973,"is_reserved":false,"is_disabled":false,"rental_uris":{"android":"levelo://app?vid=70d78abf-97dd-4b84-9d48-1abe981bdd92","ios":"levelo://app?vid=70d78abf-97dd-4b84-9d48-1abe981bdd92"},"vehicle_type_id":"4","last_reported":1729832995,"current_range_meters":38800,"station_id":"ce4bh0h2rcd13ifvqd50","pricing_plan_id":"cebpf4jnsgd1na2vs0mg"},{"bike_id":"405ff4c5-9944-404b-b6ae-6ae137886c6a","system_id":"levelo_inurba_marseille","lat":43.313266,"lon":5.396995,"is_reserved":false,"is_disabled":false,"rental_uris":{"android":"levelo://app?vid=405ff4c5-9944-404b-b6ae-6ae137886c6a","ios":"levelo://app?vid=405ff4c5-9944-404b-b6ae-6ae137886c6a"},"vehicle_type_id":"4","last_reported":1729832995,"current_range_meters":39200,"station_id":"ce4bgvp2rcd13ifvqcu0","pricing_plan_id":"cebpf4jnsgd1na2vs0mg"},{"bike_id":"a678a84f-0550-4240-b17d-5b7a54ed58a5","system_id":"levelo_inurba_marseille","lat":43.27812,"lon":5.40712,"is_reserved":false,"is_disabled":false,"rental_uris":{"android":"levelo://app?vid=a678a84f-0550-4240-b17d-5b7a54ed58a5","ios":"levelo://app?vid=a678a84f-0550-4240-b17d-5b7a54ed58a5"},"vehicle_type_id":"4","last_reported":1729832995,"current_range_meters":38000,"station_id":"ce4bhnh2rcd13ifvqgtg","pricing_plan_id":"cebpf4jnsgd1na2vs0mg"},{"bike_id":"7565027d-9f4a-42c8-a7cb-1fb322c89a0f","system_id":"levelo_inurba_marseille","lat":43.29256,"lon":5.40903,"is_reserved":false,"is_disabled":false,"rental_uris":{"android":"levelo://app?vid=7565027d-9f4a-42c8-a7cb-1fb322c89a0f","ios":"levelo://app?vid=7565027d-9f4a-42c8-a7cb-1fb322c89a0f"},"vehicle_type_id":"4","last_reported":1729832995,"current_range_meters":28400,"station_id":"ce4bh192rcd13ifvqdc0","pricing_plan_id":"cebpf4jnsgd1na2vs0mg"},{"bike_id":"651d596c-9d25-40a0-96ca-eb64cd56897f","system_id":"levelo_inurba_marseille","lat":43.29892,"lon":5.43658,"is_reserved":false,"is_disabled":false,"rental_uris":{"android":"levelo://app?vid=651d596c-9d25-40a0-96ca-eb64cd56897f","ios":"levelo://app?vid=651d596c-9d25-40a0-96ca-eb64cd56897f"},"vehicle_type_id":"4","last_reported":1729832995,"current_range_meters":38000,"station_id":"ce4bhpp2rcd13ifvqhfg","pricing_plan_id":"cebpf4jnsgd1na2vs0mg"},{"bike_id":"08008794-bb04-48f0-9908-2654e5a03c29","system_id":"levelo_inurba_marseille","lat":43.28439,"lon":5.39189,"is_reserved":false,"is_disabled":false,"rental_uris":{"android":"levelo://app?vid=08008794-bb04-48f0-9908-2654e5a03c29","ios":"levelo://app?vid=08008794-bb04-48f0-9908-2654e5a03c29"},"vehicle_type_id":"4","last_reported":1729832995,"current_range_meters":8800,"station_id":"ce4bhoh2rcd13ifvqh5g","pricing_plan_id":"cebpf4jnsgd1na2vs0mg"},{"bike_id":"99de67a5-21b2-46bc-9c8e-59e22dacab68","system_id":"levelo_inurba_marseille","lat":43.28852,"lon":5.35842,"is_reserved":false,"is_disabled":false,"rental_uris":{"android":"levelo://app?vid=99de67a5-21b2-46bc-9c8e-59e22dacab68","ios":"levelo://app?vid=99de67a5-21b2-46bc-9c8e-59e22dacab68"},"vehicle_type_id":"4","last_reported":1729832995,"current_range_meters":30800,"station_id":"ce4bhb12rcd13ifvqem0","pricing_plan_id":"cebpf4jnsgd1na2vs0mg"},{"bike_id":"f8c6f1bc-ea44-4ab8-b33c-f75f82cb071b","system_id":"levelo_inurba_marseille","lat":43.2319,"lon":5.39984,"is_reserved":false,"is_disabled":false,"rental_uris":{"android":"levelo://app?vid=f8c6f1bc-ea44-4ab8-b33c-f75f82cb071b","ios":"levelo://app?vid=f8c6f1bc-ea44-4ab8-b33c-f75f82cb071b"},"vehicle_type_id":"4","last_reported":1729832995,"current_range_meters":4000,"station_id":"ce4bhn12rcd13ifvqgqg","pricing_plan_id":"cebpf4jnsgd1na2vs0mg"},{"bike_id":"595ce506-e3d9-498b-a270-6515326c960b","system_id":"levelo_inurba_marseille","lat":43.30932,"lon":5.40154,"is_reserved":false,"is_disabled":false,"rental_uris":{"android":"levelo://app?vid=595ce506-e3d9-498b-a270-6515326c960b","ios":"levelo://app?vid=595ce506-e3d9-498b-a270-6515326c960b"},"vehicle_type_id":"4","last_reported":1729832995,"current_range_meters":19200,"station_id":"ce4bgvp2rcd13ifvqct0","pricing_plan_id":"cebpf4jnsgd1na2vs0mg"},{"bike_id":"75f4294c-f25d-4ac0-a2c3-f77506ba31e1","system_id":"levelo_inurba_marseille","lat":43.28713,"lon":5.39996,"is_reserved":false,"is_disabled":false,"rental_uris":{"android":"levelo://app?vid=75f4294c-f25d-4ac0-a2c3-f77506ba31e1","ios":"levelo://app?vid=75f4294c-f25d-4ac0-a2c3-f77506ba31e1"},"vehicle_type_id":"4","last_reported":1729832995,"current_range_meters":33600,"station_id":"ce4bho92rcd13ifvqh3g","pricing_plan_id":"cebpf4jnsgd1na2vs0mg"},{"bike_id":"c154a97b-6934-409f-96f7-7a1a68501057","system_id":"levelo_inurba_marseille","lat":43.27214,"lon":5.39184,"is_reserved":false,"is_disabled":false,"rental_uris":{"android":"levelo://app?vid=c154a97b-6934-409f-96f7-7a1a68501057","ios":"levelo://app?vid=c154a97b-6934-409f-96f7-7a1a68501057"},"vehicle_type_id":"4","last_reported":1729832995,"current_range_meters":12800,"station_id":"ce4bhhp2rcd13ifvqfm0","pricing_plan_id":"cebpf4jnsgd1na2vs0mg"},{"bike_id":"9aea2205-03f9-47c9-890a-018da09be1d4","system_id":"levelo_inurba_marseille","lat":43.25858,"lon":5.39899,"is_reserved":false,"is_disabled":false,"rental_uris":{"android":"levelo://app?vid=9aea2205-03f9-47c9-890a-018da09be1d4","ios":"levelo://app?vid=9aea2205-03f9-47c9-890a-018da09be1d4"},"vehicle_type_id":"4","last_reported":1729832995,"current_range_meters":34800,"station_id":"ce4bhl92rcd13ifvqghg","pricing_plan_id":"cebpf4jnsgd1na2vs0mg"},{"bike_id":"108c0296-d49a-4500-a655-9dc6be1eb554","system_id":"levelo_inurba_marseille","lat":43.26943,"lon":5.38641,"is_reserved":false,"is_disabled":false,"rental_uris":{"android":"levelo://app?vid=108c0296-d49a-4500-a655-9dc6be1eb554","ios":"levelo://app?vid=108c0296-d49a-4500-a655-9dc6be1eb554"},"vehicle_type_id":"4","last_reported":1729832995,"current_range_meters":36800,"station_id":"ce4bhh92rcd13ifvqfh0","pricing_plan_id":"cebpf4jnsgd1na2vs0mg"},{"bike_id":"a8fd8402-d8b5-4dd0-aecf-7e3f8f4aab00","system_id":"levelo_inurba_marseille","lat":43.30456,"lon":5.3791,"is_reserved":false,"is_disabled":false,"rental_uris":{"android":"levelo://app?vid=a8fd8402-d8b5-4dd0-aecf-7e3f8f4aab00","ios":"levelo://app?vid=a8fd8402-d8b5-4dd0-aecf-7e3f8f4aab00"},"vehicle_type_id":"4","last_reported":1729832995,"current_range_meters":33600,"station_id":"ce4bgup2rcd13ifvqcn0","pricing_plan_id":"cebpf4jnsgd1na2vs0mg"},{"bike_id":"d2b1bdf2-4357-4fe1-9310-b780934b2159","system_id":"levelo_inurba_marseille","lat":43.32042,"lon":5.41561,"is_reserved":false,"is_disabled":false,"rental_uris":{"android":"levelo://app?vid=d2b1bdf2-4357-4fe1-9310-b780934b2159","ios":"levelo://app?vid=d2b1bdf2-4357-4fe1-9310-b780934b2159"},"vehicle_type_id":"4","last_reported":1729832995,"current_range_meters":39200,"station_id":"ce4bhq92rcd13ifvqhkg","pricing_plan_id":"cebpf4jnsgd1na2vs0mg"},{"bike_id":"9fd98dc4-fa02-443f-9660-1b2e32951419","system_id":"levelo_inurba_marseille","lat":43.28709,"lon":5.39989,"is_reserved":false,"is_disabled":false,"rental_uris":{"android":"levelo://app?vid=9fd98dc4-fa02-443f-9660-1b2e32951419","ios":"levelo://app?vid=9fd98dc4-fa02-443f-9660-1b2e32951419"},"vehicle_type_id":"4","last_reported":1729832995,"current_range_meters":6800,"station_id":"ce4bho92rcd13ifvqh3g","pricing_plan_id":"cebpf4jnsgd1na2vs0mg"},{"bike_id":"4bbe91e4-c603-420a-ba46-ca24bd6e838d","system_id":"levelo_inurba_marseille","lat":43.24666,"lon":5.38168,"is_reserved":false,"is_disabled":false,"rental_uris":{"android":"levelo://app?vid=4bbe91e4-c603-420a-ba46-ca24bd6e838d","ios":"levelo://app?vid=4bbe91e4-c603-420a-ba46-ca24bd6e838d"},"vehicle_type_id":"4","last_reported":1729832995,"current_range_meters":14000,"station_id":"ce4bhih2rcd13ifvqfr0","pricing_plan_id":"cebpf4jnsgd1na2vs0mg"},{"bike_id":"33ff888b-ebfb-4699-b7c9-3a0651441dbd","system_id":"levelo_inurba_marseille","lat":43.27997,"lon":5.40016,"is_reserved":false,"is_disabled":false,"rental_uris":{"android":"levelo://app?vid=33ff888b-ebfb-4699-b7c9-3a0651441dbd","ios":"levelo://app?vid=33ff888b-ebfb-4699-b7c9-3a0651441dbd"},"vehicle_type_id":"4","last_reported":1729832995,"current_range_meters":38800,"station_id":"ce4bho92rcd13ifvqh4g","pricing_plan_id":"cebpf4jnsgd1na2vs0mg"},{"bike_id":"4468208d-a0a9-4302-976f-4b7d3cc8f418","system_id":"levelo_inurba_marseille","lat":43.26198,"lon":5.37927,"is_reserved":false,"is_disabled":false,"rental_uris":{"android":"levelo://app?vid=4468208d-a0a9-4302-976f-4b7d3cc8f418","ios":"levelo://app?vid=4468208d-a0a9-4302-976f-4b7d3cc8f418"},"vehicle_type_id":"4","last_reported":1729832995,"current_range_meters":38800,"station_id":"ce4bhjp2rcd13ifvqg90","pricing_plan_id":"cebpf4jnsgd1na2vs0mg"},{"bike_id":"c25a6afb-084b-4ca5-9e46-023b0837e2ed","system_id":"levelo_inurba_marseille","lat":43.29192,"lon":5.35808,"is_reserved":false,"is_disabled":false,"rental_uris":{"android":"levelo://app?vid=c25a6afb-084b-4ca5-9e46-023b0837e2ed","ios":"levelo://app?vid=c25a6afb-084b-4ca5-9e46-023b0837e2ed"},"vehicle_type_id":"4","last_reported":1729832995,"current_range_meters":22800,"station_id":"ce4bhb12rcd13ifvqel0","pricing_plan_id":"cebpf4jnsgd1na2vs0mg"},{"bike_id":"25fbe3e6-9e82-4c55-998c-351a4702a94a","system_id":"levelo_inurba_marseille","lat":43.30643,"lon":5.40081,"is_reserved":false,"is_disabled":false,"rental_uris":{"android":"levelo://app?vid=25fbe3e6-9e82-4c55-998c-351a4702a94a","ios":"levelo://app?vid=25fbe3e6-9e82-4c55-998c-351a4702a94a"},"vehicle_type_id":"4","last_reported":1729832995,"current_range_meters":6400,"station_id":"ce4bh112rcd13ifvqda0","pricing_plan_id":"cebpf4jnsgd1na2vs0mg"},{"bike_id":"2e343e52-b2cb-4afc-8921-430bab7d5384","system_id":"levelo_inurba_marseille","lat":43.330251,"lon":5.390371,"is_reserved":false,"is_disabled":false,"rental_uris":{"android":"levelo://app?vid=2e343e52-b2cb-4afc-8921-430bab7d5384","ios":"levelo://app?vid=2e343e52-b2cb-4afc-8921-430bab7d5384"},"vehicle_type_id":"4","last_reported":1729832995,"current_range_meters":38000,"station_id":"ce4bhr92rcd13ifvqhrg","pricing_plan_id":"cebpf4jnsgd1na2vs0mg"},{"bike_id":"e44709af-d47d-446e-8b2b-879169324a9f","system_id":"levelo_inurba_marseille","lat":43.28841,"lon":5.39303,"is_reserved":false,"is_disabled":false,"rental_uris":{"android":"levelo://app?vid=e44709af-d47d-446e-8b2b-879169324a9f","ios":"levelo://app?vid=e44709af-d47d-446e-8b2b-879169324a9f"},"vehicle_type_id":"4","last_reported":1729832995,"current_range_meters":35600,"station_id":"ce4bh2p2rcd13ifvqdi0","pricing_plan_id":"cebpf4jnsgd1na2vs0mg"},{"bike_id":"deda7572-8c87-4cac-b646-e20f5c0ad0aa","system_id":"levelo_inurba_marseille","lat":43.312164,"lon":5.368307,"is_reserved":false,"is_disabled":false,"rental_uris":{"android":"levelo://app?vid=deda7572-8c87-4cac-b646-e20f5c0ad0aa","ios":"levelo://app?vid=deda7572-8c87-4cac-b646-e20f5c0ad0aa"},"vehicle_type_id":"4","last_reported":1729832995,"current_range_meters":30400,"station_id":"ce4bgl92rcd13ifvqbq0","pricing_plan_id":"cebpf4jnsgd1na2vs0mg"},{"bike_id":"2d5e4588-83b1-4ec8-9b07-0105540782d6","system_id":"levelo_inurba_marseille","lat":43.27952,"lon":5.410518,"is_reserved":false,"is_disabled":false,"rental_uris":{"android":"levelo://app?vid=2d5e4588-83b1-4ec8-9b07-0105540782d6","ios":"levelo://app?vid=2d5e4588-83b1-4ec8-9b07-0105540782d6"},"vehicle_type_id":"4","last_reported":1729832995,"current_range_meters":35200,"station_id":"ce4bhnp2rcd13ifvqh0g","pricing_plan_id":"cebpf4jnsgd1na2vs0mg"},{"bike_id":"532c4b6c-0ae8-49b8-92c5-b66ec2575810","system_id":"levelo_inurba_marseille","lat":43.25573,"lon":5.38241,"is_reserved":false,"is_disabled":false,"rental_uris":{"android":"levelo://app?vid=532c4b6c-0ae8-49b8-92c5-b66ec2575810","ios":"levelo://app?vid=532c4b6c-0ae8-49b8-92c5-b66ec2575810"},"vehicle_type_id":"4","last_reported":1729832995,"current_range_meters":38800,"station_id":"ce4bhih2rcd13ifvqfs0","pricing_plan_id":"cebpf4jnsgd1na2vs0mg"},{"bike_id":"0f3449bb-3bd0-4cfd-88af-5d53ec3e0714","system_id":"levelo_inurba_marseille","lat":43.31312,"lon":5.39709,"is_reserved":false,"is_disabled":false,"rental_uris":{"android":"levelo://app?vid=0f3449bb-3bd0-4cfd-88af-5d53ec3e0714","ios":"levelo://app?vid=0f3449bb-3bd0-4cfd-88af-5d53ec3e0714"},"vehicle_type_id":"4","last_reported":1729832995,"current_range_meters":38800,"station_id":"ce4bgvp2rcd13ifvqcu0","pricing_plan_id":"cebpf4jnsgd1na2vs0mg"},{"bike_id":"4d4a7de4-b295-4ae6-a548-4081541b3c73","system_id":"levelo_inurba_marseille","lat":43.28488,"lon":5.38577,"is_reserved":false,"is_disabled":false,"rental_uris":{"android":"levelo://app?vid=4d4a7de4-b295-4ae6-a548-4081541b3c73","ios":"levelo://app?vid=4d4a7de4-b295-4ae6-a548-4081541b3c73"},"vehicle_type_id":"4","last_reported":1729832995,"current_range_meters":38000,"station_id":"ce4bh8p2rcd13ifvqeb0","pricing_plan_id":"cebpf4jnsgd1na2vs0mg"},{"bike_id":"03466a0a-3d0c-447b-821f-370e988e0933","system_id":"levelo_inurba_marseille","lat":43.32292,"lon":5.3827,"is_reserved":false,"is_disabled":false,"rental_uris":{"android":"levelo://app?vid=03466a0a-3d0c-447b-821f-370e988e0933","ios":"levelo://app?vid=03466a0a-3d0c-447b-821f-370e988e0933"},"vehicle_type_id":"4","last_reported":1729832995,"current_range_meters":34000,"station_id":"ce4bhr12rcd13ifvqhqg","pricing_plan_id":"cebpf4jnsgd1na2vs0mg"},{"bike_id":"272e819b-db19-4571-879f-b4d908cbfc64","system_id":"levelo_inurba_marseille","lat":43.28899,"lon":5.36107,"is_reserved":false,"is_disabled":false,"rental_uris":{"android":"levelo://app?vid=272e819b-db19-4571-879f-b4d908cbfc64","ios":"levelo://app?vid=272e819b-db19-4571-879f-b4d908cbfc64"},"vehicle_type_id":"4","last_reported":1729832995,"current_range_meters":19200,"station_id":"","pricing_plan_id":"cebpf4jnsgd1na2vs0mg"},{"bike_id":"dda10266-8510-44af-990b-393e41f71b13","system_id":"levelo_inurba_marseille","lat":43.28485,"lon":5.38552,"is_reserved":false,"is_disabled":false,"rental_uris":{"android":"levelo://app?vid=dda10266-8510-44af-990b-393e41f71b13","ios":"levelo://app?vid=dda10266-8510-44af-990b-393e41f71b13"},"vehicle_type_id":"4","last_reported":1729832995,"current_range_meters":34000,"station_id":"ce4bh8p2rcd13ifvqeb0","pricing_plan_id":"cebpf4jnsgd1na2vs0mg"},{"bike_id":"f5320a39-d764-4ea2-b92f-2e33b9a08e50","system_id":"levelo_inurba_marseille","lat":43.303519,"lon":5.418706,"is_reserved":false,"is_disabled":false,"rental_uris":{"android":"levelo://app?vid=f5320a39-d764-4ea2-b92f-2e33b9a08e50","ios":"levelo://app?vid=f5320a39-d764-4ea2-b92f-2e33b9a08e50"},"vehicle_type_id":"4","last_reported":1729832995,"current_range_meters":38800,"station_id":"ce4bhop2rcd13ifvqh7g","pricing_plan_id":"cebpf4jnsgd1na2vs0mg"},{"bike_id":"97ec9672-eea4-4d9a-8a25-013f09b65b94","system_id":"levelo_inurba_marseille","lat":43.25576,"lon":5.38237,"is_reserved":false,"is_disabled":false,"rental_uris":{"android":"levelo://app?vid=97ec9672-eea4-4d9a-8a25-013f09b65b94","ios":"levelo://app?vid=97ec9672-eea4-4d9a-8a25-013f09b65b94"},"vehicle_type_id":"4","last_reported":1729832995,"current_range_meters":3200,"station_id":"ce4bhih2rcd13ifvqfs0","pricing_plan_id":"cebpf4jnsgd1na2vs0mg"},{"bike_id":"1c94711f-6e8d-4080-84e2-4aabc2656ca2","system_id":"levelo_inurba_marseille","lat":43.3133,"lon":5.397,"is_reserved":false,"is_disabled":false,"rental_uris":{"android":"levelo://app?vid=1c94711f-6e8d-4080-84e2-4aabc2656ca2","ios":"levelo://app?vid=1c94711f-6e8d-4080-84e2-4aabc2656ca2"},"vehicle_type_id":"4","last_reported":1729832995,"current_range_meters":38400,"station_id":"ce4bgvp2rcd13ifvqcu0","pricing_plan_id":"cebpf4jnsgd1na2vs0mg"},{"bike_id":"bebd8251-2a0e-424a-a2c9-94c8dedde414","system_id":"levelo_inurba_marseille","lat":43.28434,"lon":5.39187,"is_reserved":false,"is_disabled":false,"rental_uris":{"android":"levelo://app?vid=bebd8251-2a0e-424a-a2c9-94c8dedde414","ios":"levelo://app?vid=bebd8251-2a0e-424a-a2c9-94c8dedde414"},"vehicle_type_id":"4","last_reported":1729832995,"current_range_meters":38800,"station_id":"ce4bhoh2rcd13ifvqh5g","pricing_plan_id":"cebpf4jnsgd1na2vs0mg"},{"bike_id":"945febbc-a04e-4982-9383-430e55848664","system_id":"levelo_inurba_marseille","lat":43.28702,"lon":5.39984,"is_reserved":false,"is_disabled":false,"rental_uris":{"android":"levelo://app?vid=945febbc-a04e-4982-9383-430e55848664","ios":"levelo://app?vid=945febbc-a04e-4982-9383-430e55848664"},"vehicle_type_id":"4","last_reported":1729832995,"current_range_meters":36800,"station_id":"ce4bho92rcd13ifvqh3g","pricing_plan_id":"cebpf4jnsgd1na2vs0mg"},{"bike_id":"4cd3f731-1c37-4c35-b840-f05d2119514b","system_id":"levelo_inurba_marseille","lat":43.31172,"lon":5.3871,"is_reserved":false,"is_disabled":false,"rental_uris":{"android":"levelo://app?vid=4cd3f731-1c37-4c35-b840-f05d2119514b","ios":"levelo://app?vid=4cd3f731-1c37-4c35-b840-f05d2119514b"},"vehicle_type_id":"4","last_reported":1729832995,"current_range_meters":19600,"station_id":"ce4bgv12rcd13ifvqcp0","pricing_plan_id":"cebpf4jnsgd1na2vs0mg"},{"bike_id":"07a4dd6a-7a9b-4c2e-af37-7bc6a487b496","system_id":"levelo_inurba_marseille","lat":43.31121,"lon":5.37762,"is_reserved":false,"is_disabled":false,"rental_uris":{"android":"levelo://app?vid=07a4dd6a-7a9b-4c2e-af37-7bc6a487b496","ios":"levelo://app?vid=07a4dd6a-7a9b-4c2e-af37-7bc6a487b496"},"vehicle_type_id":"4","last_reported":1729832995,"current_range_meters":38800,"station_id":"ce4bgt92rcd13ifvqcg0","pricing_plan_id":"cebpf4jnsgd1na2vs0mg"},{"bike_id":"11f081d7-e67a-4679-877a-555bb916c71f","system_id":"levelo_inurba_marseille","lat":43.27614,"lon":5.36117,"is_reserved":false,"is_disabled":false,"rental_uris":{"android":"levelo://app?vid=11f081d7-e67a-4679-877a-555bb916c71f","ios":"levelo://app?vid=11f081d7-e67a-4679-877a-555bb916c71f"},"vehicle_type_id":"4","last_reported":1729832995,"current_range_meters":26000,"station_id":"ce4bgj92rcd13ifvqbe0","pricing_plan_id":"cebpf4jnsgd1na2vs0mg"},{"bike_id":"f4f27ae7-654d-4104-aa73-961e6f0fd821","system_id":"levelo_inurba_marseille","lat":43.29258,"lon":5.40902,"is_reserved":false,"is_disabled":false,"rental_uris":{"android":"levelo://app?vid=f4f27ae7-654d-4104-aa73-961e6f0fd821","ios":"levelo://app?vid=f4f27ae7-654d-4104-aa73-961e6f0fd821"},"vehicle_type_id":"4","last_reported":1729832995,"current_range_meters":20000,"station_id":"ce4bh192rcd13ifvqdc0","pricing_plan_id":"cebpf4jnsgd1na2vs0mg"},{"bike_id":"c3935a53-e28c-4337-bded-a6e390322821","system_id":"levelo_inurba_marseille","lat":43.23182,"lon":5.39981,"is_reserved":false,"is_disabled":false,"rental_uris":{"android":"levelo://app?vid=c3935a53-e28c-4337-bded-a6e390322821","ios":"levelo://app?vid=c3935a53-e28c-4337-bded-a6e390322821"},"vehicle_type_id":"4","last_reported":1729832995,"current_range_meters":38800,"station_id":"ce4bhn12rcd13ifvqgqg","pricing_plan_id":"cebpf4jnsgd1na2vs0mg"},{"bike_id":"4eaf78a7-cb00-4465-8558-b7a0dbe903df","system_id":"levelo_inurba_marseille","lat":43.28935,"lon":5.39621,"is_reserved":false,"is_disabled":false,"rental_uris":{"android":"levelo://app?vid=4eaf78a7-cb00-4465-8558-b7a0dbe903df","ios":"levelo://app?vid=4eaf78a7-cb00-4465-8558-b7a0dbe903df"},"vehicle_type_id":"4","last_reported":1729832995,"current_range_meters":38800,"station_id":"ce4bh3h2rcd13ifvqdn0","pricing_plan_id":"cebpf4jnsgd1na2vs0mg"},{"bike_id":"225915a2-c8fc-42aa-80b6-e05c1550c0ed","system_id":"levelo_inurba_marseille","lat":43.25119,"lon":5.40318,"is_reserved":false,"is_disabled":false,"rental_uris":{"android":"levelo://app?vid=225915a2-c8fc-42aa-80b6-e05c1550c0ed","ios":"levelo://app?vid=225915a2-c8fc-42aa-80b6-e05c1550c0ed"},"vehicle_type_id":"4","last_reported":1729832995,"current_range_meters":9600,"station_id":"ce4bhlh2rcd13ifvqgig","pricing_plan_id":"cebpf4jnsgd1na2vs0mg"},{"bike_id":"9c980766-3696-42be-8e1a-d22fb6edb5c5","system_id":"levelo_inurba_marseille","lat":43.306538,"lon":5.381726,"is_reserved":false,"is_disabled":false,"rental_uris":{"android":"levelo://app?vid=9c980766-3696-42be-8e1a-d22fb6edb5c5","ios":"levelo://app?vid=9c980766-3696-42be-8e1a-d22fb6edb5c5"},"vehicle_type_id":"4","last_reported":1729832995,"current_range_meters":25600,"station_id":"","pricing_plan_id":"cebpf4jnsgd1na2vs0mg"},{"bike_id":"2ec6d2db-c2fd-4b8e-97e9-3f95f3d71e2f","system_id":"levelo_inurba_marseille","lat":43.26941,"lon":5.402432,"is_reserved":false,"is_disabled":false,"rental_uris":{"android":"levelo://app?vid=2ec6d2db-c2fd-4b8e-97e9-3f95f3d71e2f","ios":"levelo://app?vid=2ec6d2db-c2fd-4b8e-97e9-3f95f3d71e2f"},"vehicle_type_id":"4","last_reported":1729832995,"current_range_meters":17600,"station_id":"cjm6bp8fraef2m0cb0m0","pricing_plan_id":"cebpf4jnsgd1na2vs0mg"},{"bike_id":"6fd4971a-db3f-4826-9ddf-71b29c3b9231","system_id":"levelo_inurba_marseille","lat":43.27807,"lon":5.40712,"is_reserved":false,"is_disabled":false,"rental_uris":{"android":"levelo://app?vid=6fd4971a-db3f-4826-9ddf-71b29c3b9231","ios":"levelo://app?vid=6fd4971a-db3f-4826-9ddf-71b29c3b9231"},"vehicle_type_id":"4","last_reported":1729832995,"current_range_meters":16000,"station_id":"ce4bhnh2rcd13ifvqgtg","pricing_plan_id":"cebpf4jnsgd1na2vs0mg"},{"bike_id":"f9ec36ed-f1e8-4d39-a330-d53d339322cc","system_id":"levelo_inurba_marseille","lat":43.24947,"lon":5.39746,"is_reserved":false,"is_disabled":false,"rental_uris":{"android":"levelo://app?vid=f9ec36ed-f1e8-4d39-a330-d53d339322cc","ios":"levelo://app?vid=f9ec36ed-f1e8-4d39-a330-d53d339322cc"},"vehicle_type_id":"4","last_reported":1729832995,"current_range_meters":18800,"station_id":"","pricing_plan_id":"cebpf4jnsgd1na2vs0mg"},{"bike_id":"52f0e4a5-d535-4f96-b297-18be6815ac33","system_id":"levelo_inurba_marseille","lat":43.33724,"lon":5.39184,"is_reserved":false,"is_disabled":false,"rental_uris":{"android":"levelo://app?vid=52f0e4a5-d535-4f96-b297-18be6815ac33","ios":"levelo://app?vid=52f0e4a5-d535-4f96-b297-18be6815ac33"},"vehicle_type_id":"4","last_reported":1729832995,"current_range_meters":39200,"station_id":"ce4bhr92rcd13ifvqhsg","pricing_plan_id":"cebpf4jnsgd1na2vs0mg"},{"bike_id":"754334dc-7c77-42cd-ae7c-2bd7ea4eeedc","system_id":"levelo_inurba_marseille","lat":43.25087,"lon":5.39513,"is_reserved":false,"is_disabled":false,"rental_uris":{"android":"levelo://app?vid=754334dc-7c77-42cd-ae7c-2bd7ea4eeedc","ios":"levelo://app?vid=754334dc-7c77-42cd-ae7c-2bd7ea4eeedc"},"vehicle_type_id":"4","last_reported":1729832995,"current_range_meters":31200,"station_id":"ce4bhm12rcd13ifvqgkg","pricing_plan_id":"cebpf4jnsgd1na2vs0mg"},{"bike_id":"ddc9d34a-3a18-4656-afac-2c40e00335c6","system_id":"levelo_inurba_marseille","lat":43.26486,"lon":5.39551,"is_reserved":false,"is_disabled":false,"rental_uris":{"android":"levelo://app?vid=ddc9d34a-3a18-4656-afac-2c40e00335c6","ios":"levelo://app?vid=ddc9d34a-3a18-4656-afac-2c40e00335c6"},"vehicle_type_id":"4","last_reported":1729832995,"current_range_meters":8800,"station_id":"ce4bhi12rcd13ifvqfq0","pricing_plan_id":"cebpf4jnsgd1na2vs0mg"},{"bike_id":"75821cfc-60d2-4650-a80a-1e7714262e8c","system_id":"levelo_inurba_marseille","lat":43.24663,"lon":5.38162,"is_reserved":false,"is_disabled":false,"rental_uris":{"android":"levelo://app?vid=75821cfc-60d2-4650-a80a-1e7714262e8c","ios":"levelo://app?vid=75821cfc-60d2-4650-a80a-1e7714262e8c"},"vehicle_type_id":"4","last_reported":1729832995,"current_range_meters":25200,"station_id":"ce4bhih2rcd13ifvqfr0","pricing_plan_id":"cebpf4jnsgd1na2vs0mg"},{"bike_id":"a6ea92f8-afac-4a6d-a092-01c491ae83a5","system_id":"levelo_inurba_marseille","lat":43.25818,"lon":5.39422,"is_reserved":false,"is_disabled":false,"rental_uris":{"android":"levelo://app?vid=a6ea92f8-afac-4a6d-a092-01c491ae83a5","ios":"levelo://app?vid=a6ea92f8-afac-4a6d-a092-01c491ae83a5"},"vehicle_type_id":"4","last_reported":1729832995,"current_range_meters":10800,"station_id":"ce4bhip2rcd13ifvqft0","pricing_plan_id":"cebpf4jnsgd1na2vs0mg"},{"bike_id":"21b771f5-e12c-4d5b-be50-280d4e6da9bd","system_id":"levelo_inurba_marseille","lat":43.26684,"lon":5.38267,"is_reserved":false,"is_disabled":false,"rental_uris":{"android":"levelo://app?vid=21b771f5-e12c-4d5b-be50-280d4e6da9bd","ios":"levelo://app?vid=21b771f5-e12c-4d5b-be50-280d4e6da9bd"},"vehicle_type_id":"4","last_reported":1729832995,"current_range_meters":26800,"station_id":"ce4bhg92rcd13ifvqf90","pricing_plan_id":"cebpf4jnsgd1na2vs0mg"},{"bike_id":"b61630d4-f3db-41f1-b3da-75767a8633f7","system_id":"levelo_inurba_marseille","lat":43.32287,"lon":5.38277,"is_reserved":false,"is_disabled":false,"rental_uris":{"android":"levelo://app?vid=b61630d4-f3db-41f1-b3da-75767a8633f7","ios":"levelo://app?vid=b61630d4-f3db-41f1-b3da-75767a8633f7"},"vehicle_type_id":"4","last_reported":1729832995,"current_range_meters":38800,"station_id":"ce4bhr12rcd13ifvqhqg","pricing_plan_id":"cebpf4jnsgd1na2vs0mg"},{"bike_id":"9547fe9f-7da9-478b-9033-f446ea71bb69","system_id":"levelo_inurba_marseille","lat":43.31081,"lon":5.42426,"is_reserved":false,"is_disabled":false,"rental_uris":{"android":"levelo://app?vid=9547fe9f-7da9-478b-9033-f446ea71bb69","ios":"levelo://app?vid=9547fe9f-7da9-478b-9033-f446ea71bb69"},"vehicle_type_id":"4","last_reported":1729832995,"current_range_meters":38000,"station_id":"ce4bhp92rcd13ifvqhag","pricing_plan_id":"cebpf4jnsgd1na2vs0mg"},{"bike_id":"99bb2094-88fa-42cc-a5cf-b8426df07a9f","system_id":"levelo_inurba_marseille","lat":43.284594,"lon":5.358859,"is_reserved":false,"is_disabled":false,"rental_uris":{"android":"levelo://app?vid=99bb2094-88fa-42cc-a5cf-b8426df07a9f","ios":"levelo://app?vid=99bb2094-88fa-42cc-a5cf-b8426df07a9f"},"vehicle_type_id":"4","last_reported":1729832995,"current_range_meters":38800,"station_id":"ce4bhah2rcd13ifvqei0","pricing_plan_id":"cebpf4jnsgd1na2vs0mg"},{"bike_id":"4e410331-f280-4f72-a427-77fa63ae7d63","system_id":"levelo_inurba_marseille","lat":43.283417,"lon":5.380993,"is_reserved":false,"is_disabled":false,"rental_uris":{"android":"levelo://app?vid=4e410331-f280-4f72-a427-77fa63ae7d63","ios":"levelo://app?vid=4e410331-f280-4f72-a427-77fa63ae7d63"},"vehicle_type_id":"4","last_reported":1729832995,"current_range_meters":31200,"station_id":"ce4bgkh2rcd13ifvqbl0","pricing_plan_id":"cebpf4jnsgd1na2vs0mg"},{"bike_id":"221e5552-19db-448a-a918-2b8bb19e6034","system_id":"levelo_inurba_marseille","lat":43.27178,"lon":5.40991,"is_reserved":false,"is_disabled":false,"rental_uris":{"android":"levelo://app?vid=221e5552-19db-448a-a918-2b8bb19e6034","ios":"levelo://app?vid=221e5552-19db-448a-a918-2b8bb19e6034"},"vehicle_type_id":"4","last_reported":1729832995,"current_range_meters":22000,"station_id":"ce4bhl12rcd13ifvqgf0","pricing_plan_id":"cebpf4jnsgd1na2vs0mg"},{"bike_id":"aa2296b3-9e48-4eb8-8736-02ee29db4f53","system_id":"levelo_inurba_marseille","lat":43.302822,"lon":5.377025,"is_reserved":false,"is_disabled":false,"rental_uris":{"android":"levelo://app?vid=aa2296b3-9e48-4eb8-8736-02ee29db4f53","ios":"levelo://app?vid=aa2296b3-9e48-4eb8-8736-02ee29db4f53"},"vehicle_type_id":"4","last_reported":1729832995,"current_range_meters":38000,"station_id":"ce4bguh2rcd13ifvqcj0","pricing_plan_id":"cebpf4jnsgd1na2vs0mg"},{"bike_id":"feda9bc1-b886-4640-ad92-201ddc16513e","system_id":"levelo_inurba_marseille","lat":43.32289,"lon":5.3827,"is_reserved":false,"is_disabled":false,"rental_uris":{"android":"levelo://app?vid=feda9bc1-b886-4640-ad92-201ddc16513e","ios":"levelo://app?vid=feda9bc1-b886-4640-ad92-201ddc16513e"},"vehicle_type_id":"4","last_reported":1729832995,"current_range_meters":38800,"station_id":"ce4bhr12rcd13ifvqhqg","pricing_plan_id":"cebpf4jnsgd1na2vs0mg"},{"bike_id":"2c9947f2-f4c8-4a1f-8226-d9c489982dc0","system_id":"levelo_inurba_marseille","lat":43.29203,"lon":5.39323,"is_reserved":false,"is_disabled":false,"rental_uris":{"android":"levelo://app?vid=2c9947f2-f4c8-4a1f-8226-d9c489982dc0","ios":"levelo://app?vid=2c9947f2-f4c8-4a1f-8226-d9c489982dc0"},"vehicle_type_id":"4","last_reported":1729832995,"current_range_meters":38800,"station_id":"","pricing_plan_id":"cebpf4jnsgd1na2vs0mg"},{"bike_id":"efe0b02e-9dcd-4192-8f41-25a0bf494636","system_id":"levelo_inurba_marseille","lat":43.32481,"lon":5.36573,"is_reserved":false,"is_disabled":false,"rental_uris":{"android":"levelo://app?vid=efe0b02e-9dcd-4192-8f41-25a0bf494636","ios":"levelo://app?vid=efe0b02e-9dcd-4192-8f41-25a0bf494636"},"vehicle_type_id":"4","last_reported":1729832995,"current_range_meters":4800,"station_id":"ce4bhs12rcd13ifvqhvg","pricing_plan_id":"cebpf4jnsgd1na2vs0mg"},{"bike_id":"23fb4691-645c-46c3-83cf-1c54445797c5","system_id":"levelo_inurba_marseille","lat":43.27182,"lon":5.40992,"is_reserved":false,"is_disabled":false,"rental_uris":{"android":"levelo://app?vid=23fb4691-645c-46c3-83cf-1c54445797c5","ios":"levelo://app?vid=23fb4691-645c-46c3-83cf-1c54445797c5"},"vehicle_type_id":"4","last_reported":1729832995,"current_range_meters":30000,"station_id":"ce4bhl12rcd13ifvqgf0","pricing_plan_id":"cebpf4jnsgd1na2vs0mg"},{"bike_id":"212337c5-c27c-4ce8-a37e-735a2e6c27ae","system_id":"levelo_inurba_marseille","lat":43.317064,"lon":5.377561,"is_reserved":false,"is_disabled":false,"rental_uris":{"android":"levelo://app?vid=212337c5-c27c-4ce8-a37e-735a2e6c27ae","ios":"levelo://app?vid=212337c5-c27c-4ce8-a37e-735a2e6c27ae"},"vehicle_type_id":"4","last_reported":1729832995,"current_range_meters":39200,"station_id":"ce4bgth2rcd13ifvqch0","pricing_plan_id":"cebpf4jnsgd1na2vs0mg"},{"bike_id":"69b9109b-cc32-41c9-b636-a90207b81c95","system_id":"levelo_inurba_marseille","lat":43.25108,"lon":5.4032,"is_reserved":false,"is_disabled":false,"rental_uris":{"android":"levelo://app?vid=69b9109b-cc32-41c9-b636-a90207b81c95","ios":"levelo://app?vid=69b9109b-cc32-41c9-b636-a90207b81c95"},"vehicle_type_id":"4","last_reported":1729832995,"current_range_meters":27200,"station_id":"ce4bhlh2rcd13ifvqgig","pricing_plan_id":"cebpf4jnsgd1na2vs0mg"},{"bike_id":"680a3560-2732-4a5e-ab5e-3992543e3753","system_id":"levelo_inurba_marseille","lat":43.28461,"lon":5.35889,"is_reserved":false,"is_disabled":false,"rental_uris":{"android":"levelo://app?vid=680a3560-2732-4a5e-ab5e-3992543e3753","ios":"levelo://app?vid=680a3560-2732-4a5e-ab5e-3992543e3753"},"vehicle_type_id":"4","last_reported":1729832995,"current_range_meters":24800,"station_id":"ce4bhah2rcd13ifvqei0","pricing_plan_id":"cebpf4jnsgd1na2vs0mg"},{"bike_id":"7a86b841-3807-4574-ba92-5397b4d1c9ad","system_id":"levelo_inurba_marseille","lat":43.30802,"lon":5.38159,"is_reserved":false,"is_disabled":false,"rental_uris":{"android":"levelo://app?vid=7a86b841-3807-4574-ba92-5397b4d1c9ad","ios":"levelo://app?vid=7a86b841-3807-4574-ba92-5397b4d1c9ad"},"vehicle_type_id":"4","last_reported":1729832995,"current_range_meters":20800,"station_id":"ce4bgt12rcd13ifvqce0","pricing_plan_id":"cebpf4jnsgd1na2vs0mg"},{"bike_id":"37ebf97c-2882-43e4-b0c4-f01c0ca24482","system_id":"levelo_inurba_marseille","lat":43.25108,"lon":5.40328,"is_reserved":false,"is_disabled":false,"rental_uris":{"android":"levelo://app?vid=37ebf97c-2882-43e4-b0c4-f01c0ca24482","ios":"levelo://app?vid=37ebf97c-2882-43e4-b0c4-f01c0ca24482"},"vehicle_type_id":"4","last_reported":1729832995,"current_range_meters":31200,"station_id":"ce4bhlh2rcd13ifvqgig","pricing_plan_id":"cebpf4jnsgd1na2vs0mg"},{"bike_id":"2943f9cb-664e-44ef-9c5c-f5c75c4372b4","system_id":"levelo_inurba_marseille","lat":43.30422,"lon":5.39755,"is_reserved":false,"is_disabled":false,"rental_uris":{"android":"levelo://app?vid=2943f9cb-664e-44ef-9c5c-f5c75c4372b4","ios":"levelo://app?vid=2943f9cb-664e-44ef-9c5c-f5c75c4372b4"},"vehicle_type_id":"4","last_reported":1729832995,"current_range_meters":34000,"station_id":"ce4bh092rcd13ifvqd20","pricing_plan_id":"cebpf4jnsgd1na2vs0mg"},{"bike_id":"26896ebd-7e00-40b8-b171-09c955db11f3","system_id":"levelo_inurba_marseille","lat":43.29627,"lon":5.40595,"is_reserved":false,"is_disabled":false,"rental_uris":{"android":"levelo://app?vid=26896ebd-7e00-40b8-b171-09c955db11f3","ios":"levelo://app?vid=26896ebd-7e00-40b8-b171-09c955db11f3"},"vehicle_type_id":"4","last_reported":1729832995,"current_range_meters":36000,"station_id":"ce4bh0h2rcd13ifvqd60","pricing_plan_id":"cebpf4jnsgd1na2vs0mg"},{"bike_id":"924fcd39-f493-460f-8a6d-fe5ac0eb02ca","system_id":"levelo_inurba_marseille","lat":43.28104,"lon":5.3783,"is_reserved":false,"is_disabled":false,"rental_uris":{"android":"levelo://app?vid=924fcd39-f493-460f-8a6d-fe5ac0eb02ca","ios":"levelo://app?vid=924fcd39-f493-460f-8a6d-fe5ac0eb02ca"},"vehicle_type_id":"4","last_reported":1729832995,"current_range_meters":38800,"station_id":"ce4bha12rcd13ifvqee0","pricing_plan_id":"cebpf4jnsgd1na2vs0mg"},{"bike_id":"99c8e0fa-6615-4134-a71b-0aef8bdafcb5","system_id":"levelo_inurba_marseille","lat":43.30418,"lon":5.41279,"is_reserved":false,"is_disabled":false,"rental_uris":{"android":"levelo://app?vid=99c8e0fa-6615-4134-a71b-0aef8bdafcb5","ios":"levelo://app?vid=99c8e0fa-6615-4134-a71b-0aef8bdafcb5"},"vehicle_type_id":"4","last_reported":1729832995,"current_range_meters":34000,"station_id":"ce4bhop2rcd13ifvqh8g","pricing_plan_id":"cebpf4jnsgd1na2vs0mg"},{"bike_id":"27f07749-69c9-4079-9dec-2b38276cccb0","system_id":"levelo_inurba_marseille","lat":43.231531,"lon":5.437095,"is_reserved":false,"is_disabled":false,"rental_uris":{"android":"levelo://app?vid=27f07749-69c9-4079-9dec-2b38276cccb0","ios":"levelo://app?vid=27f07749-69c9-4079-9dec-2b38276cccb0"},"vehicle_type_id":"4","last_reported":1729832995,"current_range_meters":37600,"station_id":"ce4bhmp2rcd13ifvqgog","pricing_plan_id":"cebpf4jnsgd1na2vs0mg"},{"bike_id":"7691659f-eea1-4b4d-8db5-2728fcde3a23","system_id":"levelo_inurba_marseille","lat":43.29386,"lon":5.37528,"is_reserved":false,"is_disabled":false,"rental_uris":{"android":"levelo://app?vid=7691659f-eea1-4b4d-8db5-2728fcde3a23","ios":"levelo://app?vid=7691659f-eea1-4b4d-8db5-2728fcde3a23"},"vehicle_type_id":"4","last_reported":1729832995,"current_range_meters":27600,"station_id":"ce4bhr12rcd13ifvqhqg","pricing_plan_id":"cebpf4jnsgd1na2vs0mg"},{"bike_id":"e3e5bfd4-aa3a-4dde-ae09-1bddb4754208","system_id":"levelo_inurba_marseille","lat":43.28569,"lon":5.39505,"is_reserved":false,"is_disabled":false,"rental_uris":{"android":"levelo://app?vid=e3e5bfd4-aa3a-4dde-ae09-1bddb4754208","ios":"levelo://app?vid=e3e5bfd4-aa3a-4dde-ae09-1bddb4754208"},"vehicle_type_id":"4","last_reported":1729832995,"current_range_meters":8400,"station_id":"ce4bh292rcd13ifvqdg0","pricing_plan_id":"cebpf4jnsgd1na2vs0mg"},{"bike_id":"91479232-2ac0-4400-bb25-e592d9faa594","system_id":"levelo_inurba_marseille","lat":43.2808,"lon":5.3965,"is_reserved":false,"is_disabled":false,"rental_uris":{"android":"levelo://app?vid=91479232-2ac0-4400-bb25-e592d9faa594","ios":"levelo://app?vid=91479232-2ac0-4400-bb25-e592d9faa594"},"vehicle_type_id":"4","last_reported":1729832995,"current_range_meters":28800,"station_id":"ce4bho12rcd13ifvqh2g","pricing_plan_id":"cebpf4jnsgd1na2vs0mg"},{"bike_id":"b3c5c80d-fb10-447a-a7ae-9e83cf2e8853","system_id":"levelo_inurba_marseille","lat":43.27946,"lon":5.41038,"is_reserved":false,"is_disabled":false,"rental_uris":{"android":"levelo://app?vid=b3c5c80d-fb10-447a-a7ae-9e83cf2e8853","ios":"levelo://app?vid=b3c5c80d-fb10-447a-a7ae-9e83cf2e8853"},"vehicle_type_id":"4","last_reported":1729832995,"current_range_meters":26800,"station_id":"ce4bhnp2rcd13ifvqh0g","pricing_plan_id":"cebpf4jnsgd1na2vs0mg"},{"bike_id":"02578664-e44d-44a9-8726-802680ea0dbf","system_id":"levelo_inurba_marseille","lat":43.25089,"lon":5.39521,"is_reserved":false,"is_disabled":false,"rental_uris":{"android":"levelo://app?vid=02578664-e44d-44a9-8726-802680ea0dbf","ios":"levelo://app?vid=02578664-e44d-44a9-8726-802680ea0dbf"},"vehicle_type_id":"4","last_reported":1729832995,"current_range_meters":38400,"station_id":"ce4bhm12rcd13ifvqgkg","pricing_plan_id":"cebpf4jnsgd1na2vs0mg"},{"bike_id":"d9bd67b1-0c85-4cf7-bec8-f00414e9e126","system_id":"levelo_inurba_marseille","lat":43.258712,"lon":5.399002,"is_reserved":false,"is_disabled":false,"rental_uris":{"android":"levelo://app?vid=d9bd67b1-0c85-4cf7-bec8-f00414e9e126","ios":"levelo://app?vid=d9bd67b1-0c85-4cf7-bec8-f00414e9e126"},"vehicle_type_id":"4","last_reported":1729832995,"current_range_meters":37600,"station_id":"ce4bhl92rcd13ifvqghg","pricing_plan_id":"cebpf4jnsgd1na2vs0mg"},{"bike_id":"bd583295-50bd-4b36-944a-2b1f2eda6da1","system_id":"levelo_inurba_marseille","lat":43.24806,"lon":5.37456,"is_reserved":false,"is_disabled":false,"rental_uris":{"android":"levelo://app?vid=bd583295-50bd-4b36-944a-2b1f2eda6da1","ios":"levelo://app?vid=bd583295-50bd-4b36-944a-2b1f2eda6da1"},"vehicle_type_id":"4","last_reported":1729832995,"current_range_meters":39200,"station_id":"ce4bhgh2rcd13ifvqfb0","pricing_plan_id":"cebpf4jnsgd1na2vs0mg"},{"bike_id":"7a1cf1a5-4ec6-4280-b7d7-b6892194e89d","system_id":"levelo_inurba_marseille","lat":43.31171,"lon":5.38713,"is_reserved":false,"is_disabled":false,"rental_uris":{"android":"levelo://app?vid=7a1cf1a5-4ec6-4280-b7d7-b6892194e89d","ios":"levelo://app?vid=7a1cf1a5-4ec6-4280-b7d7-b6892194e89d"},"vehicle_type_id":"4","last_reported":1729832995,"current_range_meters":14400,"station_id":"ce4bgv12rcd13ifvqcp0","pricing_plan_id":"cebpf4jnsgd1na2vs0mg"},{"bike_id":"59519303-478b-4b2d-a90c-6f27e032214e","system_id":"levelo_inurba_marseille","lat":43.31278,"lon":5.40167,"is_reserved":false,"is_disabled":false,"rental_uris":{"android":"levelo://app?vid=59519303-478b-4b2d-a90c-6f27e032214e","ios":"levelo://app?vid=59519303-478b-4b2d-a90c-6f27e032214e"},"vehicle_type_id":"4","last_reported":1729832995,"current_range_meters":38800,"station_id":"ce4bh092rcd13ifvqd30","pricing_plan_id":"cebpf4jnsgd1na2vs0mg"},{"bike_id":"f8cecf0c-10de-4472-8dde-c9048ba86d77","system_id":"levelo_inurba_marseille","lat":43.30806,"lon":5.38161,"is_reserved":false,"is_disabled":false,"rental_uris":{"android":"levelo://app?vid=f8cecf0c-10de-4472-8dde-c9048ba86d77","ios":"levelo://app?vid=f8cecf0c-10de-4472-8dde-c9048ba86d77"},"vehicle_type_id":"4","last_reported":1729832995,"current_range_meters":13600,"station_id":"ce4bgt12rcd13ifvqce0","pricing_plan_id":"cebpf4jnsgd1na2vs0mg"},{"bike_id":"3e168155-cea6-43bf-b01c-81821ed7401c","system_id":"levelo_inurba_marseille","lat":43.25115,"lon":5.4032,"is_reserved":false,"is_disabled":false,"rental_uris":{"android":"levelo://app?vid=3e168155-cea6-43bf-b01c-81821ed7401c","ios":"levelo://app?vid=3e168155-cea6-43bf-b01c-81821ed7401c"},"vehicle_type_id":"4","last_reported":1729832995,"current_range_meters":30800,"station_id":"ce4bhlh2rcd13ifvqgig","pricing_plan_id":"cebpf4jnsgd1na2vs0mg"},{"bike_id":"34788d59-8165-467d-9f8f-66b7bf82952d","system_id":"levelo_inurba_marseille","lat":43.25112,"lon":5.40327,"is_reserved":false,"is_disabled":false,"rental_uris":{"android":"levelo://app?vid=34788d59-8165-467d-9f8f-66b7bf82952d","ios":"levelo://app?vid=34788d59-8165-467d-9f8f-66b7bf82952d"},"vehicle_type_id":"4","last_reported":1729832995,"current_range_meters":30800,"station_id":"ce4bhlh2rcd13ifvqgig","pricing_plan_id":"cebpf4jnsgd1na2vs0mg"},{"bike_id":"1ae03ad6-7fcc-41ec-afc3-fa62fd0da5d8","system_id":"levelo_inurba_marseille","lat":43.30424,"lon":5.39746,"is_reserved":false,"is_disabled":false,"rental_uris":{"android":"levelo://app?vid=1ae03ad6-7fcc-41ec-afc3-fa62fd0da5d8","ios":"levelo://app?vid=1ae03ad6-7fcc-41ec-afc3-fa62fd0da5d8"},"vehicle_type_id":"4","last_reported":1729832995,"current_range_meters":24800,"station_id":"ce4bh092rcd13ifvqd20","pricing_plan_id":"cebpf4jnsgd1na2vs0mg"},{"bike_id":"ad8299a1-fbf5-4384-9870-0fbedd025318","system_id":"levelo_inurba_marseille","lat":43.28707,"lon":5.39987,"is_reserved":false,"is_disabled":false,"rental_uris":{"android":"levelo://app?vid=ad8299a1-fbf5-4384-9870-0fbedd025318","ios":"levelo://app?vid=ad8299a1-fbf5-4384-9870-0fbedd025318"},"vehicle_type_id":"4","last_reported":1729832995,"current_range_meters":16000,"station_id":"ce4bho92rcd13ifvqh3g","pricing_plan_id":"cebpf4jnsgd1na2vs0mg"},{"bike_id":"22ee7f7e-7c39-4074-9f88-de6c04873b9d","system_id":"levelo_inurba_marseille","lat":43.2511,"lon":5.40331,"is_reserved":false,"is_disabled":false,"rental_uris":{"android":"levelo://app?vid=22ee7f7e-7c39-4074-9f88-de6c04873b9d","ios":"levelo://app?vid=22ee7f7e-7c39-4074-9f88-de6c04873b9d"},"vehicle_type_id":"4","last_reported":1729832995,"current_range_meters":21600,"station_id":"ce4bhlh2rcd13ifvqgig","pricing_plan_id":"cebpf4jnsgd1na2vs0mg"},{"bike_id":"adb6c389-ce43-47b4-807d-369c494bed23","system_id":"levelo_inurba_marseille","lat":43.30803,"lon":5.38151,"is_reserved":false,"is_disabled":false,"rental_uris":{"android":"levelo://app?vid=adb6c389-ce43-47b4-807d-369c494bed23","ios":"levelo://app?vid=adb6c389-ce43-47b4-807d-369c494bed23"},"vehicle_type_id":"4","last_reported":1729832995,"current_range_meters":30000,"station_id":"ce4bgt12rcd13ifvqce0","pricing_plan_id":"cebpf4jnsgd1na2vs0mg"},{"bike_id":"bf04075e-e3c1-4762-ae0f-34ebb3dbdf11","system_id":"levelo_inurba_marseille","lat":43.25502,"lon":5.37651,"is_reserved":false,"is_disabled":false,"rental_uris":{"android":"levelo://app?vid=bf04075e-e3c1-4762-ae0f-34ebb3dbdf11","ios":"levelo://app?vid=bf04075e-e3c1-4762-ae0f-34ebb3dbdf11"},"vehicle_type_id":"4","last_reported":1729832995,"current_range_meters":9600,"station_id":"ce4bhh12rcd13ifvqff0","pricing_plan_id":"cebpf4jnsgd1na2vs0mg"},{"bike_id":"66f020ae-5526-4ad0-8af9-6a968240ac52","system_id":"levelo_inurba_marseille","lat":43.32476,"lon":5.36575,"is_reserved":false,"is_disabled":false,"rental_uris":{"android":"levelo://app?vid=66f020ae-5526-4ad0-8af9-6a968240ac52","ios":"levelo://app?vid=66f020ae-5526-4ad0-8af9-6a968240ac52"},"vehicle_type_id":"4","last_reported":1729832995,"current_range_meters":38400,"station_id":"ce4bhs12rcd13ifvqhvg","pricing_plan_id":"cebpf4jnsgd1na2vs0mg"},{"bike_id":"6e490ada-941f-4a47-b70c-faae73b36f3c","system_id":"levelo_inurba_marseille","lat":43.24068,"lon":5.37757,"is_reserved":false,"is_disabled":false,"rental_uris":{"android":"levelo://app?vid=6e490ada-941f-4a47-b70c-faae73b36f3c","ios":"levelo://app?vid=6e490ada-941f-4a47-b70c-faae73b36f3c"},"vehicle_type_id":"4","last_reported":1729832995,"current_range_meters":28800,"station_id":"ce4bhnp2rcd13ifvqgvg","pricing_plan_id":"cebpf4jnsgd1na2vs0mg"},{"bike_id":"2ae23244-d39d-44c3-84d6-e47c45252a78","system_id":"levelo_inurba_marseille","lat":43.30548,"lon":5.38437,"is_reserved":false,"is_disabled":false,"rental_uris":{"android":"levelo://app?vid=2ae23244-d39d-44c3-84d6-e47c45252a78","ios":"levelo://app?vid=2ae23244-d39d-44c3-84d6-e47c45252a78"},"vehicle_type_id":"4","last_reported":1729832995,"current_range_meters":38800,"station_id":"ce4bgg92rcd13ifvqb30","pricing_plan_id":"cebpf4jnsgd1na2vs0mg"},{"bike_id":"97ec344c-b798-43c2-b569-284527c7dc58","system_id":"levelo_inurba_marseille","lat":43.32488,"lon":5.36499,"is_reserved":false,"is_disabled":false,"rental_uris":{"android":"levelo://app?vid=97ec344c-b798-43c2-b569-284527c7dc58","ios":"levelo://app?vid=97ec344c-b798-43c2-b569-284527c7dc58"},"vehicle_type_id":"4","last_reported":1729832995,"current_range_meters":4400,"station_id":"ce4bhs12rcd13ifvqhvg","pricing_plan_id":"cebpf4jnsgd1na2vs0mg"},{"bike_id":"3162cc6d-c9dc-4a96-a277-92f684b04b0c","system_id":"levelo_inurba_marseille","lat":43.265717,"lon":5.380079,"is_reserved":false,"is_disabled":false,"rental_uris":{"android":"levelo://app?vid=3162cc6d-c9dc-4a96-a277-92f684b04b0c","ios":"levelo://app?vid=3162cc6d-c9dc-4a96-a277-92f684b04b0c"},"vehicle_type_id":"4","last_reported":1729832995,"current_range_meters":25600,"station_id":"","pricing_plan_id":"cebpf4jnsgd1na2vs0mg"},{"bike_id":"4a1b761a-fa7f-4316-a1a7-8730c31a4a57","system_id":"levelo_inurba_marseille","lat":43.31276,"lon":5.40176,"is_reserved":false,"is_disabled":false,"rental_uris":{"android":"levelo://app?vid=4a1b761a-fa7f-4316-a1a7-8730c31a4a57","ios":"levelo://app?vid=4a1b761a-fa7f-4316-a1a7-8730c31a4a57"},"vehicle_type_id":"4","last_reported":1729832995,"current_range_meters":38800,"station_id":"ce4bh092rcd13ifvqd30","pricing_plan_id":"cebpf4jnsgd1na2vs0mg"},{"bike_id":"acbfb634-9458-4521-8d39-79b36fc061b2","system_id":"levelo_inurba_marseille","lat":43.31713,"lon":5.43704,"is_reserved":false,"is_disabled":false,"rental_uris":{"android":"levelo://app?vid=acbfb634-9458-4521-8d39-79b36fc061b2","ios":"levelo://app?vid=acbfb634-9458-4521-8d39-79b36fc061b2"},"vehicle_type_id":"4","last_reported":1729832995,"current_range_meters":38800,"station_id":"ce4bhp92rcd13ifvqhcg","pricing_plan_id":"cebpf4jnsgd1na2vs0mg"},{"bike_id":"fe80c4c5-b946-4e64-8970-ebe5ece9df34","system_id":"levelo_inurba_marseille","lat":43.23964,"lon":5.36637,"is_reserved":false,"is_disabled":false,"rental_uris":{"android":"levelo://app?vid=fe80c4c5-b946-4e64-8970-ebe5ece9df34","ios":"levelo://app?vid=fe80c4c5-b946-4e64-8970-ebe5ece9df34"},"vehicle_type_id":"4","last_reported":1729832995,"current_range_meters":32000,"station_id":"ce4bhi12rcd13ifvqfp0","pricing_plan_id":"cebpf4jnsgd1na2vs0mg"},{"bike_id":"0bc90dc2-cf8c-457e-a6aa-9b91de95f992","system_id":"levelo_inurba_marseille","lat":43.227577,"lon":5.415818,"is_reserved":false,"is_disabled":false,"rental_uris":{"android":"levelo://app?vid=0bc90dc2-cf8c-457e-a6aa-9b91de95f992","ios":"levelo://app?vid=0bc90dc2-cf8c-457e-a6aa-9b91de95f992"},"vehicle_type_id":"4","last_reported":1729832995,"current_range_meters":29600,"station_id":"","pricing_plan_id":"cebpf4jnsgd1na2vs0mg"},{"bike_id":"082e2a0f-744d-4193-aa51-84d41e9426e8","system_id":"levelo_inurba_marseille","lat":43.313653,"lon":5.384905,"is_reserved":false,"is_disabled":false,"rental_uris":{"android":"levelo://app?vid=082e2a0f-744d-4193-aa51-84d41e9426e8","ios":"levelo://app?vid=082e2a0f-744d-4193-aa51-84d41e9426e8"},"vehicle_type_id":"4","last_reported":1729832995,"current_range_meters":39200,"station_id":"ce4bgt92rcd13ifvqcf0","pricing_plan_id":"cebpf4jnsgd1na2vs0mg"},{"bike_id":"53ec09e0-0cc6-4418-bb0a-c214a494eb56","system_id":"levelo_inurba_marseille","lat":43.31118,"lon":5.37761,"is_reserved":false,"is_disabled":false,"rental_uris":{"android":"levelo://app?vid=53ec09e0-0cc6-4418-bb0a-c214a494eb56","ios":"levelo://app?vid=53ec09e0-0cc6-4418-bb0a-c214a494eb56"},"vehicle_type_id":"4","last_reported":1729832995,"current_range_meters":28400,"station_id":"ce4bgt92rcd13ifvqcg0","pricing_plan_id":"cebpf4jnsgd1na2vs0mg"},{"bike_id":"28709b84-b83d-46ed-8adb-237970d4384b","system_id":"levelo_inurba_marseille","lat":43.32361,"lon":5.38892,"is_reserved":false,"is_disabled":false,"rental_uris":{"android":"levelo://app?vid=28709b84-b83d-46ed-8adb-237970d4384b","ios":"levelo://app?vid=28709b84-b83d-46ed-8adb-237970d4384b"},"vehicle_type_id":"4","last_reported":1729832995,"current_range_meters":28400,"station_id":"ce4bhqp2rcd13ifvqhog","pricing_plan_id":"cebpf4jnsgd1na2vs0mg"},{"bike_id":"a2473142-94f8-49f6-a40b-21cfc06b5795","system_id":"levelo_inurba_marseille","lat":43.26201,"lon":5.37924,"is_reserved":false,"is_disabled":false,"rental_uris":{"android":"levelo://app?vid=a2473142-94f8-49f6-a40b-21cfc06b5795","ios":"levelo://app?vid=a2473142-94f8-49f6-a40b-21cfc06b5795"},"vehicle_type_id":"4","last_reported":1729832995,"current_range_meters":38800,"station_id":"ce4bhjp2rcd13ifvqg90","pricing_plan_id":"cebpf4jnsgd1na2vs0mg"},{"bike_id":"3d814bc8-7cde-42dc-be31-b3ae59f20bd8","system_id":"levelo_inurba_marseille","lat":43.30819,"lon":5.39645,"is_reserved":false,"is_disabled":false,"rental_uris":{"android":"levelo://app?vid=3d814bc8-7cde-42dc-be31-b3ae59f20bd8","ios":"levelo://app?vid=3d814bc8-7cde-42dc-be31-b3ae59f20bd8"},"vehicle_type_id":"4","last_reported":1729832995,"current_range_meters":30000,"station_id":"","pricing_plan_id":"cebpf4jnsgd1na2vs0mg"},{"bike_id":"2e45e5a2-d5d1-49cc-8793-cc67bff118cc","system_id":"levelo_inurba_marseille","lat":43.31082,"lon":5.42426,"is_reserved":false,"is_disabled":false,"rental_uris":{"android":"levelo://app?vid=2e45e5a2-d5d1-49cc-8793-cc67bff118cc","ios":"levelo://app?vid=2e45e5a2-d5d1-49cc-8793-cc67bff118cc"},"vehicle_type_id":"4","last_reported":1729832995,"current_range_meters":38000,"station_id":"ce4bhp92rcd13ifvqhag","pricing_plan_id":"cebpf4jnsgd1na2vs0mg"},{"bike_id":"ce42fb7a-0448-4758-8a74-e9e6ef4991ec","system_id":"levelo_inurba_marseille","lat":43.30346,"lon":5.4188,"is_reserved":false,"is_disabled":false,"rental_uris":{"android":"levelo://app?vid=ce42fb7a-0448-4758-8a74-e9e6ef4991ec","ios":"levelo://app?vid=ce42fb7a-0448-4758-8a74-e9e6ef4991ec"},"vehicle_type_id":"4","last_reported":1729832995,"current_range_meters":39200,"station_id":"ce4bhop2rcd13ifvqh7g","pricing_plan_id":"cebpf4jnsgd1na2vs0mg"},{"bike_id":"8d64d039-8499-4924-bb9c-e311b41b1d9a","system_id":"levelo_inurba_marseille","lat":43.24804,"lon":5.37455,"is_reserved":false,"is_disabled":false,"rental_uris":{"android":"levelo://app?vid=8d64d039-8499-4924-bb9c-e311b41b1d9a","ios":"levelo://app?vid=8d64d039-8499-4924-bb9c-e311b41b1d9a"},"vehicle_type_id":"4","last_reported":1729832995,"current_range_meters":6000,"station_id":"ce4bhgh2rcd13ifvqfb0","pricing_plan_id":"cebpf4jnsgd1na2vs0mg"},{"bike_id":"664fa1cc-bf17-46b9-bb85-01b15623c191","system_id":"levelo_inurba_marseille","lat":43.27564,"lon":5.38413,"is_reserved":false,"is_disabled":false,"rental_uris":{"android":"levelo://app?vid=664fa1cc-bf17-46b9-bb85-01b15623c191","ios":"levelo://app?vid=664fa1cc-bf17-46b9-bb85-01b15623c191"},"vehicle_type_id":"4","last_reported":1729832995,"current_range_meters":38800,"station_id":"ce4bhh92rcd13ifvqfi0","pricing_plan_id":"cebpf4jnsgd1na2vs0mg"},{"bike_id":"67442ab9-9bde-44b4-841b-75dde653019f","system_id":"levelo_inurba_marseille","lat":43.25494,"lon":5.37646,"is_reserved":false,"is_disabled":false,"rental_uris":{"android":"levelo://app?vid=67442ab9-9bde-44b4-841b-75dde653019f","ios":"levelo://app?vid=67442ab9-9bde-44b4-841b-75dde653019f"},"vehicle_type_id":"4","last_reported":1729832995,"current_range_meters":36400,"station_id":"ce4bhh12rcd13ifvqff0","pricing_plan_id":"cebpf4jnsgd1na2vs0mg"},{"bike_id":"467bfdb6-1722-469c-9a5e-479cb9b4e1b6","system_id":"levelo_inurba_marseille","lat":43.26686,"lon":5.38274,"is_reserved":false,"is_disabled":false,"rental_uris":{"android":"levelo://app?vid=467bfdb6-1722-469c-9a5e-479cb9b4e1b6","ios":"levelo://app?vid=467bfdb6-1722-469c-9a5e-479cb9b4e1b6"},"vehicle_type_id":"4","last_reported":1729832995,"current_range_meters":25600,"station_id":"ce4bhg92rcd13ifvqf90","pricing_plan_id":"cebpf4jnsgd1na2vs0mg"},{"bike_id":"02612537-12a1-43fb-8cd6-8e783ea376cd","system_id":"levelo_inurba_marseille","lat":43.30955,"lon":5.39049,"is_reserved":false,"is_disabled":false,"rental_uris":{"android":"levelo://app?vid=02612537-12a1-43fb-8cd6-8e783ea376cd","ios":"levelo://app?vid=02612537-12a1-43fb-8cd6-8e783ea376cd"},"vehicle_type_id":"4","last_reported":1729832995,"current_range_meters":39200,"station_id":"ce4bgup2rcd13ifvqco0","pricing_plan_id":"cebpf4jnsgd1na2vs0mg"},{"bike_id":"13e229e8-42cc-4167-b6d0-b607395892a4","system_id":"levelo_inurba_marseille","lat":43.29877,"lon":5.39733,"is_reserved":false,"is_disabled":false,"rental_uris":{"android":"levelo://app?vid=13e229e8-42cc-4167-b6d0-b607395892a4","ios":"levelo://app?vid=13e229e8-42cc-4167-b6d0-b607395892a4"},"vehicle_type_id":"4","last_reported":1729832995,"current_range_meters":32400,"station_id":"ce4bh0h2rcd13ifvqd50","pricing_plan_id":"cebpf4jnsgd1na2vs0mg"},{"bike_id":"e2959369-56e3-468a-bf79-a332235fca81","system_id":"levelo_inurba_marseille","lat":43.30466,"lon":5.37908,"is_reserved":false,"is_disabled":false,"rental_uris":{"android":"levelo://app?vid=e2959369-56e3-468a-bf79-a332235fca81","ios":"levelo://app?vid=e2959369-56e3-468a-bf79-a332235fca81"},"vehicle_type_id":"4","last_reported":1729832995,"current_range_meters":33200,"station_id":"ce4bgup2rcd13ifvqcn0","pricing_plan_id":"cebpf4jnsgd1na2vs0mg"},{"bike_id":"36856ec2-b80b-4ae8-abff-10088c18f7e8","system_id":"levelo_inurba_marseille","lat":43.24163,"lon":5.36393,"is_reserved":false,"is_disabled":false,"rental_uris":{"android":"levelo://app?vid=36856ec2-b80b-4ae8-abff-10088c18f7e8","ios":"levelo://app?vid=36856ec2-b80b-4ae8-abff-10088c18f7e8"},"vehicle_type_id":"4","last_reported":1729832995,"current_range_meters":38000,"station_id":"cpo36qri1sfpv3e86is0","pricing_plan_id":"cebpf4jnsgd1na2vs0mg"},{"bike_id":"a1c1b86d-f266-436c-be80-c1b9a847d9e2","system_id":"levelo_inurba_marseille","lat":43.29882,"lon":5.3974,"is_reserved":false,"is_disabled":false,"rental_uris":{"android":"levelo://app?vid=a1c1b86d-f266-436c-be80-c1b9a847d9e2","ios":"levelo://app?vid=a1c1b86d-f266-436c-be80-c1b9a847d9e2"},"vehicle_type_id":"4","last_reported":1729832995,"current_range_meters":37600,"station_id":"ce4bh0h2rcd13ifvqd50","pricing_plan_id":"cebpf4jnsgd1na2vs0mg"},{"bike_id":"ce024c82-e6ae-459c-bfa6-0cc621f3cbcc","system_id":"levelo_inurba_marseille","lat":43.28264,"lon":5.35065,"is_reserved":false,"is_disabled":false,"rental_uris":{"android":"levelo://app?vid=ce024c82-e6ae-459c-bfa6-0cc621f3cbcc","ios":"levelo://app?vid=ce024c82-e6ae-459c-bfa6-0cc621f3cbcc"},"vehicle_type_id":"4","last_reported":1729832995,"current_range_meters":22800,"station_id":"ce4bhbp2rcd13ifvqerg","pricing_plan_id":"cebpf4jnsgd1na2vs0mg"},{"bike_id":"bd995abb-12e7-47a6-b0b9-e1f25439576a","system_id":"levelo_inurba_marseille","lat":43.249999,"lon":5.38926,"is_reserved":false,"is_disabled":false,"rental_uris":{"android":"levelo://app?vid=bd995abb-12e7-47a6-b0b9-e1f25439576a","ios":"levelo://app?vid=bd995abb-12e7-47a6-b0b9-e1f25439576a"},"vehicle_type_id":"4","last_reported":1729832995,"current_range_meters":38000,"station_id":"ce4bhgp2rcd13ifvqfd0","pricing_plan_id":"cebpf4jnsgd1na2vs0mg"},{"bike_id":"d9ebfa44-9372-4017-a5c5-721a24441e7f","system_id":"levelo_inurba_marseille","lat":43.28351,"lon":5.38113,"is_reserved":false,"is_disabled":false,"rental_uris":{"android":"levelo://app?vid=d9ebfa44-9372-4017-a5c5-721a24441e7f","ios":"levelo://app?vid=d9ebfa44-9372-4017-a5c5-721a24441e7f"},"vehicle_type_id":"4","last_reported":1729832995,"current_range_meters":32400,"station_id":"ce4bh412rcd13ifvqdr0","pricing_plan_id":"cebpf4jnsgd1na2vs0mg"},{"bike_id":"97fd9a62-963c-450c-b76b-36e48aba6ce1","system_id":"levelo_inurba_marseille","lat":43.30887,"lon":5.39643,"is_reserved":false,"is_disabled":false,"rental_uris":{"android":"levelo://app?vid=97fd9a62-963c-450c-b76b-36e48aba6ce1","ios":"levelo://app?vid=97fd9a62-963c-450c-b76b-36e48aba6ce1"},"vehicle_type_id":"4","last_reported":1729832995,"current_range_meters":38800,"station_id":"ce4bh012rcd13ifvqcv0","pricing_plan_id":"cebpf4jnsgd1na2vs0mg"},{"bike_id":"6fa876ae-f75e-467e-82b9-c90fd82b850d","system_id":"levelo_inurba_marseille","lat":43.308009,"lon":5.381526,"is_reserved":false,"is_disabled":false,"rental_uris":{"android":"levelo://app?vid=6fa876ae-f75e-467e-82b9-c90fd82b850d","ios":"levelo://app?vid=6fa876ae-f75e-467e-82b9-c90fd82b850d"},"vehicle_type_id":"4","last_reported":1729832995,"current_range_meters":30800,"station_id":"ce4bgt12rcd13ifvqce0","pricing_plan_id":"cebpf4jnsgd1na2vs0mg"},{"bike_id":"031c5151-6166-4e35-88c9-9b4ea040f799","system_id":"levelo_inurba_marseille","lat":43.3081,"lon":5.38151,"is_reserved":false,"is_disabled":false,"rental_uris":{"android":"levelo://app?vid=031c5151-6166-4e35-88c9-9b4ea040f799","ios":"levelo://app?vid=031c5151-6166-4e35-88c9-9b4ea040f799"},"vehicle_type_id":"4","last_reported":1729832995,"current_range_meters":38000,"station_id":"ce4bgt12rcd13ifvqce0","pricing_plan_id":"cebpf4jnsgd1na2vs0mg"},{"bike_id":"d9755953-5b80-4b77-b2f2-d2f29be7f761","system_id":"levelo_inurba_marseille","lat":43.25862,"lon":5.39897,"is_reserved":false,"is_disabled":false,"rental_uris":{"android":"levelo://app?vid=d9755953-5b80-4b77-b2f2-d2f29be7f761","ios":"levelo://app?vid=d9755953-5b80-4b77-b2f2-d2f29be7f761"},"vehicle_type_id":"4","last_reported":1729832995,"current_range_meters":30800,"station_id":"ce4bhl92rcd13ifvqghg","pricing_plan_id":"cebpf4jnsgd1na2vs0mg"},{"bike_id":"5a8b5dd6-c1be-4262-9a3b-346bb77d42aa","system_id":"levelo_inurba_marseille","lat":43.31083,"lon":5.42429,"is_reserved":false,"is_disabled":false,"rental_uris":{"android":"levelo://app?vid=5a8b5dd6-c1be-4262-9a3b-346bb77d42aa","ios":"levelo://app?vid=5a8b5dd6-c1be-4262-9a3b-346bb77d42aa"},"vehicle_type_id":"4","last_reported":1729832995,"current_range_meters":39200,"station_id":"ce4bhp92rcd13ifvqhag","pricing_plan_id":"cebpf4jnsgd1na2vs0mg"},{"bike_id":"365a5e76-e012-4983-b8a9-1a07480bde83","system_id":"levelo_inurba_marseille","lat":43.23188,"lon":5.35546,"is_reserved":false,"is_disabled":false,"rental_uris":{"android":"levelo://app?vid=365a5e76-e012-4983-b8a9-1a07480bde83","ios":"levelo://app?vid=365a5e76-e012-4983-b8a9-1a07480bde83"},"vehicle_type_id":"4","last_reported":1729832995,"current_range_meters":38800,"station_id":"ce4bhu92rcd13ifvqi70","pricing_plan_id":"cebpf4jnsgd1na2vs0mg"},{"bike_id":"176c2bd2-7d0c-4278-833a-48f82a51f6ca","system_id":"levelo_inurba_marseille","lat":43.262,"lon":5.37935,"is_reserved":false,"is_disabled":false,"rental_uris":{"android":"levelo://app?vid=176c2bd2-7d0c-4278-833a-48f82a51f6ca","ios":"levelo://app?vid=176c2bd2-7d0c-4278-833a-48f82a51f6ca"},"vehicle_type_id":"4","last_reported":1729832995,"current_range_meters":38000,"station_id":"ce4bhjp2rcd13ifvqg90","pricing_plan_id":"cebpf4jnsgd1na2vs0mg"},{"bike_id":"4312906e-867a-43f8-8c75-268abf9b5ab6","system_id":"levelo_inurba_marseille","lat":43.30782,"lon":5.37647,"is_reserved":false,"is_disabled":false,"rental_uris":{"android":"levelo://app?vid=4312906e-867a-43f8-8c75-268abf9b5ab6","ios":"levelo://app?vid=4312906e-867a-43f8-8c75-268abf9b5ab6"},"vehicle_type_id":"4","last_reported":1729832995,"current_range_meters":38800,"station_id":"ce4bgv92rcd13ifvqcq0","pricing_plan_id":"cebpf4jnsgd1na2vs0mg"},{"bike_id":"6feb7ded-3bea-4297-b3d7-056a1104c816","system_id":"levelo_inurba_marseille","lat":43.3311,"lon":5.38213,"is_reserved":false,"is_disabled":false,"rental_uris":{"android":"levelo://app?vid=6feb7ded-3bea-4297-b3d7-056a1104c816","ios":"levelo://app?vid=6feb7ded-3bea-4297-b3d7-056a1104c816"},"vehicle_type_id":"4","last_reported":1729832995,"current_range_meters":31200,"station_id":"","pricing_plan_id":"cebpf4jnsgd1na2vs0mg"},{"bike_id":"528837cf-a3a7-4bc4-9410-12ac8c9d43f4","system_id":"levelo_inurba_marseille","lat":43.2904,"lon":5.39979,"is_reserved":false,"is_disabled":false,"rental_uris":{"android":"levelo://app?vid=528837cf-a3a7-4bc4-9410-12ac8c9d43f4","ios":"levelo://app?vid=528837cf-a3a7-4bc4-9410-12ac8c9d43f4"},"vehicle_type_id":"4","last_reported":1729832995,"current_range_meters":39200,"station_id":"ce4bh392rcd13ifvqdm0","pricing_plan_id":"cebpf4jnsgd1na2vs0mg"},{"bike_id":"6a79141b-22c2-4f73-9d7a-ee7148ee1bbf","system_id":"levelo_inurba_marseille","lat":43.24545,"lon":5.3952,"is_reserved":false,"is_disabled":false,"rental_uris":{"android":"levelo://app?vid=6a79141b-22c2-4f73-9d7a-ee7148ee1bbf","ios":"levelo://app?vid=6a79141b-22c2-4f73-9d7a-ee7148ee1bbf"},"vehicle_type_id":"4","last_reported":1729832995,"current_range_meters":37600,"station_id":"ce4bhlp2rcd13ifvqgjg","pricing_plan_id":"cebpf4jnsgd1na2vs0mg"},{"bike_id":"f417ea0d-341b-4a25-83f2-2b2d63ff817d","system_id":"levelo_inurba_marseille","lat":43.28409,"lon":5.37513,"is_reserved":false,"is_disabled":false,"rental_uris":{"android":"levelo://app?vid=f417ea0d-341b-4a25-83f2-2b2d63ff817d","ios":"levelo://app?vid=f417ea0d-341b-4a25-83f2-2b2d63ff817d"},"vehicle_type_id":"4","last_reported":1729832995,"current_range_meters":28000,"station_id":"ce4bh412rcd13ifvqds0","pricing_plan_id":"cebpf4jnsgd1na2vs0mg"},{"bike_id":"1557a783-9028-4fde-b241-d86b936e3132","system_id":"levelo_inurba_marseille","lat":43.27208,"lon":5.39187,"is_reserved":false,"is_disabled":false,"rental_uris":{"android":"levelo://app?vid=1557a783-9028-4fde-b241-d86b936e3132","ios":"levelo://app?vid=1557a783-9028-4fde-b241-d86b936e3132"},"vehicle_type_id":"4","last_reported":1729832995,"current_range_meters":21600,"station_id":"ce4bhhp2rcd13ifvqfm0","pricing_plan_id":"cebpf4jnsgd1na2vs0mg"},{"bike_id":"512ed7e2-b74d-4cc8-93d7-6789e7dcb178","system_id":"levelo_inurba_marseille","lat":43.27943,"lon":5.41041,"is_reserved":false,"is_disabled":false,"rental_uris":{"android":"levelo://app?vid=512ed7e2-b74d-4cc8-93d7-6789e7dcb178","ios":"levelo://app?vid=512ed7e2-b74d-4cc8-93d7-6789e7dcb178"},"vehicle_type_id":"4","last_reported":1729832995,"current_range_meters":33600,"station_id":"ce4bhnp2rcd13ifvqh0g","pricing_plan_id":"cebpf4jnsgd1na2vs0mg"},{"bike_id":"15ec6d2b-de0a-40c8-9005-27c3cc24fd32","system_id":"levelo_inurba_marseille","lat":43.31172,"lon":5.38711,"is_reserved":false,"is_disabled":false,"rental_uris":{"android":"levelo://app?vid=15ec6d2b-de0a-40c8-9005-27c3cc24fd32","ios":"levelo://app?vid=15ec6d2b-de0a-40c8-9005-27c3cc24fd32"},"vehicle_type_id":"4","last_reported":1729832995,"current_range_meters":28800,"station_id":"ce4bgv12rcd13ifvqcp0","pricing_plan_id":"cebpf4jnsgd1na2vs0mg"},{"bike_id":"62ae50a7-cff4-47ff-8401-e110f2bc4992","system_id":"levelo_inurba_marseille","lat":43.31894,"lon":5.40732,"is_reserved":false,"is_disabled":false,"rental_uris":{"android":"levelo://app?vid=62ae50a7-cff4-47ff-8401-e110f2bc4992","ios":"levelo://app?vid=62ae50a7-cff4-47ff-8401-e110f2bc4992"},"vehicle_type_id":"4","last_reported":1729832995,"current_range_meters":37600,"station_id":"ce4bhq12rcd13ifvqhig","pricing_plan_id":"cebpf4jnsgd1na2vs0mg"},{"bike_id":"d230709a-1e2f-49fc-8011-d684f0cf5111","system_id":"levelo_inurba_marseille","lat":43.27969,"lon":5.38721,"is_reserved":false,"is_disabled":false,"rental_uris":{"android":"levelo://app?vid=d230709a-1e2f-49fc-8011-d684f0cf5111","ios":"levelo://app?vid=d230709a-1e2f-49fc-8011-d684f0cf5111"},"vehicle_type_id":"4","last_reported":1729832995,"current_range_meters":30000,"station_id":"ce4bhg12rcd13ifvqf80","pricing_plan_id":"cebpf4jnsgd1na2vs0mg"},{"bike_id":"9358b87a-8e76-44e1-9c5c-d0358c227e93","system_id":"levelo_inurba_marseille","lat":43.297995,"lon":5.404098,"is_reserved":false,"is_disabled":false,"rental_uris":{"android":"levelo://app?vid=9358b87a-8e76-44e1-9c5c-d0358c227e93","ios":"levelo://app?vid=9358b87a-8e76-44e1-9c5c-d0358c227e93"},"vehicle_type_id":"4","last_reported":1729832995,"current_range_meters":38400,"station_id":"ce4bh112rcd13ifvqd90","pricing_plan_id":"cebpf4jnsgd1na2vs0mg"},{"bike_id":"5eead13a-2928-4150-ac73-27fc7427cc48","system_id":"levelo_inurba_marseille","lat":43.29894,"lon":5.43664,"is_reserved":false,"is_disabled":false,"rental_uris":{"android":"levelo://app?vid=5eead13a-2928-4150-ac73-27fc7427cc48","ios":"levelo://app?vid=5eead13a-2928-4150-ac73-27fc7427cc48"},"vehicle_type_id":"4","last_reported":1729832995,"current_range_meters":38800,"station_id":"ce4bhpp2rcd13ifvqhfg","pricing_plan_id":"cebpf4jnsgd1na2vs0mg"},{"bike_id":"bd0fb11c-81e7-45db-a3bb-7471afbb37a6","system_id":"levelo_inurba_marseille","lat":43.30542,"lon":5.38426,"is_reserved":false,"is_disabled":false,"rental_uris":{"android":"levelo://app?vid=bd0fb11c-81e7-45db-a3bb-7471afbb37a6","ios":"levelo://app?vid=bd0fb11c-81e7-45db-a3bb-7471afbb37a6"},"vehicle_type_id":"4","last_reported":1729832995,"current_range_meters":35200,"station_id":"ce4bgg92rcd13ifvqb30","pricing_plan_id":"cebpf4jnsgd1na2vs0mg"},{"bike_id":"24151098-48fb-4966-88b0-dd724b4229ec","system_id":"levelo_inurba_marseille","lat":43.28617,"lon":5.35099,"is_reserved":false,"is_disabled":false,"rental_uris":{"android":"levelo://app?vid=24151098-48fb-4966-88b0-dd724b4229ec","ios":"levelo://app?vid=24151098-48fb-4966-88b0-dd724b4229ec"},"vehicle_type_id":"4","last_reported":1729832995,"current_range_meters":35200,"station_id":"ce4bhch2rcd13ifvqeug","pricing_plan_id":"cebpf4jnsgd1na2vs0mg"},{"bike_id":"70893557-cc44-4001-9b68-e4f04b3694ad","system_id":"levelo_inurba_marseille","lat":43.2866,"lon":5.36356,"is_reserved":false,"is_disabled":false,"rental_uris":{"android":"levelo://app?vid=70893557-cc44-4001-9b68-e4f04b3694ad","ios":"levelo://app?vid=70893557-cc44-4001-9b68-e4f04b3694ad"},"vehicle_type_id":"4","last_reported":1729832995,"current_range_meters":30400,"station_id":"ce4bhah2rcd13ifvqej0","pricing_plan_id":"cebpf4jnsgd1na2vs0mg"},{"bike_id":"9aa99984-3aab-4a38-a014-145c49eab468","system_id":"levelo_inurba_marseille","lat":43.24651,"lon":5.38893,"is_reserved":false,"is_disabled":false,"rental_uris":{"android":"levelo://app?vid=9aa99984-3aab-4a38-a014-145c49eab468","ios":"levelo://app?vid=9aa99984-3aab-4a38-a014-145c49eab468"},"vehicle_type_id":"4","last_reported":1729832995,"current_range_meters":38800,"station_id":"ce4bhg12rcd13ifvqf60","pricing_plan_id":"cebpf4jnsgd1na2vs0mg"},