{"last_updated":1747285887,"ttl":60,"version":"2.2","data":{"bikes":[{"bike_id":"c0b9fd4f-e181-46ce-b0bf-f5119973334f","system_id":"levelo_inurba_marseille","lat":43.33771,"lon":5.37424,"is_reserved":false,"is_disabled":false,"rental_uris":{"android":"levelo://app?vid=c0b9fd4f-e181-46ce-b0bf-f5119973334f","ios":"levelo://app?vid=c0b9fd4f-e181-46ce-b0bf-f5119973334f"},"vehicle_type_id":"4","last_reported":1747285887,"current_range_meters":16000,"station_id":"","pricing_plan_id":"cebpf4jnsgd1na2vs0mg"},{"bike_id":"3fae8334-a9d0-4ed3-aa20-0276813b60f6","system_id":"levelo_inurba_marseille","lat":43.268323,"lon":5.384705,"is_reserved":false,"is_disabled":true,"rental_uris":{"android":"levelo://app?vid=3fae8334-a9d0-4ed3-aa20-0276813b60f6","ios":"levelo://app?vid=3fae8334-a9d0-4ed3-aa20-0276813b60f6"},"vehicle_type_id":"4","last_reported":1747285887,"current_range_meters":0,"station_id":"","pricing_plan_id":"cebpf4jnsgd1na2vs0mg"},{"bike_id":"fc2577e7-1497-425b-9d4f-ab8d7dc843c6","system_id":"levelo_inurba_marseille","lat":43.33771,"lon":5.37485,"is_reserved":false,"is_disabled":true,"rental_uris":{"android":"levelo://app?vid=fc2577e7-1497-425b-9d4f-ab8d7dc843c6","ios":"levelo://app?vid=fc2577e7-1497-425b-9d4f-ab8d7dc843c6"},"vehicle_type_id":"4","last_reported":1747285887,"current_range_meters":0,"station_id":"","pricing_plan_id":"cebpf4jnsgd1na2vs0mg"},{"bike_id":"0fedde00-40eb-40d2-8fc2-e61ecce46b7b","system_id":"levelo_inurba_marseille","lat":43.28304,"lon":5.43273,"is_reserved":false,"is_disabled":true,"rental_uris":{"android":"levelo://app?vid=0fedde00-40eb-40d2-8fc2-e61ecce46b7b","ios":"levelo://app?vid=0fedde00-40eb-40d2-8fc2-e61ecce46b7b"},"vehicle_type_id":"4","last_reported":1747285887,"current_range_meters":0,"station_id":"","pricing_plan_id":"cebpf4jnsgd1na2vs0mg"},{"bike_id":"58759d40-402f-44ad-a9ec-ef71c6f52c01","system_id":"levelo_inurba_marseille","lat":43.278961,"lon":5.354216,"is_reserved":false,"is_disabled":true,"rental_uris":{"android":"levelo://app?vid=58759d40-402f-44ad-a9ec-ef71c6f52c01","ios":"levelo://app?vid=58759d40-402f-44ad-a9ec-ef71c6f52c01"},"vehicle_type_id":"4","last_reported":1747285887,"current_range_meters":0,"station_id":"","pricing_plan_id":"cebpf4jnsgd1na2vs0mg"},{"bike_id":"792567c6-0442-4011-aff0-9c05e25deb48","system_id":"levelo_inurba_marseille","lat":43.28071,"lon":5.44168,"is_reserved":false,"is_disabled":true,"rental_uris":{"android":"levelo://app?vid=792567c6-0442-4011-aff0-9c05e25deb48","ios":"levelo://app?vid=792567c6-0442-4011-aff0-9c05e25deb48"},"vehicle_type_id":"4","last_reported":1747285887,"current_range_meters":0,"station_id":"","pricing_plan_id":"cebpf4jnsgd1na2vs0mg"},{"bike_id":"84adc208-1d1b-414b-9a8a-536a3ae70fb8","system_id":"levelo_inurba_marseille","lat":43.27807,"lon":5.40715,"is_reserved":false,"is_disabled":true,"rental_uris":{"android":"levelo://app?vid=84adc208-1d1b-414b-9a8a-536a3ae70fb8","ios":"levelo://app?vid=84adc208-1d1b-414b-9a8a-536a3ae70fb8"},"vehicle_type_id":"4","last_reported":1747285887,"current_range_meters":0,"station_id":"ce4bhnh2rcd13ifvqgtg","pricing_plan_id":"cebpf4jnsgd1na2vs0mg"},{"bike_id":"a70ebef5-8857-46a3-a373-d8f10a11e4a0","system_id":"levelo_inurba_marseille","lat":43.211958,"lon":5.350731,"is_reserved":false,"is_disabled":true,"rental_uris":{"android":"levelo://app?vid=a70ebef5-8857-46a3-a373-d8f10a11e4a0","ios":"levelo://app?vid=a70ebef5-8857-46a3-a373-d8f10a11e4a0"},"vehicle_type_id":"4","last_reported":1747285887,"current_range_meters":0,"station_id":"st_cvj6sg6p6f1abm77japg","pricing_plan_id":"cebpf4jnsgd1na2vs0mg"},{"bike_id":"623b599c-b24b-48ae-9597-def997a6f927","system_id":"levelo_inurba_marseille","lat":43.262168,"lon":5.404548,"is_reserved":false,"is_disabled":true,"rental_uris":{"android":"levelo://app?vid=623b599c-b24b-48ae-9597-def997a6f927","ios":"levelo://app?vid=623b599c-b24b-48ae-9597-def997a6f927"},"vehicle_type_id":"4","last_reported":1747285887,"current_range_meters":800,"station_id":"ce4bhmh2rcd13ifvqgmg","pricing_plan_id":"cebpf4jnsgd1na2vs0mg"},{"bike_id":"96d0275a-ccec-4de6-ad25-67ea77d4c332","system_id":"levelo_inurba_marseille","lat":43.297719,"lon":5.400319,"is_reserved":false,"is_disabled":true,"rental_uris":{"android":"levelo://app?vid=96d0275a-ccec-4de6-ad25-67ea77d4c332","ios":"levelo://app?vid=96d0275a-ccec-4de6-ad25-67ea77d4c332"},"vehicle_type_id":"4","last_reported":1747285887,"current_range_meters":1600,"station_id":"","pricing_plan_id":"cebpf4jnsgd1na2vs0mg"},{"bike_id":"fcc4ef96-c15e-4bef-9606-819e508051db","system_id":"levelo_inurba_marseille","lat":43.26244,"lon":5.42127,"is_reserved":false,"is_disabled":false,"rental_uris":{"android":"levelo://app?vid=fcc4ef96-c15e-4bef-9606-819e508051db","ios":"levelo://app?vid=fcc4ef96-c15e-4bef-9606-819e508051db"},"vehicle_type_id":"4","last_reported":1747285887,"current_range_meters":2800,"station_id":"","pricing_plan_id":"cebpf4jnsgd1na2vs0mg"},{"bike_id":"ce4325af-2448-4172-bdec-81d552ee0b62","system_id":"levelo_inurba_marseille","lat":43.26161,"lon":5.42024,"is_reserved":false,"is_disabled":false,"rental_uris":{"android":"levelo://app?vid=ce4325af-2448-4172-bdec-81d552ee0b62","ios":"levelo://app?vid=ce4325af-2448-4172-bdec-81d552ee0b62"},"vehicle_type_id":"4","last_reported":1747285887,"current_range_meters":3200,"station_id":"","pricing_plan_id":"cebpf4jnsgd1na2vs0mg"},{"bike_id":"6953ca09-b1d0-473e-8b94-d568eb1a7f43","system_id":"levelo_inurba_marseille","lat":43.288531,"lon":5.371409,"is_reserved":false,"is_disabled":false,"rental_uris":{"android":"levelo://app?vid=6953ca09-b1d0-473e-8b94-d568eb1a7f43","ios":"levelo://app?vid=6953ca09-b1d0-473e-8b94-d568eb1a7f43"},"vehicle_type_id":"4","last_reported":1747285887,"current_range_meters":3600,"station_id":"","pricing_plan_id":"cebpf4jnsgd1na2vs0mg"},{"bike_id":"5439b638-afb1-4011-a479-a041ff362f9b","system_id":"levelo_inurba_marseille","lat":43.292565,"lon":5.409026,"is_reserved":false,"is_disabled":false,"rental_uris":{"android":"levelo://app?vid=5439b638-afb1-4011-a479-a041ff362f9b","ios":"levelo://app?vid=5439b638-afb1-4011-a479-a041ff362f9b"},"vehicle_type_id":"4","last_reported":1747285887,"current_range_meters":3600,"station_id":"ce4bh192rcd13ifvqdc0","pricing_plan_id":"cebpf4jnsgd1na2vs0mg"},{"bike_id":"f37b7848-b34f-4203-8cd6-ee4ac88ff930","system_id":"levelo_inurba_marseille","lat":43.23966,"lon":5.36643,"is_reserved":false,"is_disabled":false,"rental_uris":{"android":"levelo://app?vid=f37b7848-b34f-4203-8cd6-ee4ac88ff930","ios":"levelo://app?vid=f37b7848-b34f-4203-8cd6-ee4ac88ff930"},"vehicle_type_id":"4","last_reported":1747285887,"current_range_meters":3600,"station_id":"ce4bhi12rcd13ifvqfp0","pricing_plan_id":"cebpf4jnsgd1na2vs0mg"},{"bike_id":"75bc4e83-c3de-45ba-95d5-175cdf321809","system_id":"levelo_inurba_marseille","lat":43.27945,"lon":5.41057,"is_reserved":false,"is_disabled":false,"rental_uris":{"android":"levelo://app?vid=75bc4e83-c3de-45ba-95d5-175cdf321809","ios":"levelo://app?vid=75bc4e83-c3de-45ba-95d5-175cdf321809"},"vehicle_type_id":"4","last_reported":1747285887,"current_range_meters":3600,"station_id":"ce4bhnp2rcd13ifvqh0g","pricing_plan_id":"cebpf4jnsgd1na2vs0mg"},{"bike_id":"cbe5d074-3657-4a38-a945-adda68e4e374","system_id":"levelo_inurba_marseille","lat":43.32469,"lon":5.36596,"is_reserved":false,"is_disabled":false,"rental_uris":{"android":"levelo://app?vid=cbe5d074-3657-4a38-a945-adda68e4e374","ios":"levelo://app?vid=cbe5d074-3657-4a38-a945-adda68e4e374"},"vehicle_type_id":"4","last_reported":1747285887,"current_range_meters":4000,"station_id":"ce4bhs12rcd13ifvqhvg","pricing_plan_id":"cebpf4jnsgd1na2vs0mg"},{"bike_id":"5de1e8df-cec1-47cf-b554-41f6e726d337","system_id":"levelo_inurba_marseille","lat":43.274193,"lon":5.406104,"is_reserved":false,"is_disabled":false,"rental_uris":{"android":"levelo://app?vid=5de1e8df-cec1-47cf-b554-41f6e726d337","ios":"levelo://app?vid=5de1e8df-cec1-47cf-b554-41f6e726d337"},"vehicle_type_id":"4","last_reported":1747285887,"current_range_meters":4400,"station_id":"","pricing_plan_id":"cebpf4jnsgd1na2vs0mg"},{"bike_id":"31e2813c-f647-438c-bb08-7c1907a0ba03","system_id":"levelo_inurba_marseille","lat":43.307846,"lon":5.376566,"is_reserved":false,"is_disabled":false,"rental_uris":{"android":"levelo://app?vid=31e2813c-f647-438c-bb08-7c1907a0ba03","ios":"levelo://app?vid=31e2813c-f647-438c-bb08-7c1907a0ba03"},"vehicle_type_id":"4","last_reported":1747285887,"current_range_meters":4800,"station_id":"ce4bgv92rcd13ifvqcq0","pricing_plan_id":"cebpf4jnsgd1na2vs0mg"},{"bike_id":"6c5e2750-bf55-4812-bb81-a9df60873a61","system_id":"levelo_inurba_marseille","lat":43.29639,"lon":5.36185,"is_reserved":false,"is_disabled":false,"rental_uris":{"android":"levelo://app?vid=6c5e2750-bf55-4812-bb81-a9df60873a61","ios":"levelo://app?vid=6c5e2750-bf55-4812-bb81-a9df60873a61"},"vehicle_type_id":"4","last_reported":1747285887,"current_range_meters":6400,"station_id":"","pricing_plan_id":"cebpf4jnsgd1na2vs0mg"},{"bike_id":"9eb308d7-4cc6-4bf3-94f5-69e21789ecf2","system_id":"levelo_inurba_marseille","lat":43.24648,"lon":5.388904,"is_reserved":false,"is_disabled":false,"rental_uris":{"android":"levelo://app?vid=9eb308d7-4cc6-4bf3-94f5-69e21789ecf2","ios":"levelo://app?vid=9eb308d7-4cc6-4bf3-94f5-69e21789ecf2"},"vehicle_type_id":"4","last_reported":1747285887,"current_range_meters":6400,"station_id":"ce4bhg12rcd13ifvqf60","pricing_plan_id":"cebpf4jnsgd1na2vs0mg"},{"bike_id":"3d88a63a-f83d-4aa2-aebe-883b2bbd49f5","system_id":"levelo_inurba_marseille","lat":43.26234,"lon":5.40485,"is_reserved":false,"is_disabled":false,"rental_uris":{"android":"levelo://app?vid=3d88a63a-f83d-4aa2-aebe-883b2bbd49f5","ios":"levelo://app?vid=3d88a63a-f83d-4aa2-aebe-883b2bbd49f5"},"vehicle_type_id":"4","last_reported":1747285887,"current_range_meters":6400,"station_id":"ce4bhmh2rcd13ifvqgmg","pricing_plan_id":"cebpf4jnsgd1na2vs0mg"},{"bike_id":"b268c767-dfce-4003-a645-abc9d2ae2763","system_id":"levelo_inurba_marseille","lat":43.30901,"lon":5.3719,"is_reserved":false,"is_disabled":false,"rental_uris":{"android":"levelo://app?vid=b268c767-dfce-4003-a645-abc9d2ae2763","ios":"levelo://app?vid=b268c767-dfce-4003-a645-abc9d2ae2763"},"vehicle_type_id":"4","last_reported":1747285887,"current_range_meters":6800,"station_id":"ce4bguh2rcd13ifvqckg","pricing_plan_id":"cebpf4jnsgd1na2vs0mg"},{"bike_id":"6bfe95e5-6c72-4208-a73e-71586c930866","system_id":"levelo_inurba_marseille","lat":43.25867,"lon":5.39896,"is_reserved":false,"is_disabled":false,"rental_uris":{"android":"levelo://app?vid=6bfe95e5-6c72-4208-a73e-71586c930866","ios":"levelo://app?vid=6bfe95e5-6c72-4208-a73e-71586c930866"},"vehicle_type_id":"4","last_reported":1747285887,"current_range_meters":6800,"station_id":"ce4bhl92rcd13ifvqghg","pricing_plan_id":"cebpf4jnsgd1na2vs0mg"},{"bike_id":"7ddd34a0-d984-4dc0-a019-37962a1ca7c6","system_id":"levelo_inurba_marseille","lat":43.25092,"lon":5.40331,"is_reserved":false,"is_disabled":false,"rental_uris":{"android":"levelo://app?vid=7ddd34a0-d984-4dc0-a019-37962a1ca7c6","ios":"levelo://app?vid=7ddd34a0-d984-4dc0-a019-37962a1ca7c6"},"vehicle_type_id":"4","last_reported":1747285887,"current_range_meters":6800,"station_id":"ce4bhlh2rcd13ifvqgig","pricing_plan_id":"cebpf4jnsgd1na2vs0mg"},{"bike_id":"f872a4c2-1be7-49b4-bb7d-e1f71d921d7b","system_id":"levelo_inurba_marseille","lat":43.23196,"lon":5.40012,"is_reserved":false,"is_disabled":false,"rental_uris":{"android":"levelo://app?vid=f872a4c2-1be7-49b4-bb7d-e1f71d921d7b","ios":"levelo://app?vid=f872a4c2-1be7-49b4-bb7d-e1f71d921d7b"},"vehicle_type_id":"4","last_reported":1747285887,"current_range_meters":6800,"station_id":"ce4bhn12rcd13ifvqgqg","pricing_plan_id":"cebpf4jnsgd1na2vs0mg"},{"bike_id":"474e4e8e-0ee5-44d4-853b-b0a332a09b1b","system_id":"levelo_inurba_marseille","lat":43.27914,"lon":5.41064,"is_reserved":false,"is_disabled":false,"rental_uris":{"android":"levelo://app?vid=474e4e8e-0ee5-44d4-853b-b0a332a09b1b","ios":"levelo://app?vid=474e4e8e-0ee5-44d4-853b-b0a332a09b1b"},"vehicle_type_id":"4","last_reported":1747285887,"current_range_meters":6800,"station_id":"ce4bhnp2rcd13ifvqh0g","pricing_plan_id":"cebpf4jnsgd1na2vs0mg"},{"bike_id":"820781c2-91b3-4296-a92e-b37c784e5d12","system_id":"levelo_inurba_marseille","lat":43.280809,"lon":5.396499,"is_reserved":false,"is_disabled":false,"rental_uris":{"android":"levelo://app?vid=820781c2-91b3-4296-a92e-b37c784e5d12","ios":"levelo://app?vid=820781c2-91b3-4296-a92e-b37c784e5d12"},"vehicle_type_id":"4","last_reported":1747285887,"current_range_meters":6800,"station_id":"ce4bho12rcd13ifvqh2g","pricing_plan_id":"cebpf4jnsgd1na2vs0mg"},{"bike_id":"d2c1d47c-b855-441f-803c-abd860de7f62","system_id":"levelo_inurba_marseille","lat":43.28075,"lon":5.39658,"is_reserved":false,"is_disabled":false,"rental_uris":{"android":"levelo://app?vid=d2c1d47c-b855-441f-803c-abd860de7f62","ios":"levelo://app?vid=d2c1d47c-b855-441f-803c-abd860de7f62"},"vehicle_type_id":"4","last_reported":1747285887,"current_range_meters":6800,"station_id":"ce4bho12rcd13ifvqh2g","pricing_plan_id":"cebpf4jnsgd1na2vs0mg"},{"bike_id":"f516bdec-657c-46f1-abec-ebfac75025ea","system_id":"levelo_inurba_marseille","lat":43.22926,"lon":5.35389,"is_reserved":false,"is_disabled":false,"rental_uris":{"android":"levelo://app?vid=f516bdec-657c-46f1-abec-ebfac75025ea","ios":"levelo://app?vid=f516bdec-657c-46f1-abec-ebfac75025ea"},"vehicle_type_id":"4","last_reported":1747285887,"current_range_meters":7200,"station_id":"cpo3532slgdg3j2ikp40","pricing_plan_id":"cebpf4jnsgd1na2vs0mg"},{"bike_id":"101529f1-b2b2-48f3-adf4-24d4cf7a709c","system_id":"levelo_inurba_marseille","lat":43.30876,"lon":5.39645,"is_reserved":false,"is_disabled":false,"rental_uris":{"android":"levelo://app?vid=101529f1-b2b2-48f3-adf4-24d4cf7a709c","ios":"levelo://app?vid=101529f1-b2b2-48f3-adf4-24d4cf7a709c"},"vehicle_type_id":"4","last_reported":1747285887,"current_range_meters":8000,"station_id":"ce4bh012rcd13ifvqcv0","pricing_plan_id":"cebpf4jnsgd1na2vs0mg"},{"bike_id":"07977d75-0262-4929-a698-22f44c2f9eaf","system_id":"levelo_inurba_marseille","lat":43.28575,"lon":5.39508,"is_reserved":false,"is_disabled":false,"rental_uris":{"android":"levelo://app?vid=07977d75-0262-4929-a698-22f44c2f9eaf","ios":"levelo://app?vid=07977d75-0262-4929-a698-22f44c2f9eaf"},"vehicle_type_id":"4","last_reported":1747285887,"current_range_meters":8000,"station_id":"ce4bh292rcd13ifvqdg0","pricing_plan_id":"cebpf4jnsgd1na2vs0mg"},{"bike_id":"aa8db4ff-ac35-4bf2-a9fa-545ce449f88b","system_id":"levelo_inurba_marseille","lat":43.25104,"lon":5.40316,"is_reserved":false,"is_disabled":false,"rental_uris":{"android":"levelo://app?vid=aa8db4ff-ac35-4bf2-a9fa-545ce449f88b","ios":"levelo://app?vid=aa8db4ff-ac35-4bf2-a9fa-545ce449f88b"},"vehicle_type_id":"4","last_reported":1747285887,"current_range_meters":8000,"station_id":"ce4bhlh2rcd13ifvqgig","pricing_plan_id":"cebpf4jnsgd1na2vs0mg"},{"bike_id":"a1bb8e67-fad9-4c62-8ab8-6a7cd6c22b08","system_id":"levelo_inurba_marseille","lat":43.24179,"lon":5.39729,"is_reserved":false,"is_disabled":false,"rental_uris":{"android":"levelo://app?vid=a1bb8e67-fad9-4c62-8ab8-6a7cd6c22b08","ios":"levelo://app?vid=a1bb8e67-fad9-4c62-8ab8-6a7cd6c22b08"},"vehicle_type_id":"4","last_reported":1747285887,"current_range_meters":8000,"station_id":"ce4bhn12rcd13ifvqgpg","pricing_plan_id":"cebpf4jnsgd1na2vs0mg"},{"bike_id":"cff07eda-0d35-48d7-ae3d-eafcd93e64af","system_id":"levelo_inurba_marseille","lat":43.31912,"lon":5.39463,"is_reserved":false,"is_disabled":false,"rental_uris":{"android":"levelo://app?vid=cff07eda-0d35-48d7-ae3d-eafcd93e64af","ios":"levelo://app?vid=cff07eda-0d35-48d7-ae3d-eafcd93e64af"},"vehicle_type_id":"4","last_reported":1747285887,"current_range_meters":8400,"station_id":"","pricing_plan_id":"cebpf4jnsgd1na2vs0mg"},{"bike_id":"606f499d-76b6-4b5b-9eac-7f88996d5bed","system_id":"levelo_inurba_marseille","lat":43.30609,"lon":5.37223,"is_reserved":false,"is_disabled":false,"rental_uris":{"android":"levelo://app?vid=606f499d-76b6-4b5b-9eac-7f88996d5bed","ios":"levelo://app?vid=606f499d-76b6-4b5b-9eac-7f88996d5bed"},"vehicle_type_id":"4","last_reported":1747285887,"current_range_meters":8400,"station_id":"ce4bgqh2rcd13ifvqc4g","pricing_plan_id":"cebpf4jnsgd1na2vs0mg"},{"bike_id":"53d3e99a-fe32-470b-82e8-98cea0217d4d","system_id":"levelo_inurba_marseille","lat":43.30625,"lon":5.3723,"is_reserved":false,"is_disabled":false,"rental_uris":{"android":"levelo://app?vid=53d3e99a-fe32-470b-82e8-98cea0217d4d","ios":"levelo://app?vid=53d3e99a-fe32-470b-82e8-98cea0217d4d"},"vehicle_type_id":"4","last_reported":1747285887,"current_range_meters":8400,"station_id":"ce4bgqh2rcd13ifvqc4g","pricing_plan_id":"cebpf4jnsgd1na2vs0mg"},{"bike_id":"774c85e9-2376-4ec5-9e91-04ae7222ad9a","system_id":"levelo_inurba_marseille","lat":43.2894,"lon":5.39635,"is_reserved":false,"is_disabled":false,"rental_uris":{"android":"levelo://app?vid=774c85e9-2376-4ec5-9e91-04ae7222ad9a","ios":"levelo://app?vid=774c85e9-2376-4ec5-9e91-04ae7222ad9a"},"vehicle_type_id":"4","last_reported":1747285887,"current_range_meters":8400,"station_id":"ce4bh3h2rcd13ifvqdn0","pricing_plan_id":"cebpf4jnsgd1na2vs0mg"},{"bike_id":"7334a686-a803-4359-8857-10dc09939f33","system_id":"levelo_inurba_marseille","lat":43.26223,"lon":5.404749,"is_reserved":false,"is_disabled":false,"rental_uris":{"android":"levelo://app?vid=7334a686-a803-4359-8857-10dc09939f33","ios":"levelo://app?vid=7334a686-a803-4359-8857-10dc09939f33"},"vehicle_type_id":"4","last_reported":1747285887,"current_range_meters":8400,"station_id":"ce4bhmh2rcd13ifvqgmg","pricing_plan_id":"cebpf4jnsgd1na2vs0mg"},{"bike_id":"5c06163f-712d-4c11-8114-5ecbd6e8f16d","system_id":"levelo_inurba_marseille","lat":43.23175,"lon":5.39992,"is_reserved":false,"is_disabled":false,"rental_uris":{"android":"levelo://app?vid=5c06163f-712d-4c11-8114-5ecbd6e8f16d","ios":"levelo://app?vid=5c06163f-712d-4c11-8114-5ecbd6e8f16d"},"vehicle_type_id":"4","last_reported":1747285887,"current_range_meters":8400,"station_id":"ce4bhn12rcd13ifvqgqg","pricing_plan_id":"cebpf4jnsgd1na2vs0mg"},{"bike_id":"3faf053c-e846-4d83-83ee-8fd51efc38bb","system_id":"levelo_inurba_marseille","lat":43.321088,"lon":5.36784,"is_reserved":false,"is_disabled":false,"rental_uris":{"android":"levelo://app?vid=3faf053c-e846-4d83-83ee-8fd51efc38bb","ios":"levelo://app?vid=3faf053c-e846-4d83-83ee-8fd51efc38bb"},"vehicle_type_id":"4","last_reported":1747285887,"current_range_meters":8400,"station_id":"ce4bhrh2rcd13ifvqhug","pricing_plan_id":"cebpf4jnsgd1na2vs0mg"},{"bike_id":"6a94c510-06e9-4819-80f4-2a1f66907200","system_id":"levelo_inurba_marseille","lat":43.243344,"lon":5.379951,"is_reserved":false,"is_disabled":false,"rental_uris":{"android":"levelo://app?vid=6a94c510-06e9-4819-80f4-2a1f66907200","ios":"levelo://app?vid=6a94c510-06e9-4819-80f4-2a1f66907200"},"vehicle_type_id":"4","last_reported":1747285887,"current_range_meters":8800,"station_id":"","pricing_plan_id":"cebpf4jnsgd1na2vs0mg"},{"bike_id":"a92deb3c-961f-4a61-890d-82fd5cc2157e","system_id":"levelo_inurba_marseille","lat":43.313773,"lon":5.384946,"is_reserved":false,"is_disabled":false,"rental_uris":{"android":"levelo://app?vid=a92deb3c-961f-4a61-890d-82fd5cc2157e","ios":"levelo://app?vid=a92deb3c-961f-4a61-890d-82fd5cc2157e"},"vehicle_type_id":"4","last_reported":1747285887,"current_range_meters":8800,"station_id":"ce4bgt92rcd13ifvqcf0","pricing_plan_id":"cebpf4jnsgd1na2vs0mg"},{"bike_id":"3ec3792d-1198-4b1d-8ce9-5ce6b8a7ac84","system_id":"levelo_inurba_marseille","lat":43.306456,"lon":5.400769,"is_reserved":false,"is_disabled":false,"rental_uris":{"android":"levelo://app?vid=3ec3792d-1198-4b1d-8ce9-5ce6b8a7ac84","ios":"levelo://app?vid=3ec3792d-1198-4b1d-8ce9-5ce6b8a7ac84"},"vehicle_type_id":"4","last_reported":1747285887,"current_range_meters":8800,"station_id":"ce4bh112rcd13ifvqda0","pricing_plan_id":"cebpf4jnsgd1na2vs0mg"},{"bike_id":"e3faef6f-635a-4b6b-b2b3-c0b918604df6","system_id":"levelo_inurba_marseille","lat":43.298979,"lon":5.436456,"is_reserved":false,"is_disabled":false,"rental_uris":{"android":"levelo://app?vid=e3faef6f-635a-4b6b-b2b3-c0b918604df6","ios":"levelo://app?vid=e3faef6f-635a-4b6b-b2b3-c0b918604df6"},"vehicle_type_id":"4","last_reported":1747285887,"current_range_meters":8800,"station_id":"ce4bhpp2rcd13ifvqhfg","pricing_plan_id":"cebpf4jnsgd1na2vs0mg"},{"bike_id":"56a54840-8453-4673-8cc1-64d415eb4281","system_id":"levelo_inurba_marseille","lat":43.323678,"lon":5.388921,"is_reserved":false,"is_disabled":false,"rental_uris":{"android":"levelo://app?vid=56a54840-8453-4673-8cc1-64d415eb4281","ios":"levelo://app?vid=56a54840-8453-4673-8cc1-64d415eb4281"},"vehicle_type_id":"4","last_reported":1747285887,"current_range_meters":8800,"station_id":"ce4bhqp2rcd13ifvqhog","pricing_plan_id":"cebpf4jnsgd1na2vs0mg"},{"bike_id":"e6df7200-be44-4034-8356-406e404e712e","system_id":"levelo_inurba_marseille","lat":43.30143,"lon":5.38089,"is_reserved":false,"is_disabled":false,"rental_uris":{"android":"levelo://app?vid=e6df7200-be44-4034-8356-406e404e712e","ios":"levelo://app?vid=e6df7200-be44-4034-8356-406e404e712e"},"vehicle_type_id":"4","last_reported":1747285887,"current_range_meters":9200,"station_id":"ce4bgjp2rcd13ifvqbh0","pricing_plan_id":"cebpf4jnsgd1na2vs0mg"},{"bike_id":"2560ced1-3aa0-4b19-b9ca-c868822cb11c","system_id":"levelo_inurba_marseille","lat":43.3132,"lon":5.39701,"is_reserved":false,"is_disabled":false,"rental_uris":{"android":"levelo://app?vid=2560ced1-3aa0-4b19-b9ca-c868822cb11c","ios":"levelo://app?vid=2560ced1-3aa0-4b19-b9ca-c868822cb11c"},"vehicle_type_id":"4","last_reported":1747285887,"current_range_meters":9200,"station_id":"ce4bgvp2rcd13ifvqcu0","pricing_plan_id":"cebpf4jnsgd1na2vs0mg"},{"bike_id":"959dbfe0-1440-490f-a3ea-5fd21c47cf31","system_id":"levelo_inurba_marseille","lat":43.336038,"lon":5.410267,"is_reserved":false,"is_disabled":false,"rental_uris":{"android":"levelo://app?vid=959dbfe0-1440-490f-a3ea-5fd21c47cf31","ios":"levelo://app?vid=959dbfe0-1440-490f-a3ea-5fd21c47cf31"},"vehicle_type_id":"4","last_reported":1747285887,"current_range_meters":9200,"station_id":"ce4bhqh2rcd13ifvqhmg","pricing_plan_id":"cebpf4jnsgd1na2vs0mg"},{"bike_id":"bb0bee68-567b-487f-9192-c2330ac5ef1d","system_id":"levelo_inurba_marseille","lat":43.322859,"lon":5.382881,"is_reserved":false,"is_disabled":false,"rental_uris":{"android":"levelo://app?vid=bb0bee68-567b-487f-9192-c2330ac5ef1d","ios":"levelo://app?vid=bb0bee68-567b-487f-9192-c2330ac5ef1d"},"vehicle_type_id":"4","last_reported":1747285887,"current_range_meters":9200,"station_id":"ce4bhr12rcd13ifvqhqg","pricing_plan_id":"cebpf4jnsgd1na2vs0mg"},{"bike_id":"0b46acae-aa66-48d6-8f98-6fd4e7aecb8b","system_id":"levelo_inurba_marseille","lat":43.30463,"lon":5.37911,"is_reserved":false,"is_disabled":false,"rental_uris":{"android":"levelo://app?vid=0b46acae-aa66-48d6-8f98-6fd4e7aecb8b","ios":"levelo://app?vid=0b46acae-aa66-48d6-8f98-6fd4e7aecb8b"},"vehicle_type_id":"4","last_reported":1747285887,"current_range_meters":9600,"station_id":"ce4bgup2rcd13ifvqcn0","pricing_plan_id":"cebpf4jnsgd1na2vs0mg"},{"bike_id":"01cc56f2-e0a1-494c-a32a-c75065ce15de","system_id":"levelo_inurba_marseille","lat":43.32371,"lon":5.3891,"is_reserved":false,"is_disabled":false,"rental_uris":{"android":"levelo://app?vid=01cc56f2-e0a1-494c-a32a-c75065ce15de","ios":"levelo://app?vid=01cc56f2-e0a1-494c-a32a-c75065ce15de"},"vehicle_type_id":"4","last_reported":1747285887,"current_range_meters":9600,"station_id":"ce4bhqp2rcd13ifvqhog","pricing_plan_id":"cebpf4jnsgd1na2vs0mg"},{"bike_id":"4d83a49d-a4f7-4140-bff3-bb3633e6dccc","system_id":"levelo_inurba_marseille","lat":43.323585,"lon":5.38886,"is_reserved":false,"is_disabled":false,"rental_uris":{"android":"levelo://app?vid=4d83a49d-a4f7-4140-bff3-bb3633e6dccc","ios":"levelo://app?vid=4d83a49d-a4f7-4140-bff3-bb3633e6dccc"},"vehicle_type_id":"4","last_reported":1747285887,"current_range_meters":9600,"station_id":"ce4bhqp2rcd13ifvqhog","pricing_plan_id":"cebpf4jnsgd1na2vs0mg"},{"bike_id":"a8785a39-b690-422c-b70b-3c9d95bcf8d2","system_id":"levelo_inurba_marseille","lat":43.29226,"lon":5.36866,"is_reserved":false,"is_disabled":false,"rental_uris":{"android":"levelo://app?vid=a8785a39-b690-422c-b70b-3c9d95bcf8d2","ios":"levelo://app?vid=a8785a39-b690-422c-b70b-3c9d95bcf8d2"},"vehicle_type_id":"4","last_reported":1747285887,"current_range_meters":10000,"station_id":"","pricing_plan_id":"cebpf4jnsgd1na2vs0mg"},{"bike_id":"b4ab39c3-0d60-4245-b87b-09baaec1b976","system_id":"levelo_inurba_marseille","lat":43.29893,"lon":5.38169,"is_reserved":false,"is_disabled":false,"rental_uris":{"android":"levelo://app?vid=b4ab39c3-0d60-4245-b87b-09baaec1b976","ios":"levelo://app?vid=b4ab39c3-0d60-4245-b87b-09baaec1b976"},"vehicle_type_id":"4","last_reported":1747285887,"current_range_meters":10000,"station_id":"ce4bgj12rcd13ifvqbc0","pricing_plan_id":"cebpf4jnsgd1na2vs0mg"},{"bike_id":"ee2a27af-695b-45e2-911d-1feb4d3d8904","system_id":"levelo_inurba_marseille","lat":43.30934,"lon":5.40152,"is_reserved":false,"is_disabled":false,"rental_uris":{"android":"levelo://app?vid=ee2a27af-695b-45e2-911d-1feb4d3d8904","ios":"levelo://app?vid=ee2a27af-695b-45e2-911d-1feb4d3d8904"},"vehicle_type_id":"4","last_reported":1747285887,"current_range_meters":10000,"station_id":"ce4bgvp2rcd13ifvqct0","pricing_plan_id":"cebpf4jnsgd1na2vs0mg"},{"bike_id":"74e087de-c735-4d96-8544-ac3e5274d091","system_id":"levelo_inurba_marseille","lat":43.317094,"lon":5.437083,"is_reserved":false,"is_disabled":false,"rental_uris":{"android":"levelo://app?vid=74e087de-c735-4d96-8544-ac3e5274d091","ios":"levelo://app?vid=74e087de-c735-4d96-8544-ac3e5274d091"},"vehicle_type_id":"4","last_reported":1747285887,"current_range_meters":10000,"station_id":"ce4bhp92rcd13ifvqhcg","pricing_plan_id":"cebpf4jnsgd1na2vs0mg"},{"bike_id":"d3a1c825-461c-4875-9f67-a6d33491348f","system_id":"levelo_inurba_marseille","lat":43.32336,"lon":5.40631,"is_reserved":false,"is_disabled":false,"rental_uris":{"android":"levelo://app?vid=d3a1c825-461c-4875-9f67-a6d33491348f","ios":"levelo://app?vid=d3a1c825-461c-4875-9f67-a6d33491348f"},"vehicle_type_id":"4","last_reported":1747285887,"current_range_meters":10000,"station_id":"ce4bhq92rcd13ifvqhjg","pricing_plan_id":"cebpf4jnsgd1na2vs0mg"},{"bike_id":"9f22b8aa-a9ca-4a2c-ab0b-0a0b10dbe182","system_id":"levelo_inurba_marseille","lat":43.32481,"lon":5.36574,"is_reserved":false,"is_disabled":false,"rental_uris":{"android":"levelo://app?vid=9f22b8aa-a9ca-4a2c-ab0b-0a0b10dbe182","ios":"levelo://app?vid=9f22b8aa-a9ca-4a2c-ab0b-0a0b10dbe182"},"vehicle_type_id":"4","last_reported":1747285887,"current_range_meters":10000,"station_id":"ce4bhs12rcd13ifvqhvg","pricing_plan_id":"cebpf4jnsgd1na2vs0mg"},{"bike_id":"79201247-8794-4c82-a3de-b9bfd03d70dc","system_id":"levelo_inurba_marseille","lat":43.30881,"lon":5.39644,"is_reserved":false,"is_disabled":false,"rental_uris":{"android":"levelo://app?vid=79201247-8794-4c82-a3de-b9bfd03d70dc","ios":"levelo://app?vid=79201247-8794-4c82-a3de-b9bfd03d70dc"},"vehicle_type_id":"4","last_reported":1747285887,"current_range_meters":10800,"station_id":"ce4bh012rcd13ifvqcv0","pricing_plan_id":"cebpf4jnsgd1na2vs0mg"},{"bike_id":"ff5e1a78-49cb-4065-ad75-694b6e882ec0","system_id":"levelo_inurba_marseille","lat":43.28101,"lon":5.37832,"is_reserved":false,"is_disabled":false,"rental_uris":{"android":"levelo://app?vid=ff5e1a78-49cb-4065-ad75-694b6e882ec0","ios":"levelo://app?vid=ff5e1a78-49cb-4065-ad75-694b6e882ec0"},"vehicle_type_id":"4","last_reported":1747285887,"current_range_meters":10800,"station_id":"ce4bha12rcd13ifvqee0","pricing_plan_id":"cebpf4jnsgd1na2vs0mg"},{"bike_id":"8bb58dfb-e0b9-4ebb-b855-e320f0f38526","system_id":"levelo_inurba_marseille","lat":43.26209,"lon":5.37446,"is_reserved":false,"is_disabled":false,"rental_uris":{"android":"levelo://app?vid=8bb58dfb-e0b9-4ebb-b855-e320f0f38526","ios":"levelo://app?vid=8bb58dfb-e0b9-4ebb-b855-e320f0f38526"},"vehicle_type_id":"4","last_reported":1747285887,"current_range_meters":10800,"station_id":"ce4bhgp2rcd13ifvqfc0","pricing_plan_id":"cebpf4jnsgd1na2vs0mg"},{"bike_id":"4a1605c8-9596-4ecb-94b7-2b583c66ecdd","system_id":"levelo_inurba_marseille","lat":43.246699,"lon":5.381607,"is_reserved":false,"is_disabled":false,"rental_uris":{"android":"levelo://app?vid=4a1605c8-9596-4ecb-94b7-2b583c66ecdd","ios":"levelo://app?vid=4a1605c8-9596-4ecb-94b7-2b583c66ecdd"},"vehicle_type_id":"4","last_reported":1747285887,"current_range_meters":10800,"station_id":"ce4bhih2rcd13ifvqfr0","pricing_plan_id":"cebpf4jnsgd1na2vs0mg"},{"bike_id":"080c5bc8-2a50-4d60-9a30-88ce86670d7a","system_id":"levelo_inurba_marseille","lat":43.270593,"lon":5.402591,"is_reserved":false,"is_disabled":false,"rental_uris":{"android":"levelo://app?vid=080c5bc8-2a50-4d60-9a30-88ce86670d7a","ios":"levelo://app?vid=080c5bc8-2a50-4d60-9a30-88ce86670d7a"},"vehicle_type_id":"4","last_reported":1747285887,"current_range_meters":10800,"station_id":"ce4bhk92rcd13ifvqgc0","pricing_plan_id":"cebpf4jnsgd1na2vs0mg"},{"bike_id":"17d57f58-ffb0-4d77-bbe5-7f462887ac74","system_id":"levelo_inurba_marseille","lat":43.241773,"lon":5.397154,"is_reserved":false,"is_disabled":false,"rental_uris":{"android":"levelo://app?vid=17d57f58-ffb0-4d77-bbe5-7f462887ac74","ios":"levelo://app?vid=17d57f58-ffb0-4d77-bbe5-7f462887ac74"},"vehicle_type_id":"4","last_reported":1747285887,"current_range_meters":10800,"station_id":"ce4bhn12rcd13ifvqgpg","pricing_plan_id":"cebpf4jnsgd1na2vs0mg"},{"bike_id":"f78e9075-1e2d-4880-8f61-47d08e9eff1c","system_id":"levelo_inurba_marseille","lat":43.240654,"lon":5.377763,"is_reserved":false,"is_disabled":false,"rental_uris":{"android":"levelo://app?vid=f78e9075-1e2d-4880-8f61-47d08e9eff1c","ios":"levelo://app?vid=f78e9075-1e2d-4880-8f61-47d08e9eff1c"},"vehicle_type_id":"4","last_reported":1747285887,"current_range_meters":10800,"station_id":"ce4bhnp2rcd13ifvqgvg","pricing_plan_id":"cebpf4jnsgd1na2vs0mg"},{"bike_id":"43c40f49-0c3b-4d73-b721-5febd2ec1837","system_id":"levelo_inurba_marseille","lat":43.2794,"lon":5.41059,"is_reserved":false,"is_disabled":false,"rental_uris":{"android":"levelo://app?vid=43c40f49-0c3b-4d73-b721-5febd2ec1837","ios":"levelo://app?vid=43c40f49-0c3b-4d73-b721-5febd2ec1837"},"vehicle_type_id":"4","last_reported":1747285887,"current_range_meters":10800,"station_id":"ce4bhnp2rcd13ifvqh0g","pricing_plan_id":"cebpf4jnsgd1na2vs0mg"},{"bike_id":"08f19e49-3591-4c7d-af71-e220280c0a02","system_id":"levelo_inurba_marseille","lat":43.31701,"lon":5.43733,"is_reserved":false,"is_disabled":false,"rental_uris":{"android":"levelo://app?vid=08f19e49-3591-4c7d-af71-e220280c0a02","ios":"levelo://app?vid=08f19e49-3591-4c7d-af71-e220280c0a02"},"vehicle_type_id":"4","last_reported":1747285887,"current_range_meters":10800,"station_id":"ce4bhp92rcd13ifvqhcg","pricing_plan_id":"cebpf4jnsgd1na2vs0mg"},{"bike_id":"6c0c1c26-4d1d-42d5-9806-592a7df4a860","system_id":"levelo_inurba_marseille","lat":43.287034,"lon":5.373989,"is_reserved":false,"is_disabled":false,"rental_uris":{"android":"levelo://app?vid=6c0c1c26-4d1d-42d5-9806-592a7df4a860","ios":"levelo://app?vid=6c0c1c26-4d1d-42d5-9806-592a7df4a860"},"vehicle_type_id":"4","last_reported":1747285887,"current_range_meters":11200,"station_id":"ce4bh3p2rcd13ifvqdq0","pricing_plan_id":"cebpf4jnsgd1na2vs0mg"},{"bike_id":"c3add8ec-5a35-45b6-ab23-247e04c1c5b8","system_id":"levelo_inurba_marseille","lat":43.2705,"lon":5.40263,"is_reserved":false,"is_disabled":false,"rental_uris":{"android":"levelo://app?vid=c3add8ec-5a35-45b6-ab23-247e04c1c5b8","ios":"levelo://app?vid=c3add8ec-5a35-45b6-ab23-247e04c1c5b8"},"vehicle_type_id":"4","last_reported":1747285887,"current_range_meters":11200,"station_id":"ce4bhk92rcd13ifvqgc0","pricing_plan_id":"cebpf4jnsgd1na2vs0mg"},{"bike_id":"ade5afed-bf4a-4def-a780-75cc151f95e7","system_id":"levelo_inurba_marseille","lat":43.29826,"lon":5.39345,"is_reserved":false,"is_disabled":false,"rental_uris":{"android":"levelo://app?vid=ade5afed-bf4a-4def-a780-75cc151f95e7","ios":"levelo://app?vid=ade5afed-bf4a-4def-a780-75cc151f95e7"},"vehicle_type_id":"4","last_reported":1747285887,"current_range_meters":11600,"station_id":"","pricing_plan_id":"cebpf4jnsgd1na2vs0mg"},{"bike_id":"f2fa3917-52e2-462b-8250-01097feb44e5","system_id":"levelo_inurba_marseille","lat":43.241666,"lon":5.397455,"is_reserved":false,"is_disabled":false,"rental_uris":{"android":"levelo://app?vid=f2fa3917-52e2-462b-8250-01097feb44e5","ios":"levelo://app?vid=f2fa3917-52e2-462b-8250-01097feb44e5"},"vehicle_type_id":"4","last_reported":1747285887,"current_range_meters":11600,"station_id":"ce4bhn12rcd13ifvqgpg","pricing_plan_id":"cebpf4jnsgd1na2vs0mg"},{"bike_id":"2fbf9af1-2df2-4aeb-8b20-a4c95e106089","system_id":"levelo_inurba_marseille","lat":43.240639,"lon":5.377621,"is_reserved":false,"is_disabled":false,"rental_uris":{"android":"levelo://app?vid=2fbf9af1-2df2-4aeb-8b20-a4c95e106089","ios":"levelo://app?vid=2fbf9af1-2df2-4aeb-8b20-a4c95e106089"},"vehicle_type_id":"4","last_reported":1747285887,"current_range_meters":11600,"station_id":"ce4bhnp2rcd13ifvqgvg","pricing_plan_id":"cebpf4jnsgd1na2vs0mg"},{"bike_id":"1b8fcf53-a929-4878-a714-5e795b4cbebb","system_id":"levelo_inurba_marseille","lat":43.28697,"lon":5.40013,"is_reserved":false,"is_disabled":false,"rental_uris":{"android":"levelo://app?vid=1b8fcf53-a929-4878-a714-5e795b4cbebb","ios":"levelo://app?vid=1b8fcf53-a929-4878-a714-5e795b4cbebb"},"vehicle_type_id":"4","last_reported":1747285887,"current_range_meters":11600,"station_id":"ce4bho92rcd13ifvqh3g","pricing_plan_id":"cebpf4jnsgd1na2vs0mg"},{"bike_id":"cf04a449-8245-40e5-866f-abb00b28cc6f","system_id":"levelo_inurba_marseille","lat":43.22932,"lon":5.35387,"is_reserved":false,"is_disabled":false,"rental_uris":{"android":"levelo://app?vid=cf04a449-8245-40e5-866f-abb00b28cc6f","ios":"levelo://app?vid=cf04a449-8245-40e5-866f-abb00b28cc6f"},"vehicle_type_id":"4","last_reported":1747285887,"current_range_meters":11600,"station_id":"cpo3532slgdg3j2ikp40","pricing_plan_id":"cebpf4jnsgd1na2vs0mg"},{"bike_id":"f3e7022b-4ef1-4fe9-b368-f11e5afc12e9","system_id":"levelo_inurba_marseille","lat":43.29452,"lon":5.397645,"is_reserved":false,"is_disabled":false,"rental_uris":{"android":"levelo://app?vid=f3e7022b-4ef1-4fe9-b368-f11e5afc12e9","ios":"levelo://app?vid=f3e7022b-4ef1-4fe9-b368-f11e5afc12e9"},"vehicle_type_id":"4","last_reported":1747285887,"current_range_meters":12000,"station_id":"ce4bh3h2rcd13ifvqdo0","pricing_plan_id":"cebpf4jnsgd1na2vs0mg"},{"bike_id":"a138c49f-1b39-4b18-b08e-26428375a631","system_id":"levelo_inurba_marseille","lat":43.2847,"lon":5.359,"is_reserved":false,"is_disabled":false,"rental_uris":{"android":"levelo://app?vid=a138c49f-1b39-4b18-b08e-26428375a631","ios":"levelo://app?vid=a138c49f-1b39-4b18-b08e-26428375a631"},"vehicle_type_id":"4","last_reported":1747285887,"current_range_meters":12000,"station_id":"ce4bhah2rcd13ifvqei0","pricing_plan_id":"cebpf4jnsgd1na2vs0mg"},{"bike_id":"8c7308bf-84fd-4edb-9b86-07fbeaf5e51b","system_id":"levelo_inurba_marseille","lat":43.31689,"lon":5.42423,"is_reserved":false,"is_disabled":false,"rental_uris":{"android":"levelo://app?vid=8c7308bf-84fd-4edb-9b86-07fbeaf5e51b","ios":"levelo://app?vid=8c7308bf-84fd-4edb-9b86-07fbeaf5e51b"},"vehicle_type_id":"4","last_reported":1747285887,"current_range_meters":12000,"station_id":"ce4bhp92rcd13ifvqhbg","pricing_plan_id":"cebpf4jnsgd1na2vs0mg"},{"bike_id":"cc377332-c824-4cf8-bc9d-97d1852f3692","system_id":"levelo_inurba_marseille","lat":43.31708,"lon":5.40461,"is_reserved":false,"is_disabled":false,"rental_uris":{"android":"levelo://app?vid=cc377332-c824-4cf8-bc9d-97d1852f3692","ios":"levelo://app?vid=cc377332-c824-4cf8-bc9d-97d1852f3692"},"vehicle_type_id":"4","last_reported":1747285887,"current_range_meters":12800,"station_id":"ce4bh012rcd13ifvqd00","pricing_plan_id":"cebpf4jnsgd1na2vs0mg"},{"bike_id":"21b06e68-a2e0-441f-9af6-90b8ed2d2a0e","system_id":"levelo_inurba_marseille","lat":43.30316,"lon":5.40452,"is_reserved":false,"is_disabled":false,"rental_uris":{"android":"levelo://app?vid=21b06e68-a2e0-441f-9af6-90b8ed2d2a0e","ios":"levelo://app?vid=21b06e68-a2e0-441f-9af6-90b8ed2d2a0e"},"vehicle_type_id":"4","last_reported":1747285887,"current_range_meters":12800,"station_id":"ce4bh012rcd13ifvqd10","pricing_plan_id":"cebpf4jnsgd1na2vs0mg"},{"bike_id":"2af0df00-84df-494b-94f3-3f5b86286540","system_id":"levelo_inurba_marseille","lat":43.30885,"lon":5.370786,"is_reserved":false,"is_disabled":false,"rental_uris":{"android":"levelo://app?vid=2af0df00-84df-494b-94f3-3f5b86286540","ios":"levelo://app?vid=2af0df00-84df-494b-94f3-3f5b86286540"},"vehicle_type_id":"4","last_reported":1747285887,"current_range_meters":13600,"station_id":"","pricing_plan_id":"cebpf4jnsgd1na2vs0mg"},{"bike_id":"473248e7-2381-4564-9df3-d777ae844fdf","system_id":"levelo_inurba_marseille","lat":43.30537,"lon":5.36555,"is_reserved":false,"is_disabled":false,"rental_uris":{"android":"levelo://app?vid=473248e7-2381-4564-9df3-d777ae844fdf","ios":"levelo://app?vid=473248e7-2381-4564-9df3-d777ae844fdf"},"vehicle_type_id":"4","last_reported":1747285887,"current_range_meters":13600,"station_id":"ce4bgs12rcd13ifvqcag","pricing_plan_id":"cebpf4jnsgd1na2vs0mg"},{"bike_id":"173815be-97dc-4bd5-92df-b9c49c0c2091","system_id":"levelo_inurba_marseille","lat":43.30308,"lon":5.404515,"is_reserved":false,"is_disabled":false,"rental_uris":{"android":"levelo://app?vid=173815be-97dc-4bd5-92df-b9c49c0c2091","ios":"levelo://app?vid=173815be-97dc-4bd5-92df-b9c49c0c2091"},"vehicle_type_id":"4","last_reported":1747285887,"current_range_meters":13600,"station_id":"ce4bh012rcd13ifvqd10","pricing_plan_id":"cebpf4jnsgd1na2vs0mg"},{"bike_id":"77a29338-5556-4205-9db9-a624ab9d00e5","system_id":"levelo_inurba_marseille","lat":43.24562,"lon":5.3955,"is_reserved":false,"is_disabled":false,"rental_uris":{"android":"levelo://app?vid=77a29338-5556-4205-9db9-a624ab9d00e5","ios":"levelo://app?vid=77a29338-5556-4205-9db9-a624ab9d00e5"},"vehicle_type_id":"4","last_reported":1747285887,"current_range_meters":13600,"station_id":"ce4bhlp2rcd13ifvqgjg","pricing_plan_id":"cebpf4jnsgd1na2vs0mg"},{"bike_id":"cfae641a-54c0-4b9b-b874-774267c67373","system_id":"levelo_inurba_marseille","lat":43.289583,"lon":5.432139,"is_reserved":false,"is_disabled":false,"rental_uris":{"android":"levelo://app?vid=cfae641a-54c0-4b9b-b874-774267c67373","ios":"levelo://app?vid=cfae641a-54c0-4b9b-b874-774267c67373"},"vehicle_type_id":"4","last_reported":1747285887,"current_range_meters":14000,"station_id":"","pricing_plan_id":"cebpf4jnsgd1na2vs0mg"},{"bike_id":"55b8e507-18f1-4b19-b223-f025e9e8cf5f","system_id":"levelo_inurba_marseille","lat":43.29309,"lon":5.37442,"is_reserved":false,"is_disabled":false,"rental_uris":{"android":"levelo://app?vid=55b8e507-18f1-4b19-b223-f025e9e8cf5f","ios":"levelo://app?vid=55b8e507-18f1-4b19-b223-f025e9e8cf5f"},"vehicle_type_id":"4","last_reported":1747285887,"current_range_meters":14000,"station_id":"ce4bgi12rcd13ifvqb70","pricing_plan_id":"cebpf4jnsgd1na2vs0mg"},{"bike_id":"f9241a38-cd06-4f93-a95f-0116e8f3104d","system_id":"levelo_inurba_marseille","lat":43.30157,"lon":5.38082,"is_reserved":false,"is_disabled":false,"rental_uris":{"android":"levelo://app?vid=f9241a38-cd06-4f93-a95f-0116e8f3104d","ios":"levelo://app?vid=f9241a38-cd06-4f93-a95f-0116e8f3104d"},"vehicle_type_id":"4","last_reported":1747285887,"current_range_meters":14000,"station_id":"ce4bgjp2rcd13ifvqbh0","pricing_plan_id":"cebpf4jnsgd1na2vs0mg"},{"bike_id":"94425245-09df-4108-9a30-610dbcaf2585","system_id":"levelo_inurba_marseille","lat":43.31689,"lon":5.4239,"is_reserved":false,"is_disabled":false,"rental_uris":{"android":"levelo://app?vid=94425245-09df-4108-9a30-610dbcaf2585","ios":"levelo://app?vid=94425245-09df-4108-9a30-610dbcaf2585"},"vehicle_type_id":"4","last_reported":1747285887,"current_range_meters":14000,"station_id":"ce4bhp92rcd13ifvqhbg","pricing_plan_id":"cebpf4jnsgd1na2vs0mg"},{"bike_id":"feb4f947-8c6b-40c7-9498-be1ceb9335f1","system_id":"levelo_inurba_marseille","lat":43.313151,"lon":5.39728,"is_reserved":false,"is_disabled":false,"rental_uris":{"android":"levelo://app?vid=feb4f947-8c6b-40c7-9498-be1ceb9335f1","ios":"levelo://app?vid=feb4f947-8c6b-40c7-9498-be1ceb9335f1"},"vehicle_type_id":"4","last_reported":1747285887,"current_range_meters":14400,"station_id":"ce4bgvp2rcd13ifvqcu0","pricing_plan_id":"cebpf4jnsgd1na2vs0mg"},{"bike_id":"21f5a1a4-43c5-4049-8a8d-3146c5c35157","system_id":"levelo_inurba_marseille","lat":43.229309,"lon":5.353916,"is_reserved":false,"is_disabled":false,"rental_uris":{"android":"levelo://app?vid=21f5a1a4-43c5-4049-8a8d-3146c5c35157","ios":"levelo://app?vid=21f5a1a4-43c5-4049-8a8d-3146c5c35157"},"vehicle_type_id":"4","last_reported":1747285887,"current_range_meters":14400,"station_id":"cpo3532slgdg3j2ikp40","pricing_plan_id":"cebpf4jnsgd1na2vs0mg"},{"bike_id":"c260378e-f038-46ef-acd7-d955ba324b73","system_id":"levelo_inurba_marseille","lat":43.24998,"lon":5.37917,"is_reserved":false,"is_disabled":false,"rental_uris":{"android":"levelo://app?vid=c260378e-f038-46ef-acd7-d955ba324b73","ios":"levelo://app?vid=c260378e-f038-46ef-acd7-d955ba324b73"},"vehicle_type_id":"4","last_reported":1747285887,"current_range_meters":14800,"station_id":"","pricing_plan_id":"cebpf4jnsgd1na2vs0mg"},{"bike_id":"4ca5c04b-83fc-47f0-ba12-ec385416b528","system_id":"levelo_inurba_marseille","lat":43.31436,"lon":5.369785,"is_reserved":false,"is_disabled":false,"rental_uris":{"android":"levelo://app?vid=4ca5c04b-83fc-47f0-ba12-ec385416b528","ios":"levelo://app?vid=4ca5c04b-83fc-47f0-ba12-ec385416b528"},"vehicle_type_id":"4","last_reported":1747285887,"current_range_meters":14800,"station_id":"","pricing_plan_id":"cebpf4jnsgd1na2vs0mg"},{"bike_id":"85229f75-99f9-447a-a3ed-86236028f5a5","system_id":"levelo_inurba_marseille","lat":43.251113,"lon":5.403367,"is_reserved":false,"is_disabled":false,"rental_uris":{"android":"levelo://app?vid=85229f75-99f9-447a-a3ed-86236028f5a5","ios":"levelo://app?vid=85229f75-99f9-447a-a3ed-86236028f5a5"},"vehicle_type_id":"4","last_reported":1747285887,"current_range_meters":14800,"station_id":"ce4bhlh2rcd13ifvqgig","pricing_plan_id":"cebpf4jnsgd1na2vs0mg"},{"bike_id":"d74dda0c-2ae8-4a20-aee3-80ba3b692d64","system_id":"levelo_inurba_marseille","lat":43.304704,"lon":5.371776,"is_reserved":false,"is_disabled":false,"rental_uris":{"android":"levelo://app?vid=d74dda0c-2ae8-4a20-aee3-80ba3b692d64","ios":"levelo://app?vid=d74dda0c-2ae8-4a20-aee3-80ba3b692d64"},"vehicle_type_id":"4","last_reported":1747285887,"current_range_meters":15200,"station_id":"","pricing_plan_id":"cebpf4jnsgd1na2vs0mg"},{"bike_id":"d7369284-bfc2-4af7-9a95-c50b2030cf6e","system_id":"levelo_inurba_marseille","lat":43.30619,"lon":5.37227,"is_reserved":false,"is_disabled":false,"rental_uris":{"android":"levelo://app?vid=d7369284-bfc2-4af7-9a95-c50b2030cf6e","ios":"levelo://app?vid=d7369284-bfc2-4af7-9a95-c50b2030cf6e"},"vehicle_type_id":"4","last_reported":1747285887,"current_range_meters":15200,"station_id":"ce4bgqh2rcd13ifvqc4g","pricing_plan_id":"cebpf4jnsgd1na2vs0mg"},{"bike_id":"88bbba9e-7184-4058-8824-c96a1cc5be7e","system_id":"levelo_inurba_marseille","lat":43.262188,"lon":5.404679,"is_reserved":false,"is_disabled":false,"rental_uris":{"android":"levelo://app?vid=88bbba9e-7184-4058-8824-c96a1cc5be7e","ios":"levelo://app?vid=88bbba9e-7184-4058-8824-c96a1cc5be7e"},"vehicle_type_id":"4","last_reported":1747285887,"current_range_meters":15200,"station_id":"ce4bhmh2rcd13ifvqgmg","pricing_plan_id":"cebpf4jnsgd1na2vs0mg"},{"bike_id":"db70583f-db63-4381-a92d-d941cdfb726b","system_id":"levelo_inurba_marseille","lat":43.295576,"lon":5.374476,"is_reserved":false,"is_disabled":false,"rental_uris":{"android":"levelo://app?vid=db70583f-db63-4381-a92d-d941cdfb726b","ios":"levelo://app?vid=db70583f-db63-4381-a92d-d941cdfb726b"},"vehicle_type_id":"4","last_reported":1747285887,"current_range_meters":16000,"station_id":"","pricing_plan_id":"cebpf4jnsgd1na2vs0mg"},{"bike_id":"a352bab8-7c70-4f81-8aa6-742732ea1f72","system_id":"levelo_inurba_marseille","lat":43.30162,"lon":5.38095,"is_reserved":false,"is_disabled":false,"rental_uris":{"android":"levelo://app?vid=a352bab8-7c70-4f81-8aa6-742732ea1f72","ios":"levelo://app?vid=a352bab8-7c70-4f81-8aa6-742732ea1f72"},"vehicle_type_id":"4","last_reported":1747285887,"current_range_meters":16000,"station_id":"ce4bgjp2rcd13ifvqbh0","pricing_plan_id":"cebpf4jnsgd1na2vs0mg"},{"bike_id":"cb4f2db1-d99f-48f4-bfbb-5bd040971ec9","system_id":"levelo_inurba_marseille","lat":43.275685,"lon":5.38416,"is_reserved":false,"is_disabled":false,"rental_uris":{"android":"levelo://app?vid=cb4f2db1-d99f-48f4-bfbb-5bd040971ec9","ios":"levelo://app?vid=cb4f2db1-d99f-48f4-bfbb-5bd040971ec9"},"vehicle_type_id":"4","last_reported":1747285887,"current_range_meters":16000,"station_id":"ce4bhh92rcd13ifvqfi0","pricing_plan_id":"cebpf4jnsgd1na2vs0mg"},{"bike_id":"6ccb9cbf-8f04-4e67-ab07-5985ad34040c","system_id":"levelo_inurba_marseille","lat":43.27052,"lon":5.40262,"is_reserved":false,"is_disabled":false,"rental_uris":{"android":"levelo://app?vid=6ccb9cbf-8f04-4e67-ab07-5985ad34040c","ios":"levelo://app?vid=6ccb9cbf-8f04-4e67-ab07-5985ad34040c"},"vehicle_type_id":"4","last_reported":1747285887,"current_range_meters":16000,"station_id":"ce4bhk92rcd13ifvqgc0","pricing_plan_id":"cebpf4jnsgd1na2vs0mg"},{"bike_id":"f5d635aa-40a8-4516-9089-f4be7c5861ab","system_id":"levelo_inurba_marseille","lat":43.323288,"lon":5.406225,"is_reserved":false,"is_disabled":false,"rental_uris":{"android":"levelo://app?vid=f5d635aa-40a8-4516-9089-f4be7c5861ab","ios":"levelo://app?vid=f5d635aa-40a8-4516-9089-f4be7c5861ab"},"vehicle_type_id":"4","last_reported":1747285887,"current_range_meters":16000,"station_id":"ce4bhq92rcd13ifvqhjg","pricing_plan_id":"cebpf4jnsgd1na2vs0mg"},{"bike_id":"0a5e6cc4-0328-4fd7-9db5-c5029f1cf2d9","system_id":"levelo_inurba_marseille","lat":43.323661,"lon":5.388853,"is_reserved":false,"is_disabled":false,"rental_uris":{"android":"levelo://app?vid=0a5e6cc4-0328-4fd7-9db5-c5029f1cf2d9","ios":"levelo://app?vid=0a5e6cc4-0328-4fd7-9db5-c5029f1cf2d9"},"vehicle_type_id":"4","last_reported":1747285887,"current_range_meters":16000,"station_id":"ce4bhqp2rcd13ifvqhog","pricing_plan_id":"cebpf4jnsgd1na2vs0mg"},{"bike_id":"c682a571-1b8e-42c7-82ff-72c8d128bd01","system_id":"levelo_inurba_marseille","lat":43.29896,"lon":5.38338,"is_reserved":false,"is_disabled":false,"rental_uris":{"android":"levelo://app?vid=c682a571-1b8e-42c7-82ff-72c8d128bd01","ios":"levelo://app?vid=c682a571-1b8e-42c7-82ff-72c8d128bd01"},"vehicle_type_id":"4","last_reported":1747285887,"current_range_meters":16400,"station_id":"","pricing_plan_id":"cebpf4jnsgd1na2vs0mg"},{"bike_id":"2b2a22eb-aa58-4a4d-b7c1-526b30fb4969","system_id":"levelo_inurba_marseille","lat":43.29225,"lon":5.36073,"is_reserved":false,"is_disabled":false,"rental_uris":{"android":"levelo://app?vid=2b2a22eb-aa58-4a4d-b7c1-526b30fb4969","ios":"levelo://app?vid=2b2a22eb-aa58-4a4d-b7c1-526b30fb4969"},"vehicle_type_id":"4","last_reported":1747285887,"current_range_meters":16400,"station_id":"ce4bhbh2rcd13ifvqeqg","pricing_plan_id":"cebpf4jnsgd1na2vs0mg"},{"bike_id":"1b2ca96b-a115-4009-b707-71f4c5b975d8","system_id":"levelo_inurba_marseille","lat":43.324714,"lon":5.365725,"is_reserved":false,"is_disabled":false,"rental_uris":{"android":"levelo://app?vid=1b2ca96b-a115-4009-b707-71f4c5b975d8","ios":"levelo://app?vid=1b2ca96b-a115-4009-b707-71f4c5b975d8"},"vehicle_type_id":"4","last_reported":1747285887,"current_range_meters":16400,"station_id":"ce4bhs12rcd13ifvqhvg","pricing_plan_id":"cebpf4jnsgd1na2vs0mg"},{"bike_id":"d7050558-65ac-4a68-a76c-6a37942a4b17","system_id":"levelo_inurba_marseille","lat":43.304351,"lon":5.388853,"is_reserved":false,"is_disabled":false,"rental_uris":{"android":"levelo://app?vid=d7050558-65ac-4a68-a76c-6a37942a4b17","ios":"levelo://app?vid=d7050558-65ac-4a68-a76c-6a37942a4b17"},"vehicle_type_id":"4","last_reported":1747285887,"current_range_meters":16800,"station_id":"ce4bgk12rcd13ifvqbi0","pricing_plan_id":"cebpf4jnsgd1na2vs0mg"},{"bike_id":"a97e7f2f-a4bd-43dc-a4a3-f47c4b150cbd","system_id":"levelo_inurba_marseille","lat":43.241395,"lon":5.39732,"is_reserved":false,"is_disabled":false,"rental_uris":{"android":"levelo://app?vid=a97e7f2f-a4bd-43dc-a4a3-f47c4b150cbd","ios":"levelo://app?vid=a97e7f2f-a4bd-43dc-a4a3-f47c4b150cbd"},"vehicle_type_id":"4","last_reported":1747285887,"current_range_meters":17200,"station_id":"ce4bhn12rcd13ifvqgpg","pricing_plan_id":"cebpf4jnsgd1na2vs0mg"},{"bike_id":"385c5680-aa17-4953-8596-7f0cb64e8bcd","system_id":"levelo_inurba_marseille","lat":43.324843,"lon":5.365586,"is_reserved":false,"is_disabled":false,"rental_uris":{"android":"levelo://app?vid=385c5680-aa17-4953-8596-7f0cb64e8bcd","ios":"levelo://app?vid=385c5680-aa17-4953-8596-7f0cb64e8bcd"},"vehicle_type_id":"4","last_reported":1747285887,"current_range_meters":17200,"station_id":"ce4bhs12rcd13ifvqhvg","pricing_plan_id":"cebpf4jnsgd1na2vs0mg"},{"bike_id":"5b4d94d5-d1fb-4594-8ced-01262346e7e4","system_id":"levelo_inurba_marseille","lat":43.286195,"lon":5.370621,"is_reserved":false,"is_disabled":false,"rental_uris":{"android":"levelo://app?vid=5b4d94d5-d1fb-4594-8ced-01262346e7e4","ios":"levelo://app?vid=5b4d94d5-d1fb-4594-8ced-01262346e7e4"},"vehicle_type_id":"4","last_reported":1747285887,"current_range_meters":17200,"station_id":"ce4bht12rcd13ifvqi60","pricing_plan_id":"cebpf4jnsgd1na2vs0mg"},{"bike_id":"60af0a7f-4cfd-4f77-8f2f-31f09c58ccf0","system_id":"levelo_inurba_marseille","lat":43.217433,"lon":5.346224,"is_reserved":false,"is_disabled":true,"rental_uris":{"android":"levelo://app?vid=60af0a7f-4cfd-4f77-8f2f-31f09c58ccf0","ios":"levelo://app?vid=60af0a7f-4cfd-4f77-8f2f-31f09c58ccf0"},"vehicle_type_id":"4","last_reported":1747285887,"current_range_meters":17200,"station_id":"st_cvj6r9ubvosntc0bgbag","pricing_plan_id":"cebpf4jnsgd1na2vs0mg"},{"bike_id":"9a402898-f116-408b-8709-c62dd77d2b5d","system_id":"levelo_inurba_marseille","lat":43.2936,"lon":5.42856,"is_reserved":false,"is_disabled":false,"rental_uris":{"android":"levelo://app?vid=9a402898-f116-408b-8709-c62dd77d2b5d","ios":"levelo://app?vid=9a402898-f116-408b-8709-c62dd77d2b5d"},"vehicle_type_id":"4","last_reported":1747285887,"current_range_meters":17600,"station_id":"","pricing_plan_id":"cebpf4jnsgd1na2vs0mg"},{"bike_id":"978e8be0-d2c5-4801-8712-3aa582d69845","system_id":"levelo_inurba_marseille","lat":43.26563,"lon":5.39005,"is_reserved":false,"is_disabled":false,"rental_uris":{"android":"levelo://app?vid=978e8be0-d2c5-4801-8712-3aa582d69845","ios":"levelo://app?vid=978e8be0-d2c5-4801-8712-3aa582d69845"},"vehicle_type_id":"4","last_reported":1747285887,"current_range_meters":17600,"station_id":"ce4bhe12rcd13ifvqf30","pricing_plan_id":"cebpf4jnsgd1na2vs0mg"},{"bike_id":"8b44f886-59c7-4896-a2ca-0dea931a883f","system_id":"levelo_inurba_marseille","lat":43.211926,"lon":5.35074,"is_reserved":false,"is_disabled":false,"rental_uris":{"android":"levelo://app?vid=8b44f886-59c7-4896-a2ca-0dea931a883f","ios":"levelo://app?vid=8b44f886-59c7-4896-a2ca-0dea931a883f"},"vehicle_type_id":"4","last_reported":1747285887,"current_range_meters":17600,"station_id":"st_cvj6sg6p6f1abm77japg","pricing_plan_id":"cebpf4jnsgd1na2vs0mg"},{"bike_id":"923c8157-76eb-4de1-8e7b-3c3522b64237","system_id":"levelo_inurba_marseille","lat":43.305784,"lon":5.372463,"is_reserved":false,"is_disabled":false,"rental_uris":{"android":"levelo://app?vid=923c8157-76eb-4de1-8e7b-3c3522b64237","ios":"levelo://app?vid=923c8157-76eb-4de1-8e7b-3c3522b64237"},"vehicle_type_id":"4","last_reported":1747285887,"current_range_meters":18000,"station_id":"ce4bgqh2rcd13ifvqc4g","pricing_plan_id":"cebpf4jnsgd1na2vs0mg"},{"bike_id":"bfd7292f-0dc3-4d16-8393-ce7be3db558b","system_id":"levelo_inurba_marseille","lat":43.30942,"lon":5.40124,"is_reserved":false,"is_disabled":false,"rental_uris":{"android":"levelo://app?vid=bfd7292f-0dc3-4d16-8393-ce7be3db558b","ios":"levelo://app?vid=bfd7292f-0dc3-4d16-8393-ce7be3db558b"},"vehicle_type_id":"4","last_reported":1747285887,"current_range_meters":18000,"station_id":"ce4bgvp2rcd13ifvqct0","pricing_plan_id":"cebpf4jnsgd1na2vs0mg"},{"bike_id":"a6002c7f-3b00-4265-bf42-2020668e804b","system_id":"levelo_inurba_marseille","lat":43.309399,"lon":5.401548,"is_reserved":false,"is_disabled":false,"rental_uris":{"android":"levelo://app?vid=a6002c7f-3b00-4265-bf42-2020668e804b","ios":"levelo://app?vid=a6002c7f-3b00-4265-bf42-2020668e804b"},"vehicle_type_id":"4","last_reported":1747285887,"current_range_meters":18000,"station_id":"ce4bgvp2rcd13ifvqct0","pricing_plan_id":"cebpf4jnsgd1na2vs0mg"},{"bike_id":"f31e0c7d-730a-4cc4-9836-3184dcf3f521","system_id":"levelo_inurba_marseille","lat":43.30322,"lon":5.40437,"is_reserved":false,"is_disabled":false,"rental_uris":{"android":"levelo://app?vid=f31e0c7d-730a-4cc4-9836-3184dcf3f521","ios":"levelo://app?vid=f31e0c7d-730a-4cc4-9836-3184dcf3f521"},"vehicle_type_id":"4","last_reported":1747285887,"current_range_meters":18000,"station_id":"ce4bh012rcd13ifvqd10","pricing_plan_id":"cebpf4jnsgd1na2vs0mg"},{"bike_id":"47e1611a-2f50-4698-ad96-e0bf5b00c68e","system_id":"levelo_inurba_marseille","lat":43.27969,"lon":5.38699,"is_reserved":false,"is_disabled":false,"rental_uris":{"android":"levelo://app?vid=47e1611a-2f50-4698-ad96-e0bf5b00c68e","ios":"levelo://app?vid=47e1611a-2f50-4698-ad96-e0bf5b00c68e"},"vehicle_type_id":"4","last_reported":1747285887,"current_range_meters":18000,"station_id":"ce4bhg12rcd13ifvqf80","pricing_plan_id":"cebpf4jnsgd1na2vs0mg"},{"bike_id":"3038f049-0195-4182-884a-dc9bf7e1b7b8","system_id":"levelo_inurba_marseille","lat":43.25102,"lon":5.4034,"is_reserved":false,"is_disabled":false,"rental_uris":{"android":"levelo://app?vid=3038f049-0195-4182-884a-dc9bf7e1b7b8","ios":"levelo://app?vid=3038f049-0195-4182-884a-dc9bf7e1b7b8"},"vehicle_type_id":"4","last_reported":1747285887,"current_range_meters":18000,"station_id":"ce4bhlh2rcd13ifvqgig","pricing_plan_id":"cebpf4jnsgd1na2vs0mg"},{"bike_id":"b8505fd1-8131-40e9-a33d-145916457441","system_id":"levelo_inurba_marseille","lat":43.303631,"lon":5.425014,"is_reserved":false,"is_disabled":false,"rental_uris":{"android":"levelo://app?vid=b8505fd1-8131-40e9-a33d-145916457441","ios":"levelo://app?vid=b8505fd1-8131-40e9-a33d-145916457441"},"vehicle_type_id":"4","last_reported":1747285887,"current_range_meters":18000,"station_id":"ce4bhoh2rcd13ifvqh6g","pricing_plan_id":"cebpf4jnsgd1na2vs0mg"},{"bike_id":"08c3bbb6-0b0b-4686-a311-8a89b6fbd5c9","system_id":"levelo_inurba_marseille","lat":43.323364,"lon":5.406243,"is_reserved":false,"is_disabled":false,"rental_uris":{"android":"levelo://app?vid=08c3bbb6-0b0b-4686-a311-8a89b6fbd5c9","ios":"levelo://app?vid=08c3bbb6-0b0b-4686-a311-8a89b6fbd5c9"},"vehicle_type_id":"4","last_reported":1747285887,"current_range_meters":18000,"station_id":"ce4bhq92rcd13ifvqhjg","pricing_plan_id":"cebpf4jnsgd1na2vs0mg"},{"bike_id":"05647ffd-ffa9-4a9c-92e9-9a49dc821811","system_id":"levelo_inurba_marseille","lat":43.32353,"lon":5.36741,"is_reserved":false,"is_disabled":false,"rental_uris":{"android":"levelo://app?vid=05647ffd-ffa9-4a9c-92e9-9a49dc821811","ios":"levelo://app?vid=05647ffd-ffa9-4a9c-92e9-9a49dc821811"},"vehicle_type_id":"4","last_reported":1747285887,"current_range_meters":18800,"station_id":"ce4bhsh2rcd13ifvqi2g","pricing_plan_id":"cebpf4jnsgd1na2vs0mg"},{"bike_id":"17fff4cc-5014-48ef-aef1-228c11c76cbf","system_id":"levelo_inurba_marseille","lat":43.30157,"lon":5.38088,"is_reserved":false,"is_disabled":false,"rental_uris":{"android":"levelo://app?vid=17fff4cc-5014-48ef-aef1-228c11c76cbf","ios":"levelo://app?vid=17fff4cc-5014-48ef-aef1-228c11c76cbf"},"vehicle_type_id":"4","last_reported":1747285887,"current_range_meters":19200,"station_id":"ce4bgjp2rcd13ifvqbh0","pricing_plan_id":"cebpf4jnsgd1na2vs0mg"},{"bike_id":"d68e2195-4a46-4330-8fb5-099a7e5fcbec","system_id":"levelo_inurba_marseille","lat":43.308003,"lon":5.381569,"is_reserved":false,"is_disabled":false,"rental_uris":{"android":"levelo://app?vid=d68e2195-4a46-4330-8fb5-099a7e5fcbec","ios":"levelo://app?vid=d68e2195-4a46-4330-8fb5-099a7e5fcbec"},"vehicle_type_id":"4","last_reported":1747285887,"current_range_meters":19200,"station_id":"ce4bgt12rcd13ifvqce0","pricing_plan_id":"cebpf4jnsgd1na2vs0mg"},{"bike_id":"1ca5e61f-d948-4f2a-9be9-774b95d0b013","system_id":"levelo_inurba_marseille","lat":43.30903,"lon":5.40185,"is_reserved":false,"is_disabled":false,"rental_uris":{"android":"levelo://app?vid=1ca5e61f-d948-4f2a-9be9-774b95d0b013","ios":"levelo://app?vid=1ca5e61f-d948-4f2a-9be9-774b95d0b013"},"vehicle_type_id":"4","last_reported":1747285887,"current_range_meters":19200,"station_id":"ce4bgvp2rcd13ifvqct0","pricing_plan_id":"cebpf4jnsgd1na2vs0mg"},{"bike_id":"c9006908-b48d-4dec-8629-cb504d23e290","system_id":"levelo_inurba_marseille","lat":43.30921,"lon":5.40162,"is_reserved":false,"is_disabled":false,"rental_uris":{"android":"levelo://app?vid=c9006908-b48d-4dec-8629-cb504d23e290","ios":"levelo://app?vid=c9006908-b48d-4dec-8629-cb504d23e290"},"vehicle_type_id":"4","last_reported":1747285887,"current_range_meters":19200,"station_id":"ce4bgvp2rcd13ifvqct0","pricing_plan_id":"cebpf4jnsgd1na2vs0mg"},{"bike_id":"840dcd41-1169-4d2f-a926-23eb8f7dd13f","system_id":"levelo_inurba_marseille","lat":43.2843,"lon":5.391916,"is_reserved":false,"is_disabled":false,"rental_uris":{"android":"levelo://app?vid=840dcd41-1169-4d2f-a926-23eb8f7dd13f","ios":"levelo://app?vid=840dcd41-1169-4d2f-a926-23eb8f7dd13f"},"vehicle_type_id":"4","last_reported":1747285887,"current_range_meters":19200,"station_id":"ce4bhoh2rcd13ifvqh5g","pricing_plan_id":"cebpf4jnsgd1na2vs0mg"},{"bike_id":"0ce6466f-872c-4f1a-a0f8-e41aa916edbb","system_id":"levelo_inurba_marseille","lat":43.317201,"lon":5.423949,"is_reserved":false,"is_disabled":false,"rental_uris":{"android":"levelo://app?vid=0ce6466f-872c-4f1a-a0f8-e41aa916edbb","ios":"levelo://app?vid=0ce6466f-872c-4f1a-a0f8-e41aa916edbb"},"vehicle_type_id":"4","last_reported":1747285887,"current_range_meters":19200,"station_id":"ce4bhp92rcd13ifvqhbg","pricing_plan_id":"cebpf4jnsgd1na2vs0mg"},{"bike_id":"c0e0fd84-4c7c-420a-b641-45b7066ef9a9","system_id":"levelo_inurba_marseille","lat":43.31345,"lon":5.36718,"is_reserved":false,"is_disabled":false,"rental_uris":{"android":"levelo://app?vid=c0e0fd84-4c7c-420a-b641-45b7066ef9a9","ios":"levelo://app?vid=c0e0fd84-4c7c-420a-b641-45b7066ef9a9"},"vehicle_type_id":"4","last_reported":1747285887,"current_range_meters":20000,"station_id":"ce4bgr92rcd13ifvqc6g","pricing_plan_id":"cebpf4jnsgd1na2vs0mg"},{"bike_id":"2139b0ca-dddd-44ee-b6f6-fc1e6ef5d808","system_id":"levelo_inurba_marseille","lat":43.30917,"lon":5.40111,"is_reserved":false,"is_disabled":false,"rental_uris":{"android":"levelo://app?vid=2139b0ca-dddd-44ee-b6f6-fc1e6ef5d808","ios":"levelo://app?vid=2139b0ca-dddd-44ee-b6f6-fc1e6ef5d808"},"vehicle_type_id":"4","last_reported":1747285887,"current_range_meters":20000,"station_id":"ce4bgvp2rcd13ifvqct0","pricing_plan_id":"cebpf4jnsgd1na2vs0mg"},{"bike_id":"302cfdf1-81be-4755-b604-d1bc07b86986","system_id":"levelo_inurba_marseille","lat":43.32047,"lon":5.41537,"is_reserved":false,"is_disabled":false,"rental_uris":{"android":"levelo://app?vid=302cfdf1-81be-4755-b604-d1bc07b86986","ios":"levelo://app?vid=302cfdf1-81be-4755-b604-d1bc07b86986"},"vehicle_type_id":"4","last_reported":1747285887,"current_range_meters":20000,"station_id":"ce4bhq92rcd13ifvqhkg","pricing_plan_id":"cebpf4jnsgd1na2vs0mg"},{"bike_id":"65a1ea0a-15da-4d8d-9f96-81109bfef3b6","system_id":"levelo_inurba_marseille","lat":43.3051,"lon":5.36709,"is_reserved":false,"is_disabled":false,"rental_uris":{"android":"levelo://app?vid=65a1ea0a-15da-4d8d-9f96-81109bfef3b6","ios":"levelo://app?vid=65a1ea0a-15da-4d8d-9f96-81109bfef3b6"},"vehicle_type_id":"4","last_reported":1747285887,"current_range_meters":20400,"station_id":"ce4bgn92rcd13ifvqbvg","pricing_plan_id":"cebpf4jnsgd1na2vs0mg"},{"bike_id":"d6e30fa4-1c64-49eb-9d70-8745f7eef0f7","system_id":"levelo_inurba_marseille","lat":43.309528,"lon":5.390318,"is_reserved":false,"is_disabled":false,"rental_uris":{"android":"levelo://app?vid=d6e30fa4-1c64-49eb-9d70-8745f7eef0f7","ios":"levelo://app?vid=d6e30fa4-1c64-49eb-9d70-8745f7eef0f7"},"vehicle_type_id":"4","last_reported":1747285887,"current_range_meters":20400,"station_id":"ce4bgup2rcd13ifvqco0","pricing_plan_id":"cebpf4jnsgd1na2vs0mg"},{"bike_id":"1fe0cc6f-a090-491c-9a7f-e067c04f1188","system_id":"levelo_inurba_marseille","lat":43.307814,"lon":5.376591,"is_reserved":false,"is_disabled":false,"rental_uris":{"android":"levelo://app?vid=1fe0cc6f-a090-491c-9a7f-e067c04f1188","ios":"levelo://app?vid=1fe0cc6f-a090-491c-9a7f-e067c04f1188"},"vehicle_type_id":"4","last_reported":1747285887,"current_range_meters":20400,"station_id":"ce4bgv92rcd13ifvqcq0","pricing_plan_id":"cebpf4jnsgd1na2vs0mg"},{"bike_id":"dc421504-72f9-414f-9921-c341af8cf298","system_id":"levelo_inurba_marseille","lat":43.2707,"lon":5.42266,"is_reserved":false,"is_disabled":false,"rental_uris":{"android":"levelo://app?vid=dc421504-72f9-414f-9921-c341af8cf298","ios":"levelo://app?vid=dc421504-72f9-414f-9921-c341af8cf298"},"vehicle_type_id":"4","last_reported":1747285887,"current_range_meters":20400,"station_id":"ce4bhk92rcd13ifvqgb0","pricing_plan_id":"cebpf4jnsgd1na2vs0mg"},{"bike_id":"32b55b17-458e-4a4c-972f-1babf1091298","system_id":"levelo_inurba_marseille","lat":43.315307,"lon":5.380256,"is_reserved":false,"is_disabled":false,"rental_uris":{"android":"levelo://app?vid=32b55b17-458e-4a4c-972f-1babf1091298","ios":"levelo://app?vid=32b55b17-458e-4a4c-972f-1babf1091298"},"vehicle_type_id":"4","last_reported":1747285887,"current_range_meters":20400,"station_id":"ce4bhsp2rcd13ifvqi50","pricing_plan_id":"cebpf4jnsgd1na2vs0mg"},{"bike_id":"54a1a73b-9f7a-414c-a48f-eeace73bd9b0","system_id":"levelo_inurba_marseille","lat":43.225124,"lon":5.3479,"is_reserved":false,"is_disabled":false,"rental_uris":{"android":"levelo://app?vid=54a1a73b-9f7a-414c-a48f-eeace73bd9b0","ios":"levelo://app?vid=54a1a73b-9f7a-414c-a48f-eeace73bd9b0"},"vehicle_type_id":"4","last_reported":1747285887,"current_range_meters":20400,"station_id":"st_cvj5dfep6f1abm77gieg","pricing_plan_id":"cebpf4jnsgd1na2vs0mg"},{"bike_id":"53255f06-7299-45fa-bc69-8e61557bf5d6","system_id":"levelo_inurba_marseille","lat":43.240682,"lon":5.377636,"is_reserved":false,"is_disabled":false,"rental_uris":{"android":"levelo://app?vid=53255f06-7299-45fa-bc69-8e61557bf5d6","ios":"levelo://app?vid=53255f06-7299-45fa-bc69-8e61557bf5d6"},"vehicle_type_id":"4","last_reported":1747285887,"current_range_meters":20800,"station_id":"ce4bhnp2rcd13ifvqgvg","pricing_plan_id":"cebpf4jnsgd1na2vs0mg"},{"bike_id":"5d6b8819-bc28-4c7c-a4c9-3c239162f9d4","system_id":"levelo_inurba_marseille","lat":43.31707,"lon":5.43716,"is_reserved":false,"is_disabled":false,"rental_uris":{"android":"levelo://app?vid=5d6b8819-bc28-4c7c-a4c9-3c239162f9d4","ios":"levelo://app?vid=5d6b8819-bc28-4c7c-a4c9-3c239162f9d4"},"vehicle_type_id":"4","last_reported":1747285887,"current_range_meters":20800,"station_id":"ce4bhp92rcd13ifvqhcg","pricing_plan_id":"cebpf4jnsgd1na2vs0mg"},{"bike_id":"51c0565a-9538-4bfc-93e0-a867b481dbd0","system_id":"levelo_inurba_marseille","lat":43.26798,"lon":5.402578,"is_reserved":false,"is_disabled":false,"rental_uris":{"android":"levelo://app?vid=51c0565a-9538-4bfc-93e0-a867b481dbd0","ios":"levelo://app?vid=51c0565a-9538-4bfc-93e0-a867b481dbd0"},"vehicle_type_id":"4","last_reported":1747285887,"current_range_meters":20800,"station_id":"ce501612rcd8frsf0b60","pricing_plan_id":"cebpf4jnsgd1na2vs0mg"},{"bike_id":"54c80718-1468-47f9-9877-bc44f5940722","system_id":"levelo_inurba_marseille","lat":43.21198,"lon":5.35087,"is_reserved":false,"is_disabled":false,"rental_uris":{"android":"levelo://app?vid=54c80718-1468-47f9-9877-bc44f5940722","ios":"levelo://app?vid=54c80718-1468-47f9-9877-bc44f5940722"},"vehicle_type_id":"4","last_reported":1747285887,"current_range_meters":21600,"station_id":"st_cvj6sg6p6f1abm77japg","pricing_plan_id":"cebpf4jnsgd1na2vs0mg"},{"bike_id":"621aa8e6-46f8-4850-9de9-5690b4d6cce3","system_id":"levelo_inurba_marseille","lat":43.30735,"lon":5.37681,"is_reserved":false,"is_disabled":false,"rental_uris":{"android":"levelo://app?vid=621aa8e6-46f8-4850-9de9-5690b4d6cce3","ios":"levelo://app?vid=621aa8e6-46f8-4850-9de9-5690b4d6cce3"},"vehicle_type_id":"4","last_reported":1747285887,"current_range_meters":22000,"station_id":"","pricing_plan_id":"cebpf4jnsgd1na2vs0mg"},{"bike_id":"f92bcbc1-4487-46a6-96c1-7fedf03d9ccb","system_id":"levelo_inurba_marseille","lat":43.313266,"lon":5.397099,"is_reserved":false,"is_disabled":false,"rental_uris":{"android":"levelo://app?vid=f92bcbc1-4487-46a6-96c1-7fedf03d9ccb","ios":"levelo://app?vid=f92bcbc1-4487-46a6-96c1-7fedf03d9ccb"},"vehicle_type_id":"4","last_reported":1747285887,"current_range_meters":22000,"station_id":"ce4bgvp2rcd13ifvqcu0","pricing_plan_id":"cebpf4jnsgd1na2vs0mg"},{"bike_id":"9bcf3ca6-1abc-4b05-ab99-20d911c934b4","system_id":"levelo_inurba_marseille","lat":43.265,"lon":5.39537,"is_reserved":false,"is_disabled":false,"rental_uris":{"android":"levelo://app?vid=9bcf3ca6-1abc-4b05-ab99-20d911c934b4","ios":"levelo://app?vid=9bcf3ca6-1abc-4b05-ab99-20d911c934b4"},"vehicle_type_id":"4","last_reported":1747285887,"current_range_meters":22000,"station_id":"ce4bhi12rcd13ifvqfq0","pricing_plan_id":"cebpf4jnsgd1na2vs0mg"},{"bike_id":"59e29e8a-a0e6-4f97-a7dd-6f3bb9740c59","system_id":"levelo_inurba_marseille","lat":43.31075,"lon":5.42434,"is_reserved":false,"is_disabled":false,"rental_uris":{"android":"levelo://app?vid=59e29e8a-a0e6-4f97-a7dd-6f3bb9740c59","ios":"levelo://app?vid=59e29e8a-a0e6-4f97-a7dd-6f3bb9740c59"},"vehicle_type_id":"4","last_reported":1747285887,"current_range_meters":22000,"station_id":"ce4bhp92rcd13ifvqhag","pricing_plan_id":"cebpf4jnsgd1na2vs0mg"},{"bike_id":"5dd81d8b-2d5c-46a8-ae61-aaef33b7e2ac","system_id":"levelo_inurba_marseille","lat":43.3237,"lon":5.38878,"is_reserved":false,"is_disabled":false,"rental_uris":{"android":"levelo://app?vid=5dd81d8b-2d5c-46a8-ae61-aaef33b7e2ac","ios":"levelo://app?vid=5dd81d8b-2d5c-46a8-ae61-aaef33b7e2ac"},"vehicle_type_id":"4","last_reported":1747285887,"current_range_meters":22000,"station_id":"ce4bhqp2rcd13ifvqhog","pricing_plan_id":"cebpf4jnsgd1na2vs0mg"},{"bike_id":"7362391a-620c-4ef1-881e-a7ec0f964db4","system_id":"levelo_inurba_marseille","lat":43.29635,"lon":5.37726,"is_reserved":false,"is_disabled":false,"rental_uris":{"android":"levelo://app?vid=7362391a-620c-4ef1-881e-a7ec0f964db4","ios":"levelo://app?vid=7362391a-620c-4ef1-881e-a7ec0f964db4"},"vehicle_type_id":"4","last_reported":1747285887,"current_range_meters":22400,"station_id":"ce4bgi92rcd13ifvqb90","pricing_plan_id":"cebpf4jnsgd1na2vs0mg"},{"bike_id":"85324c69-3c1a-4d4b-aaa1-61a5ef489300","system_id":"levelo_inurba_marseille","lat":43.25694,"lon":5.41027,"is_reserved":false,"is_disabled":false,"rental_uris":{"android":"levelo://app?vid=85324c69-3c1a-4d4b-aaa1-61a5ef489300","ios":"levelo://app?vid=85324c69-3c1a-4d4b-aaa1-61a5ef489300"},"vehicle_type_id":"4","last_reported":1747285887,"current_range_meters":22400,"station_id":"ce4bhkp2rcd13ifvqgd0","pricing_plan_id":"cebpf4jnsgd1na2vs0mg"},{"bike_id":"57e6f947-b8b9-427e-82a9-0d92f39f92d7","system_id":"levelo_inurba_marseille","lat":43.287077,"lon":5.399951,"is_reserved":false,"is_disabled":false,"rental_uris":{"android":"levelo://app?vid=57e6f947-b8b9-427e-82a9-0d92f39f92d7","ios":"levelo://app?vid=57e6f947-b8b9-427e-82a9-0d92f39f92d7"},"vehicle_type_id":"4","last_reported":1747285887,"current_range_meters":22400,"station_id":"ce4bho92rcd13ifvqh3g","pricing_plan_id":"cebpf4jnsgd1na2vs0mg"},{"bike_id":"d4074802-7c83-42b1-95a9-a3124905a656","system_id":"levelo_inurba_marseille","lat":43.337653,"lon":5.374458,"is_reserved":false,"is_disabled":false,"rental_uris":{"android":"levelo://app?vid=d4074802-7c83-42b1-95a9-a3124905a656","ios":"levelo://app?vid=d4074802-7c83-42b1-95a9-a3124905a656"},"vehicle_type_id":"4","last_reported":1747285887,"current_range_meters":22800,"station_id":"","pricing_plan_id":"cebpf4jnsgd1na2vs0mg"},{"bike_id":"1def4d9e-ba54-4554-8279-72b57c0de750","system_id":"levelo_inurba_marseille","lat":43.337444,"lon":5.374475,"is_reserved":false,"is_disabled":false,"rental_uris":{"android":"levelo://app?vid=1def4d9e-ba54-4554-8279-72b57c0de750","ios":"levelo://app?vid=1def4d9e-ba54-4554-8279-72b57c0de750"},"vehicle_type_id":"4","last_reported":1747285887,"current_range_meters":22800,"station_id":"","pricing_plan_id":"cebpf4jnsgd1na2vs0mg"},{"bike_id":"dd2e9f0d-5529-4991-a879-c2b3f7b79d2d","system_id":"levelo_inurba_marseille","lat":43.30619,"lon":5.37246,"is_reserved":false,"is_disabled":false,"rental_uris":{"android":"levelo://app?vid=dd2e9f0d-5529-4991-a879-c2b3f7b79d2d","ios":"levelo://app?vid=dd2e9f0d-5529-4991-a879-c2b3f7b79d2d"},"vehicle_type_id":"4","last_reported":1747285887,"current_range_meters":22800,"station_id":"ce4bgqh2rcd13ifvqc4g","pricing_plan_id":"cebpf4jnsgd1na2vs0mg"},{"bike_id":"c761e619-f4d6-47f8-9a9d-65efa2724cfd","system_id":"levelo_inurba_marseille","lat":43.336109,"lon":5.410216,"is_reserved":false,"is_disabled":false,"rental_uris":{"android":"levelo://app?vid=c761e619-f4d6-47f8-9a9d-65efa2724cfd","ios":"levelo://app?vid=c761e619-f4d6-47f8-9a9d-65efa2724cfd"},"vehicle_type_id":"4","last_reported":1747285887,"current_range_meters":22800,"station_id":"ce4bhqh2rcd13ifvqhmg","pricing_plan_id":"cebpf4jnsgd1na2vs0mg"},{"bike_id":"0902ad8d-7763-45cb-b68b-36518dfa3e27","system_id":"levelo_inurba_marseille","lat":43.268058,"lon":5.402647,"is_reserved":false,"is_disabled":false,"rental_uris":{"android":"levelo://app?vid=0902ad8d-7763-45cb-b68b-36518dfa3e27","ios":"levelo://app?vid=0902ad8d-7763-45cb-b68b-36518dfa3e27"},"vehicle_type_id":"4","last_reported":1747285887,"current_range_meters":22800,"station_id":"ce501612rcd8frsf0b60","pricing_plan_id":"cebpf4jnsgd1na2vs0mg"},{"bike_id":"792c5adc-1940-40bf-adbb-38a349e7800d","system_id":"levelo_inurba_marseille","lat":43.3025,"lon":5.40054,"is_reserved":false,"is_disabled":false,"rental_uris":{"android":"levelo://app?vid=792c5adc-1940-40bf-adbb-38a349e7800d","ios":"levelo://app?vid=792c5adc-1940-40bf-adbb-38a349e7800d"},"vehicle_type_id":"4","last_reported":1747285887,"current_range_meters":23200,"station_id":"ce4bgvh2rcd13ifvqcs0","pricing_plan_id":"cebpf4jnsgd1na2vs0mg"},{"bike_id":"f6430995-f01e-49ed-8c40-2e7e119e7f11","system_id":"levelo_inurba_marseille","lat":43.281024,"lon":5.3783,"is_reserved":false,"is_disabled":false,"rental_uris":{"android":"levelo://app?vid=f6430995-f01e-49ed-8c40-2e7e119e7f11","ios":"levelo://app?vid=f6430995-f01e-49ed-8c40-2e7e119e7f11"},"vehicle_type_id":"4","last_reported":1747285887,"current_range_meters":23200,"station_id":"ce4bha12rcd13ifvqee0","pricing_plan_id":"cebpf4jnsgd1na2vs0mg"},{"bike_id":"fd565c39-1705-4d65-a2c6-ce03aa9ae93b","system_id":"levelo_inurba_marseille","lat":43.279379,"lon":5.410425,"is_reserved":false,"is_disabled":false,"rental_uris":{"android":"levelo://app?vid=fd565c39-1705-4d65-a2c6-ce03aa9ae93b","ios":"levelo://app?vid=fd565c39-1705-4d65-a2c6-ce03aa9ae93b"},"vehicle_type_id":"4","last_reported":1747285887,"current_range_meters":24000,"station_id":"ce4bhnp2rcd13ifvqh0g","pricing_plan_id":"cebpf4jnsgd1na2vs0mg"},{"bike_id":"acdf852d-d7b6-4844-90a2-81d10886de53","system_id":"levelo_inurba_marseille","lat":43.284355,"lon":5.391808,"is_reserved":false,"is_disabled":false,"rental_uris":{"android":"levelo://app?vid=acdf852d-d7b6-4844-90a2-81d10886de53","ios":"levelo://app?vid=acdf852d-d7b6-4844-90a2-81d10886de53"},"vehicle_type_id":"4","last_reported":1747285887,"current_range_meters":24000,"station_id":"ce4bhoh2rcd13ifvqh5g","pricing_plan_id":"cebpf4jnsgd1na2vs0mg"},{"bike_id":"1c078dc1-bc42-485e-9523-d190983c5164","system_id":"levelo_inurba_marseille","lat":43.30555,"lon":5.36562,"is_reserved":false,"is_disabled":false,"rental_uris":{"android":"levelo://app?vid=1c078dc1-bc42-485e-9523-d190983c5164","ios":"levelo://app?vid=1c078dc1-bc42-485e-9523-d190983c5164"},"vehicle_type_id":"4","last_reported":1747285887,"current_range_meters":24400,"station_id":"","pricing_plan_id":"cebpf4jnsgd1na2vs0mg"},{"bike_id":"fc63a34e-3f25-45be-9ea9-4e1866b7773e","system_id":"levelo_inurba_marseille","lat":43.31481,"lon":5.37302,"is_reserved":false,"is_disabled":false,"rental_uris":{"android":"levelo://app?vid=fc63a34e-3f25-45be-9ea9-4e1866b7773e","ios":"levelo://app?vid=fc63a34e-3f25-45be-9ea9-4e1866b7773e"},"vehicle_type_id":"4","last_reported":1747285887,"current_range_meters":24400,"station_id":"ce4bgt12rcd13ifvqcd0","pricing_plan_id":"cebpf4jnsgd1na2vs0mg"},{"bike_id":"91646141-3270-4b7b-ab50-46caee31c175","system_id":"levelo_inurba_marseille","lat":43.3046,"lon":5.3792,"is_reserved":false,"is_disabled":false,"rental_uris":{"android":"levelo://app?vid=91646141-3270-4b7b-ab50-46caee31c175","ios":"levelo://app?vid=91646141-3270-4b7b-ab50-46caee31c175"},"vehicle_type_id":"4","last_reported":1747285887,"current_range_meters":24400,"station_id":"ce4bgup2rcd13ifvqcn0","pricing_plan_id":"cebpf4jnsgd1na2vs0mg"},{"bike_id":"51830c35-93bf-46d6-adbc-0ceaedb79e31","system_id":"levelo_inurba_marseille","lat":43.31324,"lon":5.39739,"is_reserved":false,"is_disabled":false,"rental_uris":{"android":"levelo://app?vid=51830c35-93bf-46d6-adbc-0ceaedb79e31","ios":"levelo://app?vid=51830c35-93bf-46d6-adbc-0ceaedb79e31"},"vehicle_type_id":"4","last_reported":1747285887,"current_range_meters":24400,"station_id":"ce4bgvp2rcd13ifvqcu0","pricing_plan_id":"cebpf4jnsgd1na2vs0mg"},{"bike_id":"df471285-bee0-4be9-bb70-d211b5505d34","system_id":"levelo_inurba_marseille","lat":43.24663,"lon":5.38164,"is_reserved":false,"is_disabled":false,"rental_uris":{"android":"levelo://app?vid=df471285-bee0-4be9-bb70-d211b5505d34","ios":"levelo://app?vid=df471285-bee0-4be9-bb70-d211b5505d34"},"vehicle_type_id":"4","last_reported":1747285887,"current_range_meters":24400,"station_id":"ce4bhih2rcd13ifvqfr0","pricing_plan_id":"cebpf4jnsgd1na2vs0mg"},{"bike_id":"4efcb1ef-d360-4600-94fa-7a320cd62374","system_id":"levelo_inurba_marseille","lat":43.32105,"lon":5.36768,"is_reserved":false,"is_disabled":false,"rental_uris":{"android":"levelo://app?vid=4efcb1ef-d360-4600-94fa-7a320cd62374","ios":"levelo://app?vid=4efcb1ef-d360-4600-94fa-7a320cd62374"},"vehicle_type_id":"4","last_reported":1747285887,"current_range_meters":24400,"station_id":"ce4bhrh2rcd13ifvqhug","pricing_plan_id":"cebpf4jnsgd1na2vs0mg"},{"bike_id":"f36711b4-099b-49a7-8948-098ec1f047f8","system_id":"levelo_inurba_marseille","lat":43.229281,"lon":5.353806,"is_reserved":false,"is_disabled":false,"rental_uris":{"android":"levelo://app?vid=f36711b4-099b-49a7-8948-098ec1f047f8","ios":"levelo://app?vid=f36711b4-099b-49a7-8948-098ec1f047f8"},"vehicle_type_id":"4","last_reported":1747285887,"current_range_meters":24400,"station_id":"cpo3532slgdg3j2ikp40","pricing_plan_id":"cebpf4jnsgd1na2vs0mg"},{"bike_id":"02538a9d-5030-46fc-8c92-8dc6ef6c6e7a","system_id":"levelo_inurba_marseille","lat":43.28931,"lon":5.43166,"is_reserved":false,"is_disabled":false,"rental_uris":{"android":"levelo://app?vid=02538a9d-5030-46fc-8c92-8dc6ef6c6e7a","ios":"levelo://app?vid=02538a9d-5030-46fc-8c92-8dc6ef6c6e7a"},"vehicle_type_id":"4","last_reported":1747285887,"current_range_meters":24800,"station_id":"","pricing_plan_id":"cebpf4jnsgd1na2vs0mg"},{"bike_id":"ed5f9283-279a-44e6-adb6-716bbbca9144","system_id":"levelo_inurba_marseille","lat":43.3015,"lon":5.38089,"is_reserved":false,"is_disabled":false,"rental_uris":{"android":"levelo://app?vid=ed5f9283-279a-44e6-adb6-716bbbca9144","ios":"levelo://app?vid=ed5f9283-279a-44e6-adb6-716bbbca9144"},"vehicle_type_id":"4","last_reported":1747285887,"current_range_meters":24800,"station_id":"ce4bgjp2rcd13ifvqbh0","pricing_plan_id":"cebpf4jnsgd1na2vs0mg"},{"bike_id":"1a4320a0-2ac2-4455-9326-b90ea1e81f75","system_id":"levelo_inurba_marseille","lat":43.313533,"lon":5.367107,"is_reserved":false,"is_disabled":false,"rental_uris":{"android":"levelo://app?vid=1a4320a0-2ac2-4455-9326-b90ea1e81f75","ios":"levelo://app?vid=1a4320a0-2ac2-4455-9326-b90ea1e81f75"},"vehicle_type_id":"4","last_reported":1747285887,"current_range_meters":24800,"station_id":"ce4bgr92rcd13ifvqc6g","pricing_plan_id":"cebpf4jnsgd1na2vs0mg"},{"bike_id":"41c83537-e0fe-41b3-8e96-b638527f1465","system_id":"levelo_inurba_marseille","lat":43.29273,"lon":5.401221,"is_reserved":false,"is_disabled":false,"rental_uris":{"android":"levelo://app?vid=41c83537-e0fe-41b3-8e96-b638527f1465","ios":"levelo://app?vid=41c83537-e0fe-41b3-8e96-b638527f1465"},"vehicle_type_id":"4","last_reported":1747285887,"current_range_meters":24800,"station_id":"ce4bh312rcd13ifvqdk0","pricing_plan_id":"cebpf4jnsgd1na2vs0mg"},{"bike_id":"86eb85e1-cd6b-45d3-ad91-c67e05c578ea","system_id":"levelo_inurba_marseille","lat":43.27059,"lon":5.40279,"is_reserved":false,"is_disabled":false,"rental_uris":{"android":"levelo://app?vid=86eb85e1-cd6b-45d3-ad91-c67e05c578ea","ios":"levelo://app?vid=86eb85e1-cd6b-45d3-ad91-c67e05c578ea"},"vehicle_type_id":"4","last_reported":1747285887,"current_range_meters":24800,"station_id":"ce4bhk92rcd13ifvqgc0","pricing_plan_id":"cebpf4jnsgd1na2vs0mg"},{"bike_id":"5dbffff4-dbc4-4836-8712-43a5118ba8d8","system_id":"levelo_inurba_marseille","lat":43.241641,"lon":5.397257,"is_reserved":false,"is_disabled":false,"rental_uris":{"android":"levelo://app?vid=5dbffff4-dbc4-4836-8712-43a5118ba8d8","ios":"levelo://app?vid=5dbffff4-dbc4-4836-8712-43a5118ba8d8"},"vehicle_type_id":"4","last_reported":1747285887,"current_range_meters":24800,"station_id":"ce4bhn12rcd13ifvqgpg","pricing_plan_id":"cebpf4jnsgd1na2vs0mg"},{"bike_id":"062b89f9-7d20-4780-8ce6-10f4f3ff341e","system_id":"levelo_inurba_marseille","lat":43.28075,"lon":5.39658,"is_reserved":false,"is_disabled":false,"rental_uris":{"android":"levelo://app?vid=062b89f9-7d20-4780-8ce6-10f4f3ff341e","ios":"levelo://app?vid=062b89f9-7d20-4780-8ce6-10f4f3ff341e"},"vehicle_type_id":"4","last_reported":1747285887,"current_range_meters":24800,"station_id":"ce4bho12rcd13ifvqh2g","pricing_plan_id":"cebpf4jnsgd1na2vs0mg"},{"bike_id":"575bbd89-a34c-49ae-a1cd-a5775bd01b97","system_id":"levelo_inurba_marseille","lat":43.3153,"lon":5.38026,"is_reserved":false,"is_disabled":false,"rental_uris":{"android":"levelo://app?vid=575bbd89-a34c-49ae-a1cd-a5775bd01b97","ios":"levelo://app?vid=575bbd89-a34c-49ae-a1cd-a5775bd01b97"},"vehicle_type_id":"4","last_reported":1747285887,"current_range_meters":24800,"station_id":"ce4bhsp2rcd13ifvqi50","pricing_plan_id":"cebpf4jnsgd1na2vs0mg"},{"bike_id":"28039a70-ffa1-4c0a-8578-29200ad3e6a9","system_id":"levelo_inurba_marseille","lat":43.31065,"lon":5.38349,"is_reserved":false,"is_disabled":false,"rental_uris":{"android":"levelo://app?vid=28039a70-ffa1-4c0a-8578-29200ad3e6a9","ios":"levelo://app?vid=28039a70-ffa1-4c0a-8578-29200ad3e6a9"},"vehicle_type_id":"4","last_reported":1747285887,"current_range_meters":25200,"station_id":"ce4bgv92rcd13ifvqcr0","pricing_plan_id":"cebpf4jnsgd1na2vs0mg"},{"bike_id":"ad2fcb9e-86ce-4056-b557-8cc4248dac1a","system_id":"levelo_inurba_marseille","lat":43.30867,"lon":5.39666,"is_reserved":false,"is_disabled":false,"rental_uris":{"android":"levelo://app?vid=ad2fcb9e-86ce-4056-b557-8cc4248dac1a","ios":"levelo://app?vid=ad2fcb9e-86ce-4056-b557-8cc4248dac1a"},"vehicle_type_id":"4","last_reported":1747285887,"current_range_meters":25200,"station_id":"ce4bh012rcd13ifvqcv0","pricing_plan_id":"cebpf4jnsgd1na2vs0mg"},{"bike_id":"9a69c0f5-4dad-4743-a88e-1ce63336fa7a","system_id":"levelo_inurba_marseille","lat":43.29105,"lon":5.38159,"is_reserved":false,"is_disabled":false,"rental_uris":{"android":"levelo://app?vid=9a69c0f5-4dad-4743-a88e-1ce63336fa7a","ios":"levelo://app?vid=9a69c0f5-4dad-4743-a88e-1ce63336fa7a"},"vehicle_type_id":"4","last_reported":1747285887,"current_range_meters":25200,"station_id":"ce4bh512rcd13ifvqe2g","pricing_plan_id":"cebpf4jnsgd1na2vs0mg"},{"bike_id":"c796d025-41f5-4c26-90d0-7147857a1d1b","system_id":"levelo_inurba_marseille","lat":43.27549,"lon":5.38448,"is_reserved":false,"is_disabled":false,"rental_uris":{"android":"levelo://app?vid=c796d025-41f5-4c26-90d0-7147857a1d1b","ios":"levelo://app?vid=c796d025-41f5-4c26-90d0-7147857a1d1b"},"vehicle_type_id":"4","last_reported":1747285887,"current_range_meters":25200,"station_id":"ce4bhh92rcd13ifvqfi0","pricing_plan_id":"cebpf4jnsgd1na2vs0mg"},{"bike_id":"1455b7f8-b43b-4d8f-9b74-76748cdd1e89","system_id":"levelo_inurba_marseille","lat":43.22506,"lon":5.34786,"is_reserved":false,"is_disabled":false,"rental_uris":{"android":"levelo://app?vid=1455b7f8-b43b-4d8f-9b74-76748cdd1e89","ios":"levelo://app?vid=1455b7f8-b43b-4d8f-9b74-76748cdd1e89"},"vehicle_type_id":"4","last_reported":1747285887,"current_range_meters":25200,"station_id":"st_cvj5dfep6f1abm77gieg","pricing_plan_id":"cebpf4jnsgd1na2vs0mg"},{"bike_id":"a7a7983e-678e-4c66-9946-d797803ab237","system_id":"levelo_inurba_marseille","lat":43.28106,"lon":5.37852,"is_reserved":false,"is_disabled":false,"rental_uris":{"android":"levelo://app?vid=a7a7983e-678e-4c66-9946-d797803ab237","ios":"levelo://app?vid=a7a7983e-678e-4c66-9946-d797803ab237"},"vehicle_type_id":"4","last_reported":1747285887,"current_range_meters":25600,"station_id":"ce4bha12rcd13ifvqee0","pricing_plan_id":"cebpf4jnsgd1na2vs0mg"},{"bike_id":"2853c333-0b12-4dca-ae79-16698fec4c56","system_id":"levelo_inurba_marseille","lat":43.28141,"lon":5.42676,"is_reserved":false,"is_disabled":false,"rental_uris":{"android":"levelo://app?vid=2853c333-0b12-4dca-ae79-16698fec4c56","ios":"levelo://app?vid=2853c333-0b12-4dca-ae79-16698fec4c56"},"vehicle_type_id":"4","last_reported":1747285887,"current_range_meters":25600,"station_id":"ce4bhnh2rcd13ifvqgug","pricing_plan_id":"cebpf4jnsgd1na2vs0mg"},{"bike_id":"88a773ce-4517-43b4-a68a-c4d32f2c043e","system_id":"levelo_inurba_marseille","lat":43.29622,"lon":5.37726,"is_reserved":false,"is_disabled":false,"rental_uris":{"android":"levelo://app?vid=88a773ce-4517-43b4-a68a-c4d32f2c043e","ios":"levelo://app?vid=88a773ce-4517-43b4-a68a-c4d32f2c043e"},"vehicle_type_id":"4","last_reported":1747285887,"current_range_meters":26000,"station_id":"ce4bgi92rcd13ifvqb90","pricing_plan_id":"cebpf4jnsgd1na2vs0mg"},{"bike_id":"64532c66-18c6-4089-8d34-f3689b3cee8f","system_id":"levelo_inurba_marseille","lat":43.30613,"lon":5.37263,"is_reserved":false,"is_disabled":false,"rental_uris":{"android":"levelo://app?vid=64532c66-18c6-4089-8d34-f3689b3cee8f","ios":"levelo://app?vid=64532c66-18c6-4089-8d34-f3689b3cee8f"},"vehicle_type_id":"4","last_reported":1747285887,"current_range_meters":26000,"station_id":"ce4bgqh2rcd13ifvqc4g","pricing_plan_id":"cebpf4jnsgd1na2vs0mg"},{"bike_id":"875be4d8-af79-40cc-b888-e5067f7059e8","system_id":"levelo_inurba_marseille","lat":43.27317,"lon":5.39083,"is_reserved":false,"is_disabled":false,"rental_uris":{"android":"levelo://app?vid=875be4d8-af79-40cc-b888-e5067f7059e8","ios":"levelo://app?vid=875be4d8-af79-40cc-b888-e5067f7059e8"},"vehicle_type_id":"4","last_reported":1747285887,"current_range_meters":26000,"station_id":"ce4bhgp2rcd13ifvqfe0","pricing_plan_id":"cebpf4jnsgd1na2vs0mg"},{"bike_id":"f2099e1d-3eb2-47f7-8eae-19a82bc2aced","system_id":"levelo_inurba_marseille","lat":43.30536,"lon":5.38438,"is_reserved":false,"is_disabled":false,"rental_uris":{"android":"levelo://app?vid=f2099e1d-3eb2-47f7-8eae-19a82bc2aced","ios":"levelo://app?vid=f2099e1d-3eb2-47f7-8eae-19a82bc2aced"},"vehicle_type_id":"4","last_reported":1747285887,"current_range_meters":26800,"station_id":"ce4bgg92rcd13ifvqb30","pricing_plan_id":"cebpf4jnsgd1na2vs0mg"},{"bike_id":"cddaac7a-1d16-4978-b7d2-e32719f93735","system_id":"levelo_inurba_marseille","lat":43.301414,"lon":5.380832,"is_reserved":false,"is_disabled":false,"rental_uris":{"android":"levelo://app?vid=cddaac7a-1d16-4978-b7d2-e32719f93735","ios":"levelo://app?vid=cddaac7a-1d16-4978-b7d2-e32719f93735"},"vehicle_type_id":"4","last_reported":1747285887,"current_range_meters":26800,"station_id":"ce4bgjp2rcd13ifvqbh0","pricing_plan_id":"cebpf4jnsgd1na2vs0mg"},{"bike_id":"77d99d4e-6673-4a2a-bf8e-322360770264","system_id":"levelo_inurba_marseille","lat":43.313241,"lon":5.396998,"is_reserved":false,"is_disabled":false,"rental_uris":{"android":"levelo://app?vid=77d99d4e-6673-4a2a-bf8e-322360770264","ios":"levelo://app?vid=77d99d4e-6673-4a2a-bf8e-322360770264"},"vehicle_type_id":"4","last_reported":1747285887,"current_range_meters":26800,"station_id":"ce4bgvp2rcd13ifvqcu0","pricing_plan_id":"cebpf4jnsgd1na2vs0mg"},{"bike_id":"56291f5e-1228-4ebe-aaf2-22edf5e99c24","system_id":"levelo_inurba_marseille","lat":43.30881,"lon":5.39646,"is_reserved":false,"is_disabled":false,"rental_uris":{"android":"levelo://app?vid=56291f5e-1228-4ebe-aaf2-22edf5e99c24","ios":"levelo://app?vid=56291f5e-1228-4ebe-aaf2-22edf5e99c24"},"vehicle_type_id":"4","last_reported":1747285887,"current_range_meters":26800,"station_id":"ce4bh012rcd13ifvqcv0","pricing_plan_id":"cebpf4jnsgd1na2vs0mg"},{"bike_id":"5699e78a-6cd4-4b06-b941-7c9df7f7fde1","system_id":"levelo_inurba_marseille","lat":43.29027,"lon":5.39974,"is_reserved":false,"is_disabled":false,"rental_uris":{"android":"levelo://app?vid=5699e78a-6cd4-4b06-b941-7c9df7f7fde1","ios":"levelo://app?vid=5699e78a-6cd4-4b06-b941-7c9df7f7fde1"},"vehicle_type_id":"4","last_reported":1747285887,"current_range_meters":26800,"station_id":"ce4bh392rcd13ifvqdm0","pricing_plan_id":"cebpf4jnsgd1na2vs0mg"},{"bike_id":"64324e4e-f361-49e4-8377-9b8902f116d2","system_id":"levelo_inurba_marseille","lat":43.28478,"lon":5.38432,"is_reserved":false,"is_disabled":false,"rental_uris":{"android":"levelo://app?vid=64324e4e-f361-49e4-8377-9b8902f116d2","ios":"levelo://app?vid=64324e4e-f361-49e4-8377-9b8902f116d2"},"vehicle_type_id":"4","last_reported":1747285887,"current_range_meters":26800,"station_id":"ce4bh512rcd13ifvqe3g","pricing_plan_id":"cebpf4jnsgd1na2vs0mg"},{"bike_id":"1a92416b-be52-4c5b-84e7-193d528293ec","system_id":"levelo_inurba_marseille","lat":43.27184,"lon":5.40983,"is_reserved":false,"is_disabled":false,"rental_uris":{"android":"levelo://app?vid=1a92416b-be52-4c5b-84e7-193d528293ec","ios":"levelo://app?vid=1a92416b-be52-4c5b-84e7-193d528293ec"},"vehicle_type_id":"4","last_reported":1747285887,"current_range_meters":26800,"station_id":"ce4bhl12rcd13ifvqgf0","pricing_plan_id":"cebpf4jnsgd1na2vs0mg"},{"bike_id":"f2f30ab0-7204-445c-a1bd-8f7c438ff198","system_id":"levelo_inurba_marseille","lat":43.317109,"lon":5.437079,"is_reserved":false,"is_disabled":false,"rental_uris":{"android":"levelo://app?vid=f2f30ab0-7204-445c-a1bd-8f7c438ff198","ios":"levelo://app?vid=f2f30ab0-7204-445c-a1bd-8f7c438ff198"},"vehicle_type_id":"4","last_reported":1747285887,"current_range_meters":26800,"station_id":"ce4bhp92rcd13ifvqhcg","pricing_plan_id":"cebpf4jnsgd1na2vs0mg"},{"bike_id":"243334f4-bc64-414f-8b43-a4934e2c05ef","system_id":"levelo_inurba_marseille","lat":43.30719,"lon":5.42441,"is_reserved":false,"is_disabled":false,"rental_uris":{"android":"levelo://app?vid=243334f4-bc64-414f-8b43-a4934e2c05ef","ios":"levelo://app?vid=243334f4-bc64-414f-8b43-a4934e2c05ef"},"vehicle_type_id":"4","last_reported":1747285887,"current_range_meters":26800,"station_id":"st_cvj6ca6bvosntc0bfgr0","pricing_plan_id":"cebpf4jnsgd1na2vs0mg"},{"bike_id":"c784ff1b-fba3-4e09-b700-243dde2c6dfb","system_id":"levelo_inurba_marseille","lat":43.211901,"lon":5.350758,"is_reserved":false,"is_disabled":false,"rental_uris":{"android":"levelo://app?vid=c784ff1b-fba3-4e09-b700-243dde2c6dfb","ios":"levelo://app?vid=c784ff1b-fba3-4e09-b700-243dde2c6dfb"},"vehicle_type_id":"4","last_reported":1747285887,"current_range_meters":26800,"station_id":"st_cvj6sg6p6f1abm77japg","pricing_plan_id":"cebpf4jnsgd1na2vs0mg"},{"bike_id":"a0f22245-66e5-4830-81f6-1e2e5ffe93a8","system_id":"levelo_inurba_marseille","lat":43.30148,"lon":5.38089,"is_reserved":false,"is_disabled":false,"rental_uris":{"android":"levelo://app?vid=a0f22245-66e5-4830-81f6-1e2e5ffe93a8","ios":"levelo://app?vid=a0f22245-66e5-4830-81f6-1e2e5ffe93a8"},"vehicle_type_id":"4","last_reported":1747285887,"current_range_meters":27200,"station_id":"ce4bgjp2rcd13ifvqbh0","pricing_plan_id":"cebpf4jnsgd1na2vs0mg"},{"bike_id":"c5f8fb12-d77c-4113-999e-ebdba5fc6ff3","system_id":"levelo_inurba_marseille","lat":43.304441,"lon":5.388781,"is_reserved":false,"is_disabled":false,"rental_uris":{"android":"levelo://app?vid=c5f8fb12-d77c-4113-999e-ebdba5fc6ff3","ios":"levelo://app?vid=c5f8fb12-d77c-4113-999e-ebdba5fc6ff3"},"vehicle_type_id":"4","last_reported":1747285887,"current_range_meters":27200,"station_id":"ce4bgk12rcd13ifvqbi0","pricing_plan_id":"cebpf4jnsgd1na2vs0mg"},{"bike_id":"6b47b76f-09d1-49cc-9a18-229df091b9b7","system_id":"levelo_inurba_marseille","lat":43.314869,"lon":5.373007,"is_reserved":false,"is_disabled":false,"rental_uris":{"android":"levelo://app?vid=6b47b76f-09d1-49cc-9a18-229df091b9b7","ios":"levelo://app?vid=6b47b76f-09d1-49cc-9a18-229df091b9b7"},"vehicle_type_id":"4","last_reported":1747285887,"current_range_meters":27200,"station_id":"ce4bgt12rcd13ifvqcd0","pricing_plan_id":"cebpf4jnsgd1na2vs0mg"},{"bike_id":"bc711c72-99d6-4caf-ad0c-38febf9318fb","system_id":"levelo_inurba_marseille","lat":43.30923,"lon":5.40166,"is_reserved":false,"is_disabled":false,"rental_uris":{"android":"levelo://app?vid=bc711c72-99d6-4caf-ad0c-38febf9318fb","ios":"levelo://app?vid=bc711c72-99d6-4caf-ad0c-38febf9318fb"},"vehicle_type_id":"4","last_reported":1747285887,"current_range_meters":27200,"station_id":"ce4bgvp2rcd13ifvqct0","pricing_plan_id":"cebpf4jnsgd1na2vs0mg"},{"bike_id":"339644af-7dfe-4563-9a50-d3876dcef83e","system_id":"levelo_inurba_marseille","lat":43.28488,"lon":5.38421,"is_reserved":false,"is_disabled":false,"rental_uris":{"android":"levelo://app?vid=339644af-7dfe-4563-9a50-d3876dcef83e","ios":"levelo://app?vid=339644af-7dfe-4563-9a50-d3876dcef83e"},"vehicle_type_id":"4","last_reported":1747285887,"current_range_meters":27200,"station_id":"ce4bh512rcd13ifvqe3g","pricing_plan_id":"cebpf4jnsgd1na2vs0mg"},{"bike_id":"a0e17e28-9c38-4ef5-b536-1242e4d5cb9a","system_id":"levelo_inurba_marseille","lat":43.25887,"lon":5.39955,"is_reserved":false,"is_disabled":false,"rental_uris":{"android":"levelo://app?vid=a0e17e28-9c38-4ef5-b536-1242e4d5cb9a","ios":"levelo://app?vid=a0e17e28-9c38-4ef5-b536-1242e4d5cb9a"},"vehicle_type_id":"4","last_reported":1747285887,"current_range_meters":27200,"station_id":"ce4bhl92rcd13ifvqghg","pricing_plan_id":"cebpf4jnsgd1na2vs0mg"},{"bike_id":"880af467-8d8c-4cfe-95db-00b4968e1cca","system_id":"levelo_inurba_marseille","lat":43.28074,"lon":5.39637,"is_reserved":false,"is_disabled":false,"rental_uris":{"android":"levelo://app?vid=880af467-8d8c-4cfe-95db-00b4968e1cca","ios":"levelo://app?vid=880af467-8d8c-4cfe-95db-00b4968e1cca"},"vehicle_type_id":"4","last_reported":1747285887,"current_range_meters":27200,"station_id":"ce4bho12rcd13ifvqh2g","pricing_plan_id":"cebpf4jnsgd1na2vs0mg"},{"bike_id":"8a94493b-0445-4e39-99bb-ecc4196cd3c6","system_id":"levelo_inurba_marseille","lat":43.32282,"lon":5.38271,"is_reserved":false,"is_disabled":false,"rental_uris":{"android":"levelo://app?vid=8a94493b-0445-4e39-99bb-ecc4196cd3c6","ios":"levelo://app?vid=8a94493b-0445-4e39-99bb-ecc4196cd3c6"},"vehicle_type_id":"4","last_reported":1747285887,"current_range_meters":27200,"station_id":"ce4bhr12rcd13ifvqhqg","pricing_plan_id":"cebpf4jnsgd1na2vs0mg"},{"bike_id":"151ef9b4-17a6-4738-a426-91e7147ca337","system_id":"levelo_inurba_marseille","lat":43.31199,"lon":5.40792,"is_reserved":false,"is_disabled":false,"rental_uris":{"android":"levelo://app?vid=151ef9b4-17a6-4738-a426-91e7147ca337","ios":"levelo://app?vid=151ef9b4-17a6-4738-a426-91e7147ca337"},"vehicle_type_id":"4","last_reported":1747285887,"current_range_meters":27600,"station_id":"","pricing_plan_id":"cebpf4jnsgd1na2vs0mg"},{"bike_id":"ec0376e8-0d63-4857-8253-ca7a8253b373","system_id":"levelo_inurba_marseille","lat":43.310713,"lon":5.383605,"is_reserved":false,"is_disabled":false,"rental_uris":{"android":"levelo://app?vid=ec0376e8-0d63-4857-8253-ca7a8253b373","ios":"levelo://app?vid=ec0376e8-0d63-4857-8253-ca7a8253b373"},"vehicle_type_id":"4","last_reported":1747285887,"current_range_meters":27600,"station_id":"ce4bgv92rcd13ifvqcr0","pricing_plan_id":"cebpf4jnsgd1na2vs0mg"},{"bike_id":"4701315d-2a1e-4c5c-905a-1a7c1bc04d1c","system_id":"levelo_inurba_marseille","lat":43.30929,"lon":5.40165,"is_reserved":false,"is_disabled":false,"rental_uris":{"android":"levelo://app?vid=4701315d-2a1e-4c5c-905a-1a7c1bc04d1c","ios":"levelo://app?vid=4701315d-2a1e-4c5c-905a-1a7c1bc04d1c"},"vehicle_type_id":"4","last_reported":1747285887,"current_range_meters":27600,"station_id":"ce4bgvp2rcd13ifvqct0","pricing_plan_id":"cebpf4jnsgd1na2vs0mg"},{"bike_id":"010cbec8-f6bc-415e-b1cd-f9a41799dabb","system_id":"levelo_inurba_marseille","lat":43.30881,"lon":5.39638,"is_reserved":false,"is_disabled":false,"rental_uris":{"android":"levelo://app?vid=010cbec8-f6bc-415e-b1cd-f9a41799dabb","ios":"levelo://app?vid=010cbec8-f6bc-415e-b1cd-f9a41799dabb"},"vehicle_type_id":"4","last_reported":1747285887,"current_range_meters":27600,"station_id":"ce4bh012rcd13ifvqcv0","pricing_plan_id":"cebpf4jnsgd1na2vs0mg"},{"bike_id":"632e3e28-7e01-489f-9ca4-98f8d935c2b8","system_id":"levelo_inurba_marseille","lat":43.27082,"lon":5.40287,"is_reserved":false,"is_disabled":false,"rental_uris":{"android":"levelo://app?vid=632e3e28-7e01-489f-9ca4-98f8d935c2b8","ios":"levelo://app?vid=632e3e28-7e01-489f-9ca4-98f8d935c2b8"},"vehicle_type_id":"4","last_reported":1747285887,"current_range_meters":27600,"station_id":"ce4bhk92rcd13ifvqgc0","pricing_plan_id":"cebpf4jnsgd1na2vs0mg"},{"bike_id":"445c4a58-121a-44f5-8aed-09a14894f43c","system_id":"levelo_inurba_marseille","lat":43.268062,"lon":5.40257,"is_reserved":false,"is_disabled":false,"rental_uris":{"android":"levelo://app?vid=445c4a58-121a-44f5-8aed-09a14894f43c","ios":"levelo://app?vid=445c4a58-121a-44f5-8aed-09a14894f43c"},"vehicle_type_id":"4","last_reported":1747285887,"current_range_meters":27600,"station_id":"ce501612rcd8frsf0b60","pricing_plan_id":"cebpf4jnsgd1na2vs0mg"},{"bike_id":"dbad629c-e366-4cf5-b0c5-3d9c872c5fc8","system_id":"levelo_inurba_marseille","lat":43.310738,"lon":5.439486,"is_reserved":false,"is_disabled":false,"rental_uris":{"android":"levelo://app?vid=dbad629c-e366-4cf5-b0c5-3d9c872c5fc8","ios":"levelo://app?vid=dbad629c-e366-4cf5-b0c5-3d9c872c5fc8"},"vehicle_type_id":"4","last_reported":1747285887,"current_range_meters":28000,"station_id":"","pricing_plan_id":"cebpf4jnsgd1na2vs0mg"},{"bike_id":"fb556f03-e2bf-437f-ba58-e17c9dff476e","system_id":"levelo_inurba_marseille","lat":43.309315,"lon":5.401412,"is_reserved":false,"is_disabled":false,"rental_uris":{"android":"levelo://app?vid=fb556f03-e2bf-437f-ba58-e17c9dff476e","ios":"levelo://app?vid=fb556f03-e2bf-437f-ba58-e17c9dff476e"},"vehicle_type_id":"4","last_reported":1747285887,"current_range_meters":28000,"station_id":"ce4bgvp2rcd13ifvqct0","pricing_plan_id":"cebpf4jnsgd1na2vs0mg"},{"bike_id":"461d8455-e450-4a31-befd-c832957ccf2f","system_id":"levelo_inurba_marseille","lat":43.309266,"lon":5.401426,"is_reserved":false,"is_disabled":false,"rental_uris":{"android":"levelo://app?vid=461d8455-e450-4a31-befd-c832957ccf2f","ios":"levelo://app?vid=461d8455-e450-4a31-befd-c832957ccf2f"},"vehicle_type_id":"4","last_reported":1747285887,"current_range_meters":28000,"station_id":"ce4bgvp2rcd13ifvqct0","pricing_plan_id":"cebpf4jnsgd1na2vs0mg"},{"bike_id":"2cbcc516-49a7-4cb0-95fc-0b12519b958f","system_id":"levelo_inurba_marseille","lat":43.27174,"lon":5.40992,"is_reserved":false,"is_disabled":false,"rental_uris":{"android":"levelo://app?vid=2cbcc516-49a7-4cb0-95fc-0b12519b958f","ios":"levelo://app?vid=2cbcc516-49a7-4cb0-95fc-0b12519b958f"},"vehicle_type_id":"4","last_reported":1747285887,"current_range_meters":28000,"station_id":"ce4bhl12rcd13ifvqgf0","pricing_plan_id":"cebpf4jnsgd1na2vs0mg"},{"bike_id":"7687b0c9-682f-4828-8ca3-49d80995b64e","system_id":"levelo_inurba_marseille","lat":43.30727,"lon":5.3717,"is_reserved":false,"is_disabled":false,"rental_uris":{"android":"levelo://app?vid=7687b0c9-682f-4828-8ca3-49d80995b64e","ios":"levelo://app?vid=7687b0c9-682f-4828-8ca3-49d80995b64e"},"vehicle_type_id":"4","last_reported":1747285887,"current_range_meters":28400,"station_id":"","pricing_plan_id":"cebpf4jnsgd1na2vs0mg"},{"bike_id":"e1d8891d-8a18-42d7-844e-3d6aa21e7e90","system_id":"levelo_inurba_marseille","lat":43.25319,"lon":5.42379,"is_reserved":false,"is_disabled":false,"rental_uris":{"android":"levelo://app?vid=e1d8891d-8a18-42d7-844e-3d6aa21e7e90","ios":"levelo://app?vid=e1d8891d-8a18-42d7-844e-3d6aa21e7e90"},"vehicle_type_id":"4","last_reported":1747285887,"current_range_meters":28400,"station_id":"","pricing_plan_id":"cebpf4jnsgd1na2vs0mg"},{"bike_id":"274fe8e2-d546-4b0e-b395-ef71a6a66b1e","system_id":"levelo_inurba_marseille","lat":43.28003,"lon":5.36909,"is_reserved":false,"is_disabled":false,"rental_uris":{"android":"levelo://app?vid=274fe8e2-d546-4b0e-b395-ef71a6a66b1e","ios":"levelo://app?vid=274fe8e2-d546-4b0e-b395-ef71a6a66b1e"},"vehicle_type_id":"4","last_reported":1747285887,"current_range_meters":28400,"station_id":"ce4bha12rcd13ifvqef0","pricing_plan_id":"cebpf4jnsgd1na2vs0mg"},{"bike_id":"448985ea-f91a-46e1-a4c7-bae16b51d97a","system_id":"levelo_inurba_marseille","lat":43.243895,"lon":5.370533,"is_reserved":false,"is_disabled":false,"rental_uris":{"android":"levelo://app?vid=448985ea-f91a-46e1-a4c7-bae16b51d97a","ios":"levelo://app?vid=448985ea-f91a-46e1-a4c7-bae16b51d97a"},"vehicle_type_id":"4","last_reported":1747285887,"current_range_meters":28400,"station_id":"ce4bhhh2rcd13ifvqfk0","pricing_plan_id":"cebpf4jnsgd1na2vs0mg"},{"bike_id":"441d5ea4-a429-4237-a118-89438b56ddf2","system_id":"levelo_inurba_marseille","lat":43.27062,"lon":5.40271,"is_reserved":false,"is_disabled":false,"rental_uris":{"android":"levelo://app?vid=441d5ea4-a429-4237-a118-89438b56ddf2","ios":"levelo://app?vid=441d5ea4-a429-4237-a118-89438b56ddf2"},"vehicle_type_id":"4","last_reported":1747285887,"current_range_meters":28400,"station_id":"ce4bhk92rcd13ifvqgc0","pricing_plan_id":"cebpf4jnsgd1na2vs0mg"},{"bike_id":"7ee2728b-7cac-4b7c-b1c8-f4b214522876","system_id":"levelo_inurba_marseille","lat":43.270568,"lon":5.402678,"is_reserved":false,"is_disabled":false,"rental_uris":{"android":"levelo://app?vid=7ee2728b-7cac-4b7c-b1c8-f4b214522876","ios":"levelo://app?vid=7ee2728b-7cac-4b7c-b1c8-f4b214522876"},"vehicle_type_id":"4","last_reported":1747285887,"current_range_meters":28400,"station_id":"ce4bhk92rcd13ifvqgc0","pricing_plan_id":"cebpf4jnsgd1na2vs0mg"},{"bike_id":"f703df42-c8a9-4c12-9a5e-0d20e4901701","system_id":"levelo_inurba_marseille","lat":43.32461,"lon":5.36563,"is_reserved":false,"is_disabled":false,"rental_uris":{"android":"levelo://app?vid=f703df42-c8a9-4c12-9a5e-0d20e4901701","ios":"levelo://app?vid=f703df42-c8a9-4c12-9a5e-0d20e4901701"},"vehicle_type_id":"4","last_reported":1747285887,"current_range_meters":28400,"station_id":"ce4bhs12rcd13ifvqhvg","pricing_plan_id":"cebpf4jnsgd1na2vs0mg"},{"bike_id":"4bf8649e-bb4c-40c5-b649-27e8d3e8d0f0","system_id":"levelo_inurba_marseille","lat":43.30911,"lon":5.40162,"is_reserved":false,"is_disabled":false,"rental_uris":{"android":"levelo://app?vid=4bf8649e-bb4c-40c5-b649-27e8d3e8d0f0","ios":"levelo://app?vid=4bf8649e-bb4c-40c5-b649-27e8d3e8d0f0"},"vehicle_type_id":"4","last_reported":1747285887,"current_range_meters":28800,"station_id":"ce4bgvp2rcd13ifvqct0","pricing_plan_id":"cebpf4jnsgd1na2vs0mg"},{"bike_id":"09c064ca-e75f-47b9-87d7-1441ce622580","system_id":"levelo_inurba_marseille","lat":43.306364,"lon":5.400781,"is_reserved":false,"is_disabled":false,"rental_uris":{"android":"levelo://app?vid=09c064ca-e75f-47b9-87d7-1441ce622580","ios":"levelo://app?vid=09c064ca-e75f-47b9-87d7-1441ce622580"},