{"last_updated":1687475293,"ttl":30,"version":"2.2","data":{"bikes":[{"bike_id":"5dc666bf-f148-4c4d-ae39-69fe1328a441","system_id":"levelo_inurba_marseille","lat":43.31341,"lon":5.367098,"is_reserved":false,"is_disabled":false,"rental_uris":{"android":"levelo://app?vid=5dc666bf-f148-4c4d-ae39-69fe1328a441","ios":"levelo://app?vid=5dc666bf-f148-4c4d-ae39-69fe1328a441"},"vehicle_type_id":"4","last_reported":1687475293,"current_range_meters":30000,"station_id":"ce4bgr92rcd13ifvqc6g","pricing_plan_id":"free"},{"bike_id":"464982d1-4c96-4ed2-b193-2eeee0b16880","system_id":"levelo_inurba_marseille","lat":43.31341,"lon":5.367098,"is_reserved":false,"is_disabled":false,"rental_uris":{"android":"levelo://app?vid=464982d1-4c96-4ed2-b193-2eeee0b16880","ios":"levelo://app?vid=464982d1-4c96-4ed2-b193-2eeee0b16880"},"vehicle_type_id":"4","last_reported":1687475293,"current_range_meters":0,"station_id":"ce4bgr92rcd13ifvqc6g","pricing_plan_id":"free"},{"bike_id":"e174d5f0-b6c8-4dda-a820-d2e61e69de13","system_id":"levelo_inurba_marseille","lat":43.31341,"lon":5.367098,"is_reserved":false,"is_disabled":false,"rental_uris":{"android":"levelo://app?vid=e174d5f0-b6c8-4dda-a820-d2e61e69de13","ios":"levelo://app?vid=e174d5f0-b6c8-4dda-a820-d2e61e69de13"},"vehicle_type_id":"4","last_reported":1687475293,"current_range_meters":31200,"station_id":"ce4bgr92rcd13ifvqc6g","pricing_plan_id":"free"},{"bike_id":"561dae15-b950-41f4-8280-62512ee198df","system_id":"levelo_inurba_marseille","lat":43.313391,"lon":5.36706,"is_reserved":false,"is_disabled":false,"rental_uris":{"android":"levelo://app?vid=561dae15-b950-41f4-8280-62512ee198df","ios":"levelo://app?vid=561dae15-b950-41f4-8280-62512ee198df"},"vehicle_type_id":"4","last_reported":1687475293,"current_range_meters":0,"station_id":"ce4bgr92rcd13ifvqc6g","pricing_plan_id":"free"},{"bike_id":"0550341a-124c-4d98-bbe2-ecab3fc28f99","system_id":"levelo_inurba_marseille","lat":43.313391,"lon":5.36706,"is_reserved":false,"is_disabled":false,"rental_uris":{"android":"levelo://app?vid=0550341a-124c-4d98-bbe2-ecab3fc28f99","ios":"levelo://app?vid=0550341a-124c-4d98-bbe2-ecab3fc28f99"},"vehicle_type_id":"4","last_reported":1687475293,"current_range_meters":32000,"station_id":"ce4bgr92rcd13ifvqc6g","pricing_plan_id":"free"},{"bike_id":"15c62054-955a-4820-982e-5c2322ea45bf","system_id":"levelo_inurba_marseille","lat":43.313391,"lon":5.36706,"is_reserved":false,"is_disabled":false,"rental_uris":{"android":"levelo://app?vid=15c62054-955a-4820-982e-5c2322ea45bf","ios":"levelo://app?vid=15c62054-955a-4820-982e-5c2322ea45bf"},"vehicle_type_id":"4","last_reported":1687475293,"current_range_meters":29600,"station_id":"ce4bgr92rcd13ifvqc6g","pricing_plan_id":"free"},{"bike_id":"d4332dc1-ca7f-47c1-8251-6fc28249a3b4","system_id":"levelo_inurba_marseille","lat":43.313391,"lon":5.36706,"is_reserved":false,"is_disabled":false,"rental_uris":{"android":"levelo://app?vid=d4332dc1-ca7f-47c1-8251-6fc28249a3b4","ios":"levelo://app?vid=d4332dc1-ca7f-47c1-8251-6fc28249a3b4"},"vehicle_type_id":"4","last_reported":1687475293,"current_range_meters":32000,"station_id":"ce4bgr92rcd13ifvqc6g","pricing_plan_id":"free"},{"bike_id":"442277db-a1b1-404f-99ca-4e553a79746d","system_id":"levelo_inurba_marseille","lat":43.31341,"lon":5.367098,"is_reserved":false,"is_disabled":false,"rental_uris":{"android":"levelo://app?vid=442277db-a1b1-404f-99ca-4e553a79746d","ios":"levelo://app?vid=442277db-a1b1-404f-99ca-4e553a79746d"},"vehicle_type_id":"4","last_reported":1687475293,"current_range_meters":31200,"station_id":"ce4bgr92rcd13ifvqc6g","pricing_plan_id":"free"},{"bike_id":"6af3ddd3-abe5-4014-930d-8bc2eb738f55","system_id":"levelo_inurba_marseille","lat":43.31341,"lon":5.367098,"is_reserved":false,"is_disabled":false,"rental_uris":{"android":"levelo://app?vid=6af3ddd3-abe5-4014-930d-8bc2eb738f55","ios":"levelo://app?vid=6af3ddd3-abe5-4014-930d-8bc2eb738f55"},"vehicle_type_id":"4","last_reported":1687475293,"current_range_meters":31200,"station_id":"ce4bgr92rcd13ifvqc6g","pricing_plan_id":"free"},{"bike_id":"4953f328-3844-4770-9687-adbaf569325c","system_id":"levelo_inurba_marseille","lat":43.31341,"lon":5.367098,"is_reserved":false,"is_disabled":false,"rental_uris":{"android":"levelo://app?vid=4953f328-3844-4770-9687-adbaf569325c","ios":"levelo://app?vid=4953f328-3844-4770-9687-adbaf569325c"},"vehicle_type_id":"4","last_reported":1687475293,"current_range_meters":31600,"station_id":"ce4bgr92rcd13ifvqc6g","pricing_plan_id":"free"},{"bike_id":"59b3de83-71c2-4e5b-8049-67e7ba32c62e","system_id":"levelo_inurba_marseille","lat":43.313391,"lon":5.36706,"is_reserved":false,"is_disabled":false,"rental_uris":{"android":"levelo://app?vid=59b3de83-71c2-4e5b-8049-67e7ba32c62e","ios":"levelo://app?vid=59b3de83-71c2-4e5b-8049-67e7ba32c62e"},"vehicle_type_id":"4","last_reported":1687475293,"current_range_meters":3600,"station_id":"ce4bgr92rcd13ifvqc6g","pricing_plan_id":"free"},{"bike_id":"6077385d-d5e9-40fb-b969-818a094a8c18","system_id":"levelo_inurba_marseille","lat":43.312239,"lon":5.368562,"is_reserved":false,"is_disabled":false,"rental_uris":{"android":"levelo://app?vid=6077385d-d5e9-40fb-b969-818a094a8c18","ios":"levelo://app?vid=6077385d-d5e9-40fb-b969-818a094a8c18"},"vehicle_type_id":"4","last_reported":1687475293,"current_range_meters":31600,"station_id":"ce4bgl92rcd13ifvqbq0","pricing_plan_id":"free"},{"bike_id":"65794a25-aa90-4211-93fb-0256f01e5e29","system_id":"levelo_inurba_marseille","lat":43.314811,"lon":5.373103,"is_reserved":false,"is_disabled":false,"rental_uris":{"android":"levelo://app?vid=65794a25-aa90-4211-93fb-0256f01e5e29","ios":"levelo://app?vid=65794a25-aa90-4211-93fb-0256f01e5e29"},"vehicle_type_id":"4","last_reported":1687475293,"current_range_meters":12000,"station_id":"ce4bgt12rcd13ifvqcd0","pricing_plan_id":"free"},{"bike_id":"4c49f83e-daca-406f-9ead-989fcd7d8d23","system_id":"levelo_inurba_marseille","lat":43.314811,"lon":5.373103,"is_reserved":false,"is_disabled":false,"rental_uris":{"android":"levelo://app?vid=4c49f83e-daca-406f-9ead-989fcd7d8d23","ios":"levelo://app?vid=4c49f83e-daca-406f-9ead-989fcd7d8d23"},"vehicle_type_id":"4","last_reported":1687475293,"current_range_meters":30000,"station_id":"ce4bgt12rcd13ifvqcd0","pricing_plan_id":"free"},{"bike_id":"562849a2-3a1d-4231-8ef3-2b11b4ab8202","system_id":"levelo_inurba_marseille","lat":43.314811,"lon":5.373104,"is_reserved":false,"is_disabled":false,"rental_uris":{"android":"levelo://app?vid=562849a2-3a1d-4231-8ef3-2b11b4ab8202","ios":"levelo://app?vid=562849a2-3a1d-4231-8ef3-2b11b4ab8202"},"vehicle_type_id":"4","last_reported":1687475293,"current_range_meters":24000,"station_id":"ce4bgt12rcd13ifvqcd0","pricing_plan_id":"free"},{"bike_id":"bf5e2e61-6eb6-4b20-af42-e284a7be0669","system_id":"levelo_inurba_marseille","lat":43.314811,"lon":5.373103,"is_reserved":false,"is_disabled":false,"rental_uris":{"android":"levelo://app?vid=bf5e2e61-6eb6-4b20-af42-e284a7be0669","ios":"levelo://app?vid=bf5e2e61-6eb6-4b20-af42-e284a7be0669"},"vehicle_type_id":"4","last_reported":1687475293,"current_range_meters":21600,"station_id":"ce4bgt12rcd13ifvqcd0","pricing_plan_id":"free"},{"bike_id":"1031ff69-939d-4e07-bcd5-7ad6809c69ec","system_id":"levelo_inurba_marseille","lat":43.314811,"lon":5.373103,"is_reserved":false,"is_disabled":false,"rental_uris":{"android":"levelo://app?vid=1031ff69-939d-4e07-bcd5-7ad6809c69ec","ios":"levelo://app?vid=1031ff69-939d-4e07-bcd5-7ad6809c69ec"},"vehicle_type_id":"4","last_reported":1687475293,"current_range_meters":28000,"station_id":"ce4bgt12rcd13ifvqcd0","pricing_plan_id":"free"},{"bike_id":"96895d04-17a6-4556-95a9-baa83c8b4d10","system_id":"levelo_inurba_marseille","lat":43.308606,"lon":5.372099,"is_reserved":false,"is_disabled":false,"rental_uris":{"android":"levelo://app?vid=96895d04-17a6-4556-95a9-baa83c8b4d10","ios":"levelo://app?vid=96895d04-17a6-4556-95a9-baa83c8b4d10"},"vehicle_type_id":"4","last_reported":1687475293,"current_range_meters":6400,"station_id":"ce4bguh2rcd13ifvqckg","pricing_plan_id":"free"},{"bike_id":"077012c0-327a-41b7-a149-1df98069d09b","system_id":"levelo_inurba_marseille","lat":43.31539,"lon":5.37311,"is_reserved":false,"is_disabled":false,"rental_uris":{"android":"levelo://app?vid=077012c0-327a-41b7-a149-1df98069d09b","ios":"levelo://app?vid=077012c0-327a-41b7-a149-1df98069d09b"},"vehicle_type_id":"4","last_reported":1687475293,"current_range_meters":29600,"station_id":"","pricing_plan_id":"free"},{"bike_id":"e9c4accd-8d38-4929-8890-93bc25cdc726","system_id":"levelo_inurba_marseille","lat":43.308606,"lon":5.372099,"is_reserved":false,"is_disabled":false,"rental_uris":{"android":"levelo://app?vid=e9c4accd-8d38-4929-8890-93bc25cdc726","ios":"levelo://app?vid=e9c4accd-8d38-4929-8890-93bc25cdc726"},"vehicle_type_id":"4","last_reported":1687475293,"current_range_meters":12800,"station_id":"ce4bguh2rcd13ifvqckg","pricing_plan_id":"free"},{"bike_id":"af02ffe4-83be-4055-b1c3-8ac53b1a8109","system_id":"levelo_inurba_marseille","lat":43.308606,"lon":5.372099,"is_reserved":false,"is_disabled":false,"rental_uris":{"android":"levelo://app?vid=af02ffe4-83be-4055-b1c3-8ac53b1a8109","ios":"levelo://app?vid=af02ffe4-83be-4055-b1c3-8ac53b1a8109"},"vehicle_type_id":"4","last_reported":1687475293,"current_range_meters":32000,"station_id":"ce4bguh2rcd13ifvqckg","pricing_plan_id":"free"},{"bike_id":"7a1bcb42-e6b0-4060-b264-ca2901fc5f80","system_id":"levelo_inurba_marseille","lat":43.30887,"lon":5.37187,"is_reserved":false,"is_disabled":false,"rental_uris":{"android":"levelo://app?vid=7a1bcb42-e6b0-4060-b264-ca2901fc5f80","ios":"levelo://app?vid=7a1bcb42-e6b0-4060-b264-ca2901fc5f80"},"vehicle_type_id":"4","last_reported":1687475293,"current_range_meters":0,"station_id":"","pricing_plan_id":"free"},{"bike_id":"ab32dd18-283b-4cae-8e2d-e2ced9b6f62c","system_id":"levelo_inurba_marseille","lat":43.308606,"lon":5.372099,"is_reserved":false,"is_disabled":false,"rental_uris":{"android":"levelo://app?vid=ab32dd18-283b-4cae-8e2d-e2ced9b6f62c","ios":"levelo://app?vid=ab32dd18-283b-4cae-8e2d-e2ced9b6f62c"},"vehicle_type_id":"4","last_reported":1687475293,"current_range_meters":20400,"station_id":"ce4bguh2rcd13ifvqckg","pricing_plan_id":"free"},{"bike_id":"1f28f6f2-24d0-47c2-9152-1dbe406f0f8f","system_id":"levelo_inurba_marseille","lat":43.308606,"lon":5.372099,"is_reserved":false,"is_disabled":false,"rental_uris":{"android":"levelo://app?vid=1f28f6f2-24d0-47c2-9152-1dbe406f0f8f","ios":"levelo://app?vid=1f28f6f2-24d0-47c2-9152-1dbe406f0f8f"},"vehicle_type_id":"4","last_reported":1687475293,"current_range_meters":15600,"station_id":"ce4bguh2rcd13ifvqckg","pricing_plan_id":"free"},{"bike_id":"8c5617d4-e34d-423e-8a31-351ed0f28a2d","system_id":"levelo_inurba_marseille","lat":43.305368,"lon":5.367343,"is_reserved":false,"is_disabled":false,"rental_uris":{"android":"levelo://app?vid=8c5617d4-e34d-423e-8a31-351ed0f28a2d","ios":"levelo://app?vid=8c5617d4-e34d-423e-8a31-351ed0f28a2d"},"vehicle_type_id":"4","last_reported":1687475293,"current_range_meters":0,"station_id":"ce4bgrp2rcd13ifvqc9g","pricing_plan_id":"free"},{"bike_id":"520c8c44-711e-4fd9-90ec-6125ebff02e5","system_id":"levelo_inurba_marseille","lat":43.305368,"lon":5.367343,"is_reserved":false,"is_disabled":false,"rental_uris":{"android":"levelo://app?vid=520c8c44-711e-4fd9-90ec-6125ebff02e5","ios":"levelo://app?vid=520c8c44-711e-4fd9-90ec-6125ebff02e5"},"vehicle_type_id":"4","last_reported":1687475293,"current_range_meters":2400,"station_id":"ce4bgrp2rcd13ifvqc9g","pricing_plan_id":"free"},{"bike_id":"2fec8dab-bb3e-4ac7-8b3c-4025e1ebff09","system_id":"levelo_inurba_marseille","lat":43.305989,"lon":5.37225,"is_reserved":false,"is_disabled":false,"rental_uris":{"android":"levelo://app?vid=2fec8dab-bb3e-4ac7-8b3c-4025e1ebff09","ios":"levelo://app?vid=2fec8dab-bb3e-4ac7-8b3c-4025e1ebff09"},"vehicle_type_id":"4","last_reported":1687475293,"current_range_meters":31600,"station_id":"ce4bgqh2rcd13ifvqc4g","pricing_plan_id":"free"},{"bike_id":"819a209d-9422-467b-9c78-f4d3dd027db9","system_id":"levelo_inurba_marseille","lat":43.305989,"lon":5.37225,"is_reserved":false,"is_disabled":false,"rental_uris":{"android":"levelo://app?vid=819a209d-9422-467b-9c78-f4d3dd027db9","ios":"levelo://app?vid=819a209d-9422-467b-9c78-f4d3dd027db9"},"vehicle_type_id":"4","last_reported":1687475293,"current_range_meters":32000,"station_id":"ce4bgqh2rcd13ifvqc4g","pricing_plan_id":"free"},{"bike_id":"4e27a7b0-fe07-477e-a895-b5360b5fd58a","system_id":"levelo_inurba_marseille","lat":43.305989,"lon":5.37225,"is_reserved":false,"is_disabled":false,"rental_uris":{"android":"levelo://app?vid=4e27a7b0-fe07-477e-a895-b5360b5fd58a","ios":"levelo://app?vid=4e27a7b0-fe07-477e-a895-b5360b5fd58a"},"vehicle_type_id":"4","last_reported":1687475293,"current_range_meters":31600,"station_id":"ce4bgqh2rcd13ifvqc4g","pricing_plan_id":"free"},{"bike_id":"02bef847-ea77-43c3-a2b5-0353991f3e8a","system_id":"levelo_inurba_marseille","lat":43.30599,"lon":5.37204,"is_reserved":false,"is_disabled":false,"rental_uris":{"android":"levelo://app?vid=02bef847-ea77-43c3-a2b5-0353991f3e8a","ios":"levelo://app?vid=02bef847-ea77-43c3-a2b5-0353991f3e8a"},"vehicle_type_id":"4","last_reported":1687475293,"current_range_meters":11600,"station_id":"ce4bgqh2rcd13ifvqc4g","pricing_plan_id":"free"},{"bike_id":"f13bdbc9-0952-40e9-9c5c-df95de4d8643","system_id":"levelo_inurba_marseille","lat":43.305989,"lon":5.37225,"is_reserved":false,"is_disabled":false,"rental_uris":{"android":"levelo://app?vid=f13bdbc9-0952-40e9-9c5c-df95de4d8643","ios":"levelo://app?vid=f13bdbc9-0952-40e9-9c5c-df95de4d8643"},"vehicle_type_id":"4","last_reported":1687475293,"current_range_meters":12400,"station_id":"ce4bgqh2rcd13ifvqc4g","pricing_plan_id":"free"},{"bike_id":"8f8f25e5-3616-46c3-a680-2caa8dd36ece","system_id":"levelo_inurba_marseille","lat":43.305989,"lon":5.37225,"is_reserved":false,"is_disabled":false,"rental_uris":{"android":"levelo://app?vid=8f8f25e5-3616-46c3-a680-2caa8dd36ece","ios":"levelo://app?vid=8f8f25e5-3616-46c3-a680-2caa8dd36ece"},"vehicle_type_id":"4","last_reported":1687475293,"current_range_meters":29600,"station_id":"ce4bgqh2rcd13ifvqc4g","pricing_plan_id":"free"},{"bike_id":"f0a55d5f-115c-468c-95ed-816f241889af","system_id":"levelo_inurba_marseille","lat":43.306,"lon":5.37216,"is_reserved":false,"is_disabled":false,"rental_uris":{"android":"levelo://app?vid=f0a55d5f-115c-468c-95ed-816f241889af","ios":"levelo://app?vid=f0a55d5f-115c-468c-95ed-816f241889af"},"vehicle_type_id":"4","last_reported":1687475293,"current_range_meters":28400,"station_id":"ce4bgqh2rcd13ifvqc4g","pricing_plan_id":"free"},{"bike_id":"69e1102d-85ea-4e76-aeb2-e7828bd0aeaf","system_id":"levelo_inurba_marseille","lat":43.30597,"lon":5.37209,"is_reserved":false,"is_disabled":false,"rental_uris":{"android":"levelo://app?vid=69e1102d-85ea-4e76-aeb2-e7828bd0aeaf","ios":"levelo://app?vid=69e1102d-85ea-4e76-aeb2-e7828bd0aeaf"},"vehicle_type_id":"4","last_reported":1687475293,"current_range_meters":31200,"station_id":"ce4bgqh2rcd13ifvqc4g","pricing_plan_id":"free"},{"bike_id":"00dc6ecf-cc55-4280-8427-95ded07efa16","system_id":"levelo_inurba_marseille","lat":43.305989,"lon":5.37225,"is_reserved":false,"is_disabled":false,"rental_uris":{"android":"levelo://app?vid=00dc6ecf-cc55-4280-8427-95ded07efa16","ios":"levelo://app?vid=00dc6ecf-cc55-4280-8427-95ded07efa16"},"vehicle_type_id":"4","last_reported":1687475293,"current_range_meters":31600,"station_id":"ce4bgqh2rcd13ifvqc4g","pricing_plan_id":"free"},{"bike_id":"afa7e078-0434-4921-8119-206a4f656a19","system_id":"levelo_inurba_marseille","lat":43.30597,"lon":5.37212,"is_reserved":false,"is_disabled":false,"rental_uris":{"android":"levelo://app?vid=afa7e078-0434-4921-8119-206a4f656a19","ios":"levelo://app?vid=afa7e078-0434-4921-8119-206a4f656a19"},"vehicle_type_id":"4","last_reported":1687475293,"current_range_meters":25600,"station_id":"ce4bgqh2rcd13ifvqc4g","pricing_plan_id":"free"},{"bike_id":"dacd09ba-bfc8-4199-9dd8-1d0bc0d56fb6","system_id":"levelo_inurba_marseille","lat":43.305989,"lon":5.37225,"is_reserved":false,"is_disabled":false,"rental_uris":{"android":"levelo://app?vid=dacd09ba-bfc8-4199-9dd8-1d0bc0d56fb6","ios":"levelo://app?vid=dacd09ba-bfc8-4199-9dd8-1d0bc0d56fb6"},"vehicle_type_id":"4","last_reported":1687475293,"current_range_meters":32000,"station_id":"ce4bgqh2rcd13ifvqc4g","pricing_plan_id":"free"},{"bike_id":"65ad55ff-f341-4a01-adb0-5a3db0e7822b","system_id":"levelo_inurba_marseille","lat":43.311131,"lon":5.377651,"is_reserved":false,"is_disabled":false,"rental_uris":{"android":"levelo://app?vid=65ad55ff-f341-4a01-adb0-5a3db0e7822b","ios":"levelo://app?vid=65ad55ff-f341-4a01-adb0-5a3db0e7822b"},"vehicle_type_id":"4","last_reported":1687475293,"current_range_meters":26400,"station_id":"ce4bgt92rcd13ifvqcg0","pricing_plan_id":"free"},{"bike_id":"6cddf9a2-bd4c-43dd-a138-c09817e0d006","system_id":"levelo_inurba_marseille","lat":43.31114,"lon":5.37774,"is_reserved":false,"is_disabled":false,"rental_uris":{"android":"levelo://app?vid=6cddf9a2-bd4c-43dd-a138-c09817e0d006","ios":"levelo://app?vid=6cddf9a2-bd4c-43dd-a138-c09817e0d006"},"vehicle_type_id":"4","last_reported":1687475293,"current_range_meters":28400,"station_id":"","pricing_plan_id":"free"},{"bike_id":"4fd85b1a-352d-4783-9331-4da0887623d8","system_id":"levelo_inurba_marseille","lat":43.311125,"lon":5.377624,"is_reserved":false,"is_disabled":false,"rental_uris":{"android":"levelo://app?vid=4fd85b1a-352d-4783-9331-4da0887623d8","ios":"levelo://app?vid=4fd85b1a-352d-4783-9331-4da0887623d8"},"vehicle_type_id":"4","last_reported":1687475293,"current_range_meters":30400,"station_id":"ce4bgt92rcd13ifvqcg0","pricing_plan_id":"free"},{"bike_id":"752fe1b5-4bef-439c-8f17-39b8b6a82fb4","system_id":"levelo_inurba_marseille","lat":43.317075,"lon":5.377367,"is_reserved":false,"is_disabled":false,"rental_uris":{"android":"levelo://app?vid=752fe1b5-4bef-439c-8f17-39b8b6a82fb4","ios":"levelo://app?vid=752fe1b5-4bef-439c-8f17-39b8b6a82fb4"},"vehicle_type_id":"4","last_reported":1687475293,"current_range_meters":29200,"station_id":"ce4bgth2rcd13ifvqch0","pricing_plan_id":"free"},{"bike_id":"ff10af4e-ed79-41b9-a171-372351c144ba","system_id":"levelo_inurba_marseille","lat":43.317075,"lon":5.377367,"is_reserved":false,"is_disabled":false,"rental_uris":{"android":"levelo://app?vid=ff10af4e-ed79-41b9-a171-372351c144ba","ios":"levelo://app?vid=ff10af4e-ed79-41b9-a171-372351c144ba"},"vehicle_type_id":"4","last_reported":1687475293,"current_range_meters":31600,"station_id":"ce4bgth2rcd13ifvqch0","pricing_plan_id":"free"},{"bike_id":"2cebafeb-12a0-4cb6-83ce-4e34dcefc158","system_id":"levelo_inurba_marseille","lat":43.317075,"lon":5.377367,"is_reserved":false,"is_disabled":false,"rental_uris":{"android":"levelo://app?vid=2cebafeb-12a0-4cb6-83ce-4e34dcefc158","ios":"levelo://app?vid=2cebafeb-12a0-4cb6-83ce-4e34dcefc158"},"vehicle_type_id":"4","last_reported":1687475293,"current_range_meters":31600,"station_id":"ce4bgth2rcd13ifvqch0","pricing_plan_id":"free"},{"bike_id":"11129ca9-b324-4685-97a9-836ab53c709a","system_id":"levelo_inurba_marseille","lat":43.303046,"lon":5.368981,"is_reserved":false,"is_disabled":false,"rental_uris":{"android":"levelo://app?vid=11129ca9-b324-4685-97a9-836ab53c709a","ios":"levelo://app?vid=11129ca9-b324-4685-97a9-836ab53c709a"},"vehicle_type_id":"4","last_reported":1687475293,"current_range_meters":29200,"station_id":"ce4bgqh2rcd13ifvqc5g","pricing_plan_id":"free"},{"bike_id":"81b88133-480d-41c0-a6bd-4d98733e5f32","system_id":"levelo_inurba_marseille","lat":43.31538,"lon":5.38011,"is_reserved":false,"is_disabled":false,"rental_uris":{"android":"levelo://app?vid=81b88133-480d-41c0-a6bd-4d98733e5f32","ios":"levelo://app?vid=81b88133-480d-41c0-a6bd-4d98733e5f32"},"vehicle_type_id":"4","last_reported":1687475293,"current_range_meters":20400,"station_id":"ce4bhsp2rcd13ifvqi50","pricing_plan_id":"free"},{"bike_id":"676544c1-d089-4ff3-ac82-440502e7e765","system_id":"levelo_inurba_marseille","lat":43.31533,"lon":5.3802,"is_reserved":false,"is_disabled":false,"rental_uris":{"android":"levelo://app?vid=676544c1-d089-4ff3-ac82-440502e7e765","ios":"levelo://app?vid=676544c1-d089-4ff3-ac82-440502e7e765"},"vehicle_type_id":"4","last_reported":1687475293,"current_range_meters":27200,"station_id":"ce4bhsp2rcd13ifvqi50","pricing_plan_id":"free"},{"bike_id":"52dc773e-7544-4093-a872-825c7271cf6f","system_id":"levelo_inurba_marseille","lat":43.3153,"lon":5.38034,"is_reserved":false,"is_disabled":false,"rental_uris":{"android":"levelo://app?vid=52dc773e-7544-4093-a872-825c7271cf6f","ios":"levelo://app?vid=52dc773e-7544-4093-a872-825c7271cf6f"},"vehicle_type_id":"4","last_reported":1687475293,"current_range_meters":4800,"station_id":"ce4bhsp2rcd13ifvqi50","pricing_plan_id":"free"},{"bike_id":"08778001-02a4-47f8-82a8-7f7ea343a1f8","system_id":"levelo_inurba_marseille","lat":43.308012,"lon":5.381511,"is_reserved":false,"is_disabled":false,"rental_uris":{"android":"levelo://app?vid=08778001-02a4-47f8-82a8-7f7ea343a1f8","ios":"levelo://app?vid=08778001-02a4-47f8-82a8-7f7ea343a1f8"},"vehicle_type_id":"4","last_reported":1687475293,"current_range_meters":17600,"station_id":"ce4bgt12rcd13ifvqce0","pricing_plan_id":"free"},{"bike_id":"c98c824a-5a21-41d7-a2b3-cfad705b7985","system_id":"levelo_inurba_marseille","lat":43.292642,"lon":5.384254,"is_reserved":false,"is_disabled":false,"rental_uris":{"android":"levelo://app?vid=c98c824a-5a21-41d7-a2b3-cfad705b7985","ios":"levelo://app?vid=c98c824a-5a21-41d7-a2b3-cfad705b7985"},"vehicle_type_id":"4","last_reported":1687475293,"current_range_meters":800,"station_id":"ce4bh692rcd13ifvqea0","pricing_plan_id":"free"},{"bike_id":"714b555b-2a23-46db-8941-74bffbea04bd","system_id":"levelo_inurba_marseille","lat":43.308012,"lon":5.381511,"is_reserved":false,"is_disabled":false,"rental_uris":{"android":"levelo://app?vid=714b555b-2a23-46db-8941-74bffbea04bd","ios":"levelo://app?vid=714b555b-2a23-46db-8941-74bffbea04bd"},"vehicle_type_id":"4","last_reported":1687475293,"current_range_meters":14800,"station_id":"ce4bgt12rcd13ifvqce0","pricing_plan_id":"free"},{"bike_id":"769d8b99-eb74-458c-b604-0a5f57e627be","system_id":"levelo_inurba_marseille","lat":43.308012,"lon":5.381511,"is_reserved":false,"is_disabled":false,"rental_uris":{"android":"levelo://app?vid=769d8b99-eb74-458c-b604-0a5f57e627be","ios":"levelo://app?vid=769d8b99-eb74-458c-b604-0a5f57e627be"},"vehicle_type_id":"4","last_reported":1687475293,"current_range_meters":27200,"station_id":"ce4bgt12rcd13ifvqce0","pricing_plan_id":"free"},{"bike_id":"77acccbb-4bcb-41c7-be8f-fd9daf46e34c","system_id":"levelo_inurba_marseille","lat":43.304606,"lon":5.379026,"is_reserved":false,"is_disabled":false,"rental_uris":{"android":"levelo://app?vid=77acccbb-4bcb-41c7-be8f-fd9daf46e34c","ios":"levelo://app?vid=77acccbb-4bcb-41c7-be8f-fd9daf46e34c"},"vehicle_type_id":"4","last_reported":1687475293,"current_range_meters":27600,"station_id":"ce4bgup2rcd13ifvqcn0","pricing_plan_id":"free"},{"bike_id":"43fc693e-f2a9-4aec-8fd9-d094bb02cb70","system_id":"levelo_inurba_marseille","lat":43.304606,"lon":5.379026,"is_reserved":false,"is_disabled":false,"rental_uris":{"android":"levelo://app?vid=43fc693e-f2a9-4aec-8fd9-d094bb02cb70","ios":"levelo://app?vid=43fc693e-f2a9-4aec-8fd9-d094bb02cb70"},"vehicle_type_id":"4","last_reported":1687475293,"current_range_meters":400,"station_id":"ce4bgup2rcd13ifvqcn0","pricing_plan_id":"free"},{"bike_id":"c6962907-c52e-4b25-a6d6-6607eb67d520","system_id":"levelo_inurba_marseille","lat":43.302784,"lon":5.377158,"is_reserved":false,"is_disabled":false,"rental_uris":{"android":"levelo://app?vid=c6962907-c52e-4b25-a6d6-6607eb67d520","ios":"levelo://app?vid=c6962907-c52e-4b25-a6d6-6607eb67d520"},"vehicle_type_id":"4","last_reported":1687475293,"current_range_meters":24000,"station_id":"ce4bguh2rcd13ifvqcj0","pricing_plan_id":"free"},{"bike_id":"caa0df7a-3469-4982-a402-c82d8e49ac69","system_id":"levelo_inurba_marseille","lat":43.302784,"lon":5.377158,"is_reserved":false,"is_disabled":false,"rental_uris":{"android":"levelo://app?vid=caa0df7a-3469-4982-a402-c82d8e49ac69","ios":"levelo://app?vid=caa0df7a-3469-4982-a402-c82d8e49ac69"},"vehicle_type_id":"4","last_reported":1687475293,"current_range_meters":26400,"station_id":"ce4bguh2rcd13ifvqcj0","pricing_plan_id":"free"},{"bike_id":"8bdc3002-dcbd-400e-b672-fbc455efd9c5","system_id":"levelo_inurba_marseille","lat":43.302784,"lon":5.377158,"is_reserved":false,"is_disabled":false,"rental_uris":{"android":"levelo://app?vid=8bdc3002-dcbd-400e-b672-fbc455efd9c5","ios":"levelo://app?vid=8bdc3002-dcbd-400e-b672-fbc455efd9c5"},"vehicle_type_id":"4","last_reported":1687475293,"current_range_meters":30000,"station_id":"ce4bguh2rcd13ifvqcj0","pricing_plan_id":"free"},{"bike_id":"2b477804-59d6-4ed2-b858-3f9e3c0f0764","system_id":"levelo_inurba_marseille","lat":43.319935,"lon":5.381699,"is_reserved":false,"is_disabled":false,"rental_uris":{"android":"levelo://app?vid=2b477804-59d6-4ed2-b858-3f9e3c0f0764","ios":"levelo://app?vid=2b477804-59d6-4ed2-b858-3f9e3c0f0764"},"vehicle_type_id":"4","last_reported":1687475293,"current_range_meters":1200,"station_id":"ce4bhr12rcd13ifvqhpg","pricing_plan_id":"free"},{"bike_id":"dd0223fc-e3b2-4277-9a36-68031be99e8b","system_id":"levelo_inurba_marseille","lat":43.319935,"lon":5.381699,"is_reserved":false,"is_disabled":false,"rental_uris":{"android":"levelo://app?vid=dd0223fc-e3b2-4277-9a36-68031be99e8b","ios":"levelo://app?vid=dd0223fc-e3b2-4277-9a36-68031be99e8b"},"vehicle_type_id":"4","last_reported":1687475293,"current_range_meters":12400,"station_id":"ce4bhr12rcd13ifvqhpg","pricing_plan_id":"free"},{"bike_id":"b6ec6e00-31ec-471f-ae4a-d9f92b742295","system_id":"levelo_inurba_marseille","lat":43.319935,"lon":5.381699,"is_reserved":false,"is_disabled":false,"rental_uris":{"android":"levelo://app?vid=b6ec6e00-31ec-471f-ae4a-d9f92b742295","ios":"levelo://app?vid=b6ec6e00-31ec-471f-ae4a-d9f92b742295"},"vehicle_type_id":"4","last_reported":1687475293,"current_range_meters":1200,"station_id":"ce4bhr12rcd13ifvqhpg","pricing_plan_id":"free"},{"bike_id":"fc36b020-a0fa-4ea1-b73a-1b3b927113fc","system_id":"levelo_inurba_marseille","lat":43.319935,"lon":5.381699,"is_reserved":false,"is_disabled":false,"rental_uris":{"android":"levelo://app?vid=fc36b020-a0fa-4ea1-b73a-1b3b927113fc","ios":"levelo://app?vid=fc36b020-a0fa-4ea1-b73a-1b3b927113fc"},"vehicle_type_id":"4","last_reported":1687475293,"current_range_meters":22000,"station_id":"ce4bhr12rcd13ifvqhpg","pricing_plan_id":"free"},{"bike_id":"7deee56c-9315-446d-9bb0-655b3a7b2977","system_id":"levelo_inurba_marseille","lat":43.319935,"lon":5.381699,"is_reserved":false,"is_disabled":false,"rental_uris":{"android":"levelo://app?vid=7deee56c-9315-446d-9bb0-655b3a7b2977","ios":"levelo://app?vid=7deee56c-9315-446d-9bb0-655b3a7b2977"},"vehicle_type_id":"4","last_reported":1687475293,"current_range_meters":2800,"station_id":"ce4bhr12rcd13ifvqhpg","pricing_plan_id":"free"},{"bike_id":"dd707d1b-6225-4661-996c-70284ecdf521","system_id":"levelo_inurba_marseille","lat":43.319935,"lon":5.381699,"is_reserved":false,"is_disabled":false,"rental_uris":{"android":"levelo://app?vid=dd707d1b-6225-4661-996c-70284ecdf521","ios":"levelo://app?vid=dd707d1b-6225-4661-996c-70284ecdf521"},"vehicle_type_id":"4","last_reported":1687475293,"current_range_meters":4800,"station_id":"ce4bhr12rcd13ifvqhpg","pricing_plan_id":"free"},{"bike_id":"cc7ccaed-aeac-4fb6-a249-e3eec1cb8751","system_id":"levelo_inurba_marseille","lat":43.32227,"lon":5.37897,"is_reserved":false,"is_disabled":false,"rental_uris":{"android":"levelo://app?vid=cc7ccaed-aeac-4fb6-a249-e3eec1cb8751","ios":"levelo://app?vid=cc7ccaed-aeac-4fb6-a249-e3eec1cb8751"},"vehicle_type_id":"4","last_reported":1687475293,"current_range_meters":29600,"station_id":"","pricing_plan_id":"free"},{"bike_id":"794954bb-28e2-445c-a16d-3d663661fbd7","system_id":"levelo_inurba_marseille","lat":43.313571,"lon":5.384829,"is_reserved":false,"is_disabled":false,"rental_uris":{"android":"levelo://app?vid=794954bb-28e2-445c-a16d-3d663661fbd7","ios":"levelo://app?vid=794954bb-28e2-445c-a16d-3d663661fbd7"},"vehicle_type_id":"4","last_reported":1687475293,"current_range_meters":27200,"station_id":"ce4bgt92rcd13ifvqcf0","pricing_plan_id":"free"},{"bike_id":"cdcf2c67-35c4-4727-bedc-0b4ed1fb29c3","system_id":"levelo_inurba_marseille","lat":43.313571,"lon":5.384829,"is_reserved":false,"is_disabled":false,"rental_uris":{"android":"levelo://app?vid=cdcf2c67-35c4-4727-bedc-0b4ed1fb29c3","ios":"levelo://app?vid=cdcf2c67-35c4-4727-bedc-0b4ed1fb29c3"},"vehicle_type_id":"4","last_reported":1687475293,"current_range_meters":6400,"station_id":"ce4bgt92rcd13ifvqcf0","pricing_plan_id":"free"},{"bike_id":"680a587f-a582-4a84-aa52-5f6cdfeea3da","system_id":"levelo_inurba_marseille","lat":43.31174,"lon":5.38709,"is_reserved":false,"is_disabled":false,"rental_uris":{"android":"levelo://app?vid=680a587f-a582-4a84-aa52-5f6cdfeea3da","ios":"levelo://app?vid=680a587f-a582-4a84-aa52-5f6cdfeea3da"},"vehicle_type_id":"4","last_reported":1687475293,"current_range_meters":18800,"station_id":"ce4bgv12rcd13ifvqcp0","pricing_plan_id":"free"},{"bike_id":"d5f32ebe-b91f-4261-a4f5-b32cedc02b36","system_id":"levelo_inurba_marseille","lat":43.311722,"lon":5.387247,"is_reserved":false,"is_disabled":false,"rental_uris":{"android":"levelo://app?vid=d5f32ebe-b91f-4261-a4f5-b32cedc02b36","ios":"levelo://app?vid=d5f32ebe-b91f-4261-a4f5-b32cedc02b36"},"vehicle_type_id":"4","last_reported":1687475293,"current_range_meters":31200,"station_id":"ce4bgv12rcd13ifvqcp0","pricing_plan_id":"free"},{"bike_id":"0561a7df-a130-4a80-a922-5ceeac9f19d8","system_id":"levelo_inurba_marseille","lat":43.311722,"lon":5.387247,"is_reserved":false,"is_disabled":false,"rental_uris":{"android":"levelo://app?vid=0561a7df-a130-4a80-a922-5ceeac9f19d8","ios":"levelo://app?vid=0561a7df-a130-4a80-a922-5ceeac9f19d8"},"vehicle_type_id":"4","last_reported":1687475293,"current_range_meters":8800,"station_id":"ce4bgv12rcd13ifvqcp0","pricing_plan_id":"free"},{"bike_id":"1c14f884-ffbd-4c87-9fd3-0ab8b668cfe7","system_id":"levelo_inurba_marseille","lat":43.311722,"lon":5.387247,"is_reserved":false,"is_disabled":false,"rental_uris":{"android":"levelo://app?vid=1c14f884-ffbd-4c87-9fd3-0ab8b668cfe7","ios":"levelo://app?vid=1c14f884-ffbd-4c87-9fd3-0ab8b668cfe7"},"vehicle_type_id":"4","last_reported":1687475293,"current_range_meters":25200,"station_id":"ce4bgv12rcd13ifvqcp0","pricing_plan_id":"free"},{"bike_id":"59671e05-1547-4ad1-b769-eafdc0594cc2","system_id":"levelo_inurba_marseille","lat":43.311722,"lon":5.387247,"is_reserved":false,"is_disabled":false,"rental_uris":{"android":"levelo://app?vid=59671e05-1547-4ad1-b769-eafdc0594cc2","ios":"levelo://app?vid=59671e05-1547-4ad1-b769-eafdc0594cc2"},"vehicle_type_id":"4","last_reported":1687475293,"current_range_meters":27200,"station_id":"ce4bgv12rcd13ifvqcp0","pricing_plan_id":"free"},{"bike_id":"a6325e93-987a-4333-8922-7dbe8332b98e","system_id":"levelo_inurba_marseille","lat":43.311722,"lon":5.387247,"is_reserved":false,"is_disabled":false,"rental_uris":{"android":"levelo://app?vid=a6325e93-987a-4333-8922-7dbe8332b98e","ios":"levelo://app?vid=a6325e93-987a-4333-8922-7dbe8332b98e"},"vehicle_type_id":"4","last_reported":1687475293,"current_range_meters":7600,"station_id":"ce4bgv12rcd13ifvqcp0","pricing_plan_id":"free"},{"bike_id":"5f0bf26e-4e70-4f56-9715-730e94998a2e","system_id":"levelo_inurba_marseille","lat":43.30304,"lon":5.38242,"is_reserved":false,"is_disabled":false,"rental_uris":{"android":"levelo://app?vid=5f0bf26e-4e70-4f56-9715-730e94998a2e","ios":"levelo://app?vid=5f0bf26e-4e70-4f56-9715-730e94998a2e"},"vehicle_type_id":"4","last_reported":1687475293,"current_range_meters":18400,"station_id":"","pricing_plan_id":"free"},{"bike_id":"a7a61b49-04da-4e46-8b4e-c1ec4d249ebf","system_id":"levelo_inurba_marseille","lat":43.297794,"lon":5.370888,"is_reserved":false,"is_disabled":false,"rental_uris":{"android":"levelo://app?vid=a7a61b49-04da-4e46-8b4e-c1ec4d249ebf","ios":"levelo://app?vid=a7a61b49-04da-4e46-8b4e-c1ec4d249ebf"},"vehicle_type_id":"4","last_reported":1687475293,"current_range_meters":19600,"station_id":"ce4bgop2rcd13ifvqc1g","pricing_plan_id":"free"},{"bike_id":"4d872d7b-3c02-4a27-9bef-cb4ab1789c90","system_id":"levelo_inurba_marseille","lat":43.297794,"lon":5.370888,"is_reserved":false,"is_disabled":false,"rental_uris":{"android":"levelo://app?vid=4d872d7b-3c02-4a27-9bef-cb4ab1789c90","ios":"levelo://app?vid=4d872d7b-3c02-4a27-9bef-cb4ab1789c90"},"vehicle_type_id":"4","last_reported":1687475293,"current_range_meters":31600,"station_id":"ce4bgop2rcd13ifvqc1g","pricing_plan_id":"free"},{"bike_id":"f29725c6-87c0-4998-96d6-7b7afbecb764","system_id":"levelo_inurba_marseille","lat":43.328371,"lon":5.366909,"is_reserved":false,"is_disabled":false,"rental_uris":{"android":"levelo://app?vid=f29725c6-87c0-4998-96d6-7b7afbecb764","ios":"levelo://app?vid=f29725c6-87c0-4998-96d6-7b7afbecb764"},"vehicle_type_id":"4","last_reported":1687475293,"current_range_meters":4000,"station_id":"ce4bhs92rcd13ifvqi0g","pricing_plan_id":"free"},{"bike_id":"41235149-f42e-4673-9d1a-055ac92c3df6","system_id":"levelo_inurba_marseille","lat":43.32834,"lon":5.36688,"is_reserved":false,"is_disabled":false,"rental_uris":{"android":"levelo://app?vid=41235149-f42e-4673-9d1a-055ac92c3df6","ios":"levelo://app?vid=41235149-f42e-4673-9d1a-055ac92c3df6"},"vehicle_type_id":"4","last_reported":1687475293,"current_range_meters":28000,"station_id":"ce4bhs92rcd13ifvqi0g","pricing_plan_id":"free"},{"bike_id":"d6aa4b8f-0fbd-492f-a726-f1b64033634e","system_id":"levelo_inurba_marseille","lat":43.29718,"lon":5.36384,"is_reserved":false,"is_disabled":false,"rental_uris":{"android":"levelo://app?vid=d6aa4b8f-0fbd-492f-a726-f1b64033634e","ios":"levelo://app?vid=d6aa4b8f-0fbd-492f-a726-f1b64033634e"},"vehicle_type_id":"4","last_reported":1687475293,"current_range_meters":14000,"station_id":"","pricing_plan_id":"free"},{"bike_id":"cd87ed38-83cb-45e1-805f-3b897bb5194e","system_id":"levelo_inurba_marseille","lat":43.311722,"lon":5.387247,"is_reserved":false,"is_disabled":false,"rental_uris":{"android":"levelo://app?vid=cd87ed38-83cb-45e1-805f-3b897bb5194e","ios":"levelo://app?vid=cd87ed38-83cb-45e1-805f-3b897bb5194e"},"vehicle_type_id":"4","last_reported":1687475293,"current_range_meters":4400,"station_id":"ce4bgv12rcd13ifvqcp0","pricing_plan_id":"free"},{"bike_id":"c70acc76-199e-44c5-8c5b-c70118a70f58","system_id":"levelo_inurba_marseille","lat":43.309589,"lon":5.390258,"is_reserved":false,"is_disabled":false,"rental_uris":{"android":"levelo://app?vid=c70acc76-199e-44c5-8c5b-c70118a70f58","ios":"levelo://app?vid=c70acc76-199e-44c5-8c5b-c70118a70f58"},"vehicle_type_id":"4","last_reported":1687475293,"current_range_meters":4800,"station_id":"ce4bgup2rcd13ifvqco0","pricing_plan_id":"free"},{"bike_id":"4de1b2a5-1077-4939-95b0-2c5a844c0fda","system_id":"levelo_inurba_marseille","lat":43.309589,"lon":5.390258,"is_reserved":false,"is_disabled":false,"rental_uris":{"android":"levelo://app?vid=4de1b2a5-1077-4939-95b0-2c5a844c0fda","ios":"levelo://app?vid=4de1b2a5-1077-4939-95b0-2c5a844c0fda"},"vehicle_type_id":"4","last_reported":1687475293,"current_range_meters":2800,"station_id":"ce4bgup2rcd13ifvqco0","pricing_plan_id":"free"},{"bike_id":"041bc147-ef2f-419b-bb81-deca3bdf89e2","system_id":"levelo_inurba_marseille","lat":43.29611,"lon":5.36046,"is_reserved":false,"is_disabled":false,"rental_uris":{"android":"levelo://app?vid=041bc147-ef2f-419b-bb81-deca3bdf89e2","ios":"levelo://app?vid=041bc147-ef2f-419b-bb81-deca3bdf89e2"},"vehicle_type_id":"4","last_reported":1687475293,"current_range_meters":12800,"station_id":"","pricing_plan_id":"free"},{"bike_id":"f528d314-959c-4aa2-8aa9-c37addfd9af2","system_id":"levelo_inurba_marseille","lat":43.309589,"lon":5.390258,"is_reserved":false,"is_disabled":false,"rental_uris":{"android":"levelo://app?vid=f528d314-959c-4aa2-8aa9-c37addfd9af2","ios":"levelo://app?vid=f528d314-959c-4aa2-8aa9-c37addfd9af2"},"vehicle_type_id":"4","last_reported":1687475293,"current_range_meters":14000,"station_id":"ce4bgup2rcd13ifvqco0","pricing_plan_id":"free"},{"bike_id":"a9a2f185-74ab-40dd-85d2-c9b91cd0ec95","system_id":"levelo_inurba_marseille","lat":43.317557,"lon":5.390173,"is_reserved":false,"is_disabled":false,"rental_uris":{"android":"levelo://app?vid=a9a2f185-74ab-40dd-85d2-c9b91cd0ec95","ios":"levelo://app?vid=a9a2f185-74ab-40dd-85d2-c9b91cd0ec95"},"vehicle_type_id":"4","last_reported":1687475293,"current_range_meters":14000,"station_id":"ce4bhqp2rcd13ifvqhng","pricing_plan_id":"free"},{"bike_id":"8f726bbd-1002-4f10-ae7f-c037df09197c","system_id":"levelo_inurba_marseille","lat":43.317557,"lon":5.390173,"is_reserved":false,"is_disabled":false,"rental_uris":{"android":"levelo://app?vid=8f726bbd-1002-4f10-ae7f-c037df09197c","ios":"levelo://app?vid=8f726bbd-1002-4f10-ae7f-c037df09197c"},"vehicle_type_id":"4","last_reported":1687475293,"current_range_meters":28400,"station_id":"ce4bhqp2rcd13ifvqhng","pricing_plan_id":"free"},{"bike_id":"c371fbb5-2063-4eac-a8ee-0d1442b1cefa","system_id":"levelo_inurba_marseille","lat":43.317557,"lon":5.390173,"is_reserved":false,"is_disabled":false,"rental_uris":{"android":"levelo://app?vid=c371fbb5-2063-4eac-a8ee-0d1442b1cefa","ios":"levelo://app?vid=c371fbb5-2063-4eac-a8ee-0d1442b1cefa"},"vehicle_type_id":"4","last_reported":1687475293,"current_range_meters":16800,"station_id":"ce4bhqp2rcd13ifvqhng","pricing_plan_id":"free"},{"bike_id":"263fe0ea-62f8-44f0-8c07-a93e872b6eb0","system_id":"levelo_inurba_marseille","lat":43.295752,"lon":5.375148,"is_reserved":false,"is_disabled":false,"rental_uris":{"android":"levelo://app?vid=263fe0ea-62f8-44f0-8c07-a93e872b6eb0","ios":"levelo://app?vid=263fe0ea-62f8-44f0-8c07-a93e872b6eb0"},"vehicle_type_id":"4","last_reported":1687475293,"current_range_meters":0,"station_id":"","pricing_plan_id":"free"},{"bike_id":"d2ab0546-1c04-436f-8a98-8b650091c075","system_id":"levelo_inurba_marseille","lat":43.295722,"lon":5.375303,"is_reserved":false,"is_disabled":false,"rental_uris":{"android":"levelo://app?vid=d2ab0546-1c04-436f-8a98-8b650091c075","ios":"levelo://app?vid=d2ab0546-1c04-436f-8a98-8b650091c075"},"vehicle_type_id":"4","last_reported":1687475293,"current_range_meters":25600,"station_id":"ce4bgkp2rcd13ifvqbmg","pricing_plan_id":"free"},{"bike_id":"8203a452-b1f7-4130-b41c-4d5e766c9536","system_id":"levelo_inurba_marseille","lat":43.295279,"lon":5.375048,"is_reserved":false,"is_disabled":false,"rental_uris":{"android":"levelo://app?vid=8203a452-b1f7-4130-b41c-4d5e766c9536","ios":"levelo://app?vid=8203a452-b1f7-4130-b41c-4d5e766c9536"},"vehicle_type_id":"4","last_reported":1687475293,"current_range_meters":14000,"station_id":"ce4bgkp2rcd13ifvqbmg","pricing_plan_id":"free"},{"bike_id":"aa692b25-cdc9-4db3-b698-7187f396a5a0","system_id":"levelo_inurba_marseille","lat":43.299707,"lon":5.384859,"is_reserved":false,"is_disabled":false,"rental_uris":{"android":"levelo://app?vid=aa692b25-cdc9-4db3-b698-7187f396a5a0","ios":"levelo://app?vid=aa692b25-cdc9-4db3-b698-7187f396a5a0"},"vehicle_type_id":"4","last_reported":1687475293,"current_range_meters":20000,"station_id":"ce4bgj92rcd13ifvqbd0","pricing_plan_id":"free"},{"bike_id":"d14be6ed-5e52-446e-bfb7-00ca09b44d4c","system_id":"levelo_inurba_marseille","lat":43.299717,"lon":5.384845,"is_reserved":false,"is_disabled":false,"rental_uris":{"android":"levelo://app?vid=d14be6ed-5e52-446e-bfb7-00ca09b44d4c","ios":"levelo://app?vid=d14be6ed-5e52-446e-bfb7-00ca09b44d4c"},"vehicle_type_id":"4","last_reported":1687475293,"current_range_meters":6000,"station_id":"ce4bgj92rcd13ifvqbd0","pricing_plan_id":"free"},{"bike_id":"64662981-7513-476f-94ac-37e143c3fe68","system_id":"levelo_inurba_marseille","lat":43.32359,"lon":5.3888,"is_reserved":false,"is_disabled":false,"rental_uris":{"android":"levelo://app?vid=64662981-7513-476f-94ac-37e143c3fe68","ios":"levelo://app?vid=64662981-7513-476f-94ac-37e143c3fe68"},"vehicle_type_id":"4","last_reported":1687475293,"current_range_meters":29200,"station_id":"ce4bhqp2rcd13ifvqhog","pricing_plan_id":"free"},{"bike_id":"a4982143-2425-407a-81e3-fbbbd5897622","system_id":"levelo_inurba_marseille","lat":43.32366,"lon":5.3888,"is_reserved":false,"is_disabled":false,"rental_uris":{"android":"levelo://app?vid=a4982143-2425-407a-81e3-fbbbd5897622","ios":"levelo://app?vid=a4982143-2425-407a-81e3-fbbbd5897622"},"vehicle_type_id":"4","last_reported":1687475293,"current_range_meters":2400,"station_id":"ce4bhqp2rcd13ifvqhog","pricing_plan_id":"free"},{"bike_id":"10fe77c1-5e15-42b2-9115-e66cf6b1c4f4","system_id":"levelo_inurba_marseille","lat":43.32367,"lon":5.388836,"is_reserved":false,"is_disabled":false,"rental_uris":{"android":"levelo://app?vid=10fe77c1-5e15-42b2-9115-e66cf6b1c4f4","ios":"levelo://app?vid=10fe77c1-5e15-42b2-9115-e66cf6b1c4f4"},"vehicle_type_id":"4","last_reported":1687475293,"current_range_meters":800,"station_id":"ce4bhqp2rcd13ifvqhog","pricing_plan_id":"free"},{"bike_id":"537904b6-81e9-4163-ada3-bc304b2c5b19","system_id":"levelo_inurba_marseille","lat":43.32366,"lon":5.38885,"is_reserved":false,"is_disabled":false,"rental_uris":{"android":"levelo://app?vid=537904b6-81e9-4163-ada3-bc304b2c5b19","ios":"levelo://app?vid=537904b6-81e9-4163-ada3-bc304b2c5b19"},"vehicle_type_id":"4","last_reported":1687475293,"current_range_meters":14000,"station_id":"ce4bhqp2rcd13ifvqhog","pricing_plan_id":"free"},{"bike_id":"ba9bcc13-30a6-41ee-ab87-c9d21de1e9f5","system_id":"levelo_inurba_marseille","lat":43.32367,"lon":5.388836,"is_reserved":false,"is_disabled":false,"rental_uris":{"android":"levelo://app?vid=ba9bcc13-30a6-41ee-ab87-c9d21de1e9f5","ios":"levelo://app?vid=ba9bcc13-30a6-41ee-ab87-c9d21de1e9f5"},"vehicle_type_id":"4","last_reported":1687475293,"current_range_meters":20000,"station_id":"ce4bhqp2rcd13ifvqhog","pricing_plan_id":"free"},{"bike_id":"9eb6839e-6824-4f74-a71e-6f1996b3ff40","system_id":"levelo_inurba_marseille","lat":43.32367,"lon":5.388836,"is_reserved":false,"is_disabled":false,"rental_uris":{"android":"levelo://app?vid=9eb6839e-6824-4f74-a71e-6f1996b3ff40","ios":"levelo://app?vid=9eb6839e-6824-4f74-a71e-6f1996b3ff40"},"vehicle_type_id":"4","last_reported":1687475293,"current_range_meters":24400,"station_id":"ce4bhqp2rcd13ifvqhog","pricing_plan_id":"free"},{"bike_id":"06c12b5b-4dae-4a74-8f74-870fddd5005a","system_id":"levelo_inurba_marseille","lat":43.305994,"lon":5.393687,"is_reserved":false,"is_disabled":false,"rental_uris":{"android":"levelo://app?vid=06c12b5b-4dae-4a74-8f74-870fddd5005a","ios":"levelo://app?vid=06c12b5b-4dae-4a74-8f74-870fddd5005a"},"vehicle_type_id":"4","last_reported":1687475293,"current_range_meters":27200,"station_id":"ce4bh0p2rcd13ifvqd80","pricing_plan_id":"free"},{"bike_id":"76d32c13-29a6-4f86-8ef8-3c4796243362","system_id":"levelo_inurba_marseille","lat":43.305994,"lon":5.393687,"is_reserved":false,"is_disabled":false,"rental_uris":{"android":"levelo://app?vid=76d32c13-29a6-4f86-8ef8-3c4796243362","ios":"levelo://app?vid=76d32c13-29a6-4f86-8ef8-3c4796243362"},"vehicle_type_id":"4","last_reported":1687475293,"current_range_meters":15600,"station_id":"ce4bh0p2rcd13ifvqd80","pricing_plan_id":"free"},{"bike_id":"c0c06248-472c-4437-a153-9bf01b39c0db","system_id":"levelo_inurba_marseille","lat":43.302992,"lon":5.392136,"is_reserved":false,"is_disabled":false,"rental_uris":{"android":"levelo://app?vid=c0c06248-472c-4437-a153-9bf01b39c0db","ios":"levelo://app?vid=c0c06248-472c-4437-a153-9bf01b39c0db"},"vehicle_type_id":"4","last_reported":1687475293,"current_range_meters":26000,"station_id":"ce4bgkh2rcd13ifvqbk0","pricing_plan_id":"free"},{"bike_id":"2a1031d3-6a10-4d77-9d10-498719f54073","system_id":"levelo_inurba_marseille","lat":43.30294,"lon":5.39206,"is_reserved":false,"is_disabled":false,"rental_uris":{"android":"levelo://app?vid=2a1031d3-6a10-4d77-9d10-498719f54073","ios":"levelo://app?vid=2a1031d3-6a10-4d77-9d10-498719f54073"},"vehicle_type_id":"4","last_reported":1687475293,"current_range_meters":16800,"station_id":"ce4bgkh2rcd13ifvqbk0","pricing_plan_id":"free"},{"bike_id":"cbc4e0aa-f9d2-486a-9dc9-3b10017bd845","system_id":"levelo_inurba_marseille","lat":43.302992,"lon":5.392136,"is_reserved":false,"is_disabled":false,"rental_uris":{"android":"levelo://app?vid=cbc4e0aa-f9d2-486a-9dc9-3b10017bd845","ios":"levelo://app?vid=cbc4e0aa-f9d2-486a-9dc9-3b10017bd845"},"vehicle_type_id":"4","last_reported":1687475293,"current_range_meters":30400,"station_id":"ce4bgkh2rcd13ifvqbk0","pricing_plan_id":"free"},{"bike_id":"c5a1b2f7-bb14-43b8-873d-d27563880bb7","system_id":"levelo_inurba_marseille","lat":43.300852,"lon":5.390859,"is_reserved":false,"is_disabled":false,"rental_uris":{"android":"levelo://app?vid=c5a1b2f7-bb14-43b8-873d-d27563880bb7","ios":"levelo://app?vid=c5a1b2f7-bb14-43b8-873d-d27563880bb7"},"vehicle_type_id":"4","last_reported":1687475293,"current_range_meters":9600,"station_id":"ce4bh192rcd13ifvqdb0","pricing_plan_id":"free"},{"bike_id":"bb8ce6f0-c12b-4254-84a3-44609f00d3d2","system_id":"levelo_inurba_marseille","lat":43.30089,"lon":5.39082,"is_reserved":false,"is_disabled":false,"rental_uris":{"android":"levelo://app?vid=bb8ce6f0-c12b-4254-84a3-44609f00d3d2","ios":"levelo://app?vid=bb8ce6f0-c12b-4254-84a3-44609f00d3d2"},"vehicle_type_id":"4","last_reported":1687475293,"current_range_meters":18400,"station_id":"ce4bh192rcd13ifvqdb0","pricing_plan_id":"free"},{"bike_id":"65079182-a41d-465e-957b-94fdd8d8ef52","system_id":"levelo_inurba_marseille","lat":43.30085,"lon":5.390856,"is_reserved":false,"is_disabled":false,"rental_uris":{"android":"levelo://app?vid=65079182-a41d-465e-957b-94fdd8d8ef52","ios":"levelo://app?vid=65079182-a41d-465e-957b-94fdd8d8ef52"},"vehicle_type_id":"4","last_reported":1687475293,"current_range_meters":1600,"station_id":"ce4bh192rcd13ifvqdb0","pricing_plan_id":"free"},{"bike_id":"54fda2f9-7b1a-4838-9b70-087d4101d0ae","system_id":"levelo_inurba_marseille","lat":43.33213,"lon":5.37905,"is_reserved":false,"is_disabled":false,"rental_uris":{"android":"levelo://app?vid=54fda2f9-7b1a-4838-9b70-087d4101d0ae","ios":"levelo://app?vid=54fda2f9-7b1a-4838-9b70-087d4101d0ae"},"vehicle_type_id":"4","last_reported":1687475293,"current_range_meters":5200,"station_id":"","pricing_plan_id":"free"},{"bike_id":"1b35b0e9-277c-46b0-9c69-6794d73a9b26","system_id":"levelo_inurba_marseille","lat":43.29878,"lon":5.38907,"is_reserved":false,"is_disabled":false,"rental_uris":{"android":"levelo://app?vid=1b35b0e9-277c-46b0-9c69-6794d73a9b26","ios":"levelo://app?vid=1b35b0e9-277c-46b0-9c69-6794d73a9b26"},"vehicle_type_id":"4","last_reported":1687475293,"current_range_meters":17200,"station_id":"ce4bh392rcd13ifvqdl0","pricing_plan_id":"free"},{"bike_id":"e48b0942-33a9-4656-a11e-9cc6bfd138e3","system_id":"levelo_inurba_marseille","lat":43.298764,"lon":5.388973,"is_reserved":false,"is_disabled":false,"rental_uris":{"android":"levelo://app?vid=e48b0942-33a9-4656-a11e-9cc6bfd138e3","ios":"levelo://app?vid=e48b0942-33a9-4656-a11e-9cc6bfd138e3"},"vehicle_type_id":"4","last_reported":1687475293,"current_range_meters":0,"station_id":"ce4bh392rcd13ifvqdl0","pricing_plan_id":"free"},{"bike_id":"efdd9ee3-98a6-4730-858b-c69650cf54b6","system_id":"levelo_inurba_marseille","lat":43.298764,"lon":5.388973,"is_reserved":false,"is_disabled":false,"rental_uris":{"android":"levelo://app?vid=efdd9ee3-98a6-4730-858b-c69650cf54b6","ios":"levelo://app?vid=efdd9ee3-98a6-4730-858b-c69650cf54b6"},"vehicle_type_id":"4","last_reported":1687475293,"current_range_meters":4400,"station_id":"ce4bh392rcd13ifvqdl0","pricing_plan_id":"free"},{"bike_id":"4706c6ff-4f2b-4bb6-8b7d-7648f0d83507","system_id":"levelo_inurba_marseille","lat":43.291994,"lon":5.357886,"is_reserved":false,"is_disabled":false,"rental_uris":{"android":"levelo://app?vid=4706c6ff-4f2b-4bb6-8b7d-7648f0d83507","ios":"levelo://app?vid=4706c6ff-4f2b-4bb6-8b7d-7648f0d83507"},"vehicle_type_id":"4","last_reported":1687475293,"current_range_meters":12000,"station_id":"ce4bhb12rcd13ifvqel0","pricing_plan_id":"free"},{"bike_id":"1b0115bd-f8d5-4a8c-b949-1c4fbf08d487","system_id":"levelo_inurba_marseille","lat":43.313291,"lon":5.396838,"is_reserved":false,"is_disabled":false,"rental_uris":{"android":"levelo://app?vid=1b0115bd-f8d5-4a8c-b949-1c4fbf08d487","ios":"levelo://app?vid=1b0115bd-f8d5-4a8c-b949-1c4fbf08d487"},"vehicle_type_id":"4","last_reported":1687475293,"current_range_meters":19600,"station_id":"ce4bgvp2rcd13ifvqcu0","pricing_plan_id":"free"},{"bike_id":"ff62f17a-b33a-4386-8011-c3471a978524","system_id":"levelo_inurba_marseille","lat":43.313291,"lon":5.396838,"is_reserved":false,"is_disabled":false,"rental_uris":{"android":"levelo://app?vid=ff62f17a-b33a-4386-8011-c3471a978524","ios":"levelo://app?vid=ff62f17a-b33a-4386-8011-c3471a978524"},"vehicle_type_id":"4","last_reported":1687475293,"current_range_meters":21600,"station_id":"ce4bgvp2rcd13ifvqcu0","pricing_plan_id":"free"},{"bike_id":"fed04270-d0d5-4055-818d-08b18666f7c4","system_id":"levelo_inurba_marseille","lat":43.309038,"lon":5.396546,"is_reserved":false,"is_disabled":false,"rental_uris":{"android":"levelo://app?vid=fed04270-d0d5-4055-818d-08b18666f7c4","ios":"levelo://app?vid=fed04270-d0d5-4055-818d-08b18666f7c4"},"vehicle_type_id":"4","last_reported":1687475293,"current_range_meters":25600,"station_id":"ce4bh012rcd13ifvqcv0","pricing_plan_id":"free"},{"bike_id":"1d082cc5-b66e-4a94-ba63-c95ea667242a","system_id":"levelo_inurba_marseille","lat":43.313291,"lon":5.396838,"is_reserved":false,"is_disabled":false,"rental_uris":{"android":"levelo://app?vid=1d082cc5-b66e-4a94-ba63-c95ea667242a","ios":"levelo://app?vid=1d082cc5-b66e-4a94-ba63-c95ea667242a"},"vehicle_type_id":"4","last_reported":1687475293,"current_range_meters":10400,"station_id":"ce4bgvp2rcd13ifvqcu0","pricing_plan_id":"free"},{"bike_id":"de4bd374-f226-46b0-8c8a-67c5a33cb7bf","system_id":"levelo_inurba_marseille","lat":43.309038,"lon":5.396546,"is_reserved":false,"is_disabled":false,"rental_uris":{"android":"levelo://app?vid=de4bd374-f226-46b0-8c8a-67c5a33cb7bf","ios":"levelo://app?vid=de4bd374-f226-46b0-8c8a-67c5a33cb7bf"},"vehicle_type_id":"4","last_reported":1687475293,"current_range_meters":6800,"station_id":"ce4bh012rcd13ifvqcv0","pricing_plan_id":"free"},{"bike_id":"f29a7205-f2cc-4d14-9e6e-ba20e6495f15","system_id":"levelo_inurba_marseille","lat":43.313291,"lon":5.396838,"is_reserved":false,"is_disabled":false,"rental_uris":{"android":"levelo://app?vid=f29a7205-f2cc-4d14-9e6e-ba20e6495f15","ios":"levelo://app?vid=f29a7205-f2cc-4d14-9e6e-ba20e6495f15"},"vehicle_type_id":"4","last_reported":1687475293,"current_range_meters":31200,"station_id":"ce4bgvp2rcd13ifvqcu0","pricing_plan_id":"free"},{"bike_id":"fc007bee-75e7-4563-897d-7b84c2c1a061","system_id":"levelo_inurba_marseille","lat":43.309038,"lon":5.396546,"is_reserved":false,"is_disabled":false,"rental_uris":{"android":"levelo://app?vid=fc007bee-75e7-4563-897d-7b84c2c1a061","ios":"levelo://app?vid=fc007bee-75e7-4563-897d-7b84c2c1a061"},"vehicle_type_id":"4","last_reported":1687475293,"current_range_meters":18400,"station_id":"ce4bh012rcd13ifvqcv0","pricing_plan_id":"free"},{"bike_id":"672d36c0-d4e3-4efc-a68c-2cc5fc515317","system_id":"levelo_inurba_marseille","lat":43.29534,"lon":5.38534,"is_reserved":false,"is_disabled":false,"rental_uris":{"android":"levelo://app?vid=672d36c0-d4e3-4efc-a68c-2cc5fc515317","ios":"levelo://app?vid=672d36c0-d4e3-4efc-a68c-2cc5fc515317"},"vehicle_type_id":"4","last_reported":1687475293,"current_range_meters":12000,"station_id":"ce4bgih2rcd13ifvqba0","pricing_plan_id":"free"},{"bike_id":"62c24ed2-21c9-492c-b2ba-b93c65396be8","system_id":"levelo_inurba_marseille","lat":43.29533,"lon":5.38558,"is_reserved":false,"is_disabled":false,"rental_uris":{"android":"levelo://app?vid=62c24ed2-21c9-492c-b2ba-b93c65396be8","ios":"levelo://app?vid=62c24ed2-21c9-492c-b2ba-b93c65396be8"},"vehicle_type_id":"4","last_reported":1687475293,"current_range_meters":8400,"station_id":"ce4bgih2rcd13ifvqba0","pricing_plan_id":"free"},{"bike_id":"7517e9c5-0f18-4a61-b792-a04f92ce79f2","system_id":"levelo_inurba_marseille","lat":43.290624,"lon":5.359245,"is_reserved":false,"is_disabled":false,"rental_uris":{"android":"levelo://app?vid=7517e9c5-0f18-4a61-b792-a04f92ce79f2","ios":"levelo://app?vid=7517e9c5-0f18-4a61-b792-a04f92ce79f2"},"vehicle_type_id":"4","last_reported":1687475293,"current_range_meters":27200,"station_id":"ce4bha92rcd13ifvqeg0","pricing_plan_id":"free"},{"bike_id":"3158ddf4-3c3f-494d-abb2-973f0d7678a9","system_id":"levelo_inurba_marseille","lat":43.290631,"lon":5.359244,"is_reserved":false,"is_disabled":false,"rental_uris":{"android":"levelo://app?vid=3158ddf4-3c3f-494d-abb2-973f0d7678a9","ios":"levelo://app?vid=3158ddf4-3c3f-494d-abb2-973f0d7678a9"},"vehicle_type_id":"4","last_reported":1687475293,"current_range_meters":22400,"station_id":"ce4bha92rcd13ifvqeg0","pricing_plan_id":"free"},{"bike_id":"ab010165-f7e9-4c63-bff5-2af05fac4cfa","system_id":"levelo_inurba_marseille","lat":43.29002,"lon":5.37211,"is_reserved":false,"is_disabled":false,"rental_uris":{"android":"levelo://app?vid=ab010165-f7e9-4c63-bff5-2af05fac4cfa","ios":"levelo://app?vid=ab010165-f7e9-4c63-bff5-2af05fac4cfa"},"vehicle_type_id":"4","last_reported":1687475293,"current_range_meters":29600,"station_id":"","pricing_plan_id":"free"},{"bike_id":"20b2702a-2cf1-439f-b7da-41f192fa1a0a","system_id":"levelo_inurba_marseille","lat":43.29411,"lon":5.38614,"is_reserved":false,"is_disabled":false,"rental_uris":{"android":"levelo://app?vid=20b2702a-2cf1-439f-b7da-41f192fa1a0a","ios":"levelo://app?vid=20b2702a-2cf1-439f-b7da-41f192fa1a0a"},"vehicle_type_id":"4","last_reported":1687475293,"current_range_meters":25200,"station_id":"","pricing_plan_id":"free"},{"bike_id":"af1c1646-164c-433f-adaf-3ccfd3bdf15c","system_id":"levelo_inurba_marseille","lat":43.294153,"lon":5.386305,"is_reserved":false,"is_disabled":false,"rental_uris":{"android":"levelo://app?vid=af1c1646-164c-433f-adaf-3ccfd3bdf15c","ios":"levelo://app?vid=af1c1646-164c-433f-adaf-3ccfd3bdf15c"},"vehicle_type_id":"4","last_reported":1687475293,"current_range_meters":400,"station_id":"ce4bh2h2rcd13ifvqdh0","pricing_plan_id":"free"},{"bike_id":"d0fe2bb4-f422-4a19-a261-4fd254ad3a7e","system_id":"levelo_inurba_marseille","lat":43.289184,"lon":5.366408,"is_reserved":false,"is_disabled":false,"rental_uris":{"android":"levelo://app?vid=d0fe2bb4-f422-4a19-a261-4fd254ad3a7e","ios":"levelo://app?vid=d0fe2bb4-f422-4a19-a261-4fd254ad3a7e"},"vehicle_type_id":"4","last_reported":1687475293,"current_range_meters":800,"station_id":"ce4bhap2rcd13ifvqek0","pricing_plan_id":"free"},{"bike_id":"da7d1859-f71c-4d2e-8be3-90e7d65749fd","system_id":"levelo_inurba_marseille","lat":43.28943,"lon":5.36402,"is_reserved":false,"is_disabled":false,"rental_uris":{"android":"levelo://app?vid=da7d1859-f71c-4d2e-8be3-90e7d65749fd","ios":"levelo://app?vid=da7d1859-f71c-4d2e-8be3-90e7d65749fd"},"vehicle_type_id":"4","last_reported":1687475293,"current_range_meters":17200,"station_id":"ce4bhc92rcd13ifvqetg","pricing_plan_id":"free"},{"bike_id":"d0628237-0096-4908-9abd-bb36854e2e2b","system_id":"levelo_inurba_marseille","lat":43.30428,"lon":5.39743,"is_reserved":false,"is_disabled":false,"rental_uris":{"android":"levelo://app?vid=d0628237-0096-4908-9abd-bb36854e2e2b","ios":"levelo://app?vid=d0628237-0096-4908-9abd-bb36854e2e2b"},"vehicle_type_id":"4","last_reported":1687475293,"current_range_meters":18400,"station_id":"ce4bh092rcd13ifvqd20","pricing_plan_id":"free"},{"bike_id":"11452744-44f1-4982-99e1-6af7302b890b","system_id":"levelo_inurba_marseille","lat":43.304274,"lon":5.397513,"is_reserved":false,"is_disabled":false,"rental_uris":{"android":"levelo://app?vid=11452744-44f1-4982-99e1-6af7302b890b","ios":"levelo://app?vid=11452744-44f1-4982-99e1-6af7302b890b"},"vehicle_type_id":"4","last_reported":1687475293,"current_range_meters":8800,"station_id":"ce4bh092rcd13ifvqd20","pricing_plan_id":"free"},{"bike_id":"85014f3c-72ed-4330-97d1-c24450407470","system_id":"levelo_inurba_marseille","lat":43.304296,"lon":5.397513,"is_reserved":false,"is_disabled":false,"rental_uris":{"android":"levelo://app?vid=85014f3c-72ed-4330-97d1-c24450407470","ios":"levelo://app?vid=85014f3c-72ed-4330-97d1-c24450407470"},"vehicle_type_id":"4","last_reported":1687475293,"current_range_meters":15600,"station_id":"ce4bh092rcd13ifvqd20","pricing_plan_id":"free"},{"bike_id":"e4f4d0dc-ede6-4dbb-9ce1-15ec8d5215f4","system_id":"levelo_inurba_marseille","lat":43.33044,"lon":5.38916,"is_reserved":false,"is_disabled":false,"rental_uris":{"android":"levelo://app?vid=e4f4d0dc-ede6-4dbb-9ce1-15ec8d5215f4","ios":"levelo://app?vid=e4f4d0dc-ede6-4dbb-9ce1-15ec8d5215f4"},"vehicle_type_id":"4","last_reported":1687475293,"current_range_meters":16800,"station_id":"ce4bhr92rcd13ifvqhrg","pricing_plan_id":"free"},{"bike_id":"dcbeae36-e893-4c53-834e-933ca5889d3f","system_id":"levelo_inurba_marseille","lat":43.33045,"lon":5.38915,"is_reserved":false,"is_disabled":false,"rental_uris":{"android":"levelo://app?vid=dcbeae36-e893-4c53-834e-933ca5889d3f","ios":"levelo://app?vid=dcbeae36-e893-4c53-834e-933ca5889d3f"},"vehicle_type_id":"4","last_reported":1687475293,"current_range_meters":5200,"station_id":"ce4bhr92rcd13ifvqhrg","pricing_plan_id":"free"},{"bike_id":"b8d8195b-96f3-4a90-ac56-fcb41dc7c3cb","system_id":"levelo_inurba_marseille","lat":43.33041,"lon":5.38923,"is_reserved":false,"is_disabled":false,"rental_uris":{"android":"levelo://app?vid=b8d8195b-96f3-4a90-ac56-fcb41dc7c3cb","ios":"levelo://app?vid=b8d8195b-96f3-4a90-ac56-fcb41dc7c3cb"},"vehicle_type_id":"4","last_reported":1687475293,"current_range_meters":6000,"station_id":"ce4bhr92rcd13ifvqhrg","pricing_plan_id":"free"},{"bike_id":"de4a6415-7cce-4656-89ac-d7d4eaa645b3","system_id":"levelo_inurba_marseille","lat":43.33045,"lon":5.38917,"is_reserved":false,"is_disabled":false,"rental_uris":{"android":"levelo://app?vid=de4a6415-7cce-4656-89ac-d7d4eaa645b3","ios":"levelo://app?vid=de4a6415-7cce-4656-89ac-d7d4eaa645b3"},"vehicle_type_id":"4","last_reported":1687475293,"current_range_meters":18000,"station_id":"ce4bhr92rcd13ifvqhrg","pricing_plan_id":"free"},{"bike_id":"ca8b6563-c141-4ca3-90d4-3e1b96c30af0","system_id":"levelo_inurba_marseille","lat":43.33043,"lon":5.38921,"is_reserved":false,"is_disabled":false,"rental_uris":{"android":"levelo://app?vid=ca8b6563-c141-4ca3-90d4-3e1b96c30af0","ios":"levelo://app?vid=ca8b6563-c141-4ca3-90d4-3e1b96c30af0"},"vehicle_type_id":"4","last_reported":1687475293,"current_range_meters":0,"station_id":"ce4bhr92rcd13ifvqhrg","pricing_plan_id":"free"},{"bike_id":"28c7dbbb-539c-4e0f-ae61-04dda52f6d09","system_id":"levelo_inurba_marseille","lat":43.33042,"lon":5.38927,"is_reserved":false,"is_disabled":false,"rental_uris":{"android":"levelo://app?vid=28c7dbbb-539c-4e0f-ae61-04dda52f6d09","ios":"levelo://app?vid=28c7dbbb-539c-4e0f-ae61-04dda52f6d09"},"vehicle_type_id":"4","last_reported":1687475293,"current_range_meters":24000,"station_id":"ce4bhr92rcd13ifvqhrg","pricing_plan_id":"free"},{"bike_id":"c73d2cc7-61ec-4fd2-a002-ffa050603a67","system_id":"levelo_inurba_marseille","lat":43.33045,"lon":5.38924,"is_reserved":false,"is_disabled":false,"rental_uris":{"android":"levelo://app?vid=c73d2cc7-61ec-4fd2-a002-ffa050603a67","ios":"levelo://app?vid=c73d2cc7-61ec-4fd2-a002-ffa050603a67"},"vehicle_type_id":"4","last_reported":1687475293,"current_range_meters":31200,"station_id":"ce4bhr92rcd13ifvqhrg","pricing_plan_id":"free"},{"bike_id":"77c556f0-3886-47f2-b6f8-e340d51922c7","system_id":"levelo_inurba_marseille","lat":43.297815,"lon":5.393548,"is_reserved":false,"is_disabled":false,"rental_uris":{"android":"levelo://app?vid=77c556f0-3886-47f2-b6f8-e340d51922c7","ios":"levelo://app?vid=77c556f0-3886-47f2-b6f8-e340d51922c7"},"vehicle_type_id":"4","last_reported":1687475293,"current_range_meters":18800,"station_id":"chh1huq6cuj3fo74tm60","pricing_plan_id":"free"},{"bike_id":"8f7c164b-bb50-446d-99d6-c94c448e1490","system_id":"levelo_inurba_marseille","lat":43.29788,"lon":5.39337,"is_reserved":false,"is_disabled":false,"rental_uris":{"android":"levelo://app?vid=8f7c164b-bb50-446d-99d6-c94c448e1490","ios":"levelo://app?vid=8f7c164b-bb50-446d-99d6-c94c448e1490"},"vehicle_type_id":"4","last_reported":1687475293,"current_range_meters":27600,"station_id":"chh1huq6cuj3fo74tm60","pricing_plan_id":"free"},{"bike_id":"ce112395-d14c-4e1d-8caa-4318211d1d07","system_id":"levelo_inurba_marseille","lat":43.28982,"lon":5.37828,"is_reserved":false,"is_disabled":false,"rental_uris":{"android":"levelo://app?vid=ce112395-d14c-4e1d-8caa-4318211d1d07","ios":"levelo://app?vid=ce112395-d14c-4e1d-8caa-4318211d1d07"},"vehicle_type_id":"4","last_reported":1687475293,"current_range_meters":0,"station_id":"ce4bh9p2rcd13ifvqed0","pricing_plan_id":"free"},{"bike_id":"4373f89d-7e65-447e-81c7-4de17209f376","system_id":"levelo_inurba_marseille","lat":43.295169,"lon":5.390426,"is_reserved":false,"is_disabled":false,"rental_uris":{"android":"levelo://app?vid=4373f89d-7e65-447e-81c7-4de17209f376","ios":"levelo://app?vid=4373f89d-7e65-447e-81c7-4de17209f376"},"vehicle_type_id":"4","last_reported":1687475293,"current_range_meters":6000,"station_id":"ce4bh3p2rcd13ifvqdp0","pricing_plan_id":"free"},{"bike_id":"9d591600-d295-4b1d-a6f3-393c3500faf3","system_id":"levelo_inurba_marseille","lat":43.295169,"lon":5.390426,"is_reserved":false,"is_disabled":false,"rental_uris":{"android":"levelo://app?vid=9d591600-d295-4b1d-a6f3-393c3500faf3","ios":"levelo://app?vid=9d591600-d295-4b1d-a6f3-393c3500faf3"},"vehicle_type_id":"4","last_reported":1687475293,"current_range_meters":0,"station_id":"ce4bh3p2rcd13ifvqdp0","pricing_plan_id":"free"},{"bike_id":"b0179114-b1e7-4534-86cc-371bce177065","system_id":"levelo_inurba_marseille","lat":43.2901,"lon":5.381269,"is_reserved":false,"is_disabled":false,"rental_uris":{"android":"levelo://app?vid=b0179114-b1e7-4534-86cc-371bce177065","ios":"levelo://app?vid=b0179114-b1e7-4534-86cc-371bce177065"},"vehicle_type_id":"4","last_reported":1687475293,"current_range_meters":2400,"station_id":"ce4bh4p2rcd13ifvqe1g","pricing_plan_id":"free"},{"bike_id":"2736c059-7c9d-460c-a94a-eb40796ada0a","system_id":"levelo_inurba_marseille","lat":43.29025,"lon":5.38136,"is_reserved":false,"is_disabled":false,"rental_uris":{"android":"levelo://app?vid=2736c059-7c9d-460c-a94a-eb40796ada0a","ios":"levelo://app?vid=2736c059-7c9d-460c-a94a-eb40796ada0a"},"vehicle_type_id":"4","last_reported":1687475293,"current_range_meters":31200,"station_id":"ce4bh4p2rcd13ifvqe1g","pricing_plan_id":"free"},{"bike_id":"0847460f-34e1-4a80-a18a-cad3dde97f6b","system_id":"levelo_inurba_marseille","lat":43.28854,"lon":5.3585,"is_reserved":false,"is_disabled":false,"rental_uris":{"android":"levelo://app?vid=0847460f-34e1-4a80-a18a-cad3dde97f6b","ios":"levelo://app?vid=0847460f-34e1-4a80-a18a-cad3dde97f6b"},"vehicle_type_id":"4","last_reported":1687475293,"current_range_meters":4400,"station_id":"ce4bhb12rcd13ifvqem0","pricing_plan_id":"free"},{"bike_id":"c57d22af-5a96-4ed4-8f7b-aa5c73ccd857","system_id":"levelo_inurba_marseille","lat":43.28856,"lon":5.358371,"is_reserved":false,"is_disabled":false,"rental_uris":{"android":"levelo://app?vid=c57d22af-5a96-4ed4-8f7b-aa5c73ccd857","ios":"levelo://app?vid=c57d22af-5a96-4ed4-8f7b-aa5c73ccd857"},"vehicle_type_id":"4","last_reported":1687475293,"current_range_meters":6800,"station_id":"ce4bhb12rcd13ifvqem0","pricing_plan_id":"free"},{"bike_id":"3f8a925a-6a54-4259-a38f-9cf091aab246","system_id":"levelo_inurba_marseille","lat":43.29266,"lon":5.38744,"is_reserved":false,"is_disabled":false,"rental_uris":{"android":"levelo://app?vid=3f8a925a-6a54-4259-a38f-9cf091aab246","ios":"levelo://app?vid=3f8a925a-6a54-4259-a38f-9cf091aab246"},"vehicle_type_id":"4","last_reported":1687475293,"current_range_meters":28000,"station_id":"","pricing_plan_id":"free"},{"bike_id":"e61b61d7-3668-435b-90ae-a2cade7b84eb","system_id":"levelo_inurba_marseille","lat":43.309371,"lon":5.401449,"is_reserved":false,"is_disabled":false,"rental_uris":{"android":"levelo://app?vid=e61b61d7-3668-435b-90ae-a2cade7b84eb","ios":"levelo://app?vid=e61b61d7-3668-435b-90ae-a2cade7b84eb"},"vehicle_type_id":"4","last_reported":1687475293,"current_range_meters":9200,"station_id":"ce4bgvp2rcd13ifvqct0","pricing_plan_id":"free"},{"bike_id":"1b953c1a-0b9a-4142-898f-5c84dfc10477","system_id":"levelo_inurba_marseille","lat":43.28856,"lon":5.358371,"is_reserved":false,"is_disabled":false,"rental_uris":{"android":"levelo://app?vid=1b953c1a-0b9a-4142-898f-5c84dfc10477","ios":"levelo://app?vid=1b953c1a-0b9a-4142-898f-5c84dfc10477"},"vehicle_type_id":"4","last_reported":1687475293,"current_range_meters":1600,"station_id":"ce4bhb12rcd13ifvqem0","pricing_plan_id":"free"},{"bike_id":"c0d04987-c474-4242-bc5e-f8ee1228f07f","system_id":"levelo_inurba_marseille","lat":43.309371,"lon":5.401449,"is_reserved":false,"is_disabled":false,"rental_uris":{"android":"levelo://app?vid=c0d04987-c474-4242-bc5e-f8ee1228f07f","ios":"levelo://app?vid=c0d04987-c474-4242-bc5e-f8ee1228f07f"},"vehicle_type_id":"4","last_reported":1687475293,"current_range_meters":800,"station_id":"ce4bgvp2rcd13ifvqct0","pricing_plan_id":"free"},{"bike_id":"a339dc85-f4be-42f7-94da-838d3c3c1703","system_id":"levelo_inurba_marseille","lat":43.309371,"lon":5.401449,"is_reserved":false,"is_disabled":false,"rental_uris":{"android":"levelo://app?vid=a339dc85-f4be-42f7-94da-838d3c3c1703","ios":"levelo://app?vid=a339dc85-f4be-42f7-94da-838d3c3c1703"},"vehicle_type_id":"4","last_reported":1687475293,"current_range_meters":28800,"station_id":"ce4bgvp2rcd13ifvqct0","pricing_plan_id":"free"},{"bike_id":"fc0738ad-f4d1-4d02-bf08-bfd0fcb3fe29","system_id":"levelo_inurba_marseille","lat":43.309371,"lon":5.401449,"is_reserved":false,"is_disabled":false,"rental_uris":{"android":"levelo://app?vid=fc0738ad-f4d1-4d02-bf08-bfd0fcb3fe29","ios":"levelo://app?vid=fc0738ad-f4d1-4d02-bf08-bfd0fcb3fe29"},"vehicle_type_id":"4","last_reported":1687475293,"current_range_meters":13200,"station_id":"ce4bgvp2rcd13ifvqct0","pricing_plan_id":"free"},{"bike_id":"8a870c11-ef3c-4a4d-aac6-d307f1955993","system_id":"levelo_inurba_marseille","lat":43.30366,"lon":5.39948,"is_reserved":false,"is_disabled":false,"rental_uris":{"android":"levelo://app?vid=8a870c11-ef3c-4a4d-aac6-d307f1955993","ios":"levelo://app?vid=8a870c11-ef3c-4a4d-aac6-d307f1955993"},"vehicle_type_id":"4","last_reported":1687475293,"current_range_meters":29200,"station_id":"","pricing_plan_id":"free"},{"bike_id":"d74474a7-d1ea-4940-94c7-db1e07163ef0","system_id":"levelo_inurba_marseille","lat":43.337482,"lon":5.374726,"is_reserved":false,"is_disabled":false,"rental_uris":{"android":"levelo://app?vid=d74474a7-d1ea-4940-94c7-db1e07163ef0","ios":"levelo://app?vid=d74474a7-d1ea-4940-94c7-db1e07163ef0"},"vehicle_type_id":"4","last_reported":1687475293,"current_range_meters":10800,"station_id":"","pricing_plan_id":"free"},{"bike_id":"c180ae38-f769-441f-8a55-5a6e4930e6ad","system_id":"levelo_inurba_marseille","lat":43.33755,"lon":5.37437,"is_reserved":false,"is_disabled":false,"rental_uris":{"android":"levelo://app?vid=c180ae38-f769-441f-8a55-5a6e4930e6ad","ios":"levelo://app?vid=c180ae38-f769-441f-8a55-5a6e4930e6ad"},"vehicle_type_id":"4","last_reported":1687475293,"current_range_meters":28000,"station_id":"","pricing_plan_id":"free"},{"bike_id":"71a50c1f-09f0-47f2-bd28-cfcd0711a6bd","system_id":"levelo_inurba_marseille","lat":43.33755,"lon":5.3745,"is_reserved":false,"is_disabled":false,"rental_uris":{"android":"levelo://app?vid=71a50c1f-09f0-47f2-bd28-cfcd0711a6bd","ios":"levelo://app?vid=71a50c1f-09f0-47f2-bd28-cfcd0711a6bd"},"vehicle_type_id":"4","last_reported":1687475293,"current_range_meters":29200,"station_id":"","pricing_plan_id":"free"},{"bike_id":"2cb5841e-cfd4-4329-9d4d-e35d1c08e5e2","system_id":"levelo_inurba_marseille","lat":43.33756,"lon":5.37447,"is_reserved":false,"is_disabled":false,"rental_uris":{"android":"levelo://app?vid=2cb5841e-cfd4-4329-9d4d-e35d1c08e5e2","ios":"levelo://app?vid=2cb5841e-cfd4-4329-9d4d-e35d1c08e5e2"},"vehicle_type_id":"4","last_reported":1687475293,"current_range_meters":27200,"station_id":"","pricing_plan_id":"free"},{"bike_id":"b0bd3bcb-bd35-4f75-8285-8f528f09b8d5","system_id":"levelo_inurba_marseille","lat":43.337575,"lon":5.374489,"is_reserved":false,"is_disabled":false,"rental_uris":{"android":"levelo://app?vid=b0bd3bcb-bd35-4f75-8285-8f528f09b8d5","ios":"levelo://app?vid=b0bd3bcb-bd35-4f75-8285-8f528f09b8d5"},"vehicle_type_id":"4","last_reported":1687475293,"current_range_meters":14400,"station_id":"","pricing_plan_id":"free"},{"bike_id":"c217c9eb-a7e6-45cb-9d78-dab7c27fed91","system_id":"levelo_inurba_marseille","lat":43.30642,"lon":5.401031,"is_reserved":false,"is_disabled":false,"rental_uris":{"android":"levelo://app?vid=c217c9eb-a7e6-45cb-9d78-dab7c27fed91","ios":"levelo://app?vid=c217c9eb-a7e6-45cb-9d78-dab7c27fed91"},"vehicle_type_id":"4","last_reported":1687475293,"current_range_meters":31200,"station_id":"ce4bh112rcd13ifvqda0","pricing_plan_id":"free"},{"bike_id":"23d867b1-db18-4b6c-b30f-abbc006f6c29","system_id":"levelo_inurba_marseille","lat":43.30639,"lon":5.40079,"is_reserved":false,"is_disabled":false,"rental_uris":{"android":"levelo://app?vid=23d867b1-db18-4b6c-b30f-abbc006f6c29","ios":"levelo://app?vid=23d867b1-db18-4b6c-b30f-abbc006f6c29"},"vehicle_type_id":"4","last_reported":1687475293,"current_range_meters":26400,"station_id":"ce4bh112rcd13ifvqda0","pricing_plan_id":"free"},{"bike_id":"273b9994-e164-4221-ab69-7a5534a15d8f","system_id":"levelo_inurba_marseille","lat":43.30641,"lon":5.40081,"is_reserved":false,"is_disabled":false,"rental_uris":{"android":"levelo://app?vid=273b9994-e164-4221-ab69-7a5534a15d8f","ios":"levelo://app?vid=273b9994-e164-4221-ab69-7a5534a15d8f"},"vehicle_type_id":"4","last_reported":1687475293,"current_range_meters":23600,"station_id":"ce4bh112rcd13ifvqda0","pricing_plan_id":"free"},{"bike_id":"e02cd65e-e1e7-48a9-a70f-9ef1b29dd797","system_id":"levelo_inurba_marseille","lat":43.30642,"lon":5.401031,"is_reserved":false,"is_disabled":false,"rental_uris":{"android":"levelo://app?vid=e02cd65e-e1e7-48a9-a70f-9ef1b29dd797","ios":"levelo://app?vid=e02cd65e-e1e7-48a9-a70f-9ef1b29dd797"},"vehicle_type_id":"4","last_reported":1687475293,"current_range_meters":31200,"station_id":"ce4bh112rcd13ifvqda0","pricing_plan_id":"free"},{"bike_id":"75beba07-c037-4bb5-9928-8bd8e3ccd825","system_id":"levelo_inurba_marseille","lat":43.30643,"lon":5.40089,"is_reserved":false,"is_disabled":false,"rental_uris":{"android":"levelo://app?vid=75beba07-c037-4bb5-9928-8bd8e3ccd825","ios":"levelo://app?vid=75beba07-c037-4bb5-9928-8bd8e3ccd825"},"vehicle_type_id":"4","last_reported":1687475293,"current_range_meters":19200,"station_id":"ce4bh112rcd13ifvqda0","pricing_plan_id":"free"},{"bike_id":"b6f3c2c9-ed59-4f47-9064-42e0f659e057","system_id":"levelo_inurba_marseille","lat":43.30646,"lon":5.40094,"is_reserved":false,"is_disabled":false,"rental_uris":{"android":"levelo://app?vid=b6f3c2c9-ed59-4f47-9064-42e0f659e057","ios":"levelo://app?vid=b6f3c2c9-ed59-4f47-9064-42e0f659e057"},"vehicle_type_id":"4","last_reported":1687475293,"current_range_meters":31200,"station_id":"ce4bh112rcd13ifvqda0","pricing_plan_id":"free"},{"bike_id":"98bb595b-e2be-42d5-9b4c-0d18527ce9ed","system_id":"levelo_inurba_marseille","lat":43.30642,"lon":5.401031,"is_reserved":false,"is_disabled":false,"rental_uris":{"android":"levelo://app?vid=98bb595b-e2be-42d5-9b4c-0d18527ce9ed","ios":"levelo://app?vid=98bb595b-e2be-42d5-9b4c-0d18527ce9ed"},"vehicle_type_id":"4","last_reported":1687475293,"current_range_meters":25600,"station_id":"ce4bh112rcd13ifvqda0","pricing_plan_id":"free"},{"bike_id":"20a23733-f9f7-4c56-9065-5296fb421e14","system_id":"levelo_inurba_marseille","lat":43.30633,"lon":5.40091,"is_reserved":false,"is_disabled":false,"rental_uris":{"android":"levelo://app?vid=20a23733-f9f7-4c56-9065-5296fb421e14","ios":"levelo://app?vid=20a23733-f9f7-4c56-9065-5296fb421e14"},"vehicle_type_id":"4","last_reported":1687475293,"current_range_meters":14000,"station_id":"ce4bh112rcd13ifvqda0","pricing_plan_id":"free"},{"bike_id":"d428134e-e411-4cb5-a146-9f35d506b00a","system_id":"levelo_inurba_marseille","lat":43.30642,"lon":5.401031,"is_reserved":false,"is_disabled":false,"rental_uris":{"android":"levelo://app?vid=d428134e-e411-4cb5-a146-9f35d506b00a","ios":"levelo://app?vid=d428134e-e411-4cb5-a146-9f35d506b00a"},"vehicle_type_id":"4","last_reported":1687475293,"current_range_meters":400,"station_id":"ce4bh112rcd13ifvqda0","pricing_plan_id":"free"},{"bike_id":"0f1dd5d4-0798-4f2d-bb93-f5da20e4483b","system_id":"levelo_inurba_marseille","lat":43.30642,"lon":5.401031,"is_reserved":false,"is_disabled":false,"rental_uris":{"android":"levelo://app?vid=0f1dd5d4-0798-4f2d-bb93-f5da20e4483b","ios":"levelo://app?vid=0f1dd5d4-0798-4f2d-bb93-f5da20e4483b"},"vehicle_type_id":"4","last_reported":1687475293,"current_range_meters":30800,"station_id":"ce4bh112rcd13ifvqda0","pricing_plan_id":"free"},{"bike_id":"602a1e40-a681-4353-9336-e1a097989c66","system_id":"levelo_inurba_marseille","lat":43.30642,"lon":5.401031,"is_reserved":false,"is_disabled":false,"rental_uris":{"android":"levelo://app?vid=602a1e40-a681-4353-9336-e1a097989c66","ios":"levelo://app?vid=602a1e40-a681-4353-9336-e1a097989c66"},"vehicle_type_id":"4","last_reported":1687475293,"current_range_meters":0,"station_id":"ce4bh112rcd13ifvqda0","pricing_plan_id":"free"},{"bike_id":"c5ead361-3c89-43e3-9508-2ca596aafcb8","system_id":"levelo_inurba_marseille","lat":43.3064,"lon":5.40098,"is_reserved":false,"is_disabled":false,"rental_uris":{"android":"levelo://app?vid=c5ead361-3c89-43e3-9508-2ca596aafcb8","ios":"levelo://app?vid=c5ead361-3c89-43e3-9508-2ca596aafcb8"},"vehicle_type_id":"4","last_reported":1687475293,"current_range_meters":29200,"station_id":"ce4bh112rcd13ifvqda0","pricing_plan_id":"free"},{"bike_id":"a462fe71-f0d8-4849-a95c-a322d9f8aa2b","system_id":"levelo_inurba_marseille","lat":43.309371,"lon":5.401449,"is_reserved":false,"is_disabled":false,"rental_uris":{"android":"levelo://app?vid=a462fe71-f0d8-4849-a95c-a322d9f8aa2b","ios":"levelo://app?vid=a462fe71-f0d8-4849-a95c-a322d9f8aa2b"},"vehicle_type_id":"4","last_reported":1687475293,"current_range_meters":2000,"station_id":"ce4bgvp2rcd13ifvqct0","pricing_plan_id":"free"},{"bike_id":"7df3376a-a47c-4484-a7c0-cb9799469218","system_id":"levelo_inurba_marseille","lat":43.30139,"lon":5.39858,"is_reserved":false,"is_disabled":false,"rental_uris":{"android":"levelo://app?vid=7df3376a-a47c-4484-a7c0-cb9799469218","ios":"levelo://app?vid=7df3376a-a47c-4484-a7c0-cb9799469218"},"vehicle_type_id":"4","last_reported":1687475293,"current_range_meters":25200,"station_id":"","pricing_plan_id":"free"},{"bike_id":"e178673e-cab5-47d8-ae54-41ca051511f4","system_id":"levelo_inurba_marseille","lat":43.30139,"lon":5.39862,"is_reserved":false,"is_disabled":false,"rental_uris":{"android":"levelo://app?vid=e178673e-cab5-47d8-ae54-41ca051511f4","ios":"levelo://app?vid=e178673e-cab5-47d8-ae54-41ca051511f4"},"vehicle_type_id":"4","last_reported":1687475293,"current_range_meters":25200,"station_id":"","pricing_plan_id":"free"},{"bike_id":"a221af4e-d740-4e5a-b083-bf981d27d508","system_id":"levelo_inurba_marseille","lat":43.30141,"lon":5.39864,"is_reserved":false,"is_disabled":false,"rental_uris":{"android":"levelo://app?vid=a221af4e-d740-4e5a-b083-bf981d27d508","ios":"levelo://app?vid=a221af4e-d740-4e5a-b083-bf981d27d508"},"vehicle_type_id":"4","last_reported":1687475293,"current_range_meters":0,"station_id":"","pricing_plan_id":"free"},{"bike_id":"c5dcd557-a14c-432c-9f27-4a4b96656dff","system_id":"levelo_inurba_marseille","lat":43.286961,"lon":5.373785,"is_reserved":false,"is_disabled":false,"rental_uris":{"android":"levelo://app?vid=c5dcd557-a14c-432c-9f27-4a4b96656dff","ios":"levelo://app?vid=c5dcd557-a14c-432c-9f27-4a4b96656dff"},"vehicle_type_id":"4","last_reported":1687475293,"current_range_meters":17200,"station_id":"ce4bh3p2rcd13ifvqdq0","pricing_plan_id":"free"},{"bike_id":"d9345d4a-3c78-47e2-9420-0f7a7aa654b5","system_id":"levelo_inurba_marseille","lat":43.298681,"lon":5.397225,"is_reserved":false,"is_disabled":false,"rental_uris":{"android":"levelo://app?vid=d9345d4a-3c78-47e2-9420-0f7a7aa654b5","ios":"levelo://app?vid=d9345d4a-3c78-47e2-9420-0f7a7aa654b5"},"vehicle_type_id":"4","last_reported":1687475293,"current_range_meters":17200,"station_id":"ce4bh0h2rcd13ifvqd50","pricing_plan_id":"free"},{"bike_id":"13ec62c4-c729-484f-9510-d4da321db750","system_id":"levelo_inurba_marseille","lat":43.29875,"lon":5.39732,"is_reserved":false,"is_disabled":false,"rental_uris":{"android":"levelo://app?vid=13ec62c4-c729-484f-9510-d4da321db750","ios":"levelo://app?vid=13ec62c4-c729-484f-9510-d4da321db750"},"vehicle_type_id":"4","last_reported":1687475293,"current_range_meters":7600,"station_id":"ce4bh0h2rcd13ifvqd50","pricing_plan_id":"free"},{"bike_id":"3c5b642c-c2c0-442c-9a55-541c8d3ebc47","system_id":"levelo_inurba_marseille","lat":43.298681,"lon":5.397225,"is_reserved":false,"is_disabled":false,"rental_uris":{"android":"levelo://app?vid=3c5b642c-c2c0-442c-9a55-541c8d3ebc47","ios":"levelo://app?vid=3c5b642c-c2c0-442c-9a55-541c8d3ebc47"},"vehicle_type_id":"4","last_reported":1687475293,"current_range_meters":4400,"station_id":"ce4bh0h2rcd13ifvqd50","pricing_plan_id":"free"},{"bike_id":"1551b5c4-e60b-4119-a95d-5210ae8ffc9a","system_id":"levelo_inurba_marseille","lat":43.29871,"lon":5.39731,"is_reserved":false,"is_disabled":false,"rental_uris":{"android":"levelo://app?vid=1551b5c4-e60b-4119-a95d-5210ae8ffc9a","ios":"levelo://app?vid=1551b5c4-e60b-4119-a95d-5210ae8ffc9a"},"vehicle_type_id":"4","last_reported":1687475293,"current_range_meters":27200,"station_id":"ce4bh0h2rcd13ifvqd50","pricing_plan_id":"free"},{"bike_id":"2df6c87c-a57c-4162-9d17-51a76f53ea20","system_id":"levelo_inurba_marseille","lat":43.286591,"lon":5.363346,"is_reserved":false,"is_disabled":false,"rental_uris":{"android":"levelo://app?vid=2df6c87c-a57c-4162-9d17-51a76f53ea20","ios":"levelo://app?vid=2df6c87c-a57c-4162-9d17-51a76f53ea20"},"vehicle_type_id":"4","last_reported":1687475293,"current_range_meters":7200,"station_id":"ce4bhah2rcd13ifvqej0","pricing_plan_id":"free"},{"bike_id":"45e19ec6-db52-46d4-a717-89e32ecdef5d","system_id":"levelo_inurba_marseille","lat":43.286591,"lon":5.363346,"is_reserved":false,"is_disabled":false,"rental_uris":{"android":"levelo://app?vid=45e19ec6-db52-46d4-a717-89e32ecdef5d","ios":"levelo://app?vid=45e19ec6-db52-46d4-a717-89e32ecdef5d"},"vehicle_type_id":"4","last_reported":1687475293,"current_range_meters":0,"station_id":"ce4bhah2rcd13ifvqej0","pricing_plan_id":"free"},{"bike_id":"31e9598f-f69a-4617-87d5-d189a3f05f95","system_id":"levelo_inurba_marseille","lat":43.286961,"lon":5.373785,"is_reserved":false,"is_disabled":false,"rental_uris":{"android":"levelo://app?vid=31e9598f-f69a-4617-87d5-d189a3f05f95","ios":"levelo://app?vid=31e9598f-f69a-4617-87d5-d189a3f05f95"},"vehicle_type_id":"4","last_reported":1687475293,"current_range_meters":11600,"station_id":"ce4bh3p2rcd13ifvqdq0","pricing_plan_id":"free"},{"bike_id":"da85598f-63d9-4cc2-998a-281fe01409a3","system_id":"levelo_inurba_marseille","lat":43.286591,"lon":5.363346,"is_reserved":false,"is_disabled":false,"rental_uris":{"android":"levelo://app?vid=da85598f-63d9-4cc2-998a-281fe01409a3","ios":"levelo://app?vid=da85598f-63d9-4cc2-998a-281fe01409a3"},"vehicle_type_id":"4","last_reported":1687475293,"current_range_meters":31600,"station_id":"ce4bhah2rcd13ifvqej0","pricing_plan_id":"free"},{"bike_id":"a21b181b-4bd2-44cc-87e5-eebe31cd7362","system_id":"levelo_inurba_marseille","lat":43.29867,"lon":5.39737,"is_reserved":false,"is_disabled":false,"rental_uris":{"android":"levelo://app?vid=a21b181b-4bd2-44cc-87e5-eebe31cd7362","ios":"levelo://app?vid=a21b181b-4bd2-44cc-87e5-eebe31cd7362"},"vehicle_type_id":"4","last_reported":1687475293,"current_range_meters":24000,"station_id":"ce4bh0h2rcd13ifvqd50","pricing_plan_id":"free"},{"bike_id":"73bb4652-6e61-4b3e-bd83-ee6f01647d93","system_id":"levelo_inurba_marseille","lat":43.286591,"lon":5.363346,"is_reserved":false,"is_disabled":false,"rental_uris":{"android":"levelo://app?vid=73bb4652-6e61-4b3e-bd83-ee6f01647d93","ios":"levelo://app?vid=73bb4652-6e61-4b3e-bd83-ee6f01647d93"},"vehicle_type_id":"4","last_reported":1687475293,"current_range_meters":31600,"station_id":"ce4bhah2rcd13ifvqej0","pricing_plan_id":"free"},{"bike_id":"93167702-ead4-4694-adb9-b8f8564a1406","system_id":"levelo_inurba_marseille","lat":43.286961,"lon":5.373785,"is_reserved":false,"is_disabled":false,"rental_uris":{"android":"levelo://app?vid=93167702-ead4-4694-adb9-b8f8564a1406","ios":"levelo://app?vid=93167702-ead4-4694-adb9-b8f8564a1406"},"vehicle_type_id":"4","last_reported":1687475293,"current_range_meters":22000,"station_id":"ce4bh3p2rcd13ifvqdq0","pricing_plan_id":"free"},{"bike_id":"cbaff3df-67a8-4c94-abcd-55e33effc1f4","system_id":"levelo_inurba_marseille","lat":43.295196,"lon":5.39397,"is_reserved":false,"is_disabled":false,"rental_uris":{"android":"levelo://app?vid=cbaff3df-67a8-4c94-abcd-55e33effc1f4","ios":"levelo://app?vid=cbaff3df-67a8-4c94-abcd-55e33effc1f4"},"vehicle_type_id":"4","last_reported":1687475293,"current_range_meters":0,"station_id":"ce4bh292rcd13ifvqdf0","pricing_plan_id":"free"},{"bike_id":"43bb8b9e-e938-4904-b03b-31e16dee6b35","system_id":"levelo_inurba_marseille","lat":43.295196,"lon":5.39397,"is_reserved":false,"is_disabled":false,"rental_uris":{"android":"levelo://app?vid=43bb8b9e-e938-4904-b03b-31e16dee6b35","ios":"levelo://app?vid=43bb8b9e-e938-4904-b03b-31e16dee6b35"},"vehicle_type_id":"4","last_reported":1687475293,"current_range_meters":29200,"station_id":"ce4bh292rcd13ifvqdf0","pricing_plan_id":"free"},{"bike_id":"12948a3e-24b1-41d4-b48b-81ff40caa019","system_id":"levelo_inurba_marseille","lat":43.302759,"lon":5.400793,"is_reserved":false,"is_disabled":false,"rental_uris":{"android":"levelo://app?vid=12948a3e-24b1-41d4-b48b-81ff40caa019","ios":"levelo://app?vid=12948a3e-24b1-41d4-b48b-81ff40caa019"},"vehicle_type_id":"4","last_reported":1687475293,"current_range_meters":4800,"station_id":"ce4bgvh2rcd13ifvqcs0","pricing_plan_id":"free"},{"bike_id":"31f2e443-b129-4c8b-86ac-1726888adeb4","system_id":"levelo_inurba_marseille","lat":43.302759,"lon":5.400793,"is_reserved":false,"is_disabled":false,"rental_uris":{"android":"levelo://app?vid=31f2e443-b129-4c8b-86ac-1726888adeb4","ios":"levelo://app?vid=31f2e443-b129-4c8b-86ac-1726888adeb4"},"vehicle_type_id":"4","last_reported":1687475293,"current_range_meters":16800,"station_id":"ce4bgvh2rcd13ifvqcs0","pricing_plan_id":"free"},{"bike_id":"edc01bbc-f998-4a22-a6f2-42d1a7664f8c","system_id":"levelo_inurba_marseille","lat":43.302759,"lon":5.400793,"is_reserved":false,"is_disabled":false,"rental_uris":{"android":"levelo://app?vid=edc01bbc-f998-4a22-a6f2-42d1a7664f8c","ios":"levelo://app?vid=edc01bbc-f998-4a22-a6f2-42d1a7664f8c"},"vehicle_type_id":"4","last_reported":1687475293,"current_range_meters":0,"station_id":"ce4bgvh2rcd13ifvqcs0","pricing_plan_id":"free"},{"bike_id":"7df25303-208d-43b6-890f-a7c598a6deb0","system_id":"levelo_inurba_marseille","lat":43.302759,"lon":5.400793,"is_reserved":false,"is_disabled":false,"rental_uris":{"android":"levelo://app?vid=7df25303-208d-43b6-890f-a7c598a6deb0","ios":"levelo://app?vid=7df25303-208d-43b6-890f-a7c598a6deb0"},"vehicle_type_id":"4","last_reported":1687475293,"current_range_meters":12800,"station_id":"ce4bgvh2rcd13ifvqcs0","pricing_plan_id":"free"},{"bike_id":"73280637-3a28-40aa-9df9-679df19e40e7","system_id":"levelo_inurba_marseille","lat":43.302759,"lon":5.400793,"is_reserved":false,"is_disabled":false,"rental_uris":{"android":"levelo://app?vid=73280637-3a28-40aa-9df9-679df19e40e7","ios":"levelo://app?vid=73280637-3a28-40aa-9df9-679df19e40e7"},"vehicle_type_id":"4","last_reported":1687475293,"current_range_meters":18000,"station_id":"ce4bgvh2rcd13ifvqcs0","pricing_plan_id":"free"},{"bike_id":"3cf44964-6f26-46d7-9bfa-d2bcfd36be4d","system_id":"levelo_inurba_marseille","lat":43.302759,"lon":5.400793,"is_reserved":false,"is_disabled":false,"rental_uris":{"android":"levelo://app?vid=3cf44964-6f26-46d7-9bfa-d2bcfd36be4d","ios":"levelo://app?vid=3cf44964-6f26-46d7-9bfa-d2bcfd36be4d"},"vehicle_type_id":"4","last_reported":1687475293,"current_range_meters":20800,"station_id":"ce4bgvh2rcd13ifvqcs0","pricing_plan_id":"free"},{"bike_id":"7a765f07-616a-40d2-82c0-b2db8b47499a","system_id":"levelo_inurba_marseille","lat":43.302759,"lon":5.400793,"is_reserved":false,"is_disabled":false,"rental_uris":{"android":"levelo://app?vid=7a765f07-616a-40d2-82c0-b2db8b47499a","ios":"levelo://app?vid=7a765f07-616a-40d2-82c0-b2db8b47499a"},"vehicle_type_id":"4","last_reported":1687475293,"current_range_meters":3200,"station_id":"ce4bgvh2rcd13ifvqcs0","pricing_plan_id":"free"},{"bike_id":"274e43fc-915f-4c72-b62d-a992bd65b2b3","system_id":"levelo_inurba_marseille","lat":43.28729,"lon":5.3793,"is_reserved":false,"is_disabled":false,"rental_uris":{"android":"levelo://app?vid=274e43fc-915f-4c72-b62d-a992bd65b2b3","ios":"levelo://app?vid=274e43fc-915f-4c72-b62d-a992bd65b2b3"},"vehicle_type_id":"4","last_reported":1687475293,"current_range_meters":14800,"station_id":"ce4bh9p2rcd13ifvqec0","pricing_plan_id":"free"},{"bike_id":"c2f137d9-9d1d-49c5-bf33-3d38d71c5f0d","system_id":"levelo_inurba_marseille","lat":43.287184,"lon":5.37937,"is_reserved":false,"is_disabled":false,"rental_uris":{"android":"levelo://app?vid=c2f137d9-9d1d-49c5-bf33-3d38d71c5f0d","ios":"levelo://app?vid=c2f137d9-9d1d-49c5-bf33-3d38d71c5f0d"},"vehicle_type_id":"4","last_reported":1687475293,"current_range_meters":31600,"station_id":"ce4bh9p2rcd13ifvqec0","pricing_plan_id":"free"},{"bike_id":"239acf20-2ad8-404b-889a-ac0ee664c145","system_id":"levelo_inurba_marseille","lat":43.28724,"lon":5.37935,"is_reserved":false,"is_disabled":false,"rental_uris":{"android":"levelo://app?vid=239acf20-2ad8-404b-889a-ac0ee664c145","ios":"levelo://app?vid=239acf20-2ad8-404b-889a-ac0ee664c145"},"vehicle_type_id":"4","last_reported":1687475293,"current_range_meters":12400,"station_id":"ce4bh9p2rcd13ifvqec0","pricing_plan_id":"free"},{"bike_id":"5fdfda69-2aef-4876-8a65-a7ef46e8424a","system_id":"levelo_inurba_marseille","lat":43.28719,"lon":5.37916,"is_reserved":false,"is_disabled":false,"rental_uris":{"android":"levelo://app?vid=5fdfda69-2aef-4876-8a65-a7ef46e8424a","ios":"levelo://app?vid=5fdfda69-2aef-4876-8a65-a7ef46e8424a"},"vehicle_type_id":"4","last_reported":1687475293,"current_range_meters":6000,"station_id":"ce4bh9p2rcd13ifvqec0","pricing_plan_id":"free"},{"bike_id":"6cfb998c-cd6e-4d12-9ad4-ae802e82e516","system_id":"levelo_inurba_marseille","lat":43.28723,"lon":5.37933,"is_reserved":false,"is_disabled":false,"rental_uris":{"android":"levelo://app?vid=6cfb998c-cd6e-4d12-9ad4-ae802e82e516","ios":"levelo://app?vid=6cfb998c-cd6e-4d12-9ad4-ae802e82e516"},"vehicle_type_id":"4","last_reported":1687475293,"current_range_meters":31200,"station_id":"ce4bh9p2rcd13ifvqec0","pricing_plan_id":"free"},{"bike_id":"dcb5ed0f-82dc-4efe-a185-388b65f17000","system_id":"levelo_inurba_marseille","lat":43.287166,"lon":5.379439,"is_reserved":false,"is_disabled":false,"rental_uris":{"android":"levelo://app?vid=dcb5ed0f-82dc-4efe-a185-388b65f17000","ios":"levelo://app?vid=dcb5ed0f-82dc-4efe-a185-388b65f17000"},"vehicle_type_id":"4","last_reported":1687475293,"current_range_meters":0,"station_id":"ce4bh9p2rcd13ifvqec0","pricing_plan_id":"free"},{"bike_id":"97f4c17a-6c89-4118-b250-93e3e4773159","system_id":"levelo_inurba_marseille","lat":43.28712,"lon":5.37939,"is_reserved":false,"is_disabled":false,"rental_uris":{"android":"levelo://app?vid=97f4c17a-6c89-4118-b250-93e3e4773159","ios":"levelo://app?vid=97f4c17a-6c89-4118-b250-93e3e4773159"},"vehicle_type_id":"4","last_reported":1687475293,"current_range_meters":31200,"station_id":"ce4bh9p2rcd13ifvqec0","pricing_plan_id":"free"},{"bike_id":"b120c4de-f134-4fb1-868a-1fd11e83da98","system_id":"levelo_inurba_marseille","lat":43.28711,"lon":5.37946,"is_reserved":false,"is_disabled":false,"rental_uris":{"android":"levelo://app?vid=b120c4de-f134-4fb1-868a-1fd11e83da98","ios":"levelo://app?vid=b120c4de-f134-4fb1-868a-1fd11e83da98"},"vehicle_type_id":"4","last_reported":1687475293,"current_range_meters":31200,"station_id":"ce4bh9p2rcd13ifvqec0","pricing_plan_id":"free"},{"bike_id":"1ea33cea-d921-409d-a75b-09bf39136e53","system_id":"levelo_inurba_marseille","lat":43.316491,"lon":5.404297,"is_reserved":false,"is_disabled":false,"rental_uris":{"android":"levelo://app?vid=1ea33cea-d921-409d-a75b-09bf39136e53","ios":"levelo://app?vid=1ea33cea-d921-409d-a75b-09bf39136e53"},"vehicle_type_id":"4","last_reported":1687475293,"current_range_meters":800,"station_id":"","pricing_plan_id":"free"},{"bike_id":"85a014c3-b744-41fb-836a-a96f782b522e","system_id":"levelo_inurba_marseille","lat":43.316517,"lon":5.404375,"is_reserved":false,"is_disabled":false,"rental_uris":{"android":"levelo://app?vid=85a014c3-b744-41fb-836a-a96f782b522e","ios":"levelo://app?vid=85a014c3-b744-41fb-836a-a96f782b522e"},"vehicle_type_id":"4","last_reported":1687475293,"current_range_meters":8800,"station_id":"ce4bh012rcd13ifvqd00","pricing_plan_id":"free"},{"bike_id":"c1eb0cd0-5cb4-49cf-85ad-4e7c55adc6f0","system_id":"levelo_inurba_marseille","lat":43.316517,"lon":5.404375,"is_reserved":false,"is_disabled":false,"rental_uris":{"android":"levelo://app?vid=c1eb0cd0-5cb4-49cf-85ad-4e7c55adc6f0","ios":"levelo://app?vid=c1eb0cd0-5cb4-49cf-85ad-4e7c55adc6f0"},"vehicle_type_id":"4","last_reported":1687475293,"current_range_meters":19600,"station_id":"ce4bh012rcd13ifvqd00","pricing_plan_id":"free"},{"bike_id":"afb714c6-88b9-4e4b-b1aa-e217e2648ed5","system_id":"levelo_inurba_marseille","lat":43.291994,"lon":5.392907,"is_reserved":false,"is_disabled":false,"rental_uris":{"android":"levelo://app?vid=afb714c6-88b9-4e4b-b1aa-e217e2648ed5","ios":"levelo://app?vid=afb714c6-88b9-4e4b-b1aa-e217e2648ed5"},"vehicle_type_id":"4","last_reported":1687475293,"current_range_meters":27600,"station_id":"ce4bh192rcd13ifvqdd0","pricing_plan_id":"free"},{"bike_id":"634bb430-bbdb-4950-8670-d000ef584d4d","system_id":"levelo_inurba_marseille","lat":43.291994,"lon":5.392907,"is_reserved":false,"is_disabled":false,"rental_uris":{"android":"levelo://app?vid=634bb430-bbdb-4950-8670-d000ef584d4d","ios":"levelo://app?vid=634bb430-bbdb-4950-8670-d000ef584d4d"},"vehicle_type_id":"4","last_reported":1687475293,"current_range_meters":4800,"station_id":"ce4bh192rcd13ifvqdd0","pricing_plan_id":"free"},{"bike_id":"f5370047-d6d5-4613-9be6-5470abda9dc7","system_id":"levelo_inurba_marseille","lat":43.291994,"lon":5.392907,"is_reserved":false,"is_disabled":false,"rental_uris":{"android":"levelo://app?vid=f5370047-d6d5-4613-9be6-5470abda9dc7","ios":"levelo://app?vid=f5370047-d6d5-4613-9be6-5470abda9dc7"},"vehicle_type_id":"4","last_reported":1687475293,"current_range_meters":3600,"station_id":"ce4bh192rcd13ifvqdd0","pricing_plan_id":"free"},{"bike_id":"fc61c98d-03b2-44bd-bdb7-e336a4fd51b0","system_id":"levelo_inurba_marseille","lat":43.31609,"lon":5.40547,"is_reserved":false,"is_disabled":false,"rental_uris":{"android":"levelo://app?vid=fc61c98d-03b2-44bd-bdb7-e336a4fd51b0","ios":"levelo://app?vid=fc61c98d-03b2-44bd-bdb7-e336a4fd51b0"},"vehicle_type_id":"4","last_reported":1687475293,"current_range_meters":16800,"station_id":"","pricing_plan_id":"free"},{"bike_id":"4fa407cc-91a4-4ee0-af80-aae4a50dd6af","system_id":"levelo_inurba_marseille","lat":43.291994,"lon":5.392907,"is_reserved":false,"is_disabled":false,"rental_uris":{"android":"levelo://app?vid=4fa407cc-91a4-4ee0-af80-aae4a50dd6af","ios":"levelo://app?vid=4fa407cc-91a4-4ee0-af80-aae4a50dd6af"},"vehicle_type_id":"4","last_reported":1687475293,"current_range_meters":24000,"station_id":"ce4bh192rcd13ifvqdd0","pricing_plan_id":"free"},{"bike_id":"16cbae29-173f-4650-8822-8d6679d0a5b6","system_id":"levelo_inurba_marseille","lat":43.284534,"lon":5.358662,"is_reserved":false,"is_disabled":false,"rental_uris":{"android":"levelo://app?vid=16cbae29-173f-4650-8822-8d6679d0a5b6","ios":"levelo://app?vid=16cbae29-173f-4650-8822-8d6679d0a5b6"},"vehicle_type_id":"4","last_reported":1687475293,"current_range_meters":16000,"station_id":"ce4bhah2rcd13ifvqei0","pricing_plan_id":"free"},{"bike_id":"c0aeba58-5d7a-4d05-8ad1-2dd419442e2a","system_id":"levelo_inurba_marseille","lat":43.28461,"lon":5.3588,"is_reserved":false,"is_disabled":false,"rental_uris":{"android":"levelo://app?vid=c0aeba58-5d7a-4d05-8ad1-2dd419442e2a","ios":"levelo://app?vid=c0aeba58-5d7a-4d05-8ad1-2dd419442e2a"},"vehicle_type_id":"4","last_reported":1687475293,"current_range_meters":22000,"station_id":"ce4bhah2rcd13ifvqei0","pricing_plan_id":"free"},{"bike_id":"13c8fd16-df5f-414f-99b4-3ace9681864a","system_id":"levelo_inurba_marseille","lat":43.284534,"lon":5.358662,"is_reserved":false,"is_disabled":false,"rental_uris":{"android":"levelo://app?vid=13c8fd16-df5f-414f-99b4-3ace9681864a","ios":"levelo://app?vid=13c8fd16-df5f-414f-99b4-3ace9681864a"},"vehicle_type_id":"4","last_reported":1687475293,"current_range_meters":30000,"station_id":"ce4bhah2rcd13ifvqei0","pricing_plan_id":"free"},{"bike_id":"d1969601-1e7e-4526-b10a-962307664840","system_id":"levelo_inurba_marseille","lat":43.284534,"lon":5.358662,"is_reserved":false,"is_disabled":false,"rental_uris":{"android":"levelo://app?vid=d1969601-1e7e-4526-b10a-962307664840","ios":"levelo://app?vid=d1969601-1e7e-4526-b10a-962307664840"},"vehicle_type_id":"4","last_reported":1687475293,"current_range_meters":3200,"station_id":"ce4bhah2rcd13ifvqei0","pricing_plan_id":"free"},{"bike_id":"ff855525-99a6-45a6-b3ca-9bdcd985404e","system_id":"levelo_inurba_marseille","lat":43.284534,"lon":5.358662,"is_reserved":false,"is_disabled":false,"rental_uris":{"android":"levelo://app?vid=ff855525-99a6-45a6-b3ca-9bdcd985404e","ios":"levelo://app?vid=ff855525-99a6-45a6-b3ca-9bdcd985404e"},"vehicle_type_id":"4","last_reported":1687475293,"current_range_meters":13600,"station_id":"ce4bhah2rcd13ifvqei0","pricing_plan_id":"free"},{"bike_id":"e05267a6-bb92-4ea4-86b9-a9861c66e848","system_id":"levelo_inurba_marseille","lat":43.283998,"lon":5.375062,"is_reserved":false,"is_disabled":false,"rental_uris":{"android":"levelo://app?vid=e05267a6-bb92-4ea4-86b9-a9861c66e848","ios":"levelo://app?vid=e05267a6-bb92-4ea4-86b9-a9861c66e848"},"vehicle_type_id":"4","last_reported":1687475293,"current_range_meters":31600,"station_id":"ce4bh412rcd13ifvqds0","pricing_plan_id":"free"},{"bike_id":"e4993b89-4c0b-43f7-9ae4-8006b26fdeca","system_id":"levelo_inurba_marseille","lat":43.28413,"lon":5.37512,"is_reserved":false,"is_disabled":false,"rental_uris":{"android":"levelo://app?vid=e4993b89-4c0b-43f7-9ae4-8006b26fdeca","ios":"levelo://app?vid=e4993b89-4c0b-43f7-9ae4-8006b26fdeca"},"vehicle_type_id":"4","last_reported":1687475293,"current_range_meters":28000,"station_id":"ce4bh412rcd13ifvqds0","pricing_plan_id":"free"},{"bike_id":"59091ee3-aa0c-4822-a238-fc9d0727bf15","system_id":"levelo_inurba_marseille","lat":43.284111,"lon":5.375023,"is_reserved":false,"is_disabled":false,"rental_uris":{"android":"levelo://app?vid=59091ee3-aa0c-4822-a238-fc9d0727bf15","ios":"levelo://app?vid=59091ee3-aa0c-4822-a238-fc9d0727bf15"},"vehicle_type_id":"4","last_reported":1687475293,"current_range_meters":16800,"station_id":"ce4bh412rcd13ifvqds0","pricing_plan_id":"free"},{"bike_id":"0f42e51f-22da-4632-9a93-c9ca4c3f4fea","system_id":"levelo_inurba_marseille","lat":43.29573,"lon":5.39962,"is_reserved":false,"is_disabled":false,"rental_uris":{"android":"levelo://app?vid=0f42e51f-22da-4632-9a93-c9ca4c3f4fea","ios":"levelo://app?vid=0f42e51f-22da-4632-9a93-c9ca4c3f4fea"},"vehicle_type_id":"4","last_reported":1687475293,"current_range_meters":13600,"station_id":"ce4bh312rcd13ifvqdj0","pricing_plan_id":"free"},{"bike_id":"57a401c5-9b59-4377-a39c-ba1a9fd163b7","system_id":"levelo_inurba_marseille","lat":43.283998,"lon":5.375062,"is_reserved":false,"is_disabled":false,"rental_uris":{"android":"levelo://app?vid=57a401c5-9b59-4377-a39c-ba1a9fd163b7","ios":"levelo://app?vid=57a401c5-9b59-4377-a39c-ba1a9fd163b7"},"vehicle_type_id":"4","last_reported":1687475293,"current_range_meters":29200,"station_id":"ce4bh412rcd13ifvqds0","pricing_plan_id":"free"},{"bike_id":"b725a0d0-669b-4c14-95a8-e987b107dbaf","system_id":"levelo_inurba_marseille","lat":43.283998,"lon":5.375062,"is_reserved":false,"is_disabled":false,"rental_uris":{"android":"levelo://app?vid=b725a0d0-669b-4c14-95a8-e987b107dbaf","ios":"levelo://app?vid=b725a0d0-669b-4c14-95a8-e987b107dbaf"},"vehicle_type_id":"4","last_reported":1687475293,"current_range_meters":9200,"station_id":"ce4bh412rcd13ifvqds0","pricing_plan_id":"free"},{"bike_id":"84fcc51a-a55c-4699-929f-87529919b4fc","system_id":"levelo_inurba_marseille","lat":43.29569,"lon":5.39969,"is_reserved":false,"is_disabled":false,"rental_uris":{"android":"levelo://app?vid=84fcc51a-a55c-4699-929f-87529919b4fc","ios":"levelo://app?vid=84fcc51a-a55c-4699-929f-87529919b4fc"},"vehicle_type_id":"4","last_reported":1687475293,"current_range_meters":31200,"station_id":"ce4bh312rcd13ifvqdj0","pricing_plan_id":"free"},{"bike_id":"83f08372-be6f-4f99-bd98-5dc40f34a28d","system_id":"levelo_inurba_marseille","lat":43.2957,"lon":5.3997,"is_reserved":false,"is_disabled":false,"rental_uris":{"android":"levelo://app?vid=83f08372-be6f-4f99-bd98-5dc40f34a28d","ios":"levelo://app?vid=83f08372-be6f-4f99-bd98-5dc40f34a28d"},"vehicle_type_id":"4","last_reported":1687475293,"current_range_meters":24800,"station_id":"ce4bh312rcd13ifvqdj0","pricing_plan_id":"free"},{"bike_id":"2a8f9bb9-9535-4a38-a3a5-56bb52a6bdf7","system_id":"levelo_inurba_marseille","lat":43.295713,"lon":5.399639,"is_reserved":false,"is_disabled":false,"rental_uris":{"android":"levelo://app?vid=2a8f9bb9-9535-4a38-a3a5-56bb52a6bdf7","ios":"levelo://app?vid=2a8f9bb9-9535-4a38-a3a5-56bb52a6bdf7"},"vehicle_type_id":"4","last_reported":1687475293,"current_range_meters":28400,"station_id":"ce4bh312rcd13ifvqdj0","pricing_plan_id":"free"},{"bike_id":"5cbfaa32-4321-4077-bf5f-e78fefeac317","system_id":"levelo_inurba_marseille","lat":43.295713,"lon":5.399639,"is_reserved":false,"is_disabled":false,"rental_uris":{"android":"levelo://app?vid=5cbfaa32-4321-4077-bf5f-e78fefeac317","ios":"levelo://app?vid=5cbfaa32-4321-4077-bf5f-e78fefeac317"},"vehicle_type_id":"4","last_reported":1687475293,"current_range_meters":10000,"station_id":"ce4bh312rcd13ifvqdj0","pricing_plan_id":"free"},{"bike_id":"90f92172-0691-4e8f-9ddf-3bacf091d35e","system_id":"levelo_inurba_marseille","lat":43.28683,"lon":5.38675,"is_reserved":false,"is_disabled":false,"rental_uris":{"android":"levelo://app?vid=90f92172-0691-4e8f-9ddf-3bacf091d35e","ios":"levelo://app?vid=90f92172-0691-4e8f-9ddf-3bacf091d35e"},"vehicle_type_id":"4","last_reported":1687475293,"current_range_meters":22000,"station_id":"ce4bh492rcd13ifvqdug","pricing_plan_id":"free"},{"bike_id":"f6fda2f2-04f1-4377-bae3-2fc212d95c47","system_id":"levelo_inurba_marseille","lat":43.34236,"lon":5.36177,"is_reserved":false,"is_disabled":false,"rental_uris":{"android":"levelo://app?vid=f6fda2f2-04f1-4377-bae3-2fc212d95c47","ios":"levelo://app?vid=f6fda2f2-04f1-4377-bae3-2fc212d95c47"},"vehicle_type_id":"4","last_reported":1687475293,"current_range_meters":0,"station_id":"","pricing_plan_id":"free"},{"bike_id":"083d8e28-f23e-428b-ab09-501c94206681","system_id":"levelo_inurba_marseille","lat":43.288497,"lon":5.393089,"is_reserved":false,"is_disabled":false,"rental_uris":{"android":"levelo://app?vid=083d8e28-f23e-428b-ab09-501c94206681","ios":"levelo://app?vid=083d8e28-f23e-428b-ab09-501c94206681"},"vehicle_type_id":"4","last_reported":1687475293,"current_range_meters":20400,"station_id":"ce4bh2p2rcd13ifvqdi0","pricing_plan_id":"free"},