{"last_updated":1757736688,"ttl":60,"version":"2.2","data":{"bikes":[{"bike_id":"be991777-0a36-436a-9880-deda5bbd9572","system_id":"levelo_inurba_marseille","lat":43.280916,"lon":5.407078,"is_reserved":false,"is_disabled":false,"rental_uris":{"android":"levelo://app?vid=be991777-0a36-436a-9880-deda5bbd9572","ios":"levelo://app?vid=be991777-0a36-436a-9880-deda5bbd9572"},"vehicle_type_id":"4","last_reported":1757736688,"current_range_meters":2800,"station_id":"","pricing_plan_id":"cebpf4jnsgd1na2vs0mg"},{"bike_id":"a49f8417-fbc6-465e-abad-641886df4095","system_id":"levelo_inurba_marseille","lat":43.29536,"lon":5.38546,"is_reserved":false,"is_disabled":true,"rental_uris":{"android":"levelo://app?vid=a49f8417-fbc6-465e-abad-641886df4095","ios":"levelo://app?vid=a49f8417-fbc6-465e-abad-641886df4095"},"vehicle_type_id":"4","last_reported":1757736688,"current_range_meters":3200,"station_id":"ce4bgih2rcd13ifvqba0","pricing_plan_id":"cebpf4jnsgd1na2vs0mg"},{"bike_id":"7f34d3be-70f7-4af0-9578-addff9a1a7c4","system_id":"levelo_inurba_marseille","lat":43.26854,"lon":5.40666,"is_reserved":false,"is_disabled":true,"rental_uris":{"android":"levelo://app?vid=7f34d3be-70f7-4af0-9578-addff9a1a7c4","ios":"levelo://app?vid=7f34d3be-70f7-4af0-9578-addff9a1a7c4"},"vehicle_type_id":"4","last_reported":1757736688,"current_range_meters":3200,"station_id":"","pricing_plan_id":"cebpf4jnsgd1na2vs0mg"},{"bike_id":"9c3a2073-bc98-42a1-a691-0a7b7be57bf8","system_id":"levelo_inurba_marseille","lat":43.29524,"lon":5.36377,"is_reserved":false,"is_disabled":false,"rental_uris":{"android":"levelo://app?vid=9c3a2073-bc98-42a1-a691-0a7b7be57bf8","ios":"levelo://app?vid=9c3a2073-bc98-42a1-a691-0a7b7be57bf8"},"vehicle_type_id":"4","last_reported":1757736688,"current_range_meters":3200,"station_id":"","pricing_plan_id":"cebpf4jnsgd1na2vs0mg"},{"bike_id":"42a5bc1e-233e-4d1d-8156-ea908421be63","system_id":"levelo_inurba_marseille","lat":43.24074,"lon":5.37761,"is_reserved":false,"is_disabled":false,"rental_uris":{"android":"levelo://app?vid=42a5bc1e-233e-4d1d-8156-ea908421be63","ios":"levelo://app?vid=42a5bc1e-233e-4d1d-8156-ea908421be63"},"vehicle_type_id":"4","last_reported":1757736688,"current_range_meters":3600,"station_id":"ce4bhnp2rcd13ifvqgvg","pricing_plan_id":"cebpf4jnsgd1na2vs0mg"},{"bike_id":"c5c5955e-98bd-435e-a3f0-077a3ad783d0","system_id":"levelo_inurba_marseille","lat":43.289158,"lon":5.431148,"is_reserved":false,"is_disabled":false,"rental_uris":{"android":"levelo://app?vid=c5c5955e-98bd-435e-a3f0-077a3ad783d0","ios":"levelo://app?vid=c5c5955e-98bd-435e-a3f0-077a3ad783d0"},"vehicle_type_id":"4","last_reported":1757736688,"current_range_meters":3600,"station_id":"","pricing_plan_id":"cebpf4jnsgd1na2vs0mg"},{"bike_id":"48a90c14-527c-4a59-ad05-f9c4148de807","system_id":"levelo_inurba_marseille","lat":43.23155,"lon":5.43697,"is_reserved":false,"is_disabled":false,"rental_uris":{"android":"levelo://app?vid=48a90c14-527c-4a59-ad05-f9c4148de807","ios":"levelo://app?vid=48a90c14-527c-4a59-ad05-f9c4148de807"},"vehicle_type_id":"4","last_reported":1757736688,"current_range_meters":3600,"station_id":"ce4bhmp2rcd13ifvqgog","pricing_plan_id":"cebpf4jnsgd1na2vs0mg"},{"bike_id":"c14ddda8-05f2-4275-9b78-7f7a5455b6b9","system_id":"levelo_inurba_marseille","lat":43.308238,"lon":5.373819,"is_reserved":false,"is_disabled":false,"rental_uris":{"android":"levelo://app?vid=c14ddda8-05f2-4275-9b78-7f7a5455b6b9","ios":"levelo://app?vid=c14ddda8-05f2-4275-9b78-7f7a5455b6b9"},"vehicle_type_id":"4","last_reported":1757736688,"current_range_meters":4000,"station_id":"","pricing_plan_id":"cebpf4jnsgd1na2vs0mg"},{"bike_id":"2f90fbdf-e2db-444f-928b-42e117670f18","system_id":"levelo_inurba_marseille","lat":43.337608,"lon":5.374358,"is_reserved":false,"is_disabled":false,"rental_uris":{"android":"levelo://app?vid=2f90fbdf-e2db-444f-928b-42e117670f18","ios":"levelo://app?vid=2f90fbdf-e2db-444f-928b-42e117670f18"},"vehicle_type_id":"4","last_reported":1757736688,"current_range_meters":4000,"station_id":"","pricing_plan_id":"cebpf4jnsgd1na2vs0mg"},{"bike_id":"6627b7c8-d245-498c-97ae-1bca49ecd6d9","system_id":"levelo_inurba_marseille","lat":43.32078,"lon":5.44776,"is_reserved":false,"is_disabled":false,"rental_uris":{"android":"levelo://app?vid=6627b7c8-d245-498c-97ae-1bca49ecd6d9","ios":"levelo://app?vid=6627b7c8-d245-498c-97ae-1bca49ecd6d9"},"vehicle_type_id":"4","last_reported":1757736688,"current_range_meters":4000,"station_id":"","pricing_plan_id":"cebpf4jnsgd1na2vs0mg"},{"bike_id":"7ca9c8c0-0ba1-46c1-82d7-00280a54cffe","system_id":"levelo_inurba_marseille","lat":43.3047,"lon":5.37491,"is_reserved":false,"is_disabled":false,"rental_uris":{"android":"levelo://app?vid=7ca9c8c0-0ba1-46c1-82d7-00280a54cffe","ios":"levelo://app?vid=7ca9c8c0-0ba1-46c1-82d7-00280a54cffe"},"vehicle_type_id":"4","last_reported":1757736688,"current_range_meters":4000,"station_id":"","pricing_plan_id":"cebpf4jnsgd1na2vs0mg"},{"bike_id":"97514a44-1f4d-4ae1-a270-04ca7b75c621","system_id":"levelo_inurba_marseille","lat":43.28869,"lon":5.42523,"is_reserved":false,"is_disabled":false,"rental_uris":{"android":"levelo://app?vid=97514a44-1f4d-4ae1-a270-04ca7b75c621","ios":"levelo://app?vid=97514a44-1f4d-4ae1-a270-04ca7b75c621"},"vehicle_type_id":"4","last_reported":1757736688,"current_range_meters":4400,"station_id":"","pricing_plan_id":"cebpf4jnsgd1na2vs0mg"},{"bike_id":"9ef26e0c-6f01-4b10-90fe-cec11146e852","system_id":"levelo_inurba_marseille","lat":43.31033,"lon":5.37306,"is_reserved":false,"is_disabled":false,"rental_uris":{"android":"levelo://app?vid=9ef26e0c-6f01-4b10-90fe-cec11146e852","ios":"levelo://app?vid=9ef26e0c-6f01-4b10-90fe-cec11146e852"},"vehicle_type_id":"4","last_reported":1757736688,"current_range_meters":5600,"station_id":"","pricing_plan_id":"cebpf4jnsgd1na2vs0mg"},{"bike_id":"4eb5c5d5-7495-4cf9-9a52-96bdbb0247cf","system_id":"levelo_inurba_marseille","lat":43.24646,"lon":5.38887,"is_reserved":false,"is_disabled":false,"rental_uris":{"android":"levelo://app?vid=4eb5c5d5-7495-4cf9-9a52-96bdbb0247cf","ios":"levelo://app?vid=4eb5c5d5-7495-4cf9-9a52-96bdbb0247cf"},"vehicle_type_id":"4","last_reported":1757736688,"current_range_meters":5600,"station_id":"ce4bhg12rcd13ifvqf60","pricing_plan_id":"cebpf4jnsgd1na2vs0mg"},{"bike_id":"9d78e28e-45b1-4ff9-b6a3-05c3507831af","system_id":"levelo_inurba_marseille","lat":43.30623,"lon":5.36636,"is_reserved":false,"is_disabled":false,"rental_uris":{"android":"levelo://app?vid=9d78e28e-45b1-4ff9-b6a3-05c3507831af","ios":"levelo://app?vid=9d78e28e-45b1-4ff9-b6a3-05c3507831af"},"vehicle_type_id":"4","last_reported":1757736688,"current_range_meters":5600,"station_id":"","pricing_plan_id":"cebpf4jnsgd1na2vs0mg"},{"bike_id":"156d00f8-389c-42d2-b8f1-ec13ca69d7b1","system_id":"levelo_inurba_marseille","lat":43.30299,"lon":5.39197,"is_reserved":false,"is_disabled":true,"rental_uris":{"android":"levelo://app?vid=156d00f8-389c-42d2-b8f1-ec13ca69d7b1","ios":"levelo://app?vid=156d00f8-389c-42d2-b8f1-ec13ca69d7b1"},"vehicle_type_id":"4","last_reported":1757736688,"current_range_meters":5600,"station_id":"ce4bgkh2rcd13ifvqbk0","pricing_plan_id":"cebpf4jnsgd1na2vs0mg"},{"bike_id":"c6c9a0bb-6644-4f89-b41f-e866fd60f4c2","system_id":"levelo_inurba_marseille","lat":43.291963,"lon":5.393134,"is_reserved":false,"is_disabled":false,"rental_uris":{"android":"levelo://app?vid=c6c9a0bb-6644-4f89-b41f-e866fd60f4c2","ios":"levelo://app?vid=c6c9a0bb-6644-4f89-b41f-e866fd60f4c2"},"vehicle_type_id":"4","last_reported":1757736688,"current_range_meters":5600,"station_id":"ce4bh192rcd13ifvqdd0","pricing_plan_id":"cebpf4jnsgd1na2vs0mg"},{"bike_id":"f54274c6-0ecd-4812-8a10-f08e5e6a9621","system_id":"levelo_inurba_marseille","lat":43.28841,"lon":5.42511,"is_reserved":false,"is_disabled":false,"rental_uris":{"android":"levelo://app?vid=f54274c6-0ecd-4812-8a10-f08e5e6a9621","ios":"levelo://app?vid=f54274c6-0ecd-4812-8a10-f08e5e6a9621"},"vehicle_type_id":"4","last_reported":1757736688,"current_range_meters":6400,"station_id":"","pricing_plan_id":"cebpf4jnsgd1na2vs0mg"},{"bike_id":"85bd5459-5b3c-423c-90a5-65977c644259","system_id":"levelo_inurba_marseille","lat":43.22541,"lon":5.34807,"is_reserved":false,"is_disabled":true,"rental_uris":{"android":"levelo://app?vid=85bd5459-5b3c-423c-90a5-65977c644259","ios":"levelo://app?vid=85bd5459-5b3c-423c-90a5-65977c644259"},"vehicle_type_id":"4","last_reported":1757736688,"current_range_meters":6400,"station_id":"","pricing_plan_id":"cebpf4jnsgd1na2vs0mg"},{"bike_id":"b1437793-3934-4de5-bf02-414eae0e69c3","system_id":"levelo_inurba_marseille","lat":43.31119,"lon":5.37768,"is_reserved":false,"is_disabled":false,"rental_uris":{"android":"levelo://app?vid=b1437793-3934-4de5-bf02-414eae0e69c3","ios":"levelo://app?vid=b1437793-3934-4de5-bf02-414eae0e69c3"},"vehicle_type_id":"4","last_reported":1757736688,"current_range_meters":6400,"station_id":"ce4bgt92rcd13ifvqcg0","pricing_plan_id":"cebpf4jnsgd1na2vs0mg"},{"bike_id":"ca6d52f9-f537-4238-b982-81aca0a31600","system_id":"levelo_inurba_marseille","lat":43.30203,"lon":5.4539,"is_reserved":false,"is_disabled":false,"rental_uris":{"android":"levelo://app?vid=ca6d52f9-f537-4238-b982-81aca0a31600","ios":"levelo://app?vid=ca6d52f9-f537-4238-b982-81aca0a31600"},"vehicle_type_id":"4","last_reported":1757736688,"current_range_meters":6400,"station_id":"","pricing_plan_id":"cebpf4jnsgd1na2vs0mg"},{"bike_id":"9f12ee84-2583-459d-9326-b86b3d47bd92","system_id":"levelo_inurba_marseille","lat":43.30865,"lon":5.3965,"is_reserved":false,"is_disabled":false,"rental_uris":{"android":"levelo://app?vid=9f12ee84-2583-459d-9326-b86b3d47bd92","ios":"levelo://app?vid=9f12ee84-2583-459d-9326-b86b3d47bd92"},"vehicle_type_id":"4","last_reported":1757736688,"current_range_meters":6800,"station_id":"ce4bh012rcd13ifvqcv0","pricing_plan_id":"cebpf4jnsgd1na2vs0mg"},{"bike_id":"8e823669-a05c-4f14-a05f-6373bb94f16b","system_id":"levelo_inurba_marseille","lat":43.307288,"lon":5.372792,"is_reserved":false,"is_disabled":false,"rental_uris":{"android":"levelo://app?vid=8e823669-a05c-4f14-a05f-6373bb94f16b","ios":"levelo://app?vid=8e823669-a05c-4f14-a05f-6373bb94f16b"},"vehicle_type_id":"4","last_reported":1757736688,"current_range_meters":6800,"station_id":"","pricing_plan_id":"cebpf4jnsgd1na2vs0mg"},{"bike_id":"25b06ca6-59f6-4cab-9a2f-ece142030779","system_id":"levelo_inurba_marseille","lat":43.25076,"lon":5.39502,"is_reserved":false,"is_disabled":false,"rental_uris":{"android":"levelo://app?vid=25b06ca6-59f6-4cab-9a2f-ece142030779","ios":"levelo://app?vid=25b06ca6-59f6-4cab-9a2f-ece142030779"},"vehicle_type_id":"4","last_reported":1757736688,"current_range_meters":6800,"station_id":"ce4bhm12rcd13ifvqgkg","pricing_plan_id":"cebpf4jnsgd1na2vs0mg"},{"bike_id":"1eeefef1-b579-49c3-b7da-f721aba8adb3","system_id":"levelo_inurba_marseille","lat":43.31121,"lon":5.377695,"is_reserved":false,"is_disabled":false,"rental_uris":{"android":"levelo://app?vid=1eeefef1-b579-49c3-b7da-f721aba8adb3","ios":"levelo://app?vid=1eeefef1-b579-49c3-b7da-f721aba8adb3"},"vehicle_type_id":"4","last_reported":1757736688,"current_range_meters":6800,"station_id":"ce4bgt92rcd13ifvqcg0","pricing_plan_id":"cebpf4jnsgd1na2vs0mg"},{"bike_id":"15880fe2-2dd6-4418-ad49-0361975a9966","system_id":"levelo_inurba_marseille","lat":43.3107,"lon":5.3835,"is_reserved":false,"is_disabled":false,"rental_uris":{"android":"levelo://app?vid=15880fe2-2dd6-4418-ad49-0361975a9966","ios":"levelo://app?vid=15880fe2-2dd6-4418-ad49-0361975a9966"},"vehicle_type_id":"4","last_reported":1757736688,"current_range_meters":6800,"station_id":"ce4bgv92rcd13ifvqcr0","pricing_plan_id":"cebpf4jnsgd1na2vs0mg"},{"bike_id":"fe8d88d6-81c3-42a8-85bb-3d0aa4841db3","system_id":"levelo_inurba_marseille","lat":43.337444,"lon":5.374475,"is_reserved":false,"is_disabled":false,"rental_uris":{"android":"levelo://app?vid=fe8d88d6-81c3-42a8-85bb-3d0aa4841db3","ios":"levelo://app?vid=fe8d88d6-81c3-42a8-85bb-3d0aa4841db3"},"vehicle_type_id":"4","last_reported":1757736688,"current_range_meters":6800,"station_id":"","pricing_plan_id":"cebpf4jnsgd1na2vs0mg"},{"bike_id":"d1de2b7d-3583-4df3-8bfa-43eda5116068","system_id":"levelo_inurba_marseille","lat":43.3374,"lon":5.37468,"is_reserved":false,"is_disabled":false,"rental_uris":{"android":"levelo://app?vid=d1de2b7d-3583-4df3-8bfa-43eda5116068","ios":"levelo://app?vid=d1de2b7d-3583-4df3-8bfa-43eda5116068"},"vehicle_type_id":"4","last_reported":1757736688,"current_range_meters":6800,"station_id":"","pricing_plan_id":"cebpf4jnsgd1na2vs0mg"},{"bike_id":"d1208639-5703-4ac3-a303-6e72a5788218","system_id":"levelo_inurba_marseille","lat":43.33753,"lon":5.37475,"is_reserved":false,"is_disabled":false,"rental_uris":{"android":"levelo://app?vid=d1208639-5703-4ac3-a303-6e72a5788218","ios":"levelo://app?vid=d1208639-5703-4ac3-a303-6e72a5788218"},"vehicle_type_id":"4","last_reported":1757736688,"current_range_meters":6800,"station_id":"","pricing_plan_id":"cebpf4jnsgd1na2vs0mg"},{"bike_id":"999df056-799c-417e-807e-52608d0b797e","system_id":"levelo_inurba_marseille","lat":43.297101,"lon":5.377007,"is_reserved":false,"is_disabled":false,"rental_uris":{"android":"levelo://app?vid=999df056-799c-417e-807e-52608d0b797e","ios":"levelo://app?vid=999df056-799c-417e-807e-52608d0b797e"},"vehicle_type_id":"4","last_reported":1757736688,"current_range_meters":7200,"station_id":"","pricing_plan_id":"cebpf4jnsgd1na2vs0mg"},{"bike_id":"5a292930-92a9-468b-a446-4f40dfd975cb","system_id":"levelo_inurba_marseille","lat":43.25121,"lon":5.40289,"is_reserved":false,"is_disabled":false,"rental_uris":{"android":"levelo://app?vid=5a292930-92a9-468b-a446-4f40dfd975cb","ios":"levelo://app?vid=5a292930-92a9-468b-a446-4f40dfd975cb"},"vehicle_type_id":"4","last_reported":1757736688,"current_range_meters":7200,"station_id":"ce4bhlh2rcd13ifvqgig","pricing_plan_id":"cebpf4jnsgd1na2vs0mg"},{"bike_id":"f36f3ca3-42f9-44ec-b85d-26c7a536128a","system_id":"levelo_inurba_marseille","lat":43.27057,"lon":5.42277,"is_reserved":false,"is_disabled":false,"rental_uris":{"android":"levelo://app?vid=f36f3ca3-42f9-44ec-b85d-26c7a536128a","ios":"levelo://app?vid=f36f3ca3-42f9-44ec-b85d-26c7a536128a"},"vehicle_type_id":"4","last_reported":1757736688,"current_range_meters":7200,"station_id":"ce4bhk92rcd13ifvqgb0","pricing_plan_id":"cebpf4jnsgd1na2vs0mg"},{"bike_id":"0a180902-13a6-4de2-a6fc-e04d96d9b351","system_id":"levelo_inurba_marseille","lat":43.28934,"lon":5.38379,"is_reserved":false,"is_disabled":true,"rental_uris":{"android":"levelo://app?vid=0a180902-13a6-4de2-a6fc-e04d96d9b351","ios":"levelo://app?vid=0a180902-13a6-4de2-a6fc-e04d96d9b351"},"vehicle_type_id":"4","last_reported":1757736688,"current_range_meters":7200,"station_id":"ce4bh612rcd13ifvqe6g","pricing_plan_id":"cebpf4jnsgd1na2vs0mg"},{"bike_id":"54868907-63ea-40a5-8f3a-4ac6edb4c05c","system_id":"levelo_inurba_marseille","lat":43.29199,"lon":5.37791,"is_reserved":false,"is_disabled":false,"rental_uris":{"android":"levelo://app?vid=54868907-63ea-40a5-8f3a-4ac6edb4c05c","ios":"levelo://app?vid=54868907-63ea-40a5-8f3a-4ac6edb4c05c"},"vehicle_type_id":"4","last_reported":1757736688,"current_range_meters":7200,"station_id":"","pricing_plan_id":"cebpf4jnsgd1na2vs0mg"},{"bike_id":"c89fe839-d3de-4199-ac15-6d473e8659f0","system_id":"levelo_inurba_marseille","lat":43.281044,"lon":5.378439,"is_reserved":false,"is_disabled":false,"rental_uris":{"android":"levelo://app?vid=c89fe839-d3de-4199-ac15-6d473e8659f0","ios":"levelo://app?vid=c89fe839-d3de-4199-ac15-6d473e8659f0"},"vehicle_type_id":"4","last_reported":1757736688,"current_range_meters":7200,"station_id":"ce4bha12rcd13ifvqee0","pricing_plan_id":"cebpf4jnsgd1na2vs0mg"},{"bike_id":"ba2f1959-ad57-4458-adbd-b14fbb1b820f","system_id":"levelo_inurba_marseille","lat":43.33751,"lon":5.39192,"is_reserved":false,"is_disabled":true,"rental_uris":{"android":"levelo://app?vid=ba2f1959-ad57-4458-adbd-b14fbb1b820f","ios":"levelo://app?vid=ba2f1959-ad57-4458-adbd-b14fbb1b820f"},"vehicle_type_id":"4","last_reported":1757736688,"current_range_meters":8000,"station_id":"ce4bhr92rcd13ifvqhsg","pricing_plan_id":"cebpf4jnsgd1na2vs0mg"},{"bike_id":"08f7931b-0e7d-4f19-908c-2ebcd9efbba6","system_id":"levelo_inurba_marseille","lat":43.29296,"lon":5.40095,"is_reserved":false,"is_disabled":false,"rental_uris":{"android":"levelo://app?vid=08f7931b-0e7d-4f19-908c-2ebcd9efbba6","ios":"levelo://app?vid=08f7931b-0e7d-4f19-908c-2ebcd9efbba6"},"vehicle_type_id":"4","last_reported":1757736688,"current_range_meters":8000,"station_id":"ce4bh312rcd13ifvqdk0","pricing_plan_id":"cebpf4jnsgd1na2vs0mg"},{"bike_id":"96e259ac-64d9-4cf7-81fe-9077e2e7bec8","system_id":"levelo_inurba_marseille","lat":43.29567,"lon":5.3996,"is_reserved":false,"is_disabled":true,"rental_uris":{"android":"levelo://app?vid=96e259ac-64d9-4cf7-81fe-9077e2e7bec8","ios":"levelo://app?vid=96e259ac-64d9-4cf7-81fe-9077e2e7bec8"},"vehicle_type_id":"4","last_reported":1757736688,"current_range_meters":8000,"station_id":"ce4bh312rcd13ifvqdj0","pricing_plan_id":"cebpf4jnsgd1na2vs0mg"},{"bike_id":"09283c77-7d21-42c1-945c-051cea442cea","system_id":"levelo_inurba_marseille","lat":43.3039,"lon":5.42475,"is_reserved":false,"is_disabled":false,"rental_uris":{"android":"levelo://app?vid=09283c77-7d21-42c1-945c-051cea442cea","ios":"levelo://app?vid=09283c77-7d21-42c1-945c-051cea442cea"},"vehicle_type_id":"4","last_reported":1757736688,"current_range_meters":8400,"station_id":"ce4bhoh2rcd13ifvqh6g","pricing_plan_id":"cebpf4jnsgd1na2vs0mg"},{"bike_id":"ac568d9b-aa32-4551-90e7-9697d0dfd168","system_id":"levelo_inurba_marseille","lat":43.32322,"lon":5.36739,"is_reserved":false,"is_disabled":false,"rental_uris":{"android":"levelo://app?vid=ac568d9b-aa32-4551-90e7-9697d0dfd168","ios":"levelo://app?vid=ac568d9b-aa32-4551-90e7-9697d0dfd168"},"vehicle_type_id":"4","last_reported":1757736688,"current_range_meters":8400,"station_id":"ce4bhsh2rcd13ifvqi2g","pricing_plan_id":"cebpf4jnsgd1na2vs0mg"},{"bike_id":"966fccfb-edf5-45b0-8efd-ce67125d4a08","system_id":"levelo_inurba_marseille","lat":43.30028,"lon":5.37815,"is_reserved":false,"is_disabled":false,"rental_uris":{"android":"levelo://app?vid=966fccfb-edf5-45b0-8efd-ce67125d4a08","ios":"levelo://app?vid=966fccfb-edf5-45b0-8efd-ce67125d4a08"},"vehicle_type_id":"4","last_reported":1757736688,"current_range_meters":8400,"station_id":"","pricing_plan_id":"cebpf4jnsgd1na2vs0mg"},{"bike_id":"799195ec-b884-46fa-8e8e-94f3a290a369","system_id":"levelo_inurba_marseille","lat":43.30863,"lon":5.39649,"is_reserved":false,"is_disabled":false,"rental_uris":{"android":"levelo://app?vid=799195ec-b884-46fa-8e8e-94f3a290a369","ios":"levelo://app?vid=799195ec-b884-46fa-8e8e-94f3a290a369"},"vehicle_type_id":"4","last_reported":1757736688,"current_range_meters":8400,"station_id":"ce4bh012rcd13ifvqcv0","pricing_plan_id":"cebpf4jnsgd1na2vs0mg"},{"bike_id":"b8e144fd-4129-4d03-ab97-a5290c844a49","system_id":"levelo_inurba_marseille","lat":43.29901,"lon":5.3973,"is_reserved":false,"is_disabled":false,"rental_uris":{"android":"levelo://app?vid=b8e144fd-4129-4d03-ab97-a5290c844a49","ios":"levelo://app?vid=b8e144fd-4129-4d03-ab97-a5290c844a49"},"vehicle_type_id":"4","last_reported":1757736688,"current_range_meters":8400,"station_id":"ce4bh0h2rcd13ifvqd50","pricing_plan_id":"cebpf4jnsgd1na2vs0mg"},{"bike_id":"7e31293f-1d34-48cd-aec2-46efdedf5301","system_id":"levelo_inurba_marseille","lat":43.308,"lon":5.38169,"is_reserved":false,"is_disabled":false,"rental_uris":{"android":"levelo://app?vid=7e31293f-1d34-48cd-aec2-46efdedf5301","ios":"levelo://app?vid=7e31293f-1d34-48cd-aec2-46efdedf5301"},"vehicle_type_id":"4","last_reported":1757736688,"current_range_meters":8400,"station_id":"ce4bgt12rcd13ifvqce0","pricing_plan_id":"cebpf4jnsgd1na2vs0mg"},{"bike_id":"5a947efa-6b53-4f73-a8ef-fadbfb417a96","system_id":"levelo_inurba_marseille","lat":43.286674,"lon":5.363581,"is_reserved":false,"is_disabled":false,"rental_uris":{"android":"levelo://app?vid=5a947efa-6b53-4f73-a8ef-fadbfb417a96","ios":"levelo://app?vid=5a947efa-6b53-4f73-a8ef-fadbfb417a96"},"vehicle_type_id":"4","last_reported":1757736688,"current_range_meters":8400,"station_id":"ce4bhah2rcd13ifvqej0","pricing_plan_id":"cebpf4jnsgd1na2vs0mg"},{"bike_id":"7db384a7-4267-4cd8-b9e7-7ca132b3d121","system_id":"levelo_inurba_marseille","lat":43.33885,"lon":5.3555,"is_reserved":false,"is_disabled":false,"rental_uris":{"android":"levelo://app?vid=7db384a7-4267-4cd8-b9e7-7ca132b3d121","ios":"levelo://app?vid=7db384a7-4267-4cd8-b9e7-7ca132b3d121"},"vehicle_type_id":"4","last_reported":1757736688,"current_range_meters":8400,"station_id":"","pricing_plan_id":"cebpf4jnsgd1na2vs0mg"},{"bike_id":"be9aca03-15e3-4c8f-924c-bd9c835f0f8f","system_id":"levelo_inurba_marseille","lat":43.23964,"lon":5.366255,"is_reserved":false,"is_disabled":false,"rental_uris":{"android":"levelo://app?vid=be9aca03-15e3-4c8f-924c-bd9c835f0f8f","ios":"levelo://app?vid=be9aca03-15e3-4c8f-924c-bd9c835f0f8f"},"vehicle_type_id":"4","last_reported":1757736688,"current_range_meters":8400,"station_id":"ce4bhi12rcd13ifvqfp0","pricing_plan_id":"cebpf4jnsgd1na2vs0mg"},{"bike_id":"446db975-437a-41e5-b459-fc8558501891","system_id":"levelo_inurba_marseille","lat":43.24659,"lon":5.38901,"is_reserved":false,"is_disabled":false,"rental_uris":{"android":"levelo://app?vid=446db975-437a-41e5-b459-fc8558501891","ios":"levelo://app?vid=446db975-437a-41e5-b459-fc8558501891"},"vehicle_type_id":"4","last_reported":1757736688,"current_range_meters":8400,"station_id":"ce4bhg12rcd13ifvqf60","pricing_plan_id":"cebpf4jnsgd1na2vs0mg"},{"bike_id":"207c2b3c-3c91-4c2e-942f-b03298dd5b73","system_id":"levelo_inurba_marseille","lat":43.30947,"lon":5.40143,"is_reserved":false,"is_disabled":false,"rental_uris":{"android":"levelo://app?vid=207c2b3c-3c91-4c2e-942f-b03298dd5b73","ios":"levelo://app?vid=207c2b3c-3c91-4c2e-942f-b03298dd5b73"},"vehicle_type_id":"4","last_reported":1757736688,"current_range_meters":8800,"station_id":"ce4bgvp2rcd13ifvqct0","pricing_plan_id":"cebpf4jnsgd1na2vs0mg"},{"bike_id":"47bd5e2d-183e-4266-9345-e18a8cd50005","system_id":"levelo_inurba_marseille","lat":43.27914,"lon":5.39581,"is_reserved":false,"is_disabled":false,"rental_uris":{"android":"levelo://app?vid=47bd5e2d-183e-4266-9345-e18a8cd50005","ios":"levelo://app?vid=47bd5e2d-183e-4266-9345-e18a8cd50005"},"vehicle_type_id":"4","last_reported":1757736688,"current_range_meters":8800,"station_id":"ce4bhf92rcd13ifvqf40","pricing_plan_id":"cebpf4jnsgd1na2vs0mg"},{"bike_id":"2c391566-752c-4551-9bfc-d1b085699401","system_id":"levelo_inurba_marseille","lat":43.27314,"lon":5.39071,"is_reserved":false,"is_disabled":true,"rental_uris":{"android":"levelo://app?vid=2c391566-752c-4551-9bfc-d1b085699401","ios":"levelo://app?vid=2c391566-752c-4551-9bfc-d1b085699401"},"vehicle_type_id":"4","last_reported":1757736688,"current_range_meters":8800,"station_id":"ce4bhgp2rcd13ifvqfe0","pricing_plan_id":"cebpf4jnsgd1na2vs0mg"},{"bike_id":"069b0fee-af69-4958-a06e-d0bd95d527ee","system_id":"levelo_inurba_marseille","lat":43.212058,"lon":5.350588,"is_reserved":false,"is_disabled":false,"rental_uris":{"android":"levelo://app?vid=069b0fee-af69-4958-a06e-d0bd95d527ee","ios":"levelo://app?vid=069b0fee-af69-4958-a06e-d0bd95d527ee"},"vehicle_type_id":"4","last_reported":1757736688,"current_range_meters":8800,"station_id":"st_cvj6sg6p6f1abm77japg","pricing_plan_id":"cebpf4jnsgd1na2vs0mg"},{"bike_id":"a04909f0-8cf2-4881-9eb9-dc7d2fda7c17","system_id":"levelo_inurba_marseille","lat":43.28943,"lon":5.36387,"is_reserved":false,"is_disabled":false,"rental_uris":{"android":"levelo://app?vid=a04909f0-8cf2-4881-9eb9-dc7d2fda7c17","ios":"levelo://app?vid=a04909f0-8cf2-4881-9eb9-dc7d2fda7c17"},"vehicle_type_id":"4","last_reported":1757736688,"current_range_meters":8800,"station_id":"ce4bhc92rcd13ifvqetg","pricing_plan_id":"cebpf4jnsgd1na2vs0mg"},{"bike_id":"3744f56c-7cca-40c8-b6cd-134f3d931aa1","system_id":"levelo_inurba_marseille","lat":43.249531,"lon":5.404972,"is_reserved":false,"is_disabled":false,"rental_uris":{"android":"levelo://app?vid=3744f56c-7cca-40c8-b6cd-134f3d931aa1","ios":"levelo://app?vid=3744f56c-7cca-40c8-b6cd-134f3d931aa1"},"vehicle_type_id":"4","last_reported":1757736688,"current_range_meters":8800,"station_id":"st_d2ngiaodas8pm72gd1h0","pricing_plan_id":"cebpf4jnsgd1na2vs0mg"},{"bike_id":"bde43026-5ee2-4507-a34f-7aaa01267faa","system_id":"levelo_inurba_marseille","lat":43.2731,"lon":5.39049,"is_reserved":false,"is_disabled":true,"rental_uris":{"android":"levelo://app?vid=bde43026-5ee2-4507-a34f-7aaa01267faa","ios":"levelo://app?vid=bde43026-5ee2-4507-a34f-7aaa01267faa"},"vehicle_type_id":"4","last_reported":1757736688,"current_range_meters":9200,"station_id":"ce4bhgp2rcd13ifvqfe0","pricing_plan_id":"cebpf4jnsgd1na2vs0mg"},{"bike_id":"b3f42fdf-ce2a-4e22-bfce-800e75f23b0f","system_id":"levelo_inurba_marseille","lat":43.281667,"lon":5.351388,"is_reserved":false,"is_disabled":false,"rental_uris":{"android":"levelo://app?vid=b3f42fdf-ce2a-4e22-bfce-800e75f23b0f","ios":"levelo://app?vid=b3f42fdf-ce2a-4e22-bfce-800e75f23b0f"},"vehicle_type_id":"4","last_reported":1757736688,"current_range_meters":9200,"station_id":"","pricing_plan_id":"cebpf4jnsgd1na2vs0mg"},{"bike_id":"7474d631-da14-44c6-af0e-b1a867b3896c","system_id":"levelo_inurba_marseille","lat":43.249495,"lon":5.404927,"is_reserved":false,"is_disabled":false,"rental_uris":{"android":"levelo://app?vid=7474d631-da14-44c6-af0e-b1a867b3896c","ios":"levelo://app?vid=7474d631-da14-44c6-af0e-b1a867b3896c"},"vehicle_type_id":"4","last_reported":1757736688,"current_range_meters":9200,"station_id":"st_d2ngiaodas8pm72gd1h0","pricing_plan_id":"cebpf4jnsgd1na2vs0mg"},{"bike_id":"eae656ae-9e8b-4fb1-962a-193ff4a95a65","system_id":"levelo_inurba_marseille","lat":43.29903,"lon":5.381022,"is_reserved":false,"is_disabled":false,"rental_uris":{"android":"levelo://app?vid=eae656ae-9e8b-4fb1-962a-193ff4a95a65","ios":"levelo://app?vid=eae656ae-9e8b-4fb1-962a-193ff4a95a65"},"vehicle_type_id":"4","last_reported":1757736688,"current_range_meters":9200,"station_id":"ce4bgjp2rcd13ifvqbh0","pricing_plan_id":"cebpf4jnsgd1na2vs0mg"},{"bike_id":"7fa34ec0-a293-418f-bfd5-6e8a3d326e13","system_id":"levelo_inurba_marseille","lat":43.31004,"lon":5.37527,"is_reserved":false,"is_disabled":false,"rental_uris":{"android":"levelo://app?vid=7fa34ec0-a293-418f-bfd5-6e8a3d326e13","ios":"levelo://app?vid=7fa34ec0-a293-418f-bfd5-6e8a3d326e13"},"vehicle_type_id":"4","last_reported":1757736688,"current_range_meters":9200,"station_id":"","pricing_plan_id":"cebpf4jnsgd1na2vs0mg"},{"bike_id":"ced5462d-ee0d-4d22-a76c-c1aecf6c99da","system_id":"levelo_inurba_marseille","lat":43.24404,"lon":5.37065,"is_reserved":false,"is_disabled":true,"rental_uris":{"android":"levelo://app?vid=ced5462d-ee0d-4d22-a76c-c1aecf6c99da","ios":"levelo://app?vid=ced5462d-ee0d-4d22-a76c-c1aecf6c99da"},"vehicle_type_id":"4","last_reported":1757736688,"current_range_meters":9200,"station_id":"ce4bhhh2rcd13ifvqfk0","pricing_plan_id":"cebpf4jnsgd1na2vs0mg"},{"bike_id":"c8f16859-2373-499f-9cba-1c1f7d04e9b1","system_id":"levelo_inurba_marseille","lat":43.275,"lon":5.42459,"is_reserved":false,"is_disabled":false,"rental_uris":{"android":"levelo://app?vid=c8f16859-2373-499f-9cba-1c1f7d04e9b1","ios":"levelo://app?vid=c8f16859-2373-499f-9cba-1c1f7d04e9b1"},"vehicle_type_id":"4","last_reported":1757736688,"current_range_meters":9200,"station_id":"ce4bhn92rcd13ifvqgrg","pricing_plan_id":"cebpf4jnsgd1na2vs0mg"},{"bike_id":"4d7c223f-2439-4e88-bc34-342812ce1f1f","system_id":"levelo_inurba_marseille","lat":43.292582,"lon":5.409116,"is_reserved":false,"is_disabled":false,"rental_uris":{"android":"levelo://app?vid=4d7c223f-2439-4e88-bc34-342812ce1f1f","ios":"levelo://app?vid=4d7c223f-2439-4e88-bc34-342812ce1f1f"},"vehicle_type_id":"4","last_reported":1757736688,"current_range_meters":9600,"station_id":"ce4bh192rcd13ifvqdc0","pricing_plan_id":"cebpf4jnsgd1na2vs0mg"},{"bike_id":"300794c4-b199-425d-a36b-62fdf5cf91c7","system_id":"levelo_inurba_marseille","lat":43.281083,"lon":5.378345,"is_reserved":false,"is_disabled":false,"rental_uris":{"android":"levelo://app?vid=300794c4-b199-425d-a36b-62fdf5cf91c7","ios":"levelo://app?vid=300794c4-b199-425d-a36b-62fdf5cf91c7"},"vehicle_type_id":"4","last_reported":1757736688,"current_range_meters":9600,"station_id":"ce4bha12rcd13ifvqee0","pricing_plan_id":"cebpf4jnsgd1na2vs0mg"},{"bike_id":"b0f2aaf4-4e39-4c7a-b9f5-3a739f8bdaa5","system_id":"levelo_inurba_marseille","lat":43.28482,"lon":5.38445,"is_reserved":false,"is_disabled":true,"rental_uris":{"android":"levelo://app?vid=b0f2aaf4-4e39-4c7a-b9f5-3a739f8bdaa5","ios":"levelo://app?vid=b0f2aaf4-4e39-4c7a-b9f5-3a739f8bdaa5"},"vehicle_type_id":"4","last_reported":1757736688,"current_range_meters":9600,"station_id":"ce4bh512rcd13ifvqe3g","pricing_plan_id":"cebpf4jnsgd1na2vs0mg"},{"bike_id":"646ced27-1dd9-4cf2-85e7-6d56dd885835","system_id":"levelo_inurba_marseille","lat":43.28866,"lon":5.35862,"is_reserved":false,"is_disabled":false,"rental_uris":{"android":"levelo://app?vid=646ced27-1dd9-4cf2-85e7-6d56dd885835","ios":"levelo://app?vid=646ced27-1dd9-4cf2-85e7-6d56dd885835"},"vehicle_type_id":"4","last_reported":1757736688,"current_range_meters":9600,"station_id":"ce4bhb12rcd13ifvqem0","pricing_plan_id":"cebpf4jnsgd1na2vs0mg"},{"bike_id":"8d156254-22bc-4e70-b344-be1b38d6ced7","system_id":"levelo_inurba_marseille","lat":43.31334,"lon":5.39698,"is_reserved":false,"is_disabled":false,"rental_uris":{"android":"levelo://app?vid=8d156254-22bc-4e70-b344-be1b38d6ced7","ios":"levelo://app?vid=8d156254-22bc-4e70-b344-be1b38d6ced7"},"vehicle_type_id":"4","last_reported":1757736688,"current_range_meters":9600,"station_id":"ce4bgvp2rcd13ifvqcu0","pricing_plan_id":"cebpf4jnsgd1na2vs0mg"},{"bike_id":"68422fda-945c-402d-b886-a4fecef0c346","system_id":"levelo_inurba_marseille","lat":43.29163,"lon":5.37144,"is_reserved":false,"is_disabled":true,"rental_uris":{"android":"levelo://app?vid=68422fda-945c-402d-b886-a4fecef0c346","ios":"levelo://app?vid=68422fda-945c-402d-b886-a4fecef0c346"},"vehicle_type_id":"4","last_reported":1757736688,"current_range_meters":9600,"station_id":"ce4bha92rcd13ifvqeh0","pricing_plan_id":"cebpf4jnsgd1na2vs0mg"},{"bike_id":"51e9eeea-270a-4052-ae23-1c52965089f9","system_id":"levelo_inurba_marseille","lat":43.306514,"lon":5.400857,"is_reserved":false,"is_disabled":false,"rental_uris":{"android":"levelo://app?vid=51e9eeea-270a-4052-ae23-1c52965089f9","ios":"levelo://app?vid=51e9eeea-270a-4052-ae23-1c52965089f9"},"vehicle_type_id":"4","last_reported":1757736688,"current_range_meters":9600,"station_id":"ce4bh112rcd13ifvqda0","pricing_plan_id":"cebpf4jnsgd1na2vs0mg"},{"bike_id":"a4f2dfaf-95f5-4506-afc8-3284b3f01c6c","system_id":"levelo_inurba_marseille","lat":43.24182,"lon":5.39726,"is_reserved":false,"is_disabled":false,"rental_uris":{"android":"levelo://app?vid=a4f2dfaf-95f5-4506-afc8-3284b3f01c6c","ios":"levelo://app?vid=a4f2dfaf-95f5-4506-afc8-3284b3f01c6c"},"vehicle_type_id":"4","last_reported":1757736688,"current_range_meters":10000,"station_id":"ce4bhn12rcd13ifvqgpg","pricing_plan_id":"cebpf4jnsgd1na2vs0mg"},{"bike_id":"0e0c8dec-1a42-46dd-bb35-7088192ded70","system_id":"levelo_inurba_marseille","lat":43.29702,"lon":5.37153,"is_reserved":false,"is_disabled":false,"rental_uris":{"android":"levelo://app?vid=0e0c8dec-1a42-46dd-bb35-7088192ded70","ios":"levelo://app?vid=0e0c8dec-1a42-46dd-bb35-7088192ded70"},"vehicle_type_id":"4","last_reported":1757736688,"current_range_meters":10000,"station_id":"","pricing_plan_id":"cebpf4jnsgd1na2vs0mg"},{"bike_id":"82491e25-e9b9-4c3b-b7c4-d51bc2758b25","system_id":"levelo_inurba_marseille","lat":43.337261,"lon":5.391845,"is_reserved":false,"is_disabled":true,"rental_uris":{"android":"levelo://app?vid=82491e25-e9b9-4c3b-b7c4-d51bc2758b25","ios":"levelo://app?vid=82491e25-e9b9-4c3b-b7c4-d51bc2758b25"},"vehicle_type_id":"4","last_reported":1757736688,"current_range_meters":10000,"station_id":"ce4bhr92rcd13ifvqhsg","pricing_plan_id":"cebpf4jnsgd1na2vs0mg"},{"bike_id":"e77461fd-9a53-40b2-b8aa-bd1c93db50c1","system_id":"levelo_inurba_marseille","lat":43.323684,"lon":5.381776,"is_reserved":false,"is_disabled":false,"rental_uris":{"android":"levelo://app?vid=e77461fd-9a53-40b2-b8aa-bd1c93db50c1","ios":"levelo://app?vid=e77461fd-9a53-40b2-b8aa-bd1c93db50c1"},"vehicle_type_id":"4","last_reported":1757736688,"current_range_meters":10000,"station_id":"","pricing_plan_id":"cebpf4jnsgd1na2vs0mg"},{"bike_id":"3bd595b7-af3b-43b1-8697-1bcb2a61af6f","system_id":"levelo_inurba_marseille","lat":43.27997,"lon":5.39991,"is_reserved":false,"is_disabled":true,"rental_uris":{"android":"levelo://app?vid=3bd595b7-af3b-43b1-8697-1bcb2a61af6f","ios":"levelo://app?vid=3bd595b7-af3b-43b1-8697-1bcb2a61af6f"},"vehicle_type_id":"4","last_reported":1757736688,"current_range_meters":10000,"station_id":"ce4bho92rcd13ifvqh4g","pricing_plan_id":"cebpf4jnsgd1na2vs0mg"},{"bike_id":"73ac0b0e-de5c-4057-bbbb-da5c67ad95b7","system_id":"levelo_inurba_marseille","lat":43.30941,"lon":5.40149,"is_reserved":false,"is_disabled":false,"rental_uris":{"android":"levelo://app?vid=73ac0b0e-de5c-4057-bbbb-da5c67ad95b7","ios":"levelo://app?vid=73ac0b0e-de5c-4057-bbbb-da5c67ad95b7"},"vehicle_type_id":"4","last_reported":1757736688,"current_range_meters":10000,"station_id":"ce4bgvp2rcd13ifvqct0","pricing_plan_id":"cebpf4jnsgd1na2vs0mg"},{"bike_id":"90bff353-82c7-441a-9eff-f25eb8d012b8","system_id":"levelo_inurba_marseille","lat":43.249483,"lon":5.404945,"is_reserved":false,"is_disabled":false,"rental_uris":{"android":"levelo://app?vid=90bff353-82c7-441a-9eff-f25eb8d012b8","ios":"levelo://app?vid=90bff353-82c7-441a-9eff-f25eb8d012b8"},"vehicle_type_id":"4","last_reported":1757736688,"current_range_meters":10000,"station_id":"st_d2ngiaodas8pm72gd1h0","pricing_plan_id":"cebpf4jnsgd1na2vs0mg"},{"bike_id":"b6aab010-e549-476b-8c34-a975ea407292","system_id":"levelo_inurba_marseille","lat":43.30885,"lon":5.39633,"is_reserved":false,"is_disabled":false,"rental_uris":{"android":"levelo://app?vid=b6aab010-e549-476b-8c34-a975ea407292","ios":"levelo://app?vid=b6aab010-e549-476b-8c34-a975ea407292"},"vehicle_type_id":"4","last_reported":1757736688,"current_range_meters":10000,"station_id":"ce4bh012rcd13ifvqcv0","pricing_plan_id":"cebpf4jnsgd1na2vs0mg"},{"bike_id":"2874aa60-bcfa-4160-96ae-9bf32637c092","system_id":"levelo_inurba_marseille","lat":43.28939,"lon":5.36637,"is_reserved":false,"is_disabled":false,"rental_uris":{"android":"levelo://app?vid=2874aa60-bcfa-4160-96ae-9bf32637c092","ios":"levelo://app?vid=2874aa60-bcfa-4160-96ae-9bf32637c092"},"vehicle_type_id":"4","last_reported":1757736688,"current_range_meters":9600,"station_id":"ce4bhap2rcd13ifvqek0","pricing_plan_id":"cebpf4jnsgd1na2vs0mg"},{"bike_id":"7283f511-322a-43c1-aa27-0111315bc0d3","system_id":"levelo_inurba_marseille","lat":43.23191,"lon":5.35567,"is_reserved":false,"is_disabled":false,"rental_uris":{"android":"levelo://app?vid=7283f511-322a-43c1-aa27-0111315bc0d3","ios":"levelo://app?vid=7283f511-322a-43c1-aa27-0111315bc0d3"},"vehicle_type_id":"4","last_reported":1757736688,"current_range_meters":10800,"station_id":"ce4bhu92rcd13ifvqi70","pricing_plan_id":"cebpf4jnsgd1na2vs0mg"},{"bike_id":"5f2c0397-404f-46d4-b455-199285197a5d","system_id":"levelo_inurba_marseille","lat":43.246438,"lon":5.431394,"is_reserved":false,"is_disabled":false,"rental_uris":{"android":"levelo://app?vid=5f2c0397-404f-46d4-b455-199285197a5d","ios":"levelo://app?vid=5f2c0397-404f-46d4-b455-199285197a5d"},"vehicle_type_id":"4","last_reported":1757736688,"current_range_meters":10800,"station_id":"st_d2m6c4gdas8pm72e190g","pricing_plan_id":"cebpf4jnsgd1na2vs0mg"},{"bike_id":"51667cd9-048f-4c21-beef-ab93b8cf3d07","system_id":"levelo_inurba_marseille","lat":43.265654,"lon":5.3902,"is_reserved":false,"is_disabled":true,"rental_uris":{"android":"levelo://app?vid=51667cd9-048f-4c21-beef-ab93b8cf3d07","ios":"levelo://app?vid=51667cd9-048f-4c21-beef-ab93b8cf3d07"},"vehicle_type_id":"4","last_reported":1757736688,"current_range_meters":10800,"station_id":"ce4bhe12rcd13ifvqf30","pricing_plan_id":"cebpf4jnsgd1na2vs0mg"},{"bike_id":"aad1ad00-1958-48b0-a482-661db1a506a6","system_id":"levelo_inurba_marseille","lat":43.30514,"lon":5.37901,"is_reserved":false,"is_disabled":true,"rental_uris":{"android":"levelo://app?vid=aad1ad00-1958-48b0-a482-661db1a506a6","ios":"levelo://app?vid=aad1ad00-1958-48b0-a482-661db1a506a6"},"vehicle_type_id":"4","last_reported":1757736688,"current_range_meters":10800,"station_id":"","pricing_plan_id":"cebpf4jnsgd1na2vs0mg"},{"bike_id":"972b4c5f-3a00-4bb2-9116-b81f2cecc9f2","system_id":"levelo_inurba_marseille","lat":43.33764,"lon":5.37483,"is_reserved":false,"is_disabled":false,"rental_uris":{"android":"levelo://app?vid=972b4c5f-3a00-4bb2-9116-b81f2cecc9f2","ios":"levelo://app?vid=972b4c5f-3a00-4bb2-9116-b81f2cecc9f2"},"vehicle_type_id":"4","last_reported":1757736688,"current_range_meters":10800,"station_id":"","pricing_plan_id":"cebpf4jnsgd1na2vs0mg"},{"bike_id":"32fcfe27-9e6b-472f-b15f-1f97904444ae","system_id":"levelo_inurba_marseille","lat":43.23158,"lon":5.43689,"is_reserved":false,"is_disabled":false,"rental_uris":{"android":"levelo://app?vid=32fcfe27-9e6b-472f-b15f-1f97904444ae","ios":"levelo://app?vid=32fcfe27-9e6b-472f-b15f-1f97904444ae"},"vehicle_type_id":"4","last_reported":1757736688,"current_range_meters":10800,"station_id":"ce4bhmp2rcd13ifvqgog","pricing_plan_id":"cebpf4jnsgd1na2vs0mg"},{"bike_id":"6b49ad5b-4c6e-4cb7-bea3-a737514dbce8","system_id":"levelo_inurba_marseille","lat":43.30304,"lon":5.36883,"is_reserved":false,"is_disabled":false,"rental_uris":{"android":"levelo://app?vid=6b49ad5b-4c6e-4cb7-bea3-a737514dbce8","ios":"levelo://app?vid=6b49ad5b-4c6e-4cb7-bea3-a737514dbce8"},"vehicle_type_id":"4","last_reported":1757736688,"current_range_meters":11200,"station_id":"ce4bgqh2rcd13ifvqc5g","pricing_plan_id":"cebpf4jnsgd1na2vs0mg"},{"bike_id":"161bd8fd-9cb7-4ecd-9466-0191f3af218a","system_id":"levelo_inurba_marseille","lat":43.25497,"lon":5.37634,"is_reserved":false,"is_disabled":true,"rental_uris":{"android":"levelo://app?vid=161bd8fd-9cb7-4ecd-9466-0191f3af218a","ios":"levelo://app?vid=161bd8fd-9cb7-4ecd-9466-0191f3af218a"},"vehicle_type_id":"4","last_reported":1757736688,"current_range_meters":11200,"station_id":"ce4bhh12rcd13ifvqff0","pricing_plan_id":"cebpf4jnsgd1na2vs0mg"},{"bike_id":"4e2d4eff-6ba4-4ed7-9998-a30cb626e021","system_id":"levelo_inurba_marseille","lat":43.32346,"lon":5.40615,"is_reserved":false,"is_disabled":false,"rental_uris":{"android":"levelo://app?vid=4e2d4eff-6ba4-4ed7-9998-a30cb626e021","ios":"levelo://app?vid=4e2d4eff-6ba4-4ed7-9998-a30cb626e021"},"vehicle_type_id":"4","last_reported":1757736688,"current_range_meters":11200,"station_id":"ce4bhq92rcd13ifvqhjg","pricing_plan_id":"cebpf4jnsgd1na2vs0mg"},{"bike_id":"b558f3d9-0976-438a-9dec-f10977a5d937","system_id":"levelo_inurba_marseille","lat":43.26061,"lon":5.39388,"is_reserved":false,"is_disabled":false,"rental_uris":{"android":"levelo://app?vid=b558f3d9-0976-438a-9dec-f10977a5d937","ios":"levelo://app?vid=b558f3d9-0976-438a-9dec-f10977a5d937"},"vehicle_type_id":"4","last_reported":1757736688,"current_range_meters":11200,"station_id":"ce4bhh92rcd13ifvqfj0","pricing_plan_id":"cebpf4jnsgd1na2vs0mg"},{"bike_id":"f4c73375-56c8-4d6b-a64c-003996b01c55","system_id":"levelo_inurba_marseille","lat":43.292595,"lon":5.409081,"is_reserved":false,"is_disabled":false,"rental_uris":{"android":"levelo://app?vid=f4c73375-56c8-4d6b-a64c-003996b01c55","ios":"levelo://app?vid=f4c73375-56c8-4d6b-a64c-003996b01c55"},"vehicle_type_id":"4","last_reported":1757736688,"current_range_meters":11600,"station_id":"ce4bh192rcd13ifvqdc0","pricing_plan_id":"cebpf4jnsgd1na2vs0mg"},{"bike_id":"d1a2d227-a72b-48f9-803e-12a9db38892f","system_id":"levelo_inurba_marseille","lat":43.30765,"lon":5.3708,"is_reserved":false,"is_disabled":false,"rental_uris":{"android":"levelo://app?vid=d1a2d227-a72b-48f9-803e-12a9db38892f","ios":"levelo://app?vid=d1a2d227-a72b-48f9-803e-12a9db38892f"},"vehicle_type_id":"4","last_reported":1757736688,"current_range_meters":11600,"station_id":"","pricing_plan_id":"cebpf4jnsgd1na2vs0mg"},{"bike_id":"13e14250-7ddb-4c7c-b698-57a655607d6a","system_id":"levelo_inurba_marseille","lat":43.33773,"lon":5.37473,"is_reserved":false,"is_disabled":false,"rental_uris":{"android":"levelo://app?vid=13e14250-7ddb-4c7c-b698-57a655607d6a","ios":"levelo://app?vid=13e14250-7ddb-4c7c-b698-57a655607d6a"},"vehicle_type_id":"4","last_reported":1757736688,"current_range_meters":11600,"station_id":"ce4bgqh2rcd13ifvqc4g","pricing_plan_id":"cebpf4jnsgd1na2vs0mg"},{"bike_id":"4d4ae18d-81d3-4161-97a6-a40d95f4554a","system_id":"levelo_inurba_marseille","lat":43.30136,"lon":5.38762,"is_reserved":false,"is_disabled":true,"rental_uris":{"android":"levelo://app?vid=4d4ae18d-81d3-4161-97a6-a40d95f4554a","ios":"levelo://app?vid=4d4ae18d-81d3-4161-97a6-a40d95f4554a"},"vehicle_type_id":"4","last_reported":1757736688,"current_range_meters":11600,"station_id":"ce4bghh2rcd13ifvqb60","pricing_plan_id":"cebpf4jnsgd1na2vs0mg"},{"bike_id":"0f25d523-7df0-46a9-a7c6-e984fe228d86","system_id":"levelo_inurba_marseille","lat":43.29541,"lon":5.38542,"is_reserved":false,"is_disabled":true,"rental_uris":{"android":"levelo://app?vid=0f25d523-7df0-46a9-a7c6-e984fe228d86","ios":"levelo://app?vid=0f25d523-7df0-46a9-a7c6-e984fe228d86"},"vehicle_type_id":"4","last_reported":1757736688,"current_range_meters":11600,"station_id":"ce4bgih2rcd13ifvqba0","pricing_plan_id":"cebpf4jnsgd1na2vs0mg"},{"bike_id":"a9dd239d-c821-4547-a71f-93364a17f0be","system_id":"levelo_inurba_marseille","lat":43.24676,"lon":5.38155,"is_reserved":false,"is_disabled":false,"rental_uris":{"android":"levelo://app?vid=a9dd239d-c821-4547-a71f-93364a17f0be","ios":"levelo://app?vid=a9dd239d-c821-4547-a71f-93364a17f0be"},"vehicle_type_id":"4","last_reported":1757736688,"current_range_meters":12000,"station_id":"ce4bhih2rcd13ifvqfr0","pricing_plan_id":"cebpf4jnsgd1na2vs0mg"},{"bike_id":"4266b374-d4bf-4fd2-bb94-51b2d7d40946","system_id":"levelo_inurba_marseille","lat":43.22567,"lon":5.41614,"is_reserved":false,"is_disabled":false,"rental_uris":{"android":"levelo://app?vid=4266b374-d4bf-4fd2-bb94-51b2d7d40946","ios":"levelo://app?vid=4266b374-d4bf-4fd2-bb94-51b2d7d40946"},"vehicle_type_id":"4","last_reported":1757736688,"current_range_meters":12000,"station_id":"st_d2o4gvlbi1j2169b742g","pricing_plan_id":"cebpf4jnsgd1na2vs0mg"},{"bike_id":"f4b2dfd1-c03e-48bc-85ee-76afe2a44f28","system_id":"levelo_inurba_marseille","lat":43.30149,"lon":5.38067,"is_reserved":false,"is_disabled":false,"rental_uris":{"android":"levelo://app?vid=f4b2dfd1-c03e-48bc-85ee-76afe2a44f28","ios":"levelo://app?vid=f4b2dfd1-c03e-48bc-85ee-76afe2a44f28"},"vehicle_type_id":"4","last_reported":1757736688,"current_range_meters":12000,"station_id":"ce4bgjp2rcd13ifvqbh0","pricing_plan_id":"cebpf4jnsgd1na2vs0mg"},{"bike_id":"efa41bb1-3310-4c1b-b08b-8ce62c8e424b","system_id":"levelo_inurba_marseille","lat":43.27067,"lon":5.42266,"is_reserved":false,"is_disabled":false,"rental_uris":{"android":"levelo://app?vid=efa41bb1-3310-4c1b-b08b-8ce62c8e424b","ios":"levelo://app?vid=efa41bb1-3310-4c1b-b08b-8ce62c8e424b"},"vehicle_type_id":"4","last_reported":1757736688,"current_range_meters":12000,"station_id":"ce4bhk92rcd13ifvqgb0","pricing_plan_id":"cebpf4jnsgd1na2vs0mg"},{"bike_id":"03c2ec64-ae7a-4919-aac4-72075f96bfda","system_id":"levelo_inurba_marseille","lat":43.28341,"lon":5.38084,"is_reserved":false,"is_disabled":false,"rental_uris":{"android":"levelo://app?vid=03c2ec64-ae7a-4919-aac4-72075f96bfda","ios":"levelo://app?vid=03c2ec64-ae7a-4919-aac4-72075f96bfda"},"vehicle_type_id":"4","last_reported":1757736688,"current_range_meters":12000,"station_id":"ce4bh412rcd13ifvqdr0","pricing_plan_id":"cebpf4jnsgd1na2vs0mg"},{"bike_id":"a74163ad-2478-47a4-b2ef-85e5bab6f1c5","system_id":"levelo_inurba_marseille","lat":43.24072,"lon":5.37763,"is_reserved":false,"is_disabled":false,"rental_uris":{"android":"levelo://app?vid=a74163ad-2478-47a4-b2ef-85e5bab6f1c5","ios":"levelo://app?vid=a74163ad-2478-47a4-b2ef-85e5bab6f1c5"},"vehicle_type_id":"4","last_reported":1757736688,"current_range_meters":12000,"station_id":"ce4bhnp2rcd13ifvqgvg","pricing_plan_id":"cebpf4jnsgd1na2vs0mg"},{"bike_id":"fb135702-3497-4a53-8709-882e75f58370","system_id":"levelo_inurba_marseille","lat":43.28615,"lon":5.35098,"is_reserved":false,"is_disabled":false,"rental_uris":{"android":"levelo://app?vid=fb135702-3497-4a53-8709-882e75f58370","ios":"levelo://app?vid=fb135702-3497-4a53-8709-882e75f58370"},"vehicle_type_id":"4","last_reported":1757736688,"current_range_meters":12400,"station_id":"ce4bhch2rcd13ifvqeug","pricing_plan_id":"cebpf4jnsgd1na2vs0mg"},{"bike_id":"985c4f56-c378-4f55-b5bf-d2ba1346b657","system_id":"levelo_inurba_marseille","lat":43.2891,"lon":5.38385,"is_reserved":false,"is_disabled":true,"rental_uris":{"android":"levelo://app?vid=985c4f56-c378-4f55-b5bf-d2ba1346b657","ios":"levelo://app?vid=985c4f56-c378-4f55-b5bf-d2ba1346b657"},"vehicle_type_id":"4","last_reported":1757736688,"current_range_meters":12400,"station_id":"ce4bh612rcd13ifvqe6g","pricing_plan_id":"cebpf4jnsgd1na2vs0mg"},{"bike_id":"c15b6db4-340d-4dcc-a13d-27747086e61e","system_id":"levelo_inurba_marseille","lat":43.28009,"lon":5.40002,"is_reserved":false,"is_disabled":false,"rental_uris":{"android":"levelo://app?vid=c15b6db4-340d-4dcc-a13d-27747086e61e","ios":"levelo://app?vid=c15b6db4-340d-4dcc-a13d-27747086e61e"},"vehicle_type_id":"4","last_reported":1757736688,"current_range_meters":12400,"station_id":"ce4bho92rcd13ifvqh4g","pricing_plan_id":"cebpf4jnsgd1na2vs0mg"},{"bike_id":"9ea214cd-c5f8-441b-9338-7fcf595de156","system_id":"levelo_inurba_marseille","lat":43.21192,"lon":5.35068,"is_reserved":false,"is_disabled":false,"rental_uris":{"android":"levelo://app?vid=9ea214cd-c5f8-441b-9338-7fcf595de156","ios":"levelo://app?vid=9ea214cd-c5f8-441b-9338-7fcf595de156"},"vehicle_type_id":"4","last_reported":1757736688,"current_range_meters":12800,"station_id":"st_cvj6sg6p6f1abm77japg","pricing_plan_id":"cebpf4jnsgd1na2vs0mg"},{"bike_id":"12e80327-c117-49d1-98d6-82405523b24c","system_id":"levelo_inurba_marseille","lat":43.33581,"lon":5.41045,"is_reserved":false,"is_disabled":false,"rental_uris":{"android":"levelo://app?vid=12e80327-c117-49d1-98d6-82405523b24c","ios":"levelo://app?vid=12e80327-c117-49d1-98d6-82405523b24c"},"vehicle_type_id":"4","last_reported":1757736688,"current_range_meters":12800,"station_id":"ce4bhqh2rcd13ifvqhmg","pricing_plan_id":"cebpf4jnsgd1na2vs0mg"},{"bike_id":"a24c4696-920b-4645-847f-87e0b46915a6","system_id":"levelo_inurba_marseille","lat":43.324245,"lon":5.424845,"is_reserved":false,"is_disabled":false,"rental_uris":{"android":"levelo://app?vid=a24c4696-920b-4645-847f-87e0b46915a6","ios":"levelo://app?vid=a24c4696-920b-4645-847f-87e0b46915a6"},"vehicle_type_id":"4","last_reported":1757736688,"current_range_meters":12800,"station_id":"","pricing_plan_id":"cebpf4jnsgd1na2vs0mg"},{"bike_id":"f24cd637-2a13-4120-b81f-882de2ef79b6","system_id":"levelo_inurba_marseille","lat":43.3093,"lon":5.40143,"is_reserved":false,"is_disabled":false,"rental_uris":{"android":"levelo://app?vid=f24cd637-2a13-4120-b81f-882de2ef79b6","ios":"levelo://app?vid=f24cd637-2a13-4120-b81f-882de2ef79b6"},"vehicle_type_id":"4","last_reported":1757736688,"current_range_meters":12800,"station_id":"ce4bgvp2rcd13ifvqct0","pricing_plan_id":"cebpf4jnsgd1na2vs0mg"},{"bike_id":"b2aeb6a5-74a2-46fb-ba9a-314058d95425","system_id":"levelo_inurba_marseille","lat":43.231928,"lon":5.355562,"is_reserved":false,"is_disabled":false,"rental_uris":{"android":"levelo://app?vid=b2aeb6a5-74a2-46fb-ba9a-314058d95425","ios":"levelo://app?vid=b2aeb6a5-74a2-46fb-ba9a-314058d95425"},"vehicle_type_id":"4","last_reported":1757736688,"current_range_meters":12800,"station_id":"ce4bhu92rcd13ifvqi70","pricing_plan_id":"cebpf4jnsgd1na2vs0mg"},{"bike_id":"49672130-5e5d-4bd8-b10c-10c3bec7a880","system_id":"levelo_inurba_marseille","lat":43.35016,"lon":5.35049,"is_reserved":false,"is_disabled":false,"rental_uris":{"android":"levelo://app?vid=49672130-5e5d-4bd8-b10c-10c3bec7a880","ios":"levelo://app?vid=49672130-5e5d-4bd8-b10c-10c3bec7a880"},"vehicle_type_id":"4","last_reported":1757736688,"current_range_meters":13600,"station_id":"","pricing_plan_id":"cebpf4jnsgd1na2vs0mg"},{"bike_id":"6515536f-56de-4109-b7a1-24c742aed225","system_id":"levelo_inurba_marseille","lat":43.320238,"lon":5.37232,"is_reserved":false,"is_disabled":false,"rental_uris":{"android":"levelo://app?vid=6515536f-56de-4109-b7a1-24c742aed225","ios":"levelo://app?vid=6515536f-56de-4109-b7a1-24c742aed225"},"vehicle_type_id":"4","last_reported":1757736688,"current_range_meters":13600,"station_id":"","pricing_plan_id":"cebpf4jnsgd1na2vs0mg"},{"bike_id":"468b29b7-c0e4-4fb5-98d3-7139e8424f60","system_id":"levelo_inurba_marseille","lat":43.32106,"lon":5.36773,"is_reserved":false,"is_disabled":false,"rental_uris":{"android":"levelo://app?vid=468b29b7-c0e4-4fb5-98d3-7139e8424f60","ios":"levelo://app?vid=468b29b7-c0e4-4fb5-98d3-7139e8424f60"},"vehicle_type_id":"4","last_reported":1757736688,"current_range_meters":13600,"station_id":"ce4bhrh2rcd13ifvqhug","pricing_plan_id":"cebpf4jnsgd1na2vs0mg"},{"bike_id":"9fdce098-492a-40f9-ae29-95caf53fef79","system_id":"levelo_inurba_marseille","lat":43.326873,"lon":5.391469,"is_reserved":false,"is_disabled":false,"rental_uris":{"android":"levelo://app?vid=9fdce098-492a-40f9-ae29-95caf53fef79","ios":"levelo://app?vid=9fdce098-492a-40f9-ae29-95caf53fef79"},"vehicle_type_id":"4","last_reported":1757736688,"current_range_meters":13600,"station_id":"","pricing_plan_id":"cebpf4jnsgd1na2vs0mg"},{"bike_id":"7f696ba1-833f-412e-8b5d-d4d815a574fc","system_id":"levelo_inurba_marseille","lat":43.298322,"lon":5.37155,"is_reserved":false,"is_disabled":false,"rental_uris":{"android":"levelo://app?vid=7f696ba1-833f-412e-8b5d-d4d815a574fc","ios":"levelo://app?vid=7f696ba1-833f-412e-8b5d-d4d815a574fc"},"vehicle_type_id":"4","last_reported":1757736688,"current_range_meters":13600,"station_id":"","pricing_plan_id":"cebpf4jnsgd1na2vs0mg"},{"bike_id":"eb63930d-877a-441f-b341-64b2d52383d4","system_id":"levelo_inurba_marseille","lat":43.33007,"lon":5.38996,"is_reserved":false,"is_disabled":false,"rental_uris":{"android":"levelo://app?vid=eb63930d-877a-441f-b341-64b2d52383d4","ios":"levelo://app?vid=eb63930d-877a-441f-b341-64b2d52383d4"},"vehicle_type_id":"4","last_reported":1757736688,"current_range_meters":13600,"station_id":"ce4bhr92rcd13ifvqhrg","pricing_plan_id":"cebpf4jnsgd1na2vs0mg"},{"bike_id":"d1dd7cda-331f-4e27-b4d7-1c497b39889f","system_id":"levelo_inurba_marseille","lat":43.273862,"lon":5.362601,"is_reserved":false,"is_disabled":true,"rental_uris":{"android":"levelo://app?vid=d1dd7cda-331f-4e27-b4d7-1c497b39889f","ios":"levelo://app?vid=d1dd7cda-331f-4e27-b4d7-1c497b39889f"},"vehicle_type_id":"4","last_reported":1757736688,"current_range_meters":13600,"station_id":"","pricing_plan_id":"cebpf4jnsgd1na2vs0mg"},{"bike_id":"85e137ee-ba02-4875-8407-865445509c75","system_id":"levelo_inurba_marseille","lat":43.28149,"lon":5.42632,"is_reserved":false,"is_disabled":false,"rental_uris":{"android":"levelo://app?vid=85e137ee-ba02-4875-8407-865445509c75","ios":"levelo://app?vid=85e137ee-ba02-4875-8407-865445509c75"},"vehicle_type_id":"4","last_reported":1757736688,"current_range_meters":14000,"station_id":"ce4bhnh2rcd13ifvqgug","pricing_plan_id":"cebpf4jnsgd1na2vs0mg"},{"bike_id":"a8200689-d7b2-4d2e-b5a2-52cc95231e31","system_id":"levelo_inurba_marseille","lat":43.24167,"lon":5.36394,"is_reserved":false,"is_disabled":false,"rental_uris":{"android":"levelo://app?vid=a8200689-d7b2-4d2e-b5a2-52cc95231e31","ios":"levelo://app?vid=a8200689-d7b2-4d2e-b5a2-52cc95231e31"},"vehicle_type_id":"4","last_reported":1757736688,"current_range_meters":14000,"station_id":"cpo36qri1sfpv3e86is0","pricing_plan_id":"cebpf4jnsgd1na2vs0mg"},{"bike_id":"f8f877fc-03b2-4e77-a7a3-38bb9659090d","system_id":"levelo_inurba_marseille","lat":43.26573,"lon":5.40318,"is_reserved":false,"is_disabled":false,"rental_uris":{"android":"levelo://app?vid=f8f877fc-03b2-4e77-a7a3-38bb9659090d","ios":"levelo://app?vid=f8f877fc-03b2-4e77-a7a3-38bb9659090d"},"vehicle_type_id":"4","last_reported":1757736688,"current_range_meters":14000,"station_id":"ce4bhmp2rcd13ifvqgng","pricing_plan_id":"cebpf4jnsgd1na2vs0mg"},{"bike_id":"858374bb-59c5-4ecc-9916-a26e9e545707","system_id":"levelo_inurba_marseille","lat":43.254018,"lon":5.418834,"is_reserved":false,"is_disabled":false,"rental_uris":{"android":"levelo://app?vid=858374bb-59c5-4ecc-9916-a26e9e545707","ios":"levelo://app?vid=858374bb-59c5-4ecc-9916-a26e9e545707"},"vehicle_type_id":"4","last_reported":1757736688,"current_range_meters":14000,"station_id":"","pricing_plan_id":"cebpf4jnsgd1na2vs0mg"},{"bike_id":"7650a074-bf1c-46f9-a956-be6537254832","system_id":"levelo_inurba_marseille","lat":43.23139,"lon":5.43718,"is_reserved":false,"is_disabled":false,"rental_uris":{"android":"levelo://app?vid=7650a074-bf1c-46f9-a956-be6537254832","ios":"levelo://app?vid=7650a074-bf1c-46f9-a956-be6537254832"},"vehicle_type_id":"4","last_reported":1757736688,"current_range_meters":14000,"station_id":"ce4bhmp2rcd13ifvqgog","pricing_plan_id":"cebpf4jnsgd1na2vs0mg"},{"bike_id":"afa5b270-1b82-4b90-8fe4-7ae439ce006b","system_id":"levelo_inurba_marseille","lat":43.27982,"lon":5.41657,"is_reserved":false,"is_disabled":false,"rental_uris":{"android":"levelo://app?vid=afa5b270-1b82-4b90-8fe4-7ae439ce006b","ios":"levelo://app?vid=afa5b270-1b82-4b90-8fe4-7ae439ce006b"},"vehicle_type_id":"4","last_reported":1757736688,"current_range_meters":14000,"station_id":"ce4bho12rcd13ifvqh1g","pricing_plan_id":"cebpf4jnsgd1na2vs0mg"},{"bike_id":"0c78ed8a-2af8-4f2c-895d-0de884f1c9f2","system_id":"levelo_inurba_marseille","lat":43.29899,"lon":5.43681,"is_reserved":false,"is_disabled":false,"rental_uris":{"android":"levelo://app?vid=0c78ed8a-2af8-4f2c-895d-0de884f1c9f2","ios":"levelo://app?vid=0c78ed8a-2af8-4f2c-895d-0de884f1c9f2"},"vehicle_type_id":"4","last_reported":1757736688,"current_range_meters":14000,"station_id":"ce4bhpp2rcd13ifvqhfg","pricing_plan_id":"cebpf4jnsgd1na2vs0mg"},{"bike_id":"091601b3-3c5a-42ff-866e-cde10b59b3c0","system_id":"levelo_inurba_marseille","lat":43.30783,"lon":5.37437,"is_reserved":false,"is_disabled":false,"rental_uris":{"android":"levelo://app?vid=091601b3-3c5a-42ff-866e-cde10b59b3c0","ios":"levelo://app?vid=091601b3-3c5a-42ff-866e-cde10b59b3c0"},"vehicle_type_id":"4","last_reported":1757736688,"current_range_meters":14000,"station_id":"","pricing_plan_id":"cebpf4jnsgd1na2vs0mg"},{"bike_id":"10dfb71d-b4fe-4c66-9e42-a774a54e4626","system_id":"levelo_inurba_marseille","lat":43.25111,"lon":5.40325,"is_reserved":false,"is_disabled":false,"rental_uris":{"android":"levelo://app?vid=10dfb71d-b4fe-4c66-9e42-a774a54e4626","ios":"levelo://app?vid=10dfb71d-b4fe-4c66-9e42-a774a54e4626"},"vehicle_type_id":"4","last_reported":1757736688,"current_range_meters":14000,"station_id":"ce4bhlh2rcd13ifvqgig","pricing_plan_id":"cebpf4jnsgd1na2vs0mg"},{"bike_id":"87b66328-2dfb-4005-b4e3-b1beae9a9a65","system_id":"levelo_inurba_marseille","lat":43.309303,"lon":5.401469,"is_reserved":false,"is_disabled":false,"rental_uris":{"android":"levelo://app?vid=87b66328-2dfb-4005-b4e3-b1beae9a9a65","ios":"levelo://app?vid=87b66328-2dfb-4005-b4e3-b1beae9a9a65"},"vehicle_type_id":"4","last_reported":1757736688,"current_range_meters":14400,"station_id":"ce4bgvp2rcd13ifvqct0","pricing_plan_id":"cebpf4jnsgd1na2vs0mg"},{"bike_id":"fa598d9f-c511-4d86-b266-8f2a04717c18","system_id":"levelo_inurba_marseille","lat":43.248,"lon":5.37461,"is_reserved":false,"is_disabled":false,"rental_uris":{"android":"levelo://app?vid=fa598d9f-c511-4d86-b266-8f2a04717c18","ios":"levelo://app?vid=fa598d9f-c511-4d86-b266-8f2a04717c18"},"vehicle_type_id":"4","last_reported":1757736688,"current_range_meters":14400,"station_id":"ce4bhgh2rcd13ifvqfb0","pricing_plan_id":"cebpf4jnsgd1na2vs0mg"},{"bike_id":"e43fdc27-4283-4e61-97ff-9c2689a8903a","system_id":"levelo_inurba_marseille","lat":43.246598,"lon":5.381612,"is_reserved":false,"is_disabled":false,"rental_uris":{"android":"levelo://app?vid=e43fdc27-4283-4e61-97ff-9c2689a8903a","ios":"levelo://app?vid=e43fdc27-4283-4e61-97ff-9c2689a8903a"},"vehicle_type_id":"4","last_reported":1757736688,"current_range_meters":14400,"station_id":"ce4bhih2rcd13ifvqfr0","pricing_plan_id":"cebpf4jnsgd1na2vs0mg"},{"bike_id":"d987f56d-76e3-4f7b-9b84-5022d38036d0","system_id":"levelo_inurba_marseille","lat":43.25331,"lon":5.42158,"is_reserved":false,"is_disabled":false,"rental_uris":{"android":"levelo://app?vid=d987f56d-76e3-4f7b-9b84-5022d38036d0","ios":"levelo://app?vid=d987f56d-76e3-4f7b-9b84-5022d38036d0"},"vehicle_type_id":"4","last_reported":1757736688,"current_range_meters":14400,"station_id":"st_d2m65c5bi1j21697t3ng","pricing_plan_id":"cebpf4jnsgd1na2vs0mg"},{"bike_id":"140f33b8-1102-4f7e-b0ef-d83c5cd8bb96","system_id":"levelo_inurba_marseille","lat":43.23192,"lon":5.35556,"is_reserved":false,"is_disabled":false,"rental_uris":{"android":"levelo://app?vid=140f33b8-1102-4f7e-b0ef-d83c5cd8bb96","ios":"levelo://app?vid=140f33b8-1102-4f7e-b0ef-d83c5cd8bb96"},"vehicle_type_id":"4","last_reported":1757736688,"current_range_meters":14400,"station_id":"ce4bhu92rcd13ifvqi70","pricing_plan_id":"cebpf4jnsgd1na2vs0mg"},{"bike_id":"6fb5cb97-53ae-4a68-9c22-dcc5cae46a4e","system_id":"levelo_inurba_marseille","lat":43.309234,"lon":5.401605,"is_reserved":false,"is_disabled":false,"rental_uris":{"android":"levelo://app?vid=6fb5cb97-53ae-4a68-9c22-dcc5cae46a4e","ios":"levelo://app?vid=6fb5cb97-53ae-4a68-9c22-dcc5cae46a4e"},"vehicle_type_id":"4","last_reported":1757736688,"current_range_meters":14400,"station_id":"ce4bgvp2rcd13ifvqct0","pricing_plan_id":"cebpf4jnsgd1na2vs0mg"},{"bike_id":"412f4d56-bd65-4319-a08f-2d9e2a1aa2e9","system_id":"levelo_inurba_marseille","lat":43.29048,"lon":5.35915,"is_reserved":false,"is_disabled":false,"rental_uris":{"android":"levelo://app?vid=412f4d56-bd65-4319-a08f-2d9e2a1aa2e9","ios":"levelo://app?vid=412f4d56-bd65-4319-a08f-2d9e2a1aa2e9"},"vehicle_type_id":"4","last_reported":1757736688,"current_range_meters":14400,"station_id":"ce4bha92rcd13ifvqeg0","pricing_plan_id":"cebpf4jnsgd1na2vs0mg"},{"bike_id":"7068895e-81c5-46c1-85a7-fdbb8280530f","system_id":"levelo_inurba_marseille","lat":43.23971,"lon":5.36624,"is_reserved":false,"is_disabled":false,"rental_uris":{"android":"levelo://app?vid=7068895e-81c5-46c1-85a7-fdbb8280530f","ios":"levelo://app?vid=7068895e-81c5-46c1-85a7-fdbb8280530f"},"vehicle_type_id":"4","last_reported":1757736688,"current_range_meters":14400,"station_id":"ce4bhi12rcd13ifvqfp0","pricing_plan_id":"cebpf4jnsgd1na2vs0mg"},{"bike_id":"708d44d5-fee5-49f4-a114-1b8d9d46128f","system_id":"levelo_inurba_marseille","lat":43.31497,"lon":5.37305,"is_reserved":false,"is_disabled":false,"rental_uris":{"android":"levelo://app?vid=708d44d5-fee5-49f4-a114-1b8d9d46128f","ios":"levelo://app?vid=708d44d5-fee5-49f4-a114-1b8d9d46128f"},"vehicle_type_id":"4","last_reported":1757736688,"current_range_meters":14400,"station_id":"ce4bgt12rcd13ifvqcd0","pricing_plan_id":"cebpf4jnsgd1na2vs0mg"},{"bike_id":"5d2d49c3-df0a-4e43-a031-b4854d84eee8","system_id":"levelo_inurba_marseille","lat":43.23954,"lon":5.36646,"is_reserved":false,"is_disabled":false,"rental_uris":{"android":"levelo://app?vid=5d2d49c3-df0a-4e43-a031-b4854d84eee8","ios":"levelo://app?vid=5d2d49c3-df0a-4e43-a031-b4854d84eee8"},"vehicle_type_id":"4","last_reported":1757736688,"current_range_meters":14800,"station_id":"ce4bhi12rcd13ifvqfp0","pricing_plan_id":"cebpf4jnsgd1na2vs0mg"},{"bike_id":"6bc4356b-2683-48df-86f6-4f8709c558c6","system_id":"levelo_inurba_marseille","lat":43.24962,"lon":5.40492,"is_reserved":false,"is_disabled":false,"rental_uris":{"android":"levelo://app?vid=6bc4356b-2683-48df-86f6-4f8709c558c6","ios":"levelo://app?vid=6bc4356b-2683-48df-86f6-4f8709c558c6"},"vehicle_type_id":"4","last_reported":1757736688,"current_range_meters":14800,"station_id":"st_d2ngiaodas8pm72gd1h0","pricing_plan_id":"cebpf4jnsgd1na2vs0mg"},{"bike_id":"8a4d2a94-6dcc-48a7-bce6-1f6f98746be6","system_id":"levelo_inurba_marseille","lat":43.274965,"lon":5.424543,"is_reserved":false,"is_disabled":false,"rental_uris":{"android":"levelo://app?vid=8a4d2a94-6dcc-48a7-bce6-1f6f98746be6","ios":"levelo://app?vid=8a4d2a94-6dcc-48a7-bce6-1f6f98746be6"},"vehicle_type_id":"4","last_reported":1757736688,"current_range_meters":14800,"station_id":"ce4bhn92rcd13ifvqgrg","pricing_plan_id":"cebpf4jnsgd1na2vs0mg"},{"bike_id":"a18d488d-bc79-4ae3-9700-f844975e97be","system_id":"levelo_inurba_marseille","lat":43.310854,"lon":5.424408,"is_reserved":false,"is_disabled":false,"rental_uris":{"android":"levelo://app?vid=a18d488d-bc79-4ae3-9700-f844975e97be","ios":"levelo://app?vid=a18d488d-bc79-4ae3-9700-f844975e97be"},"vehicle_type_id":"4","last_reported":1757736688,"current_range_meters":14800,"station_id":"ce4bhp92rcd13ifvqhag","pricing_plan_id":"cebpf4jnsgd1na2vs0mg"},{"bike_id":"dcae514d-9200-43c1-9267-dee91427cf46","system_id":"levelo_inurba_marseille","lat":43.250873,"lon":5.39505,"is_reserved":false,"is_disabled":false,"rental_uris":{"android":"levelo://app?vid=dcae514d-9200-43c1-9267-dee91427cf46","ios":"levelo://app?vid=dcae514d-9200-43c1-9267-dee91427cf46"},"vehicle_type_id":"4","last_reported":1757736688,"current_range_meters":14800,"station_id":"ce4bhm12rcd13ifvqgkg","pricing_plan_id":"cebpf4jnsgd1na2vs0mg"},{"bike_id":"39c8e79c-8fdb-43bf-bb5b-3b331524bba4","system_id":"levelo_inurba_marseille","lat":43.29452,"lon":5.43835,"is_reserved":false,"is_disabled":false,"rental_uris":{"android":"levelo://app?vid=39c8e79c-8fdb-43bf-bb5b-3b331524bba4","ios":"levelo://app?vid=39c8e79c-8fdb-43bf-bb5b-3b331524bba4"},"vehicle_type_id":"4","last_reported":1757736688,"current_range_meters":14800,"station_id":"","pricing_plan_id":"cebpf4jnsgd1na2vs0mg"},{"bike_id":"b2083b1b-095d-48a2-b1a0-832cfd9422d2","system_id":"levelo_inurba_marseille","lat":43.2992,"lon":5.39741,"is_reserved":false,"is_disabled":false,"rental_uris":{"android":"levelo://app?vid=b2083b1b-095d-48a2-b1a0-832cfd9422d2","ios":"levelo://app?vid=b2083b1b-095d-48a2-b1a0-832cfd9422d2"},"vehicle_type_id":"4","last_reported":1757736688,"current_range_meters":15200,"station_id":"","pricing_plan_id":"cebpf4jnsgd1na2vs0mg"},{"bike_id":"c64581ca-910b-4768-9541-64d9566cd765","system_id":"levelo_inurba_marseille","lat":43.30431,"lon":5.38852,"is_reserved":false,"is_disabled":false,"rental_uris":{"android":"levelo://app?vid=c64581ca-910b-4768-9541-64d9566cd765","ios":"levelo://app?vid=c64581ca-910b-4768-9541-64d9566cd765"},"vehicle_type_id":"4","last_reported":1757736688,"current_range_meters":15200,"station_id":"ce4bgk12rcd13ifvqbi0","pricing_plan_id":"cebpf4jnsgd1na2vs0mg"},{"bike_id":"817f8f2d-0051-417c-b495-b637b594c5ae","system_id":"levelo_inurba_marseille","lat":43.284123,"lon":5.375163,"is_reserved":false,"is_disabled":true,"rental_uris":{"android":"levelo://app?vid=817f8f2d-0051-417c-b495-b637b594c5ae","ios":"levelo://app?vid=817f8f2d-0051-417c-b495-b637b594c5ae"},"vehicle_type_id":"4","last_reported":1757736688,"current_range_meters":15200,"station_id":"ce4bh412rcd13ifvqds0","pricing_plan_id":"cebpf4jnsgd1na2vs0mg"},{"bike_id":"9f13e3a4-d10f-4c9f-9d20-fdf23ab151a6","system_id":"levelo_inurba_marseille","lat":43.25586,"lon":5.38219,"is_reserved":false,"is_disabled":true,"rental_uris":{"android":"levelo://app?vid=9f13e3a4-d10f-4c9f-9d20-fdf23ab151a6","ios":"levelo://app?vid=9f13e3a4-d10f-4c9f-9d20-fdf23ab151a6"},"vehicle_type_id":"4","last_reported":1757736688,"current_range_meters":15200,"station_id":"ce4bhih2rcd13ifvqfs0","pricing_plan_id":"cebpf4jnsgd1na2vs0mg"},{"bike_id":"d5c98035-fc72-4062-a3ec-13203f68e8ed","system_id":"levelo_inurba_marseille","lat":43.288678,"lon":5.425154,"is_reserved":false,"is_disabled":false,"rental_uris":{"android":"levelo://app?vid=d5c98035-fc72-4062-a3ec-13203f68e8ed","ios":"levelo://app?vid=d5c98035-fc72-4062-a3ec-13203f68e8ed"},"vehicle_type_id":"4","last_reported":1757736688,"current_range_meters":15200,"station_id":"","pricing_plan_id":"cebpf4jnsgd1na2vs0mg"},{"bike_id":"02dbb44c-70e3-4a7a-b86e-6159cc35ba47","system_id":"levelo_inurba_marseille","lat":43.29587,"lon":5.38689,"is_reserved":false,"is_disabled":false,"rental_uris":{"android":"levelo://app?vid=02dbb44c-70e3-4a7a-b86e-6159cc35ba47","ios":"levelo://app?vid=02dbb44c-70e3-4a7a-b86e-6159cc35ba47"},"vehicle_type_id":"4","last_reported":1757736688,"current_range_meters":15200,"station_id":"ce4bgih2rcd13ifvqba0","pricing_plan_id":"cebpf4jnsgd1na2vs0mg"},{"bike_id":"4f3c0b34-d342-466a-a243-f2e18ef6f515","system_id":"levelo_inurba_marseille","lat":43.248128,"lon":5.374622,"is_reserved":false,"is_disabled":false,"rental_uris":{"android":"levelo://app?vid=4f3c0b34-d342-466a-a243-f2e18ef6f515","ios":"levelo://app?vid=4f3c0b34-d342-466a-a243-f2e18ef6f515"},"vehicle_type_id":"4","last_reported":1757736688,"current_range_meters":15200,"station_id":"ce4bhgh2rcd13ifvqfb0","pricing_plan_id":"cebpf4jnsgd1na2vs0mg"},{"bike_id":"e213f39e-a4d8-4608-9f3f-d29cabced392","system_id":"levelo_inurba_marseille","lat":43.30252,"lon":5.40074,"is_reserved":false,"is_disabled":false,"rental_uris":{"android":"levelo://app?vid=e213f39e-a4d8-4608-9f3f-d29cabced392","ios":"levelo://app?vid=e213f39e-a4d8-4608-9f3f-d29cabced392"},"vehicle_type_id":"4","last_reported":1757736688,"current_range_meters":16000,"station_id":"ce4bgvh2rcd13ifvqcs0","pricing_plan_id":"cebpf4jnsgd1na2vs0mg"},{"bike_id":"1f361235-877f-4750-ae21-f35369fb4a6c","system_id":"levelo_inurba_marseille","lat":43.3093,"lon":5.40154,"is_reserved":false,"is_disabled":false,"rental_uris":{"android":"levelo://app?vid=1f361235-877f-4750-ae21-f35369fb4a6c","ios":"levelo://app?vid=1f361235-877f-4750-ae21-f35369fb4a6c"},"vehicle_type_id":"4","last_reported":1757736688,"current_range_meters":16000,"station_id":"ce4bgvp2rcd13ifvqct0","pricing_plan_id":"cebpf4jnsgd1na2vs0mg"},{"bike_id":"55d59e02-f5a5-4e1a-9360-556e842fa2a4","system_id":"levelo_inurba_marseille","lat":43.33764,"lon":5.37496,"is_reserved":false,"is_disabled":false,"rental_uris":{"android":"levelo://app?vid=55d59e02-f5a5-4e1a-9360-556e842fa2a4","ios":"levelo://app?vid=55d59e02-f5a5-4e1a-9360-556e842fa2a4"},"vehicle_type_id":"4","last_reported":1757736688,"current_range_meters":16000,"station_id":"","pricing_plan_id":"cebpf4jnsgd1na2vs0mg"},{"bike_id":"d5fe8587-d577-4927-9f03-bf5f1fa338f3","system_id":"levelo_inurba_marseille","lat":43.32641,"lon":5.37521,"is_reserved":false,"is_disabled":false,"rental_uris":{"android":"levelo://app?vid=d5fe8587-d577-4927-9f03-bf5f1fa338f3","ios":"levelo://app?vid=d5fe8587-d577-4927-9f03-bf5f1fa338f3"},"vehicle_type_id":"4","last_reported":1757736688,"current_range_meters":16000,"station_id":"","pricing_plan_id":"cebpf4jnsgd1na2vs0mg"},{"bike_id":"84be000e-b186-4e60-8aaa-b7a0f42a7175","system_id":"levelo_inurba_marseille","lat":43.337776,"lon":5.374315,"is_reserved":false,"is_disabled":false,"rental_uris":{"android":"levelo://app?vid=84be000e-b186-4e60-8aaa-b7a0f42a7175","ios":"levelo://app?vid=84be000e-b186-4e60-8aaa-b7a0f42a7175"},"vehicle_type_id":"4","last_reported":1757736688,"current_range_meters":16000,"station_id":"","pricing_plan_id":"cebpf4jnsgd1na2vs0mg"},{"bike_id":"7dc00165-e583-4bd0-bbf8-f77743c96ba8","system_id":"levelo_inurba_marseille","lat":43.32348,"lon":5.36735,"is_reserved":false,"is_disabled":false,"rental_uris":{"android":"levelo://app?vid=7dc00165-e583-4bd0-bbf8-f77743c96ba8","ios":"levelo://app?vid=7dc00165-e583-4bd0-bbf8-f77743c96ba8"},"vehicle_type_id":"4","last_reported":1757736688,"current_range_meters":16000,"station_id":"ce4bhsh2rcd13ifvqi2g","pricing_plan_id":"cebpf4jnsgd1na2vs0mg"},{"bike_id":"2f51f322-8b2f-46cb-9e33-a6733b21e9ec","system_id":"levelo_inurba_marseille","lat":43.30437,"lon":5.38883,"is_reserved":false,"is_disabled":false,"rental_uris":{"android":"levelo://app?vid=2f51f322-8b2f-46cb-9e33-a6733b21e9ec","ios":"levelo://app?vid=2f51f322-8b2f-46cb-9e33-a6733b21e9ec"},"vehicle_type_id":"4","last_reported":1757736688,"current_range_meters":16000,"station_id":"ce4bgk12rcd13ifvqbi0","pricing_plan_id":"cebpf4jnsgd1na2vs0mg"},{"bike_id":"ba130961-8fba-495b-b802-0f3495419d49","system_id":"levelo_inurba_marseille","lat":43.309248,"lon":5.401552,"is_reserved":false,"is_disabled":false,"rental_uris":{"android":"levelo://app?vid=ba130961-8fba-495b-b802-0f3495419d49","ios":"levelo://app?vid=ba130961-8fba-495b-b802-0f3495419d49"},"vehicle_type_id":"4","last_reported":1757736688,"current_range_meters":16000,"station_id":"ce4bgvp2rcd13ifvqct0","pricing_plan_id":"cebpf4jnsgd1na2vs0mg"},{"bike_id":"22056c1f-5a5a-4970-84ab-9172106e8c1b","system_id":"levelo_inurba_marseille","lat":43.26276,"lon":5.39884,"is_reserved":false,"is_disabled":false,"rental_uris":{"android":"levelo://app?vid=22056c1f-5a5a-4970-84ab-9172106e8c1b","ios":"levelo://app?vid=22056c1f-5a5a-4970-84ab-9172106e8c1b"},"vehicle_type_id":"4","last_reported":1757736688,"current_range_meters":16000,"station_id":"","pricing_plan_id":"cebpf4jnsgd1na2vs0mg"},{"bike_id":"68489bd7-5f5c-4661-bada-ef101f8e01b1","system_id":"levelo_inurba_marseille","lat":43.32349,"lon":5.38874,"is_reserved":false,"is_disabled":false,"rental_uris":{"android":"levelo://app?vid=68489bd7-5f5c-4661-bada-ef101f8e01b1","ios":"levelo://app?vid=68489bd7-5f5c-4661-bada-ef101f8e01b1"},"vehicle_type_id":"4","last_reported":1757736688,"current_range_meters":16000,"station_id":"ce4bhqp2rcd13ifvqhog","pricing_plan_id":"cebpf4jnsgd1na2vs0mg"},{"bike_id":"e7a329bd-ed66-4ac7-aaba-63f2810ddd86","system_id":"levelo_inurba_marseille","lat":43.3191,"lon":5.372003,"is_reserved":false,"is_disabled":false,"rental_uris":{"android":"levelo://app?vid=e7a329bd-ed66-4ac7-aaba-63f2810ddd86","ios":"levelo://app?vid=e7a329bd-ed66-4ac7-aaba-63f2810ddd86"},"vehicle_type_id":"4","last_reported":1757736688,"current_range_meters":16400,"station_id":"","pricing_plan_id":"cebpf4jnsgd1na2vs0mg"},{"bike_id":"beb6189c-c21e-4836-b631-6b5c31a632d8","system_id":"levelo_inurba_marseille","lat":43.22567,"lon":5.41617,"is_reserved":false,"is_disabled":false,"rental_uris":{"android":"levelo://app?vid=beb6189c-c21e-4836-b631-6b5c31a632d8","ios":"levelo://app?vid=beb6189c-c21e-4836-b631-6b5c31a632d8"},"vehicle_type_id":"4","last_reported":1757736688,"current_range_meters":16400,"station_id":"st_d2o4gvlbi1j2169b742g","pricing_plan_id":"cebpf4jnsgd1na2vs0mg"},{"bike_id":"0f0e66ec-5f1c-40a8-8c5d-5ba1924a75a6","system_id":"levelo_inurba_marseille","lat":43.28406,"lon":5.3751,"is_reserved":false,"is_disabled":true,"rental_uris":{"android":"levelo://app?vid=0f0e66ec-5f1c-40a8-8c5d-5ba1924a75a6","ios":"levelo://app?vid=0f0e66ec-5f1c-40a8-8c5d-5ba1924a75a6"},"vehicle_type_id":"4","last_reported":1757736688,"current_range_meters":16400,"station_id":"ce4bh412rcd13ifvqds0","pricing_plan_id":"cebpf4jnsgd1na2vs0mg"},{"bike_id":"1bd07d49-9ddf-47b9-97ed-19427f874804","system_id":"levelo_inurba_marseille","lat":43.309211,"lon":5.401463,"is_reserved":false,"is_disabled":false,"rental_uris":{"android":"levelo://app?vid=1bd07d49-9ddf-47b9-97ed-19427f874804","ios":"levelo://app?vid=1bd07d49-9ddf-47b9-97ed-19427f874804"},"vehicle_type_id":"4","last_reported":1757736688,"current_range_meters":16400,"station_id":"ce4bgvp2rcd13ifvqct0","pricing_plan_id":"cebpf4jnsgd1na2vs0mg"},{"bike_id":"d9c11a94-d122-4240-b95b-24fdee8810ac","system_id":"levelo_inurba_marseille","lat":43.28282,"lon":5.39915,"is_reserved":false,"is_disabled":false,"rental_uris":{"android":"levelo://app?vid=d9c11a94-d122-4240-b95b-24fdee8810ac","ios":"levelo://app?vid=d9c11a94-d122-4240-b95b-24fdee8810ac"},"vehicle_type_id":"4","last_reported":1757736688,"current_range_meters":16400,"station_id":"","pricing_plan_id":"cebpf4jnsgd1na2vs0mg"},{"bike_id":"c573c0a2-0953-479b-afe0-e2c7bed87522","system_id":"levelo_inurba_marseille","lat":43.25727,"lon":5.41107,"is_reserved":false,"is_disabled":false,"rental_uris":{"android":"levelo://app?vid=c573c0a2-0953-479b-afe0-e2c7bed87522","ios":"levelo://app?vid=c573c0a2-0953-479b-afe0-e2c7bed87522"},"vehicle_type_id":"4","last_reported":1757736688,"current_range_meters":16000,"station_id":"ce4bhkp2rcd13ifvqgd0","pricing_plan_id":"cebpf4jnsgd1na2vs0mg"},{"bike_id":"2ef0338d-2a5b-49c8-b8b3-df9ba9cec0b6","system_id":"levelo_inurba_marseille","lat":43.28424,"lon":5.37514,"is_reserved":false,"is_disabled":false,"rental_uris":{"android":"levelo://app?vid=2ef0338d-2a5b-49c8-b8b3-df9ba9cec0b6","ios":"levelo://app?vid=2ef0338d-2a5b-49c8-b8b3-df9ba9cec0b6"},"vehicle_type_id":"4","last_reported":1757736688,"current_range_meters":16400,"station_id":"ce4bh412rcd13ifvqds0","pricing_plan_id":"cebpf4jnsgd1na2vs0mg"},{"bike_id":"f9f89625-b682-49b7-b62a-abce7197391c","system_id":"levelo_inurba_marseille","lat":43.27936,"lon":5.39605,"is_reserved":false,"is_disabled":false,"rental_uris":{"android":"levelo://app?vid=f9f89625-b682-49b7-b62a-abce7197391c","ios":"levelo://app?vid=f9f89625-b682-49b7-b62a-abce7197391c"},"vehicle_type_id":"4","last_reported":1757736688,"current_range_meters":16400,"station_id":"ce4bhf92rcd13ifvqf40","pricing_plan_id":"cebpf4jnsgd1na2vs0mg"},{"bike_id":"5c0e8970-f093-45be-a2dd-fa31f95f2217","system_id":"levelo_inurba_marseille","lat":43.28733,"lon":5.36069,"is_reserved":false,"is_disabled":false,"rental_uris":{"android":"levelo://app?vid=5c0e8970-f093-45be-a2dd-fa31f95f2217","ios":"levelo://app?vid=5c0e8970-f093-45be-a2dd-fa31f95f2217"},"vehicle_type_id":"4","last_reported":1757736688,"current_range_meters":16400,"station_id":"cki0cbj6b192h4jlfktg","pricing_plan_id":"cebpf4jnsgd1na2vs0mg"},{"bike_id":"0cef82c9-4baf-4345-8ffe-64ab9ec1eb98","system_id":"levelo_inurba_marseille","lat":43.3266,"lon":5.40964,"is_reserved":false,"is_disabled":false,"rental_uris":{"android":"levelo://app?vid=0cef82c9-4baf-4345-8ffe-64ab9ec1eb98","ios":"levelo://app?vid=0cef82c9-4baf-4345-8ffe-64ab9ec1eb98"},"vehicle_type_id":"4","last_reported":1757736688,"current_range_meters":16400,"station_id":"ce4bhpp2rcd13ifvqhgg","pricing_plan_id":"cebpf4jnsgd1na2vs0mg"},{"bike_id":"f8ffd399-b74b-428b-b8c5-652d37f4b22c","system_id":"levelo_inurba_marseille","lat":43.24941,"lon":5.404845,"is_reserved":false,"is_disabled":false,"rental_uris":{"android":"levelo://app?vid=f8ffd399-b74b-428b-b8c5-652d37f4b22c","ios":"levelo://app?vid=f8ffd399-b74b-428b-b8c5-652d37f4b22c"},"vehicle_type_id":"4","last_reported":1757736688,"current_range_meters":16800,"station_id":"st_d2ngiaodas8pm72gd1h0","pricing_plan_id":"cebpf4jnsgd1na2vs0mg"},{"bike_id":"cd104b68-7370-4e88-ba9c-1edeee0f6c77","system_id":"levelo_inurba_marseille","lat":43.25197,"lon":5.42544,"is_reserved":false,"is_disabled":false,"rental_uris":{"android":"levelo://app?vid=cd104b68-7370-4e88-ba9c-1edeee0f6c77","ios":"levelo://app?vid=cd104b68-7370-4e88-ba9c-1edeee0f6c77"},"vehicle_type_id":"4","last_reported":1757736688,"current_range_meters":16800,"station_id":"","pricing_plan_id":"cebpf4jnsgd1na2vs0mg"},{"bike_id":"d9c66413-fc0c-4d58-b9df-c55859e73212","system_id":"levelo_inurba_marseille","lat":43.28479,"lon":5.3589,"is_reserved":false,"is_disabled":true,"rental_uris":{"android":"levelo://app?vid=d9c66413-fc0c-4d58-b9df-c55859e73212","ios":"levelo://app?vid=d9c66413-fc0c-4d58-b9df-c55859e73212"},"vehicle_type_id":"4","last_reported":1757736688,"current_range_meters":16800,"station_id":"ce4bhah2rcd13ifvqei0","pricing_plan_id":"cebpf4jnsgd1na2vs0mg"},{"bike_id":"d5de80bb-0721-4676-b928-d659caed95b1","system_id":"levelo_inurba_marseille","lat":43.30131,"lon":5.38781,"is_reserved":false,"is_disabled":false,"rental_uris":{"android":"levelo://app?vid=d5de80bb-0721-4676-b928-d659caed95b1","ios":"levelo://app?vid=d5de80bb-0721-4676-b928-d659caed95b1"},"vehicle_type_id":"4","last_reported":1757736688,"current_range_meters":16800,"station_id":"ce4bghh2rcd13ifvqb60","pricing_plan_id":"cebpf4jnsgd1na2vs0mg"},{"bike_id":"47259b33-a6a1-45ed-8a8f-39016916a418","system_id":"levelo_inurba_marseille","lat":43.25125,"lon":5.40321,"is_reserved":false,"is_disabled":false,"rental_uris":{"android":"levelo://app?vid=47259b33-a6a1-45ed-8a8f-39016916a418","ios":"levelo://app?vid=47259b33-a6a1-45ed-8a8f-39016916a418"},"vehicle_type_id":"4","last_reported":1757736688,"current_range_meters":16800,"station_id":"ce4bhlh2rcd13ifvqgig","pricing_plan_id":"cebpf4jnsgd1na2vs0mg"},{"bike_id":"566b1f71-e6f7-4b45-845a-581254de6061","system_id":"levelo_inurba_marseille","lat":43.27503,"lon":5.42448,"is_reserved":false,"is_disabled":false,"rental_uris":{"android":"levelo://app?vid=566b1f71-e6f7-4b45-845a-581254de6061","ios":"levelo://app?vid=566b1f71-e6f7-4b45-845a-581254de6061"},"vehicle_type_id":"4","last_reported":1757736688,"current_range_meters":16800,"station_id":"ce4bhn92rcd13ifvqgrg","pricing_plan_id":"cebpf4jnsgd1na2vs0mg"},{"bike_id":"d50939ff-72cd-4b68-8002-44541c79e2d1","system_id":"levelo_inurba_marseille","lat":43.33596,"lon":5.41011,"is_reserved":false,"is_disabled":false,"rental_uris":{"android":"levelo://app?vid=d50939ff-72cd-4b68-8002-44541c79e2d1","ios":"levelo://app?vid=d50939ff-72cd-4b68-8002-44541c79e2d1"},"vehicle_type_id":"4","last_reported":1757736688,"current_range_meters":16800,"station_id":"ce4bhqh2rcd13ifvqhmg","pricing_plan_id":"cebpf4jnsgd1na2vs0mg"},{"bike_id":"31195751-bbc1-4ea5-8068-c21d8881b649","system_id":"levelo_inurba_marseille","lat":43.24054,"lon":5.37727,"is_reserved":false,"is_disabled":false,"rental_uris":{"android":"levelo://app?vid=31195751-bbc1-4ea5-8068-c21d8881b649","ios":"levelo://app?vid=31195751-bbc1-4ea5-8068-c21d8881b649"},"vehicle_type_id":"4","last_reported":1757736688,"current_range_meters":17200,"station_id":"ce4bhnp2rcd13ifvqgvg","pricing_plan_id":"cebpf4jnsgd1na2vs0mg"},{"bike_id":"0698b43c-1f5f-4fe9-bc60-835539c760ec","system_id":"levelo_inurba_marseille","lat":43.2875,"lon":5.37015,"is_reserved":false,"is_disabled":false,"rental_uris":{"android":"levelo://app?vid=0698b43c-1f5f-4fe9-bc60-835539c760ec","ios":"levelo://app?vid=0698b43c-1f5f-4fe9-bc60-835539c760ec"},"vehicle_type_id":"4","last_reported":1757736688,"current_range_meters":17200,"station_id":"","pricing_plan_id":"cebpf4jnsgd1na2vs0mg"},{"bike_id":"6ce09d0f-f80f-40c7-88c5-4e4555de0566","system_id":"levelo_inurba_marseille","lat":43.29526,"lon":5.39386,"is_reserved":false,"is_disabled":true,"rental_uris":{"android":"levelo://app?vid=6ce09d0f-f80f-40c7-88c5-4e4555de0566","ios":"levelo://app?vid=6ce09d0f-f80f-40c7-88c5-4e4555de0566"},"vehicle_type_id":"4","last_reported":1757736688,"current_range_meters":17200,"station_id":"ce4bh292rcd13ifvqdf0","pricing_plan_id":"cebpf4jnsgd1na2vs0mg"},{"bike_id":"ef4366e2-1abe-4b6e-80b6-2675457b8ba0","system_id":"levelo_inurba_marseille","lat":43.24033,"lon":5.37742,"is_reserved":false,"is_disabled":false,"rental_uris":{"android":"levelo://app?vid=ef4366e2-1abe-4b6e-80b6-2675457b8ba0","ios":"levelo://app?vid=ef4366e2-1abe-4b6e-80b6-2675457b8ba0"},"vehicle_type_id":"4","last_reported":1757736688,"current_range_meters":17200,"station_id":"ce4bhnp2rcd13ifvqgvg","pricing_plan_id":"cebpf4jnsgd1na2vs0mg"},{"bike_id":"1eaf7d24-f23e-4e79-b6f5-17176bccc028","system_id":"levelo_inurba_marseille","lat":43.27943,"lon":5.38672,"is_reserved":false,"is_disabled":true,"rental_uris":{"android":"levelo://app?vid=1eaf7d24-f23e-4e79-b6f5-17176bccc028","ios":"levelo://app?vid=1eaf7d24-f23e-4e79-b6f5-17176bccc028"},"vehicle_type_id":"4","last_reported":1757736688,"current_range_meters":17200,"station_id":"","pricing_plan_id":"cebpf4jnsgd1na2vs0mg"},{"bike_id":"ee42c31a-b74b-4b2d-917a-cd50dc10c6ce","system_id":"levelo_inurba_marseille","lat":43.330231,"lon":5.390336,"is_reserved":false,"is_disabled":false,"rental_uris":{"android":"levelo://app?vid=ee42c31a-b74b-4b2d-917a-cd50dc10c6ce","ios":"levelo://app?vid=ee42c31a-b74b-4b2d-917a-cd50dc10c6ce"},"vehicle_type_id":"4","last_reported":1757736688,"current_range_meters":17200,"station_id":"ce4bhr92rcd13ifvqhrg","pricing_plan_id":"cebpf4jnsgd1na2vs0mg"},{"bike_id":"16e22d32-edc3-447e-8690-15b37970edb4","system_id":"levelo_inurba_marseille","lat":43.297726,"lon":5.403964,"is_reserved":false,"is_disabled":false,"rental_uris":{"android":"levelo://app?vid=16e22d32-edc3-447e-8690-15b37970edb4","ios":"levelo://app?vid=16e22d32-edc3-447e-8690-15b37970edb4"},"vehicle_type_id":"4","last_reported":1757736688,"current_range_meters":17200,"station_id":"ce4bh112rcd13ifvqd90","pricing_plan_id":"cebpf4jnsgd1na2vs0mg"},{"bike_id":"63f62ab8-ad4f-46eb-a955-5eb7c8ca62d1","system_id":"levelo_inurba_marseille","lat":43.25332,"lon":5.42168,"is_reserved":false,"is_disabled":false,"rental_uris":{"android":"levelo://app?vid=63f62ab8-ad4f-46eb-a955-5eb7c8ca62d1","ios":"levelo://app?vid=63f62ab8-ad4f-46eb-a955-5eb7c8ca62d1"},"vehicle_type_id":"4","last_reported":1757736688,"current_range_meters":17200,"station_id":"st_d2m65c5bi1j21697t3ng","pricing_plan_id":"cebpf4jnsgd1na2vs0mg"},{"bike_id":"3b39d924-953d-4edd-af62-bb8d9fc7da3d","system_id":"levelo_inurba_marseille","lat":43.30134,"lon":5.3987,"is_reserved":false,"is_disabled":false,"rental_uris":{"android":"levelo://app?vid=3b39d924-953d-4edd-af62-bb8d9fc7da3d","ios":"levelo://app?vid=3b39d924-953d-4edd-af62-bb8d9fc7da3d"},"vehicle_type_id":"4","last_reported":1757736688,"current_range_meters":16800,"station_id":"ce4bh0h2rcd13ifvqd40","pricing_plan_id":"cebpf4jnsgd1na2vs0mg"},{"bike_id":"c5cba6d7-e282-4417-a818-5fc0802dcb08","system_id":"levelo_inurba_marseille","lat":43.33761,"lon":5.3745,"is_reserved":false,"is_disabled":false,"rental_uris":{"android":"levelo://app?vid=c5cba6d7-e282-4417-a818-5fc0802dcb08","ios":"levelo://app?vid=c5cba6d7-e282-4417-a818-5fc0802dcb08"},"vehicle_type_id":"4","last_reported":1757736688,"current_range_meters":17200,"station_id":"","pricing_plan_id":"cebpf4jnsgd1na2vs0mg"},{"bike_id":"40207740-3997-48f7-a3a9-b19ccf0a0c3b","system_id":"levelo_inurba_marseille","lat":43.3042,"lon":5.41269,"is_reserved":false,"is_disabled":false,"rental_uris":{"android":"levelo://app?vid=40207740-3997-48f7-a3a9-b19ccf0a0c3b","ios":"levelo://app?vid=40207740-3997-48f7-a3a9-b19ccf0a0c3b"},"vehicle_type_id":"4","last_reported":1757736688,"current_range_meters":17200,"station_id":"ce4bhop2rcd13ifvqh8g","pricing_plan_id":"cebpf4jnsgd1na2vs0mg"},{"bike_id":"c682ef70-00bc-4415-9b10-9a35bd5ddcc1","system_id":"levelo_inurba_marseille","lat":43.2749,"lon":5.42459,"is_reserved":false,"is_disabled":false,"rental_uris":{"android":"levelo://app?vid=c682ef70-00bc-4415-9b10-9a35bd5ddcc1","ios":"levelo://app?vid=c682ef70-00bc-4415-9b10-9a35bd5ddcc1"},"vehicle_type_id":"4","last_reported":1757736688,"current_range_meters":17600,"station_id":"ce4bhn92rcd13ifvqgrg","pricing_plan_id":"cebpf4jnsgd1na2vs0mg"},{"bike_id":"7309bff2-c91b-4a0a-9175-9416d58cf78c","system_id":"levelo_inurba_marseille","lat":43.304606,"lon":5.389168,"is_reserved":false,"is_disabled":false,"rental_uris":{"android":"levelo://app?vid=7309bff2-c91b-4a0a-9175-9416d58cf78c","ios":"levelo://app?vid=7309bff2-c91b-4a0a-9175-9416d58cf78c"},"vehicle_type_id":"4","last_reported":1757736688,"current_range_meters":17600,"station_id":"ce4bgk12rcd13ifvqbi0","pricing_plan_id":"cebpf4jnsgd1na2vs0mg"},{"bike_id":"39a5770b-4a4d-4691-a011-808b644e6c2b","system_id":"levelo_inurba_marseille","lat":43.275852,"lon":5.417641,"is_reserved":false,"is_disabled":false,"rental_uris":{"android":"levelo://app?vid=39a5770b-4a4d-4691-a011-808b644e6c2b","ios":"levelo://app?vid=39a5770b-4a4d-4691-a011-808b644e6c2b"},"vehicle_type_id":"4","last_reported":1757736688,"current_range_meters":17600,"station_id":"","pricing_plan_id":"cebpf4jnsgd1na2vs0mg"},{"bike_id":"0facf608-b487-4eb7-a7ad-657b1c18c6ce","system_id":"levelo_inurba_marseille","lat":43.30136,"lon":5.3742,"is_reserved":false,"is_disabled":false,"rental_uris":{"android":"levelo://app?vid=0facf608-b487-4eb7-a7ad-657b1c18c6ce","ios":"levelo://app?vid=0facf608-b487-4eb7-a7ad-657b1c18c6ce"},"vehicle_type_id":"4","last_reported":1757736688,"current_range_meters":17200,"station_id":"ce4bgs92rcd13ifvqcc0","pricing_plan_id":"cebpf4jnsgd1na2vs0mg"},{"bike_id":"9df52c70-6127-40c8-b57a-28a090e0499a","system_id":"levelo_inurba_marseille","lat":43.31303,"lon":5.40161,"is_reserved":false,"is_disabled":false,"rental_uris":{"android":"levelo://app?vid=9df52c70-6127-40c8-b57a-28a090e0499a","ios":"levelo://app?vid=9df52c70-6127-40c8-b57a-28a090e0499a"},"vehicle_type_id":"4","last_reported":1757736688,"current_range_meters":17600,"station_id":"ce4bh092rcd13ifvqd30","pricing_plan_id":"cebpf4jnsgd1na2vs0mg"},{"bike_id":"986f11d8-1003-4830-932e-a59ca28f5df3","system_id":"levelo_inurba_marseille","lat":43.22934,"lon":5.35376,"is_reserved":false,"is_disabled":false,"rental_uris":{"android":"levelo://app?vid=986f11d8-1003-4830-932e-a59ca28f5df3","ios":"levelo://app?vid=986f11d8-1003-4830-932e-a59ca28f5df3"},"vehicle_type_id":"4","last_reported":1757736688,"current_range_meters":17600,"station_id":"cpo3532slgdg3j2ikp40","pricing_plan_id":"cebpf4jnsgd1na2vs0mg"},{"bike_id":"22f29fde-4cf5-4a9b-994a-0e2fd1967670","system_id":"levelo_inurba_marseille","lat":43.24171,"lon":5.363993,"is_reserved":false,"is_disabled":false,"rental_uris":{"android":"levelo://app?vid=22f29fde-4cf5-4a9b-994a-0e2fd1967670","ios":"levelo://app?vid=22f29fde-4cf5-4a9b-994a-0e2fd1967670"},"vehicle_type_id":"4","last_reported":1757736688,"current_range_meters":17600,"station_id":"cpo36qri1sfpv3e86is0","pricing_plan_id":"cebpf4jnsgd1na2vs0mg"},{"bike_id":"ff9bd97c-c74e-49e6-b694-d622f4688cac","system_id":"levelo_inurba_marseille","lat":43.32366,"lon":5.38876,"is_reserved":false,"is_disabled":false,"rental_uris":{"android":"levelo://app?vid=ff9bd97c-c74e-49e6-b694-d622f4688cac","ios":"levelo://app?vid=ff9bd97c-c74e-49e6-b694-d622f4688cac"},"vehicle_type_id":"4","last_reported":1757736688,"current_range_meters":18000,"station_id":"ce4bhqp2rcd13ifvqhog","pricing_plan_id":"cebpf4jnsgd1na2vs0mg"},{"bike_id":"a5c5de9d-d203-409f-b07e-87974e4d4f08","system_id":"levelo_inurba_marseille","lat":43.24821,"lon":5.37454,"is_reserved":false,"is_disabled":false,"rental_uris":{"android":"levelo://app?vid=a5c5de9d-d203-409f-b07e-87974e4d4f08","ios":"levelo://app?vid=a5c5de9d-d203-409f-b07e-87974e4d4f08"},"vehicle_type_id":"4","last_reported":1757736688,"current_range_meters":18000,"station_id":"ce4bhgh2rcd13ifvqfb0","pricing_plan_id":"cebpf4jnsgd1na2vs0mg"},{"bike_id":"4d6e6605-7f16-44fa-a19a-c138ee7cb360","system_id":"levelo_inurba_marseille","lat":43.33746,"lon":5.37454,"is_reserved":false,"is_disabled":false,"rental_uris":{"android":"levelo://app?vid=4d6e6605-7f16-44fa-a19a-c138ee7cb360","ios":"levelo://app?vid=4d6e6605-7f16-44fa-a19a-c138ee7cb360"},"vehicle_type_id":"4","last_reported":1757736688,"current_range_meters":18000,"station_id":"","pricing_plan_id":"cebpf4jnsgd1na2vs0mg"},{"bike_id":"9613ee4d-bd84-40ec-a183-9abb4af6a1b6","system_id":"levelo_inurba_marseille","lat":43.32369,"lon":5.3677,"is_reserved":false,"is_disabled":false,"rental_uris":{"android":"levelo://app?vid=9613ee4d-bd84-40ec-a183-9abb4af6a1b6","ios":"levelo://app?vid=9613ee4d-bd84-40ec-a183-9abb4af6a1b6"},"vehicle_type_id":"4","last_reported":1757736688,"current_range_meters":18000,"station_id":"ce4bhsh2rcd13ifvqi2g","pricing_plan_id":"cebpf4jnsgd1na2vs0mg"},{"bike_id":"3bc338fd-b3c5-4caa-b6e6-3c70a52689ba","system_id":"levelo_inurba_marseille","lat":43.315965,"lon":5.38887,"is_reserved":false,"is_disabled":false,"rental_uris":{"android":"levelo://app?vid=3bc338fd-b3c5-4caa-b6e6-3c70a52689ba","ios":"levelo://app?vid=3bc338fd-b3c5-4caa-b6e6-3c70a52689ba"},"vehicle_type_id":"4","last_reported":1757736688,"current_range_meters":18000,"station_id":"","pricing_plan_id":"cebpf4jnsgd1na2vs0mg"},{"bike_id":"b3680fc6-d8f0-424e-ad3e-08cae069ca79","system_id":"levelo_inurba_marseille","lat":43.23199,"lon":5.39994,"is_reserved":false,"is_disabled":true,"rental_uris":{"android":"levelo://app?vid=b3680fc6-d8f0-424e-ad3e-08cae069ca79","ios":"levelo://app?vid=b3680fc6-d8f0-424e-ad3e-08cae069ca79"},"vehicle_type_id":"4","last_reported":1757736688,"current_range_meters":18800,"station_id":"ce4bhn12rcd13ifvqgqg","pricing_plan_id":"cebpf4jnsgd1na2vs0mg"},{"bike_id":"42699049-e617-4f44-9d85-7736b5c62a19","system_id":"levelo_inurba_marseille","lat":43.2771,"lon":5.38911,"is_reserved":false,"is_disabled":true,"rental_uris":{"android":"levelo://app?vid=42699049-e617-4f44-9d85-7736b5c62a19","ios":"levelo://app?vid=42699049-e617-4f44-9d85-7736b5c62a19"},"vehicle_type_id":"4","last_reported":1757736688,"current_range_meters":18800,"station_id":"ce4bhi12rcd13ifvqfo0","pricing_plan_id":"cebpf4jnsgd1na2vs0mg"},{"bike_id":"0418ed23-d4c6-49db-b310-d4f985bd3bc3","system_id":"levelo_inurba_marseille","lat":43.321138,"lon":5.367584,"is_reserved":false,"is_disabled":false,"rental_uris":{"android":"levelo://app?vid=0418ed23-d4c6-49db-b310-d4f985bd3bc3","ios":"levelo://app?vid=0418ed23-d4c6-49db-b310-d4f985bd3bc3"},"vehicle_type_id":"4","last_reported":1757736688,"current_range_meters":18800,"station_id":"ce4bhrh2rcd13ifvqhug","pricing_plan_id":"cebpf4jnsgd1na2vs0mg"},{"bike_id":"f25e3bda-5e1a-43ac-81fa-872411454589","system_id":"levelo_inurba_marseille","lat":43.24589,"lon":5.39241,"is_reserved":false,"is_disabled":false,"rental_uris":{"android":"levelo://app?vid=f25e3bda-5e1a-43ac-81fa-872411454589","ios":"levelo://app?vid=f25e3bda-5e1a-43ac-81fa-872411454589"},"vehicle_type_id":"4","last_reported":1757736688,"current_range_meters":18800,"station_id":"","pricing_plan_id":"cebpf4jnsgd1na2vs0mg"},{"bike_id":"bf63aad8-dedf-479f-beb1-66de6615be39","system_id":"levelo_inurba_marseille","lat":43.27954,"lon":5.4104,"is_reserved":false,"is_disabled":false,"rental_uris":{"android":"levelo://app?vid=bf63aad8-dedf-479f-beb1-66de6615be39","ios":"levelo://app?vid=bf63aad8-dedf-479f-beb1-66de6615be39"},"vehicle_type_id":"4","last_reported":1757736688,"current_range_meters":18800,"station_id":"ce4bhnp2rcd13ifvqh0g","pricing_plan_id":"cebpf4jnsgd1na2vs0mg"},{"bike_id":"41e933f6-5eca-4fa9-a89a-5018e73a8f57","system_id":"levelo_inurba_marseille","lat":43.30332,"lon":5.40441,"is_reserved":false,"is_disabled":false,"rental_uris":{"android":"levelo://app?vid=41e933f6-5eca-4fa9-a89a-5018e73a8f57","ios":"levelo://app?vid=41e933f6-5eca-4fa9-a89a-5018e73a8f57"},"vehicle_type_id":"4","last_reported":1757736688,"current_range_meters":18800,"station_id":"ce4bh012rcd13ifvqd10","pricing_plan_id":"cebpf4jnsgd1na2vs0mg"},{"bike_id":"6d6a2b27-0859-4fcb-bc2c-15f36408c7b8","system_id":"levelo_inurba_marseille","lat":43.28667,"lon":5.36345,"is_reserved":false,"is_disabled":false,"rental_uris":{"android":"levelo://app?vid=6d6a2b27-0859-4fcb-bc2c-15f36408c7b8","ios":"levelo://app?vid=6d6a2b27-0859-4fcb-bc2c-15f36408c7b8"},"vehicle_type_id":"4","last_reported":1757736688,"current_range_meters":18800,"station_id":"ce4bhah2rcd13ifvqej0","pricing_plan_id":"cebpf4jnsgd1na2vs0mg"},{"bike_id":"099dc754-cf09-4145-b6fa-59b333ab25e3","system_id":"levelo_inurba_marseille","lat":43.24626,"lon":5.43157,"is_reserved":false,"is_disabled":false,"rental_uris":{"android":"levelo://app?vid=099dc754-cf09-4145-b6fa-59b333ab25e3","ios":"levelo://app?vid=099dc754-cf09-4145-b6fa-59b333ab25e3"},"vehicle_type_id":"4","last_reported":1757736688,"current_range_meters":18800,"station_id":"st_d2m6c4gdas8pm72e190g","pricing_plan_id":"cebpf4jnsgd1na2vs0mg"},{"bike_id":"abef749f-66a4-4ff3-aa59-27b9b21d36f3","system_id":"levelo_inurba_marseille","lat":43.29914,"lon":5.39751,"is_reserved":false,"is_disabled":true,"rental_uris":{"android":"levelo://app?vid=abef749f-66a4-4ff3-aa59-27b9b21d36f3","ios":"levelo://app?vid=abef749f-66a4-4ff3-aa59-27b9b21d36f3"},"vehicle_type_id":"4","last_reported":1757736688,"current_range_meters":18800,"station_id":"ce4bh0h2rcd13ifvqd50","pricing_plan_id":"cebpf4jnsgd1na2vs0mg"},{"bike_id":"14e2496b-54f5-4a71-8a7b-f668d23f2674","system_id":"levelo_inurba_marseille","lat":43.25734,"lon":5.41107,"is_reserved":false,"is_disabled":false,"rental_uris":{"android":"levelo://app?vid=14e2496b-54f5-4a71-8a7b-f668d23f2674","ios":"levelo://app?vid=14e2496b-54f5-4a71-8a7b-f668d23f2674"},"vehicle_type_id":"4","last_reported":1757736688,"current_range_meters":18800,"station_id":"ce4bhkp2rcd13ifvqgd0","pricing_plan_id":"cebpf4jnsgd1na2vs0mg"},{"bike_id":"3edab8b5-08ab-4bd7-a8e3-46e14fec2b69","system_id":"levelo_inurba_marseille","lat":43.22567,"lon":5.41611,"is_reserved":false,"is_disabled":false,"rental_uris":{"android":"levelo://app?vid=3edab8b5-08ab-4bd7-a8e3-46e14fec2b69","ios":"levelo://app?vid=3edab8b5-08ab-4bd7-a8e3-46e14fec2b69"},"vehicle_type_id":"4","last_reported":1757736688,"current_range_meters":18800,"station_id":"st_d2o4gvlbi1j2169b742g","pricing_plan_id":"cebpf4jnsgd1na2vs0mg"},{"bike_id":"cfccc89a-5d54-40ed-b7f4-c7a0fcbc6642","system_id":"levelo_inurba_marseille","lat":43.309571,"lon":5.390226,"is_reserved":false,"is_disabled":true,"rental_uris":{"android":"levelo://app?vid=cfccc89a-5d54-40ed-b7f4-c7a0fcbc6642","ios":"levelo://app?vid=cfccc89a-5d54-40ed-b7f4-c7a0fcbc6642"},"vehicle_type_id":"4","last_reported":1757736688,"current_range_meters":18800,"station_id":"ce4bgup2rcd13ifvqco0","pricing_plan_id":"cebpf4jnsgd1na2vs0mg"},{"bike_id":"020e11fc-7572-40b0-a045-8b9615398614","system_id":"levelo_inurba_marseille","lat":43.28408,"lon":5.37504,"is_reserved":false,"is_disabled":false,"rental_uris":{"android":"levelo://app?vid=020e11fc-7572-40b0-a045-8b9615398614","ios":"levelo://app?vid=020e11fc-7572-40b0-a045-8b9615398614"},"vehicle_type_id":"4","last_reported":1757736688,"current_range_meters":18800,"station_id":"ce4bh412rcd13ifvqds0","pricing_plan_id":"cebpf4jnsgd1na2vs0mg"},{"bike_id":"8cba11da-a32c-4855-bd62-3db08b7c1962","system_id":"levelo_inurba_marseille","lat":43.29046,"lon":5.39938,"is_reserved":false,"is_disabled":false,"rental_uris":{"android":"levelo://app?vid=8cba11da-a32c-4855-bd62-3db08b7c1962","ios":"levelo://app?vid=8cba11da-a32c-4855-bd62-3db08b7c1962"},"vehicle_type_id":"4","last_reported":1757736688,"current_range_meters":19200,"station_id":"ce4bh392rcd13ifvqdm0","pricing_plan_id":"cebpf4jnsgd1na2vs0mg"},{"bike_id":"f6d86472-a28c-41be-bb7c-dd2e603882cb","system_id":"levelo_inurba_marseille","lat":43.312836,"lon":5.386219,"is_reserved":false,"is_disabled":false,"rental_uris":{"android":"levelo://app?vid=f6d86472-a28c-41be-bb7c-dd2e603882cb","ios":"levelo://app?vid=f6d86472-a28c-41be-bb7c-dd2e603882cb"},"vehicle_type_id":"4","last_reported":1757736688,"current_range_meters":19200,"station_id":"ce4bhgh2rcd13ifvqfb0","pricing_plan_id":"cebpf4jnsgd1na2vs0mg"},{"bike_id":"c75bfa20-483b-42f7-8a25-5f10e08a57b0","system_id":"levelo_inurba_marseille","lat":43.321244,"lon":5.367784,"is_reserved":false,"is_disabled":false,"rental_uris":{"android":"levelo://app?vid=c75bfa20-483b-42f7-8a25-5f10e08a57b0","ios":"levelo://app?vid=c75bfa20-483b-42f7-8a25-5f10e08a57b0"},"vehicle_type_id":"4","last_reported":1757736688,"current_range_meters":19200,"station_id":"ce4bhrh2rcd13ifvqhug","pricing_plan_id":"cebpf4jnsgd1na2vs0mg"},{"bike_id":"0ba03f7b-d2dd-4294-832b-b5a80343ad3e","system_id":"levelo_inurba_marseille","lat":43.25087,"lon":5.39501,"is_reserved":false,"is_disabled":false,"rental_uris":{"android":"levelo://app?vid=0ba03f7b-d2dd-4294-832b-b5a80343ad3e","ios":"levelo://app?vid=0ba03f7b-d2dd-4294-832b-b5a80343ad3e"},"vehicle_type_id":"4","last_reported":1757736688,"current_range_meters":19200,"station_id":"ce4bhm12rcd13ifvqgkg","pricing_plan_id":"cebpf4jnsgd1na2vs0mg"},{"bike_id":"9c70ed65-df17-4dc5-919f-45f705ae8357","system_id":"levelo_inurba_marseille","lat":43.305332,"lon":5.367224,"is_reserved":false,"is_disabled":false,"rental_uris":{"android":"levelo://app?vid=9c70ed65-df17-4dc5-919f-45f705ae8357","ios":"levelo://app?vid=9c70ed65-df17-4dc5-919f-45f705ae8357"},"vehicle_type_id":"4","last_reported":1757736688,"current_range_meters":19600,"station_id":"ce4bgrp2rcd13ifvqc9g","pricing_plan_id":"cebpf4jnsgd1na2vs0mg"},{"bike_id":"0993bc77-02b3-4f58-9048-8039fd513152","system_id":"levelo_inurba_marseille","lat":43.33026,"lon":5.39036,"is_reserved":false,"is_disabled":false,"rental_uris":{"android":"levelo://app?vid=0993bc77-02b3-4f58-9048-8039fd513152","ios":"levelo://app?vid=0993bc77-02b3-4f58-9048-8039fd513152"},"vehicle_type_id":"4","last_reported":1757736688,"current_range_meters":19600,"station_id":"ce4bhr92rcd13ifvqhrg","pricing_plan_id":"cebpf4jnsgd1na2vs0mg"},{"bike_id":"4de2e286-2aa2-4b64-acc2-1b608ab4b806","system_id":"levelo_inurba_marseille","lat":43.2907,"lon":5.39964,"is_reserved":false,"is_disabled":false,"rental_uris":{"android":"levelo://app?vid=4de2e286-2aa2-4b64-acc2-1b608ab4b806","ios":"levelo://app?vid=4de2e286-2aa2-4b64-acc2-1b608ab4b806"},"vehicle_type_id":"4","last_reported":1757736688,"current_range_meters":19600,"station_id":"ce4bh392rcd13ifvqdm0","pricing_plan_id":"cebpf4jnsgd1na2vs0mg"},{"bike_id":"5476d906-b0c2-4d37-81e0-6fc56d7abe48","system_id":"levelo_inurba_marseille","lat":43.31717,"lon":5.37647,"is_reserved":false,"is_disabled":false,"rental_uris":{"android":"levelo://app?vid=5476d906-b0c2-4d37-81e0-6fc56d7abe48","ios":"levelo://app?vid=5476d906-b0c2-4d37-81e0-6fc56d7abe48"},"vehicle_type_id":"4","last_reported":1757736688,"current_range_meters":19600,"station_id":"","pricing_plan_id":"cebpf4jnsgd1na2vs0mg"},{"bike_id":"4b8017e1-b0ec-4670-8eb7-609bfc309955","system_id":"levelo_inurba_marseille","lat":43.249602,"lon":5.404988,"is_reserved":false,"is_disabled":false,"rental_uris":{"android":"levelo://app?vid=4b8017e1-b0ec-4670-8eb7-609bfc309955","ios":"levelo://app?vid=4b8017e1-b0ec-4670-8eb7-609bfc309955"},"vehicle_type_id":"4","last_reported":1757736688,"current_range_meters":19600,"station_id":"st_d2ngiaodas8pm72gd1h0","pricing_plan_id":"cebpf4jnsgd1na2vs0mg"},{"bike_id":"cf598a45-3e64-4164-b570-1a150a235702","system_id":"levelo_inurba_marseille","lat":43.308835,"lon":5.396316,"is_reserved":false,"is_disabled":false,"rental_uris":{"android":"levelo://app?vid=cf598a45-3e64-4164-b570-1a150a235702","ios":"levelo://app?vid=cf598a45-3e64-4164-b570-1a150a235702"},"vehicle_type_id":"4","last_reported":1757736688,"current_range_meters":19600,"station_id":"ce4bh012rcd13ifvqcv0","pricing_plan_id":"cebpf4jnsgd1na2vs0mg"},{"bike_id":"c55ee23d-6b8d-41fd-8242-37730b98c6a0","system_id":"levelo_inurba_marseille","lat":43.30601,"lon":5.37215,"is_reserved":false,"is_disabled":false,"rental_uris":{"android":"levelo://app?vid=c55ee23d-6b8d-41fd-8242-37730b98c6a0","ios":"levelo://app?vid=c55ee23d-6b8d-41fd-8242-37730b98c6a0"},"vehicle_type_id":"4","last_reported":1757736688,"current_range_meters":19200,"station_id":"ce4bgqh2rcd13ifvqc4g","pricing_plan_id":"cebpf4jnsgd1na2vs0mg"},{"bike_id":"8ebe4342-e134-447e-8eb7-315e0e26a218","system_id":"levelo_inurba_marseille","lat":43.28875,"lon":5.35841,"is_reserved":false,"is_disabled":false,"rental_uris":{"android":"levelo://app?vid=8ebe4342-e134-447e-8eb7-315e0e26a218","ios":"levelo://app?vid=8ebe4342-e134-447e-8eb7-315e0e26a218"},"vehicle_type_id":"4","last_reported":1757736688,"current_range_meters":19600,"station_id":"ce4bhb12rcd13ifvqem0","pricing_plan_id":"cebpf4jnsgd1na2vs0mg"},{"bike_id":"085d1fc3-832e-4bb8-9dab-596c869e48fd","system_id":"levelo_inurba_marseille","lat":43.28218,"lon":5.3905,"is_reserved":false,"is_disabled":true,"rental_uris":{"android":"levelo://app?vid=085d1fc3-832e-4bb8-9dab-596c869e48fd","ios":"levelo://app?vid=085d1fc3-832e-4bb8-9dab-596c869e48fd"},"vehicle_type_id":"4","last_reported":1757736688,"current_range_meters":20000,"station_id":"ce4bhn92rcd13ifvqgsg","pricing_plan_id":"cebpf4jnsgd1na2vs0mg"},{"bike_id":"6d4ac21c-f56b-4a02-9497-51233e6cc553","system_id":"levelo_inurba_marseille","lat":43.26959,"lon":5.38633,"is_reserved":false,"is_disabled":false,"rental_uris":{"android":"levelo://app?vid=6d4ac21c-f56b-4a02-9497-51233e6cc553","ios":"levelo://app?vid=6d4ac21c-f56b-4a02-9497-51233e6cc553"},"vehicle_type_id":"4","last_reported":1757736688,"current_range_meters":19200,"station_id":"ce4bhh92rcd13ifvqfh0","pricing_plan_id":"cebpf4jnsgd1na2vs0mg"},