{"last_updated":1779125047,"ttl":60,"version":"2.2","data":{"bikes":[{"bike_id":"7d641315-6110-49cb-a9dd-d637ff032de1","system_id":"levelo_inurba_marseille","lat":43.337444,"lon":5.374475,"is_reserved":false,"is_disabled":false,"rental_uris":{"android":"levelo://app?vid=7d641315-6110-49cb-a9dd-d637ff032de1","ios":"levelo://app?vid=7d641315-6110-49cb-a9dd-d637ff032de1"},"vehicle_type_id":"4","last_reported":1779125048,"current_range_meters":0,"station_id":"","pricing_plan_id":"cebpf4jnsgd1na2vs0mg"},{"bike_id":"8c240bb7-ac48-48dd-b7c1-1519c2b2db9f","system_id":"levelo_inurba_marseille","lat":43.22922,"lon":5.35369,"is_reserved":false,"is_disabled":true,"rental_uris":{"android":"levelo://app?vid=8c240bb7-ac48-48dd-b7c1-1519c2b2db9f","ios":"levelo://app?vid=8c240bb7-ac48-48dd-b7c1-1519c2b2db9f"},"vehicle_type_id":"4","last_reported":1779125048,"current_range_meters":2800,"station_id":"cpo3532slgdg3j2ikp40","pricing_plan_id":"cebpf4jnsgd1na2vs0mg"},{"bike_id":"1bfafac4-9b56-450d-97c5-bd25c49d3ebe","system_id":"levelo_inurba_marseille","lat":43.25921,"lon":5.40896,"is_reserved":false,"is_disabled":true,"rental_uris":{"android":"levelo://app?vid=1bfafac4-9b56-450d-97c5-bd25c49d3ebe","ios":"levelo://app?vid=1bfafac4-9b56-450d-97c5-bd25c49d3ebe"},"vehicle_type_id":"4","last_reported":1779125048,"current_range_meters":2800,"station_id":"ce4bhm92rcd13ifvqglg","pricing_plan_id":"cebpf4jnsgd1na2vs0mg"},{"bike_id":"94bd4c19-520c-4554-a51f-4aa2c54f760e","system_id":"levelo_inurba_marseille","lat":43.25582,"lon":5.38245,"is_reserved":false,"is_disabled":false,"rental_uris":{"android":"levelo://app?vid=94bd4c19-520c-4554-a51f-4aa2c54f760e","ios":"levelo://app?vid=94bd4c19-520c-4554-a51f-4aa2c54f760e"},"vehicle_type_id":"4","last_reported":1779125048,"current_range_meters":2800,"station_id":"ce4bhih2rcd13ifvqfs0","pricing_plan_id":"cebpf4jnsgd1na2vs0mg"},{"bike_id":"1b9a4f9e-101a-4bd7-a664-7c121f897c2e","system_id":"levelo_inurba_marseille","lat":43.23029,"lon":5.40509,"is_reserved":false,"is_disabled":false,"rental_uris":{"android":"levelo://app?vid=1b9a4f9e-101a-4bd7-a664-7c121f897c2e","ios":"levelo://app?vid=1b9a4f9e-101a-4bd7-a664-7c121f897c2e"},"vehicle_type_id":"4","last_reported":1779125048,"current_range_meters":2800,"station_id":"","pricing_plan_id":"cebpf4jnsgd1na2vs0mg"},{"bike_id":"6ebb0c95-5c67-4e19-8746-517508b0fc19","system_id":"levelo_inurba_marseille","lat":43.25347,"lon":5.42159,"is_reserved":false,"is_disabled":false,"rental_uris":{"android":"levelo://app?vid=6ebb0c95-5c67-4e19-8746-517508b0fc19","ios":"levelo://app?vid=6ebb0c95-5c67-4e19-8746-517508b0fc19"},"vehicle_type_id":"4","last_reported":1779125048,"current_range_meters":2800,"station_id":"st_d2m65c5bi1j21697t3ng","pricing_plan_id":"cebpf4jnsgd1na2vs0mg"},{"bike_id":"08e71438-5de2-496b-a8f0-1255ee4478ad","system_id":"levelo_inurba_marseille","lat":43.25094,"lon":5.39516,"is_reserved":false,"is_disabled":false,"rental_uris":{"android":"levelo://app?vid=08e71438-5de2-496b-a8f0-1255ee4478ad","ios":"levelo://app?vid=08e71438-5de2-496b-a8f0-1255ee4478ad"},"vehicle_type_id":"4","last_reported":1779125048,"current_range_meters":2800,"station_id":"ce4bhm12rcd13ifvqgkg","pricing_plan_id":"cebpf4jnsgd1na2vs0mg"},{"bike_id":"af34900d-3e16-4051-bc1d-060f9b433ace","system_id":"levelo_inurba_marseille","lat":43.2848,"lon":5.38429,"is_reserved":false,"is_disabled":false,"rental_uris":{"android":"levelo://app?vid=af34900d-3e16-4051-bc1d-060f9b433ace","ios":"levelo://app?vid=af34900d-3e16-4051-bc1d-060f9b433ace"},"vehicle_type_id":"4","last_reported":1779125048,"current_range_meters":3200,"station_id":"ce4bh512rcd13ifvqe3g","pricing_plan_id":"cebpf4jnsgd1na2vs0mg"},{"bike_id":"14879dc1-e753-4f6e-9c87-644a9c28e92f","system_id":"levelo_inurba_marseille","lat":43.26581,"lon":5.37272,"is_reserved":false,"is_disabled":false,"rental_uris":{"android":"levelo://app?vid=14879dc1-e753-4f6e-9c87-644a9c28e92f","ios":"levelo://app?vid=14879dc1-e753-4f6e-9c87-644a9c28e92f"},"vehicle_type_id":"4","last_reported":1779125048,"current_range_meters":3200,"station_id":"ce4bhg12rcd13ifvqf70","pricing_plan_id":"cebpf4jnsgd1na2vs0mg"},{"bike_id":"bf5ed5db-0980-4ff9-b42f-6786eeec13b3","system_id":"levelo_inurba_marseille","lat":43.29542,"lon":5.38328,"is_reserved":false,"is_disabled":false,"rental_uris":{"android":"levelo://app?vid=bf5ed5db-0980-4ff9-b42f-6786eeec13b3","ios":"levelo://app?vid=bf5ed5db-0980-4ff9-b42f-6786eeec13b3"},"vehicle_type_id":"4","last_reported":1779125048,"current_range_meters":3200,"station_id":"","pricing_plan_id":"cebpf4jnsgd1na2vs0mg"},{"bike_id":"e0bb6494-3107-45d5-bf57-d23876a00455","system_id":"levelo_inurba_marseille","lat":43.21196,"lon":5.35068,"is_reserved":false,"is_disabled":false,"rental_uris":{"android":"levelo://app?vid=e0bb6494-3107-45d5-bf57-d23876a00455","ios":"levelo://app?vid=e0bb6494-3107-45d5-bf57-d23876a00455"},"vehicle_type_id":"4","last_reported":1779125048,"current_range_meters":3200,"station_id":"st_cvj6sg6p6f1abm77japg","pricing_plan_id":"cebpf4jnsgd1na2vs0mg"},{"bike_id":"b96e17cf-4d23-450e-a4a4-a12cb255a17a","system_id":"levelo_inurba_marseille","lat":43.30922,"lon":5.40154,"is_reserved":false,"is_disabled":false,"rental_uris":{"android":"levelo://app?vid=b96e17cf-4d23-450e-a4a4-a12cb255a17a","ios":"levelo://app?vid=b96e17cf-4d23-450e-a4a4-a12cb255a17a"},"vehicle_type_id":"4","last_reported":1779125048,"current_range_meters":3200,"station_id":"ce4bgvp2rcd13ifvqct0","pricing_plan_id":"cebpf4jnsgd1na2vs0mg"},{"bike_id":"a8c492f0-73b0-40ef-bb92-f7d40c7aa8bf","system_id":"levelo_inurba_marseille","lat":43.279988,"lon":5.400051,"is_reserved":false,"is_disabled":false,"rental_uris":{"android":"levelo://app?vid=a8c492f0-73b0-40ef-bb92-f7d40c7aa8bf","ios":"levelo://app?vid=a8c492f0-73b0-40ef-bb92-f7d40c7aa8bf"},"vehicle_type_id":"4","last_reported":1779125048,"current_range_meters":3200,"station_id":"ce4bho92rcd13ifvqh4g","pricing_plan_id":"cebpf4jnsgd1na2vs0mg"},{"bike_id":"7d59d35b-cc5e-4a40-9b91-19e4e1cccdc9","system_id":"levelo_inurba_marseille","lat":43.28297,"lon":5.35057,"is_reserved":false,"is_disabled":false,"rental_uris":{"android":"levelo://app?vid=7d59d35b-cc5e-4a40-9b91-19e4e1cccdc9","ios":"levelo://app?vid=7d59d35b-cc5e-4a40-9b91-19e4e1cccdc9"},"vehicle_type_id":"4","last_reported":1779125048,"current_range_meters":3200,"station_id":"ce4bhbp2rcd13ifvqerg","pricing_plan_id":"cebpf4jnsgd1na2vs0mg"},{"bike_id":"eda9f570-d1a5-4f4b-a693-fd1f72c0eab1","system_id":"levelo_inurba_marseille","lat":43.32004,"lon":5.38137,"is_reserved":false,"is_disabled":false,"rental_uris":{"android":"levelo://app?vid=eda9f570-d1a5-4f4b-a693-fd1f72c0eab1","ios":"levelo://app?vid=eda9f570-d1a5-4f4b-a693-fd1f72c0eab1"},"vehicle_type_id":"4","last_reported":1779125048,"current_range_meters":3200,"station_id":"ce4bhr12rcd13ifvqhpg","pricing_plan_id":"cebpf4jnsgd1na2vs0mg"},{"bike_id":"7c9b6196-5405-4120-8d1f-6aea649da8b6","system_id":"levelo_inurba_marseille","lat":43.26214,"lon":5.40437,"is_reserved":false,"is_disabled":false,"rental_uris":{"android":"levelo://app?vid=7c9b6196-5405-4120-8d1f-6aea649da8b6","ios":"levelo://app?vid=7c9b6196-5405-4120-8d1f-6aea649da8b6"},"vehicle_type_id":"4","last_reported":1779125048,"current_range_meters":3200,"station_id":"ce4bhmh2rcd13ifvqgmg","pricing_plan_id":"cebpf4jnsgd1na2vs0mg"},{"bike_id":"d93ac3c3-204b-4d63-a92c-4b0aee9e7390","system_id":"levelo_inurba_marseille","lat":43.28047,"lon":5.36927,"is_reserved":false,"is_disabled":false,"rental_uris":{"android":"levelo://app?vid=d93ac3c3-204b-4d63-a92c-4b0aee9e7390","ios":"levelo://app?vid=d93ac3c3-204b-4d63-a92c-4b0aee9e7390"},"vehicle_type_id":"4","last_reported":1779125048,"current_range_meters":3200,"station_id":"ce4bha12rcd13ifvqef0","pricing_plan_id":"cebpf4jnsgd1na2vs0mg"},{"bike_id":"82f0c337-7c12-4467-85c8-82af7b92e6b9","system_id":"levelo_inurba_marseille","lat":43.27661,"lon":5.38891,"is_reserved":false,"is_disabled":false,"rental_uris":{"android":"levelo://app?vid=82f0c337-7c12-4467-85c8-82af7b92e6b9","ios":"levelo://app?vid=82f0c337-7c12-4467-85c8-82af7b92e6b9"},"vehicle_type_id":"4","last_reported":1779125048,"current_range_meters":3200,"station_id":"ce4bhi12rcd13ifvqfo0","pricing_plan_id":"cebpf4jnsgd1na2vs0mg"},{"bike_id":"40c1c031-dac1-4a0a-97fa-4ae1d10831d4","system_id":"levelo_inurba_marseille","lat":43.24818,"lon":5.37452,"is_reserved":false,"is_disabled":false,"rental_uris":{"android":"levelo://app?vid=40c1c031-dac1-4a0a-97fa-4ae1d10831d4","ios":"levelo://app?vid=40c1c031-dac1-4a0a-97fa-4ae1d10831d4"},"vehicle_type_id":"4","last_reported":1779125048,"current_range_meters":3200,"station_id":"ce4bhgh2rcd13ifvqfb0","pricing_plan_id":"cebpf4jnsgd1na2vs0mg"},{"bike_id":"2cd48a35-42f5-4905-a545-77ef65266664","system_id":"levelo_inurba_marseille","lat":43.29664,"lon":5.37769,"is_reserved":false,"is_disabled":true,"rental_uris":{"android":"levelo://app?vid=2cd48a35-42f5-4905-a545-77ef65266664","ios":"levelo://app?vid=2cd48a35-42f5-4905-a545-77ef65266664"},"vehicle_type_id":"4","last_reported":1779125048,"current_range_meters":3600,"station_id":"","pricing_plan_id":"cebpf4jnsgd1na2vs0mg"},{"bike_id":"8846c0ec-7c8c-496c-a033-aaab5e8e3b16","system_id":"levelo_inurba_marseille","lat":43.28921,"lon":5.46008,"is_reserved":false,"is_disabled":false,"rental_uris":{"android":"levelo://app?vid=8846c0ec-7c8c-496c-a033-aaab5e8e3b16","ios":"levelo://app?vid=8846c0ec-7c8c-496c-a033-aaab5e8e3b16"},"vehicle_type_id":"4","last_reported":1779125048,"current_range_meters":3600,"station_id":"","pricing_plan_id":"cebpf4jnsgd1na2vs0mg"},{"bike_id":"b8c42648-54af-41c8-b893-a1ad8f6eeacd","system_id":"levelo_inurba_marseille","lat":43.33006,"lon":5.37478,"is_reserved":false,"is_disabled":false,"rental_uris":{"android":"levelo://app?vid=b8c42648-54af-41c8-b893-a1ad8f6eeacd","ios":"levelo://app?vid=b8c42648-54af-41c8-b893-a1ad8f6eeacd"},"vehicle_type_id":"4","last_reported":1779125048,"current_range_meters":3600,"station_id":"","pricing_plan_id":"cebpf4jnsgd1na2vs0mg"},{"bike_id":"800cbabe-19d1-455d-ae98-9c4ff6d6ca56","system_id":"levelo_inurba_marseille","lat":43.25093,"lon":5.39518,"is_reserved":false,"is_disabled":false,"rental_uris":{"android":"levelo://app?vid=800cbabe-19d1-455d-ae98-9c4ff6d6ca56","ios":"levelo://app?vid=800cbabe-19d1-455d-ae98-9c4ff6d6ca56"},"vehicle_type_id":"4","last_reported":1779125048,"current_range_meters":3600,"station_id":"ce4bhm12rcd13ifvqgkg","pricing_plan_id":"cebpf4jnsgd1na2vs0mg"},{"bike_id":"cdee817c-caa2-4adb-8af4-205c5b59b01a","system_id":"levelo_inurba_marseille","lat":43.24951,"lon":5.40489,"is_reserved":false,"is_disabled":false,"rental_uris":{"android":"levelo://app?vid=cdee817c-caa2-4adb-8af4-205c5b59b01a","ios":"levelo://app?vid=cdee817c-caa2-4adb-8af4-205c5b59b01a"},"vehicle_type_id":"4","last_reported":1779125048,"current_range_meters":3600,"station_id":"st_d2ngiaodas8pm72gd1h0","pricing_plan_id":"cebpf4jnsgd1na2vs0mg"},{"bike_id":"40a0cc19-26db-412a-b5cf-3aac56e4210a","system_id":"levelo_inurba_marseille","lat":43.24556,"lon":5.39526,"is_reserved":false,"is_disabled":false,"rental_uris":{"android":"levelo://app?vid=40a0cc19-26db-412a-b5cf-3aac56e4210a","ios":"levelo://app?vid=40a0cc19-26db-412a-b5cf-3aac56e4210a"},"vehicle_type_id":"4","last_reported":1779125048,"current_range_meters":3600,"station_id":"ce4bhlp2rcd13ifvqgjg","pricing_plan_id":"cebpf4jnsgd1na2vs0mg"},{"bike_id":"8c8df7b3-d21b-4ca8-a119-5275bdddb88f","system_id":"levelo_inurba_marseille","lat":43.28306,"lon":5.38147,"is_reserved":false,"is_disabled":false,"rental_uris":{"android":"levelo://app?vid=8c8df7b3-d21b-4ca8-a119-5275bdddb88f","ios":"levelo://app?vid=8c8df7b3-d21b-4ca8-a119-5275bdddb88f"},"vehicle_type_id":"4","last_reported":1779125048,"current_range_meters":3600,"station_id":"","pricing_plan_id":"cebpf4jnsgd1na2vs0mg"},{"bike_id":"66c6315b-474b-40f4-9fec-f73d7b03eeb3","system_id":"levelo_inurba_marseille","lat":43.26926,"lon":5.40262,"is_reserved":false,"is_disabled":false,"rental_uris":{"android":"levelo://app?vid=66c6315b-474b-40f4-9fec-f73d7b03eeb3","ios":"levelo://app?vid=66c6315b-474b-40f4-9fec-f73d7b03eeb3"},"vehicle_type_id":"4","last_reported":1779125048,"current_range_meters":3600,"station_id":"cjm6bp8fraef2m0cb0m0","pricing_plan_id":"cebpf4jnsgd1na2vs0mg"},{"bike_id":"a00fb7c0-9f3a-4897-b63e-5c5887812c2b","system_id":"levelo_inurba_marseille","lat":43.26212,"lon":5.37408,"is_reserved":false,"is_disabled":false,"rental_uris":{"android":"levelo://app?vid=a00fb7c0-9f3a-4897-b63e-5c5887812c2b","ios":"levelo://app?vid=a00fb7c0-9f3a-4897-b63e-5c5887812c2b"},"vehicle_type_id":"4","last_reported":1779125048,"current_range_meters":3600,"station_id":"","pricing_plan_id":"cebpf4jnsgd1na2vs0mg"},{"bike_id":"ec9e2ae4-7a26-4791-89ac-bc250f2fd232","system_id":"levelo_inurba_marseille","lat":43.26221,"lon":5.37438,"is_reserved":false,"is_disabled":false,"rental_uris":{"android":"levelo://app?vid=ec9e2ae4-7a26-4791-89ac-bc250f2fd232","ios":"levelo://app?vid=ec9e2ae4-7a26-4791-89ac-bc250f2fd232"},"vehicle_type_id":"4","last_reported":1779125048,"current_range_meters":3600,"station_id":"ce4bhgp2rcd13ifvqfc0","pricing_plan_id":"cebpf4jnsgd1na2vs0mg"},{"bike_id":"f070c97f-fe95-4eff-8226-9b8b82307f58","system_id":"levelo_inurba_marseille","lat":43.30553,"lon":5.36496,"is_reserved":false,"is_disabled":false,"rental_uris":{"android":"levelo://app?vid=f070c97f-fe95-4eff-8226-9b8b82307f58","ios":"levelo://app?vid=f070c97f-fe95-4eff-8226-9b8b82307f58"},"vehicle_type_id":"4","last_reported":1779125048,"current_range_meters":3600,"station_id":"","pricing_plan_id":"cebpf4jnsgd1na2vs0mg"},{"bike_id":"40b3a112-5397-4abc-9de1-3dd792605a70","system_id":"levelo_inurba_marseille","lat":43.32354,"lon":5.3675,"is_reserved":false,"is_disabled":false,"rental_uris":{"android":"levelo://app?vid=40b3a112-5397-4abc-9de1-3dd792605a70","ios":"levelo://app?vid=40b3a112-5397-4abc-9de1-3dd792605a70"},"vehicle_type_id":"4","last_reported":1779125048,"current_range_meters":3600,"station_id":"ce4bhsh2rcd13ifvqi2g","pricing_plan_id":"cebpf4jnsgd1na2vs0mg"},{"bike_id":"8655fdd0-b9ff-4c4b-a8e4-7080f35b0493","system_id":"levelo_inurba_marseille","lat":43.3133,"lon":5.39694,"is_reserved":false,"is_disabled":false,"rental_uris":{"android":"levelo://app?vid=8655fdd0-b9ff-4c4b-a8e4-7080f35b0493","ios":"levelo://app?vid=8655fdd0-b9ff-4c4b-a8e4-7080f35b0493"},"vehicle_type_id":"4","last_reported":1779125048,"current_range_meters":3600,"station_id":"ce4bgvp2rcd13ifvqcu0","pricing_plan_id":"cebpf4jnsgd1na2vs0mg"},{"bike_id":"392a3150-b653-4edf-9cd2-b23866093695","system_id":"levelo_inurba_marseille","lat":43.284736,"lon":5.385795,"is_reserved":false,"is_disabled":false,"rental_uris":{"android":"levelo://app?vid=392a3150-b653-4edf-9cd2-b23866093695","ios":"levelo://app?vid=392a3150-b653-4edf-9cd2-b23866093695"},"vehicle_type_id":"4","last_reported":1779125048,"current_range_meters":3600,"station_id":"ce4bh8p2rcd13ifvqeb0","pricing_plan_id":"cebpf4jnsgd1na2vs0mg"},{"bike_id":"8319a793-ff4d-4dd5-9be2-37a2f5678e56","system_id":"levelo_inurba_marseille","lat":43.25084,"lon":5.39529,"is_reserved":false,"is_disabled":false,"rental_uris":{"android":"levelo://app?vid=8319a793-ff4d-4dd5-9be2-37a2f5678e56","ios":"levelo://app?vid=8319a793-ff4d-4dd5-9be2-37a2f5678e56"},"vehicle_type_id":"4","last_reported":1779125048,"current_range_meters":3600,"station_id":"ce4bhm12rcd13ifvqgkg","pricing_plan_id":"cebpf4jnsgd1na2vs0mg"},{"bike_id":"1cb381c3-4014-49bb-8e1c-ef1ffb1da7af","system_id":"levelo_inurba_marseille","lat":43.28574,"lon":5.39912,"is_reserved":false,"is_disabled":false,"rental_uris":{"android":"levelo://app?vid=1cb381c3-4014-49bb-8e1c-ef1ffb1da7af","ios":"levelo://app?vid=1cb381c3-4014-49bb-8e1c-ef1ffb1da7af"},"vehicle_type_id":"4","last_reported":1779125048,"current_range_meters":4000,"station_id":"st_d4a7ka997mjs738ck50g","pricing_plan_id":"cebpf4jnsgd1na2vs0mg"},{"bike_id":"e345c27d-d63f-4938-b3fc-9201b4e17f7d","system_id":"levelo_inurba_marseille","lat":43.31504,"lon":5.3729,"is_reserved":false,"is_disabled":false,"rental_uris":{"android":"levelo://app?vid=e345c27d-d63f-4938-b3fc-9201b4e17f7d","ios":"levelo://app?vid=e345c27d-d63f-4938-b3fc-9201b4e17f7d"},"vehicle_type_id":"4","last_reported":1779125048,"current_range_meters":4000,"station_id":"ce4bgt12rcd13ifvqcd0","pricing_plan_id":"cebpf4jnsgd1na2vs0mg"},{"bike_id":"7df43883-c1e0-4da1-a102-d45e33555e9a","system_id":"levelo_inurba_marseille","lat":43.30194,"lon":5.39959,"is_reserved":false,"is_disabled":false,"rental_uris":{"android":"levelo://app?vid=7df43883-c1e0-4da1-a102-d45e33555e9a","ios":"levelo://app?vid=7df43883-c1e0-4da1-a102-d45e33555e9a"},"vehicle_type_id":"4","last_reported":1779125048,"current_range_meters":4000,"station_id":"","pricing_plan_id":"cebpf4jnsgd1na2vs0mg"},{"bike_id":"5f4ddabc-9267-4f5c-b393-db6fd6acaf7d","system_id":"levelo_inurba_marseille","lat":43.25138,"lon":5.40317,"is_reserved":false,"is_disabled":true,"rental_uris":{"android":"levelo://app?vid=5f4ddabc-9267-4f5c-b393-db6fd6acaf7d","ios":"levelo://app?vid=5f4ddabc-9267-4f5c-b393-db6fd6acaf7d"},"vehicle_type_id":"4","last_reported":1779125048,"current_range_meters":4000,"station_id":"ce4bhlh2rcd13ifvqgig","pricing_plan_id":"cebpf4jnsgd1na2vs0mg"},{"bike_id":"9d18dc58-248c-49c8-a233-5fa2af77daec","system_id":"levelo_inurba_marseille","lat":43.28648,"lon":5.37792,"is_reserved":false,"is_disabled":false,"rental_uris":{"android":"levelo://app?vid=9d18dc58-248c-49c8-a233-5fa2af77daec","ios":"levelo://app?vid=9d18dc58-248c-49c8-a233-5fa2af77daec"},"vehicle_type_id":"4","last_reported":1779125048,"current_range_meters":4000,"station_id":"","pricing_plan_id":"cebpf4jnsgd1na2vs0mg"},{"bike_id":"a9d8acd3-7977-4cee-928c-f1f51f9d119e","system_id":"levelo_inurba_marseille","lat":43.23961,"lon":5.36626,"is_reserved":false,"is_disabled":false,"rental_uris":{"android":"levelo://app?vid=a9d8acd3-7977-4cee-928c-f1f51f9d119e","ios":"levelo://app?vid=a9d8acd3-7977-4cee-928c-f1f51f9d119e"},"vehicle_type_id":"4","last_reported":1779125048,"current_range_meters":4000,"station_id":"ce4bhi12rcd13ifvqfp0","pricing_plan_id":"cebpf4jnsgd1na2vs0mg"},{"bike_id":"d5560428-d288-468f-8004-d10aa5eabc00","system_id":"levelo_inurba_marseille","lat":43.2815,"lon":5.4264,"is_reserved":false,"is_disabled":false,"rental_uris":{"android":"levelo://app?vid=d5560428-d288-468f-8004-d10aa5eabc00","ios":"levelo://app?vid=d5560428-d288-468f-8004-d10aa5eabc00"},"vehicle_type_id":"4","last_reported":1779125048,"current_range_meters":4000,"station_id":"ce4bhnh2rcd13ifvqgug","pricing_plan_id":"cebpf4jnsgd1na2vs0mg"},{"bike_id":"0b549e1c-178d-40e4-9e99-dbf964b717f2","system_id":"levelo_inurba_marseille","lat":43.29009,"lon":5.38138,"is_reserved":false,"is_disabled":false,"rental_uris":{"android":"levelo://app?vid=0b549e1c-178d-40e4-9e99-dbf964b717f2","ios":"levelo://app?vid=0b549e1c-178d-40e4-9e99-dbf964b717f2"},"vehicle_type_id":"4","last_reported":1779125048,"current_range_meters":4000,"station_id":"ce4bh4p2rcd13ifvqe1g","pricing_plan_id":"cebpf4jnsgd1na2vs0mg"},{"bike_id":"46978d4c-80ac-4d2e-99f0-47098870a936","system_id":"levelo_inurba_marseille","lat":43.28465,"lon":5.48359,"is_reserved":false,"is_disabled":false,"rental_uris":{"android":"levelo://app?vid=46978d4c-80ac-4d2e-99f0-47098870a936","ios":"levelo://app?vid=46978d4c-80ac-4d2e-99f0-47098870a936"},"vehicle_type_id":"4","last_reported":1779125048,"current_range_meters":4000,"station_id":"st_d3svhcjqgbts73a3dn0g","pricing_plan_id":"cebpf4jnsgd1na2vs0mg"},{"bike_id":"4fc79a0b-a889-4b07-94ad-10d4b0f67722","system_id":"levelo_inurba_marseille","lat":43.29556,"lon":5.42286,"is_reserved":false,"is_disabled":false,"rental_uris":{"android":"levelo://app?vid=4fc79a0b-a889-4b07-94ad-10d4b0f67722","ios":"levelo://app?vid=4fc79a0b-a889-4b07-94ad-10d4b0f67722"},"vehicle_type_id":"4","last_reported":1779125048,"current_range_meters":4000,"station_id":"ce4bhph2rcd13ifvqhdg","pricing_plan_id":"cebpf4jnsgd1na2vs0mg"},{"bike_id":"a888eb44-c93c-4f13-8b4d-b2d5e07fc029","system_id":"levelo_inurba_marseille","lat":43.27369,"lon":5.36259,"is_reserved":false,"is_disabled":false,"rental_uris":{"android":"levelo://app?vid=a888eb44-c93c-4f13-8b4d-b2d5e07fc029","ios":"levelo://app?vid=a888eb44-c93c-4f13-8b4d-b2d5e07fc029"},"vehicle_type_id":"4","last_reported":1779125048,"current_range_meters":4000,"station_id":"ce4bhbh2rcd13ifvqeo0","pricing_plan_id":"cebpf4jnsgd1na2vs0mg"},{"bike_id":"5adce0e5-ab69-4571-bd68-cc52d693bfc4","system_id":"levelo_inurba_marseille","lat":43.28857,"lon":5.35851,"is_reserved":false,"is_disabled":false,"rental_uris":{"android":"levelo://app?vid=5adce0e5-ab69-4571-bd68-cc52d693bfc4","ios":"levelo://app?vid=5adce0e5-ab69-4571-bd68-cc52d693bfc4"},"vehicle_type_id":"4","last_reported":1779125048,"current_range_meters":4000,"station_id":"ce4bhb12rcd13ifvqem0","pricing_plan_id":"cebpf4jnsgd1na2vs0mg"},{"bike_id":"59b2432e-f424-4c75-ba04-57a073a9c3ce","system_id":"levelo_inurba_marseille","lat":43.31392,"lon":5.44131,"is_reserved":false,"is_disabled":false,"rental_uris":{"android":"levelo://app?vid=59b2432e-f424-4c75-ba04-57a073a9c3ce","ios":"levelo://app?vid=59b2432e-f424-4c75-ba04-57a073a9c3ce"},"vehicle_type_id":"4","last_reported":1779125048,"current_range_meters":4000,"station_id":"","pricing_plan_id":"cebpf4jnsgd1na2vs0mg"},{"bike_id":"43d542dd-0313-447d-a9c3-a5323379f83c","system_id":"levelo_inurba_marseille","lat":43.24477,"lon":5.42524,"is_reserved":false,"is_disabled":false,"rental_uris":{"android":"levelo://app?vid=43d542dd-0313-447d-a9c3-a5323379f83c","ios":"levelo://app?vid=43d542dd-0313-447d-a9c3-a5323379f83c"},"vehicle_type_id":"4","last_reported":1779125048,"current_range_meters":4000,"station_id":"st_d4a3vfp97mjs738cd8kg","pricing_plan_id":"cebpf4jnsgd1na2vs0mg"},{"bike_id":"5ce28af9-5878-4403-b6e6-859e0b74c459","system_id":"levelo_inurba_marseille","lat":43.287,"lon":5.39997,"is_reserved":false,"is_disabled":false,"rental_uris":{"android":"levelo://app?vid=5ce28af9-5878-4403-b6e6-859e0b74c459","ios":"levelo://app?vid=5ce28af9-5878-4403-b6e6-859e0b74c459"},"vehicle_type_id":"4","last_reported":1779125048,"current_range_meters":4000,"station_id":"ce4bho92rcd13ifvqh3g","pricing_plan_id":"cebpf4jnsgd1na2vs0mg"},{"bike_id":"ca8deebd-3892-4cd3-95b9-93993366f63e","system_id":"levelo_inurba_marseille","lat":43.26214,"lon":5.40446,"is_reserved":false,"is_disabled":true,"rental_uris":{"android":"levelo://app?vid=ca8deebd-3892-4cd3-95b9-93993366f63e","ios":"levelo://app?vid=ca8deebd-3892-4cd3-95b9-93993366f63e"},"vehicle_type_id":"4","last_reported":1779125048,"current_range_meters":4000,"station_id":"ce4bhmh2rcd13ifvqgmg","pricing_plan_id":"cebpf4jnsgd1na2vs0mg"},{"bike_id":"59b433aa-643e-4d82-adea-d43bb6e526d6","system_id":"levelo_inurba_marseille","lat":43.30141,"lon":5.38783,"is_reserved":false,"is_disabled":false,"rental_uris":{"android":"levelo://app?vid=59b433aa-643e-4d82-adea-d43bb6e526d6","ios":"levelo://app?vid=59b433aa-643e-4d82-adea-d43bb6e526d6"},"vehicle_type_id":"4","last_reported":1779125048,"current_range_meters":4400,"station_id":"ce4bghh2rcd13ifvqb60","pricing_plan_id":"cebpf4jnsgd1na2vs0mg"},{"bike_id":"97ef0eaa-07a1-41e5-96b2-af004dd36978","system_id":"levelo_inurba_marseille","lat":43.288593,"lon":5.42519,"is_reserved":false,"is_disabled":true,"rental_uris":{"android":"levelo://app?vid=97ef0eaa-07a1-41e5-96b2-af004dd36978","ios":"levelo://app?vid=97ef0eaa-07a1-41e5-96b2-af004dd36978"},"vehicle_type_id":"4","last_reported":1779125048,"current_range_meters":4400,"station_id":"st_d3b462108ojc7389ooeg","pricing_plan_id":"cebpf4jnsgd1na2vs0mg"},{"bike_id":"55fd0741-f693-4c0e-bc61-157606e04439","system_id":"levelo_inurba_marseille","lat":43.32591,"lon":5.39892,"is_reserved":false,"is_disabled":false,"rental_uris":{"android":"levelo://app?vid=55fd0741-f693-4c0e-bc61-157606e04439","ios":"levelo://app?vid=55fd0741-f693-4c0e-bc61-157606e04439"},"vehicle_type_id":"4","last_reported":1779125048,"current_range_meters":4400,"station_id":"","pricing_plan_id":"cebpf4jnsgd1na2vs0mg"},{"bike_id":"1b3cec47-fdb6-491c-8219-01412d92358c","system_id":"levelo_inurba_marseille","lat":43.26055,"lon":5.39402,"is_reserved":false,"is_disabled":false,"rental_uris":{"android":"levelo://app?vid=1b3cec47-fdb6-491c-8219-01412d92358c","ios":"levelo://app?vid=1b3cec47-fdb6-491c-8219-01412d92358c"},"vehicle_type_id":"4","last_reported":1779125048,"current_range_meters":4400,"station_id":"ce4bhh92rcd13ifvqfj0","pricing_plan_id":"cebpf4jnsgd1na2vs0mg"},{"bike_id":"dc58816c-2c5c-44b6-a461-185d436db668","system_id":"levelo_inurba_marseille","lat":43.30461,"lon":5.37899,"is_reserved":false,"is_disabled":false,"rental_uris":{"android":"levelo://app?vid=dc58816c-2c5c-44b6-a461-185d436db668","ios":"levelo://app?vid=dc58816c-2c5c-44b6-a461-185d436db668"},"vehicle_type_id":"4","last_reported":1779125048,"current_range_meters":4400,"station_id":"ce4bgup2rcd13ifvqcn0","pricing_plan_id":"cebpf4jnsgd1na2vs0mg"},{"bike_id":"11212042-6175-45c4-9b7f-c91b65a7eea9","system_id":"levelo_inurba_marseille","lat":43.30955,"lon":5.39047,"is_reserved":false,"is_disabled":true,"rental_uris":{"android":"levelo://app?vid=11212042-6175-45c4-9b7f-c91b65a7eea9","ios":"levelo://app?vid=11212042-6175-45c4-9b7f-c91b65a7eea9"},"vehicle_type_id":"4","last_reported":1779125048,"current_range_meters":4400,"station_id":"ce4bgup2rcd13ifvqco0","pricing_plan_id":"cebpf4jnsgd1na2vs0mg"},{"bike_id":"6390436a-e9bc-4844-a9a6-ef15e52a9104","system_id":"levelo_inurba_marseille","lat":43.28152,"lon":5.42641,"is_reserved":false,"is_disabled":false,"rental_uris":{"android":"levelo://app?vid=6390436a-e9bc-4844-a9a6-ef15e52a9104","ios":"levelo://app?vid=6390436a-e9bc-4844-a9a6-ef15e52a9104"},"vehicle_type_id":"4","last_reported":1779125048,"current_range_meters":4400,"station_id":"ce4bhnh2rcd13ifvqgug","pricing_plan_id":"cebpf4jnsgd1na2vs0mg"},{"bike_id":"d0a28518-8898-4403-95f8-85fcadc00754","system_id":"levelo_inurba_marseille","lat":43.29008,"lon":5.35608,"is_reserved":false,"is_disabled":false,"rental_uris":{"android":"levelo://app?vid=d0a28518-8898-4403-95f8-85fcadc00754","ios":"levelo://app?vid=d0a28518-8898-4403-95f8-85fcadc00754"},"vehicle_type_id":"4","last_reported":1779125048,"current_range_meters":4400,"station_id":"ce4bhb92rcd13ifvqen0","pricing_plan_id":"cebpf4jnsgd1na2vs0mg"},{"bike_id":"d27f2ac2-e761-4392-bac3-f370a754956b","system_id":"levelo_inurba_marseille","lat":43.28705,"lon":5.39948,"is_reserved":false,"is_disabled":false,"rental_uris":{"android":"levelo://app?vid=d27f2ac2-e761-4392-bac3-f370a754956b","ios":"levelo://app?vid=d27f2ac2-e761-4392-bac3-f370a754956b"},"vehicle_type_id":"4","last_reported":1779125048,"current_range_meters":4800,"station_id":"ce4bho92rcd13ifvqh3g","pricing_plan_id":"cebpf4jnsgd1na2vs0mg"},{"bike_id":"9e4605bd-fb5f-4dea-85c6-6d392142aaa8","system_id":"levelo_inurba_marseille","lat":43.29707,"lon":5.41652,"is_reserved":false,"is_disabled":false,"rental_uris":{"android":"levelo://app?vid=9e4605bd-fb5f-4dea-85c6-6d392142aaa8","ios":"levelo://app?vid=9e4605bd-fb5f-4dea-85c6-6d392142aaa8"},"vehicle_type_id":"4","last_reported":1779125048,"current_range_meters":4800,"station_id":"","pricing_plan_id":"cebpf4jnsgd1na2vs0mg"},{"bike_id":"a7dbe95f-fc9f-4d6b-85f5-6fa53318b06e","system_id":"levelo_inurba_marseille","lat":43.28949,"lon":5.39629,"is_reserved":false,"is_disabled":false,"rental_uris":{"android":"levelo://app?vid=a7dbe95f-fc9f-4d6b-85f5-6fa53318b06e","ios":"levelo://app?vid=a7dbe95f-fc9f-4d6b-85f5-6fa53318b06e"},"vehicle_type_id":"4","last_reported":1779125048,"current_range_meters":4800,"station_id":"ce4bh3h2rcd13ifvqdn0","pricing_plan_id":"cebpf4jnsgd1na2vs0mg"},{"bike_id":"76483057-aa19-441c-af55-216e6ef2b5ac","system_id":"levelo_inurba_marseille","lat":43.22562,"lon":5.41642,"is_reserved":false,"is_disabled":false,"rental_uris":{"android":"levelo://app?vid=76483057-aa19-441c-af55-216e6ef2b5ac","ios":"levelo://app?vid=76483057-aa19-441c-af55-216e6ef2b5ac"},"vehicle_type_id":"4","last_reported":1779125048,"current_range_meters":4800,"station_id":"st_d2o4gvlbi1j2169b742g","pricing_plan_id":"cebpf4jnsgd1na2vs0mg"},{"bike_id":"0a557a53-5e2a-4f58-a5bd-c17c32c1c9c4","system_id":"levelo_inurba_marseille","lat":43.29227,"lon":5.36067,"is_reserved":false,"is_disabled":true,"rental_uris":{"android":"levelo://app?vid=0a557a53-5e2a-4f58-a5bd-c17c32c1c9c4","ios":"levelo://app?vid=0a557a53-5e2a-4f58-a5bd-c17c32c1c9c4"},"vehicle_type_id":"4","last_reported":1779125048,"current_range_meters":4800,"station_id":"ce4bhbh2rcd13ifvqeqg","pricing_plan_id":"cebpf4jnsgd1na2vs0mg"},{"bike_id":"aecbe8b2-492d-420c-ae86-2b2b4a6b68e7","system_id":"levelo_inurba_marseille","lat":43.30118,"lon":5.38761,"is_reserved":false,"is_disabled":false,"rental_uris":{"android":"levelo://app?vid=aecbe8b2-492d-420c-ae86-2b2b4a6b68e7","ios":"levelo://app?vid=aecbe8b2-492d-420c-ae86-2b2b4a6b68e7"},"vehicle_type_id":"4","last_reported":1779125048,"current_range_meters":4800,"station_id":"ce4bghh2rcd13ifvqb60","pricing_plan_id":"cebpf4jnsgd1na2vs0mg"},{"bike_id":"dae35048-c174-4bcf-9136-fa1b330ff209","system_id":"levelo_inurba_marseille","lat":43.284619,"lon":5.358866,"is_reserved":false,"is_disabled":false,"rental_uris":{"android":"levelo://app?vid=dae35048-c174-4bcf-9136-fa1b330ff209","ios":"levelo://app?vid=dae35048-c174-4bcf-9136-fa1b330ff209"},"vehicle_type_id":"4","last_reported":1779125048,"current_range_meters":4800,"station_id":"ce4bhah2rcd13ifvqei0","pricing_plan_id":"cebpf4jnsgd1na2vs0mg"},{"bike_id":"f2c4f2bb-9ec0-462c-a850-4bd367e788dd","system_id":"levelo_inurba_marseille","lat":43.28039,"lon":5.36943,"is_reserved":false,"is_disabled":false,"rental_uris":{"android":"levelo://app?vid=f2c4f2bb-9ec0-462c-a850-4bd367e788dd","ios":"levelo://app?vid=f2c4f2bb-9ec0-462c-a850-4bd367e788dd"},"vehicle_type_id":"4","last_reported":1779125048,"current_range_meters":4800,"station_id":"ce4bha12rcd13ifvqef0","pricing_plan_id":"cebpf4jnsgd1na2vs0mg"},{"bike_id":"c80b7bed-abfc-4509-9608-d1bec70d3f70","system_id":"levelo_inurba_marseille","lat":43.29213,"lon":5.36093,"is_reserved":false,"is_disabled":false,"rental_uris":{"android":"levelo://app?vid=c80b7bed-abfc-4509-9608-d1bec70d3f70","ios":"levelo://app?vid=c80b7bed-abfc-4509-9608-d1bec70d3f70"},"vehicle_type_id":"4","last_reported":1779125048,"current_range_meters":4800,"station_id":"ce4bhbh2rcd13ifvqeqg","pricing_plan_id":"cebpf4jnsgd1na2vs0mg"},{"bike_id":"de8aec29-32c6-409e-b2b2-bd88ab1ef740","system_id":"levelo_inurba_marseille","lat":43.292008,"lon":5.358019,"is_reserved":false,"is_disabled":false,"rental_uris":{"android":"levelo://app?vid=de8aec29-32c6-409e-b2b2-bd88ab1ef740","ios":"levelo://app?vid=de8aec29-32c6-409e-b2b2-bd88ab1ef740"},"vehicle_type_id":"4","last_reported":1779125048,"current_range_meters":5600,"station_id":"ce4bhb12rcd13ifvqel0","pricing_plan_id":"cebpf4jnsgd1na2vs0mg"},{"bike_id":"118f25d8-0255-44ef-8a35-47bb481bb8b6","system_id":"levelo_inurba_marseille","lat":43.24391,"lon":5.3707,"is_reserved":false,"is_disabled":true,"rental_uris":{"android":"levelo://app?vid=118f25d8-0255-44ef-8a35-47bb481bb8b6","ios":"levelo://app?vid=118f25d8-0255-44ef-8a35-47bb481bb8b6"},"vehicle_type_id":"4","last_reported":1779125048,"current_range_meters":5600,"station_id":"ce4bhhh2rcd13ifvqfk0","pricing_plan_id":"cebpf4jnsgd1na2vs0mg"},{"bike_id":"7b6b191c-2196-4eff-a204-e6551d1afb89","system_id":"levelo_inurba_marseille","lat":43.27076,"lon":5.3831,"is_reserved":false,"is_disabled":false,"rental_uris":{"android":"levelo://app?vid=7b6b191c-2196-4eff-a204-e6551d1afb89","ios":"levelo://app?vid=7b6b191c-2196-4eff-a204-e6551d1afb89"},"vehicle_type_id":"4","last_reported":1779125048,"current_range_meters":5600,"station_id":"st_d3n2fo6cfp8s73cte1j0","pricing_plan_id":"cebpf4jnsgd1na2vs0mg"},{"bike_id":"61f28b91-2a02-4913-9b70-22fbd3b412a4","system_id":"levelo_inurba_marseille","lat":43.29457,"lon":5.38395,"is_reserved":false,"is_disabled":false,"rental_uris":{"android":"levelo://app?vid=61f28b91-2a02-4913-9b70-22fbd3b412a4","ios":"levelo://app?vid=61f28b91-2a02-4913-9b70-22fbd3b412a4"},"vehicle_type_id":"4","last_reported":1779125048,"current_range_meters":5600,"station_id":"","pricing_plan_id":"cebpf4jnsgd1na2vs0mg"},{"bike_id":"6f02c462-5be8-4fd9-bd86-49563918d3d3","system_id":"levelo_inurba_marseille","lat":43.31896,"lon":5.36797,"is_reserved":false,"is_disabled":false,"rental_uris":{"android":"levelo://app?vid=6f02c462-5be8-4fd9-bd86-49563918d3d3","ios":"levelo://app?vid=6f02c462-5be8-4fd9-bd86-49563918d3d3"},"vehicle_type_id":"4","last_reported":1779125048,"current_range_meters":5600,"station_id":"st_d6o2h0d0559c73evc1b0","pricing_plan_id":"cebpf4jnsgd1na2vs0mg"},{"bike_id":"70b7f0d8-f1af-486e-a2ce-e967d663c6ba","system_id":"levelo_inurba_marseille","lat":43.292772,"lon":5.401138,"is_reserved":false,"is_disabled":false,"rental_uris":{"android":"levelo://app?vid=70b7f0d8-f1af-486e-a2ce-e967d663c6ba","ios":"levelo://app?vid=70b7f0d8-f1af-486e-a2ce-e967d663c6ba"},"vehicle_type_id":"4","last_reported":1779125048,"current_range_meters":5600,"station_id":"ce4bh312rcd13ifvqdk0","pricing_plan_id":"cebpf4jnsgd1na2vs0mg"},{"bike_id":"3510d4c6-2b6a-4bda-81e5-7ed9e41499b6","system_id":"levelo_inurba_marseille","lat":43.30021,"lon":5.40173,"is_reserved":false,"is_disabled":false,"rental_uris":{"android":"levelo://app?vid=3510d4c6-2b6a-4bda-81e5-7ed9e41499b6","ios":"levelo://app?vid=3510d4c6-2b6a-4bda-81e5-7ed9e41499b6"},"vehicle_type_id":"4","last_reported":1779125048,"current_range_meters":5600,"station_id":"ce4bh0h2rcd13ifvqd40","pricing_plan_id":"cebpf4jnsgd1na2vs0mg"},{"bike_id":"2cfbf14f-015a-4a5d-a1c8-f0c49d520fdb","system_id":"levelo_inurba_marseille","lat":43.302953,"lon":5.392195,"is_reserved":false,"is_disabled":false,"rental_uris":{"android":"levelo://app?vid=2cfbf14f-015a-4a5d-a1c8-f0c49d520fdb","ios":"levelo://app?vid=2cfbf14f-015a-4a5d-a1c8-f0c49d520fdb"},"vehicle_type_id":"4","last_reported":1779125048,"current_range_meters":5600,"station_id":"ce4bgkh2rcd13ifvqbk0","pricing_plan_id":"cebpf4jnsgd1na2vs0mg"},{"bike_id":"40ca276b-b616-4ca1-9db0-cc40f8c18496","system_id":"levelo_inurba_marseille","lat":43.28924,"lon":5.38383,"is_reserved":false,"is_disabled":false,"rental_uris":{"android":"levelo://app?vid=40ca276b-b616-4ca1-9db0-cc40f8c18496","ios":"levelo://app?vid=40ca276b-b616-4ca1-9db0-cc40f8c18496"},"vehicle_type_id":"4","last_reported":1779125048,"current_range_meters":5600,"station_id":"ce4bh612rcd13ifvqe6g","pricing_plan_id":"cebpf4jnsgd1na2vs0mg"},{"bike_id":"d584b295-e952-457c-9ceb-e8668b1a7725","system_id":"levelo_inurba_marseille","lat":43.31757,"lon":5.39009,"is_reserved":false,"is_disabled":false,"rental_uris":{"android":"levelo://app?vid=d584b295-e952-457c-9ceb-e8668b1a7725","ios":"levelo://app?vid=d584b295-e952-457c-9ceb-e8668b1a7725"},"vehicle_type_id":"4","last_reported":1779125048,"current_range_meters":5600,"station_id":"ce4bhqp2rcd13ifvqhng","pricing_plan_id":"cebpf4jnsgd1na2vs0mg"},{"bike_id":"b8e8e835-f5d0-4063-b073-cfb38af41c8d","system_id":"levelo_inurba_marseille","lat":43.26551,"lon":5.39028,"is_reserved":false,"is_disabled":false,"rental_uris":{"android":"levelo://app?vid=b8e8e835-f5d0-4063-b073-cfb38af41c8d","ios":"levelo://app?vid=b8e8e835-f5d0-4063-b073-cfb38af41c8d"},"vehicle_type_id":"4","last_reported":1779125048,"current_range_meters":6000,"station_id":"ce4bhe12rcd13ifvqf30","pricing_plan_id":"cebpf4jnsgd1na2vs0mg"},{"bike_id":"c3f0931a-b98e-4ec6-aa39-67278fb8aaff","system_id":"levelo_inurba_marseille","lat":43.31897,"lon":5.36792,"is_reserved":false,"is_disabled":false,"rental_uris":{"android":"levelo://app?vid=c3f0931a-b98e-4ec6-aa39-67278fb8aaff","ios":"levelo://app?vid=c3f0931a-b98e-4ec6-aa39-67278fb8aaff"},"vehicle_type_id":"4","last_reported":1779125048,"current_range_meters":6000,"station_id":"st_d6o2h0d0559c73evc1b0","pricing_plan_id":"cebpf4jnsgd1na2vs0mg"},{"bike_id":"f46dc198-f447-4b28-8d13-72a1d78dd32a","system_id":"levelo_inurba_marseille","lat":43.28991,"lon":5.35487,"is_reserved":false,"is_disabled":false,"rental_uris":{"android":"levelo://app?vid=f46dc198-f447-4b28-8d13-72a1d78dd32a","ios":"levelo://app?vid=f46dc198-f447-4b28-8d13-72a1d78dd32a"},"vehicle_type_id":"4","last_reported":1779125048,"current_range_meters":6000,"station_id":"","pricing_plan_id":"cebpf4jnsgd1na2vs0mg"},{"bike_id":"767c4999-2b50-46d4-a67e-87ee008887ee","system_id":"levelo_inurba_marseille","lat":43.27374,"lon":5.36247,"is_reserved":false,"is_disabled":false,"rental_uris":{"android":"levelo://app?vid=767c4999-2b50-46d4-a67e-87ee008887ee","ios":"levelo://app?vid=767c4999-2b50-46d4-a67e-87ee008887ee"},"vehicle_type_id":"4","last_reported":1779125048,"current_range_meters":6000,"station_id":"ce4bhbh2rcd13ifvqeo0","pricing_plan_id":"cebpf4jnsgd1na2vs0mg"},{"bike_id":"3a7e194a-2dc1-49c7-8377-0cd7015af06f","system_id":"levelo_inurba_marseille","lat":43.272137,"lon":5.391803,"is_reserved":false,"is_disabled":false,"rental_uris":{"android":"levelo://app?vid=3a7e194a-2dc1-49c7-8377-0cd7015af06f","ios":"levelo://app?vid=3a7e194a-2dc1-49c7-8377-0cd7015af06f"},"vehicle_type_id":"4","last_reported":1779125048,"current_range_meters":6000,"station_id":"ce4bhhp2rcd13ifvqfm0","pricing_plan_id":"cebpf4jnsgd1na2vs0mg"},{"bike_id":"e5d3f8e5-7fc2-4063-b550-2d1f9611ba34","system_id":"levelo_inurba_marseille","lat":43.21228,"lon":5.35074,"is_reserved":false,"is_disabled":true,"rental_uris":{"android":"levelo://app?vid=e5d3f8e5-7fc2-4063-b550-2d1f9611ba34","ios":"levelo://app?vid=e5d3f8e5-7fc2-4063-b550-2d1f9611ba34"},"vehicle_type_id":"4","last_reported":1779125048,"current_range_meters":6000,"station_id":"","pricing_plan_id":"cebpf4jnsgd1na2vs0mg"},{"bike_id":"638dfed9-96fe-4b0c-bd1c-e23e79352e3c","system_id":"levelo_inurba_marseille","lat":43.29272,"lon":5.40144,"is_reserved":false,"is_disabled":false,"rental_uris":{"android":"levelo://app?vid=638dfed9-96fe-4b0c-bd1c-e23e79352e3c","ios":"levelo://app?vid=638dfed9-96fe-4b0c-bd1c-e23e79352e3c"},"vehicle_type_id":"4","last_reported":1779125048,"current_range_meters":6000,"station_id":"ce4bh312rcd13ifvqdk0","pricing_plan_id":"cebpf4jnsgd1na2vs0mg"},{"bike_id":"56611aee-4a97-497f-a541-b301e0a4b4f4","system_id":"levelo_inurba_marseille","lat":43.33233,"lon":5.40634,"is_reserved":false,"is_disabled":false,"rental_uris":{"android":"levelo://app?vid=56611aee-4a97-497f-a541-b301e0a4b4f4","ios":"levelo://app?vid=56611aee-4a97-497f-a541-b301e0a4b4f4"},"vehicle_type_id":"4","last_reported":1779125048,"current_range_meters":6000,"station_id":"","pricing_plan_id":"cebpf4jnsgd1na2vs0mg"},{"bike_id":"d5f90b48-5f91-442d-bd3f-14434cbdf21f","system_id":"levelo_inurba_marseille","lat":43.29279,"lon":5.40112,"is_reserved":false,"is_disabled":false,"rental_uris":{"android":"levelo://app?vid=d5f90b48-5f91-442d-bd3f-14434cbdf21f","ios":"levelo://app?vid=d5f90b48-5f91-442d-bd3f-14434cbdf21f"},"vehicle_type_id":"4","last_reported":1779125048,"current_range_meters":6000,"station_id":"ce4bh312rcd13ifvqdk0","pricing_plan_id":"cebpf4jnsgd1na2vs0mg"},{"bike_id":"abc42af0-8a62-4cbe-a387-6c2336e11235","system_id":"levelo_inurba_marseille","lat":43.29158,"lon":5.36061,"is_reserved":false,"is_disabled":false,"rental_uris":{"android":"levelo://app?vid=abc42af0-8a62-4cbe-a387-6c2336e11235","ios":"levelo://app?vid=abc42af0-8a62-4cbe-a387-6c2336e11235"},"vehicle_type_id":"4","last_reported":1779125048,"current_range_meters":6000,"station_id":"","pricing_plan_id":"cebpf4jnsgd1na2vs0mg"},{"bike_id":"2667282f-fcc8-45d2-88d9-0420302285ea","system_id":"levelo_inurba_marseille","lat":43.31449,"lon":5.39301,"is_reserved":false,"is_disabled":false,"rental_uris":{"android":"levelo://app?vid=2667282f-fcc8-45d2-88d9-0420302285ea","ios":"levelo://app?vid=2667282f-fcc8-45d2-88d9-0420302285ea"},"vehicle_type_id":"4","last_reported":1779125048,"current_range_meters":6000,"station_id":"","pricing_plan_id":"cebpf4jnsgd1na2vs0mg"},{"bike_id":"5d4c0aca-4664-4ddd-a161-7fd6de43a608","system_id":"levelo_inurba_marseille","lat":43.31087,"lon":5.42435,"is_reserved":false,"is_disabled":false,"rental_uris":{"android":"levelo://app?vid=5d4c0aca-4664-4ddd-a161-7fd6de43a608","ios":"levelo://app?vid=5d4c0aca-4664-4ddd-a161-7fd6de43a608"},"vehicle_type_id":"4","last_reported":1779125048,"current_range_meters":6000,"station_id":"ce4bhp92rcd13ifvqhag","pricing_plan_id":"cebpf4jnsgd1na2vs0mg"},{"bike_id":"1bfacf5b-9fdd-45b4-b0bb-487f767fba64","system_id":"levelo_inurba_marseille","lat":43.29213,"lon":5.36066,"is_reserved":false,"is_disabled":false,"rental_uris":{"android":"levelo://app?vid=1bfacf5b-9fdd-45b4-b0bb-487f767fba64","ios":"levelo://app?vid=1bfacf5b-9fdd-45b4-b0bb-487f767fba64"},"vehicle_type_id":"4","last_reported":1779125048,"current_range_meters":6000,"station_id":"ce4bhbh2rcd13ifvqeqg","pricing_plan_id":"cebpf4jnsgd1na2vs0mg"},{"bike_id":"5064e4d1-a4b8-4d4d-9cf4-b90eda56c5de","system_id":"levelo_inurba_marseille","lat":43.33561,"lon":5.37468,"is_reserved":false,"is_disabled":false,"rental_uris":{"android":"levelo://app?vid=5064e4d1-a4b8-4d4d-9cf4-b90eda56c5de","ios":"levelo://app?vid=5064e4d1-a4b8-4d4d-9cf4-b90eda56c5de"},"vehicle_type_id":"4","last_reported":1779125048,"current_range_meters":6000,"station_id":"st_d46tts09ee8s73dlu43g","pricing_plan_id":"cebpf4jnsgd1na2vs0mg"},{"bike_id":"c910a9de-04a1-45f7-be83-6ae1dad29e2d","system_id":"levelo_inurba_marseille","lat":43.30883,"lon":5.39648,"is_reserved":false,"is_disabled":false,"rental_uris":{"android":"levelo://app?vid=c910a9de-04a1-45f7-be83-6ae1dad29e2d","ios":"levelo://app?vid=c910a9de-04a1-45f7-be83-6ae1dad29e2d"},"vehicle_type_id":"4","last_reported":1779125048,"current_range_meters":6400,"station_id":"ce4bh012rcd13ifvqcv0","pricing_plan_id":"cebpf4jnsgd1na2vs0mg"},{"bike_id":"337944ab-2471-4b0c-aa3d-b9012fa440d2","system_id":"levelo_inurba_marseille","lat":43.30542,"lon":5.36529,"is_reserved":false,"is_disabled":false,"rental_uris":{"android":"levelo://app?vid=337944ab-2471-4b0c-aa3d-b9012fa440d2","ios":"levelo://app?vid=337944ab-2471-4b0c-aa3d-b9012fa440d2"},"vehicle_type_id":"4","last_reported":1779125048,"current_range_meters":6400,"station_id":"ce4bgs12rcd13ifvqcag","pricing_plan_id":"cebpf4jnsgd1na2vs0mg"},{"bike_id":"efd7670e-38f2-45e8-bda2-108555fbd9d6","system_id":"levelo_inurba_marseille","lat":43.28103,"lon":5.37835,"is_reserved":false,"is_disabled":false,"rental_uris":{"android":"levelo://app?vid=efd7670e-38f2-45e8-bda2-108555fbd9d6","ios":"levelo://app?vid=efd7670e-38f2-45e8-bda2-108555fbd9d6"},"vehicle_type_id":"4","last_reported":1779125048,"current_range_meters":6400,"station_id":"ce4bha12rcd13ifvqee0","pricing_plan_id":"cebpf4jnsgd1na2vs0mg"},{"bike_id":"42707d6f-4581-4bd7-a210-c1a06576b84d","system_id":"levelo_inurba_marseille","lat":43.26563,"lon":5.40333,"is_reserved":false,"is_disabled":false,"rental_uris":{"android":"levelo://app?vid=42707d6f-4581-4bd7-a210-c1a06576b84d","ios":"levelo://app?vid=42707d6f-4581-4bd7-a210-c1a06576b84d"},"vehicle_type_id":"4","last_reported":1779125048,"current_range_meters":6400,"station_id":"ce4bhmp2rcd13ifvqgng","pricing_plan_id":"cebpf4jnsgd1na2vs0mg"},{"bike_id":"f0155b3f-a757-41e6-a885-d929684d0a3c","system_id":"levelo_inurba_marseille","lat":43.30586,"lon":5.36573,"is_reserved":false,"is_disabled":false,"rental_uris":{"android":"levelo://app?vid=f0155b3f-a757-41e6-a885-d929684d0a3c","ios":"levelo://app?vid=f0155b3f-a757-41e6-a885-d929684d0a3c"},"vehicle_type_id":"4","last_reported":1779125048,"current_range_meters":6400,"station_id":"ce4bgs12rcd13ifvqcag","pricing_plan_id":"cebpf4jnsgd1na2vs0mg"},{"bike_id":"c80abd5d-4926-4fd3-8495-a32095437f3b","system_id":"levelo_inurba_marseille","lat":43.29678,"lon":5.3731,"is_reserved":false,"is_disabled":false,"rental_uris":{"android":"levelo://app?vid=c80abd5d-4926-4fd3-8495-a32095437f3b","ios":"levelo://app?vid=c80abd5d-4926-4fd3-8495-a32095437f3b"},"vehicle_type_id":"4","last_reported":1779125048,"current_range_meters":6400,"station_id":"ce4bgk12rcd13ifvqbj0","pricing_plan_id":"cebpf4jnsgd1na2vs0mg"},{"bike_id":"c5890979-64f4-43be-aed9-4c5787631937","system_id":"levelo_inurba_marseille","lat":43.24173,"lon":5.39728,"is_reserved":false,"is_disabled":false,"rental_uris":{"android":"levelo://app?vid=c5890979-64f4-43be-aed9-4c5787631937","ios":"levelo://app?vid=c5890979-64f4-43be-aed9-4c5787631937"},"vehicle_type_id":"4","last_reported":1779125048,"current_range_meters":6400,"station_id":"ce4bhn12rcd13ifvqgpg","pricing_plan_id":"cebpf4jnsgd1na2vs0mg"},{"bike_id":"627051ca-ceab-4958-842c-b7590911776e","system_id":"levelo_inurba_marseille","lat":43.32353,"lon":5.36735,"is_reserved":false,"is_disabled":false,"rental_uris":{"android":"levelo://app?vid=627051ca-ceab-4958-842c-b7590911776e","ios":"levelo://app?vid=627051ca-ceab-4958-842c-b7590911776e"},"vehicle_type_id":"4","last_reported":1779125048,"current_range_meters":6400,"station_id":"ce4bhsh2rcd13ifvqi2g","pricing_plan_id":"cebpf4jnsgd1na2vs0mg"},{"bike_id":"33b8e56f-e92b-46d0-8fae-9db6fda7f6a9","system_id":"levelo_inurba_marseille","lat":43.30499,"lon":5.36528,"is_reserved":false,"is_disabled":false,"rental_uris":{"android":"levelo://app?vid=33b8e56f-e92b-46d0-8fae-9db6fda7f6a9","ios":"levelo://app?vid=33b8e56f-e92b-46d0-8fae-9db6fda7f6a9"},"vehicle_type_id":"4","last_reported":1779125048,"current_range_meters":6400,"station_id":"","pricing_plan_id":"cebpf4jnsgd1na2vs0mg"},{"bike_id":"21d32b4c-31f8-497a-9bf7-2b4abaf6f4d6","system_id":"levelo_inurba_marseille","lat":43.26229,"lon":5.40452,"is_reserved":false,"is_disabled":false,"rental_uris":{"android":"levelo://app?vid=21d32b4c-31f8-497a-9bf7-2b4abaf6f4d6","ios":"levelo://app?vid=21d32b4c-31f8-497a-9bf7-2b4abaf6f4d6"},"vehicle_type_id":"4","last_reported":1779125048,"current_range_meters":6400,"station_id":"ce4bhmh2rcd13ifvqgmg","pricing_plan_id":"cebpf4jnsgd1na2vs0mg"},{"bike_id":"6561ccf2-1e0a-46d5-8f7f-e1caad291d30","system_id":"levelo_inurba_marseille","lat":43.2867,"lon":5.36346,"is_reserved":false,"is_disabled":false,"rental_uris":{"android":"levelo://app?vid=6561ccf2-1e0a-46d5-8f7f-e1caad291d30","ios":"levelo://app?vid=6561ccf2-1e0a-46d5-8f7f-e1caad291d30"},"vehicle_type_id":"4","last_reported":1779125048,"current_range_meters":6400,"station_id":"ce4bhah2rcd13ifvqej0","pricing_plan_id":"cebpf4jnsgd1na2vs0mg"},{"bike_id":"461d5e9b-3596-4d6e-a192-ffe757923bcc","system_id":"levelo_inurba_marseille","lat":43.26005,"lon":5.41765,"is_reserved":false,"is_disabled":false,"rental_uris":{"android":"levelo://app?vid=461d5e9b-3596-4d6e-a192-ffe757923bcc","ios":"levelo://app?vid=461d5e9b-3596-4d6e-a192-ffe757923bcc"},"vehicle_type_id":"4","last_reported":1779125048,"current_range_meters":6400,"station_id":"","pricing_plan_id":"cebpf4jnsgd1na2vs0mg"},{"bike_id":"0b67b378-2229-462a-a924-16abaedfab4b","system_id":"levelo_inurba_marseille","lat":43.29055,"lon":5.35912,"is_reserved":false,"is_disabled":false,"rental_uris":{"android":"levelo://app?vid=0b67b378-2229-462a-a924-16abaedfab4b","ios":"levelo://app?vid=0b67b378-2229-462a-a924-16abaedfab4b"},"vehicle_type_id":"4","last_reported":1779125048,"current_range_meters":6800,"station_id":"ce4bha92rcd13ifvqeg0","pricing_plan_id":"cebpf4jnsgd1na2vs0mg"},{"bike_id":"185113fd-b3bd-49f2-9b2e-dfb619e0d36f","system_id":"levelo_inurba_marseille","lat":43.24169,"lon":5.39726,"is_reserved":false,"is_disabled":false,"rental_uris":{"android":"levelo://app?vid=185113fd-b3bd-49f2-9b2e-dfb619e0d36f","ios":"levelo://app?vid=185113fd-b3bd-49f2-9b2e-dfb619e0d36f"},"vehicle_type_id":"4","last_reported":1779125048,"current_range_meters":6800,"station_id":"ce4bhn12rcd13ifvqgpg","pricing_plan_id":"cebpf4jnsgd1na2vs0mg"},{"bike_id":"57c06fee-39a6-4284-8019-dd15d2eb0ecf","system_id":"levelo_inurba_marseille","lat":43.2843,"lon":5.39201,"is_reserved":false,"is_disabled":false,"rental_uris":{"android":"levelo://app?vid=57c06fee-39a6-4284-8019-dd15d2eb0ecf","ios":"levelo://app?vid=57c06fee-39a6-4284-8019-dd15d2eb0ecf"},"vehicle_type_id":"4","last_reported":1779125048,"current_range_meters":6800,"station_id":"ce4bhoh2rcd13ifvqh5g","pricing_plan_id":"cebpf4jnsgd1na2vs0mg"},{"bike_id":"1c2eb4d1-e613-4047-a77c-317fbe0accea","system_id":"levelo_inurba_marseille","lat":43.29281,"lon":5.3841,"is_reserved":false,"is_disabled":true,"rental_uris":{"android":"levelo://app?vid=1c2eb4d1-e613-4047-a77c-317fbe0accea","ios":"levelo://app?vid=1c2eb4d1-e613-4047-a77c-317fbe0accea"},"vehicle_type_id":"4","last_reported":1779125048,"current_range_meters":6800,"station_id":"ce4bh692rcd13ifvqea0","pricing_plan_id":"cebpf4jnsgd1na2vs0mg"},{"bike_id":"c0401e0e-df4c-4e6c-aa26-3746866e74f7","system_id":"levelo_inurba_marseille","lat":43.28413,"lon":5.3497,"is_reserved":false,"is_disabled":false,"rental_uris":{"android":"levelo://app?vid=c0401e0e-df4c-4e6c-aa26-3746866e74f7","ios":"levelo://app?vid=c0401e0e-df4c-4e6c-aa26-3746866e74f7"},"vehicle_type_id":"4","last_reported":1779125048,"current_range_meters":6800,"station_id":"ce4bhbh2rcd13ifvqepg","pricing_plan_id":"cebpf4jnsgd1na2vs0mg"},{"bike_id":"dce180c1-d1fe-4d27-b6b3-90fc98b30ddc","system_id":"levelo_inurba_marseille","lat":43.28455,"lon":5.35885,"is_reserved":false,"is_disabled":false,"rental_uris":{"android":"levelo://app?vid=dce180c1-d1fe-4d27-b6b3-90fc98b30ddc","ios":"levelo://app?vid=dce180c1-d1fe-4d27-b6b3-90fc98b30ddc"},"vehicle_type_id":"4","last_reported":1779125048,"current_range_meters":6800,"station_id":"ce4bhah2rcd13ifvqei0","pricing_plan_id":"cebpf4jnsgd1na2vs0mg"},{"bike_id":"10c40cfe-a85e-4b41-8bf4-cac807013e28","system_id":"levelo_inurba_marseille","lat":43.29559,"lon":5.37521,"is_reserved":false,"is_disabled":false,"rental_uris":{"android":"levelo://app?vid=10c40cfe-a85e-4b41-8bf4-cac807013e28","ios":"levelo://app?vid=10c40cfe-a85e-4b41-8bf4-cac807013e28"},"vehicle_type_id":"4","last_reported":1779125048,"current_range_meters":6800,"station_id":"ce4bgh92rcd13ifvqb50","pricing_plan_id":"cebpf4jnsgd1na2vs0mg"},{"bike_id":"5340f891-bcbc-451e-aa32-59ef33efa546","system_id":"levelo_inurba_marseille","lat":43.26205,"lon":5.3745,"is_reserved":false,"is_disabled":false,"rental_uris":{"android":"levelo://app?vid=5340f891-bcbc-451e-aa32-59ef33efa546","ios":"levelo://app?vid=5340f891-bcbc-451e-aa32-59ef33efa546"},"vehicle_type_id":"4","last_reported":1779125048,"current_range_meters":6800,"station_id":"ce4bhgp2rcd13ifvqfc0","pricing_plan_id":"cebpf4jnsgd1na2vs0mg"},{"bike_id":"d6d79e93-edc2-44fe-b506-eef8ccd03c62","system_id":"levelo_inurba_marseille","lat":43.290369,"lon":5.386535,"is_reserved":false,"is_disabled":false,"rental_uris":{"android":"levelo://app?vid=d6d79e93-edc2-44fe-b506-eef8ccd03c62","ios":"levelo://app?vid=d6d79e93-edc2-44fe-b506-eef8ccd03c62"},"vehicle_type_id":"4","last_reported":1779125048,"current_range_meters":6800,"station_id":"ce4bh4p2rcd13ifvqe0g","pricing_plan_id":"cebpf4jnsgd1na2vs0mg"},{"bike_id":"5b81feae-6cda-4a09-b9c6-03bf532f49a2","system_id":"levelo_inurba_marseille","lat":43.284149,"lon":5.349971,"is_reserved":false,"is_disabled":false,"rental_uris":{"android":"levelo://app?vid=5b81feae-6cda-4a09-b9c6-03bf532f49a2","ios":"levelo://app?vid=5b81feae-6cda-4a09-b9c6-03bf532f49a2"},"vehicle_type_id":"4","last_reported":1779125048,"current_range_meters":6800,"station_id":"ce4bhbh2rcd13ifvqepg","pricing_plan_id":"cebpf4jnsgd1na2vs0mg"},{"bike_id":"9e2fe2f7-d6df-4ab9-966a-e0a262530a00","system_id":"levelo_inurba_marseille","lat":43.24801,"lon":5.37457,"is_reserved":false,"is_disabled":false,"rental_uris":{"android":"levelo://app?vid=9e2fe2f7-d6df-4ab9-966a-e0a262530a00","ios":"levelo://app?vid=9e2fe2f7-d6df-4ab9-966a-e0a262530a00"},"vehicle_type_id":"4","last_reported":1779125048,"current_range_meters":6800,"station_id":"ce4bhgh2rcd13ifvqfb0","pricing_plan_id":"cebpf4jnsgd1na2vs0mg"},{"bike_id":"3f7e1ed9-1b6d-4bbe-8e61-40251501c157","system_id":"levelo_inurba_marseille","lat":43.3042,"lon":5.41285,"is_reserved":false,"is_disabled":false,"rental_uris":{"android":"levelo://app?vid=3f7e1ed9-1b6d-4bbe-8e61-40251501c157","ios":"levelo://app?vid=3f7e1ed9-1b6d-4bbe-8e61-40251501c157"},"vehicle_type_id":"4","last_reported":1779125048,"current_range_meters":6800,"station_id":"ce4bhop2rcd13ifvqh8g","pricing_plan_id":"cebpf4jnsgd1na2vs0mg"},{"bike_id":"2bfee1b4-3129-4e32-ba20-1972095e4119","system_id":"levelo_inurba_marseille","lat":43.292,"lon":5.35805,"is_reserved":false,"is_disabled":false,"rental_uris":{"android":"levelo://app?vid=2bfee1b4-3129-4e32-ba20-1972095e4119","ios":"levelo://app?vid=2bfee1b4-3129-4e32-ba20-1972095e4119"},"vehicle_type_id":"4","last_reported":1779125048,"current_range_meters":6800,"station_id":"ce4bhb12rcd13ifvqel0","pricing_plan_id":"cebpf4jnsgd1na2vs0mg"},{"bike_id":"d8e797c1-0d77-4f25-9a8d-e36ea383af78","system_id":"levelo_inurba_marseille","lat":43.292,"lon":5.39333,"is_reserved":false,"is_disabled":false,"rental_uris":{"android":"levelo://app?vid=d8e797c1-0d77-4f25-9a8d-e36ea383af78","ios":"levelo://app?vid=d8e797c1-0d77-4f25-9a8d-e36ea383af78"},"vehicle_type_id":"4","last_reported":1779125048,"current_range_meters":6800,"station_id":"ce4bh192rcd13ifvqdd0","pricing_plan_id":"cebpf4jnsgd1na2vs0mg"},{"bike_id":"6af654b7-7a8b-457b-ad58-fba21b09801a","system_id":"levelo_inurba_marseille","lat":43.32106,"lon":5.36777,"is_reserved":false,"is_disabled":false,"rental_uris":{"android":"levelo://app?vid=6af654b7-7a8b-457b-ad58-fba21b09801a","ios":"levelo://app?vid=6af654b7-7a8b-457b-ad58-fba21b09801a"},"vehicle_type_id":"4","last_reported":1779125048,"current_range_meters":6800,"station_id":"ce4bhrh2rcd13ifvqhug","pricing_plan_id":"cebpf4jnsgd1na2vs0mg"},{"bike_id":"23fe3f67-0a73-462f-8932-18b0f1ef092a","system_id":"levelo_inurba_marseille","lat":43.301325,"lon":5.387727,"is_reserved":false,"is_disabled":false,"rental_uris":{"android":"levelo://app?vid=23fe3f67-0a73-462f-8932-18b0f1ef092a","ios":"levelo://app?vid=23fe3f67-0a73-462f-8932-18b0f1ef092a"},"vehicle_type_id":"4","last_reported":1779125048,"current_range_meters":6800,"station_id":"ce4bghh2rcd13ifvqb60","pricing_plan_id":"cebpf4jnsgd1na2vs0mg"},{"bike_id":"1e83bb69-67d4-4436-a694-2a70fa6c12ea","system_id":"levelo_inurba_marseille","lat":43.24661,"lon":5.38167,"is_reserved":false,"is_disabled":false,"rental_uris":{"android":"levelo://app?vid=1e83bb69-67d4-4436-a694-2a70fa6c12ea","ios":"levelo://app?vid=1e83bb69-67d4-4436-a694-2a70fa6c12ea"},"vehicle_type_id":"4","last_reported":1779125048,"current_range_meters":6800,"station_id":"ce4bhih2rcd13ifvqfr0","pricing_plan_id":"cebpf4jnsgd1na2vs0mg"},{"bike_id":"46e5ee1b-6e75-4db8-88e1-e8ff6d5292d7","system_id":"levelo_inurba_marseille","lat":43.23101,"lon":5.39479,"is_reserved":false,"is_disabled":false,"rental_uris":{"android":"levelo://app?vid=46e5ee1b-6e75-4db8-88e1-e8ff6d5292d7","ios":"levelo://app?vid=46e5ee1b-6e75-4db8-88e1-e8ff6d5292d7"},"vehicle_type_id":"4","last_reported":1779125048,"current_range_meters":6800,"station_id":"","pricing_plan_id":"cebpf4jnsgd1na2vs0mg"},{"bike_id":"80cc7be8-e95e-4d57-afd7-767e38f6fffc","system_id":"levelo_inurba_marseille","lat":43.29765,"lon":5.42767,"is_reserved":false,"is_disabled":false,"rental_uris":{"android":"levelo://app?vid=80cc7be8-e95e-4d57-afd7-767e38f6fffc","ios":"levelo://app?vid=80cc7be8-e95e-4d57-afd7-767e38f6fffc"},"vehicle_type_id":"4","last_reported":1779125048,"current_range_meters":6800,"station_id":"st_d3md5207bmas73dh9klg","pricing_plan_id":"cebpf4jnsgd1na2vs0mg"},{"bike_id":"00f6a363-b41e-43af-a05c-4ab2328420e2","system_id":"levelo_inurba_marseille","lat":43.25579,"lon":5.38239,"is_reserved":false,"is_disabled":false,"rental_uris":{"android":"levelo://app?vid=00f6a363-b41e-43af-a05c-4ab2328420e2","ios":"levelo://app?vid=00f6a363-b41e-43af-a05c-4ab2328420e2"},"vehicle_type_id":"4","last_reported":1779125048,"current_range_meters":6800,"station_id":"ce4bhih2rcd13ifvqfs0","pricing_plan_id":"cebpf4jnsgd1na2vs0mg"},{"bike_id":"527c40e5-badc-4281-b4c8-e1f5629d912c","system_id":"levelo_inurba_marseille","lat":43.25109,"lon":5.3953,"is_reserved":false,"is_disabled":false,"rental_uris":{"android":"levelo://app?vid=527c40e5-badc-4281-b4c8-e1f5629d912c","ios":"levelo://app?vid=527c40e5-badc-4281-b4c8-e1f5629d912c"},"vehicle_type_id":"4","last_reported":1779125048,"current_range_meters":6800,"station_id":"ce4bhm12rcd13ifvqgkg","pricing_plan_id":"cebpf4jnsgd1na2vs0mg"},{"bike_id":"9fdcbe47-e271-4e8a-a5f4-2b31fe40ea31","system_id":"levelo_inurba_marseille","lat":43.28616,"lon":5.35099,"is_reserved":false,"is_disabled":false,"rental_uris":{"android":"levelo://app?vid=9fdcbe47-e271-4e8a-a5f4-2b31fe40ea31","ios":"levelo://app?vid=9fdcbe47-e271-4e8a-a5f4-2b31fe40ea31"},"vehicle_type_id":"4","last_reported":1779125048,"current_range_meters":6800,"station_id":"ce4bhch2rcd13ifvqeug","pricing_plan_id":"cebpf4jnsgd1na2vs0mg"},{"bike_id":"26591e34-5557-4c47-85c1-c0340780f77e","system_id":"levelo_inurba_marseille","lat":43.24562,"lon":5.39542,"is_reserved":false,"is_disabled":false,"rental_uris":{"android":"levelo://app?vid=26591e34-5557-4c47-85c1-c0340780f77e","ios":"levelo://app?vid=26591e34-5557-4c47-85c1-c0340780f77e"},"vehicle_type_id":"4","last_reported":1779125048,"current_range_meters":6800,"station_id":"ce4bhlp2rcd13ifvqgjg","pricing_plan_id":"cebpf4jnsgd1na2vs0mg"},{"bike_id":"5a1c8a28-d79f-4b07-a4d8-bce75ba2c426","system_id":"levelo_inurba_marseille","lat":43.2586,"lon":5.39916,"is_reserved":false,"is_disabled":true,"rental_uris":{"android":"levelo://app?vid=5a1c8a28-d79f-4b07-a4d8-bce75ba2c426","ios":"levelo://app?vid=5a1c8a28-d79f-4b07-a4d8-bce75ba2c426"},"vehicle_type_id":"4","last_reported":1779125048,"current_range_meters":7200,"station_id":"ce4bhl92rcd13ifvqghg","pricing_plan_id":"cebpf4jnsgd1na2vs0mg"},{"bike_id":"139da8c0-4a36-4fe0-a828-69f137ae30da","system_id":"levelo_inurba_marseille","lat":43.25526,"lon":5.37682,"is_reserved":false,"is_disabled":true,"rental_uris":{"android":"levelo://app?vid=139da8c0-4a36-4fe0-a828-69f137ae30da","ios":"levelo://app?vid=139da8c0-4a36-4fe0-a828-69f137ae30da"},"vehicle_type_id":"4","last_reported":1779125048,"current_range_meters":7200,"station_id":"ce4bhh12rcd13ifvqff0","pricing_plan_id":"cebpf4jnsgd1na2vs0mg"},{"bike_id":"d5fdd2eb-f103-4b8b-8725-c36ff5b84597","system_id":"levelo_inurba_marseille","lat":43.31086,"lon":5.4245,"is_reserved":false,"is_disabled":false,"rental_uris":{"android":"levelo://app?vid=d5fdd2eb-f103-4b8b-8725-c36ff5b84597","ios":"levelo://app?vid=d5fdd2eb-f103-4b8b-8725-c36ff5b84597"},"vehicle_type_id":"4","last_reported":1779125048,"current_range_meters":7200,"station_id":"ce4bhp92rcd13ifvqhag","pricing_plan_id":"cebpf4jnsgd1na2vs0mg"},{"bike_id":"8f6fb70f-9962-4c14-afae-9cd42b60f2ca","system_id":"levelo_inurba_marseille","lat":43.26781,"lon":5.3941,"is_reserved":false,"is_disabled":true,"rental_uris":{"android":"levelo://app?vid=8f6fb70f-9962-4c14-afae-9cd42b60f2ca","ios":"levelo://app?vid=8f6fb70f-9962-4c14-afae-9cd42b60f2ca"},"vehicle_type_id":"4","last_reported":1779125048,"current_range_meters":7200,"station_id":"ce4bhh12rcd13ifvqfg0","pricing_plan_id":"cebpf4jnsgd1na2vs0mg"},{"bike_id":"e1c2151c-45e7-4a53-9477-bbc50405e9ad","system_id":"levelo_inurba_marseille","lat":43.29302,"lon":5.37473,"is_reserved":false,"is_disabled":false,"rental_uris":{"android":"levelo://app?vid=e1c2151c-45e7-4a53-9477-bbc50405e9ad","ios":"levelo://app?vid=e1c2151c-45e7-4a53-9477-bbc50405e9ad"},"vehicle_type_id":"4","last_reported":1779125048,"current_range_meters":7200,"station_id":"ce4bgi12rcd13ifvqb70","pricing_plan_id":"cebpf4jnsgd1na2vs0mg"},{"bike_id":"b9ca77f1-80fa-475b-9a37-ec72feacc5df","system_id":"levelo_inurba_marseille","lat":43.29799,"lon":5.44054,"is_reserved":false,"is_disabled":false,"rental_uris":{"android":"levelo://app?vid=b9ca77f1-80fa-475b-9a37-ec72feacc5df","ios":"levelo://app?vid=b9ca77f1-80fa-475b-9a37-ec72feacc5df"},"vehicle_type_id":"4","last_reported":1779125048,"current_range_meters":7200,"station_id":"st_d3jp68qikq2c7381ktn0","pricing_plan_id":"cebpf4jnsgd1na2vs0mg"},{"bike_id":"f730d25a-84e3-42c5-a939-51609cebefcd","system_id":"levelo_inurba_marseille","lat":43.28694,"lon":5.46697,"is_reserved":false,"is_disabled":false,"rental_uris":{"android":"levelo://app?vid=f730d25a-84e3-42c5-a939-51609cebefcd","ios":"levelo://app?vid=f730d25a-84e3-42c5-a939-51609cebefcd"},"vehicle_type_id":"4","last_reported":1779125048,"current_range_meters":7200,"station_id":"st_d6tc3vkotcvc738tfjhg","pricing_plan_id":"cebpf4jnsgd1na2vs0mg"},{"bike_id":"8b40f371-b5b3-4fc4-8d18-2cb1fc4066c3","system_id":"levelo_inurba_marseille","lat":43.28952,"lon":5.384,"is_reserved":false,"is_disabled":true,"rental_uris":{"android":"levelo://app?vid=8b40f371-b5b3-4fc4-8d18-2cb1fc4066c3","ios":"levelo://app?vid=8b40f371-b5b3-4fc4-8d18-2cb1fc4066c3"},"vehicle_type_id":"4","last_reported":1779125048,"current_range_meters":7200,"station_id":"ce4bh612rcd13ifvqe6g","pricing_plan_id":"cebpf4jnsgd1na2vs0mg"},{"bike_id":"87734c19-e7b5-4722-9118-7ad40bbc200d","system_id":"levelo_inurba_marseille","lat":43.31055,"lon":5.37157,"is_reserved":false,"is_disabled":false,"rental_uris":{"android":"levelo://app?vid=87734c19-e7b5-4722-9118-7ad40bbc200d","ios":"levelo://app?vid=87734c19-e7b5-4722-9118-7ad40bbc200d"},"vehicle_type_id":"4","last_reported":1779125048,"current_range_meters":7200,"station_id":"st_d4kl2rp97mjs73e7tdfg","pricing_plan_id":"cebpf4jnsgd1na2vs0mg"},{"bike_id":"e69e7aaf-ae5e-4aa4-919d-5ae59b98ed84","system_id":"levelo_inurba_marseille","lat":43.28407,"lon":5.34998,"is_reserved":false,"is_disabled":false,"rental_uris":{"android":"levelo://app?vid=e69e7aaf-ae5e-4aa4-919d-5ae59b98ed84","ios":"levelo://app?vid=e69e7aaf-ae5e-4aa4-919d-5ae59b98ed84"},"vehicle_type_id":"4","last_reported":1779125048,"current_range_meters":7200,"station_id":"ce4bhbh2rcd13ifvqepg","pricing_plan_id":"cebpf4jnsgd1na2vs0mg"},{"bike_id":"d67bbc49-cf37-4bf9-b082-798b431c4bf8","system_id":"levelo_inurba_marseille","lat":43.30535,"lon":5.36556,"is_reserved":false,"is_disabled":false,"rental_uris":{"android":"levelo://app?vid=d67bbc49-cf37-4bf9-b082-798b431c4bf8","ios":"levelo://app?vid=d67bbc49-cf37-4bf9-b082-798b431c4bf8"},"vehicle_type_id":"4","last_reported":1779125048,"current_range_meters":7200,"station_id":"ce4bgs12rcd13ifvqcag","pricing_plan_id":"cebpf4jnsgd1na2vs0mg"},{"bike_id":"1f996276-ce44-4300-94a5-8399d89a76bc","system_id":"levelo_inurba_marseille","lat":43.31534,"lon":5.38031,"is_reserved":false,"is_disabled":false,"rental_uris":{"android":"levelo://app?vid=1f996276-ce44-4300-94a5-8399d89a76bc","ios":"levelo://app?vid=1f996276-ce44-4300-94a5-8399d89a76bc"},"vehicle_type_id":"4","last_reported":1779125048,"current_range_meters":7200,"station_id":"ce4bhsp2rcd13ifvqi50","pricing_plan_id":"cebpf4jnsgd1na2vs0mg"},{"bike_id":"bfda2ad5-657c-48ec-8580-b8dbf66596f9","system_id":"levelo_inurba_marseille","lat":43.2692,"lon":5.40262,"is_reserved":false,"is_disabled":false,"rental_uris":{"android":"levelo://app?vid=bfda2ad5-657c-48ec-8580-b8dbf66596f9","ios":"levelo://app?vid=bfda2ad5-657c-48ec-8580-b8dbf66596f9"},"vehicle_type_id":"4","last_reported":1779125048,"current_range_meters":7200,"station_id":"cjm6bp8fraef2m0cb0m0","pricing_plan_id":"cebpf4jnsgd1na2vs0mg"},{"bike_id":"b7accfa4-863a-46f4-8dd0-30c58cc8b313","system_id":"levelo_inurba_marseille","lat":43.30912,"lon":5.37927,"is_reserved":false,"is_disabled":false,"rental_uris":{"android":"levelo://app?vid=b7accfa4-863a-46f4-8dd0-30c58cc8b313","ios":"levelo://app?vid=b7accfa4-863a-46f4-8dd0-30c58cc8b313"},"vehicle_type_id":"4","last_reported":1779125048,"current_range_meters":7200,"station_id":"","pricing_plan_id":"cebpf4jnsgd1na2vs0mg"},{"bike_id":"44eeaa05-498c-44d2-b86e-caba013d027b","system_id":"levelo_inurba_marseille","lat":43.29764,"lon":5.42781,"is_reserved":false,"is_disabled":false,"rental_uris":{"android":"levelo://app?vid=44eeaa05-498c-44d2-b86e-caba013d027b","ios":"levelo://app?vid=44eeaa05-498c-44d2-b86e-caba013d027b"},"vehicle_type_id":"4","last_reported":1779125048,"current_range_meters":7200,"station_id":"st_d3md5207bmas73dh9klg","pricing_plan_id":"cebpf4jnsgd1na2vs0mg"},{"bike_id":"b11fe354-3693-4bc2-b42b-ee91de365506","system_id":"levelo_inurba_marseille","lat":43.28568,"lon":5.39498,"is_reserved":false,"is_disabled":false,"rental_uris":{"android":"levelo://app?vid=b11fe354-3693-4bc2-b42b-ee91de365506","ios":"levelo://app?vid=b11fe354-3693-4bc2-b42b-ee91de365506"},"vehicle_type_id":"4","last_reported":1779125048,"current_range_meters":7200,"station_id":"ce4bh292rcd13ifvqdg0","pricing_plan_id":"cebpf4jnsgd1na2vs0mg"},{"bike_id":"92d1f52a-2b5f-46f0-a31e-967db06a4663","system_id":"levelo_inurba_marseille","lat":43.2338,"lon":5.41244,"is_reserved":false,"is_disabled":true,"rental_uris":{"android":"levelo://app?vid=92d1f52a-2b5f-46f0-a31e-967db06a4663","ios":"levelo://app?vid=92d1f52a-2b5f-46f0-a31e-967db06a4663"},"vehicle_type_id":"4","last_reported":1779125048,"current_range_meters":7200,"station_id":"st_d75pvndhf9lc73cqq3eg","pricing_plan_id":"cebpf4jnsgd1na2vs0mg"},{"bike_id":"3467f6e8-d4b1-4c81-83eb-9bfd2f1ebb8f","system_id":"levelo_inurba_marseille","lat":43.28015,"lon":5.39995,"is_reserved":false,"is_disabled":false,"rental_uris":{"android":"levelo://app?vid=3467f6e8-d4b1-4c81-83eb-9bfd2f1ebb8f","ios":"levelo://app?vid=3467f6e8-d4b1-4c81-83eb-9bfd2f1ebb8f"},"vehicle_type_id":"4","last_reported":1779125048,"current_range_meters":7200,"station_id":"ce4bho92rcd13ifvqh4g","pricing_plan_id":"cebpf4jnsgd1na2vs0mg"},{"bike_id":"67ac5501-1953-4dd5-b8f0-5480a8df2e7c","system_id":"levelo_inurba_marseille","lat":43.28426,"lon":5.34974,"is_reserved":false,"is_disabled":false,"rental_uris":{"android":"levelo://app?vid=67ac5501-1953-4dd5-b8f0-5480a8df2e7c","ios":"levelo://app?vid=67ac5501-1953-4dd5-b8f0-5480a8df2e7c"},"vehicle_type_id":"4","last_reported":1779125048,"current_range_meters":7200,"station_id":"ce4bhbh2rcd13ifvqepg","pricing_plan_id":"cebpf4jnsgd1na2vs0mg"},{"bike_id":"bd07b3bd-0b9a-4e0c-92d7-6a7ee5bb0e21","system_id":"levelo_inurba_marseille","lat":43.302194,"lon":5.39491,"is_reserved":false,"is_disabled":false,"rental_uris":{"android":"levelo://app?vid=bd07b3bd-0b9a-4e0c-92d7-6a7ee5bb0e21","ios":"levelo://app?vid=bd07b3bd-0b9a-4e0c-92d7-6a7ee5bb0e21"},"vehicle_type_id":"4","last_reported":1779125048,"current_range_meters":7200,"station_id":"ce4bh0p2rcd13ifvqd70","pricing_plan_id":"cebpf4jnsgd1na2vs0mg"},{"bike_id":"f953e7df-9a8f-4f8e-8e56-6a5db7d34d82","system_id":"levelo_inurba_marseille","lat":43.269189,"lon":5.380411,"is_reserved":false,"is_disabled":false,"rental_uris":{"android":"levelo://app?vid=f953e7df-9a8f-4f8e-8e56-6a5db7d34d82","ios":"levelo://app?vid=f953e7df-9a8f-4f8e-8e56-6a5db7d34d82"},"vehicle_type_id":"4","last_reported":1779125048,"current_range_meters":8000,"station_id":"","pricing_plan_id":"cebpf4jnsgd1na2vs0mg"},{"bike_id":"8094cb94-14a1-4bc4-be4c-4e5bdef46d46","system_id":"levelo_inurba_marseille","lat":43.29508,"lon":5.38694,"is_reserved":false,"is_disabled":false,"rental_uris":{"android":"levelo://app?vid=8094cb94-14a1-4bc4-be4c-4e5bdef46d46","ios":"levelo://app?vid=8094cb94-14a1-4bc4-be4c-4e5bdef46d46"},"vehicle_type_id":"4","last_reported":1779125048,"current_range_meters":8000,"station_id":"","pricing_plan_id":"cebpf4jnsgd1na2vs0mg"},{"bike_id":"addcdd95-92f1-4085-b077-e57d382466cb","system_id":"levelo_inurba_marseille","lat":43.29031,"lon":5.35595,"is_reserved":false,"is_disabled":true,"rental_uris":{"android":"levelo://app?vid=addcdd95-92f1-4085-b077-e57d382466cb","ios":"levelo://app?vid=addcdd95-92f1-4085-b077-e57d382466cb"},"vehicle_type_id":"4","last_reported":1779125048,"current_range_meters":8000,"station_id":"ce4bhb92rcd13ifvqen0","pricing_plan_id":"cebpf4jnsgd1na2vs0mg"},{"bike_id":"f4e4c821-8b85-4c81-8b45-67e3da1c61d6","system_id":"levelo_inurba_marseille","lat":43.29898,"lon":5.39725,"is_reserved":false,"is_disabled":false,"rental_uris":{"android":"levelo://app?vid=f4e4c821-8b85-4c81-8b45-67e3da1c61d6","ios":"levelo://app?vid=f4e4c821-8b85-4c81-8b45-67e3da1c61d6"},"vehicle_type_id":"4","last_reported":1779125048,"current_range_meters":8000,"station_id":"ce4bh0h2rcd13ifvqd50","pricing_plan_id":"cebpf4jnsgd1na2vs0mg"},{"bike_id":"d330ebaf-89a2-4938-8fb2-a03c97594a54","system_id":"levelo_inurba_marseille","lat":43.29031,"lon":5.37609,"is_reserved":false,"is_disabled":false,"rental_uris":{"android":"levelo://app?vid=d330ebaf-89a2-4938-8fb2-a03c97594a54","ios":"levelo://app?vid=d330ebaf-89a2-4938-8fb2-a03c97594a54"},"vehicle_type_id":"4","last_reported":1779125048,"current_range_meters":8000,"station_id":"ce4bh692rcd13ifvqe90","pricing_plan_id":"cebpf4jnsgd1na2vs0mg"},{"bike_id":"ec069315-e74a-4a57-972c-0dbc7ce3cd06","system_id":"levelo_inurba_marseille","lat":43.28291,"lon":5.35087,"is_reserved":false,"is_disabled":false,"rental_uris":{"android":"levelo://app?vid=ec069315-e74a-4a57-972c-0dbc7ce3cd06","ios":"levelo://app?vid=ec069315-e74a-4a57-972c-0dbc7ce3cd06"},"vehicle_type_id":"4","last_reported":1779125048,"current_range_meters":8000,"station_id":"ce4bhbp2rcd13ifvqerg","pricing_plan_id":"cebpf4jnsgd1na2vs0mg"},{"bike_id":"58c98de5-8c45-44bc-b9d2-d73286c3efe5","system_id":"levelo_inurba_marseille","lat":43.28131,"lon":5.42645,"is_reserved":false,"is_disabled":false,"rental_uris":{"android":"levelo://app?vid=58c98de5-8c45-44bc-b9d2-d73286c3efe5","ios":"levelo://app?vid=58c98de5-8c45-44bc-b9d2-d73286c3efe5"},"vehicle_type_id":"4","last_reported":1779125048,"current_range_meters":8000,"station_id":"ce4bhnh2rcd13ifvqgug","pricing_plan_id":"cebpf4jnsgd1na2vs0mg"},{"bike_id":"1f8259a9-7e55-4812-b53f-6d999496a759","system_id":"levelo_inurba_marseille","lat":43.28687,"lon":5.46699,"is_reserved":false,"is_disabled":false,"rental_uris":{"android":"levelo://app?vid=1f8259a9-7e55-4812-b53f-6d999496a759","ios":"levelo://app?vid=1f8259a9-7e55-4812-b53f-6d999496a759"},"vehicle_type_id":"4","last_reported":1779125048,"current_range_meters":8000,"station_id":"st_d6tc3vkotcvc738tfjhg","pricing_plan_id":"cebpf4jnsgd1na2vs0mg"},{"bike_id":"6ea900cf-6f59-475f-8fcf-e364fd0e9701","system_id":"levelo_inurba_marseille","lat":43.29602,"lon":5.36727,"is_reserved":false,"is_disabled":false,"rental_uris":{"android":"levelo://app?vid=6ea900cf-6f59-475f-8fcf-e364fd0e9701","ios":"levelo://app?vid=6ea900cf-6f59-475f-8fcf-e364fd0e9701"},"vehicle_type_id":"4","last_reported":1779125048,"current_range_meters":8000,"station_id":"ce4bgph2rcd13ifvqc2g","pricing_plan_id":"cebpf4jnsgd1na2vs0mg"},{"bike_id":"6ea6c320-3fde-4b3f-983f-c4ea28652a4e","system_id":"levelo_inurba_marseille","lat":43.22585,"lon":5.41698,"is_reserved":false,"is_disabled":false,"rental_uris":{"android":"levelo://app?vid=6ea6c320-3fde-4b3f-983f-c4ea28652a4e","ios":"levelo://app?vid=6ea6c320-3fde-4b3f-983f-c4ea28652a4e"},"vehicle_type_id":"4","last_reported":1779125048,"current_range_meters":8000,"station_id":"","pricing_plan_id":"cebpf4jnsgd1na2vs0mg"},{"bike_id":"b7e03cf9-14b3-44b6-b3fd-cc9307e4a63b","system_id":"levelo_inurba_marseille","lat":43.29301,"lon":5.37176,"is_reserved":false,"is_disabled":false,"rental_uris":{"android":"levelo://app?vid=b7e03cf9-14b3-44b6-b3fd-cc9307e4a63b","ios":"levelo://app?vid=b7e03cf9-14b3-44b6-b3fd-cc9307e4a63b"},"vehicle_type_id":"4","last_reported":1779125048,"current_range_meters":8000,"station_id":"ce4bgh92rcd13ifvqb40","pricing_plan_id":"cebpf4jnsgd1na2vs0mg"},{"bike_id":"17ba3c19-387f-4e2e-b73c-a02294ccdd28","system_id":"levelo_inurba_marseille","lat":43.22564,"lon":5.41633,"is_reserved":false,"is_disabled":false,"rental_uris":{"android":"levelo://app?vid=17ba3c19-387f-4e2e-b73c-a02294ccdd28","ios":"levelo://app?vid=17ba3c19-387f-4e2e-b73c-a02294ccdd28"},"vehicle_type_id":"4","last_reported":1779125048,"current_range_meters":8000,"station_id":"st_d2o4gvlbi1j2169b742g","pricing_plan_id":"cebpf4jnsgd1na2vs0mg"},{"bike_id":"ec6c1fda-90be-488b-9b61-328688b9b692","system_id":"levelo_inurba_marseille","lat":43.29569,"lon":5.3752,"is_reserved":false,"is_disabled":false,"rental_uris":{"android":"levelo://app?vid=ec6c1fda-90be-488b-9b61-328688b9b692","ios":"levelo://app?vid=ec6c1fda-90be-488b-9b61-328688b9b692"},"vehicle_type_id":"4","last_reported":1779125048,"current_range_meters":8000,"station_id":"ce4bgh92rcd13ifvqb50","pricing_plan_id":"cebpf4jnsgd1na2vs0mg"},{"bike_id":"8f3af7fc-2bf8-4325-97eb-54f330bbc6f4","system_id":"levelo_inurba_marseille","lat":43.24173,"lon":5.36389,"is_reserved":false,"is_disabled":false,"rental_uris":{"android":"levelo://app?vid=8f3af7fc-2bf8-4325-97eb-54f330bbc6f4","ios":"levelo://app?vid=8f3af7fc-2bf8-4325-97eb-54f330bbc6f4"},"vehicle_type_id":"4","last_reported":1779125048,"current_range_meters":8000,"station_id":"cpo36qri1sfpv3e86is0","pricing_plan_id":"cebpf4jnsgd1na2vs0mg"},{"bike_id":"428a210f-87f7-428f-9ac4-76d179596d35","system_id":"levelo_inurba_marseille","lat":43.28552,"lon":5.39487,"is_reserved":false,"is_disabled":true,"rental_uris":{"android":"levelo://app?vid=428a210f-87f7-428f-9ac4-76d179596d35","ios":"levelo://app?vid=428a210f-87f7-428f-9ac4-76d179596d35"},"vehicle_type_id":"4","last_reported":1779125048,"current_range_meters":8000,"station_id":"ce4bh292rcd13ifvqdg0","pricing_plan_id":"cebpf4jnsgd1na2vs0mg"},{"bike_id":"4ac8ff19-3b11-40d5-9853-fe542b6b1dff","system_id":"levelo_inurba_marseille","lat":43.29405,"lon":5.39772,"is_reserved":false,"is_disabled":false,"rental_uris":{"android":"levelo://app?vid=4ac8ff19-3b11-40d5-9853-fe542b6b1dff","ios":"levelo://app?vid=4ac8ff19-3b11-40d5-9853-fe542b6b1dff"},"vehicle_type_id":"4","last_reported":1779125048,"current_range_meters":8000,"station_id":"ce4bh3h2rcd13ifvqdo0","pricing_plan_id":"cebpf4jnsgd1na2vs0mg"},{"bike_id":"e81d7878-e699-43cf-a805-c9454afd6e26","system_id":"levelo_inurba_marseille","lat":43.31124,"lon":5.37762,"is_reserved":false,"is_disabled":false,"rental_uris":{"android":"levelo://app?vid=e81d7878-e699-43cf-a805-c9454afd6e26","ios":"levelo://app?vid=e81d7878-e699-43cf-a805-c9454afd6e26"},"vehicle_type_id":"4","last_reported":1779125048,"current_range_meters":8000,"station_id":"ce4bgt92rcd13ifvqcg0","pricing_plan_id":"cebpf4jnsgd1na2vs0mg"},{"bike_id":"fecbad9b-de34-45b5-aec9-0d12e826acd8","system_id":"levelo_inurba_marseille","lat":43.21168,"lon":5.35083,"is_reserved":false,"is_disabled":true,"rental_uris":{"android":"levelo://app?vid=fecbad9b-de34-45b5-aec9-0d12e826acd8","ios":"levelo://app?vid=fecbad9b-de34-45b5-aec9-0d12e826acd8"},"vehicle_type_id":"4","last_reported":1779125048,"current_range_meters":8000,"station_id":"st_cvj6sg6p6f1abm77japg","pricing_plan_id":"cebpf4jnsgd1na2vs0mg"},{"bike_id":"0d681fd7-f8c3-44b1-81df-1f41abf2c1c5","system_id":"levelo_inurba_marseille","lat":43.27947,"lon":5.41048,"is_reserved":false,"is_disabled":false,"rental_uris":{"android":"levelo://app?vid=0d681fd7-f8c3-44b1-81df-1f41abf2c1c5","ios":"levelo://app?vid=0d681fd7-f8c3-44b1-81df-1f41abf2c1c5"},"vehicle_type_id":"4","last_reported":1779125048,"current_range_meters":8000,"station_id":"ce4bhnp2rcd13ifvqh0g","pricing_plan_id":"cebpf4jnsgd1na2vs0mg"},{"bike_id":"6bd314e1-ab15-4455-b889-55d1f77e4075","system_id":"levelo_inurba_marseille","lat":43.28607,"lon":5.35056,"is_reserved":false,"is_disabled":false,"rental_uris":{"android":"levelo://app?vid=6bd314e1-ab15-4455-b889-55d1f77e4075","ios":"levelo://app?vid=6bd314e1-ab15-4455-b889-55d1f77e4075"},"vehicle_type_id":"4","last_reported":1779125048,"current_range_meters":8000,"station_id":"ce4bhch2rcd13ifvqeug","pricing_plan_id":"cebpf4jnsgd1na2vs0mg"},{"bike_id":"497e6644-8987-41b1-81ab-505bc931c380","system_id":"levelo_inurba_marseille","lat":43.24955,"lon":5.40476,"is_reserved":false,"is_disabled":false,"rental_uris":{"android":"levelo://app?vid=497e6644-8987-41b1-81ab-505bc931c380","ios":"levelo://app?vid=497e6644-8987-41b1-81ab-505bc931c380"},"vehicle_type_id":"4","last_reported":1779125048,"current_range_meters":8000,"station_id":"st_d2ngiaodas8pm72gd1h0","pricing_plan_id":"cebpf4jnsgd1na2vs0mg"},{"bike_id":"9d7234f4-e6e0-4e5b-b102-7a3e9099cc0f","system_id":"levelo_inurba_marseille","lat":43.27844,"lon":5.39204,"is_reserved":false,"is_disabled":false,"rental_uris":{"android":"levelo://app?vid=9d7234f4-e6e0-4e5b-b102-7a3e9099cc0f","ios":"levelo://app?vid=9d7234f4-e6e0-4e5b-b102-7a3e9099cc0f"},"vehicle_type_id":"4","last_reported":1779125048,"current_range_meters":8000,"station_id":"ce4bhjp2rcd13ifvqga0","pricing_plan_id":"cebpf4jnsgd1na2vs0mg"},{"bike_id":"a739f6f6-8343-4c4c-be8c-5f6e7deabd5f","system_id":"levelo_inurba_marseille","lat":43.2621,"lon":5.37448,"is_reserved":false,"is_disabled":false,"rental_uris":{"android":"levelo://app?vid=a739f6f6-8343-4c4c-be8c-5f6e7deabd5f","ios":"levelo://app?vid=a739f6f6-8343-4c4c-be8c-5f6e7deabd5f"},"vehicle_type_id":"4","last_reported":1779125048,"current_range_meters":8000,"station_id":"ce4bhgp2rcd13ifvqfc0","pricing_plan_id":"cebpf4jnsgd1na2vs0mg"},{"bike_id":"1778bc71-bd85-4eb7-9ae8-824d7542fb47","system_id":"levelo_inurba_marseille","lat":43.28694,"lon":5.46691,"is_reserved":false,"is_disabled":false,"rental_uris":{"android":"levelo://app?vid=1778bc71-bd85-4eb7-9ae8-824d7542fb47","ios":"levelo://app?vid=1778bc71-bd85-4eb7-9ae8-824d7542fb47"},"vehicle_type_id":"4","last_reported":1779125048,"current_range_meters":8000,"station_id":"st_d6tc3vkotcvc738tfjhg","pricing_plan_id":"cebpf4jnsgd1na2vs0mg"},{"bike_id":"76822842-6de5-44db-bee3-28d0eed2902b","system_id":"levelo_inurba_marseille","lat":43.22917,"lon":5.35375,"is_reserved":false,"is_disabled":false,"rental_uris":{"android":"levelo://app?vid=76822842-6de5-44db-bee3-28d0eed2902b","ios":"levelo://app?vid=76822842-6de5-44db-bee3-28d0eed2902b"},"vehicle_type_id":"4","last_reported":1779125048,"current_range_meters":8000,"station_id":"cpo3532slgdg3j2ikp40","pricing_plan_id":"cebpf4jnsgd1na2vs0mg"},{"bike_id":"4a170901-2cdd-442d-aa21-d97612b5b3ec","system_id":"levelo_inurba_marseille","lat":43.28606,"lon":5.35103,"is_reserved":false,"is_disabled":false,"rental_uris":{"android":"levelo://app?vid=4a170901-2cdd-442d-aa21-d97612b5b3ec","ios":"levelo://app?vid=4a170901-2cdd-442d-aa21-d97612b5b3ec"},"vehicle_type_id":"4","last_reported":1779125048,"current_range_meters":8000,"station_id":"ce4bhch2rcd13ifvqeug","pricing_plan_id":"cebpf4jnsgd1na2vs0mg"},{"bike_id":"a6e03e7d-649e-487b-9b1d-5b133acaa2f4","system_id":"levelo_inurba_marseille","lat":43.2952,"lon":5.39413,"is_reserved":false,"is_disabled":false,"rental_uris":{"android":"levelo://app?vid=a6e03e7d-649e-487b-9b1d-5b133acaa2f4","ios":"levelo://app?vid=a6e03e7d-649e-487b-9b1d-5b133acaa2f4"},"vehicle_type_id":"4","last_reported":1779125048,"current_range_meters":8000,"station_id":"ce4bh292rcd13ifvqdf0","pricing_plan_id":"cebpf4jnsgd1na2vs0mg"},{"bike_id":"67298b0d-96b3-4d14-87eb-fc9a2dd8b027","system_id":"levelo_inurba_marseille","lat":43.25123,"lon":5.40309,"is_reserved":false,"is_disabled":false,"rental_uris":{"android":"levelo://app?vid=67298b0d-96b3-4d14-87eb-fc9a2dd8b027","ios":"levelo://app?vid=67298b0d-96b3-4d14-87eb-fc9a2dd8b027"},"vehicle_type_id":"4","last_reported":1779125048,"current_range_meters":8000,"station_id":"ce4bhkp2rcd13ifvqgd0","pricing_plan_id":"cebpf4jnsgd1na2vs0mg"},{"bike_id":"da6efc14-7199-48c2-b34d-c8237e999b83","system_id":"levelo_inurba_marseille","lat":43.30638,"lon":5.40062,"is_reserved":false,"is_disabled":false,"rental_uris":{"android":"levelo://app?vid=da6efc14-7199-48c2-b34d-c8237e999b83","ios":"levelo://app?vid=da6efc14-7199-48c2-b34d-c8237e999b83"},"vehicle_type_id":"4","last_reported":1779125048,"current_range_meters":8000,"station_id":"ce4bh112rcd13ifvqda0","pricing_plan_id":"cebpf4jnsgd1na2vs0mg"},{"bike_id":"d93d963c-de84-4485-a50c-5c5e833b12a6","system_id":"levelo_inurba_marseille","lat":43.30135,"lon":5.3878,"is_reserved":false,"is_disabled":false,"rental_uris":{"android":"levelo://app?vid=d93d963c-de84-4485-a50c-5c5e833b12a6","ios":"levelo://app?vid=d93d963c-de84-4485-a50c-5c5e833b12a6"},"vehicle_type_id":"4","last_reported":1779125048,"current_range_meters":8400,"station_id":"ce4bghh2rcd13ifvqb60","pricing_plan_id":"cebpf4jnsgd1na2vs0mg"},{"bike_id":"2d03e62f-ba8b-4d0b-92f6-555161cc53ff","system_id":"levelo_inurba_marseille","lat":43.29744,"lon":5.41336,"is_reserved":false,"is_disabled":false,"rental_uris":{"android":"levelo://app?vid=2d03e62f-ba8b-4d0b-92f6-555161cc53ff","ios":"levelo://app?vid=2d03e62f-ba8b-4d0b-92f6-555161cc53ff"},"vehicle_type_id":"4","last_reported":1779125048,"current_range_meters":8400,"station_id":"","pricing_plan_id":"cebpf4jnsgd1na2vs0mg"},{"bike_id":"5eb11d83-2461-40c2-9484-0a35868d2011","system_id":"levelo_inurba_marseille","lat":43.29736,"lon":5.42764,"is_reserved":false,"is_disabled":true,"rental_uris":{"android":"levelo://app?vid=5eb11d83-2461-40c2-9484-0a35868d2011","ios":"levelo://app?vid=5eb11d83-2461-40c2-9484-0a35868d2011"},"vehicle_type_id":"4","last_reported":1779125048,"current_range_meters":8400,"station_id":"st_d3md5207bmas73dh9klg","pricing_plan_id":"cebpf4jnsgd1na2vs0mg"},{"bike_id":"38144e7e-7da2-433a-832e-c5635f7b3b33","system_id":"levelo_inurba_marseille","lat":43.26228,"lon":5.37432,"is_reserved":false,"is_disabled":false,"rental_uris":{"android":"levelo://app?vid=38144e7e-7da2-433a-832e-c5635f7b3b33","ios":"levelo://app?vid=38144e7e-7da2-433a-832e-c5635f7b3b33"},"vehicle_type_id":"4","last_reported":1779125048,"current_range_meters":8400,"station_id":"ce4bhgp2rcd13ifvqfc0","pricing_plan_id":"cebpf4jnsgd1na2vs0mg"},{"bike_id":"d2abe37c-883e-4b78-abe7-962a451ef821","system_id":"levelo_inurba_marseille","lat":43.28618,"lon":5.35104,"is_reserved":false,"is_disabled":false,"rental_uris":{"android":"levelo://app?vid=d2abe37c-883e-4b78-abe7-962a451ef821","ios":"levelo://app?vid=d2abe37c-883e-4b78-abe7-962a451ef821"},"vehicle_type_id":"4","last_reported":1779125048,"current_range_meters":8400,"station_id":"ce4bhch2rcd13ifvqeug","pricing_plan_id":"cebpf4jnsgd1na2vs0mg"},{"bike_id":"21b364c7-0db6-4df1-ad42-aa708eedb6f6","system_id":"levelo_inurba_marseille","lat":43.29011,"lon":5.38644,"is_reserved":false,"is_disabled":false,"rental_uris":{"android":"levelo://app?vid=21b364c7-0db6-4df1-ad42-aa708eedb6f6","ios":"levelo://app?vid=21b364c7-0db6-4df1-ad42-aa708eedb6f6"},"vehicle_type_id":"4","last_reported":1779125048,"current_range_meters":8400,"station_id":"ce4bh4p2rcd13ifvqe0g","pricing_plan_id":"cebpf4jnsgd1na2vs0mg"},{"bike_id":"1e7eeb6e-f6c4-4208-9356-8e94a37f45b8","system_id":"levelo_inurba_marseille","lat":43.29455,"lon":5.39758,"is_reserved":false,"is_disabled":true,"rental_uris":{"android":"levelo://app?vid=1e7eeb6e-f6c4-4208-9356-8e94a37f45b8","ios":"levelo://app?vid=1e7eeb6e-f6c4-4208-9356-8e94a37f45b8"},"vehicle_type_id":"4","last_reported":1779125048,"current_range_meters":8400,"station_id":"ce4bh3h2rcd13ifvqdo0","pricing_plan_id":"cebpf4jnsgd1na2vs0mg"},{"bike_id":"c0d467e6-6fef-4d21-8af4-af3c30cfe717","system_id":"levelo_inurba_marseille","lat":43.29798,"lon":5.36503,"is_reserved":false,"is_disabled":false,"rental_uris":{"android":"levelo://app?vid=c0d467e6-6fef-4d21-8af4-af3c30cfe717","ios":"levelo://app?vid=c0d467e6-6fef-4d21-8af4-af3c30cfe717"},"vehicle_type_id":"4","last_reported":1779125048,"current_range_meters":8400,"station_id":"","pricing_plan_id":"cebpf4jnsgd1na2vs0mg"},{"bike_id":"3bbde101-4638-4407-bfe8-afdf813f927c","system_id":"levelo_inurba_marseille","lat":43.29581,"lon":5.37503,"is_reserved":false,"is_disabled":false,"rental_uris":{"android":"levelo://app?vid=3bbde101-4638-4407-bfe8-afdf813f927c","ios":"levelo://app?vid=3bbde101-4638-4407-bfe8-afdf813f927c"},"vehicle_type_id":"4","last_reported":1779125048,"current_range_meters":8400,"station_id":"ce4bgh92rcd13ifvqb50","pricing_plan_id":"cebpf4jnsgd1na2vs0mg"},{"bike_id":"2dd5c204-99cd-4f71-be7c-4947040883b8","system_id":"levelo_inurba_marseille","lat":43.29303,"lon":5.37446,"is_reserved":false,"is_disabled":false,"rental_uris":{"android":"levelo://app?vid=2dd5c204-99cd-4f71-be7c-4947040883b8","ios":"levelo://app?vid=2dd5c204-99cd-4f71-be7c-4947040883b8"},"vehicle_type_id":"4","last_reported":1779125048,"current_range_meters":8400,"station_id":"ce4bgi12rcd13ifvqb70","pricing_plan_id":"cebpf4jnsgd1na2vs0mg"},{"bike_id":"a8cc5db3-56fd-4a37-9585-f8d009cfb309","system_id":"levelo_inurba_marseille","lat":43.27422,"lon":5.4066,"is_reserved":false,"is_disabled":false,"rental_uris":{"android":"levelo://app?vid=a8cc5db3-56fd-4a37-9585-f8d009cfb309","ios":"levelo://app?vid=a8cc5db3-56fd-4a37-9585-f8d009cfb309"},"vehicle_type_id":"4","last_reported":1779125048,"current_range_meters":8400,"station_id":"","pricing_plan_id":"cebpf4jnsgd1na2vs0mg"},{"bike_id":"ed5e05b5-1838-48a1-92fb-55b129955633","system_id":"levelo_inurba_marseille","lat":43.26215,"lon":5.37444,"is_reserved":false,"is_disabled":false,"rental_uris":{"android":"levelo://app?vid=ed5e05b5-1838-48a1-92fb-55b129955633","ios":"levelo://app?vid=ed5e05b5-1838-48a1-92fb-55b129955633"},"vehicle_type_id":"4","last_reported":1779125048,"current_range_meters":8400,"station_id":"ce4bhgp2rcd13ifvqfc0","pricing_plan_id":"cebpf4jnsgd1na2vs0mg"},{"bike_id":"f1808332-2f77-49ac-af21-82b7c20f7bdb","system_id":"levelo_inurba_marseille","lat":43.306,"lon":5.37223,"is_reserved":false,"is_disabled":false,"rental_uris":{"android":"levelo://app?vid=f1808332-2f77-49ac-af21-82b7c20f7bdb","ios":"levelo://app?vid=f1808332-2f77-49ac-af21-82b7c20f7bdb"},"vehicle_type_id":"4","last_reported":1779125048,"current_range_meters":8400,"station_id":"ce4bgqh2rcd13ifvqc4g","pricing_plan_id":"cebpf4jnsgd1na2vs0mg"},{"bike_id":"8bd2b4dc-f458-4c7d-9cb0-4fe0a8375090","system_id":"levelo_inurba_marseille","lat":43.29523,"lon":5.38556,"is_reserved":false,"is_disabled":false,"rental_uris":{"android":"levelo://app?vid=8bd2b4dc-f458-4c7d-9cb0-4fe0a8375090","ios":"levelo://app?vid=8bd2b4dc-f458-4c7d-9cb0-4fe0a8375090"},"vehicle_type_id":"4","last_reported":1779125048,"current_range_meters":8400,"station_id":"ce4bgih2rcd13ifvqba0","pricing_plan_id":"cebpf4jnsgd1na2vs0mg"},{"bike_id":"716ad749-9eb2-4471-b89a-a78f0c625c78","system_id":"levelo_inurba_marseille","lat":43.23193,"lon":5.39974,"is_reserved":false,"is_disabled":false,"rental_uris":{"android":"levelo://app?vid=716ad749-9eb2-4471-b89a-a78f0c625c78","ios":"levelo://app?vid=716ad749-9eb2-4471-b89a-a78f0c625c78"},"vehicle_type_id":"4","last_reported":1779125048,"current_range_meters":8800,"station_id":"ce4bhn12rcd13ifvqgqg","pricing_plan_id":"cebpf4jnsgd1na2vs0mg"},{"bike_id":"626f8d4e-2654-41bb-adc8-7cdd5f5a4c8e","system_id":"levelo_inurba_marseille","lat":43.28259,"lon":5.35079,"is_reserved":false,"is_disabled":true,"rental_uris":{"android":"levelo://app?vid=626f8d4e-2654-41bb-adc8-7cdd5f5a4c8e","ios":"levelo://app?vid=626f8d4e-2654-41bb-adc8-7cdd5f5a4c8e"},"vehicle_type_id":"4","last_reported":1779125048,"current_range_meters":8800,"station_id":"ce4bhbp2rcd13ifvqerg","pricing_plan_id":"cebpf4jnsgd1na2vs0mg"},{"bike_id":"0bd5a11a-a65a-45e3-83f8-3b714ac77014","system_id":"levelo_inurba_marseille","lat":43.29851,"lon":5.36259,"is_reserved":false,"is_disabled":false,"rental_uris":{"android":"levelo://app?vid=0bd5a11a-a65a-45e3-83f8-3b714ac77014","ios":"levelo://app?vid=0bd5a11a-a65a-45e3-83f8-3b714ac77014"},"vehicle_type_id":"4","last_reported":1779125048,"current_range_meters":8800,"station_id":"ce4bgpp2rcd13ifvqc3g","pricing_plan_id":"cebpf4jnsgd1na2vs0mg"},{"bike_id":"f25a490b-d5a4-4d1f-951a-0e22fff8fb94","system_id":"levelo_inurba_marseille","lat":43.30522,"lon":5.36548,"is_reserved":false,"is_disabled":false,"rental_uris":{"android":"levelo://app?vid=f25a490b-d5a4-4d1f-951a-0e22fff8fb94","ios":"levelo://app?vid=f25a490b-d5a4-4d1f-951a-0e22fff8fb94"},"vehicle_type_id":"4","last_reported":1779125048,"current_range_meters":8800,"station_id":"ce4bgs12rcd13ifvqcag","pricing_plan_id":"cebpf4jnsgd1na2vs0mg"},{"bike_id":"468c5ad9-ba07-4d67-8cde-29f41397e48d","system_id":"levelo_inurba_marseille","lat":43.30186,"lon":5.37351,"is_reserved":false,"is_disabled":false,"rental_uris":{"android":"levelo://app?vid=468c5ad9-ba07-4d67-8cde-29f41397e48d","ios":"levelo://app?vid=468c5ad9-ba07-4d67-8cde-29f41397e48d"},"vehicle_type_id":"4","last_reported":1779125048,"current_range_meters":8800,"station_id":"","pricing_plan_id":"cebpf4jnsgd1na2vs0mg"},{"bike_id":"0e0d5418-4a56-4251-8866-025e6b539885","system_id":"levelo_inurba_marseille","lat":43.28868,"lon":5.42521,"is_reserved":false,"is_disabled":false,"rental_uris":{"android":"levelo://app?vid=0e0d5418-4a56-4251-8866-025e6b539885","ios":"levelo://app?vid=0e0d5418-4a56-4251-8866-025e6b539885"},"vehicle_type_id":"4","last_reported":1779125048,"current_range_meters":8800,"station_id":"st_d3b462108ojc7389ooeg","pricing_plan_id":"cebpf4jnsgd1na2vs0mg"},{"bike_id":"ca4f6bf2-59b9-4fb8-9cc3-7ba12b36fa60","system_id":"levelo_inurba_marseille","lat":43.29623,"lon":5.40582,"is_reserved":false,"is_disabled":false,"rental_uris":{"android":"levelo://app?vid=ca4f6bf2-59b9-4fb8-9cc3-7ba12b36fa60","ios":"levelo://app?vid=ca4f6bf2-59b9-4fb8-9cc3-7ba12b36fa60"},"vehicle_type_id":"4","last_reported":1779125048,"current_range_meters":8800,"station_id":"ce4bh0h2rcd13ifvqd60","pricing_plan_id":"cebpf4jnsgd1na2vs0mg"},{"bike_id":"6e790415-aecf-44aa-a8ca-f8ab84aae953","system_id":"levelo_inurba_marseille","lat":43.28063,"lon":5.3966,"is_reserved":false,"is_disabled":false,"rental_uris":{"android":"levelo://app?vid=6e790415-aecf-44aa-a8ca-f8ab84aae953","ios":"levelo://app?vid=6e790415-aecf-44aa-a8ca-f8ab84aae953"},"vehicle_type_id":"4","last_reported":1779125048,"current_range_meters":8800,"station_id":"ce4bho12rcd13ifvqh2g","pricing_plan_id":"cebpf4jnsgd1na2vs0mg"},{"bike_id":"7e1737c3-ba18-4631-928f-e5188b436e96","system_id":"levelo_inurba_marseille","lat":43.27063,"lon":5.40258,"is_reserved":false,"is_disabled":false,"rental_uris":{"android":"levelo://app?vid=7e1737c3-ba18-4631-928f-e5188b436e96","ios":"levelo://app?vid=7e1737c3-ba18-4631-928f-e5188b436e96"},"vehicle_type_id":"4","last_reported":1779125048,"current_range_meters":8800,"station_id":"ce4bhk92rcd13ifvqgc0","pricing_plan_id":"cebpf4jnsgd1na2vs0mg"},{"bike_id":"5d4dc8e3-e1c8-4f4d-afda-06dc4c7d444e","system_id":"levelo_inurba_marseille","lat":43.26071,"lon":5.39386,"is_reserved":false,"is_disabled":false,"rental_uris":{"android":"levelo://app?vid=5d4dc8e3-e1c8-4f4d-afda-06dc4c7d444e","ios":"levelo://app?vid=5d4dc8e3-e1c8-4f4d-afda-06dc4c7d444e"},"vehicle_type_id":"4","last_reported":1779125048,"current_range_meters":8800,"station_id":"ce4bhh92rcd13ifvqfj0","pricing_plan_id":"cebpf4jnsgd1na2vs0mg"},{"bike_id":"c9513b4e-0f0e-49bc-bbff-f4414a2b16f9","system_id":"levelo_inurba_marseille","lat":43.27512,"lon":5.41586,"is_reserved":false,"is_disabled":false,"rental_uris":{"android":"levelo://app?vid=c9513b4e-0f0e-49bc-bbff-f4414a2b16f9","ios":"levelo://app?vid=c9513b4e-0f0e-49bc-bbff-f4414a2b16f9"},"vehicle_type_id":"4","last_reported":1779125048,"current_range_meters":8800,"station_id":"st_d6im8g6chgec73a5pndg","pricing_plan_id":"cebpf4jnsgd1na2vs0mg"},{"bike_id":"fa592942-41bc-4de8-816e-0cc8cfc267c2","system_id":"levelo_inurba_marseille","lat":43.23959,"lon":5.36626,"is_reserved":false,"is_disabled":false,"rental_uris":{"android":"levelo://app?vid=fa592942-41bc-4de8-816e-0cc8cfc267c2","ios":"levelo://app?vid=fa592942-41bc-4de8-816e-0cc8cfc267c2"},"vehicle_type_id":"4","last_reported":1779125048,"current_range_meters":8800,"station_id":"ce4bhi12rcd13ifvqfp0","pricing_plan_id":"cebpf4jnsgd1na2vs0mg"},{"bike_id":"71dadbbf-2988-4d63-8dfa-fc0cb188b342","system_id":"levelo_inurba_marseille","lat":43.27064,"lon":5.40261,"is_reserved":false,"is_disabled":true,"rental_uris":{"android":"levelo://app?vid=71dadbbf-2988-4d63-8dfa-fc0cb188b342","ios":"levelo://app?vid=71dadbbf-2988-4d63-8dfa-fc0cb188b342"},"vehicle_type_id":"4","last_reported":1779125048,"current_range_meters":8800,"station_id":"ce4bhk92rcd13ifvqgc0","pricing_plan_id":"cebpf4jnsgd1na2vs0mg"},{"bike_id":"9a147a82-1909-4624-8e35-bd6b119bb2af","system_id":"levelo_inurba_marseille","lat":43.30695,"lon":5.40084,"is_reserved":false,"is_disabled":true,"rental_uris":{"android":"levelo://app?vid=9a147a82-1909-4624-8e35-bd6b119bb2af","ios":"levelo://app?vid=9a147a82-1909-4624-8e35-bd6b119bb2af"},"vehicle_type_id":"4","last_reported":1779125048,"current_range_meters":8800,"station_id":"ce4bh112rcd13ifvqda0","pricing_plan_id":"cebpf4jnsgd1na2vs0mg"},{"bike_id":"e40439b8-70d1-4a31-b2ca-aacd85765f54","system_id":"levelo_inurba_marseille","lat":43.32115,"lon":5.36797,"is_reserved":false,"is_disabled":false,"rental_uris":{"android":"levelo://app?vid=e40439b8-70d1-4a31-b2ca-aacd85765f54","ios":"levelo://app?vid=e40439b8-70d1-4a31-b2ca-aacd85765f54"},"vehicle_type_id":"4","last_reported":1779125048,"current_range_meters":8800,"station_id":"ce4bhrh2rcd13ifvqhug","pricing_plan_id":"cebpf4jnsgd1na2vs0mg"},{"bike_id":"41aeab6c-6978-4475-9abb-adbd218ad412","system_id":"levelo_inurba_marseille","lat":43.29615,"lon":5.37726,"is_reserved":false,"is_disabled":true,"rental_uris":{"android":"levelo://app?vid=41aeab6c-6978-4475-9abb-adbd218ad412","ios":"levelo://app?vid=41aeab6c-6978-4475-9abb-adbd218ad412"},"vehicle_type_id":"4","last_reported":1779125048,"current_range_meters":8800,"station_id":"ce4bgi92rcd13ifvqb90","pricing_plan_id":"cebpf4jnsgd1na2vs0mg"},{"bike_id":"ff3b4694-4c2d-4e0e-882d-168610d86b23","system_id":"levelo_inurba_marseille","lat":43.21746,"lon":5.34606,"is_reserved":false,"is_disabled":false,"rental_uris":{"android":"levelo://app?vid=ff3b4694-4c2d-4e0e-882d-168610d86b23","ios":"levelo://app?vid=ff3b4694-4c2d-4e0e-882d-168610d86b23"},"vehicle_type_id":"4","last_reported":1779125048,"current_range_meters":8800,"station_id":"st_cvj6r9ubvosntc0bgbag","pricing_plan_id":"cebpf4jnsgd1na2vs0mg"},{"bike_id":"c1e11a9c-4b20-4d93-875c-319cf61c2e57","system_id":"levelo_inurba_marseille","lat":43.30421,"lon":5.39759,"is_reserved":false,"is_disabled":false,"rental_uris":{"android":"levelo://app?vid=c1e11a9c-4b20-4d93-875c-319cf61c2e57","ios":"levelo://app?vid=c1e11a9c-4b20-4d93-875c-319cf61c2e57"},"vehicle_type_id":"4","last_reported":1779125048,"current_range_meters":8800,"station_id":"ce4bh092rcd13ifvqd20","pricing_plan_id":"cebpf4jnsgd1na2vs0mg"},{"bike_id":"7bd23c6f-718e-458b-9035-b7bff2c19b09","system_id":"levelo_inurba_marseille","lat":43.2845,"lon":5.34975,"is_reserved":false,"is_disabled":false,"rental_uris":{"android":"levelo://app?vid=7bd23c6f-718e-458b-9035-b7bff2c19b09","ios":"levelo://app?vid=7bd23c6f-718e-458b-9035-b7bff2c19b09"},"vehicle_type_id":"4","last_reported":1779125048,"current_range_meters":8800,"station_id":"ce4bhbh2rcd13ifvqepg","pricing_plan_id":"cebpf4jnsgd1na2vs0mg"},{"bike_id":"9b29882d-d400-4533-8f35-2acf8a30b023","system_id":"levelo_inurba_marseille","lat":43.28611,"lon":5.39889,"is_reserved":false,"is_disabled":false,"rental_uris":{"android":"levelo://app?vid=9b29882d-d400-4533-8f35-2acf8a30b023","ios":"levelo://app?vid=9b29882d-d400-4533-8f35-2acf8a30b023"},"vehicle_type_id":"4","last_reported":1779125048,"current_range_meters":8800,"station_id":"st_d4a7ka997mjs738ck50g","pricing_plan_id":"cebpf4jnsgd1na2vs0mg"},{"bike_id":"4dc8177c-8240-4872-97f6-1b9344e31364","system_id":"levelo_inurba_marseille","lat":43.31728,"lon":5.42395,"is_reserved":false,"is_disabled":false,"rental_uris":{"android":"levelo://app?vid=4dc8177c-8240-4872-97f6-1b9344e31364","ios":"levelo://app?vid=4dc8177c-8240-4872-97f6-1b9344e31364"},"vehicle_type_id":"4","last_reported":1779125048,"current_range_meters":8800,"station_id":"ce4bhp92rcd13ifvqhbg","pricing_plan_id":"cebpf4jnsgd1na2vs0mg"},{"bike_id":"ea2b7db2-4ec0-4ed4-95e7-78571752cefd","system_id":"levelo_inurba_marseille","lat":43.248,"lon":5.37469,"is_reserved":false,"is_disabled":false,"rental_uris":{"android":"levelo://app?vid=ea2b7db2-4ec0-4ed4-95e7-78571752cefd","ios":"levelo://app?vid=ea2b7db2-4ec0-4ed4-95e7-78571752cefd"},"vehicle_type_id":"4","last_reported":1779125048,"current_range_meters":8800,"station_id":"ce4bhgh2rcd13ifvqfb0","pricing_plan_id":"cebpf4jnsgd1na2vs0mg"},{"bike_id":"90bf0bdd-41a7-4a15-813d-09be68efb9f3","system_id":"levelo_inurba_marseille","lat":43.28217,"lon":5.4057,"is_reserved":false,"is_disabled":false,"rental_uris":{"android":"levelo://app?vid=90bf0bdd-41a7-4a15-813d-09be68efb9f3","ios":"levelo://app?vid=90bf0bdd-41a7-4a15-813d-09be68efb9f3"},"vehicle_type_id":"4","last_reported":1779125048,"current_range_meters":8800,"station_id":"","pricing_plan_id":"cebpf4jnsgd1na2vs0mg"},{"bike_id":"f25246e9-747a-4e29-b868-4cee651920da","system_id":"levelo_inurba_marseille","lat":43.26979,"lon":5.40247,"is_reserved":false,"is_disabled":false,"rental_uris":{"android":"levelo://app?vid=f25246e9-747a-4e29-b868-4cee651920da","ios":"levelo://app?vid=f25246e9-747a-4e29-b868-4cee651920da"},"vehicle_type_id":"4","last_reported":1779125048,"current_range_meters":8800,"station_id":"cjm6bp8fraef2m0cb0m0","pricing_plan_id":"cebpf4jnsgd1na2vs0mg"},{"bike_id":"2d526bb4-8965-4ce1-91e5-6f2bbd480860","system_id":"levelo_inurba_marseille","lat":43.29506,"lon":5.39423,"is_reserved":false,"is_disabled":false,"rental_uris":{"android":"levelo://app?vid=2d526bb4-8965-4ce1-91e5-6f2bbd480860","ios":"levelo://app?vid=2d526bb4-8965-4ce1-91e5-6f2bbd480860"},"vehicle_type_id":"4","last_reported":1779125048,"current_range_meters":9200,"station_id":"ce4bh292rcd13ifvqdf0","pricing_plan_id":"cebpf4jnsgd1na2vs0mg"},{"bike_id":"2fbad4ff-3321-4ed4-955d-868f812d0490","system_id":"levelo_inurba_marseille","lat":43.24472,"lon":5.4252,"is_reserved":false,"is_disabled":false,"rental_uris":{"android":"levelo://app?vid=2fbad4ff-3321-4ed4-955d-868f812d0490","ios":"levelo://app?vid=2fbad4ff-3321-4ed4-955d-868f812d0490"},"vehicle_type_id":"4","last_reported":1779125048,"current_range_meters":9200,"station_id":"st_d4a3vfp97mjs738cd8kg","pricing_plan_id":"cebpf4jnsgd1na2vs0mg"},{"bike_id":"174732af-31f4-4055-98b3-f6d1d00c146e","system_id":"levelo_inurba_marseille","lat":43.28426,"lon":5.3499,"is_reserved":false,"is_disabled":false,"rental_uris":{"android":"levelo://app?vid=174732af-31f4-4055-98b3-f6d1d00c146e","ios":"levelo://app?vid=174732af-31f4-4055-98b3-f6d1d00c146e"},"vehicle_type_id":"4","last_reported":1779125048,"current_range_meters":9200,"station_id":"ce4bhbh2rcd13ifvqepg","pricing_plan_id":"cebpf4jnsgd1na2vs0mg"},{"bike_id":"0f656242-b46b-4305-8438-612d22a42b06","system_id":"levelo_inurba_marseille","lat":43.286145,"lon":5.370537,"is_reserved":false,"is_disabled":false,"rental_uris":{"android":"levelo://app?vid=0f656242-b46b-4305-8438-612d22a42b06","ios":"levelo://app?vid=0f656242-b46b-4305-8438-612d22a42b06"},"vehicle_type_id":"4","last_reported":1779125048,"current_range_meters":9200,"station_id":"ce4bht12rcd13ifvqi60","pricing_plan_id":"cebpf4jnsgd1na2vs0mg"},{"bike_id":"af731511-fe2c-4bad-84ee-94ac31edb0da","system_id":"levelo_inurba_marseille","lat":43.23197,"lon":5.35553,"is_reserved":false,"is_disabled":false,"rental_uris":{"android":"levelo://app?vid=af731511-fe2c-4bad-84ee-94ac31edb0da","ios":"levelo://app?vid=af731511-fe2c-4bad-84ee-94ac31edb0da"},"vehicle_type_id":"4","last_reported":1779125048,"current_range_meters":9200,"station_id":"ce4bhu92rcd13ifvqi70","pricing_plan_id":"cebpf4jnsgd1na2vs0mg"},{"bike_id":"544a5a8f-218d-4183-b454-e008e38c18a0","system_id":"levelo_inurba_marseille","lat":43.24639,"lon":5.38895,"is_reserved":false,"is_disabled":false,"rental_uris":{"android":"levelo://app?vid=544a5a8f-218d-4183-b454-e008e38c18a0","ios":"levelo://app?vid=544a5a8f-218d-4183-b454-e008e38c18a0"},"vehicle_type_id":"4","last_reported":1779125048,"current_range_meters":9200,"station_id":"ce4bhg12rcd13ifvqf60","pricing_plan_id":"cebpf4jnsgd1na2vs0mg"},{"bike_id":"3942a10b-fbde-44cf-9339-8b9493e06000","system_id":"levelo_inurba_marseille","lat":43.29008,"lon":5.37573,"is_reserved":false,"is_disabled":true,"rental_uris":{"android":"levelo://app?vid=3942a10b-fbde-44cf-9339-8b9493e06000","ios":"levelo://app?vid=3942a10b-fbde-44cf-9339-8b9493e06000"},"vehicle_type_id":"4","last_reported":1779125048,"current_range_meters":9200,"station_id":"ce4bh692rcd13ifvqe90","pricing_plan_id":"cebpf4jnsgd1na2vs0mg"},