{"last_updated":1721682459,"ttl":30,"version":"2.2","data":{"bikes":[{"bike_id":"a2610bec-28cf-4e46-bfa7-b619ea248969","system_id":"levelo_inurba_marseille","lat":43.31257,"lon":5.36767,"is_reserved":false,"is_disabled":false,"rental_uris":{"android":"levelo://app?vid=a2610bec-28cf-4e46-bfa7-b619ea248969","ios":"levelo://app?vid=a2610bec-28cf-4e46-bfa7-b619ea248969"},"vehicle_type_id":"4","last_reported":1721682459,"current_range_meters":11200,"station_id":"","pricing_plan_id":"cebpf4jnsgd1na2vs0mg"},{"bike_id":"d425e349-b307-41bc-a7cf-5fcc982a8805","system_id":"levelo_inurba_marseille","lat":43.312239,"lon":5.368562,"is_reserved":false,"is_disabled":false,"rental_uris":{"android":"levelo://app?vid=d425e349-b307-41bc-a7cf-5fcc982a8805","ios":"levelo://app?vid=d425e349-b307-41bc-a7cf-5fcc982a8805"},"vehicle_type_id":"4","last_reported":1721682459,"current_range_meters":22800,"station_id":"ce4bgl92rcd13ifvqbq0","pricing_plan_id":"cebpf4jnsgd1na2vs0mg"},{"bike_id":"02ca623e-d369-4360-93c3-5884108f5de9","system_id":"levelo_inurba_marseille","lat":43.31224,"lon":5.36861,"is_reserved":false,"is_disabled":false,"rental_uris":{"android":"levelo://app?vid=02ca623e-d369-4360-93c3-5884108f5de9","ios":"levelo://app?vid=02ca623e-d369-4360-93c3-5884108f5de9"},"vehicle_type_id":"4","last_reported":1721682459,"current_range_meters":0,"station_id":"ce4bgl92rcd13ifvqbq0","pricing_plan_id":"cebpf4jnsgd1na2vs0mg"},{"bike_id":"b4b81b7d-a893-4bf1-8f91-dfb96560810f","system_id":"levelo_inurba_marseille","lat":43.31118,"lon":5.36786,"is_reserved":false,"is_disabled":false,"rental_uris":{"android":"levelo://app?vid=b4b81b7d-a893-4bf1-8f91-dfb96560810f","ios":"levelo://app?vid=b4b81b7d-a893-4bf1-8f91-dfb96560810f"},"vehicle_type_id":"4","last_reported":1721682459,"current_range_meters":31600,"station_id":"","pricing_plan_id":"cebpf4jnsgd1na2vs0mg"},{"bike_id":"351b399e-dd10-4f4f-ad3a-d0202ddf7132","system_id":"levelo_inurba_marseille","lat":43.309076,"lon":5.368465,"is_reserved":false,"is_disabled":false,"rental_uris":{"android":"levelo://app?vid=351b399e-dd10-4f4f-ad3a-d0202ddf7132","ios":"levelo://app?vid=351b399e-dd10-4f4f-ad3a-d0202ddf7132"},"vehicle_type_id":"4","last_reported":1721682459,"current_range_meters":19200,"station_id":"ce4bgn92rcd13ifvqbvg","pricing_plan_id":"cebpf4jnsgd1na2vs0mg"},{"bike_id":"a4b43139-4454-49ed-a83e-9f1ebac25a08","system_id":"levelo_inurba_marseille","lat":43.309076,"lon":5.368465,"is_reserved":false,"is_disabled":false,"rental_uris":{"android":"levelo://app?vid=a4b43139-4454-49ed-a83e-9f1ebac25a08","ios":"levelo://app?vid=a4b43139-4454-49ed-a83e-9f1ebac25a08"},"vehicle_type_id":"4","last_reported":1721682459,"current_range_meters":28000,"station_id":"ce4bgn92rcd13ifvqbvg","pricing_plan_id":"cebpf4jnsgd1na2vs0mg"},{"bike_id":"93f3f48c-f459-4e9a-86ea-3106a0786116","system_id":"levelo_inurba_marseille","lat":43.30905,"lon":5.36863,"is_reserved":false,"is_disabled":false,"rental_uris":{"android":"levelo://app?vid=93f3f48c-f459-4e9a-86ea-3106a0786116","ios":"levelo://app?vid=93f3f48c-f459-4e9a-86ea-3106a0786116"},"vehicle_type_id":"4","last_reported":1721682459,"current_range_meters":0,"station_id":"ce4bgn92rcd13ifvqbvg","pricing_plan_id":"cebpf4jnsgd1na2vs0mg"},{"bike_id":"55527fa7-bdb1-40c7-9d09-478120d579af","system_id":"levelo_inurba_marseille","lat":43.309076,"lon":5.368465,"is_reserved":false,"is_disabled":false,"rental_uris":{"android":"levelo://app?vid=55527fa7-bdb1-40c7-9d09-478120d579af","ios":"levelo://app?vid=55527fa7-bdb1-40c7-9d09-478120d579af"},"vehicle_type_id":"4","last_reported":1721682459,"current_range_meters":0,"station_id":"ce4bgn92rcd13ifvqbvg","pricing_plan_id":"cebpf4jnsgd1na2vs0mg"},{"bike_id":"d712f54b-cfe7-4758-8133-d3dc92ba25bc","system_id":"levelo_inurba_marseille","lat":43.314811,"lon":5.373103,"is_reserved":false,"is_disabled":false,"rental_uris":{"android":"levelo://app?vid=d712f54b-cfe7-4758-8133-d3dc92ba25bc","ios":"levelo://app?vid=d712f54b-cfe7-4758-8133-d3dc92ba25bc"},"vehicle_type_id":"4","last_reported":1721682459,"current_range_meters":31200,"station_id":"ce4bgt12rcd13ifvqcd0","pricing_plan_id":"cebpf4jnsgd1na2vs0mg"},{"bike_id":"19a7d56e-ef09-4d10-be50-f9b728f6aae4","system_id":"levelo_inurba_marseille","lat":43.309039,"lon":5.371797,"is_reserved":false,"is_disabled":false,"rental_uris":{"android":"levelo://app?vid=19a7d56e-ef09-4d10-be50-f9b728f6aae4","ios":"levelo://app?vid=19a7d56e-ef09-4d10-be50-f9b728f6aae4"},"vehicle_type_id":"4","last_reported":1721682459,"current_range_meters":0,"station_id":"ce4bguh2rcd13ifvqckg","pricing_plan_id":"cebpf4jnsgd1na2vs0mg"},{"bike_id":"b963b2a8-e0a3-4f56-bf7a-1d31d55bb460","system_id":"levelo_inurba_marseille","lat":43.314811,"lon":5.373103,"is_reserved":false,"is_disabled":false,"rental_uris":{"android":"levelo://app?vid=b963b2a8-e0a3-4f56-bf7a-1d31d55bb460","ios":"levelo://app?vid=b963b2a8-e0a3-4f56-bf7a-1d31d55bb460"},"vehicle_type_id":"4","last_reported":1721682459,"current_range_meters":20400,"station_id":"ce4bgt12rcd13ifvqcd0","pricing_plan_id":"cebpf4jnsgd1na2vs0mg"},{"bike_id":"ef99e68f-b430-4012-ac07-58bf7294e595","system_id":"levelo_inurba_marseille","lat":43.314811,"lon":5.373103,"is_reserved":false,"is_disabled":false,"rental_uris":{"android":"levelo://app?vid=ef99e68f-b430-4012-ac07-58bf7294e595","ios":"levelo://app?vid=ef99e68f-b430-4012-ac07-58bf7294e595"},"vehicle_type_id":"4","last_reported":1721682459,"current_range_meters":18800,"station_id":"ce4bgt12rcd13ifvqcd0","pricing_plan_id":"cebpf4jnsgd1na2vs0mg"},{"bike_id":"b2fc3a9a-4bd3-42c5-a51b-37ca4894c301","system_id":"levelo_inurba_marseille","lat":43.314811,"lon":5.373103,"is_reserved":false,"is_disabled":false,"rental_uris":{"android":"levelo://app?vid=b2fc3a9a-4bd3-42c5-a51b-37ca4894c301","ios":"levelo://app?vid=b2fc3a9a-4bd3-42c5-a51b-37ca4894c301"},"vehicle_type_id":"4","last_reported":1721682459,"current_range_meters":8800,"station_id":"ce4bgt12rcd13ifvqcd0","pricing_plan_id":"cebpf4jnsgd1na2vs0mg"},{"bike_id":"ff31675b-c96d-44bd-8ac4-a34b06b044fa","system_id":"levelo_inurba_marseille","lat":43.31496,"lon":5.37316,"is_reserved":false,"is_disabled":false,"rental_uris":{"android":"levelo://app?vid=ff31675b-c96d-44bd-8ac4-a34b06b044fa","ios":"levelo://app?vid=ff31675b-c96d-44bd-8ac4-a34b06b044fa"},"vehicle_type_id":"4","last_reported":1721682459,"current_range_meters":6800,"station_id":"ce4bgt12rcd13ifvqcd0","pricing_plan_id":"cebpf4jnsgd1na2vs0mg"},{"bike_id":"eab94586-85d3-4b2f-9fe1-5d7814abc68c","system_id":"levelo_inurba_marseille","lat":43.309039,"lon":5.371797,"is_reserved":false,"is_disabled":false,"rental_uris":{"android":"levelo://app?vid=eab94586-85d3-4b2f-9fe1-5d7814abc68c","ios":"levelo://app?vid=eab94586-85d3-4b2f-9fe1-5d7814abc68c"},"vehicle_type_id":"4","last_reported":1721682459,"current_range_meters":9200,"station_id":"ce4bguh2rcd13ifvqckg","pricing_plan_id":"cebpf4jnsgd1na2vs0mg"},{"bike_id":"d028b6e8-6e8f-4475-899b-4cae7b3cd204","system_id":"levelo_inurba_marseille","lat":43.314811,"lon":5.373103,"is_reserved":false,"is_disabled":false,"rental_uris":{"android":"levelo://app?vid=d028b6e8-6e8f-4475-899b-4cae7b3cd204","ios":"levelo://app?vid=d028b6e8-6e8f-4475-899b-4cae7b3cd204"},"vehicle_type_id":"4","last_reported":1721682459,"current_range_meters":31200,"station_id":"ce4bgt12rcd13ifvqcd0","pricing_plan_id":"cebpf4jnsgd1na2vs0mg"},{"bike_id":"bda7afc7-83e3-46bf-ae5d-e59db2b9e695","system_id":"levelo_inurba_marseille","lat":43.305468,"lon":5.366938,"is_reserved":false,"is_disabled":false,"rental_uris":{"android":"levelo://app?vid=bda7afc7-83e3-46bf-ae5d-e59db2b9e695","ios":"levelo://app?vid=bda7afc7-83e3-46bf-ae5d-e59db2b9e695"},"vehicle_type_id":"4","last_reported":1721682459,"current_range_meters":22000,"station_id":"ce4bgrp2rcd13ifvqc9g","pricing_plan_id":"cebpf4jnsgd1na2vs0mg"},{"bike_id":"f412971c-23fe-4a87-a962-03023ce9277e","system_id":"levelo_inurba_marseille","lat":43.30777,"lon":5.374683,"is_reserved":false,"is_disabled":false,"rental_uris":{"android":"levelo://app?vid=f412971c-23fe-4a87-a962-03023ce9277e","ios":"levelo://app?vid=f412971c-23fe-4a87-a962-03023ce9277e"},"vehicle_type_id":"4","last_reported":1721682459,"current_range_meters":30800,"station_id":"","pricing_plan_id":"cebpf4jnsgd1na2vs0mg"},{"bike_id":"4b0fc6b8-a266-4d4e-8078-8c6da650fd04","system_id":"levelo_inurba_marseille","lat":43.311093,"lon":5.377513,"is_reserved":false,"is_disabled":false,"rental_uris":{"android":"levelo://app?vid=4b0fc6b8-a266-4d4e-8078-8c6da650fd04","ios":"levelo://app?vid=4b0fc6b8-a266-4d4e-8078-8c6da650fd04"},"vehicle_type_id":"4","last_reported":1721682459,"current_range_meters":31200,"station_id":"ce4bgt92rcd13ifvqcg0","pricing_plan_id":"cebpf4jnsgd1na2vs0mg"},{"bike_id":"9d7cfe61-5af7-450e-b7b7-2b6de8905db2","system_id":"levelo_inurba_marseille","lat":43.307945,"lon":5.376487,"is_reserved":false,"is_disabled":false,"rental_uris":{"android":"levelo://app?vid=9d7cfe61-5af7-450e-b7b7-2b6de8905db2","ios":"levelo://app?vid=9d7cfe61-5af7-450e-b7b7-2b6de8905db2"},"vehicle_type_id":"4","last_reported":1721682459,"current_range_meters":28800,"station_id":"ce4bgv92rcd13ifvqcq0","pricing_plan_id":"cebpf4jnsgd1na2vs0mg"},{"bike_id":"df159d49-e3fc-4960-b5f5-3710c1c27d2c","system_id":"levelo_inurba_marseille","lat":43.307945,"lon":5.376487,"is_reserved":false,"is_disabled":false,"rental_uris":{"android":"levelo://app?vid=df159d49-e3fc-4960-b5f5-3710c1c27d2c","ios":"levelo://app?vid=df159d49-e3fc-4960-b5f5-3710c1c27d2c"},"vehicle_type_id":"4","last_reported":1721682459,"current_range_meters":8800,"station_id":"ce4bgv92rcd13ifvqcq0","pricing_plan_id":"cebpf4jnsgd1na2vs0mg"},{"bike_id":"8dfb9bf8-dca4-4a5d-bbcb-483b19fe4f4f","system_id":"levelo_inurba_marseille","lat":43.30786,"lon":5.37652,"is_reserved":false,"is_disabled":false,"rental_uris":{"android":"levelo://app?vid=8dfb9bf8-dca4-4a5d-bbcb-483b19fe4f4f","ios":"levelo://app?vid=8dfb9bf8-dca4-4a5d-bbcb-483b19fe4f4f"},"vehicle_type_id":"4","last_reported":1721682459,"current_range_meters":6000,"station_id":"ce4bgv92rcd13ifvqcq0","pricing_plan_id":"cebpf4jnsgd1na2vs0mg"},{"bike_id":"c7aa5e84-2a3b-4781-91ac-0e5241296169","system_id":"levelo_inurba_marseille","lat":43.30779,"lon":5.37646,"is_reserved":false,"is_disabled":false,"rental_uris":{"android":"levelo://app?vid=c7aa5e84-2a3b-4781-91ac-0e5241296169","ios":"levelo://app?vid=c7aa5e84-2a3b-4781-91ac-0e5241296169"},"vehicle_type_id":"4","last_reported":1721682459,"current_range_meters":6000,"station_id":"ce4bgv92rcd13ifvqcq0","pricing_plan_id":"cebpf4jnsgd1na2vs0mg"},{"bike_id":"a2a93bd5-d713-4452-bf07-3c5115c56216","system_id":"levelo_inurba_marseille","lat":43.307945,"lon":5.376487,"is_reserved":false,"is_disabled":false,"rental_uris":{"android":"levelo://app?vid=a2a93bd5-d713-4452-bf07-3c5115c56216","ios":"levelo://app?vid=a2a93bd5-d713-4452-bf07-3c5115c56216"},"vehicle_type_id":"4","last_reported":1721682459,"current_range_meters":11600,"station_id":"ce4bgv92rcd13ifvqcq0","pricing_plan_id":"cebpf4jnsgd1na2vs0mg"},{"bike_id":"3719e2a1-d08c-4f72-b9e2-1715bfd585d2","system_id":"levelo_inurba_marseille","lat":43.303938,"lon":5.366916,"is_reserved":false,"is_disabled":false,"rental_uris":{"android":"levelo://app?vid=3719e2a1-d08c-4f72-b9e2-1715bfd585d2","ios":"levelo://app?vid=3719e2a1-d08c-4f72-b9e2-1715bfd585d2"},"vehicle_type_id":"4","last_reported":1721682459,"current_range_meters":1200,"station_id":"","pricing_plan_id":"cebpf4jnsgd1na2vs0mg"},{"bike_id":"c9df5aa7-ba2f-4428-acc5-c05ce834f576","system_id":"levelo_inurba_marseille","lat":43.317075,"lon":5.377367,"is_reserved":false,"is_disabled":false,"rental_uris":{"android":"levelo://app?vid=c9df5aa7-ba2f-4428-acc5-c05ce834f576","ios":"levelo://app?vid=c9df5aa7-ba2f-4428-acc5-c05ce834f576"},"vehicle_type_id":"4","last_reported":1721682459,"current_range_meters":30400,"station_id":"ce4bgth2rcd13ifvqch0","pricing_plan_id":"cebpf4jnsgd1na2vs0mg"},{"bike_id":"db19887e-cac2-4acd-b099-9c869a1ed979","system_id":"levelo_inurba_marseille","lat":43.317075,"lon":5.377367,"is_reserved":false,"is_disabled":false,"rental_uris":{"android":"levelo://app?vid=db19887e-cac2-4acd-b099-9c869a1ed979","ios":"levelo://app?vid=db19887e-cac2-4acd-b099-9c869a1ed979"},"vehicle_type_id":"4","last_reported":1721682459,"current_range_meters":5600,"station_id":"ce4bgth2rcd13ifvqch0","pricing_plan_id":"cebpf4jnsgd1na2vs0mg"},{"bike_id":"d3a506dd-4996-49a6-a347-d740b5b95050","system_id":"levelo_inurba_marseille","lat":43.317075,"lon":5.377367,"is_reserved":false,"is_disabled":false,"rental_uris":{"android":"levelo://app?vid=d3a506dd-4996-49a6-a347-d740b5b95050","ios":"levelo://app?vid=d3a506dd-4996-49a6-a347-d740b5b95050"},"vehicle_type_id":"4","last_reported":1721682459,"current_range_meters":16800,"station_id":"ce4bgth2rcd13ifvqch0","pricing_plan_id":"cebpf4jnsgd1na2vs0mg"},{"bike_id":"6b4be18b-d882-4f88-8d0b-76cd2cf24056","system_id":"levelo_inurba_marseille","lat":43.317075,"lon":5.377367,"is_reserved":false,"is_disabled":false,"rental_uris":{"android":"levelo://app?vid=6b4be18b-d882-4f88-8d0b-76cd2cf24056","ios":"levelo://app?vid=6b4be18b-d882-4f88-8d0b-76cd2cf24056"},"vehicle_type_id":"4","last_reported":1721682459,"current_range_meters":17600,"station_id":"ce4bgth2rcd13ifvqch0","pricing_plan_id":"cebpf4jnsgd1na2vs0mg"},{"bike_id":"39b3b13d-ec50-47a3-9030-dce3382c0f18","system_id":"levelo_inurba_marseille","lat":43.30905,"lon":5.37812,"is_reserved":false,"is_disabled":false,"rental_uris":{"android":"levelo://app?vid=39b3b13d-ec50-47a3-9030-dce3382c0f18","ios":"levelo://app?vid=39b3b13d-ec50-47a3-9030-dce3382c0f18"},"vehicle_type_id":"4","last_reported":1721682459,"current_range_meters":6800,"station_id":"","pricing_plan_id":"cebpf4jnsgd1na2vs0mg"},{"bike_id":"139f40fd-a336-42c8-b43f-af5d579c8095","system_id":"levelo_inurba_marseille","lat":43.303046,"lon":5.368981,"is_reserved":false,"is_disabled":false,"rental_uris":{"android":"levelo://app?vid=139f40fd-a336-42c8-b43f-af5d579c8095","ios":"levelo://app?vid=139f40fd-a336-42c8-b43f-af5d579c8095"},"vehicle_type_id":"4","last_reported":1721682459,"current_range_meters":5600,"station_id":"ce4bgqh2rcd13ifvqc5g","pricing_plan_id":"cebpf4jnsgd1na2vs0mg"},{"bike_id":"a06d3089-3eeb-4277-8f92-b0ccc65357b8","system_id":"levelo_inurba_marseille","lat":43.315289,"lon":5.380349,"is_reserved":false,"is_disabled":false,"rental_uris":{"android":"levelo://app?vid=a06d3089-3eeb-4277-8f92-b0ccc65357b8","ios":"levelo://app?vid=a06d3089-3eeb-4277-8f92-b0ccc65357b8"},"vehicle_type_id":"4","last_reported":1721682459,"current_range_meters":17600,"station_id":"ce4bhsp2rcd13ifvqi50","pricing_plan_id":"cebpf4jnsgd1na2vs0mg"},{"bike_id":"1c307e4e-a7ce-447e-8f52-14e5174ed29c","system_id":"levelo_inurba_marseille","lat":43.315289,"lon":5.380349,"is_reserved":false,"is_disabled":false,"rental_uris":{"android":"levelo://app?vid=1c307e4e-a7ce-447e-8f52-14e5174ed29c","ios":"levelo://app?vid=1c307e4e-a7ce-447e-8f52-14e5174ed29c"},"vehicle_type_id":"4","last_reported":1721682459,"current_range_meters":28000,"station_id":"ce4bhsp2rcd13ifvqi50","pricing_plan_id":"cebpf4jnsgd1na2vs0mg"},{"bike_id":"23d71d23-04f6-4743-8075-b73ff44f2c67","system_id":"levelo_inurba_marseille","lat":43.301939,"lon":5.366286,"is_reserved":false,"is_disabled":false,"rental_uris":{"android":"levelo://app?vid=23d71d23-04f6-4743-8075-b73ff44f2c67","ios":"levelo://app?vid=23d71d23-04f6-4743-8075-b73ff44f2c67"},"vehicle_type_id":"4","last_reported":1721682459,"current_range_meters":27600,"station_id":"ce4bgrh2rcd13ifvqc8g","pricing_plan_id":"cebpf4jnsgd1na2vs0mg"},{"bike_id":"3b8bff50-83d2-470b-8ecf-0e56ee7143f6","system_id":"levelo_inurba_marseille","lat":43.301939,"lon":5.366286,"is_reserved":false,"is_disabled":false,"rental_uris":{"android":"levelo://app?vid=3b8bff50-83d2-470b-8ecf-0e56ee7143f6","ios":"levelo://app?vid=3b8bff50-83d2-470b-8ecf-0e56ee7143f6"},"vehicle_type_id":"4","last_reported":1721682459,"current_range_meters":9600,"station_id":"ce4bgrh2rcd13ifvqc8g","pricing_plan_id":"cebpf4jnsgd1na2vs0mg"},{"bike_id":"093cacbd-535a-41b2-ac38-8cd5bf6f432b","system_id":"levelo_inurba_marseille","lat":43.301939,"lon":5.366286,"is_reserved":false,"is_disabled":false,"rental_uris":{"android":"levelo://app?vid=093cacbd-535a-41b2-ac38-8cd5bf6f432b","ios":"levelo://app?vid=093cacbd-535a-41b2-ac38-8cd5bf6f432b"},"vehicle_type_id":"4","last_reported":1721682459,"current_range_meters":26400,"station_id":"ce4bgrh2rcd13ifvqc8g","pricing_plan_id":"cebpf4jnsgd1na2vs0mg"},{"bike_id":"ec952867-e308-4463-908a-e2abad413e09","system_id":"levelo_inurba_marseille","lat":43.308012,"lon":5.381511,"is_reserved":false,"is_disabled":false,"rental_uris":{"android":"levelo://app?vid=ec952867-e308-4463-908a-e2abad413e09","ios":"levelo://app?vid=ec952867-e308-4463-908a-e2abad413e09"},"vehicle_type_id":"4","last_reported":1721682459,"current_range_meters":8400,"station_id":"ce4bgt12rcd13ifvqce0","pricing_plan_id":"cebpf4jnsgd1na2vs0mg"},{"bike_id":"2a31c468-6d32-47f1-be73-14dd8584fbb2","system_id":"levelo_inurba_marseille","lat":43.308012,"lon":5.381511,"is_reserved":false,"is_disabled":false,"rental_uris":{"android":"levelo://app?vid=2a31c468-6d32-47f1-be73-14dd8584fbb2","ios":"levelo://app?vid=2a31c468-6d32-47f1-be73-14dd8584fbb2"},"vehicle_type_id":"4","last_reported":1721682459,"current_range_meters":13200,"station_id":"ce4bgt12rcd13ifvqce0","pricing_plan_id":"cebpf4jnsgd1na2vs0mg"},{"bike_id":"f9b8e4cf-f0f4-437d-9763-a2a43414ca10","system_id":"levelo_inurba_marseille","lat":43.308012,"lon":5.381511,"is_reserved":false,"is_disabled":false,"rental_uris":{"android":"levelo://app?vid=f9b8e4cf-f0f4-437d-9763-a2a43414ca10","ios":"levelo://app?vid=f9b8e4cf-f0f4-437d-9763-a2a43414ca10"},"vehicle_type_id":"4","last_reported":1721682459,"current_range_meters":4000,"station_id":"ce4bgt12rcd13ifvqce0","pricing_plan_id":"cebpf4jnsgd1na2vs0mg"},{"bike_id":"9eb0d75c-9926-417b-8b81-4389562f3907","system_id":"levelo_inurba_marseille","lat":43.308012,"lon":5.381511,"is_reserved":false,"is_disabled":false,"rental_uris":{"android":"levelo://app?vid=9eb0d75c-9926-417b-8b81-4389562f3907","ios":"levelo://app?vid=9eb0d75c-9926-417b-8b81-4389562f3907"},"vehicle_type_id":"4","last_reported":1721682459,"current_range_meters":23600,"station_id":"ce4bgt12rcd13ifvqce0","pricing_plan_id":"cebpf4jnsgd1na2vs0mg"},{"bike_id":"2d5c7ce7-2145-400f-a8b7-6e3b45dd71f6","system_id":"levelo_inurba_marseille","lat":43.308012,"lon":5.381511,"is_reserved":false,"is_disabled":false,"rental_uris":{"android":"levelo://app?vid=2d5c7ce7-2145-400f-a8b7-6e3b45dd71f6","ios":"levelo://app?vid=2d5c7ce7-2145-400f-a8b7-6e3b45dd71f6"},"vehicle_type_id":"4","last_reported":1721682459,"current_range_meters":7600,"station_id":"ce4bgt12rcd13ifvqce0","pricing_plan_id":"cebpf4jnsgd1na2vs0mg"},{"bike_id":"f9dc2a0c-9897-4db6-9fbe-4060f9ea71c9","system_id":"levelo_inurba_marseille","lat":43.308012,"lon":5.381511,"is_reserved":false,"is_disabled":false,"rental_uris":{"android":"levelo://app?vid=f9dc2a0c-9897-4db6-9fbe-4060f9ea71c9","ios":"levelo://app?vid=f9dc2a0c-9897-4db6-9fbe-4060f9ea71c9"},"vehicle_type_id":"4","last_reported":1721682459,"current_range_meters":0,"station_id":"ce4bgt12rcd13ifvqce0","pricing_plan_id":"cebpf4jnsgd1na2vs0mg"},{"bike_id":"a32c866e-1794-4e20-8668-32ae9b09f150","system_id":"levelo_inurba_marseille","lat":43.308012,"lon":5.381511,"is_reserved":false,"is_disabled":false,"rental_uris":{"android":"levelo://app?vid=a32c866e-1794-4e20-8668-32ae9b09f150","ios":"levelo://app?vid=a32c866e-1794-4e20-8668-32ae9b09f150"},"vehicle_type_id":"4","last_reported":1721682459,"current_range_meters":11200,"station_id":"ce4bgt12rcd13ifvqce0","pricing_plan_id":"cebpf4jnsgd1na2vs0mg"},{"bike_id":"538b371d-2d9f-453b-a2dc-2efc38d5e742","system_id":"levelo_inurba_marseille","lat":43.308012,"lon":5.381511,"is_reserved":false,"is_disabled":false,"rental_uris":{"android":"levelo://app?vid=538b371d-2d9f-453b-a2dc-2efc38d5e742","ios":"levelo://app?vid=538b371d-2d9f-453b-a2dc-2efc38d5e742"},"vehicle_type_id":"4","last_reported":1721682459,"current_range_meters":6000,"station_id":"ce4bgt12rcd13ifvqce0","pricing_plan_id":"cebpf4jnsgd1na2vs0mg"},{"bike_id":"f3414755-3e20-428c-9f42-fab22baf55fe","system_id":"levelo_inurba_marseille","lat":43.304606,"lon":5.379026,"is_reserved":false,"is_disabled":false,"rental_uris":{"android":"levelo://app?vid=f3414755-3e20-428c-9f42-fab22baf55fe","ios":"levelo://app?vid=f3414755-3e20-428c-9f42-fab22baf55fe"},"vehicle_type_id":"4","last_reported":1721682459,"current_range_meters":17200,"station_id":"ce4bgup2rcd13ifvqcn0","pricing_plan_id":"cebpf4jnsgd1na2vs0mg"},{"bike_id":"565f349e-f7c5-4fa2-81fb-575424fcae29","system_id":"levelo_inurba_marseille","lat":43.304606,"lon":5.379026,"is_reserved":false,"is_disabled":false,"rental_uris":{"android":"levelo://app?vid=565f349e-f7c5-4fa2-81fb-575424fcae29","ios":"levelo://app?vid=565f349e-f7c5-4fa2-81fb-575424fcae29"},"vehicle_type_id":"4","last_reported":1721682459,"current_range_meters":17200,"station_id":"ce4bgup2rcd13ifvqcn0","pricing_plan_id":"cebpf4jnsgd1na2vs0mg"},{"bike_id":"5f0cbb72-eaa7-48de-8021-3f0418272a44","system_id":"levelo_inurba_marseille","lat":43.30462,"lon":5.37905,"is_reserved":false,"is_disabled":false,"rental_uris":{"android":"levelo://app?vid=5f0cbb72-eaa7-48de-8021-3f0418272a44","ios":"levelo://app?vid=5f0cbb72-eaa7-48de-8021-3f0418272a44"},"vehicle_type_id":"4","last_reported":1721682459,"current_range_meters":1200,"station_id":"ce4bgup2rcd13ifvqcn0","pricing_plan_id":"cebpf4jnsgd1na2vs0mg"},{"bike_id":"599fed2d-9ae1-4036-a4fc-2403cc747415","system_id":"levelo_inurba_marseille","lat":43.304606,"lon":5.379026,"is_reserved":false,"is_disabled":false,"rental_uris":{"android":"levelo://app?vid=599fed2d-9ae1-4036-a4fc-2403cc747415","ios":"levelo://app?vid=599fed2d-9ae1-4036-a4fc-2403cc747415"},"vehicle_type_id":"4","last_reported":1721682459,"current_range_meters":0,"station_id":"ce4bgup2rcd13ifvqcn0","pricing_plan_id":"cebpf4jnsgd1na2vs0mg"},{"bike_id":"44913d76-97e3-4739-a515-512cb5aa0693","system_id":"levelo_inurba_marseille","lat":43.304606,"lon":5.379026,"is_reserved":false,"is_disabled":false,"rental_uris":{"android":"levelo://app?vid=44913d76-97e3-4739-a515-512cb5aa0693","ios":"levelo://app?vid=44913d76-97e3-4739-a515-512cb5aa0693"},"vehicle_type_id":"4","last_reported":1721682459,"current_range_meters":20000,"station_id":"ce4bgup2rcd13ifvqcn0","pricing_plan_id":"cebpf4jnsgd1na2vs0mg"},{"bike_id":"406e19ce-d415-4015-8b2c-9bfa349dce9b","system_id":"levelo_inurba_marseille","lat":43.324771,"lon":5.36557,"is_reserved":false,"is_disabled":false,"rental_uris":{"android":"levelo://app?vid=406e19ce-d415-4015-8b2c-9bfa349dce9b","ios":"levelo://app?vid=406e19ce-d415-4015-8b2c-9bfa349dce9b"},"vehicle_type_id":"4","last_reported":1721682459,"current_range_meters":13600,"station_id":"ce4bhs12rcd13ifvqhvg","pricing_plan_id":"cebpf4jnsgd1na2vs0mg"},{"bike_id":"6c1b6eb3-ac95-4287-a0b0-843f80fb365f","system_id":"levelo_inurba_marseille","lat":43.324771,"lon":5.36557,"is_reserved":false,"is_disabled":false,"rental_uris":{"android":"levelo://app?vid=6c1b6eb3-ac95-4287-a0b0-843f80fb365f","ios":"levelo://app?vid=6c1b6eb3-ac95-4287-a0b0-843f80fb365f"},"vehicle_type_id":"4","last_reported":1721682459,"current_range_meters":2400,"station_id":"ce4bhs12rcd13ifvqhvg","pricing_plan_id":"cebpf4jnsgd1na2vs0mg"},{"bike_id":"53f80b66-2305-4245-a742-62fd010e6d98","system_id":"levelo_inurba_marseille","lat":43.324771,"lon":5.36557,"is_reserved":false,"is_disabled":false,"rental_uris":{"android":"levelo://app?vid=53f80b66-2305-4245-a742-62fd010e6d98","ios":"levelo://app?vid=53f80b66-2305-4245-a742-62fd010e6d98"},"vehicle_type_id":"4","last_reported":1721682459,"current_range_meters":17200,"station_id":"ce4bhs12rcd13ifvqhvg","pricing_plan_id":"cebpf4jnsgd1na2vs0mg"},{"bike_id":"4b08878e-0a22-4e3b-91b5-c21dafba9ec1","system_id":"levelo_inurba_marseille","lat":43.324771,"lon":5.36557,"is_reserved":false,"is_disabled":false,"rental_uris":{"android":"levelo://app?vid=4b08878e-0a22-4e3b-91b5-c21dafba9ec1","ios":"levelo://app?vid=4b08878e-0a22-4e3b-91b5-c21dafba9ec1"},"vehicle_type_id":"4","last_reported":1721682459,"current_range_meters":30000,"station_id":"ce4bhs12rcd13ifvqhvg","pricing_plan_id":"cebpf4jnsgd1na2vs0mg"},{"bike_id":"43fee61a-32b3-472d-bd2b-86688fb17fa1","system_id":"levelo_inurba_marseille","lat":43.324771,"lon":5.36557,"is_reserved":false,"is_disabled":false,"rental_uris":{"android":"levelo://app?vid=43fee61a-32b3-472d-bd2b-86688fb17fa1","ios":"levelo://app?vid=43fee61a-32b3-472d-bd2b-86688fb17fa1"},"vehicle_type_id":"4","last_reported":1721682459,"current_range_meters":2400,"station_id":"ce4bhs12rcd13ifvqhvg","pricing_plan_id":"cebpf4jnsgd1na2vs0mg"},{"bike_id":"84f48462-5c75-4a89-900e-95cec4c004d0","system_id":"levelo_inurba_marseille","lat":43.324771,"lon":5.36557,"is_reserved":false,"is_disabled":false,"rental_uris":{"android":"levelo://app?vid=84f48462-5c75-4a89-900e-95cec4c004d0","ios":"levelo://app?vid=84f48462-5c75-4a89-900e-95cec4c004d0"},"vehicle_type_id":"4","last_reported":1721682459,"current_range_meters":3200,"station_id":"ce4bhs12rcd13ifvqhvg","pricing_plan_id":"cebpf4jnsgd1na2vs0mg"},{"bike_id":"f4b502e9-8375-40b1-8395-a4d2deabe39c","system_id":"levelo_inurba_marseille","lat":43.31072,"lon":5.383553,"is_reserved":false,"is_disabled":false,"rental_uris":{"android":"levelo://app?vid=f4b502e9-8375-40b1-8395-a4d2deabe39c","ios":"levelo://app?vid=f4b502e9-8375-40b1-8395-a4d2deabe39c"},"vehicle_type_id":"4","last_reported":1721682459,"current_range_meters":5600,"station_id":"ce4bgv92rcd13ifvqcr0","pricing_plan_id":"cebpf4jnsgd1na2vs0mg"},{"bike_id":"891ed4df-4f37-4087-8d2f-7eeb2a112323","system_id":"levelo_inurba_marseille","lat":43.31078,"lon":5.38358,"is_reserved":false,"is_disabled":false,"rental_uris":{"android":"levelo://app?vid=891ed4df-4f37-4087-8d2f-7eeb2a112323","ios":"levelo://app?vid=891ed4df-4f37-4087-8d2f-7eeb2a112323"},"vehicle_type_id":"4","last_reported":1721682459,"current_range_meters":31200,"station_id":"ce4bgv92rcd13ifvqcr0","pricing_plan_id":"cebpf4jnsgd1na2vs0mg"},{"bike_id":"63276bfe-4df9-4d7c-9e07-797d511c12b4","system_id":"levelo_inurba_marseille","lat":43.302784,"lon":5.377158,"is_reserved":false,"is_disabled":false,"rental_uris":{"android":"levelo://app?vid=63276bfe-4df9-4d7c-9e07-797d511c12b4","ios":"levelo://app?vid=63276bfe-4df9-4d7c-9e07-797d511c12b4"},"vehicle_type_id":"4","last_reported":1721682459,"current_range_meters":27600,"station_id":"ce4bguh2rcd13ifvqcj0","pricing_plan_id":"cebpf4jnsgd1na2vs0mg"},{"bike_id":"e34c0af4-67c1-4bfd-88ae-5ed1f8d72356","system_id":"levelo_inurba_marseille","lat":43.301429,"lon":5.37413,"is_reserved":false,"is_disabled":false,"rental_uris":{"android":"levelo://app?vid=e34c0af4-67c1-4bfd-88ae-5ed1f8d72356","ios":"levelo://app?vid=e34c0af4-67c1-4bfd-88ae-5ed1f8d72356"},"vehicle_type_id":"4","last_reported":1721682459,"current_range_meters":14000,"station_id":"ce4bgs92rcd13ifvqcc0","pricing_plan_id":"cebpf4jnsgd1na2vs0mg"},{"bike_id":"1c037cfb-5af1-454d-9f2a-745c405c1b40","system_id":"levelo_inurba_marseille","lat":43.31994,"lon":5.38152,"is_reserved":false,"is_disabled":false,"rental_uris":{"android":"levelo://app?vid=1c037cfb-5af1-454d-9f2a-745c405c1b40","ios":"levelo://app?vid=1c037cfb-5af1-454d-9f2a-745c405c1b40"},"vehicle_type_id":"4","last_reported":1721682459,"current_range_meters":16400,"station_id":"ce4bhr12rcd13ifvqhpg","pricing_plan_id":"cebpf4jnsgd1na2vs0mg"},{"bike_id":"a91df9b3-5855-45a2-8b1a-dc7251a401d9","system_id":"levelo_inurba_marseille","lat":43.319935,"lon":5.381699,"is_reserved":false,"is_disabled":false,"rental_uris":{"android":"levelo://app?vid=a91df9b3-5855-45a2-8b1a-dc7251a401d9","ios":"levelo://app?vid=a91df9b3-5855-45a2-8b1a-dc7251a401d9"},"vehicle_type_id":"4","last_reported":1721682459,"current_range_meters":31200,"station_id":"ce4bhr12rcd13ifvqhpg","pricing_plan_id":"cebpf4jnsgd1na2vs0mg"},{"bike_id":"3e167656-7efd-46f2-a45c-a535194e1f80","system_id":"levelo_inurba_marseille","lat":43.31989,"lon":5.38164,"is_reserved":false,"is_disabled":false,"rental_uris":{"android":"levelo://app?vid=3e167656-7efd-46f2-a45c-a535194e1f80","ios":"levelo://app?vid=3e167656-7efd-46f2-a45c-a535194e1f80"},"vehicle_type_id":"4","last_reported":1721682459,"current_range_meters":24800,"station_id":"ce4bhr12rcd13ifvqhpg","pricing_plan_id":"cebpf4jnsgd1na2vs0mg"},{"bike_id":"4c16d1d4-af07-4224-8df7-75a54ddd04c8","system_id":"levelo_inurba_marseille","lat":43.319935,"lon":5.381699,"is_reserved":false,"is_disabled":false,"rental_uris":{"android":"levelo://app?vid=4c16d1d4-af07-4224-8df7-75a54ddd04c8","ios":"levelo://app?vid=4c16d1d4-af07-4224-8df7-75a54ddd04c8"},"vehicle_type_id":"4","last_reported":1721682459,"current_range_meters":14000,"station_id":"ce4bhr12rcd13ifvqhpg","pricing_plan_id":"cebpf4jnsgd1na2vs0mg"},{"bike_id":"b22c3d17-4d38-4800-bf69-927bb72ae759","system_id":"levelo_inurba_marseille","lat":43.30606,"lon":5.38209,"is_reserved":false,"is_disabled":false,"rental_uris":{"android":"levelo://app?vid=b22c3d17-4d38-4800-bf69-927bb72ae759","ios":"levelo://app?vid=b22c3d17-4d38-4800-bf69-927bb72ae759"},"vehicle_type_id":"4","last_reported":1721682459,"current_range_meters":12400,"station_id":"","pricing_plan_id":"cebpf4jnsgd1na2vs0mg"},{"bike_id":"f6eabe92-34fe-48c1-8856-b76dd390bc0b","system_id":"levelo_inurba_marseille","lat":43.32,"lon":5.38166,"is_reserved":false,"is_disabled":false,"rental_uris":{"android":"levelo://app?vid=f6eabe92-34fe-48c1-8856-b76dd390bc0b","ios":"levelo://app?vid=f6eabe92-34fe-48c1-8856-b76dd390bc0b"},"vehicle_type_id":"4","last_reported":1721682459,"current_range_meters":13200,"station_id":"ce4bhr12rcd13ifvqhpg","pricing_plan_id":"cebpf4jnsgd1na2vs0mg"},{"bike_id":"c4af553c-8f83-4e61-9062-6b7ff77572d4","system_id":"levelo_inurba_marseille","lat":43.31357,"lon":5.38492,"is_reserved":false,"is_disabled":false,"rental_uris":{"android":"levelo://app?vid=c4af553c-8f83-4e61-9062-6b7ff77572d4","ios":"levelo://app?vid=c4af553c-8f83-4e61-9062-6b7ff77572d4"},"vehicle_type_id":"4","last_reported":1721682459,"current_range_meters":27200,"station_id":"ce4bgt92rcd13ifvqcf0","pricing_plan_id":"cebpf4jnsgd1na2vs0mg"},{"bike_id":"c1792c81-412f-4fce-8679-b26c468607d8","system_id":"levelo_inurba_marseille","lat":43.313571,"lon":5.384829,"is_reserved":false,"is_disabled":false,"rental_uris":{"android":"levelo://app?vid=c1792c81-412f-4fce-8679-b26c468607d8","ios":"levelo://app?vid=c1792c81-412f-4fce-8679-b26c468607d8"},"vehicle_type_id":"4","last_reported":1721682459,"current_range_meters":16400,"station_id":"ce4bgt92rcd13ifvqcf0","pricing_plan_id":"cebpf4jnsgd1na2vs0mg"},{"bike_id":"8fd8d026-e704-47c3-8999-c8492db6d35a","system_id":"levelo_inurba_marseille","lat":43.299724,"lon":5.371829,"is_reserved":false,"is_disabled":false,"rental_uris":{"android":"levelo://app?vid=8fd8d026-e704-47c3-8999-c8492db6d35a","ios":"levelo://app?vid=8fd8d026-e704-47c3-8999-c8492db6d35a"},"vehicle_type_id":"4","last_reported":1721682459,"current_range_meters":30400,"station_id":"ce4bgr92rcd13ifvqc7g","pricing_plan_id":"cebpf4jnsgd1na2vs0mg"},{"bike_id":"3600a95a-f085-48e2-966c-897fccd68eda","system_id":"levelo_inurba_marseille","lat":43.301127,"lon":5.377853,"is_reserved":false,"is_disabled":false,"rental_uris":{"android":"levelo://app?vid=3600a95a-f085-48e2-966c-897fccd68eda","ios":"levelo://app?vid=3600a95a-f085-48e2-966c-897fccd68eda"},"vehicle_type_id":"4","last_reported":1721682459,"current_range_meters":15200,"station_id":"","pricing_plan_id":"cebpf4jnsgd1na2vs0mg"},{"bike_id":"3f8126b1-3300-47fa-81cf-789f14e4a35a","system_id":"levelo_inurba_marseille","lat":43.311722,"lon":5.387247,"is_reserved":false,"is_disabled":false,"rental_uris":{"android":"levelo://app?vid=3f8126b1-3300-47fa-81cf-789f14e4a35a","ios":"levelo://app?vid=3f8126b1-3300-47fa-81cf-789f14e4a35a"},"vehicle_type_id":"4","last_reported":1721682459,"current_range_meters":26800,"station_id":"ce4bgv12rcd13ifvqcp0","pricing_plan_id":"cebpf4jnsgd1na2vs0mg"},{"bike_id":"93ba1932-79d8-465c-967c-44295b61102a","system_id":"levelo_inurba_marseille","lat":43.298477,"lon":5.362813,"is_reserved":false,"is_disabled":false,"rental_uris":{"android":"levelo://app?vid=93ba1932-79d8-465c-967c-44295b61102a","ios":"levelo://app?vid=93ba1932-79d8-465c-967c-44295b61102a"},"vehicle_type_id":"4","last_reported":1721682459,"current_range_meters":14800,"station_id":"ce4bgpp2rcd13ifvqc3g","pricing_plan_id":"cebpf4jnsgd1na2vs0mg"},{"bike_id":"096afef3-c345-4398-84f5-167af6e1b717","system_id":"levelo_inurba_marseille","lat":43.29845,"lon":5.362823,"is_reserved":false,"is_disabled":false,"rental_uris":{"android":"levelo://app?vid=096afef3-c345-4398-84f5-167af6e1b717","ios":"levelo://app?vid=096afef3-c345-4398-84f5-167af6e1b717"},"vehicle_type_id":"4","last_reported":1721682459,"current_range_meters":31200,"station_id":"ce4bgpp2rcd13ifvqc3g","pricing_plan_id":"cebpf4jnsgd1na2vs0mg"},{"bike_id":"7d2e9f98-11d3-4001-bf5c-8d37c7984650","system_id":"levelo_inurba_marseille","lat":43.29842,"lon":5.36275,"is_reserved":false,"is_disabled":false,"rental_uris":{"android":"levelo://app?vid=7d2e9f98-11d3-4001-bf5c-8d37c7984650","ios":"levelo://app?vid=7d2e9f98-11d3-4001-bf5c-8d37c7984650"},"vehicle_type_id":"4","last_reported":1721682459,"current_range_meters":11200,"station_id":"ce4bgpp2rcd13ifvqc3g","pricing_plan_id":"cebpf4jnsgd1na2vs0mg"},{"bike_id":"579ebf85-51b5-48a0-b402-c6a65c958c70","system_id":"levelo_inurba_marseille","lat":43.298433,"lon":5.362774,"is_reserved":false,"is_disabled":false,"rental_uris":{"android":"levelo://app?vid=579ebf85-51b5-48a0-b402-c6a65c958c70","ios":"levelo://app?vid=579ebf85-51b5-48a0-b402-c6a65c958c70"},"vehicle_type_id":"4","last_reported":1721682459,"current_range_meters":30000,"station_id":"ce4bgpp2rcd13ifvqc3g","pricing_plan_id":"cebpf4jnsgd1na2vs0mg"},{"bike_id":"07438787-5b69-442d-963c-cd4e8a1fd176","system_id":"levelo_inurba_marseille","lat":43.311722,"lon":5.387247,"is_reserved":false,"is_disabled":false,"rental_uris":{"android":"levelo://app?vid=07438787-5b69-442d-963c-cd4e8a1fd176","ios":"levelo://app?vid=07438787-5b69-442d-963c-cd4e8a1fd176"},"vehicle_type_id":"4","last_reported":1721682459,"current_range_meters":3200,"station_id":"ce4bgv12rcd13ifvqcp0","pricing_plan_id":"cebpf4jnsgd1na2vs0mg"},{"bike_id":"d92d1795-eb62-4720-9e4f-f40307f01b4d","system_id":"levelo_inurba_marseille","lat":43.311722,"lon":5.387247,"is_reserved":false,"is_disabled":false,"rental_uris":{"android":"levelo://app?vid=d92d1795-eb62-4720-9e4f-f40307f01b4d","ios":"levelo://app?vid=d92d1795-eb62-4720-9e4f-f40307f01b4d"},"vehicle_type_id":"4","last_reported":1721682459,"current_range_meters":3600,"station_id":"ce4bgv12rcd13ifvqcp0","pricing_plan_id":"cebpf4jnsgd1na2vs0mg"},{"bike_id":"f322ec4b-984f-4145-b562-294f35ce3bb0","system_id":"levelo_inurba_marseille","lat":43.311722,"lon":5.387247,"is_reserved":false,"is_disabled":false,"rental_uris":{"android":"levelo://app?vid=f322ec4b-984f-4145-b562-294f35ce3bb0","ios":"levelo://app?vid=f322ec4b-984f-4145-b562-294f35ce3bb0"},"vehicle_type_id":"4","last_reported":1721682459,"current_range_meters":0,"station_id":"ce4bgv12rcd13ifvqcp0","pricing_plan_id":"cebpf4jnsgd1na2vs0mg"},{"bike_id":"98130cc7-b273-4dee-89a1-15b990d570f8","system_id":"levelo_inurba_marseille","lat":43.32292,"lon":5.38261,"is_reserved":false,"is_disabled":false,"rental_uris":{"android":"levelo://app?vid=98130cc7-b273-4dee-89a1-15b990d570f8","ios":"levelo://app?vid=98130cc7-b273-4dee-89a1-15b990d570f8"},"vehicle_type_id":"4","last_reported":1721682459,"current_range_meters":10800,"station_id":"ce4bhr12rcd13ifvqhqg","pricing_plan_id":"cebpf4jnsgd1na2vs0mg"},{"bike_id":"3d0a25f2-54fd-474d-89eb-c5f7d4c81d64","system_id":"levelo_inurba_marseille","lat":43.322872,"lon":5.382756,"is_reserved":false,"is_disabled":false,"rental_uris":{"android":"levelo://app?vid=3d0a25f2-54fd-474d-89eb-c5f7d4c81d64","ios":"levelo://app?vid=3d0a25f2-54fd-474d-89eb-c5f7d4c81d64"},"vehicle_type_id":"4","last_reported":1721682459,"current_range_meters":21600,"station_id":"ce4bhr12rcd13ifvqhqg","pricing_plan_id":"cebpf4jnsgd1na2vs0mg"},{"bike_id":"541eecc3-d095-4909-8f91-c231c259e250","system_id":"levelo_inurba_marseille","lat":43.322872,"lon":5.382756,"is_reserved":false,"is_disabled":false,"rental_uris":{"android":"levelo://app?vid=541eecc3-d095-4909-8f91-c231c259e250","ios":"levelo://app?vid=541eecc3-d095-4909-8f91-c231c259e250"},"vehicle_type_id":"4","last_reported":1721682459,"current_range_meters":17200,"station_id":"ce4bhr12rcd13ifvqhqg","pricing_plan_id":"cebpf4jnsgd1na2vs0mg"},{"bike_id":"7496d8ef-04f2-4b8b-9516-2adb997806b1","system_id":"levelo_inurba_marseille","lat":43.322872,"lon":5.382756,"is_reserved":false,"is_disabled":false,"rental_uris":{"android":"levelo://app?vid=7496d8ef-04f2-4b8b-9516-2adb997806b1","ios":"levelo://app?vid=7496d8ef-04f2-4b8b-9516-2adb997806b1"},"vehicle_type_id":"4","last_reported":1721682459,"current_range_meters":5600,"station_id":"ce4bhr12rcd13ifvqhqg","pricing_plan_id":"cebpf4jnsgd1na2vs0mg"},{"bike_id":"3198afba-1e22-4226-bfdf-ce414f4d5e7e","system_id":"levelo_inurba_marseille","lat":43.32288,"lon":5.38279,"is_reserved":false,"is_disabled":false,"rental_uris":{"android":"levelo://app?vid=3198afba-1e22-4226-bfdf-ce414f4d5e7e","ios":"levelo://app?vid=3198afba-1e22-4226-bfdf-ce414f4d5e7e"},"vehicle_type_id":"4","last_reported":1721682459,"current_range_meters":26400,"station_id":"ce4bhr12rcd13ifvqhqg","pricing_plan_id":"cebpf4jnsgd1na2vs0mg"},{"bike_id":"7404f027-cf0f-48a6-8f49-b81f98d451eb","system_id":"levelo_inurba_marseille","lat":43.311722,"lon":5.387247,"is_reserved":false,"is_disabled":false,"rental_uris":{"android":"levelo://app?vid=7404f027-cf0f-48a6-8f49-b81f98d451eb","ios":"levelo://app?vid=7404f027-cf0f-48a6-8f49-b81f98d451eb"},"vehicle_type_id":"4","last_reported":1721682459,"current_range_meters":5600,"station_id":"ce4bgv12rcd13ifvqcp0","pricing_plan_id":"cebpf4jnsgd1na2vs0mg"},{"bike_id":"40d55cc2-4b96-4e38-8436-a11d77e9f3c8","system_id":"levelo_inurba_marseille","lat":43.296504,"lon":5.369329,"is_reserved":false,"is_disabled":false,"rental_uris":{"android":"levelo://app?vid=40d55cc2-4b96-4e38-8436-a11d77e9f3c8","ios":"levelo://app?vid=40d55cc2-4b96-4e38-8436-a11d77e9f3c8"},"vehicle_type_id":"4","last_reported":1721682459,"current_range_meters":31200,"station_id":"","pricing_plan_id":"cebpf4jnsgd1na2vs0mg"},{"bike_id":"06bc1e5b-b584-4167-a166-da1a83f7a714","system_id":"levelo_inurba_marseille","lat":43.29624,"lon":5.37152,"is_reserved":false,"is_disabled":false,"rental_uris":{"android":"levelo://app?vid=06bc1e5b-b584-4167-a166-da1a83f7a714","ios":"levelo://app?vid=06bc1e5b-b584-4167-a166-da1a83f7a714"},"vehicle_type_id":"4","last_reported":1721682459,"current_range_meters":17200,"station_id":"","pricing_plan_id":"cebpf4jnsgd1na2vs0mg"},{"bike_id":"aafbef88-ab1a-4f9d-a6ed-b1273af4dcaa","system_id":"levelo_inurba_marseille","lat":43.29573,"lon":5.367355,"is_reserved":false,"is_disabled":false,"rental_uris":{"android":"levelo://app?vid=aafbef88-ab1a-4f9d-a6ed-b1273af4dcaa","ios":"levelo://app?vid=aafbef88-ab1a-4f9d-a6ed-b1273af4dcaa"},"vehicle_type_id":"4","last_reported":1721682459,"current_range_meters":29600,"station_id":"ce4bgph2rcd13ifvqc2g","pricing_plan_id":"cebpf4jnsgd1na2vs0mg"},{"bike_id":"7c1a21a0-3e89-4e8d-aae8-e95eb6bb0b96","system_id":"levelo_inurba_marseille","lat":43.299028,"lon":5.381509,"is_reserved":false,"is_disabled":false,"rental_uris":{"android":"levelo://app?vid=7c1a21a0-3e89-4e8d-aae8-e95eb6bb0b96","ios":"levelo://app?vid=7c1a21a0-3e89-4e8d-aae8-e95eb6bb0b96"},"vehicle_type_id":"4","last_reported":1721682459,"current_range_meters":400,"station_id":"ce4bgj12rcd13ifvqbc0","pricing_plan_id":"cebpf4jnsgd1na2vs0mg"},{"bike_id":"4829a0e3-1992-4fb2-84e0-adabd32b3b31","system_id":"levelo_inurba_marseille","lat":43.296935,"lon":5.376544,"is_reserved":false,"is_disabled":false,"rental_uris":{"android":"levelo://app?vid=4829a0e3-1992-4fb2-84e0-adabd32b3b31","ios":"levelo://app?vid=4829a0e3-1992-4fb2-84e0-adabd32b3b31"},"vehicle_type_id":"4","last_reported":1721682459,"current_range_meters":15200,"station_id":"ce4bgkh2rcd13ifvqbl0","pricing_plan_id":"cebpf4jnsgd1na2vs0mg"},{"bike_id":"2a686da5-6ca7-4a82-9785-0bf35d09ad56","system_id":"levelo_inurba_marseille","lat":43.296935,"lon":5.376544,"is_reserved":false,"is_disabled":false,"rental_uris":{"android":"levelo://app?vid=2a686da5-6ca7-4a82-9785-0bf35d09ad56","ios":"levelo://app?vid=2a686da5-6ca7-4a82-9785-0bf35d09ad56"},"vehicle_type_id":"4","last_reported":1721682459,"current_range_meters":26000,"station_id":"ce4bgkh2rcd13ifvqbl0","pricing_plan_id":"cebpf4jnsgd1na2vs0mg"},{"bike_id":"ab22cb64-7af5-4b77-a1d3-69266b871611","system_id":"levelo_inurba_marseille","lat":43.317661,"lon":5.390069,"is_reserved":false,"is_disabled":false,"rental_uris":{"android":"levelo://app?vid=ab22cb64-7af5-4b77-a1d3-69266b871611","ios":"levelo://app?vid=ab22cb64-7af5-4b77-a1d3-69266b871611"},"vehicle_type_id":"4","last_reported":1721682459,"current_range_meters":22400,"station_id":"ce4bhqp2rcd13ifvqhng","pricing_plan_id":"cebpf4jnsgd1na2vs0mg"},{"bike_id":"bb742a81-5628-4bb0-bb29-f41b4fd9bc64","system_id":"levelo_inurba_marseille","lat":43.31759,"lon":5.3901,"is_reserved":false,"is_disabled":false,"rental_uris":{"android":"levelo://app?vid=bb742a81-5628-4bb0-bb29-f41b4fd9bc64","ios":"levelo://app?vid=bb742a81-5628-4bb0-bb29-f41b4fd9bc64"},"vehicle_type_id":"4","last_reported":1721682459,"current_range_meters":29600,"station_id":"ce4bhqp2rcd13ifvqhng","pricing_plan_id":"cebpf4jnsgd1na2vs0mg"},{"bike_id":"5cbabb2c-3d39-4784-8f2d-8b0ed837f225","system_id":"levelo_inurba_marseille","lat":43.31756,"lon":5.390203,"is_reserved":false,"is_disabled":false,"rental_uris":{"android":"levelo://app?vid=5cbabb2c-3d39-4784-8f2d-8b0ed837f225","ios":"levelo://app?vid=5cbabb2c-3d39-4784-8f2d-8b0ed837f225"},"vehicle_type_id":"4","last_reported":1721682459,"current_range_meters":26400,"station_id":"ce4bhqp2rcd13ifvqhng","pricing_plan_id":"cebpf4jnsgd1na2vs0mg"},{"bike_id":"78ff83b6-fa0e-4e5d-804d-3819129fdb28","system_id":"levelo_inurba_marseille","lat":43.31742,"lon":5.39032,"is_reserved":false,"is_disabled":false,"rental_uris":{"android":"levelo://app?vid=78ff83b6-fa0e-4e5d-804d-3819129fdb28","ios":"levelo://app?vid=78ff83b6-fa0e-4e5d-804d-3819129fdb28"},"vehicle_type_id":"4","last_reported":1721682459,"current_range_meters":18000,"station_id":"ce4bhqp2rcd13ifvqhng","pricing_plan_id":"cebpf4jnsgd1na2vs0mg"},{"bike_id":"a6cf22ed-eb31-4753-bce6-77931eaa64fd","system_id":"levelo_inurba_marseille","lat":43.31761,"lon":5.39025,"is_reserved":false,"is_disabled":false,"rental_uris":{"android":"levelo://app?vid=a6cf22ed-eb31-4753-bce6-77931eaa64fd","ios":"levelo://app?vid=a6cf22ed-eb31-4753-bce6-77931eaa64fd"},"vehicle_type_id":"4","last_reported":1721682459,"current_range_meters":0,"station_id":"ce4bhqp2rcd13ifvqhng","pricing_plan_id":"cebpf4jnsgd1na2vs0mg"},{"bike_id":"61dbb7ec-36fe-42e9-808b-d6e26ee30983","system_id":"levelo_inurba_marseille","lat":43.31746,"lon":5.39038,"is_reserved":false,"is_disabled":false,"rental_uris":{"android":"levelo://app?vid=61dbb7ec-36fe-42e9-808b-d6e26ee30983","ios":"levelo://app?vid=61dbb7ec-36fe-42e9-808b-d6e26ee30983"},"vehicle_type_id":"4","last_reported":1721682459,"current_range_meters":31200,"station_id":"ce4bhqp2rcd13ifvqhng","pricing_plan_id":"cebpf4jnsgd1na2vs0mg"},{"bike_id":"3340af49-f1b0-4eb8-b178-fc2c01616adf","system_id":"levelo_inurba_marseille","lat":43.254945,"lon":5.376454,"is_reserved":false,"is_disabled":false,"rental_uris":{"android":"levelo://app?vid=3340af49-f1b0-4eb8-b178-fc2c01616adf","ios":"levelo://app?vid=3340af49-f1b0-4eb8-b178-fc2c01616adf"},"vehicle_type_id":"4","last_reported":1721682459,"current_range_meters":0,"station_id":"ce4bhh12rcd13ifvqff0","pricing_plan_id":"cebpf4jnsgd1na2vs0mg"},{"bike_id":"9084bc53-45ca-4d65-93ce-022322a09ac2","system_id":"levelo_inurba_marseille","lat":43.298037,"lon":5.381066,"is_reserved":false,"is_disabled":false,"rental_uris":{"android":"levelo://app?vid=9084bc53-45ca-4d65-93ce-022322a09ac2","ios":"levelo://app?vid=9084bc53-45ca-4d65-93ce-022322a09ac2"},"vehicle_type_id":"4","last_reported":1721682459,"current_range_meters":16400,"station_id":"ce4bgip2rcd13ifvqbb0","pricing_plan_id":"cebpf4jnsgd1na2vs0mg"},{"bike_id":"e7d0ad8d-289f-49a9-add2-303d87634cc4","system_id":"levelo_inurba_marseille","lat":43.304274,"lon":5.388873,"is_reserved":false,"is_disabled":false,"rental_uris":{"android":"levelo://app?vid=e7d0ad8d-289f-49a9-add2-303d87634cc4","ios":"levelo://app?vid=e7d0ad8d-289f-49a9-add2-303d87634cc4"},"vehicle_type_id":"4","last_reported":1721682459,"current_range_meters":3600,"station_id":"ce4bgk12rcd13ifvqbi0","pricing_plan_id":"cebpf4jnsgd1na2vs0mg"},{"bike_id":"4f21aff8-dc91-48af-a598-8ff43b89d56a","system_id":"levelo_inurba_marseille","lat":43.297923,"lon":5.381105,"is_reserved":false,"is_disabled":false,"rental_uris":{"android":"levelo://app?vid=4f21aff8-dc91-48af-a598-8ff43b89d56a","ios":"levelo://app?vid=4f21aff8-dc91-48af-a598-8ff43b89d56a"},"vehicle_type_id":"4","last_reported":1721682459,"current_range_meters":0,"station_id":"","pricing_plan_id":"cebpf4jnsgd1na2vs0mg"},{"bike_id":"5b116039-726d-45cc-b681-36ea25c54964","system_id":"levelo_inurba_marseille","lat":43.304274,"lon":5.388873,"is_reserved":false,"is_disabled":false,"rental_uris":{"android":"levelo://app?vid=5b116039-726d-45cc-b681-36ea25c54964","ios":"levelo://app?vid=5b116039-726d-45cc-b681-36ea25c54964"},"vehicle_type_id":"4","last_reported":1721682459,"current_range_meters":12000,"station_id":"ce4bgk12rcd13ifvqbi0","pricing_plan_id":"cebpf4jnsgd1na2vs0mg"},{"bike_id":"e6538368-1419-4eb7-8607-e436a16d5a54","system_id":"levelo_inurba_marseille","lat":43.298037,"lon":5.381066,"is_reserved":false,"is_disabled":false,"rental_uris":{"android":"levelo://app?vid=e6538368-1419-4eb7-8607-e436a16d5a54","ios":"levelo://app?vid=e6538368-1419-4eb7-8607-e436a16d5a54"},"vehicle_type_id":"4","last_reported":1721682459,"current_range_meters":30000,"station_id":"ce4bgip2rcd13ifvqbb0","pricing_plan_id":"cebpf4jnsgd1na2vs0mg"},{"bike_id":"625e1600-d6a7-4020-9866-40536221d96d","system_id":"levelo_inurba_marseille","lat":43.296277,"lon":5.377108,"is_reserved":false,"is_disabled":false,"rental_uris":{"android":"levelo://app?vid=625e1600-d6a7-4020-9866-40536221d96d","ios":"levelo://app?vid=625e1600-d6a7-4020-9866-40536221d96d"},"vehicle_type_id":"4","last_reported":1721682459,"current_range_meters":0,"station_id":"ce4bgi92rcd13ifvqb90","pricing_plan_id":"cebpf4jnsgd1na2vs0mg"},{"bike_id":"f326cee2-3255-4b37-aa8a-908b805d6ac9","system_id":"levelo_inurba_marseille","lat":43.29531,"lon":5.375,"is_reserved":false,"is_disabled":false,"rental_uris":{"android":"levelo://app?vid=f326cee2-3255-4b37-aa8a-908b805d6ac9","ios":"levelo://app?vid=f326cee2-3255-4b37-aa8a-908b805d6ac9"},"vehicle_type_id":"4","last_reported":1721682459,"current_range_meters":4400,"station_id":"ce4bgkp2rcd13ifvqbmg","pricing_plan_id":"cebpf4jnsgd1na2vs0mg"},{"bike_id":"e75d4203-a359-4763-8ba7-ad2c52634b50","system_id":"levelo_inurba_marseille","lat":43.295279,"lon":5.375048,"is_reserved":false,"is_disabled":false,"rental_uris":{"android":"levelo://app?vid=e75d4203-a359-4763-8ba7-ad2c52634b50","ios":"levelo://app?vid=e75d4203-a359-4763-8ba7-ad2c52634b50"},"vehicle_type_id":"4","last_reported":1721682459,"current_range_meters":28800,"station_id":"ce4bgkp2rcd13ifvqbmg","pricing_plan_id":"cebpf4jnsgd1na2vs0mg"},{"bike_id":"fa91a9f9-46a4-4d39-8a91-a86ac6276c27","system_id":"levelo_inurba_marseille","lat":43.29973,"lon":5.38491,"is_reserved":false,"is_disabled":false,"rental_uris":{"android":"levelo://app?vid=fa91a9f9-46a4-4d39-8a91-a86ac6276c27","ios":"levelo://app?vid=fa91a9f9-46a4-4d39-8a91-a86ac6276c27"},"vehicle_type_id":"4","last_reported":1721682459,"current_range_meters":0,"station_id":"ce4bgj92rcd13ifvqbd0","pricing_plan_id":"cebpf4jnsgd1na2vs0mg"},{"bike_id":"bd0c1008-243f-4ef2-b093-9e72fcd968a5","system_id":"levelo_inurba_marseille","lat":43.295279,"lon":5.375048,"is_reserved":false,"is_disabled":false,"rental_uris":{"android":"levelo://app?vid=bd0c1008-243f-4ef2-b093-9e72fcd968a5","ios":"levelo://app?vid=bd0c1008-243f-4ef2-b093-9e72fcd968a5"},"vehicle_type_id":"4","last_reported":1721682459,"current_range_meters":800,"station_id":"ce4bgkp2rcd13ifvqbmg","pricing_plan_id":"cebpf4jnsgd1na2vs0mg"},{"bike_id":"525a1329-91bc-4c82-8744-99d44d8409ee","system_id":"levelo_inurba_marseille","lat":43.29864,"lon":5.38359,"is_reserved":false,"is_disabled":false,"rental_uris":{"android":"levelo://app?vid=525a1329-91bc-4c82-8744-99d44d8409ee","ios":"levelo://app?vid=525a1329-91bc-4c82-8744-99d44d8409ee"},"vehicle_type_id":"4","last_reported":1721682459,"current_range_meters":24800,"station_id":"","pricing_plan_id":"cebpf4jnsgd1na2vs0mg"},{"bike_id":"5701faea-8080-4998-8b7f-aef34b9aab77","system_id":"levelo_inurba_marseille","lat":43.301396,"lon":5.387812,"is_reserved":false,"is_disabled":false,"rental_uris":{"android":"levelo://app?vid=5701faea-8080-4998-8b7f-aef34b9aab77","ios":"levelo://app?vid=5701faea-8080-4998-8b7f-aef34b9aab77"},"vehicle_type_id":"4","last_reported":1721682459,"current_range_meters":0,"station_id":"ce4bghh2rcd13ifvqb60","pricing_plan_id":"cebpf4jnsgd1na2vs0mg"},{"bike_id":"a0e4e4ec-0704-4ffe-9904-44e2c37f4a63","system_id":"levelo_inurba_marseille","lat":43.32367,"lon":5.388836,"is_reserved":false,"is_disabled":false,"rental_uris":{"android":"levelo://app?vid=a0e4e4ec-0704-4ffe-9904-44e2c37f4a63","ios":"levelo://app?vid=a0e4e4ec-0704-4ffe-9904-44e2c37f4a63"},"vehicle_type_id":"4","last_reported":1721682459,"current_range_meters":22000,"station_id":"ce4bhqp2rcd13ifvqhog","pricing_plan_id":"cebpf4jnsgd1na2vs0mg"},{"bike_id":"e4227658-7b30-49aa-9df8-019706bcf34c","system_id":"levelo_inurba_marseille","lat":43.32367,"lon":5.388836,"is_reserved":false,"is_disabled":false,"rental_uris":{"android":"levelo://app?vid=e4227658-7b30-49aa-9df8-019706bcf34c","ios":"levelo://app?vid=e4227658-7b30-49aa-9df8-019706bcf34c"},"vehicle_type_id":"4","last_reported":1721682459,"current_range_meters":25600,"station_id":"ce4bhqp2rcd13ifvqhog","pricing_plan_id":"cebpf4jnsgd1na2vs0mg"},{"bike_id":"2d23e02f-fce8-4673-aae2-b39f9936db19","system_id":"levelo_inurba_marseille","lat":43.32367,"lon":5.388836,"is_reserved":false,"is_disabled":false,"rental_uris":{"android":"levelo://app?vid=2d23e02f-fce8-4673-aae2-b39f9936db19","ios":"levelo://app?vid=2d23e02f-fce8-4673-aae2-b39f9936db19"},"vehicle_type_id":"4","last_reported":1721682459,"current_range_meters":29600,"station_id":"ce4bhqp2rcd13ifvqhog","pricing_plan_id":"cebpf4jnsgd1na2vs0mg"},{"bike_id":"466d4796-471c-44b6-938a-8837d5921a82","system_id":"levelo_inurba_marseille","lat":43.32367,"lon":5.388836,"is_reserved":false,"is_disabled":false,"rental_uris":{"android":"levelo://app?vid=466d4796-471c-44b6-938a-8837d5921a82","ios":"levelo://app?vid=466d4796-471c-44b6-938a-8837d5921a82"},"vehicle_type_id":"4","last_reported":1721682459,"current_range_meters":17600,"station_id":"ce4bhqp2rcd13ifvqhog","pricing_plan_id":"cebpf4jnsgd1na2vs0mg"},{"bike_id":"67f74dd2-44f9-4b11-8ebd-ca18bff6216d","system_id":"levelo_inurba_marseille","lat":43.32367,"lon":5.388836,"is_reserved":false,"is_disabled":false,"rental_uris":{"android":"levelo://app?vid=67f74dd2-44f9-4b11-8ebd-ca18bff6216d","ios":"levelo://app?vid=67f74dd2-44f9-4b11-8ebd-ca18bff6216d"},"vehicle_type_id":"4","last_reported":1721682459,"current_range_meters":31600,"station_id":"ce4bhqp2rcd13ifvqhog","pricing_plan_id":"cebpf4jnsgd1na2vs0mg"},{"bike_id":"23b558f4-093e-4711-978b-4f8731e776a2","system_id":"levelo_inurba_marseille","lat":43.29602,"lon":5.381084,"is_reserved":false,"is_disabled":false,"rental_uris":{"android":"levelo://app?vid=23b558f4-093e-4711-978b-4f8731e776a2","ios":"levelo://app?vid=23b558f4-093e-4711-978b-4f8731e776a2"},"vehicle_type_id":"4","last_reported":1721682459,"current_range_meters":31200,"station_id":"ce4bgl12rcd13ifvqbo0","pricing_plan_id":"cebpf4jnsgd1na2vs0mg"},{"bike_id":"0e26218d-bc0c-4c32-87c3-248a770cf56a","system_id":"levelo_inurba_marseille","lat":43.29602,"lon":5.381084,"is_reserved":false,"is_disabled":false,"rental_uris":{"android":"levelo://app?vid=0e26218d-bc0c-4c32-87c3-248a770cf56a","ios":"levelo://app?vid=0e26218d-bc0c-4c32-87c3-248a770cf56a"},"vehicle_type_id":"4","last_reported":1721682459,"current_range_meters":10000,"station_id":"ce4bgl12rcd13ifvqbo0","pricing_plan_id":"cebpf4jnsgd1na2vs0mg"},{"bike_id":"aef85b7c-16de-4872-b5c9-2098b718b315","system_id":"levelo_inurba_marseille","lat":43.29313,"lon":5.37181,"is_reserved":false,"is_disabled":false,"rental_uris":{"android":"levelo://app?vid=aef85b7c-16de-4872-b5c9-2098b718b315","ios":"levelo://app?vid=aef85b7c-16de-4872-b5c9-2098b718b315"},"vehicle_type_id":"4","last_reported":1721682459,"current_range_meters":0,"station_id":"ce4bgh92rcd13ifvqb40","pricing_plan_id":"cebpf4jnsgd1na2vs0mg"},{"bike_id":"6c104572-0670-423c-a7d6-2f74d2d61633","system_id":"levelo_inurba_marseille","lat":43.29308,"lon":5.37184,"is_reserved":false,"is_disabled":false,"rental_uris":{"android":"levelo://app?vid=6c104572-0670-423c-a7d6-2f74d2d61633","ios":"levelo://app?vid=6c104572-0670-423c-a7d6-2f74d2d61633"},"vehicle_type_id":"4","last_reported":1721682459,"current_range_meters":0,"station_id":"ce4bgh92rcd13ifvqb40","pricing_plan_id":"cebpf4jnsgd1na2vs0mg"},{"bike_id":"3ff623b9-dee4-4051-b1d1-0a33737dbc6f","system_id":"levelo_inurba_marseille","lat":43.29306,"lon":5.37174,"is_reserved":false,"is_disabled":false,"rental_uris":{"android":"levelo://app?vid=3ff623b9-dee4-4051-b1d1-0a33737dbc6f","ios":"levelo://app?vid=3ff623b9-dee4-4051-b1d1-0a33737dbc6f"},"vehicle_type_id":"4","last_reported":1721682459,"current_range_meters":0,"station_id":"ce4bgh92rcd13ifvqb40","pricing_plan_id":"cebpf4jnsgd1na2vs0mg"},{"bike_id":"d69ce823-6c1e-49d4-868b-2dff1e991fb5","system_id":"levelo_inurba_marseille","lat":43.29278,"lon":5.36844,"is_reserved":false,"is_disabled":false,"rental_uris":{"android":"levelo://app?vid=d69ce823-6c1e-49d4-868b-2dff1e991fb5","ios":"levelo://app?vid=d69ce823-6c1e-49d4-868b-2dff1e991fb5"},"vehicle_type_id":"4","last_reported":1721682459,"current_range_meters":0,"station_id":"ce4bhbp2rcd13ifvqesg","pricing_plan_id":"cebpf4jnsgd1na2vs0mg"},{"bike_id":"a665f7f9-a8e5-496b-a25e-d216916bdc6f","system_id":"levelo_inurba_marseille","lat":43.29275,"lon":5.36844,"is_reserved":false,"is_disabled":false,"rental_uris":{"android":"levelo://app?vid=a665f7f9-a8e5-496b-a25e-d216916bdc6f","ios":"levelo://app?vid=a665f7f9-a8e5-496b-a25e-d216916bdc6f"},"vehicle_type_id":"4","last_reported":1721682459,"current_range_meters":0,"station_id":"ce4bhbp2rcd13ifvqesg","pricing_plan_id":"cebpf4jnsgd1na2vs0mg"},{"bike_id":"71941928-9d48-4929-b2f9-4c3c2a3acb7f","system_id":"levelo_inurba_marseille","lat":43.29304,"lon":5.37457,"is_reserved":false,"is_disabled":false,"rental_uris":{"android":"levelo://app?vid=71941928-9d48-4929-b2f9-4c3c2a3acb7f","ios":"levelo://app?vid=71941928-9d48-4929-b2f9-4c3c2a3acb7f"},"vehicle_type_id":"4","last_reported":1721682459,"current_range_meters":0,"station_id":"ce4bgi12rcd13ifvqb70","pricing_plan_id":"cebpf4jnsgd1na2vs0mg"},{"bike_id":"37d4dc96-e906-47d7-b802-e45db89b7b45","system_id":"levelo_inurba_marseille","lat":43.29302,"lon":5.37458,"is_reserved":false,"is_disabled":false,"rental_uris":{"android":"levelo://app?vid=37d4dc96-e906-47d7-b802-e45db89b7b45","ios":"levelo://app?vid=37d4dc96-e906-47d7-b802-e45db89b7b45"},"vehicle_type_id":"4","last_reported":1721682459,"current_range_meters":0,"station_id":"ce4bgi12rcd13ifvqb70","pricing_plan_id":"cebpf4jnsgd1na2vs0mg"},{"bike_id":"8b9561ea-bc97-4a13-9e61-03871de881fc","system_id":"levelo_inurba_marseille","lat":43.292986,"lon":5.37463,"is_reserved":false,"is_disabled":false,"rental_uris":{"android":"levelo://app?vid=8b9561ea-bc97-4a13-9e61-03871de881fc","ios":"levelo://app?vid=8b9561ea-bc97-4a13-9e61-03871de881fc"},"vehicle_type_id":"4","last_reported":1721682459,"current_range_meters":0,"station_id":"ce4bgi12rcd13ifvqb70","pricing_plan_id":"cebpf4jnsgd1na2vs0mg"},{"bike_id":"40697f51-0f21-4f55-8585-02c831638ed0","system_id":"levelo_inurba_marseille","lat":43.30304,"lon":5.39211,"is_reserved":false,"is_disabled":false,"rental_uris":{"android":"levelo://app?vid=40697f51-0f21-4f55-8585-02c831638ed0","ios":"levelo://app?vid=40697f51-0f21-4f55-8585-02c831638ed0"},"vehicle_type_id":"4","last_reported":1721682459,"current_range_meters":18000,"station_id":"ce4bgkh2rcd13ifvqbk0","pricing_plan_id":"cebpf4jnsgd1na2vs0mg"},{"bike_id":"c0cf4faf-a0ea-450c-af9f-5486376637a9","system_id":"levelo_inurba_marseille","lat":43.302992,"lon":5.392136,"is_reserved":false,"is_disabled":false,"rental_uris":{"android":"levelo://app?vid=c0cf4faf-a0ea-450c-af9f-5486376637a9","ios":"levelo://app?vid=c0cf4faf-a0ea-450c-af9f-5486376637a9"},"vehicle_type_id":"4","last_reported":1721682459,"current_range_meters":1600,"station_id":"ce4bgkh2rcd13ifvqbk0","pricing_plan_id":"cebpf4jnsgd1na2vs0mg"},{"bike_id":"b40e1563-43d9-4a66-9cdb-aefa07566809","system_id":"levelo_inurba_marseille","lat":43.29375,"lon":5.37851,"is_reserved":false,"is_disabled":false,"rental_uris":{"android":"levelo://app?vid=b40e1563-43d9-4a66-9cdb-aefa07566809","ios":"levelo://app?vid=b40e1563-43d9-4a66-9cdb-aefa07566809"},"vehicle_type_id":"4","last_reported":1721682459,"current_range_meters":4800,"station_id":"ce4bgjh2rcd13ifvqbf0","pricing_plan_id":"cebpf4jnsgd1na2vs0mg"},{"bike_id":"caf669f1-3ba7-41dd-80f1-eca4223aed7e","system_id":"levelo_inurba_marseille","lat":43.302992,"lon":5.392136,"is_reserved":false,"is_disabled":false,"rental_uris":{"android":"levelo://app?vid=caf669f1-3ba7-41dd-80f1-eca4223aed7e","ios":"levelo://app?vid=caf669f1-3ba7-41dd-80f1-eca4223aed7e"},"vehicle_type_id":"4","last_reported":1721682459,"current_range_meters":14800,"station_id":"ce4bgkh2rcd13ifvqbk0","pricing_plan_id":"cebpf4jnsgd1na2vs0mg"},{"bike_id":"7abe6311-e047-4df0-9bf8-eaac35fc0f0e","system_id":"levelo_inurba_marseille","lat":43.29365,"lon":5.3784,"is_reserved":false,"is_disabled":false,"rental_uris":{"android":"levelo://app?vid=7abe6311-e047-4df0-9bf8-eaac35fc0f0e","ios":"levelo://app?vid=7abe6311-e047-4df0-9bf8-eaac35fc0f0e"},"vehicle_type_id":"4","last_reported":1721682459,"current_range_meters":4000,"station_id":"ce4bgjh2rcd13ifvqbf0","pricing_plan_id":"cebpf4jnsgd1na2vs0mg"},{"bike_id":"99f9765e-1779-4374-8d40-a158a65e6f5e","system_id":"levelo_inurba_marseille","lat":43.2923,"lon":5.36065,"is_reserved":false,"is_disabled":false,"rental_uris":{"android":"levelo://app?vid=99f9765e-1779-4374-8d40-a158a65e6f5e","ios":"levelo://app?vid=99f9765e-1779-4374-8d40-a158a65e6f5e"},"vehicle_type_id":"4","last_reported":1721682459,"current_range_meters":0,"station_id":"ce4bhbh2rcd13ifvqeqg","pricing_plan_id":"cebpf4jnsgd1na2vs0mg"},{"bike_id":"a87e156b-04c8-4501-867e-3a5379c39b2c","system_id":"levelo_inurba_marseille","lat":43.298764,"lon":5.388973,"is_reserved":false,"is_disabled":false,"rental_uris":{"android":"levelo://app?vid=a87e156b-04c8-4501-867e-3a5379c39b2c","ios":"levelo://app?vid=a87e156b-04c8-4501-867e-3a5379c39b2c"},"vehicle_type_id":"4","last_reported":1721682459,"current_range_meters":30000,"station_id":"ce4bh392rcd13ifvqdl0","pricing_plan_id":"cebpf4jnsgd1na2vs0mg"},{"bike_id":"97c1d1b1-aa29-48e7-93ab-296fc0869d8f","system_id":"levelo_inurba_marseille","lat":43.298764,"lon":5.388973,"is_reserved":false,"is_disabled":false,"rental_uris":{"android":"levelo://app?vid=97c1d1b1-aa29-48e7-93ab-296fc0869d8f","ios":"levelo://app?vid=97c1d1b1-aa29-48e7-93ab-296fc0869d8f"},"vehicle_type_id":"4","last_reported":1721682459,"current_range_meters":10000,"station_id":"ce4bh392rcd13ifvqdl0","pricing_plan_id":"cebpf4jnsgd1na2vs0mg"},{"bike_id":"35b09b27-a23e-4eaf-9fab-9757eb69d639","system_id":"levelo_inurba_marseille","lat":43.298764,"lon":5.388973,"is_reserved":false,"is_disabled":false,"rental_uris":{"android":"levelo://app?vid=35b09b27-a23e-4eaf-9fab-9757eb69d639","ios":"levelo://app?vid=35b09b27-a23e-4eaf-9fab-9757eb69d639"},"vehicle_type_id":"4","last_reported":1721682459,"current_range_meters":12800,"station_id":"ce4bh392rcd13ifvqdl0","pricing_plan_id":"cebpf4jnsgd1na2vs0mg"},{"bike_id":"4881354f-c71a-4b76-a0fe-7e981d1d45d6","system_id":"levelo_inurba_marseille","lat":43.298764,"lon":5.388973,"is_reserved":false,"is_disabled":false,"rental_uris":{"android":"levelo://app?vid=4881354f-c71a-4b76-a0fe-7e981d1d45d6","ios":"levelo://app?vid=4881354f-c71a-4b76-a0fe-7e981d1d45d6"},"vehicle_type_id":"4","last_reported":1721682459,"current_range_meters":7600,"station_id":"ce4bh392rcd13ifvqdl0","pricing_plan_id":"cebpf4jnsgd1na2vs0mg"},{"bike_id":"e1ab175c-471c-4ab9-915d-a03855cce28f","system_id":"levelo_inurba_marseille","lat":43.298764,"lon":5.388973,"is_reserved":false,"is_disabled":false,"rental_uris":{"android":"levelo://app?vid=e1ab175c-471c-4ab9-915d-a03855cce28f","ios":"levelo://app?vid=e1ab175c-471c-4ab9-915d-a03855cce28f"},"vehicle_type_id":"4","last_reported":1721682459,"current_range_meters":31200,"station_id":"ce4bh392rcd13ifvqdl0","pricing_plan_id":"cebpf4jnsgd1na2vs0mg"},{"bike_id":"2fef63b7-c790-4f2f-85a2-118bb2517be1","system_id":"levelo_inurba_marseille","lat":43.291274,"lon":5.369655,"is_reserved":false,"is_disabled":false,"rental_uris":{"android":"levelo://app?vid=2fef63b7-c790-4f2f-85a2-118bb2517be1","ios":"levelo://app?vid=2fef63b7-c790-4f2f-85a2-118bb2517be1"},"vehicle_type_id":"4","last_reported":1721682459,"current_range_meters":0,"station_id":"","pricing_plan_id":"cebpf4jnsgd1na2vs0mg"},{"bike_id":"10fc3fab-317c-4e13-89ba-296835a2994f","system_id":"levelo_inurba_marseille","lat":43.29529,"lon":5.385581,"is_reserved":false,"is_disabled":false,"rental_uris":{"android":"levelo://app?vid=10fc3fab-317c-4e13-89ba-296835a2994f","ios":"levelo://app?vid=10fc3fab-317c-4e13-89ba-296835a2994f"},"vehicle_type_id":"4","last_reported":1721682459,"current_range_meters":31200,"station_id":"ce4bgih2rcd13ifvqba0","pricing_plan_id":"cebpf4jnsgd1na2vs0mg"},{"bike_id":"5fc9938d-ab66-4898-979e-3d2cec1ce42b","system_id":"levelo_inurba_marseille","lat":43.291994,"lon":5.357886,"is_reserved":false,"is_disabled":false,"rental_uris":{"android":"levelo://app?vid=5fc9938d-ab66-4898-979e-3d2cec1ce42b","ios":"levelo://app?vid=5fc9938d-ab66-4898-979e-3d2cec1ce42b"},"vehicle_type_id":"4","last_reported":1721682459,"current_range_meters":0,"station_id":"ce4bhb12rcd13ifvqel0","pricing_plan_id":"cebpf4jnsgd1na2vs0mg"},{"bike_id":"b86eb106-da4d-49ae-bea7-0b6f5d139e31","system_id":"levelo_inurba_marseille","lat":43.309047,"lon":5.396551,"is_reserved":false,"is_disabled":false,"rental_uris":{"android":"levelo://app?vid=b86eb106-da4d-49ae-bea7-0b6f5d139e31","ios":"levelo://app?vid=b86eb106-da4d-49ae-bea7-0b6f5d139e31"},"vehicle_type_id":"4","last_reported":1721682459,"current_range_meters":31200,"station_id":"ce4bh012rcd13ifvqcv0","pricing_plan_id":"cebpf4jnsgd1na2vs0mg"},{"bike_id":"e8160f1a-b438-457e-a47f-404bf016a438","system_id":"levelo_inurba_marseille","lat":43.313291,"lon":5.396838,"is_reserved":false,"is_disabled":false,"rental_uris":{"android":"levelo://app?vid=e8160f1a-b438-457e-a47f-404bf016a438","ios":"levelo://app?vid=e8160f1a-b438-457e-a47f-404bf016a438"},"vehicle_type_id":"4","last_reported":1721682459,"current_range_meters":29600,"station_id":"ce4bgvp2rcd13ifvqcu0","pricing_plan_id":"cebpf4jnsgd1na2vs0mg"},{"bike_id":"da061ab9-bbbd-44af-8152-c8c41c9a4b77","system_id":"levelo_inurba_marseille","lat":43.313291,"lon":5.396838,"is_reserved":false,"is_disabled":false,"rental_uris":{"android":"levelo://app?vid=da061ab9-bbbd-44af-8152-c8c41c9a4b77","ios":"levelo://app?vid=da061ab9-bbbd-44af-8152-c8c41c9a4b77"},"vehicle_type_id":"4","last_reported":1721682459,"current_range_meters":16000,"station_id":"ce4bgvp2rcd13ifvqcu0","pricing_plan_id":"cebpf4jnsgd1na2vs0mg"},{"bike_id":"15cc8c19-fac2-4b31-8979-86cdf3101d03","system_id":"levelo_inurba_marseille","lat":43.31327,"lon":5.39693,"is_reserved":false,"is_disabled":false,"rental_uris":{"android":"levelo://app?vid=15cc8c19-fac2-4b31-8979-86cdf3101d03","ios":"levelo://app?vid=15cc8c19-fac2-4b31-8979-86cdf3101d03"},"vehicle_type_id":"4","last_reported":1721682459,"current_range_meters":400,"station_id":"ce4bgvp2rcd13ifvqcu0","pricing_plan_id":"cebpf4jnsgd1na2vs0mg"},{"bike_id":"8261e9c7-b971-4309-a869-a661b926f21b","system_id":"levelo_inurba_marseille","lat":43.31328,"lon":5.39694,"is_reserved":false,"is_disabled":false,"rental_uris":{"android":"levelo://app?vid=8261e9c7-b971-4309-a869-a661b926f21b","ios":"levelo://app?vid=8261e9c7-b971-4309-a869-a661b926f21b"},"vehicle_type_id":"4","last_reported":1721682459,"current_range_meters":22800,"station_id":"ce4bgvp2rcd13ifvqcu0","pricing_plan_id":"cebpf4jnsgd1na2vs0mg"},{"bike_id":"7486ddff-cebd-47e0-812b-98eb68f05d17","system_id":"levelo_inurba_marseille","lat":43.3133,"lon":5.39694,"is_reserved":false,"is_disabled":false,"rental_uris":{"android":"levelo://app?vid=7486ddff-cebd-47e0-812b-98eb68f05d17","ios":"levelo://app?vid=7486ddff-cebd-47e0-812b-98eb68f05d17"},"vehicle_type_id":"4","last_reported":1721682459,"current_range_meters":6400,"station_id":"ce4bgvp2rcd13ifvqcu0","pricing_plan_id":"cebpf4jnsgd1na2vs0mg"},{"bike_id":"3f9b6d5b-9406-4c13-8040-b05221bd766c","system_id":"levelo_inurba_marseille","lat":43.309047,"lon":5.396551,"is_reserved":false,"is_disabled":false,"rental_uris":{"android":"levelo://app?vid=3f9b6d5b-9406-4c13-8040-b05221bd766c","ios":"levelo://app?vid=3f9b6d5b-9406-4c13-8040-b05221bd766c"},"vehicle_type_id":"4","last_reported":1721682459,"current_range_meters":6000,"station_id":"ce4bh012rcd13ifvqcv0","pricing_plan_id":"cebpf4jnsgd1na2vs0mg"},{"bike_id":"47618125-eadd-4c46-abcd-11e66150e763","system_id":"levelo_inurba_marseille","lat":43.3089,"lon":5.39658,"is_reserved":false,"is_disabled":false,"rental_uris":{"android":"levelo://app?vid=47618125-eadd-4c46-abcd-11e66150e763","ios":"levelo://app?vid=47618125-eadd-4c46-abcd-11e66150e763"},"vehicle_type_id":"4","last_reported":1721682459,"current_range_meters":2400,"station_id":"ce4bh012rcd13ifvqcv0","pricing_plan_id":"cebpf4jnsgd1na2vs0mg"},{"bike_id":"5812ca78-cd67-4495-954e-d40660d6e4ca","system_id":"levelo_inurba_marseille","lat":43.309038,"lon":5.396546,"is_reserved":false,"is_disabled":false,"rental_uris":{"android":"levelo://app?vid=5812ca78-cd67-4495-954e-d40660d6e4ca","ios":"levelo://app?vid=5812ca78-cd67-4495-954e-d40660d6e4ca"},"vehicle_type_id":"4","last_reported":1721682459,"current_range_meters":9200,"station_id":"ce4bh012rcd13ifvqcv0","pricing_plan_id":"cebpf4jnsgd1na2vs0mg"},{"bike_id":"69a2e173-6fce-4b4b-ab25-1befc9d6cf11","system_id":"levelo_inurba_marseille","lat":43.309038,"lon":5.396546,"is_reserved":false,"is_disabled":false,"rental_uris":{"android":"levelo://app?vid=69a2e173-6fce-4b4b-ab25-1befc9d6cf11","ios":"levelo://app?vid=69a2e173-6fce-4b4b-ab25-1befc9d6cf11"},"vehicle_type_id":"4","last_reported":1721682459,"current_range_meters":0,"station_id":"ce4bh012rcd13ifvqcv0","pricing_plan_id":"cebpf4jnsgd1na2vs0mg"},{"bike_id":"d9f90db7-2fe1-4381-9b8f-146f99f10327","system_id":"levelo_inurba_marseille","lat":43.309038,"lon":5.396546,"is_reserved":false,"is_disabled":false,"rental_uris":{"android":"levelo://app?vid=d9f90db7-2fe1-4381-9b8f-146f99f10327","ios":"levelo://app?vid=d9f90db7-2fe1-4381-9b8f-146f99f10327"},"vehicle_type_id":"4","last_reported":1721682459,"current_range_meters":4000,"station_id":"ce4bh012rcd13ifvqcv0","pricing_plan_id":"cebpf4jnsgd1na2vs0mg"},{"bike_id":"e1b6af57-1bbd-45e3-ac13-a13346f3fa54","system_id":"levelo_inurba_marseille","lat":43.309038,"lon":5.396546,"is_reserved":false,"is_disabled":false,"rental_uris":{"android":"levelo://app?vid=e1b6af57-1bbd-45e3-ac13-a13346f3fa54","ios":"levelo://app?vid=e1b6af57-1bbd-45e3-ac13-a13346f3fa54"},"vehicle_type_id":"4","last_reported":1721682459,"current_range_meters":6000,"station_id":"ce4bh012rcd13ifvqcv0","pricing_plan_id":"cebpf4jnsgd1na2vs0mg"},{"bike_id":"dc77515d-a9c9-404f-87bc-27bd93bed2bf","system_id":"levelo_inurba_marseille","lat":43.309038,"lon":5.396546,"is_reserved":false,"is_disabled":false,"rental_uris":{"android":"levelo://app?vid=dc77515d-a9c9-404f-87bc-27bd93bed2bf","ios":"levelo://app?vid=dc77515d-a9c9-404f-87bc-27bd93bed2bf"},"vehicle_type_id":"4","last_reported":1721682459,"current_range_meters":0,"station_id":"ce4bh012rcd13ifvqcv0","pricing_plan_id":"cebpf4jnsgd1na2vs0mg"},{"bike_id":"4a753772-2684-4241-b47a-23ea70be0912","system_id":"levelo_inurba_marseille","lat":43.29529,"lon":5.385581,"is_reserved":false,"is_disabled":false,"rental_uris":{"android":"levelo://app?vid=4a753772-2684-4241-b47a-23ea70be0912","ios":"levelo://app?vid=4a753772-2684-4241-b47a-23ea70be0912"},"vehicle_type_id":"4","last_reported":1721682459,"current_range_meters":0,"station_id":"ce4bgih2rcd13ifvqba0","pricing_plan_id":"cebpf4jnsgd1na2vs0mg"},{"bike_id":"84772e9e-f66b-4894-978c-966a82eb9b89","system_id":"levelo_inurba_marseille","lat":43.29529,"lon":5.385581,"is_reserved":false,"is_disabled":false,"rental_uris":{"android":"levelo://app?vid=84772e9e-f66b-4894-978c-966a82eb9b89","ios":"levelo://app?vid=84772e9e-f66b-4894-978c-966a82eb9b89"},"vehicle_type_id":"4","last_reported":1721682459,"current_range_meters":0,"station_id":"ce4bgih2rcd13ifvqba0","pricing_plan_id":"cebpf4jnsgd1na2vs0mg"},{"bike_id":"962b5bda-74ca-4f29-b7ed-10f362111246","system_id":"levelo_inurba_marseille","lat":43.29532,"lon":5.38547,"is_reserved":false,"is_disabled":false,"rental_uris":{"android":"levelo://app?vid=962b5bda-74ca-4f29-b7ed-10f362111246","ios":"levelo://app?vid=962b5bda-74ca-4f29-b7ed-10f362111246"},"vehicle_type_id":"4","last_reported":1721682459,"current_range_meters":0,"station_id":"ce4bgih2rcd13ifvqba0","pricing_plan_id":"cebpf4jnsgd1na2vs0mg"},{"bike_id":"ef3649c0-55b2-499d-b596-9d68fad60dd7","system_id":"levelo_inurba_marseille","lat":43.2953,"lon":5.3855,"is_reserved":false,"is_disabled":false,"rental_uris":{"android":"levelo://app?vid=ef3649c0-55b2-499d-b596-9d68fad60dd7","ios":"levelo://app?vid=ef3649c0-55b2-499d-b596-9d68fad60dd7"},"vehicle_type_id":"4","last_reported":1721682459,"current_range_meters":2000,"station_id":"ce4bgih2rcd13ifvqba0","pricing_plan_id":"cebpf4jnsgd1na2vs0mg"},{"bike_id":"a535a8b7-1e1e-40e6-868a-6f2ebf54f76c","system_id":"levelo_inurba_marseille","lat":43.29059,"lon":5.370813,"is_reserved":false,"is_disabled":false,"rental_uris":{"android":"levelo://app?vid=a535a8b7-1e1e-40e6-868a-6f2ebf54f76c","ios":"levelo://app?vid=a535a8b7-1e1e-40e6-868a-6f2ebf54f76c"},"vehicle_type_id":"4","last_reported":1721682459,"current_range_meters":5600,"station_id":"","pricing_plan_id":"cebpf4jnsgd1na2vs0mg"},{"bike_id":"bba99e41-497e-4b12-9a85-f27871cb7247","system_id":"levelo_inurba_marseille","lat":43.302008,"lon":5.394694,"is_reserved":false,"is_disabled":false,"rental_uris":{"android":"levelo://app?vid=bba99e41-497e-4b12-9a85-f27871cb7247","ios":"levelo://app?vid=bba99e41-497e-4b12-9a85-f27871cb7247"},"vehicle_type_id":"4","last_reported":1721682459,"current_range_meters":22800,"station_id":"ce4bh0p2rcd13ifvqd70","pricing_plan_id":"cebpf4jnsgd1na2vs0mg"},{"bike_id":"19f392d8-9f50-483e-8be7-7ab8177b51a4","system_id":"levelo_inurba_marseille","lat":43.302008,"lon":5.394694,"is_reserved":false,"is_disabled":false,"rental_uris":{"android":"levelo://app?vid=19f392d8-9f50-483e-8be7-7ab8177b51a4","ios":"levelo://app?vid=19f392d8-9f50-483e-8be7-7ab8177b51a4"},"vehicle_type_id":"4","last_reported":1721682459,"current_range_meters":31600,"station_id":"ce4bh0p2rcd13ifvqd70","pricing_plan_id":"cebpf4jnsgd1na2vs0mg"},{"bike_id":"3efdc6e1-4283-4cad-9562-5333cca148f5","system_id":"levelo_inurba_marseille","lat":43.302008,"lon":5.394694,"is_reserved":false,"is_disabled":false,"rental_uris":{"android":"levelo://app?vid=3efdc6e1-4283-4cad-9562-5333cca148f5","ios":"levelo://app?vid=3efdc6e1-4283-4cad-9562-5333cca148f5"},"vehicle_type_id":"4","last_reported":1721682459,"current_range_meters":8800,"station_id":"ce4bh0p2rcd13ifvqd70","pricing_plan_id":"cebpf4jnsgd1na2vs0mg"},{"bike_id":"bd6440e0-a9a9-4a97-aa54-383aeae7ef90","system_id":"levelo_inurba_marseille","lat":43.290631,"lon":5.359244,"is_reserved":false,"is_disabled":false,"rental_uris":{"android":"levelo://app?vid=bd6440e0-a9a9-4a97-aa54-383aeae7ef90","ios":"levelo://app?vid=bd6440e0-a9a9-4a97-aa54-383aeae7ef90"},"vehicle_type_id":"4","last_reported":1721682459,"current_range_meters":0,"station_id":"ce4bha92rcd13ifvqeg0","pricing_plan_id":"cebpf4jnsgd1na2vs0mg"},{"bike_id":"e2063817-683f-4003-b0eb-7d186838f034","system_id":"levelo_inurba_marseille","lat":43.294153,"lon":5.386305,"is_reserved":false,"is_disabled":false,"rental_uris":{"android":"levelo://app?vid=e2063817-683f-4003-b0eb-7d186838f034","ios":"levelo://app?vid=e2063817-683f-4003-b0eb-7d186838f034"},"vehicle_type_id":"4","last_reported":1721682459,"current_range_meters":8000,"station_id":"ce4bh2h2rcd13ifvqdh0","pricing_plan_id":"cebpf4jnsgd1na2vs0mg"},{"bike_id":"916a7464-48cb-46c6-9081-150f86d2e157","system_id":"levelo_inurba_marseille","lat":43.294153,"lon":5.386305,"is_reserved":false,"is_disabled":false,"rental_uris":{"android":"levelo://app?vid=916a7464-48cb-46c6-9081-150f86d2e157","ios":"levelo://app?vid=916a7464-48cb-46c6-9081-150f86d2e157"},"vehicle_type_id":"4","last_reported":1721682459,"current_range_meters":31600,"station_id":"ce4bh2h2rcd13ifvqdh0","pricing_plan_id":"cebpf4jnsgd1na2vs0mg"},{"bike_id":"9ca3f638-1847-4582-8e3d-f338711b362f","system_id":"levelo_inurba_marseille","lat":43.294153,"lon":5.386305,"is_reserved":false,"is_disabled":false,"rental_uris":{"android":"levelo://app?vid=9ca3f638-1847-4582-8e3d-f338711b362f","ios":"levelo://app?vid=9ca3f638-1847-4582-8e3d-f338711b362f"},"vehicle_type_id":"4","last_reported":1721682459,"current_range_meters":24800,"station_id":"ce4bh2h2rcd13ifvqdh0","pricing_plan_id":"cebpf4jnsgd1na2vs0mg"},{"bike_id":"3656eb1a-b6d3-455c-a736-6929ab55c677","system_id":"levelo_inurba_marseille","lat":43.29418,"lon":5.3862,"is_reserved":false,"is_disabled":false,"rental_uris":{"android":"levelo://app?vid=3656eb1a-b6d3-455c-a736-6929ab55c677","ios":"levelo://app?vid=3656eb1a-b6d3-455c-a736-6929ab55c677"},"vehicle_type_id":"4","last_reported":1721682459,"current_range_meters":25200,"station_id":"ce4bh2h2rcd13ifvqdh0","pricing_plan_id":"cebpf4jnsgd1na2vs0mg"},{"bike_id":"e32f9faf-8866-47e9-957c-f48268a6bb76","system_id":"levelo_inurba_marseille","lat":43.294153,"lon":5.386305,"is_reserved":false,"is_disabled":false,"rental_uris":{"android":"levelo://app?vid=e32f9faf-8866-47e9-957c-f48268a6bb76","ios":"levelo://app?vid=e32f9faf-8866-47e9-957c-f48268a6bb76"},"vehicle_type_id":"4","last_reported":1721682459,"current_range_meters":28800,"station_id":"ce4bh2h2rcd13ifvqdh0","pricing_plan_id":"cebpf4jnsgd1na2vs0mg"},{"bike_id":"aad992e7-c988-4238-9276-7c8aef669939","system_id":"levelo_inurba_marseille","lat":43.294162,"lon":5.386292,"is_reserved":false,"is_disabled":false,"rental_uris":{"android":"levelo://app?vid=aad992e7-c988-4238-9276-7c8aef669939","ios":"levelo://app?vid=aad992e7-c988-4238-9276-7c8aef669939"},"vehicle_type_id":"4","last_reported":1721682459,"current_range_meters":29200,"station_id":"ce4bh2h2rcd13ifvqdh0","pricing_plan_id":"cebpf4jnsgd1na2vs0mg"},{"bike_id":"b3dfa2d1-04a8-4ea8-a26b-58a90ff08455","system_id":"levelo_inurba_marseille","lat":43.294153,"lon":5.386305,"is_reserved":false,"is_disabled":false,"rental_uris":{"android":"levelo://app?vid=b3dfa2d1-04a8-4ea8-a26b-58a90ff08455","ios":"levelo://app?vid=b3dfa2d1-04a8-4ea8-a26b-58a90ff08455"},"vehicle_type_id":"4","last_reported":1721682459,"current_range_meters":31600,"station_id":"ce4bh2h2rcd13ifvqdh0","pricing_plan_id":"cebpf4jnsgd1na2vs0mg"},{"bike_id":"03ec09a9-482a-4e7c-a6a5-0bb5a57fd74f","system_id":"levelo_inurba_marseille","lat":43.294153,"lon":5.386305,"is_reserved":false,"is_disabled":false,"rental_uris":{"android":"levelo://app?vid=03ec09a9-482a-4e7c-a6a5-0bb5a57fd74f","ios":"levelo://app?vid=03ec09a9-482a-4e7c-a6a5-0bb5a57fd74f"},"vehicle_type_id":"4","last_reported":1721682459,"current_range_meters":10800,"station_id":"ce4bh2h2rcd13ifvqdh0","pricing_plan_id":"cebpf4jnsgd1na2vs0mg"},{"bike_id":"29771653-412d-4806-8816-eb2a1391ba22","system_id":"levelo_inurba_marseille","lat":43.29418,"lon":5.38623,"is_reserved":false,"is_disabled":false,"rental_uris":{"android":"levelo://app?vid=29771653-412d-4806-8816-eb2a1391ba22","ios":"levelo://app?vid=29771653-412d-4806-8816-eb2a1391ba22"},"vehicle_type_id":"4","last_reported":1721682459,"current_range_meters":31200,"station_id":"ce4bh2h2rcd13ifvqdh0","pricing_plan_id":"cebpf4jnsgd1na2vs0mg"},{"bike_id":"e635e90a-e075-4529-aaf0-62f758a8acfd","system_id":"levelo_inurba_marseille","lat":43.294162,"lon":5.386292,"is_reserved":false,"is_disabled":false,"rental_uris":{"android":"levelo://app?vid=e635e90a-e075-4529-aaf0-62f758a8acfd","ios":"levelo://app?vid=e635e90a-e075-4529-aaf0-62f758a8acfd"},"vehicle_type_id":"4","last_reported":1721682459,"current_range_meters":31200,"station_id":"ce4bh2h2rcd13ifvqdh0","pricing_plan_id":"cebpf4jnsgd1na2vs0mg"},{"bike_id":"67799d3e-fbe6-490a-8eab-c49f6ee88774","system_id":"levelo_inurba_marseille","lat":43.294185,"lon":5.386245,"is_reserved":false,"is_disabled":false,"rental_uris":{"android":"levelo://app?vid=67799d3e-fbe6-490a-8eab-c49f6ee88774","ios":"levelo://app?vid=67799d3e-fbe6-490a-8eab-c49f6ee88774"},"vehicle_type_id":"4","last_reported":1721682459,"current_range_meters":17200,"station_id":"ce4bh2h2rcd13ifvqdh0","pricing_plan_id":"cebpf4jnsgd1na2vs0mg"},{"bike_id":"8255380d-ccad-492a-af87-05ce6a93cc96","system_id":"levelo_inurba_marseille","lat":43.294162,"lon":5.386292,"is_reserved":false,"is_disabled":false,"rental_uris":{"android":"levelo://app?vid=8255380d-ccad-492a-af87-05ce6a93cc96","ios":"levelo://app?vid=8255380d-ccad-492a-af87-05ce6a93cc96"},"vehicle_type_id":"4","last_reported":1721682459,"current_range_meters":18800,"station_id":"ce4bh2h2rcd13ifvqdh0","pricing_plan_id":"cebpf4jnsgd1na2vs0mg"},{"bike_id":"5530e8a7-4dbe-44f1-9bbe-6117f289da59","system_id":"levelo_inurba_marseille","lat":43.294162,"lon":5.386292,"is_reserved":false,"is_disabled":false,"rental_uris":{"android":"levelo://app?vid=5530e8a7-4dbe-44f1-9bbe-6117f289da59","ios":"levelo://app?vid=5530e8a7-4dbe-44f1-9bbe-6117f289da59"},"vehicle_type_id":"4","last_reported":1721682459,"current_range_meters":31200,"station_id":"ce4bh2h2rcd13ifvqdh0","pricing_plan_id":"cebpf4jnsgd1na2vs0mg"},{"bike_id":"0fec7101-9434-43da-98fb-44e6cbbd4039","system_id":"levelo_inurba_marseille","lat":43.29418,"lon":5.38626,"is_reserved":false,"is_disabled":false,"rental_uris":{"android":"levelo://app?vid=0fec7101-9434-43da-98fb-44e6cbbd4039","ios":"levelo://app?vid=0fec7101-9434-43da-98fb-44e6cbbd4039"},"vehicle_type_id":"4","last_reported":1721682459,"current_range_meters":31200,"station_id":"ce4bh2h2rcd13ifvqdh0","pricing_plan_id":"cebpf4jnsgd1na2vs0mg"},{"bike_id":"f885578a-548a-400a-8f66-7c768fd2cb68","system_id":"levelo_inurba_marseille","lat":43.29034,"lon":5.37571,"is_reserved":false,"is_disabled":false,"rental_uris":{"android":"levelo://app?vid=f885578a-548a-400a-8f66-7c768fd2cb68","ios":"levelo://app?vid=f885578a-548a-400a-8f66-7c768fd2cb68"},"vehicle_type_id":"4","last_reported":1721682459,"current_range_meters":0,"station_id":"ce4bh692rcd13ifvqe90","pricing_plan_id":"cebpf4jnsgd1na2vs0mg"},{"bike_id":"43d13318-46ed-4777-9103-fef2b05dd50a","system_id":"levelo_inurba_marseille","lat":43.294162,"lon":5.386292,"is_reserved":false,"is_disabled":false,"rental_uris":{"android":"levelo://app?vid=43d13318-46ed-4777-9103-fef2b05dd50a","ios":"levelo://app?vid=43d13318-46ed-4777-9103-fef2b05dd50a"},"vehicle_type_id":"4","last_reported":1721682459,"current_range_meters":20800,"station_id":"ce4bh2h2rcd13ifvqdh0","pricing_plan_id":"cebpf4jnsgd1na2vs0mg"},{"bike_id":"82226f37-6f64-4001-955c-d5882bc232da","system_id":"levelo_inurba_marseille","lat":43.289468,"lon":5.363719,"is_reserved":false,"is_disabled":false,"rental_uris":{"android":"levelo://app?vid=82226f37-6f64-4001-955c-d5882bc232da","ios":"levelo://app?vid=82226f37-6f64-4001-955c-d5882bc232da"},"vehicle_type_id":"4","last_reported":1721682459,"current_range_meters":5200,"station_id":"ce4bhc92rcd13ifvqetg","pricing_plan_id":"cebpf4jnsgd1na2vs0mg"},{"bike_id":"b43e7e4c-9857-4774-941a-6c7a38899ba2","system_id":"levelo_inurba_marseille","lat":43.29416,"lon":5.38628,"is_reserved":false,"is_disabled":false,"rental_uris":{"android":"levelo://app?vid=b43e7e4c-9857-4774-941a-6c7a38899ba2","ios":"levelo://app?vid=b43e7e4c-9857-4774-941a-6c7a38899ba2"},"vehicle_type_id":"4","last_reported":1721682459,"current_range_meters":23600,"station_id":"ce4bh2h2rcd13ifvqdh0","pricing_plan_id":"cebpf4jnsgd1na2vs0mg"},{"bike_id":"63cfd88b-f2ae-49b2-9e46-cc50e13aa2d4","system_id":"levelo_inurba_marseille","lat":43.28941,"lon":5.366417,"is_reserved":false,"is_disabled":false,"rental_uris":{"android":"levelo://app?vid=63cfd88b-f2ae-49b2-9e46-cc50e13aa2d4","ios":"levelo://app?vid=63cfd88b-f2ae-49b2-9e46-cc50e13aa2d4"},"vehicle_type_id":"4","last_reported":1721682459,"current_range_meters":0,"station_id":"ce4bhap2rcd13ifvqek0","pricing_plan_id":"cebpf4jnsgd1na2vs0mg"},{"bike_id":"3364c066-c1d6-4c30-8919-6443a5fc5016","system_id":"levelo_inurba_marseille","lat":43.29411,"lon":5.38633,"is_reserved":false,"is_disabled":false,"rental_uris":{"android":"levelo://app?vid=3364c066-c1d6-4c30-8919-6443a5fc5016","ios":"levelo://app?vid=3364c066-c1d6-4c30-8919-6443a5fc5016"},"vehicle_type_id":"4","last_reported":1721682459,"current_range_meters":31200,"station_id":"ce4bh2h2rcd13ifvqdh0","pricing_plan_id":"cebpf4jnsgd1na2vs0mg"},{"bike_id":"4b9680b8-f65d-4eb4-a9bc-f4901d35f242","system_id":"levelo_inurba_marseille","lat":43.28926,"lon":5.363965,"is_reserved":false,"is_disabled":false,"rental_uris":{"android":"levelo://app?vid=4b9680b8-f65d-4eb4-a9bc-f4901d35f242","ios":"levelo://app?vid=4b9680b8-f65d-4eb4-a9bc-f4901d35f242"},"vehicle_type_id":"4","last_reported":1721682459,"current_range_meters":0,"station_id":"ce4bhc92rcd13ifvqetg","pricing_plan_id":"cebpf4jnsgd1na2vs0mg"},{"bike_id":"bed42a49-17b7-4601-b10a-4f52200c003c","system_id":"levelo_inurba_marseille","lat":43.29271,"lon":5.38434,"is_reserved":false,"is_disabled":false,"rental_uris":{"android":"levelo://app?vid=bed42a49-17b7-4601-b10a-4f52200c003c","ios":"levelo://app?vid=bed42a49-17b7-4601-b10a-4f52200c003c"},"vehicle_type_id":"4","last_reported":1721682459,"current_range_meters":22000,"station_id":"ce4bh692rcd13ifvqea0","pricing_plan_id":"cebpf4jnsgd1na2vs0mg"},{"bike_id":"b7d59c8c-3c2c-411c-967a-6c9c68f7dc74","system_id":"levelo_inurba_marseille","lat":43.29265,"lon":5.38433,"is_reserved":false,"is_disabled":false,"rental_uris":{"android":"levelo://app?vid=b7d59c8c-3c2c-411c-967a-6c9c68f7dc74","ios":"levelo://app?vid=b7d59c8c-3c2c-411c-967a-6c9c68f7dc74"},"vehicle_type_id":"4","last_reported":1721682459,"current_range_meters":2800,"station_id":"ce4bh692rcd13ifvqea0","pricing_plan_id":"cebpf4jnsgd1na2vs0mg"},{"bike_id":"1e6cb514-693a-4c63-b941-6585dc4cb436","system_id":"levelo_inurba_marseille","lat":43.29265,"lon":5.38435,"is_reserved":false,"is_disabled":false,"rental_uris":{"android":"levelo://app?vid=1e6cb514-693a-4c63-b941-6585dc4cb436","ios":"levelo://app?vid=1e6cb514-693a-4c63-b941-6585dc4cb436"},"vehicle_type_id":"4","last_reported":1721682459,"current_range_meters":26000,"station_id":"ce4bh692rcd13ifvqea0","pricing_plan_id":"cebpf4jnsgd1na2vs0mg"},{"bike_id":"dbc1d721-46e5-4e04-b7ed-3dd32642563b","system_id":"levelo_inurba_marseille","lat":43.292642,"lon":5.384254,"is_reserved":false,"is_disabled":false,"rental_uris":{"android":"levelo://app?vid=dbc1d721-46e5-4e04-b7ed-3dd32642563b","ios":"levelo://app?vid=dbc1d721-46e5-4e04-b7ed-3dd32642563b"},"vehicle_type_id":"4","last_reported":1721682459,"current_range_meters":8000,"station_id":"ce4bh692rcd13ifvqea0","pricing_plan_id":"cebpf4jnsgd1na2vs0mg"},{"bike_id":"73ac2534-80fb-4c72-8970-4c9cb551be93","system_id":"levelo_inurba_marseille","lat":43.29265,"lon":5.38437,"is_reserved":false,"is_disabled":false,"rental_uris":{"android":"levelo://app?vid=73ac2534-80fb-4c72-8970-4c9cb551be93","ios":"levelo://app?vid=73ac2534-80fb-4c72-8970-4c9cb551be93"},"vehicle_type_id":"4","last_reported":1721682459,"current_range_meters":7600,"station_id":"ce4bh692rcd13ifvqea0","pricing_plan_id":"cebpf4jnsgd1na2vs0mg"},{"bike_id":"1b9d7fab-5bb1-406a-8088-313ac8172755","system_id":"levelo_inurba_marseille","lat":43.292644,"lon":5.384257,"is_reserved":false,"is_disabled":false,"rental_uris":{"android":"levelo://app?vid=1b9d7fab-5bb1-406a-8088-313ac8172755","ios":"levelo://app?vid=1b9d7fab-5bb1-406a-8088-313ac8172755"},"vehicle_type_id":"4","last_reported":1721682459,"current_range_meters":0,"station_id":"ce4bh692rcd13ifvqea0","pricing_plan_id":"cebpf4jnsgd1na2vs0mg"},{"bike_id":"3d5a0c8a-1acf-406a-a876-6843bb419774","system_id":"levelo_inurba_marseille","lat":43.29262,"lon":5.38436,"is_reserved":false,"is_disabled":false,"rental_uris":{"android":"levelo://app?vid=3d5a0c8a-1acf-406a-a876-6843bb419774","ios":"levelo://app?vid=3d5a0c8a-1acf-406a-a876-6843bb419774"},"vehicle_type_id":"4","last_reported":1721682459,"current_range_meters":12000,"station_id":"ce4bh692rcd13ifvqea0","pricing_plan_id":"cebpf4jnsgd1na2vs0mg"},{"bike_id":"b55e5765-f885-48f3-b201-a48f66234c04","system_id":"levelo_inurba_marseille","lat":43.2926,"lon":5.38433,"is_reserved":false,"is_disabled":false,"rental_uris":{"android":"levelo://app?vid=b55e5765-f885-48f3-b201-a48f66234c04","ios":"levelo://app?vid=b55e5765-f885-48f3-b201-a48f66234c04"},"vehicle_type_id":"4","last_reported":1721682459,"current_range_meters":5200,"station_id":"ce4bh692rcd13ifvqea0","pricing_plan_id":"cebpf4jnsgd1na2vs0mg"},{"bike_id":"60272c2b-b8b4-49fe-b75c-c990d56c4c4f","system_id":"levelo_inurba_marseille","lat":43.29268,"lon":5.38451,"is_reserved":false,"is_disabled":false,"rental_uris":{"android":"levelo://app?vid=60272c2b-b8b4-49fe-b75c-c990d56c4c4f","ios":"levelo://app?vid=60272c2b-b8b4-49fe-b75c-c990d56c4c4f"},"vehicle_type_id":"4","last_reported":1721682459,"current_range_meters":3600,"station_id":"ce4bh692rcd13ifvqea0","pricing_plan_id":"cebpf4jnsgd1na2vs0mg"},{"bike_id":"6388afe7-ca1f-4cf6-a5a9-7db61ce9d8ab","system_id":"levelo_inurba_marseille","lat":43.304274,"lon":5.397513,"is_reserved":false,"is_disabled":false,"rental_uris":{"android":"levelo://app?vid=6388afe7-ca1f-4cf6-a5a9-7db61ce9d8ab","ios":"levelo://app?vid=6388afe7-ca1f-4cf6-a5a9-7db61ce9d8ab"},"vehicle_type_id":"4","last_reported":1721682459,"current_range_meters":11200,"station_id":"ce4bh092rcd13ifvqd20","pricing_plan_id":"cebpf4jnsgd1na2vs0mg"},{"bike_id":"29429dd2-cf36-4c6e-a721-6410eff52350","system_id":"levelo_inurba_marseille","lat":43.29262,"lon":5.38442,"is_reserved":false,"is_disabled":false,"rental_uris":{"android":"levelo://app?vid=29429dd2-cf36-4c6e-a721-6410eff52350","ios":"levelo://app?vid=29429dd2-cf36-4c6e-a721-6410eff52350"},"vehicle_type_id":"4","last_reported":1721682459,"current_range_meters":26800,"station_id":"ce4bh692rcd13ifvqea0","pricing_plan_id":"cebpf4jnsgd1na2vs0mg"},{"bike_id":"ca92929c-74fe-4b2d-9a96-55acfb87fbb7","system_id":"levelo_inurba_marseille","lat":43.29263,"lon":5.38445,"is_reserved":false,"is_disabled":false,"rental_uris":{"android":"levelo://app?vid=ca92929c-74fe-4b2d-9a96-55acfb87fbb7","ios":"levelo://app?vid=ca92929c-74fe-4b2d-9a96-55acfb87fbb7"},"vehicle_type_id":"4","last_reported":1721682459,"current_range_meters":0,"station_id":"ce4bh692rcd13ifvqea0","pricing_plan_id":"cebpf4jnsgd1na2vs0mg"},{"bike_id":"fd74e4ae-b52b-4241-b34e-59c3799a3a99","system_id":"levelo_inurba_marseille","lat":43.29262,"lon":5.38444,"is_reserved":false,"is_disabled":false,"rental_uris":{"android":"levelo://app?vid=fd74e4ae-b52b-4241-b34e-59c3799a3a99","ios":"levelo://app?vid=fd74e4ae-b52b-4241-b34e-59c3799a3a99"},"vehicle_type_id":"4","last_reported":1721682459,"current_range_meters":0,"station_id":"ce4bh692rcd13ifvqea0","pricing_plan_id":"cebpf4jnsgd1na2vs0mg"},{"bike_id":"c84513a0-7d22-4624-9058-cd199b3e10af","system_id":"levelo_inurba_marseille","lat":43.30425,"lon":5.397523,"is_reserved":false,"is_disabled":false,"rental_uris":{"android":"levelo://app?vid=c84513a0-7d22-4624-9058-cd199b3e10af","ios":"levelo://app?vid=c84513a0-7d22-4624-9058-cd199b3e10af"},"vehicle_type_id":"4","last_reported":1721682459,"current_range_meters":3600,"station_id":"ce4bh092rcd13ifvqd20","pricing_plan_id":"cebpf4jnsgd1na2vs0mg"},{"bike_id":"39570ada-380b-4de6-998d-cb45ff584c34","system_id":"levelo_inurba_marseille","lat":43.2926,"lon":5.38445,"is_reserved":false,"is_disabled":false,"rental_uris":{"android":"levelo://app?vid=39570ada-380b-4de6-998d-cb45ff584c34","ios":"levelo://app?vid=39570ada-380b-4de6-998d-cb45ff584c34"},"vehicle_type_id":"4","last_reported":1721682459,"current_range_meters":0,"station_id":"ce4bh692rcd13ifvqea0","pricing_plan_id":"cebpf4jnsgd1na2vs0mg"},{"bike_id":"2cba2f3c-45b4-4dde-994f-481cc3c1f12b","system_id":"levelo_inurba_marseille","lat":43.290995,"lon":5.381361,"is_reserved":false,"is_disabled":false,"rental_uris":{"android":"levelo://app?vid=2cba2f3c-45b4-4dde-994f-481cc3c1f12b","ios":"levelo://app?vid=2cba2f3c-45b4-4dde-994f-481cc3c1f12b"},"vehicle_type_id":"4","last_reported":1721682459,"current_range_meters":9200,"station_id":"ce4bh512rcd13ifvqe2g","pricing_plan_id":"cebpf4jnsgd1na2vs0mg"},{"bike_id":"127c15da-f932-43ac-b394-8f8d1b8af112","system_id":"levelo_inurba_marseille","lat":43.290995,"lon":5.381361,"is_reserved":false,"is_disabled":false,"rental_uris":{"android":"levelo://app?vid=127c15da-f932-43ac-b394-8f8d1b8af112","ios":"levelo://app?vid=127c15da-f932-43ac-b394-8f8d1b8af112"},"vehicle_type_id":"4","last_reported":1721682459,"current_range_meters":20800,"station_id":"ce4bh512rcd13ifvqe2g","pricing_plan_id":"cebpf4jnsgd1na2vs0mg"},{"bike_id":"0d5fb5e9-47f9-45bd-bbd6-ee78224f252f","system_id":"levelo_inurba_marseille","lat":43.297807,"lon":5.393533,"is_reserved":false,"is_disabled":false,"rental_uris":{"android":"levelo://app?vid=0d5fb5e9-47f9-45bd-bbd6-ee78224f252f","ios":"levelo://app?vid=0d5fb5e9-47f9-45bd-bbd6-ee78224f252f"},"vehicle_type_id":"4","last_reported":1721682459,"current_range_meters":19200,"station_id":"chh1huq6cuj3fo74tm60","pricing_plan_id":"cebpf4jnsgd1na2vs0mg"},{"bike_id":"9f289b9a-9178-492c-97a8-42aa7cb8fa34","system_id":"levelo_inurba_marseille","lat":43.297807,"lon":5.393533,"is_reserved":false,"is_disabled":false,"rental_uris":{"android":"levelo://app?vid=9f289b9a-9178-492c-97a8-42aa7cb8fa34","ios":"levelo://app?vid=9f289b9a-9178-492c-97a8-42aa7cb8fa34"},"vehicle_type_id":"4","last_reported":1721682459,"current_range_meters":10000,"station_id":"chh1huq6cuj3fo74tm60","pricing_plan_id":"cebpf4jnsgd1na2vs0mg"},{"bike_id":"fcc6a6e4-e87c-4457-bab0-00706ea639b6","system_id":"levelo_inurba_marseille","lat":43.297807,"lon":5.393533,"is_reserved":false,"is_disabled":false,"rental_uris":{"android":"levelo://app?vid=fcc6a6e4-e87c-4457-bab0-00706ea639b6","ios":"levelo://app?vid=fcc6a6e4-e87c-4457-bab0-00706ea639b6"},"vehicle_type_id":"4","last_reported":1721682459,"current_range_meters":15200,"station_id":"chh1huq6cuj3fo74tm60","pricing_plan_id":"cebpf4jnsgd1na2vs0mg"},{"bike_id":"8e0ae84f-e122-4068-b106-7a82d22680cc","system_id":"levelo_inurba_marseille","lat":43.295169,"lon":5.390426,"is_reserved":false,"is_disabled":false,"rental_uris":{"android":"levelo://app?vid=8e0ae84f-e122-4068-b106-7a82d22680cc","ios":"levelo://app?vid=8e0ae84f-e122-4068-b106-7a82d22680cc"},"vehicle_type_id":"4","last_reported":1721682459,"current_range_meters":24800,"station_id":"ce4bh3p2rcd13ifvqdp0","pricing_plan_id":"cebpf4jnsgd1na2vs0mg"},{"bike_id":"3b28b090-f03e-4d97-b70e-fb7575b4bdf7","system_id":"levelo_inurba_marseille","lat":43.297807,"lon":5.393533,"is_reserved":false,"is_disabled":false,"rental_uris":{"android":"levelo://app?vid=3b28b090-f03e-4d97-b70e-fb7575b4bdf7","ios":"levelo://app?vid=3b28b090-f03e-4d97-b70e-fb7575b4bdf7"},"vehicle_type_id":"4","last_reported":1721682459,"current_range_meters":12400,"station_id":"chh1huq6cuj3fo74tm60","pricing_plan_id":"cebpf4jnsgd1na2vs0mg"},{"bike_id":"e0f9995e-cc8b-47fb-a0c3-dfa4109bf2c1","system_id":"levelo_inurba_marseille","lat":43.297807,"lon":5.393533,"is_reserved":false,"is_disabled":false,"rental_uris":{"android":"levelo://app?vid=e0f9995e-cc8b-47fb-a0c3-dfa4109bf2c1","ios":"levelo://app?vid=e0f9995e-cc8b-47fb-a0c3-dfa4109bf2c1"},"vehicle_type_id":"4","last_reported":1721682459,"current_range_meters":8800,"station_id":"chh1huq6cuj3fo74tm60","pricing_plan_id":"cebpf4jnsgd1na2vs0mg"},{"bike_id":"414baf20-75c6-4bc8-bbda-04f163dc4c91","system_id":"levelo_inurba_marseille","lat":43.297815,"lon":5.393548,"is_reserved":false,"is_disabled":false,"rental_uris":{"android":"levelo://app?vid=414baf20-75c6-4bc8-bbda-04f163dc4c91","ios":"levelo://app?vid=414baf20-75c6-4bc8-bbda-04f163dc4c91"},"vehicle_type_id":"4","last_reported":1721682459,"current_range_meters":16000,"station_id":"chh1huq6cuj3fo74tm60","pricing_plan_id":"cebpf4jnsgd1na2vs0mg"},{"bike_id":"e3a94db4-0088-4c6c-b921-9c7de04efd17","system_id":"levelo_inurba_marseille","lat":43.33017,"lon":5.39043,"is_reserved":false,"is_disabled":false,"rental_uris":{"android":"levelo://app?vid=e3a94db4-0088-4c6c-b921-9c7de04efd17","ios":"levelo://app?vid=e3a94db4-0088-4c6c-b921-9c7de04efd17"},"vehicle_type_id":"4","last_reported":1721682459,"current_range_meters":26400,"station_id":"ce4bhr92rcd13ifvqhrg","pricing_plan_id":"cebpf4jnsgd1na2vs0mg"},{"bike_id":"4984ed49-a836-4df2-a11c-2e1594f6c169","system_id":"levelo_inurba_marseille","lat":43.29346,"lon":5.38752,"is_reserved":false,"is_disabled":false,"rental_uris":{"android":"levelo://app?vid=4984ed49-a836-4df2-a11c-2e1594f6c169","ios":"levelo://app?vid=4984ed49-a836-4df2-a11c-2e1594f6c169"},"vehicle_type_id":"4","last_reported":1721682459,"current_range_meters":18800,"station_id":"","pricing_plan_id":"cebpf4jnsgd1na2vs0mg"},{"bike_id":"2d9fd8e9-319a-4d26-8df8-1ceea6c4cbf2","system_id":"levelo_inurba_marseille","lat":43.297815,"lon":5.393548,"is_reserved":false,"is_disabled":false,"rental_uris":{"android":"levelo://app?vid=2d9fd8e9-319a-4d26-8df8-1ceea6c4cbf2","ios":"levelo://app?vid=2d9fd8e9-319a-4d26-8df8-1ceea6c4cbf2"},"vehicle_type_id":"4","last_reported":1721682459,"current_range_meters":1600,"station_id":"chh1huq6cuj3fo74tm60","pricing_plan_id":"cebpf4jnsgd1na2vs0mg"},{"bike_id":"3927830c-41ee-4303-97da-cc60f306daef","system_id":"levelo_inurba_marseille","lat":43.295169,"lon":5.390426,"is_reserved":false,"is_disabled":false,"rental_uris":{"android":"levelo://app?vid=3927830c-41ee-4303-97da-cc60f306daef","ios":"levelo://app?vid=3927830c-41ee-4303-97da-cc60f306daef"},"vehicle_type_id":"4","last_reported":1721682459,"current_range_meters":18000,"station_id":"ce4bh3p2rcd13ifvqdp0","pricing_plan_id":"cebpf4jnsgd1na2vs0mg"},{"bike_id":"c5953155-1648-41c1-bb06-ae8123b9d6c1","system_id":"levelo_inurba_marseille","lat":43.297815,"lon":5.393548,"is_reserved":false,"is_disabled":false,"rental_uris":{"android":"levelo://app?vid=c5953155-1648-41c1-bb06-ae8123b9d6c1","ios":"levelo://app?vid=c5953155-1648-41c1-bb06-ae8123b9d6c1"},"vehicle_type_id":"4","last_reported":1721682459,"current_range_meters":17600,"station_id":"chh1huq6cuj3fo74tm60","pricing_plan_id":"cebpf4jnsgd1na2vs0mg"},{"bike_id":"8cc2d4e0-65ce-437f-9026-a151232e7f3d","system_id":"levelo_inurba_marseille","lat":43.330442,"lon":5.389148,"is_reserved":false,"is_disabled":false,"rental_uris":{"android":"levelo://app?vid=8cc2d4e0-65ce-437f-9026-a151232e7f3d","ios":"levelo://app?vid=8cc2d4e0-65ce-437f-9026-a151232e7f3d"},"vehicle_type_id":"4","last_reported":1721682459,"current_range_meters":4800,"station_id":"ce4bhr92rcd13ifvqhrg","pricing_plan_id":"cebpf4jnsgd1na2vs0mg"},{"bike_id":"2ad690e5-bf65-494f-a58c-cb1b1162e5be","system_id":"levelo_inurba_marseille","lat":43.330442,"lon":5.389148,"is_reserved":false,"is_disabled":false,"rental_uris":{"android":"levelo://app?vid=2ad690e5-bf65-494f-a58c-cb1b1162e5be","ios":"levelo://app?vid=2ad690e5-bf65-494f-a58c-cb1b1162e5be"},"vehicle_type_id":"4","last_reported":1721682459,"current_range_meters":8000,"station_id":"ce4bhr92rcd13ifvqhrg","pricing_plan_id":"cebpf4jnsgd1na2vs0mg"},{"bike_id":"c9fe1cf3-3767-44d5-a998-27ff3b8f0972","system_id":"levelo_inurba_marseille","lat":43.295169,"lon":5.390426,"is_reserved":false,"is_disabled":false,"rental_uris":{"android":"levelo://app?vid=c9fe1cf3-3767-44d5-a998-27ff3b8f0972","ios":"levelo://app?vid=c9fe1cf3-3767-44d5-a998-27ff3b8f0972"},"vehicle_type_id":"4","last_reported":1721682459,"current_range_meters":19600,"station_id":"ce4bh3p2rcd13ifvqdp0","pricing_plan_id":"cebpf4jnsgd1na2vs0mg"},{"bike_id":"0cf8f719-fdd9-472e-902b-f5d50ce43ff5","system_id":"levelo_inurba_marseille","lat":43.330442,"lon":5.389148,"is_reserved":false,"is_disabled":false,"rental_uris":{"android":"levelo://app?vid=0cf8f719-fdd9-472e-902b-f5d50ce43ff5","ios":"levelo://app?vid=0cf8f719-fdd9-472e-902b-f5d50ce43ff5"},"vehicle_type_id":"4","last_reported":1721682459,"current_range_meters":0,"station_id":"ce4bhr92rcd13ifvqhrg","pricing_plan_id":"cebpf4jnsgd1na2vs0mg"},{"bike_id":"aa9ffb81-7fec-409e-9812-41b207f58c98","system_id":"levelo_inurba_marseille","lat":43.2901,"lon":5.381269,"is_reserved":false,"is_disabled":false,"rental_uris":{"android":"levelo://app?vid=aa9ffb81-7fec-409e-9812-41b207f58c98","ios":"levelo://app?vid=aa9ffb81-7fec-409e-9812-41b207f58c98"},"vehicle_type_id":"4","last_reported":1721682459,"current_range_meters":0,"station_id":"ce4bh4p2rcd13ifvqe1g","pricing_plan_id":"cebpf4jnsgd1na2vs0mg"},{"bike_id":"9f05d5da-a394-4681-9001-0d91fad21df2","system_id":"levelo_inurba_marseille","lat":43.29028,"lon":5.38137,"is_reserved":false,"is_disabled":false,"rental_uris":{"android":"levelo://app?vid=9f05d5da-a394-4681-9001-0d91fad21df2","ios":"levelo://app?vid=9f05d5da-a394-4681-9001-0d91fad21df2"},"vehicle_type_id":"4","last_reported":1721682459,"current_range_meters":0,"station_id":"ce4bh4p2rcd13ifvqe1g","pricing_plan_id":"cebpf4jnsgd1na2vs0mg"},{"bike_id":"0a8f0b71-3b8a-478c-b898-151a8ae8ec34","system_id":"levelo_inurba_marseille","lat":43.312609,"lon":5.401662,"is_reserved":false,"is_disabled":false,"rental_uris":{"android":"levelo://app?vid=0a8f0b71-3b8a-478c-b898-151a8ae8ec34","ios":"levelo://app?vid=0a8f0b71-3b8a-478c-b898-151a8ae8ec34"},"vehicle_type_id":"4","last_reported":1721682459,"current_range_meters":4800,"station_id":"ce4bh092rcd13ifvqd30","pricing_plan_id":"cebpf4jnsgd1na2vs0mg"},{"bike_id":"f7f7470c-6928-49e0-bc93-b44960bce1ca","system_id":"levelo_inurba_marseille","lat":43.306412,"lon":5.401035,"is_reserved":false,"is_disabled":false,"rental_uris":{"android":"levelo://app?vid=f7f7470c-6928-49e0-bc93-b44960bce1ca","ios":"levelo://app?vid=f7f7470c-6928-49e0-bc93-b44960bce1ca"},"vehicle_type_id":"4","last_reported":1721682459,"current_range_meters":27600,"station_id":"ce4bh112rcd13ifvqda0","pricing_plan_id":"cebpf4jnsgd1na2vs0mg"},{"bike_id":"0e299ba1-3911-4286-98f0-56799e97de85","system_id":"levelo_inurba_marseille","lat":43.309371,"lon":5.401449,"is_reserved":false,"is_disabled":false,"rental_uris":{"android":"levelo://app?vid=0e299ba1-3911-4286-98f0-56799e97de85","ios":"levelo://app?vid=0e299ba1-3911-4286-98f0-56799e97de85"},"vehicle_type_id":"4","last_reported":1721682459,"current_range_meters":1600,"station_id":"ce4bgvp2rcd13ifvqct0","pricing_plan_id":"cebpf4jnsgd1na2vs0mg"},{"bike_id":"192a866a-6f86-404d-812c-31129be9ed74","system_id":"levelo_inurba_marseille","lat":43.33744,"lon":5.37451,"is_reserved":false,"is_disabled":false,"rental_uris":{"android":"levelo://app?vid=192a866a-6f86-404d-812c-31129be9ed74","ios":"levelo://app?vid=192a866a-6f86-404d-812c-31129be9ed74"},"vehicle_type_id":"4","last_reported":1721682459,"current_range_meters":26400,"station_id":"","pricing_plan_id":"cebpf4jnsgd1na2vs0mg"},