{"last_updated":1729516709,"ttl":60,"version":"2.2","data":{"bikes":[{"bike_id":"19e203a1-af04-4015-ada8-c116786a4201","system_id":"levelo_inurba_marseille","lat":43.29848,"lon":5.3628,"is_reserved":false,"is_disabled":false,"rental_uris":{"android":"levelo://app?vid=19e203a1-af04-4015-ada8-c116786a4201","ios":"levelo://app?vid=19e203a1-af04-4015-ada8-c116786a4201"},"vehicle_type_id":"4","last_reported":1729516709,"current_range_meters":27600,"station_id":"","pricing_plan_id":"cebpf4jnsgd1na2vs0mg"},{"bike_id":"87c05401-8be0-47bc-975b-c4cc932e0584","system_id":"levelo_inurba_marseille","lat":43.24074,"lon":5.37753,"is_reserved":false,"is_disabled":false,"rental_uris":{"android":"levelo://app?vid=87c05401-8be0-47bc-975b-c4cc932e0584","ios":"levelo://app?vid=87c05401-8be0-47bc-975b-c4cc932e0584"},"vehicle_type_id":"4","last_reported":1729516709,"current_range_meters":32400,"station_id":"ce4bhnp2rcd13ifvqgvg","pricing_plan_id":"cebpf4jnsgd1na2vs0mg"},{"bike_id":"1e9ed0ec-5aa0-45e6-9929-4276c349e4b3","system_id":"levelo_inurba_marseille","lat":43.27616,"lon":5.36116,"is_reserved":false,"is_disabled":false,"rental_uris":{"android":"levelo://app?vid=1e9ed0ec-5aa0-45e6-9929-4276c349e4b3","ios":"levelo://app?vid=1e9ed0ec-5aa0-45e6-9929-4276c349e4b3"},"vehicle_type_id":"4","last_reported":1729516709,"current_range_meters":38000,"station_id":"ce4bgj92rcd13ifvqbe0","pricing_plan_id":"cebpf4jnsgd1na2vs0mg"},{"bike_id":"a057fcc1-7013-42ba-ac01-60ff0a17fd6d","system_id":"levelo_inurba_marseille","lat":43.27619,"lon":5.361,"is_reserved":false,"is_disabled":false,"rental_uris":{"android":"levelo://app?vid=a057fcc1-7013-42ba-ac01-60ff0a17fd6d","ios":"levelo://app?vid=a057fcc1-7013-42ba-ac01-60ff0a17fd6d"},"vehicle_type_id":"4","last_reported":1729516709,"current_range_meters":22800,"station_id":"ce4bgj92rcd13ifvqbe0","pricing_plan_id":"cebpf4jnsgd1na2vs0mg"},{"bike_id":"2dafb146-5e49-473c-84df-c1f90990cd49","system_id":"levelo_inurba_marseille","lat":43.26574,"lon":5.38978,"is_reserved":false,"is_disabled":false,"rental_uris":{"android":"levelo://app?vid=2dafb146-5e49-473c-84df-c1f90990cd49","ios":"levelo://app?vid=2dafb146-5e49-473c-84df-c1f90990cd49"},"vehicle_type_id":"4","last_reported":1729516709,"current_range_meters":36000,"station_id":"ce4bhe12rcd13ifvqf30","pricing_plan_id":"cebpf4jnsgd1na2vs0mg"},{"bike_id":"71726726-84f1-44e6-8830-f99957db47bc","system_id":"levelo_inurba_marseille","lat":43.30904,"lon":5.36862,"is_reserved":false,"is_disabled":false,"rental_uris":{"android":"levelo://app?vid=71726726-84f1-44e6-8830-f99957db47bc","ios":"levelo://app?vid=71726726-84f1-44e6-8830-f99957db47bc"},"vehicle_type_id":"4","last_reported":1729516709,"current_range_meters":38800,"station_id":"ce4bgn92rcd13ifvqbvg","pricing_plan_id":"cebpf4jnsgd1na2vs0mg"},{"bike_id":"c4edc239-88bb-4227-93e5-75ede50a7249","system_id":"levelo_inurba_marseille","lat":43.2315,"lon":5.4371,"is_reserved":false,"is_disabled":false,"rental_uris":{"android":"levelo://app?vid=c4edc239-88bb-4227-93e5-75ede50a7249","ios":"levelo://app?vid=c4edc239-88bb-4227-93e5-75ede50a7249"},"vehicle_type_id":"4","last_reported":1729516709,"current_range_meters":7200,"station_id":"ce4bhmp2rcd13ifvqgog","pricing_plan_id":"cebpf4jnsgd1na2vs0mg"},{"bike_id":"53b5cfa9-cea2-44a2-a93f-ffe40df82b23","system_id":"levelo_inurba_marseille","lat":43.28419,"lon":5.349874,"is_reserved":false,"is_disabled":false,"rental_uris":{"android":"levelo://app?vid=53b5cfa9-cea2-44a2-a93f-ffe40df82b23","ios":"levelo://app?vid=53b5cfa9-cea2-44a2-a93f-ffe40df82b23"},"vehicle_type_id":"4","last_reported":1729516709,"current_range_meters":40000,"station_id":"ce4bhbh2rcd13ifvqepg","pricing_plan_id":"cebpf4jnsgd1na2vs0mg"},{"bike_id":"016c28d7-8210-49a8-b034-8a2889752202","system_id":"levelo_inurba_marseille","lat":43.34145,"lon":5.40908,"is_reserved":false,"is_disabled":false,"rental_uris":{"android":"levelo://app?vid=016c28d7-8210-49a8-b034-8a2889752202","ios":"levelo://app?vid=016c28d7-8210-49a8-b034-8a2889752202"},"vehicle_type_id":"4","last_reported":1729516709,"current_range_meters":40000,"station_id":"ce4bhqh2rcd13ifvqhlg","pricing_plan_id":"cebpf4jnsgd1na2vs0mg"},{"bike_id":"1229fa61-6299-422c-af02-e930ab349b8a","system_id":"levelo_inurba_marseille","lat":43.24545,"lon":5.39526,"is_reserved":false,"is_disabled":false,"rental_uris":{"android":"levelo://app?vid=1229fa61-6299-422c-af02-e930ab349b8a","ios":"levelo://app?vid=1229fa61-6299-422c-af02-e930ab349b8a"},"vehicle_type_id":"4","last_reported":1729516709,"current_range_meters":37600,"station_id":"ce4bhlp2rcd13ifvqgjg","pricing_plan_id":"cebpf4jnsgd1na2vs0mg"},{"bike_id":"1d373fea-4cb1-41b0-80ee-d54b0deb53ed","system_id":"levelo_inurba_marseille","lat":43.29529,"lon":5.37515,"is_reserved":false,"is_disabled":false,"rental_uris":{"android":"levelo://app?vid=1d373fea-4cb1-41b0-80ee-d54b0deb53ed","ios":"levelo://app?vid=1d373fea-4cb1-41b0-80ee-d54b0deb53ed"},"vehicle_type_id":"4","last_reported":1729516709,"current_range_meters":11600,"station_id":"ce4bgkp2rcd13ifvqbmg","pricing_plan_id":"cebpf4jnsgd1na2vs0mg"},{"bike_id":"236a8e87-1161-49c9-bc06-b5cc479f282d","system_id":"levelo_inurba_marseille","lat":43.30546,"lon":5.36531,"is_reserved":false,"is_disabled":false,"rental_uris":{"android":"levelo://app?vid=236a8e87-1161-49c9-bc06-b5cc479f282d","ios":"levelo://app?vid=236a8e87-1161-49c9-bc06-b5cc479f282d"},"vehicle_type_id":"4","last_reported":1729516709,"current_range_meters":25600,"station_id":"ce4bgs12rcd13ifvqcag","pricing_plan_id":"cebpf4jnsgd1na2vs0mg"},{"bike_id":"8a1d499b-8a68-407b-accb-f578eb4f6527","system_id":"levelo_inurba_marseille","lat":43.34147,"lon":5.40906,"is_reserved":false,"is_disabled":false,"rental_uris":{"android":"levelo://app?vid=8a1d499b-8a68-407b-accb-f578eb4f6527","ios":"levelo://app?vid=8a1d499b-8a68-407b-accb-f578eb4f6527"},"vehicle_type_id":"4","last_reported":1729516709,"current_range_meters":20000,"station_id":"ce4bhqh2rcd13ifvqhlg","pricing_plan_id":"cebpf4jnsgd1na2vs0mg"},{"bike_id":"5fc63107-5e8c-4817-8f73-0f8c1165771e","system_id":"levelo_inurba_marseille","lat":43.25087,"lon":5.39517,"is_reserved":false,"is_disabled":false,"rental_uris":{"android":"levelo://app?vid=5fc63107-5e8c-4817-8f73-0f8c1165771e","ios":"levelo://app?vid=5fc63107-5e8c-4817-8f73-0f8c1165771e"},"vehicle_type_id":"4","last_reported":1729516709,"current_range_meters":21600,"station_id":"ce4bhm12rcd13ifvqgkg","pricing_plan_id":"cebpf4jnsgd1na2vs0mg"},{"bike_id":"b3be6f29-592b-420e-92e4-ce3484dbaf5c","system_id":"levelo_inurba_marseille","lat":43.30546,"lon":5.38425,"is_reserved":false,"is_disabled":false,"rental_uris":{"android":"levelo://app?vid=b3be6f29-592b-420e-92e4-ce3484dbaf5c","ios":"levelo://app?vid=b3be6f29-592b-420e-92e4-ce3484dbaf5c"},"vehicle_type_id":"4","last_reported":1729516709,"current_range_meters":22800,"station_id":"ce4bgg92rcd13ifvqb30","pricing_plan_id":"cebpf4jnsgd1na2vs0mg"},{"bike_id":"7c3f5388-3b98-4db9-a8d0-2448c30e5869","system_id":"levelo_inurba_marseille","lat":43.22936,"lon":5.35373,"is_reserved":false,"is_disabled":false,"rental_uris":{"android":"levelo://app?vid=7c3f5388-3b98-4db9-a8d0-2448c30e5869","ios":"levelo://app?vid=7c3f5388-3b98-4db9-a8d0-2448c30e5869"},"vehicle_type_id":"4","last_reported":1729516709,"current_range_meters":16400,"station_id":"cpo3532slgdg3j2ikp40","pricing_plan_id":"cebpf4jnsgd1na2vs0mg"},{"bike_id":"90d0a30d-d8ba-4efd-aaed-ac9568950921","system_id":"levelo_inurba_marseille","lat":43.27422,"lon":5.39413,"is_reserved":false,"is_disabled":false,"rental_uris":{"android":"levelo://app?vid=90d0a30d-d8ba-4efd-aaed-ac9568950921","ios":"levelo://app?vid=90d0a30d-d8ba-4efd-aaed-ac9568950921"},"vehicle_type_id":"4","last_reported":1729516709,"current_range_meters":8400,"station_id":"ce4bhdp2rcd13ifvqf20","pricing_plan_id":"cebpf4jnsgd1na2vs0mg"},{"bike_id":"58510af5-a163-4c21-8dab-0742bd6f63af","system_id":"levelo_inurba_marseille","lat":43.28421,"lon":5.37516,"is_reserved":false,"is_disabled":false,"rental_uris":{"android":"levelo://app?vid=58510af5-a163-4c21-8dab-0742bd6f63af","ios":"levelo://app?vid=58510af5-a163-4c21-8dab-0742bd6f63af"},"vehicle_type_id":"4","last_reported":1729516709,"current_range_meters":17200,"station_id":"ce4bh412rcd13ifvqds0","pricing_plan_id":"cebpf4jnsgd1na2vs0mg"},{"bike_id":"0fb1abc2-c7af-4de7-8060-63d371a9df9e","system_id":"levelo_inurba_marseille","lat":43.26203,"lon":5.37927,"is_reserved":false,"is_disabled":false,"rental_uris":{"android":"levelo://app?vid=0fb1abc2-c7af-4de7-8060-63d371a9df9e","ios":"levelo://app?vid=0fb1abc2-c7af-4de7-8060-63d371a9df9e"},"vehicle_type_id":"4","last_reported":1729516709,"current_range_meters":38800,"station_id":"ce4bhjp2rcd13ifvqg90","pricing_plan_id":"cebpf4jnsgd1na2vs0mg"},{"bike_id":"12bea866-6436-4c57-9993-4f602ccc7b3c","system_id":"levelo_inurba_marseille","lat":43.22928,"lon":5.35377,"is_reserved":false,"is_disabled":false,"rental_uris":{"android":"levelo://app?vid=12bea866-6436-4c57-9993-4f602ccc7b3c","ios":"levelo://app?vid=12bea866-6436-4c57-9993-4f602ccc7b3c"},"vehicle_type_id":"4","last_reported":1729516709,"current_range_meters":38000,"station_id":"cpo3532slgdg3j2ikp40","pricing_plan_id":"cebpf4jnsgd1na2vs0mg"},{"bike_id":"1cf599ce-73d4-436c-a0a1-c8ef2b459924","system_id":"levelo_inurba_marseille","lat":43.30912,"lon":5.36853,"is_reserved":false,"is_disabled":false,"rental_uris":{"android":"levelo://app?vid=1cf599ce-73d4-436c-a0a1-c8ef2b459924","ios":"levelo://app?vid=1cf599ce-73d4-436c-a0a1-c8ef2b459924"},"vehicle_type_id":"4","last_reported":1729516709,"current_range_meters":30800,"station_id":"ce4bgn92rcd13ifvqbvg","pricing_plan_id":"cebpf4jnsgd1na2vs0mg"},{"bike_id":"925701a7-9b39-4686-b556-cce6eeae266d","system_id":"levelo_inurba_marseille","lat":43.31386,"lon":5.36745,"is_reserved":false,"is_disabled":false,"rental_uris":{"android":"levelo://app?vid=925701a7-9b39-4686-b556-cce6eeae266d","ios":"levelo://app?vid=925701a7-9b39-4686-b556-cce6eeae266d"},"vehicle_type_id":"4","last_reported":1729516709,"current_range_meters":28000,"station_id":"","pricing_plan_id":"cebpf4jnsgd1na2vs0mg"},{"bike_id":"f4d776ae-8291-4b24-a39f-2938bc3ccb48","system_id":"levelo_inurba_marseille","lat":43.24082,"lon":5.37753,"is_reserved":false,"is_disabled":false,"rental_uris":{"android":"levelo://app?vid=f4d776ae-8291-4b24-a39f-2938bc3ccb48","ios":"levelo://app?vid=f4d776ae-8291-4b24-a39f-2938bc3ccb48"},"vehicle_type_id":"4","last_reported":1729516709,"current_range_meters":26800,"station_id":"ce4bhnp2rcd13ifvqgvg","pricing_plan_id":"cebpf4jnsgd1na2vs0mg"},{"bike_id":"41da4b07-db10-4bd8-bb59-3aa5baaf8c10","system_id":"levelo_inurba_marseille","lat":43.26211,"lon":5.37438,"is_reserved":false,"is_disabled":false,"rental_uris":{"android":"levelo://app?vid=41da4b07-db10-4bd8-bb59-3aa5baaf8c10","ios":"levelo://app?vid=41da4b07-db10-4bd8-bb59-3aa5baaf8c10"},"vehicle_type_id":"4","last_reported":1729516709,"current_range_meters":30400,"station_id":"ce4bhgp2rcd13ifvqfc0","pricing_plan_id":"cebpf4jnsgd1na2vs0mg"},{"bike_id":"80fd55c6-89dd-483d-9c04-4537ff74de13","system_id":"levelo_inurba_marseille","lat":43.28598,"lon":5.38416,"is_reserved":false,"is_disabled":false,"rental_uris":{"android":"levelo://app?vid=80fd55c6-89dd-483d-9c04-4537ff74de13","ios":"levelo://app?vid=80fd55c6-89dd-483d-9c04-4537ff74de13"},"vehicle_type_id":"4","last_reported":1729516709,"current_range_meters":29600,"station_id":"","pricing_plan_id":"cebpf4jnsgd1na2vs0mg"},{"bike_id":"885ac4a7-7dad-4016-a286-f6c226180f64","system_id":"levelo_inurba_marseille","lat":43.23199,"lon":5.35554,"is_reserved":false,"is_disabled":false,"rental_uris":{"android":"levelo://app?vid=885ac4a7-7dad-4016-a286-f6c226180f64","ios":"levelo://app?vid=885ac4a7-7dad-4016-a286-f6c226180f64"},"vehicle_type_id":"4","last_reported":1729516709,"current_range_meters":35200,"station_id":"ce4bhu92rcd13ifvqi70","pricing_plan_id":"cebpf4jnsgd1na2vs0mg"},{"bike_id":"e7e111d4-39cb-497c-8c7f-fa9abefbac4a","system_id":"levelo_inurba_marseille","lat":43.29374,"lon":5.37842,"is_reserved":false,"is_disabled":false,"rental_uris":{"android":"levelo://app?vid=e7e111d4-39cb-497c-8c7f-fa9abefbac4a","ios":"levelo://app?vid=e7e111d4-39cb-497c-8c7f-fa9abefbac4a"},"vehicle_type_id":"4","last_reported":1729516709,"current_range_meters":36400,"station_id":"ce4bgjh2rcd13ifvqbf0","pricing_plan_id":"cebpf4jnsgd1na2vs0mg"},{"bike_id":"a1489b30-e2cd-465d-a3b1-63964b256b98","system_id":"levelo_inurba_marseille","lat":43.28426,"lon":5.34991,"is_reserved":false,"is_disabled":false,"rental_uris":{"android":"levelo://app?vid=a1489b30-e2cd-465d-a3b1-63964b256b98","ios":"levelo://app?vid=a1489b30-e2cd-465d-a3b1-63964b256b98"},"vehicle_type_id":"4","last_reported":1729516709,"current_range_meters":19600,"station_id":"ce4bhbh2rcd13ifvqepg","pricing_plan_id":"cebpf4jnsgd1na2vs0mg"},{"bike_id":"38618ba4-c3f2-4dde-9e38-44a2fc7cc4e1","system_id":"levelo_inurba_marseille","lat":43.2914,"lon":5.38627,"is_reserved":false,"is_disabled":false,"rental_uris":{"android":"levelo://app?vid=38618ba4-c3f2-4dde-9e38-44a2fc7cc4e1","ios":"levelo://app?vid=38618ba4-c3f2-4dde-9e38-44a2fc7cc4e1"},"vehicle_type_id":"4","last_reported":1729516709,"current_range_meters":24800,"station_id":"","pricing_plan_id":"cebpf4jnsgd1na2vs0mg"},{"bike_id":"85bc5aea-df0f-4bae-9033-16ea6747d3a4","system_id":"levelo_inurba_marseille","lat":43.27203,"lon":5.36259,"is_reserved":false,"is_disabled":false,"rental_uris":{"android":"levelo://app?vid=85bc5aea-df0f-4bae-9033-16ea6747d3a4","ios":"levelo://app?vid=85bc5aea-df0f-4bae-9033-16ea6747d3a4"},"vehicle_type_id":"4","last_reported":1729516709,"current_range_meters":6400,"station_id":"ce4bhbh2rcd13ifvqeo0","pricing_plan_id":"cebpf4jnsgd1na2vs0mg"},{"bike_id":"5c1388e3-d465-4a7a-8a46-663e3c7129b2","system_id":"levelo_inurba_marseille","lat":43.33022,"lon":5.39046,"is_reserved":false,"is_disabled":false,"rental_uris":{"android":"levelo://app?vid=5c1388e3-d465-4a7a-8a46-663e3c7129b2","ios":"levelo://app?vid=5c1388e3-d465-4a7a-8a46-663e3c7129b2"},"vehicle_type_id":"4","last_reported":1729516709,"current_range_meters":36400,"station_id":"ce4bhr92rcd13ifvqhrg","pricing_plan_id":"cebpf4jnsgd1na2vs0mg"},{"bike_id":"006a3858-1240-4195-a2b0-41376ee673a5","system_id":"levelo_inurba_marseille","lat":43.337444,"lon":5.374475,"is_reserved":false,"is_disabled":false,"rental_uris":{"android":"levelo://app?vid=006a3858-1240-4195-a2b0-41376ee673a5","ios":"levelo://app?vid=006a3858-1240-4195-a2b0-41376ee673a5"},"vehicle_type_id":"4","last_reported":1729516709,"current_range_meters":32400,"station_id":"ce4bhq12rcd13ifvqhig","pricing_plan_id":"cebpf4jnsgd1na2vs0mg"},{"bike_id":"17a9ea24-a710-45a4-9bf0-91a75aca0687","system_id":"levelo_inurba_marseille","lat":43.28417,"lon":5.34973,"is_reserved":false,"is_disabled":false,"rental_uris":{"android":"levelo://app?vid=17a9ea24-a710-45a4-9bf0-91a75aca0687","ios":"levelo://app?vid=17a9ea24-a710-45a4-9bf0-91a75aca0687"},"vehicle_type_id":"4","last_reported":1729516709,"current_range_meters":28400,"station_id":"ce4bhbh2rcd13ifvqepg","pricing_plan_id":"cebpf4jnsgd1na2vs0mg"},{"bike_id":"e9691677-951d-4a84-b6c9-b8d2ad7f90e6","system_id":"levelo_inurba_marseille","lat":43.29845,"lon":5.36275,"is_reserved":false,"is_disabled":false,"rental_uris":{"android":"levelo://app?vid=e9691677-951d-4a84-b6c9-b8d2ad7f90e6","ios":"levelo://app?vid=e9691677-951d-4a84-b6c9-b8d2ad7f90e6"},"vehicle_type_id":"4","last_reported":1729516709,"current_range_meters":38000,"station_id":"ce4bgpp2rcd13ifvqc3g","pricing_plan_id":"cebpf4jnsgd1na2vs0mg"},{"bike_id":"68283360-741a-419e-809c-1a2252a47210","system_id":"levelo_inurba_marseille","lat":43.26565,"lon":5.39009,"is_reserved":false,"is_disabled":false,"rental_uris":{"android":"levelo://app?vid=68283360-741a-419e-809c-1a2252a47210","ios":"levelo://app?vid=68283360-741a-419e-809c-1a2252a47210"},"vehicle_type_id":"4","last_reported":1729516709,"current_range_meters":14400,"station_id":"ce4bhe12rcd13ifvqf30","pricing_plan_id":"cebpf4jnsgd1na2vs0mg"},{"bike_id":"b1474596-6dff-4337-bb74-03a0e36155f5","system_id":"levelo_inurba_marseille","lat":43.27995,"lon":5.40022,"is_reserved":false,"is_disabled":false,"rental_uris":{"android":"levelo://app?vid=b1474596-6dff-4337-bb74-03a0e36155f5","ios":"levelo://app?vid=b1474596-6dff-4337-bb74-03a0e36155f5"},"vehicle_type_id":"4","last_reported":1729516709,"current_range_meters":3200,"station_id":"ce4bho92rcd13ifvqh4g","pricing_plan_id":"cebpf4jnsgd1na2vs0mg"},{"bike_id":"19c81204-95af-4ffd-992f-3fbd08cd36b1","system_id":"levelo_inurba_marseille","lat":43.25121,"lon":5.4032,"is_reserved":false,"is_disabled":false,"rental_uris":{"android":"levelo://app?vid=19c81204-95af-4ffd-992f-3fbd08cd36b1","ios":"levelo://app?vid=19c81204-95af-4ffd-992f-3fbd08cd36b1"},"vehicle_type_id":"4","last_reported":1729516709,"current_range_meters":17200,"station_id":"ce4bhlh2rcd13ifvqgig","pricing_plan_id":"cebpf4jnsgd1na2vs0mg"},{"bike_id":"07c34dd6-c563-4e2e-9a0c-fbf876d7347a","system_id":"levelo_inurba_marseille","lat":43.28423,"lon":5.34984,"is_reserved":false,"is_disabled":false,"rental_uris":{"android":"levelo://app?vid=07c34dd6-c563-4e2e-9a0c-fbf876d7347a","ios":"levelo://app?vid=07c34dd6-c563-4e2e-9a0c-fbf876d7347a"},"vehicle_type_id":"4","last_reported":1729516709,"current_range_meters":28800,"station_id":"ce4bhbh2rcd13ifvqepg","pricing_plan_id":"cebpf4jnsgd1na2vs0mg"},{"bike_id":"9b5e4046-e7d3-4535-bfac-d3199176c437","system_id":"levelo_inurba_marseille","lat":43.30794,"lon":5.38151,"is_reserved":false,"is_disabled":false,"rental_uris":{"android":"levelo://app?vid=9b5e4046-e7d3-4535-bfac-d3199176c437","ios":"levelo://app?vid=9b5e4046-e7d3-4535-bfac-d3199176c437"},"vehicle_type_id":"4","last_reported":1729516709,"current_range_meters":19200,"station_id":"ce4bgt12rcd13ifvqce0","pricing_plan_id":"cebpf4jnsgd1na2vs0mg"},{"bike_id":"35bf409d-13e3-4c38-ab0b-90ae4d4e6ffe","system_id":"levelo_inurba_marseille","lat":43.23153,"lon":5.4372,"is_reserved":false,"is_disabled":false,"rental_uris":{"android":"levelo://app?vid=35bf409d-13e3-4c38-ab0b-90ae4d4e6ffe","ios":"levelo://app?vid=35bf409d-13e3-4c38-ab0b-90ae4d4e6ffe"},"vehicle_type_id":"4","last_reported":1729516709,"current_range_meters":8400,"station_id":"ce4bhmp2rcd13ifvqgog","pricing_plan_id":"cebpf4jnsgd1na2vs0mg"},{"bike_id":"3c2e9290-6792-4e2d-b00d-712b965be0bd","system_id":"levelo_inurba_marseille","lat":43.26421,"lon":5.38689,"is_reserved":false,"is_disabled":false,"rental_uris":{"android":"levelo://app?vid=3c2e9290-6792-4e2d-b00d-712b965be0bd","ios":"levelo://app?vid=3c2e9290-6792-4e2d-b00d-712b965be0bd"},"vehicle_type_id":"4","last_reported":1729516709,"current_range_meters":14000,"station_id":"","pricing_plan_id":"cebpf4jnsgd1na2vs0mg"},{"bike_id":"462788be-48e7-4379-bc0e-0312feb0f5ad","system_id":"levelo_inurba_marseille","lat":43.33761,"lon":5.37439,"is_reserved":false,"is_disabled":false,"rental_uris":{"android":"levelo://app?vid=462788be-48e7-4379-bc0e-0312feb0f5ad","ios":"levelo://app?vid=462788be-48e7-4379-bc0e-0312feb0f5ad"},"vehicle_type_id":"4","last_reported":1729516709,"current_range_meters":4000,"station_id":"","pricing_plan_id":"cebpf4jnsgd1na2vs0mg"},{"bike_id":"6e366ae9-1e35-41ae-a3ed-16c744a163cd","system_id":"levelo_inurba_marseille","lat":43.29043,"lon":5.39958,"is_reserved":false,"is_disabled":false,"rental_uris":{"android":"levelo://app?vid=6e366ae9-1e35-41ae-a3ed-16c744a163cd","ios":"levelo://app?vid=6e366ae9-1e35-41ae-a3ed-16c744a163cd"},"vehicle_type_id":"4","last_reported":1729516709,"current_range_meters":28400,"station_id":"ce4bh392rcd13ifvqdm0","pricing_plan_id":"cebpf4jnsgd1na2vs0mg"},{"bike_id":"7785c850-9741-4dd2-b38b-f3577d3858a6","system_id":"levelo_inurba_marseille","lat":43.25933,"lon":5.40909,"is_reserved":false,"is_disabled":false,"rental_uris":{"android":"levelo://app?vid=7785c850-9741-4dd2-b38b-f3577d3858a6","ios":"levelo://app?vid=7785c850-9741-4dd2-b38b-f3577d3858a6"},"vehicle_type_id":"4","last_reported":1729516709,"current_range_meters":22000,"station_id":"ce4bhm92rcd13ifvqglg","pricing_plan_id":"cebpf4jnsgd1na2vs0mg"},{"bike_id":"c6656b5d-9372-427f-8161-f044d608ff70","system_id":"levelo_inurba_marseille","lat":43.24726,"lon":5.3822,"is_reserved":false,"is_disabled":false,"rental_uris":{"android":"levelo://app?vid=c6656b5d-9372-427f-8161-f044d608ff70","ios":"levelo://app?vid=c6656b5d-9372-427f-8161-f044d608ff70"},"vehicle_type_id":"4","last_reported":1729516709,"current_range_meters":17600,"station_id":"","pricing_plan_id":"cebpf4jnsgd1na2vs0mg"},{"bike_id":"5a7dc7e8-db82-4474-914c-fb03212b369c","system_id":"levelo_inurba_marseille","lat":43.32368,"lon":5.38883,"is_reserved":false,"is_disabled":false,"rental_uris":{"android":"levelo://app?vid=5a7dc7e8-db82-4474-914c-fb03212b369c","ios":"levelo://app?vid=5a7dc7e8-db82-4474-914c-fb03212b369c"},"vehicle_type_id":"4","last_reported":1729516709,"current_range_meters":22000,"station_id":"ce4bhqp2rcd13ifvqhog","pricing_plan_id":"cebpf4jnsgd1na2vs0mg"},{"bike_id":"7c77656a-8abb-42f3-8f95-2810236740c3","system_id":"levelo_inurba_marseille","lat":43.301636,"lon":5.380902,"is_reserved":false,"is_disabled":false,"rental_uris":{"android":"levelo://app?vid=7c77656a-8abb-42f3-8f95-2810236740c3","ios":"levelo://app?vid=7c77656a-8abb-42f3-8f95-2810236740c3"},"vehicle_type_id":"4","last_reported":1729516709,"current_range_meters":32800,"station_id":"ce4bgjp2rcd13ifvqbh0","pricing_plan_id":"cebpf4jnsgd1na2vs0mg"},{"bike_id":"897897c5-ba38-4989-b2c4-2efe88dc6e81","system_id":"levelo_inurba_marseille","lat":43.26678,"lon":5.38262,"is_reserved":false,"is_disabled":false,"rental_uris":{"android":"levelo://app?vid=897897c5-ba38-4989-b2c4-2efe88dc6e81","ios":"levelo://app?vid=897897c5-ba38-4989-b2c4-2efe88dc6e81"},"vehicle_type_id":"4","last_reported":1729516709,"current_range_meters":18800,"station_id":"ce4bhg92rcd13ifvqf90","pricing_plan_id":"cebpf4jnsgd1na2vs0mg"},{"bike_id":"ab1295d8-40ea-43fa-92fa-abdc33824b2f","system_id":"levelo_inurba_marseille","lat":43.26066,"lon":5.38552,"is_reserved":false,"is_disabled":false,"rental_uris":{"android":"levelo://app?vid=ab1295d8-40ea-43fa-92fa-abdc33824b2f","ios":"levelo://app?vid=ab1295d8-40ea-43fa-92fa-abdc33824b2f"},"vehicle_type_id":"4","last_reported":1729516709,"current_range_meters":14000,"station_id":"","pricing_plan_id":"cebpf4jnsgd1na2vs0mg"},{"bike_id":"4867a399-fe80-4301-8e59-94c8757c3bb8","system_id":"levelo_inurba_marseille","lat":43.23182,"lon":5.3998,"is_reserved":false,"is_disabled":false,"rental_uris":{"android":"levelo://app?vid=4867a399-fe80-4301-8e59-94c8757c3bb8","ios":"levelo://app?vid=4867a399-fe80-4301-8e59-94c8757c3bb8"},"vehicle_type_id":"4","last_reported":1729516709,"current_range_meters":25200,"station_id":"ce4bhn12rcd13ifvqgqg","pricing_plan_id":"cebpf4jnsgd1na2vs0mg"},{"bike_id":"dfd214e0-4dbf-4c03-93e9-204daa78defe","system_id":"levelo_inurba_marseille","lat":43.22931,"lon":5.3538,"is_reserved":false,"is_disabled":false,"rental_uris":{"android":"levelo://app?vid=dfd214e0-4dbf-4c03-93e9-204daa78defe","ios":"levelo://app?vid=dfd214e0-4dbf-4c03-93e9-204daa78defe"},"vehicle_type_id":"4","last_reported":1729516709,"current_range_meters":38400,"station_id":"cpo3532slgdg3j2ikp40","pricing_plan_id":"cebpf4jnsgd1na2vs0mg"},{"bike_id":"3bd43388-d064-4ce5-a132-b8d8914182c7","system_id":"levelo_inurba_marseille","lat":43.31885,"lon":5.40731,"is_reserved":false,"is_disabled":false,"rental_uris":{"android":"levelo://app?vid=3bd43388-d064-4ce5-a132-b8d8914182c7","ios":"levelo://app?vid=3bd43388-d064-4ce5-a132-b8d8914182c7"},"vehicle_type_id":"4","last_reported":1729516709,"current_range_meters":36000,"station_id":"ce4bhq12rcd13ifvqhig","pricing_plan_id":"cebpf4jnsgd1na2vs0mg"},{"bike_id":"d57b0c15-4a9f-4fdd-882e-d8c8399a9714","system_id":"levelo_inurba_marseille","lat":43.2418,"lon":5.39726,"is_reserved":false,"is_disabled":false,"rental_uris":{"android":"levelo://app?vid=d57b0c15-4a9f-4fdd-882e-d8c8399a9714","ios":"levelo://app?vid=d57b0c15-4a9f-4fdd-882e-d8c8399a9714"},"vehicle_type_id":"4","last_reported":1729516709,"current_range_meters":19200,"station_id":"ce4bhn12rcd13ifvqgpg","pricing_plan_id":"cebpf4jnsgd1na2vs0mg"},{"bike_id":"1357eecb-a751-40e2-8cf2-050344320bd7","system_id":"levelo_inurba_marseille","lat":43.32474,"lon":5.36562,"is_reserved":false,"is_disabled":false,"rental_uris":{"android":"levelo://app?vid=1357eecb-a751-40e2-8cf2-050344320bd7","ios":"levelo://app?vid=1357eecb-a751-40e2-8cf2-050344320bd7"},"vehicle_type_id":"4","last_reported":1729516709,"current_range_meters":35600,"station_id":"ce4bhs12rcd13ifvqhvg","pricing_plan_id":"cebpf4jnsgd1na2vs0mg"},{"bike_id":"00f511cb-f6c6-460e-8664-f6d44124ce0d","system_id":"levelo_inurba_marseille","lat":43.24807,"lon":5.37458,"is_reserved":false,"is_disabled":false,"rental_uris":{"android":"levelo://app?vid=00f511cb-f6c6-460e-8664-f6d44124ce0d","ios":"levelo://app?vid=00f511cb-f6c6-460e-8664-f6d44124ce0d"},"vehicle_type_id":"4","last_reported":1729516709,"current_range_meters":19200,"station_id":"ce4bhgh2rcd13ifvqfb0","pricing_plan_id":"cebpf4jnsgd1na2vs0mg"},{"bike_id":"21d8593c-0c43-4320-8567-ea8edf4c7d5d","system_id":"levelo_inurba_marseille","lat":43.23153,"lon":5.43705,"is_reserved":false,"is_disabled":false,"rental_uris":{"android":"levelo://app?vid=21d8593c-0c43-4320-8567-ea8edf4c7d5d","ios":"levelo://app?vid=21d8593c-0c43-4320-8567-ea8edf4c7d5d"},"vehicle_type_id":"4","last_reported":1729516709,"current_range_meters":6000,"station_id":"ce4bhmp2rcd13ifvqgog","pricing_plan_id":"cebpf4jnsgd1na2vs0mg"},{"bike_id":"ae6f75c8-75b5-4ca3-a9e5-d664b6ea4e8c","system_id":"levelo_inurba_marseille","lat":43.2955,"lon":5.42285,"is_reserved":false,"is_disabled":false,"rental_uris":{"android":"levelo://app?vid=ae6f75c8-75b5-4ca3-a9e5-d664b6ea4e8c","ios":"levelo://app?vid=ae6f75c8-75b5-4ca3-a9e5-d664b6ea4e8c"},"vehicle_type_id":"4","last_reported":1729516709,"current_range_meters":33200,"station_id":"ce4bhph2rcd13ifvqhdg","pricing_plan_id":"cebpf4jnsgd1na2vs0mg"},{"bike_id":"3635f8c5-1d04-4904-826b-3b5c2ba304f2","system_id":"levelo_inurba_marseille","lat":43.28421,"lon":5.34977,"is_reserved":false,"is_disabled":false,"rental_uris":{"android":"levelo://app?vid=3635f8c5-1d04-4904-826b-3b5c2ba304f2","ios":"levelo://app?vid=3635f8c5-1d04-4904-826b-3b5c2ba304f2"},"vehicle_type_id":"4","last_reported":1729516709,"current_range_meters":37600,"station_id":"ce4bhbh2rcd13ifvqepg","pricing_plan_id":"cebpf4jnsgd1na2vs0mg"},{"bike_id":"ab24f162-dce6-4890-a274-4e09811e3a33","system_id":"levelo_inurba_marseille","lat":43.29195,"lon":5.35802,"is_reserved":false,"is_disabled":false,"rental_uris":{"android":"levelo://app?vid=ab24f162-dce6-4890-a274-4e09811e3a33","ios":"levelo://app?vid=ab24f162-dce6-4890-a274-4e09811e3a33"},"vehicle_type_id":"4","last_reported":1729516709,"current_range_meters":11600,"station_id":"ce4bhb12rcd13ifvqel0","pricing_plan_id":"cebpf4jnsgd1na2vs0mg"},{"bike_id":"769f6071-bab9-47cf-91e6-bd552b15cd02","system_id":"levelo_inurba_marseille","lat":43.30598,"lon":5.39359,"is_reserved":false,"is_disabled":false,"rental_uris":{"android":"levelo://app?vid=769f6071-bab9-47cf-91e6-bd552b15cd02","ios":"levelo://app?vid=769f6071-bab9-47cf-91e6-bd552b15cd02"},"vehicle_type_id":"4","last_reported":1729516709,"current_range_meters":11200,"station_id":"ce4bh0p2rcd13ifvqd80","pricing_plan_id":"cebpf4jnsgd1na2vs0mg"},{"bike_id":"b029640a-1e24-4384-a21c-55c58b2c42c5","system_id":"levelo_inurba_marseille","lat":43.24072,"lon":5.37756,"is_reserved":false,"is_disabled":false,"rental_uris":{"android":"levelo://app?vid=b029640a-1e24-4384-a21c-55c58b2c42c5","ios":"levelo://app?vid=b029640a-1e24-4384-a21c-55c58b2c42c5"},"vehicle_type_id":"4","last_reported":1729516709,"current_range_meters":4000,"station_id":"ce4bhnp2rcd13ifvqgvg","pricing_plan_id":"cebpf4jnsgd1na2vs0mg"},{"bike_id":"e6558dc4-b439-4982-a365-caed061d67e1","system_id":"levelo_inurba_marseille","lat":43.324829,"lon":5.36572,"is_reserved":false,"is_disabled":false,"rental_uris":{"android":"levelo://app?vid=e6558dc4-b439-4982-a365-caed061d67e1","ios":"levelo://app?vid=e6558dc4-b439-4982-a365-caed061d67e1"},"vehicle_type_id":"4","last_reported":1729516709,"current_range_meters":17200,"station_id":"ce4bhs12rcd13ifvqhvg","pricing_plan_id":"cebpf4jnsgd1na2vs0mg"},{"bike_id":"76888ed7-7d46-4ff1-ba65-4f65160c08cc","system_id":"levelo_inurba_marseille","lat":43.31352,"lon":5.36727,"is_reserved":false,"is_disabled":false,"rental_uris":{"android":"levelo://app?vid=76888ed7-7d46-4ff1-ba65-4f65160c08cc","ios":"levelo://app?vid=76888ed7-7d46-4ff1-ba65-4f65160c08cc"},"vehicle_type_id":"4","last_reported":1729516709,"current_range_meters":30400,"station_id":"ce4bgr92rcd13ifvqc6g","pricing_plan_id":"cebpf4jnsgd1na2vs0mg"},{"bike_id":"b440fe97-5383-4b18-9148-98b169fd1843","system_id":"levelo_inurba_marseille","lat":43.24168,"lon":5.36401,"is_reserved":false,"is_disabled":false,"rental_uris":{"android":"levelo://app?vid=b440fe97-5383-4b18-9148-98b169fd1843","ios":"levelo://app?vid=b440fe97-5383-4b18-9148-98b169fd1843"},"vehicle_type_id":"4","last_reported":1729516709,"current_range_meters":32000,"station_id":"cpo36qri1sfpv3e86is0","pricing_plan_id":"cebpf4jnsgd1na2vs0mg"},{"bike_id":"bfd66244-d9df-403a-ad42-0b09e20bfa0a","system_id":"levelo_inurba_marseille","lat":43.34143,"lon":5.40904,"is_reserved":false,"is_disabled":false,"rental_uris":{"android":"levelo://app?vid=bfd66244-d9df-403a-ad42-0b09e20bfa0a","ios":"levelo://app?vid=bfd66244-d9df-403a-ad42-0b09e20bfa0a"},"vehicle_type_id":"4","last_reported":1729516709,"current_range_meters":23200,"station_id":"ce4bhqh2rcd13ifvqhlg","pricing_plan_id":"cebpf4jnsgd1na2vs0mg"},{"bike_id":"cf5edb93-17a1-445f-b7b1-309281f715bb","system_id":"levelo_inurba_marseille","lat":43.24545,"lon":5.39528,"is_reserved":false,"is_disabled":false,"rental_uris":{"android":"levelo://app?vid=cf5edb93-17a1-445f-b7b1-309281f715bb","ios":"levelo://app?vid=cf5edb93-17a1-445f-b7b1-309281f715bb"},"vehicle_type_id":"4","last_reported":1729516709,"current_range_meters":10000,"station_id":"ce4bhlp2rcd13ifvqgjg","pricing_plan_id":"cebpf4jnsgd1na2vs0mg"},{"bike_id":"724d43cd-16f4-439d-8631-c85b1d5a90be","system_id":"levelo_inurba_marseille","lat":43.239658,"lon":5.366312,"is_reserved":false,"is_disabled":false,"rental_uris":{"android":"levelo://app?vid=724d43cd-16f4-439d-8631-c85b1d5a90be","ios":"levelo://app?vid=724d43cd-16f4-439d-8631-c85b1d5a90be"},"vehicle_type_id":"4","last_reported":1729516709,"current_range_meters":10800,"station_id":"ce4bhi12rcd13ifvqfp0","pricing_plan_id":"cebpf4jnsgd1na2vs0mg"},{"bike_id":"7b9f80d7-3e6d-4a0c-84d8-44579ef63b83","system_id":"levelo_inurba_marseille","lat":43.2593,"lon":5.40914,"is_reserved":false,"is_disabled":false,"rental_uris":{"android":"levelo://app?vid=7b9f80d7-3e6d-4a0c-84d8-44579ef63b83","ios":"levelo://app?vid=7b9f80d7-3e6d-4a0c-84d8-44579ef63b83"},"vehicle_type_id":"4","last_reported":1729516709,"current_range_meters":11200,"station_id":"ce4bhm92rcd13ifvqglg","pricing_plan_id":"cebpf4jnsgd1na2vs0mg"},{"bike_id":"d2031bab-155b-4bee-920b-a44835533f3d","system_id":"levelo_inurba_marseille","lat":43.26201,"lon":5.37929,"is_reserved":false,"is_disabled":false,"rental_uris":{"android":"levelo://app?vid=d2031bab-155b-4bee-920b-a44835533f3d","ios":"levelo://app?vid=d2031bab-155b-4bee-920b-a44835533f3d"},"vehicle_type_id":"4","last_reported":1729516709,"current_range_meters":38800,"station_id":"ce4bhjp2rcd13ifvqg90","pricing_plan_id":"cebpf4jnsgd1na2vs0mg"},{"bike_id":"3c11d4f9-0604-4dcd-9c8c-33c46ef59446","system_id":"levelo_inurba_marseille","lat":43.28212,"lon":5.40235,"is_reserved":false,"is_disabled":false,"rental_uris":{"android":"levelo://app?vid=3c11d4f9-0604-4dcd-9c8c-33c46ef59446","ios":"levelo://app?vid=3c11d4f9-0604-4dcd-9c8c-33c46ef59446"},"vehicle_type_id":"4","last_reported":1729516709,"current_range_meters":36000,"station_id":"","pricing_plan_id":"cebpf4jnsgd1na2vs0mg"},{"bike_id":"0728974d-1ad5-4181-91f2-6035aab7157d","system_id":"levelo_inurba_marseille","lat":43.23192,"lon":5.35545,"is_reserved":false,"is_disabled":false,"rental_uris":{"android":"levelo://app?vid=0728974d-1ad5-4181-91f2-6035aab7157d","ios":"levelo://app?vid=0728974d-1ad5-4181-91f2-6035aab7157d"},"vehicle_type_id":"4","last_reported":1729516709,"current_range_meters":39200,"station_id":"ce4bhu92rcd13ifvqi70","pricing_plan_id":"cebpf4jnsgd1na2vs0mg"},{"bike_id":"91050628-fb32-48ea-b007-dd685c4b9568","system_id":"levelo_inurba_marseille","lat":43.33767,"lon":5.37434,"is_reserved":false,"is_disabled":false,"rental_uris":{"android":"levelo://app?vid=91050628-fb32-48ea-b007-dd685c4b9568","ios":"levelo://app?vid=91050628-fb32-48ea-b007-dd685c4b9568"},"vehicle_type_id":"4","last_reported":1729516709,"current_range_meters":38800,"station_id":"","pricing_plan_id":"cebpf4jnsgd1na2vs0mg"},{"bike_id":"957a0e0a-78da-4d14-aaa1-4f4b0b21d8ef","system_id":"levelo_inurba_marseille","lat":43.26688,"lon":5.3827,"is_reserved":false,"is_disabled":false,"rental_uris":{"android":"levelo://app?vid=957a0e0a-78da-4d14-aaa1-4f4b0b21d8ef","ios":"levelo://app?vid=957a0e0a-78da-4d14-aaa1-4f4b0b21d8ef"},"vehicle_type_id":"4","last_reported":1729516709,"current_range_meters":38800,"station_id":"ce4bhg92rcd13ifvqf90","pricing_plan_id":"cebpf4jnsgd1na2vs0mg"},{"bike_id":"e3227fe8-85ba-4eb5-98d7-418c667c1cf1","system_id":"levelo_inurba_marseille","lat":43.31681,"lon":5.37544,"is_reserved":false,"is_disabled":false,"rental_uris":{"android":"levelo://app?vid=e3227fe8-85ba-4eb5-98d7-418c667c1cf1","ios":"levelo://app?vid=e3227fe8-85ba-4eb5-98d7-418c667c1cf1"},"vehicle_type_id":"4","last_reported":1729516709,"current_range_meters":16400,"station_id":"","pricing_plan_id":"cebpf4jnsgd1na2vs0mg"},{"bike_id":"581c408e-0ea5-4fb1-8842-f1d09a193a19","system_id":"levelo_inurba_marseille","lat":43.23191,"lon":5.3555,"is_reserved":false,"is_disabled":false,"rental_uris":{"android":"levelo://app?vid=581c408e-0ea5-4fb1-8842-f1d09a193a19","ios":"levelo://app?vid=581c408e-0ea5-4fb1-8842-f1d09a193a19"},"vehicle_type_id":"4","last_reported":1729516709,"current_range_meters":37600,"station_id":"ce4bhu92rcd13ifvqi70","pricing_plan_id":"cebpf4jnsgd1na2vs0mg"},{"bike_id":"074441fc-d99e-427a-8145-36c366ac3dbe","system_id":"levelo_inurba_marseille","lat":43.29775,"lon":5.37106,"is_reserved":false,"is_disabled":false,"rental_uris":{"android":"levelo://app?vid=074441fc-d99e-427a-8145-36c366ac3dbe","ios":"levelo://app?vid=074441fc-d99e-427a-8145-36c366ac3dbe"},"vehicle_type_id":"4","last_reported":1729516709,"current_range_meters":4800,"station_id":"ce4bgop2rcd13ifvqc1g","pricing_plan_id":"cebpf4jnsgd1na2vs0mg"},{"bike_id":"59e6dbe3-787b-47ac-905e-d02089889c4b","system_id":"levelo_inurba_marseille","lat":43.32478,"lon":5.3656,"is_reserved":false,"is_disabled":false,"rental_uris":{"android":"levelo://app?vid=59e6dbe3-787b-47ac-905e-d02089889c4b","ios":"levelo://app?vid=59e6dbe3-787b-47ac-905e-d02089889c4b"},"vehicle_type_id":"4","last_reported":1729516709,"current_range_meters":34800,"station_id":"ce4bhs12rcd13ifvqhvg","pricing_plan_id":"cebpf4jnsgd1na2vs0mg"},{"bike_id":"7e2e9a15-20c2-4ec3-a292-14a4e197fe85","system_id":"levelo_inurba_marseille","lat":43.24166,"lon":5.36389,"is_reserved":false,"is_disabled":false,"rental_uris":{"android":"levelo://app?vid=7e2e9a15-20c2-4ec3-a292-14a4e197fe85","ios":"levelo://app?vid=7e2e9a15-20c2-4ec3-a292-14a4e197fe85"},"vehicle_type_id":"4","last_reported":1729516709,"current_range_meters":39200,"station_id":"cpo36qri1sfpv3e86is0","pricing_plan_id":"cebpf4jnsgd1na2vs0mg"},{"bike_id":"11d3ded0-ef33-4ecb-9c4a-3d27d3cc5480","system_id":"levelo_inurba_marseille","lat":43.2901,"lon":5.356,"is_reserved":false,"is_disabled":false,"rental_uris":{"android":"levelo://app?vid=11d3ded0-ef33-4ecb-9c4a-3d27d3cc5480","ios":"levelo://app?vid=11d3ded0-ef33-4ecb-9c4a-3d27d3cc5480"},"vehicle_type_id":"4","last_reported":1729516709,"current_range_meters":14800,"station_id":"ce4bhb92rcd13ifvqen0","pricing_plan_id":"cebpf4jnsgd1na2vs0mg"},{"bike_id":"1136c518-8fc6-4821-be2a-bc0091150d7f","system_id":"levelo_inurba_marseille","lat":43.29003,"lon":5.35611,"is_reserved":false,"is_disabled":false,"rental_uris":{"android":"levelo://app?vid=1136c518-8fc6-4821-be2a-bc0091150d7f","ios":"levelo://app?vid=1136c518-8fc6-4821-be2a-bc0091150d7f"},"vehicle_type_id":"4","last_reported":1729516709,"current_range_meters":14800,"station_id":"ce4bhb92rcd13ifvqen0","pricing_plan_id":"cebpf4jnsgd1na2vs0mg"},{"bike_id":"2e5a33e8-1455-49c1-a94b-68d4579ff054","system_id":"levelo_inurba_marseille","lat":43.28417,"lon":5.34976,"is_reserved":false,"is_disabled":false,"rental_uris":{"android":"levelo://app?vid=2e5a33e8-1455-49c1-a94b-68d4579ff054","ios":"levelo://app?vid=2e5a33e8-1455-49c1-a94b-68d4579ff054"},"vehicle_type_id":"4","last_reported":1729516709,"current_range_meters":15200,"station_id":"ce4bhbh2rcd13ifvqepg","pricing_plan_id":"cebpf4jnsgd1na2vs0mg"},{"bike_id":"79a1e020-318b-42a1-a8c0-a424b1daf69e","system_id":"levelo_inurba_marseille","lat":43.296,"lon":5.36142,"is_reserved":false,"is_disabled":false,"rental_uris":{"android":"levelo://app?vid=79a1e020-318b-42a1-a8c0-a424b1daf69e","ios":"levelo://app?vid=79a1e020-318b-42a1-a8c0-a424b1daf69e"},"vehicle_type_id":"4","last_reported":1729516709,"current_range_meters":10000,"station_id":"","pricing_plan_id":"cebpf4jnsgd1na2vs0mg"},{"bike_id":"bcdd013e-f9dd-4a14-8f42-3d5f3083dd82","system_id":"levelo_inurba_marseille","lat":43.25588,"lon":5.38241,"is_reserved":false,"is_disabled":false,"rental_uris":{"android":"levelo://app?vid=bcdd013e-f9dd-4a14-8f42-3d5f3083dd82","ios":"levelo://app?vid=bcdd013e-f9dd-4a14-8f42-3d5f3083dd82"},"vehicle_type_id":"4","last_reported":1729516709,"current_range_meters":25200,"station_id":"ce4bhih2rcd13ifvqfs0","pricing_plan_id":"cebpf4jnsgd1na2vs0mg"},{"bike_id":"15867597-1f25-4b96-b67f-d7057f8d49d3","system_id":"levelo_inurba_marseille","lat":43.2937,"lon":5.37843,"is_reserved":false,"is_disabled":false,"rental_uris":{"android":"levelo://app?vid=15867597-1f25-4b96-b67f-d7057f8d49d3","ios":"levelo://app?vid=15867597-1f25-4b96-b67f-d7057f8d49d3"},"vehicle_type_id":"4","last_reported":1729516709,"current_range_meters":14800,"station_id":"ce4bgjh2rcd13ifvqbf0","pricing_plan_id":"cebpf4jnsgd1na2vs0mg"},{"bike_id":"c8ab3988-c9e3-43f2-89db-149ae165d25c","system_id":"levelo_inurba_marseille","lat":43.23151,"lon":5.43714,"is_reserved":false,"is_disabled":false,"rental_uris":{"android":"levelo://app?vid=c8ab3988-c9e3-43f2-89db-149ae165d25c","ios":"levelo://app?vid=c8ab3988-c9e3-43f2-89db-149ae165d25c"},"vehicle_type_id":"4","last_reported":1729516709,"current_range_meters":10800,"station_id":"ce4bhmp2rcd13ifvqgog","pricing_plan_id":"cebpf4jnsgd1na2vs0mg"},{"bike_id":"916089e6-7c68-4026-9185-b7c8222214d3","system_id":"levelo_inurba_marseille","lat":43.28418,"lon":5.34979,"is_reserved":false,"is_disabled":false,"rental_uris":{"android":"levelo://app?vid=916089e6-7c68-4026-9185-b7c8222214d3","ios":"levelo://app?vid=916089e6-7c68-4026-9185-b7c8222214d3"},"vehicle_type_id":"4","last_reported":1729516709,"current_range_meters":18000,"station_id":"ce4bhbh2rcd13ifvqepg","pricing_plan_id":"cebpf4jnsgd1na2vs0mg"},{"bike_id":"76b616ae-0faf-42cf-b5dd-5c98fd3462ba","system_id":"levelo_inurba_marseille","lat":43.31348,"lon":5.36725,"is_reserved":false,"is_disabled":false,"rental_uris":{"android":"levelo://app?vid=76b616ae-0faf-42cf-b5dd-5c98fd3462ba","ios":"levelo://app?vid=76b616ae-0faf-42cf-b5dd-5c98fd3462ba"},"vehicle_type_id":"4","last_reported":1729516709,"current_range_meters":38800,"station_id":"ce4bgr92rcd13ifvqc6g","pricing_plan_id":"cebpf4jnsgd1na2vs0mg"},{"bike_id":"cf16d5bb-4029-4375-b5a9-8412b8e9cc70","system_id":"levelo_inurba_marseille","lat":43.23153,"lon":5.437,"is_reserved":false,"is_disabled":false,"rental_uris":{"android":"levelo://app?vid=cf16d5bb-4029-4375-b5a9-8412b8e9cc70","ios":"levelo://app?vid=cf16d5bb-4029-4375-b5a9-8412b8e9cc70"},"vehicle_type_id":"4","last_reported":1729516709,"current_range_meters":38800,"station_id":"ce4bhmp2rcd13ifvqgog","pricing_plan_id":"cebpf4jnsgd1na2vs0mg"},{"bike_id":"7adf842b-4b8c-4356-a23f-1be0cbaf4d21","system_id":"levelo_inurba_marseille","lat":43.2319,"lon":5.35547,"is_reserved":false,"is_disabled":false,"rental_uris":{"android":"levelo://app?vid=7adf842b-4b8c-4356-a23f-1be0cbaf4d21","ios":"levelo://app?vid=7adf842b-4b8c-4356-a23f-1be0cbaf4d21"},"vehicle_type_id":"4","last_reported":1729516709,"current_range_meters":16400,"station_id":"ce4bhu92rcd13ifvqi70","pricing_plan_id":"cebpf4jnsgd1na2vs0mg"},{"bike_id":"7440be1d-9d23-4cbe-bd4f-ac7d08ebb759","system_id":"levelo_inurba_marseille","lat":43.29588,"lon":5.36741,"is_reserved":false,"is_disabled":false,"rental_uris":{"android":"levelo://app?vid=7440be1d-9d23-4cbe-bd4f-ac7d08ebb759","ios":"levelo://app?vid=7440be1d-9d23-4cbe-bd4f-ac7d08ebb759"},"vehicle_type_id":"4","last_reported":1729516709,"current_range_meters":36400,"station_id":"ce4bgph2rcd13ifvqc2g","pricing_plan_id":"cebpf4jnsgd1na2vs0mg"},{"bike_id":"5878ac2d-e259-4e32-a9e6-e16ca4ac7334","system_id":"levelo_inurba_marseille","lat":43.28156,"lon":5.42648,"is_reserved":false,"is_disabled":false,"rental_uris":{"android":"levelo://app?vid=5878ac2d-e259-4e32-a9e6-e16ca4ac7334","ios":"levelo://app?vid=5878ac2d-e259-4e32-a9e6-e16ca4ac7334"},"vehicle_type_id":"4","last_reported":1729516709,"current_range_meters":22000,"station_id":"ce4bhnh2rcd13ifvqgug","pricing_plan_id":"cebpf4jnsgd1na2vs0mg"},{"bike_id":"5c90a4b3-5672-400f-938e-fda4e0a6d3b6","system_id":"levelo_inurba_marseille","lat":43.30537,"lon":5.36539,"is_reserved":false,"is_disabled":false,"rental_uris":{"android":"levelo://app?vid=5c90a4b3-5672-400f-938e-fda4e0a6d3b6","ios":"levelo://app?vid=5c90a4b3-5672-400f-938e-fda4e0a6d3b6"},"vehicle_type_id":"4","last_reported":1729516709,"current_range_meters":18000,"station_id":"ce4bgs12rcd13ifvqcag","pricing_plan_id":"cebpf4jnsgd1na2vs0mg"},{"bike_id":"a4d9e01c-3150-4112-8830-fda1e4dc62ab","system_id":"levelo_inurba_marseille","lat":43.312708,"lon":5.401782,"is_reserved":false,"is_disabled":false,"rental_uris":{"android":"levelo://app?vid=a4d9e01c-3150-4112-8830-fda1e4dc62ab","ios":"levelo://app?vid=a4d9e01c-3150-4112-8830-fda1e4dc62ab"},"vehicle_type_id":"4","last_reported":1729516709,"current_range_meters":38400,"station_id":"ce4bh092rcd13ifvqd30","pricing_plan_id":"cebpf4jnsgd1na2vs0mg"},{"bike_id":"04bace5c-5796-4baa-8862-8d657b5c193e","system_id":"levelo_inurba_marseille","lat":43.27851,"lon":5.39216,"is_reserved":false,"is_disabled":false,"rental_uris":{"android":"levelo://app?vid=04bace5c-5796-4baa-8862-8d657b5c193e","ios":"levelo://app?vid=04bace5c-5796-4baa-8862-8d657b5c193e"},"vehicle_type_id":"4","last_reported":1729516709,"current_range_meters":19200,"station_id":"ce4bhjp2rcd13ifvqga0","pricing_plan_id":"cebpf4jnsgd1na2vs0mg"},{"bike_id":"c532e7f9-5079-4e61-ad20-5a4c1821d16a","system_id":"levelo_inurba_marseille","lat":43.26556,"lon":5.37278,"is_reserved":false,"is_disabled":false,"rental_uris":{"android":"levelo://app?vid=c532e7f9-5079-4e61-ad20-5a4c1821d16a","ios":"levelo://app?vid=c532e7f9-5079-4e61-ad20-5a4c1821d16a"},"vehicle_type_id":"4","last_reported":1729516709,"current_range_meters":6400,"station_id":"ce4bhg12rcd13ifvqf70","pricing_plan_id":"cebpf4jnsgd1na2vs0mg"},{"bike_id":"1a31bb26-e2b1-4960-ad64-d89d649508a0","system_id":"levelo_inurba_marseille","lat":43.27996,"lon":5.4,"is_reserved":false,"is_disabled":false,"rental_uris":{"android":"levelo://app?vid=1a31bb26-e2b1-4960-ad64-d89d649508a0","ios":"levelo://app?vid=1a31bb26-e2b1-4960-ad64-d89d649508a0"},"vehicle_type_id":"4","last_reported":1729516709,"current_range_meters":36800,"station_id":"ce4bho92rcd13ifvqh4g","pricing_plan_id":"cebpf4jnsgd1na2vs0mg"},{"bike_id":"51a92f32-00a0-44ce-9acf-41a7e89c1eb6","system_id":"levelo_inurba_marseille","lat":43.29001,"lon":5.35616,"is_reserved":false,"is_disabled":false,"rental_uris":{"android":"levelo://app?vid=51a92f32-00a0-44ce-9acf-41a7e89c1eb6","ios":"levelo://app?vid=51a92f32-00a0-44ce-9acf-41a7e89c1eb6"},"vehicle_type_id":"4","last_reported":1729516709,"current_range_meters":22000,"station_id":"ce4bhb92rcd13ifvqen0","pricing_plan_id":"cebpf4jnsgd1na2vs0mg"},{"bike_id":"aef4da28-0d94-416c-aa76-b2bb23aa0555","system_id":"levelo_inurba_marseille","lat":43.28151,"lon":5.42646,"is_reserved":false,"is_disabled":false,"rental_uris":{"android":"levelo://app?vid=aef4da28-0d94-416c-aa76-b2bb23aa0555","ios":"levelo://app?vid=aef4da28-0d94-416c-aa76-b2bb23aa0555"},"vehicle_type_id":"4","last_reported":1729516709,"current_range_meters":22800,"station_id":"ce4bhnh2rcd13ifvqgug","pricing_plan_id":"cebpf4jnsgd1na2vs0mg"},{"bike_id":"377b6b5c-0236-4488-b91a-95288f973dee","system_id":"levelo_inurba_marseille","lat":43.26941,"lon":5.40259,"is_reserved":false,"is_disabled":false,"rental_uris":{"android":"levelo://app?vid=377b6b5c-0236-4488-b91a-95288f973dee","ios":"levelo://app?vid=377b6b5c-0236-4488-b91a-95288f973dee"},"vehicle_type_id":"4","last_reported":1729516709,"current_range_meters":36000,"station_id":"cjm6bp8fraef2m0cb0m0","pricing_plan_id":"cebpf4jnsgd1na2vs0mg"},{"bike_id":"d6058890-5031-48fd-a604-23ed7baff33f","system_id":"levelo_inurba_marseille","lat":43.29849,"lon":5.36285,"is_reserved":false,"is_disabled":false,"rental_uris":{"android":"levelo://app?vid=d6058890-5031-48fd-a604-23ed7baff33f","ios":"levelo://app?vid=d6058890-5031-48fd-a604-23ed7baff33f"},"vehicle_type_id":"4","last_reported":1729516709,"current_range_meters":38800,"station_id":"ce4bgpp2rcd13ifvqc3g","pricing_plan_id":"cebpf4jnsgd1na2vs0mg"},{"bike_id":"1098a3c6-88ae-48ac-ade0-49c4ae558815","system_id":"levelo_inurba_marseille","lat":43.28263,"lon":5.35066,"is_reserved":false,"is_disabled":false,"rental_uris":{"android":"levelo://app?vid=1098a3c6-88ae-48ac-ade0-49c4ae558815","ios":"levelo://app?vid=1098a3c6-88ae-48ac-ade0-49c4ae558815"},"vehicle_type_id":"4","last_reported":1729516709,"current_range_meters":31200,"station_id":"ce4bhbp2rcd13ifvqerg","pricing_plan_id":"cebpf4jnsgd1na2vs0mg"},{"bike_id":"acc16664-0dd5-4988-814a-3b25431bee65","system_id":"levelo_inurba_marseille","lat":43.31344,"lon":5.36732,"is_reserved":false,"is_disabled":false,"rental_uris":{"android":"levelo://app?vid=acc16664-0dd5-4988-814a-3b25431bee65","ios":"levelo://app?vid=acc16664-0dd5-4988-814a-3b25431bee65"},"vehicle_type_id":"4","last_reported":1729516709,"current_range_meters":28400,"station_id":"ce4bgr92rcd13ifvqc6g","pricing_plan_id":"cebpf4jnsgd1na2vs0mg"},{"bike_id":"7c932905-f844-4898-8e72-c0ea34b6941b","system_id":"levelo_inurba_marseille","lat":43.28714,"lon":5.37945,"is_reserved":false,"is_disabled":false,"rental_uris":{"android":"levelo://app?vid=7c932905-f844-4898-8e72-c0ea34b6941b","ios":"levelo://app?vid=7c932905-f844-4898-8e72-c0ea34b6941b"},"vehicle_type_id":"4","last_reported":1729516709,"current_range_meters":36800,"station_id":"ce4bh9p2rcd13ifvqec0","pricing_plan_id":"cebpf4jnsgd1na2vs0mg"},{"bike_id":"081e4c71-7fad-43fd-a308-28afc7ef9dde","system_id":"levelo_inurba_marseille","lat":43.29168,"lon":5.39475,"is_reserved":false,"is_disabled":false,"rental_uris":{"android":"levelo://app?vid=081e4c71-7fad-43fd-a308-28afc7ef9dde","ios":"levelo://app?vid=081e4c71-7fad-43fd-a308-28afc7ef9dde"},"vehicle_type_id":"4","last_reported":1729516709,"current_range_meters":26000,"station_id":"ce4bh3h2rcd13ifvqdn0","pricing_plan_id":"cebpf4jnsgd1na2vs0mg"},{"bike_id":"500cb39a-08fd-4bad-bf3b-4d2b098fccfe","system_id":"levelo_inurba_marseille","lat":43.24651,"lon":5.389,"is_reserved":false,"is_disabled":false,"rental_uris":{"android":"levelo://app?vid=500cb39a-08fd-4bad-bf3b-4d2b098fccfe","ios":"levelo://app?vid=500cb39a-08fd-4bad-bf3b-4d2b098fccfe"},"vehicle_type_id":"4","last_reported":1729516709,"current_range_meters":19200,"station_id":"ce4bhg12rcd13ifvqf60","pricing_plan_id":"cebpf4jnsgd1na2vs0mg"},{"bike_id":"81e3cc03-eae5-4d7f-8343-7d3d2040c830","system_id":"levelo_inurba_marseille","lat":43.26564,"lon":5.39003,"is_reserved":false,"is_disabled":false,"rental_uris":{"android":"levelo://app?vid=81e3cc03-eae5-4d7f-8343-7d3d2040c830","ios":"levelo://app?vid=81e3cc03-eae5-4d7f-8343-7d3d2040c830"},"vehicle_type_id":"4","last_reported":1729516709,"current_range_meters":35200,"station_id":"ce4bhe12rcd13ifvqf30","pricing_plan_id":"cebpf4jnsgd1na2vs0mg"},{"bike_id":"4426a32a-f0b0-4dad-8be6-a143f76d5fb4","system_id":"levelo_inurba_marseille","lat":43.26684,"lon":5.38264,"is_reserved":false,"is_disabled":false,"rental_uris":{"android":"levelo://app?vid=4426a32a-f0b0-4dad-8be6-a143f76d5fb4","ios":"levelo://app?vid=4426a32a-f0b0-4dad-8be6-a143f76d5fb4"},"vehicle_type_id":"4","last_reported":1729516709,"current_range_meters":40000,"station_id":"ce4bhg92rcd13ifvqf90","pricing_plan_id":"cebpf4jnsgd1na2vs0mg"},{"bike_id":"dfaf64c0-3d95-41c5-ad60-648a2ece18e0","system_id":"levelo_inurba_marseille","lat":43.29026,"lon":5.38132,"is_reserved":false,"is_disabled":false,"rental_uris":{"android":"levelo://app?vid=dfaf64c0-3d95-41c5-ad60-648a2ece18e0","ios":"levelo://app?vid=dfaf64c0-3d95-41c5-ad60-648a2ece18e0"},"vehicle_type_id":"4","last_reported":1729516709,"current_range_meters":33200,"station_id":"ce4bh4p2rcd13ifvqe1g","pricing_plan_id":"cebpf4jnsgd1na2vs0mg"},{"bike_id":"31e530ed-1e34-4b41-b8b6-f54d2d1a96de","system_id":"levelo_inurba_marseille","lat":43.288544,"lon":5.358679,"is_reserved":false,"is_disabled":false,"rental_uris":{"android":"levelo://app?vid=31e530ed-1e34-4b41-b8b6-f54d2d1a96de","ios":"levelo://app?vid=31e530ed-1e34-4b41-b8b6-f54d2d1a96de"},"vehicle_type_id":"4","last_reported":1729516709,"current_range_meters":3600,"station_id":"ce4bgph2rcd13ifvqc2g","pricing_plan_id":"cebpf4jnsgd1na2vs0mg"},{"bike_id":"c3945b60-e38d-4106-8f18-92c7f436cc4f","system_id":"levelo_inurba_marseille","lat":43.33757,"lon":5.37448,"is_reserved":false,"is_disabled":false,"rental_uris":{"android":"levelo://app?vid=c3945b60-e38d-4106-8f18-92c7f436cc4f","ios":"levelo://app?vid=c3945b60-e38d-4106-8f18-92c7f436cc4f"},"vehicle_type_id":"4","last_reported":1729516709,"current_range_meters":36000,"station_id":"","pricing_plan_id":"cebpf4jnsgd1na2vs0mg"},{"bike_id":"d1a22aa0-e05e-4358-a5f9-56cd8a282e76","system_id":"levelo_inurba_marseille","lat":43.25929,"lon":5.40903,"is_reserved":false,"is_disabled":false,"rental_uris":{"android":"levelo://app?vid=d1a22aa0-e05e-4358-a5f9-56cd8a282e76","ios":"levelo://app?vid=d1a22aa0-e05e-4358-a5f9-56cd8a282e76"},"vehicle_type_id":"4","last_reported":1729516709,"current_range_meters":20400,"station_id":"ce4bhm92rcd13ifvqglg","pricing_plan_id":"cebpf4jnsgd1na2vs0mg"},{"bike_id":"ea945864-5f44-4f37-b92a-108c6fe54b44","system_id":"levelo_inurba_marseille","lat":43.29277,"lon":5.36839,"is_reserved":false,"is_disabled":false,"rental_uris":{"android":"levelo://app?vid=ea945864-5f44-4f37-b92a-108c6fe54b44","ios":"levelo://app?vid=ea945864-5f44-4f37-b92a-108c6fe54b44"},"vehicle_type_id":"4","last_reported":1729516709,"current_range_meters":36400,"station_id":"ce4bhbp2rcd13ifvqesg","pricing_plan_id":"cebpf4jnsgd1na2vs0mg"},{"bike_id":"fd70132a-0045-406a-9634-8ca6eeedd9d9","system_id":"levelo_inurba_marseille","lat":43.29038,"lon":5.38647,"is_reserved":false,"is_disabled":false,"rental_uris":{"android":"levelo://app?vid=fd70132a-0045-406a-9634-8ca6eeedd9d9","ios":"levelo://app?vid=fd70132a-0045-406a-9634-8ca6eeedd9d9"},"vehicle_type_id":"4","last_reported":1729516709,"current_range_meters":14000,"station_id":"ce4bh4p2rcd13ifvqe0g","pricing_plan_id":"cebpf4jnsgd1na2vs0mg"},{"bike_id":"dd367b7c-3e6d-40b4-8761-0a41b09499a2","system_id":"levelo_inurba_marseille","lat":43.30536,"lon":5.3654,"is_reserved":false,"is_disabled":false,"rental_uris":{"android":"levelo://app?vid=dd367b7c-3e6d-40b4-8761-0a41b09499a2","ios":"levelo://app?vid=dd367b7c-3e6d-40b4-8761-0a41b09499a2"},"vehicle_type_id":"4","last_reported":1729516709,"current_range_meters":25600,"station_id":"ce4bgs12rcd13ifvqcag","pricing_plan_id":"cebpf4jnsgd1na2vs0mg"},{"bike_id":"1ce26204-202b-4d4e-84b1-3c251b72a681","system_id":"levelo_inurba_marseille","lat":43.26679,"lon":5.38261,"is_reserved":false,"is_disabled":false,"rental_uris":{"android":"levelo://app?vid=1ce26204-202b-4d4e-84b1-3c251b72a681","ios":"levelo://app?vid=1ce26204-202b-4d4e-84b1-3c251b72a681"},"vehicle_type_id":"4","last_reported":1729516709,"current_range_meters":40000,"station_id":"ce4bhg92rcd13ifvqf90","pricing_plan_id":"cebpf4jnsgd1na2vs0mg"},{"bike_id":"f310c7fe-0766-4414-9e60-fd1ce83f3918","system_id":"levelo_inurba_marseille","lat":43.29901,"lon":5.43656,"is_reserved":false,"is_disabled":false,"rental_uris":{"android":"levelo://app?vid=f310c7fe-0766-4414-9e60-fd1ce83f3918","ios":"levelo://app?vid=f310c7fe-0766-4414-9e60-fd1ce83f3918"},"vehicle_type_id":"4","last_reported":1729516709,"current_range_meters":25200,"station_id":"ce4bhpp2rcd13ifvqhfg","pricing_plan_id":"cebpf4jnsgd1na2vs0mg"},{"bike_id":"e1af9334-b5ac-4b47-b670-38084a2cfcfd","system_id":"levelo_inurba_marseille","lat":43.30531,"lon":5.36532,"is_reserved":false,"is_disabled":false,"rental_uris":{"android":"levelo://app?vid=e1af9334-b5ac-4b47-b670-38084a2cfcfd","ios":"levelo://app?vid=e1af9334-b5ac-4b47-b670-38084a2cfcfd"},"vehicle_type_id":"4","last_reported":1729516709,"current_range_meters":10000,"station_id":"ce4bgs12rcd13ifvqcag","pricing_plan_id":"cebpf4jnsgd1na2vs0mg"},{"bike_id":"b6d6184e-cdd6-4c70-8ccb-c024a5d72248","system_id":"levelo_inurba_marseille","lat":43.29173,"lon":5.37162,"is_reserved":false,"is_disabled":false,"rental_uris":{"android":"levelo://app?vid=b6d6184e-cdd6-4c70-8ccb-c024a5d72248","ios":"levelo://app?vid=b6d6184e-cdd6-4c70-8ccb-c024a5d72248"},"vehicle_type_id":"4","last_reported":1729516709,"current_range_meters":28000,"station_id":"ce4bha92rcd13ifvqeh0","pricing_plan_id":"cebpf4jnsgd1na2vs0mg"},{"bike_id":"a42ec5a3-b29b-4a0b-a41c-c5ab7f0bdd31","system_id":"levelo_inurba_marseille","lat":43.25938,"lon":5.40895,"is_reserved":false,"is_disabled":false,"rental_uris":{"android":"levelo://app?vid=a42ec5a3-b29b-4a0b-a41c-c5ab7f0bdd31","ios":"levelo://app?vid=a42ec5a3-b29b-4a0b-a41c-c5ab7f0bdd31"},"vehicle_type_id":"4","last_reported":1729516709,"current_range_meters":31200,"station_id":"ce4bhm92rcd13ifvqglg","pricing_plan_id":"cebpf4jnsgd1na2vs0mg"},{"bike_id":"7159e765-885a-4e7c-a729-745506f12438","system_id":"levelo_inurba_marseille","lat":43.25515,"lon":5.37276,"is_reserved":false,"is_disabled":false,"rental_uris":{"android":"levelo://app?vid=7159e765-885a-4e7c-a729-745506f12438","ios":"levelo://app?vid=7159e765-885a-4e7c-a729-745506f12438"},"vehicle_type_id":"4","last_reported":1729516709,"current_range_meters":29600,"station_id":"","pricing_plan_id":"cebpf4jnsgd1na2vs0mg"},{"bike_id":"de5511c8-8e63-4f93-89fc-d93b562ca605","system_id":"levelo_inurba_marseille","lat":43.27618,"lon":5.36105,"is_reserved":false,"is_disabled":false,"rental_uris":{"android":"levelo://app?vid=de5511c8-8e63-4f93-89fc-d93b562ca605","ios":"levelo://app?vid=de5511c8-8e63-4f93-89fc-d93b562ca605"},"vehicle_type_id":"4","last_reported":1729516709,"current_range_meters":37600,"station_id":"ce4bgj92rcd13ifvqbe0","pricing_plan_id":"cebpf4jnsgd1na2vs0mg"},{"bike_id":"8ff5c174-e5be-4439-9cb8-fc5831fafdc3","system_id":"levelo_inurba_marseille","lat":43.28274,"lon":5.35076,"is_reserved":false,"is_disabled":false,"rental_uris":{"android":"levelo://app?vid=8ff5c174-e5be-4439-9cb8-fc5831fafdc3","ios":"levelo://app?vid=8ff5c174-e5be-4439-9cb8-fc5831fafdc3"},"vehicle_type_id":"4","last_reported":1729516709,"current_range_meters":30000,"station_id":"ce4bhbp2rcd13ifvqerg","pricing_plan_id":"cebpf4jnsgd1na2vs0mg"},{"bike_id":"8e6e2140-9018-4bfb-9d04-7fbfa5dde3a5","system_id":"levelo_inurba_marseille","lat":43.32105,"lon":5.36785,"is_reserved":false,"is_disabled":false,"rental_uris":{"android":"levelo://app?vid=8e6e2140-9018-4bfb-9d04-7fbfa5dde3a5","ios":"levelo://app?vid=8e6e2140-9018-4bfb-9d04-7fbfa5dde3a5"},"vehicle_type_id":"4","last_reported":1729516709,"current_range_meters":37600,"station_id":"ce4bhrh2rcd13ifvqhug","pricing_plan_id":"cebpf4jnsgd1na2vs0mg"},{"bike_id":"235b4b4c-5985-4c80-8b5b-e18a4f3b32d1","system_id":"levelo_inurba_marseille","lat":43.23154,"lon":5.43699,"is_reserved":false,"is_disabled":false,"rental_uris":{"android":"levelo://app?vid=235b4b4c-5985-4c80-8b5b-e18a4f3b32d1","ios":"levelo://app?vid=235b4b4c-5985-4c80-8b5b-e18a4f3b32d1"},"vehicle_type_id":"4","last_reported":1729516709,"current_range_meters":38800,"station_id":"ce4bhmp2rcd13ifvqgog","pricing_plan_id":"cebpf4jnsgd1na2vs0mg"},{"bike_id":"6fe969d3-9ceb-48ba-947c-61366ca4145d","system_id":"levelo_inurba_marseille","lat":43.31348,"lon":5.3671,"is_reserved":false,"is_disabled":false,"rental_uris":{"android":"levelo://app?vid=6fe969d3-9ceb-48ba-947c-61366ca4145d","ios":"levelo://app?vid=6fe969d3-9ceb-48ba-947c-61366ca4145d"},"vehicle_type_id":"4","last_reported":1729516709,"current_range_meters":40000,"station_id":"ce4bgr92rcd13ifvqc6g","pricing_plan_id":"cebpf4jnsgd1na2vs0mg"},{"bike_id":"7f8408b7-3649-494f-aae8-09a28063d31d","system_id":"levelo_inurba_marseille","lat":43.27372,"lon":5.36257,"is_reserved":false,"is_disabled":false,"rental_uris":{"android":"levelo://app?vid=7f8408b7-3649-494f-aae8-09a28063d31d","ios":"levelo://app?vid=7f8408b7-3649-494f-aae8-09a28063d31d"},"vehicle_type_id":"4","last_reported":1729516709,"current_range_meters":36400,"station_id":"ce4bhbh2rcd13ifvqeo0","pricing_plan_id":"cebpf4jnsgd1na2vs0mg"},{"bike_id":"b0e575a0-2098-44a4-87ea-fb3fc67166f5","system_id":"levelo_inurba_marseille","lat":43.25504,"lon":5.37651,"is_reserved":false,"is_disabled":false,"rental_uris":{"android":"levelo://app?vid=b0e575a0-2098-44a4-87ea-fb3fc67166f5","ios":"levelo://app?vid=b0e575a0-2098-44a4-87ea-fb3fc67166f5"},"vehicle_type_id":"4","last_reported":1729516709,"current_range_meters":22400,"station_id":"ce4bhh12rcd13ifvqff0","pricing_plan_id":"cebpf4jnsgd1na2vs0mg"},{"bike_id":"800961bf-6feb-4b8b-b1e8-367ec8677027","system_id":"levelo_inurba_marseille","lat":43.28718,"lon":5.37935,"is_reserved":false,"is_disabled":false,"rental_uris":{"android":"levelo://app?vid=800961bf-6feb-4b8b-b1e8-367ec8677027","ios":"levelo://app?vid=800961bf-6feb-4b8b-b1e8-367ec8677027"},"vehicle_type_id":"4","last_reported":1729516709,"current_range_meters":27200,"station_id":"ce4bh9p2rcd13ifvqec0","pricing_plan_id":"cebpf4jnsgd1na2vs0mg"},{"bike_id":"87df11f1-8fea-486b-bc99-ef16ae26b680","system_id":"levelo_inurba_marseille","lat":43.26676,"lon":5.38268,"is_reserved":false,"is_disabled":false,"rental_uris":{"android":"levelo://app?vid=87df11f1-8fea-486b-bc99-ef16ae26b680","ios":"levelo://app?vid=87df11f1-8fea-486b-bc99-ef16ae26b680"},"vehicle_type_id":"4","last_reported":1729516709,"current_range_meters":34000,"station_id":"ce4bhg92rcd13ifvqf90","pricing_plan_id":"cebpf4jnsgd1na2vs0mg"},{"bike_id":"82944a7d-5caa-4af6-a9e7-6a5a9e81c946","system_id":"levelo_inurba_marseille","lat":43.284119,"lon":5.349824,"is_reserved":false,"is_disabled":false,"rental_uris":{"android":"levelo://app?vid=82944a7d-5caa-4af6-a9e7-6a5a9e81c946","ios":"levelo://app?vid=82944a7d-5caa-4af6-a9e7-6a5a9e81c946"},"vehicle_type_id":"4","last_reported":1729516709,"current_range_meters":31200,"station_id":"ce4bhbh2rcd13ifvqepg","pricing_plan_id":"cebpf4jnsgd1na2vs0mg"},{"bike_id":"93b134c1-f5b4-467b-829d-db83d1ce0ea5","system_id":"levelo_inurba_marseille","lat":43.23198,"lon":5.35551,"is_reserved":false,"is_disabled":false,"rental_uris":{"android":"levelo://app?vid=93b134c1-f5b4-467b-829d-db83d1ce0ea5","ios":"levelo://app?vid=93b134c1-f5b4-467b-829d-db83d1ce0ea5"},"vehicle_type_id":"4","last_reported":1729516709,"current_range_meters":37600,"station_id":"ce4bhu92rcd13ifvqi70","pricing_plan_id":"cebpf4jnsgd1na2vs0mg"},{"bike_id":"8e44e9f9-9037-4578-b2df-0731c0c64497","system_id":"levelo_inurba_marseille","lat":43.31345,"lon":5.36731,"is_reserved":false,"is_disabled":false,"rental_uris":{"android":"levelo://app?vid=8e44e9f9-9037-4578-b2df-0731c0c64497","ios":"levelo://app?vid=8e44e9f9-9037-4578-b2df-0731c0c64497"},"vehicle_type_id":"4","last_reported":1729516709,"current_range_meters":38800,"station_id":"ce4bgr92rcd13ifvqc6g","pricing_plan_id":"cebpf4jnsgd1na2vs0mg"},{"bike_id":"c5ef9b29-7b88-440f-a1d8-2182221c5822","system_id":"levelo_inurba_marseille","lat":43.30546,"lon":5.36694,"is_reserved":false,"is_disabled":false,"rental_uris":{"android":"levelo://app?vid=c5ef9b29-7b88-440f-a1d8-2182221c5822","ios":"levelo://app?vid=c5ef9b29-7b88-440f-a1d8-2182221c5822"},"vehicle_type_id":"4","last_reported":1729516709,"current_range_meters":26800,"station_id":"ce4bgrp2rcd13ifvqc9g","pricing_plan_id":"cebpf4jnsgd1na2vs0mg"},{"bike_id":"9b3403b4-eb91-4cb7-94e5-9ccdab7bc9d8","system_id":"levelo_inurba_marseille","lat":43.28848,"lon":5.35858,"is_reserved":false,"is_disabled":false,"rental_uris":{"android":"levelo://app?vid=9b3403b4-eb91-4cb7-94e5-9ccdab7bc9d8","ios":"levelo://app?vid=9b3403b4-eb91-4cb7-94e5-9ccdab7bc9d8"},"vehicle_type_id":"4","last_reported":1729516709,"current_range_meters":38400,"station_id":"ce4bhb12rcd13ifvqem0","pricing_plan_id":"cebpf4jnsgd1na2vs0mg"},{"bike_id":"2acd8431-0784-40d0-9191-4ae867800e8a","system_id":"levelo_inurba_marseille","lat":43.22936,"lon":5.35373,"is_reserved":false,"is_disabled":false,"rental_uris":{"android":"levelo://app?vid=2acd8431-0784-40d0-9191-4ae867800e8a","ios":"levelo://app?vid=2acd8431-0784-40d0-9191-4ae867800e8a"},"vehicle_type_id":"4","last_reported":1729516709,"current_range_meters":27600,"station_id":"cpo3532slgdg3j2ikp40","pricing_plan_id":"cebpf4jnsgd1na2vs0mg"},{"bike_id":"9a707fad-f56a-4c4d-be51-eacdec1047d3","system_id":"levelo_inurba_marseille","lat":43.32115,"lon":5.36767,"is_reserved":false,"is_disabled":false,"rental_uris":{"android":"levelo://app?vid=9a707fad-f56a-4c4d-be51-eacdec1047d3","ios":"levelo://app?vid=9a707fad-f56a-4c4d-be51-eacdec1047d3"},"vehicle_type_id":"4","last_reported":1729516709,"current_range_meters":17200,"station_id":"ce4bhrh2rcd13ifvqhug","pricing_plan_id":"cebpf4jnsgd1na2vs0mg"},{"bike_id":"052cf3f4-1f43-4250-bc67-2372def116a5","system_id":"levelo_inurba_marseille","lat":43.2842,"lon":5.34977,"is_reserved":false,"is_disabled":false,"rental_uris":{"android":"levelo://app?vid=052cf3f4-1f43-4250-bc67-2372def116a5","ios":"levelo://app?vid=052cf3f4-1f43-4250-bc67-2372def116a5"},"vehicle_type_id":"4","last_reported":1729516709,"current_range_meters":38800,"station_id":"ce4bhbh2rcd13ifvqepg","pricing_plan_id":"cebpf4jnsgd1na2vs0mg"},{"bike_id":"d31105df-3732-4776-9c3f-83ea7197891b","system_id":"levelo_inurba_marseille","lat":43.29276,"lon":5.36843,"is_reserved":false,"is_disabled":false,"rental_uris":{"android":"levelo://app?vid=d31105df-3732-4776-9c3f-83ea7197891b","ios":"levelo://app?vid=d31105df-3732-4776-9c3f-83ea7197891b"},"vehicle_type_id":"4","last_reported":1729516709,"current_range_meters":38400,"station_id":"ce4bhbp2rcd13ifvqesg","pricing_plan_id":"cebpf4jnsgd1na2vs0mg"},{"bike_id":"b225f7d3-3dda-4e9f-a6a2-887fdd3406ed","system_id":"levelo_inurba_marseille","lat":43.33761,"lon":5.3745,"is_reserved":false,"is_disabled":false,"rental_uris":{"android":"levelo://app?vid=b225f7d3-3dda-4e9f-a6a2-887fdd3406ed","ios":"levelo://app?vid=b225f7d3-3dda-4e9f-a6a2-887fdd3406ed"},"vehicle_type_id":"4","last_reported":1729516709,"current_range_meters":37600,"station_id":"","pricing_plan_id":"cebpf4jnsgd1na2vs0mg"},{"bike_id":"a07a66f9-5e9b-4919-815d-7f5cb1909b20","system_id":"levelo_inurba_marseille","lat":43.28616,"lon":5.35096,"is_reserved":false,"is_disabled":false,"rental_uris":{"android":"levelo://app?vid=a07a66f9-5e9b-4919-815d-7f5cb1909b20","ios":"levelo://app?vid=a07a66f9-5e9b-4919-815d-7f5cb1909b20"},"vehicle_type_id":"4","last_reported":1729516709,"current_range_meters":35200,"station_id":"ce4bhch2rcd13ifvqeug","pricing_plan_id":"cebpf4jnsgd1na2vs0mg"},{"bike_id":"aed33a5f-ccde-4711-89d5-f3554b45ecd7","system_id":"levelo_inurba_marseille","lat":43.23184,"lon":5.35542,"is_reserved":false,"is_disabled":false,"rental_uris":{"android":"levelo://app?vid=aed33a5f-ccde-4711-89d5-f3554b45ecd7","ios":"levelo://app?vid=aed33a5f-ccde-4711-89d5-f3554b45ecd7"},"vehicle_type_id":"4","last_reported":1729516709,"current_range_meters":16400,"station_id":"ce4bhu92rcd13ifvqi70","pricing_plan_id":"cebpf4jnsgd1na2vs0mg"},{"bike_id":"338b3d0e-7a5d-4fbf-9e56-f246cd179a52","system_id":"levelo_inurba_marseille","lat":43.28613,"lon":5.35104,"is_reserved":false,"is_disabled":false,"rental_uris":{"android":"levelo://app?vid=338b3d0e-7a5d-4fbf-9e56-f246cd179a52","ios":"levelo://app?vid=338b3d0e-7a5d-4fbf-9e56-f246cd179a52"},"vehicle_type_id":"4","last_reported":1729516709,"current_range_meters":32000,"station_id":"ce4bhch2rcd13ifvqeug","pricing_plan_id":"cebpf4jnsgd1na2vs0mg"},{"bike_id":"33bbe4ad-0cf9-4c7e-b4a0-f13c698223b5","system_id":"levelo_inurba_marseille","lat":43.22935,"lon":5.35378,"is_reserved":false,"is_disabled":false,"rental_uris":{"android":"levelo://app?vid=33bbe4ad-0cf9-4c7e-b4a0-f13c698223b5","ios":"levelo://app?vid=33bbe4ad-0cf9-4c7e-b4a0-f13c698223b5"},"vehicle_type_id":"4","last_reported":1729516709,"current_range_meters":38800,"station_id":"cpo3532slgdg3j2ikp40","pricing_plan_id":"cebpf4jnsgd1na2vs0mg"},{"bike_id":"1ab4cad9-613e-4f83-9da6-5e22bf21416b","system_id":"levelo_inurba_marseille","lat":43.24186,"lon":5.39733,"is_reserved":false,"is_disabled":false,"rental_uris":{"android":"levelo://app?vid=1ab4cad9-613e-4f83-9da6-5e22bf21416b","ios":"levelo://app?vid=1ab4cad9-613e-4f83-9da6-5e22bf21416b"},"vehicle_type_id":"4","last_reported":1729516709,"current_range_meters":16400,"station_id":"ce4bhn12rcd13ifvqgpg","pricing_plan_id":"cebpf4jnsgd1na2vs0mg"},{"bike_id":"5c003f40-3475-44d7-ba35-c7e9f2e387b4","system_id":"levelo_inurba_marseille","lat":43.30543,"lon":5.3653,"is_reserved":false,"is_disabled":false,"rental_uris":{"android":"levelo://app?vid=5c003f40-3475-44d7-ba35-c7e9f2e387b4","ios":"levelo://app?vid=5c003f40-3475-44d7-ba35-c7e9f2e387b4"},"vehicle_type_id":"4","last_reported":1729516709,"current_range_meters":38000,"station_id":"ce4bgs12rcd13ifvqcag","pricing_plan_id":"cebpf4jnsgd1na2vs0mg"},{"bike_id":"09cb8207-c804-47c7-9699-59cc1a14b677","system_id":"levelo_inurba_marseille","lat":43.23061,"lon":5.3549,"is_reserved":false,"is_disabled":false,"rental_uris":{"android":"levelo://app?vid=09cb8207-c804-47c7-9699-59cc1a14b677","ios":"levelo://app?vid=09cb8207-c804-47c7-9699-59cc1a14b677"},"vehicle_type_id":"4","last_reported":1729516709,"current_range_meters":37600,"station_id":"cpo3342slgdg3j2ifvpg","pricing_plan_id":"cebpf4jnsgd1na2vs0mg"},{"bike_id":"e88aafd1-511d-4fdf-857f-b9633cedd304","system_id":"levelo_inurba_marseille","lat":43.27832,"lon":5.39198,"is_reserved":false,"is_disabled":false,"rental_uris":{"android":"levelo://app?vid=e88aafd1-511d-4fdf-857f-b9633cedd304","ios":"levelo://app?vid=e88aafd1-511d-4fdf-857f-b9633cedd304"},"vehicle_type_id":"4","last_reported":1729516709,"current_range_meters":22000,"station_id":"ce4bhjp2rcd13ifvqga0","pricing_plan_id":"cebpf4jnsgd1na2vs0mg"},{"bike_id":"407773a7-bafd-4994-a1fd-8a73c9328a48","system_id":"levelo_inurba_marseille","lat":43.28421,"lon":5.34982,"is_reserved":false,"is_disabled":false,"rental_uris":{"android":"levelo://app?vid=407773a7-bafd-4994-a1fd-8a73c9328a48","ios":"levelo://app?vid=407773a7-bafd-4994-a1fd-8a73c9328a48"},"vehicle_type_id":"4","last_reported":1729516709,"current_range_meters":21600,"station_id":"ce4bhbh2rcd13ifvqepg","pricing_plan_id":"cebpf4jnsgd1na2vs0mg"},{"bike_id":"8b6705c7-671f-4bb0-856a-1b2fab99e9b8","system_id":"levelo_inurba_marseille","lat":43.30535,"lon":5.36703,"is_reserved":false,"is_disabled":false,"rental_uris":{"android":"levelo://app?vid=8b6705c7-671f-4bb0-856a-1b2fab99e9b8","ios":"levelo://app?vid=8b6705c7-671f-4bb0-856a-1b2fab99e9b8"},"vehicle_type_id":"4","last_reported":1729516709,"current_range_meters":38800,"station_id":"ce4bgrp2rcd13ifvqc9g","pricing_plan_id":"cebpf4jnsgd1na2vs0mg"},{"bike_id":"8503e09d-523b-4a7a-9df5-d1916134a78f","system_id":"levelo_inurba_marseille","lat":43.30419,"lon":5.41279,"is_reserved":false,"is_disabled":false,"rental_uris":{"android":"levelo://app?vid=8503e09d-523b-4a7a-9df5-d1916134a78f","ios":"levelo://app?vid=8503e09d-523b-4a7a-9df5-d1916134a78f"},"vehicle_type_id":"4","last_reported":1729516709,"current_range_meters":22000,"station_id":"ce4bhop2rcd13ifvqh8g","pricing_plan_id":"cebpf4jnsgd1na2vs0mg"},{"bike_id":"26b953f4-434f-4770-b00c-43dd222e9333","system_id":"levelo_inurba_marseille","lat":43.26569,"lon":5.39005,"is_reserved":false,"is_disabled":false,"rental_uris":{"android":"levelo://app?vid=26b953f4-434f-4770-b00c-43dd222e9333","ios":"levelo://app?vid=26b953f4-434f-4770-b00c-43dd222e9333"},"vehicle_type_id":"4","last_reported":1729516709,"current_range_meters":28400,"station_id":"ce4bhe12rcd13ifvqf30","pricing_plan_id":"cebpf4jnsgd1na2vs0mg"},{"bike_id":"17381f41-02b6-4274-a79a-aa8502f4c914","system_id":"levelo_inurba_marseille","lat":43.25002,"lon":5.38919,"is_reserved":false,"is_disabled":false,"rental_uris":{"android":"levelo://app?vid=17381f41-02b6-4274-a79a-aa8502f4c914","ios":"levelo://app?vid=17381f41-02b6-4274-a79a-aa8502f4c914"},"vehicle_type_id":"4","last_reported":1729516709,"current_range_meters":38800,"station_id":"ce4bhgp2rcd13ifvqfd0","pricing_plan_id":"cebpf4jnsgd1na2vs0mg"},{"bike_id":"2b1f4a1e-d4fe-4f76-972e-ec82153a3f0b","system_id":"levelo_inurba_marseille","lat":43.29003,"lon":5.35604,"is_reserved":false,"is_disabled":false,"rental_uris":{"android":"levelo://app?vid=2b1f4a1e-d4fe-4f76-972e-ec82153a3f0b","ios":"levelo://app?vid=2b1f4a1e-d4fe-4f76-972e-ec82153a3f0b"},"vehicle_type_id":"4","last_reported":1729516709,"current_range_meters":35200,"station_id":"ce4bhb92rcd13ifvqen0","pricing_plan_id":"cebpf4jnsgd1na2vs0mg"},{"bike_id":"d6056c03-fd9a-4318-ab01-54fcb42b30ff","system_id":"levelo_inurba_marseille","lat":43.27618,"lon":5.36103,"is_reserved":false,"is_disabled":false,"rental_uris":{"android":"levelo://app?vid=d6056c03-fd9a-4318-ab01-54fcb42b30ff","ios":"levelo://app?vid=d6056c03-fd9a-4318-ab01-54fcb42b30ff"},"vehicle_type_id":"4","last_reported":1729516709,"current_range_meters":24400,"station_id":"ce4bgj92rcd13ifvqbe0","pricing_plan_id":"cebpf4jnsgd1na2vs0mg"},{"bike_id":"18e44856-9e85-40cc-b945-9045bbe18f27","system_id":"levelo_inurba_marseille","lat":43.25937,"lon":5.40909,"is_reserved":false,"is_disabled":false,"rental_uris":{"android":"levelo://app?vid=18e44856-9e85-40cc-b945-9045bbe18f27","ios":"levelo://app?vid=18e44856-9e85-40cc-b945-9045bbe18f27"},"vehicle_type_id":"4","last_reported":1729516709,"current_range_meters":38400,"station_id":"ce4bhm92rcd13ifvqglg","pricing_plan_id":"cebpf4jnsgd1na2vs0mg"},{"bike_id":"2d2c8b8e-c933-432f-9f07-1b231ee8765f","system_id":"levelo_inurba_marseille","lat":43.30797,"lon":5.38167,"is_reserved":false,"is_disabled":false,"rental_uris":{"android":"levelo://app?vid=2d2c8b8e-c933-432f-9f07-1b231ee8765f","ios":"levelo://app?vid=2d2c8b8e-c933-432f-9f07-1b231ee8765f"},"vehicle_type_id":"4","last_reported":1729516709,"current_range_meters":32400,"station_id":"","pricing_plan_id":"cebpf4jnsgd1na2vs0mg"},{"bike_id":"e01af3fb-a46a-472a-a9ce-4d0d6e75d0db","system_id":"levelo_inurba_marseille","lat":43.28457,"lon":5.35882,"is_reserved":false,"is_disabled":false,"rental_uris":{"android":"levelo://app?vid=e01af3fb-a46a-472a-a9ce-4d0d6e75d0db","ios":"levelo://app?vid=e01af3fb-a46a-472a-a9ce-4d0d6e75d0db"},"vehicle_type_id":"4","last_reported":1729516709,"current_range_meters":34000,"station_id":"ce4bhah2rcd13ifvqei0","pricing_plan_id":"cebpf4jnsgd1na2vs0mg"},{"bike_id":"64dd3f95-21a7-49d6-b82f-bf957057737e","system_id":"levelo_inurba_marseille","lat":43.2621,"lon":5.3744,"is_reserved":false,"is_disabled":false,"rental_uris":{"android":"levelo://app?vid=64dd3f95-21a7-49d6-b82f-bf957057737e","ios":"levelo://app?vid=64dd3f95-21a7-49d6-b82f-bf957057737e"},"vehicle_type_id":"4","last_reported":1729516709,"current_range_meters":34800,"station_id":"ce4bhgp2rcd13ifvqfc0","pricing_plan_id":"cebpf4jnsgd1na2vs0mg"},{"bike_id":"43bc3d0b-18e5-41c6-8512-26e24d35eaf0","system_id":"levelo_inurba_marseille","lat":43.27375,"lon":5.36253,"is_reserved":false,"is_disabled":false,"rental_uris":{"android":"levelo://app?vid=43bc3d0b-18e5-41c6-8512-26e24d35eaf0","ios":"levelo://app?vid=43bc3d0b-18e5-41c6-8512-26e24d35eaf0"},"vehicle_type_id":"4","last_reported":1729516709,"current_range_meters":38000,"station_id":"ce4bhbh2rcd13ifvqeo0","pricing_plan_id":"cebpf4jnsgd1na2vs0mg"},{"bike_id":"d5efe8af-50c4-48c5-a1aa-50326dfcb88e","system_id":"levelo_inurba_marseille","lat":43.30307,"lon":5.396851,"is_reserved":false,"is_disabled":false,"rental_uris":{"android":"levelo://app?vid=d5efe8af-50c4-48c5-a1aa-50326dfcb88e","ios":"levelo://app?vid=d5efe8af-50c4-48c5-a1aa-50326dfcb88e"},"vehicle_type_id":"4","last_reported":1729516709,"current_range_meters":5600,"station_id":"ce4bh092rcd13ifvqd20","pricing_plan_id":"cebpf4jnsgd1na2vs0mg"},{"bike_id":"cdd03d3a-91af-4f00-a9bb-239f005fcf37","system_id":"levelo_inurba_marseille","lat":43.313414,"lon":5.367246,"is_reserved":false,"is_disabled":false,"rental_uris":{"android":"levelo://app?vid=cdd03d3a-91af-4f00-a9bb-239f005fcf37","ios":"levelo://app?vid=cdd03d3a-91af-4f00-a9bb-239f005fcf37"},"vehicle_type_id":"4","last_reported":1729516709,"current_range_meters":9200,"station_id":"ce4bgr92rcd13ifvqc6g","pricing_plan_id":"cebpf4jnsgd1na2vs0mg"},{"bike_id":"85353b83-1502-4f48-8702-10d30507bb1e","system_id":"levelo_inurba_marseille","lat":43.2841,"lon":5.34983,"is_reserved":false,"is_disabled":false,"rental_uris":{"android":"levelo://app?vid=85353b83-1502-4f48-8702-10d30507bb1e","ios":"levelo://app?vid=85353b83-1502-4f48-8702-10d30507bb1e"},"vehicle_type_id":"4","last_reported":1729516709,"current_range_meters":35200,"station_id":"ce4bhbh2rcd13ifvqepg","pricing_plan_id":"cebpf4jnsgd1na2vs0mg"},{"bike_id":"ff7da21b-c813-4300-bf01-3a0bd282c985","system_id":"levelo_inurba_marseille","lat":43.3135,"lon":5.36732,"is_reserved":false,"is_disabled":false,"rental_uris":{"android":"levelo://app?vid=ff7da21b-c813-4300-bf01-3a0bd282c985","ios":"levelo://app?vid=ff7da21b-c813-4300-bf01-3a0bd282c985"},"vehicle_type_id":"4","last_reported":1729516709,"current_range_meters":25200,"station_id":"ce4bgr92rcd13ifvqc6g","pricing_plan_id":"cebpf4jnsgd1na2vs0mg"},{"bike_id":"725c330a-6658-436e-be21-26b47949d16d","system_id":"levelo_inurba_marseille","lat":43.27365,"lon":5.36249,"is_reserved":false,"is_disabled":false,"rental_uris":{"android":"levelo://app?vid=725c330a-6658-436e-be21-26b47949d16d","ios":"levelo://app?vid=725c330a-6658-436e-be21-26b47949d16d"},"vehicle_type_id":"4","last_reported":1729516709,"current_range_meters":39200,"station_id":"ce4bhbh2rcd13ifvqeo0","pricing_plan_id":"cebpf4jnsgd1na2vs0mg"},{"bike_id":"c425d2b0-d9e8-4010-8389-9b6a1568b320","system_id":"levelo_inurba_marseille","lat":43.28415,"lon":5.34982,"is_reserved":false,"is_disabled":false,"rental_uris":{"android":"levelo://app?vid=c425d2b0-d9e8-4010-8389-9b6a1568b320","ios":"levelo://app?vid=c425d2b0-d9e8-4010-8389-9b6a1568b320"},"vehicle_type_id":"4","last_reported":1729516709,"current_range_meters":37600,"station_id":"ce4bhbh2rcd13ifvqepg","pricing_plan_id":"cebpf4jnsgd1na2vs0mg"},{"bike_id":"2de1491f-56f3-4817-9830-b0d59d8ec6de","system_id":"levelo_inurba_marseille","lat":43.28273,"lon":5.3507,"is_reserved":false,"is_disabled":false,"rental_uris":{"android":"levelo://app?vid=2de1491f-56f3-4817-9830-b0d59d8ec6de","ios":"levelo://app?vid=2de1491f-56f3-4817-9830-b0d59d8ec6de"},"vehicle_type_id":"4","last_reported":1729516709,"current_range_meters":26800,"station_id":"ce4bhbp2rcd13ifvqerg","pricing_plan_id":"cebpf4jnsgd1na2vs0mg"},{"bike_id":"21e824cf-9664-4007-a995-45ed5ea7e486","system_id":"levelo_inurba_marseille","lat":43.33607,"lon":5.41019,"is_reserved":false,"is_disabled":false,"rental_uris":{"android":"levelo://app?vid=21e824cf-9664-4007-a995-45ed5ea7e486","ios":"levelo://app?vid=21e824cf-9664-4007-a995-45ed5ea7e486"},"vehicle_type_id":"4","last_reported":1729516709,"current_range_meters":38800,"station_id":"ce4bhqh2rcd13ifvqhmg","pricing_plan_id":"cebpf4jnsgd1na2vs0mg"},{"bike_id":"33716367-8f01-4668-8d20-37b08d8892ac","system_id":"levelo_inurba_marseille","lat":43.2984,"lon":5.3626,"is_reserved":false,"is_disabled":false,"rental_uris":{"android":"levelo://app?vid=33716367-8f01-4668-8d20-37b08d8892ac","ios":"levelo://app?vid=33716367-8f01-4668-8d20-37b08d8892ac"},"vehicle_type_id":"4","last_reported":1729516709,"current_range_meters":38800,"station_id":"ce4bgpp2rcd13ifvqc3g","pricing_plan_id":"cebpf4jnsgd1na2vs0mg"},{"bike_id":"6ba14a88-d018-408f-896f-28a6ad094ec8","system_id":"levelo_inurba_marseille","lat":43.29293,"lon":5.37446,"is_reserved":false,"is_disabled":false,"rental_uris":{"android":"levelo://app?vid=6ba14a88-d018-408f-896f-28a6ad094ec8","ios":"levelo://app?vid=6ba14a88-d018-408f-896f-28a6ad094ec8"},"vehicle_type_id":"4","last_reported":1729516709,"current_range_meters":38000,"station_id":"ce4bgi12rcd13ifvqb70","pricing_plan_id":"cebpf4jnsgd1na2vs0mg"},{"bike_id":"5ad572a2-17f1-4316-89d4-8ed1d30eac95","system_id":"levelo_inurba_marseille","lat":43.33754,"lon":5.3744,"is_reserved":false,"is_disabled":false,"rental_uris":{"android":"levelo://app?vid=5ad572a2-17f1-4316-89d4-8ed1d30eac95","ios":"levelo://app?vid=5ad572a2-17f1-4316-89d4-8ed1d30eac95"},"vehicle_type_id":"4","last_reported":1729516709,"current_range_meters":2800,"station_id":"","pricing_plan_id":"cebpf4jnsgd1na2vs0mg"},{"bike_id":"0a7bfe43-d642-4cd8-a1ff-64241f2d24fd","system_id":"levelo_inurba_marseille","lat":43.30536,"lon":5.36542,"is_reserved":false,"is_disabled":false,"rental_uris":{"android":"levelo://app?vid=0a7bfe43-d642-4cd8-a1ff-64241f2d24fd","ios":"levelo://app?vid=0a7bfe43-d642-4cd8-a1ff-64241f2d24fd"},"vehicle_type_id":"4","last_reported":1729516709,"current_range_meters":36400,"station_id":"ce4bgs12rcd13ifvqcag","pricing_plan_id":"cebpf4jnsgd1na2vs0mg"},{"bike_id":"303decf6-ee10-455e-af28-2b6dbe01f914","system_id":"levelo_inurba_marseille","lat":43.337444,"lon":5.374475,"is_reserved":false,"is_disabled":false,"rental_uris":{"android":"levelo://app?vid=303decf6-ee10-455e-af28-2b6dbe01f914","ios":"levelo://app?vid=303decf6-ee10-455e-af28-2b6dbe01f914"},"vehicle_type_id":"4","last_reported":1729516709,"current_range_meters":25200,"station_id":"","pricing_plan_id":"cebpf4jnsgd1na2vs0mg"},{"bike_id":"dc1bee65-e82b-420b-9f1c-3b158095b308","system_id":"levelo_inurba_marseille","lat":43.24167,"lon":5.36392,"is_reserved":false,"is_disabled":false,"rental_uris":{"android":"levelo://app?vid=dc1bee65-e82b-420b-9f1c-3b158095b308","ios":"levelo://app?vid=dc1bee65-e82b-420b-9f1c-3b158095b308"},"vehicle_type_id":"4","last_reported":1729516709,"current_range_meters":22000,"station_id":"cpo36qri1sfpv3e86is0","pricing_plan_id":"cebpf4jnsgd1na2vs0mg"},{"bike_id":"9f6c69b2-1f25-460c-915a-25666f9b6687","system_id":"levelo_inurba_marseille","lat":43.31349,"lon":5.36735,"is_reserved":false,"is_disabled":false,"rental_uris":{"android":"levelo://app?vid=9f6c69b2-1f25-460c-915a-25666f9b6687","ios":"levelo://app?vid=9f6c69b2-1f25-460c-915a-25666f9b6687"},"vehicle_type_id":"4","last_reported":1729516709,"current_range_meters":31200,"station_id":"ce4bgr92rcd13ifvqc6g","pricing_plan_id":"cebpf4jnsgd1na2vs0mg"},{"bike_id":"5533b39e-0b65-4894-b3d8-b5502094d346","system_id":"levelo_inurba_marseille","lat":43.29556,"lon":5.4228,"is_reserved":false,"is_disabled":false,"rental_uris":{"android":"levelo://app?vid=5533b39e-0b65-4894-b3d8-b5502094d346","ios":"levelo://app?vid=5533b39e-0b65-4894-b3d8-b5502094d346"},"vehicle_type_id":"4","last_reported":1729516709,"current_range_meters":29600,"station_id":"ce4bhph2rcd13ifvqhdg","pricing_plan_id":"cebpf4jnsgd1na2vs0mg"},{"bike_id":"06e6c530-e9c0-4d7b-94a5-980b940b7d55","system_id":"levelo_inurba_marseille","lat":43.23066,"lon":5.35487,"is_reserved":false,"is_disabled":false,"rental_uris":{"android":"levelo://app?vid=06e6c530-e9c0-4d7b-94a5-980b940b7d55","ios":"levelo://app?vid=06e6c530-e9c0-4d7b-94a5-980b940b7d55"},"vehicle_type_id":"4","last_reported":1729516709,"current_range_meters":2000,"station_id":"cpo3342slgdg3j2ifvpg","pricing_plan_id":"cebpf4jnsgd1na2vs0mg"},{"bike_id":"71a3575e-567a-433e-92c7-0d79be4b6502","system_id":"levelo_inurba_marseille","lat":43.28268,"lon":5.35058,"is_reserved":false,"is_disabled":false,"rental_uris":{"android":"levelo://app?vid=71a3575e-567a-433e-92c7-0d79be4b6502","ios":"levelo://app?vid=71a3575e-567a-433e-92c7-0d79be4b6502"},"vehicle_type_id":"4","last_reported":1729516709,"current_range_meters":30400,"station_id":"ce4bhbp2rcd13ifvqerg","pricing_plan_id":"cebpf4jnsgd1na2vs0mg"},{"bike_id":"b09306b3-e3a1-4853-b1ac-0d8ef161e398","system_id":"levelo_inurba_marseille","lat":43.34148,"lon":5.40899,"is_reserved":false,"is_disabled":false,"rental_uris":{"android":"levelo://app?vid=b09306b3-e3a1-4853-b1ac-0d8ef161e398","ios":"levelo://app?vid=b09306b3-e3a1-4853-b1ac-0d8ef161e398"},"vehicle_type_id":"4","last_reported":1729516709,"current_range_meters":8800,"station_id":"ce4bhqh2rcd13ifvqhlg","pricing_plan_id":"cebpf4jnsgd1na2vs0mg"},{"bike_id":"f65ca95e-d741-48ae-a025-525eea644855","system_id":"levelo_inurba_marseille","lat":43.26677,"lon":5.38268,"is_reserved":false,"is_disabled":false,"rental_uris":{"android":"levelo://app?vid=f65ca95e-d741-48ae-a025-525eea644855","ios":"levelo://app?vid=f65ca95e-d741-48ae-a025-525eea644855"},"vehicle_type_id":"4","last_reported":1729516709,"current_range_meters":15200,"station_id":"ce4bhg92rcd13ifvqf90","pricing_plan_id":"cebpf4jnsgd1na2vs0mg"},{"bike_id":"d0a7956a-d7bd-49a8-8af8-9172eb5dc7db","system_id":"levelo_inurba_marseille","lat":43.28613,"lon":5.35096,"is_reserved":false,"is_disabled":false,"rental_uris":{"android":"levelo://app?vid=d0a7956a-d7bd-49a8-8af8-9172eb5dc7db","ios":"levelo://app?vid=d0a7956a-d7bd-49a8-8af8-9172eb5dc7db"},"vehicle_type_id":"4","last_reported":1729516709,"current_range_meters":32400,"station_id":"ce4bhch2rcd13ifvqeug","pricing_plan_id":"cebpf4jnsgd1na2vs0mg"},{"bike_id":"d695833b-9218-40a4-b87c-6783a7ef9ce4","system_id":"levelo_inurba_marseille","lat":43.24181,"lon":5.3973,"is_reserved":false,"is_disabled":false,"rental_uris":{"android":"levelo://app?vid=d695833b-9218-40a4-b87c-6783a7ef9ce4","ios":"levelo://app?vid=d695833b-9218-40a4-b87c-6783a7ef9ce4"},"vehicle_type_id":"4","last_reported":1729516709,"current_range_meters":16400,"station_id":"ce4bhn12rcd13ifvqgpg","pricing_plan_id":"cebpf4jnsgd1na2vs0mg"},{"bike_id":"d6e9802b-f1d4-4832-959b-25e795cedcb3","system_id":"levelo_inurba_marseille","lat":43.28938,"lon":5.36636,"is_reserved":false,"is_disabled":false,"rental_uris":{"android":"levelo://app?vid=d6e9802b-f1d4-4832-959b-25e795cedcb3","ios":"levelo://app?vid=d6e9802b-f1d4-4832-959b-25e795cedcb3"},"vehicle_type_id":"4","last_reported":1729516709,"current_range_meters":10800,"station_id":"ce4bhap2rcd13ifvqek0","pricing_plan_id":"cebpf4jnsgd1na2vs0mg"},{"bike_id":"191e8c1b-8eb2-4dd5-9af3-ecc0a669c64d","system_id":"levelo_inurba_marseille","lat":43.2762,"lon":5.36109,"is_reserved":false,"is_disabled":false,"rental_uris":{"android":"levelo://app?vid=191e8c1b-8eb2-4dd5-9af3-ecc0a669c64d","ios":"levelo://app?vid=191e8c1b-8eb2-4dd5-9af3-ecc0a669c64d"},"vehicle_type_id":"4","last_reported":1729516709,"current_range_meters":38800,"station_id":"ce4bgj92rcd13ifvqbe0","pricing_plan_id":"cebpf4jnsgd1na2vs0mg"},{"bike_id":"885770ae-b853-4394-a684-176e815c24eb","system_id":"levelo_inurba_marseille","lat":43.31346,"lon":5.36716,"is_reserved":false,"is_disabled":false,"rental_uris":{"android":"levelo://app?vid=885770ae-b853-4394-a684-176e815c24eb","ios":"levelo://app?vid=885770ae-b853-4394-a684-176e815c24eb"},"vehicle_type_id":"4","last_reported":1729516709,"current_range_meters":17600,"station_id":"ce4bgr92rcd13ifvqc6g","pricing_plan_id":"cebpf4jnsgd1na2vs0mg"},{"bike_id":"86da1bac-1253-4cf0-9790-80643f2afef3","system_id":"levelo_inurba_marseille","lat":43.31487,"lon":5.37311,"is_reserved":false,"is_disabled":false,"rental_uris":{"android":"levelo://app?vid=86da1bac-1253-4cf0-9790-80643f2afef3","ios":"levelo://app?vid=86da1bac-1253-4cf0-9790-80643f2afef3"},"vehicle_type_id":"4","last_reported":1729516709,"current_range_meters":12000,"station_id":"ce4bgt12rcd13ifvqcd0","pricing_plan_id":"cebpf4jnsgd1na2vs0mg"},{"bike_id":"ea4fc42c-f649-48b6-9895-3b26e16b9d90","system_id":"levelo_inurba_marseille","lat":43.28425,"lon":5.34979,"is_reserved":false,"is_disabled":false,"rental_uris":{"android":"levelo://app?vid=ea4fc42c-f649-48b6-9895-3b26e16b9d90","ios":"levelo://app?vid=ea4fc42c-f649-48b6-9895-3b26e16b9d90"},"vehicle_type_id":"4","last_reported":1729516709,"current_range_meters":31200,"station_id":"ce4bhbh2rcd13ifvqepg","pricing_plan_id":"cebpf4jnsgd1na2vs0mg"},{"bike_id":"c74392b4-5684-4add-9921-69201bef5dee","system_id":"levelo_inurba_marseille","lat":43.2842,"lon":5.34997,"is_reserved":false,"is_disabled":false,"rental_uris":{"android":"levelo://app?vid=c74392b4-5684-4add-9921-69201bef5dee","ios":"levelo://app?vid=c74392b4-5684-4add-9921-69201bef5dee"},"vehicle_type_id":"4","last_reported":1729516709,"current_range_meters":24000,"station_id":"ce4bhbh2rcd13ifvqepg","pricing_plan_id":"cebpf4jnsgd1na2vs0mg"},{"bike_id":"434d7f14-3dbb-41ee-bea3-4f1a7bf4fcb9","system_id":"levelo_inurba_marseille","lat":43.23149,"lon":5.43726,"is_reserved":false,"is_disabled":false,"rental_uris":{"android":"levelo://app?vid=434d7f14-3dbb-41ee-bea3-4f1a7bf4fcb9","ios":"levelo://app?vid=434d7f14-3dbb-41ee-bea3-4f1a7bf4fcb9"},"vehicle_type_id":"4","last_reported":1729516709,"current_range_meters":8000,"station_id":"ce4bhmp2rcd13ifvqgog","pricing_plan_id":"cebpf4jnsgd1na2vs0mg"},{"bike_id":"b98f85e5-78bd-4583-9201-5d84a6037942","system_id":"levelo_inurba_marseille","lat":43.24177,"lon":5.39733,"is_reserved":false,"is_disabled":false,"rental_uris":{"android":"levelo://app?vid=b98f85e5-78bd-4583-9201-5d84a6037942","ios":"levelo://app?vid=b98f85e5-78bd-4583-9201-5d84a6037942"},"vehicle_type_id":"4","last_reported":1729516709,"current_range_meters":16000,"station_id":"ce4bhn12rcd13ifvqgpg","pricing_plan_id":"cebpf4jnsgd1na2vs0mg"},{"bike_id":"ad380d01-3cb7-4db4-a153-5c707eb35acf","system_id":"levelo_inurba_marseille","lat":43.28266,"lon":5.35069,"is_reserved":false,"is_disabled":false,"rental_uris":{"android":"levelo://app?vid=ad380d01-3cb7-4db4-a153-5c707eb35acf","ios":"levelo://app?vid=ad380d01-3cb7-4db4-a153-5c707eb35acf"},"vehicle_type_id":"4","last_reported":1729516709,"current_range_meters":34000,"station_id":"ce4bhbp2rcd13ifvqerg","pricing_plan_id":"cebpf4jnsgd1na2vs0mg"},{"bike_id":"13842deb-5c49-4648-871a-5f658297e6c9","system_id":"levelo_inurba_marseille","lat":43.3379,"lon":5.3912,"is_reserved":false,"is_disabled":false,"rental_uris":{"android":"levelo://app?vid=13842deb-5c49-4648-871a-5f658297e6c9","ios":"levelo://app?vid=13842deb-5c49-4648-871a-5f658297e6c9"},"vehicle_type_id":"4","last_reported":1729516709,"current_range_meters":38800,"station_id":"","pricing_plan_id":"cebpf4jnsgd1na2vs0mg"},{"bike_id":"598b3a0e-059b-45bb-baca-70138d13daad","system_id":"levelo_inurba_marseille","lat":43.29003,"lon":5.35602,"is_reserved":false,"is_disabled":false,"rental_uris":{"android":"levelo://app?vid=598b3a0e-059b-45bb-baca-70138d13daad","ios":"levelo://app?vid=598b3a0e-059b-45bb-baca-70138d13daad"},"vehicle_type_id":"4","last_reported":1729516709,"current_range_meters":33200,"station_id":"ce4bhb92rcd13ifvqen0","pricing_plan_id":"cebpf4jnsgd1na2vs0mg"},{"bike_id":"72055cea-5344-44da-ae71-b082aba431b2","system_id":"levelo_inurba_marseille","lat":43.25505,"lon":5.37648,"is_reserved":false,"is_disabled":false,"rental_uris":{"android":"levelo://app?vid=72055cea-5344-44da-ae71-b082aba431b2","ios":"levelo://app?vid=72055cea-5344-44da-ae71-b082aba431b2"},"vehicle_type_id":"4","last_reported":1729516709,"current_range_meters":38800,"station_id":"ce4bhh12rcd13ifvqff0","pricing_plan_id":"cebpf4jnsgd1na2vs0mg"},{"bike_id":"b25ab611-496a-4373-a8d3-5f372090c173","system_id":"levelo_inurba_marseille","lat":43.29032,"lon":5.3865,"is_reserved":false,"is_disabled":false,"rental_uris":{"android":"levelo://app?vid=b25ab611-496a-4373-a8d3-5f372090c173","ios":"levelo://app?vid=b25ab611-496a-4373-a8d3-5f372090c173"},"vehicle_type_id":"4","last_reported":1729516709,"current_range_meters":10800,"station_id":"ce4bh4p2rcd13ifvqe0g","pricing_plan_id":"cebpf4jnsgd1na2vs0mg"},{"bike_id":"1df041af-274b-4304-91d2-52f7a5b306aa","system_id":"levelo_inurba_marseille","lat":43.30533,"lon":5.36702,"is_reserved":false,"is_disabled":false,"rental_uris":{"android":"levelo://app?vid=1df041af-274b-4304-91d2-52f7a5b306aa","ios":"levelo://app?vid=1df041af-274b-4304-91d2-52f7a5b306aa"},"vehicle_type_id":"4","last_reported":1729516709,"current_range_meters":18000,"station_id":"ce4bgrp2rcd13ifvqc9g","pricing_plan_id":"cebpf4jnsgd1na2vs0mg"},{"bike_id":"e2c71f5f-481d-4d82-b065-a70cc379cb9b","system_id":"levelo_inurba_marseille","lat":43.28261,"lon":5.35064,"is_reserved":false,"is_disabled":false,"rental_uris":{"android":"levelo://app?vid=e2c71f5f-481d-4d82-b065-a70cc379cb9b","ios":"levelo://app?vid=e2c71f5f-481d-4d82-b065-a70cc379cb9b"},"vehicle_type_id":"4","last_reported":1729516709,"current_range_meters":2800,"station_id":"ce4bhbp2rcd13ifvqerg","pricing_plan_id":"cebpf4jnsgd1na2vs0mg"},{"bike_id":"e87aab69-03e4-4cc3-ba6a-19370211c115","system_id":"levelo_inurba_marseille","lat":43.30905,"lon":5.36848,"is_reserved":false,"is_disabled":false,"rental_uris":{"android":"levelo://app?vid=e87aab69-03e4-4cc3-ba6a-19370211c115","ios":"levelo://app?vid=e87aab69-03e4-4cc3-ba6a-19370211c115"},"vehicle_type_id":"4","last_reported":1729516709,"current_range_meters":38800,"station_id":"ce4bgn92rcd13ifvqbvg","pricing_plan_id":"cebpf4jnsgd1na2vs0mg"},{"bike_id":"c8379388-3e68-44cc-8639-54005e3ffaaf","system_id":"levelo_inurba_marseille","lat":43.31275,"lon":5.4016,"is_reserved":false,"is_disabled":false,"rental_uris":{"android":"levelo://app?vid=c8379388-3e68-44cc-8639-54005e3ffaaf","ios":"levelo://app?vid=c8379388-3e68-44cc-8639-54005e3ffaaf"},"vehicle_type_id":"4","last_reported":1729516709,"current_range_meters":17200,"station_id":"ce4bh092rcd13ifvqd30","pricing_plan_id":"cebpf4jnsgd1na2vs0mg"},{"bike_id":"336c288b-11dc-4783-8cee-b45f96ecc39e","system_id":"levelo_inurba_marseille","lat":43.30531,"lon":5.36529,"is_reserved":false,"is_disabled":false,"rental_uris":{"android":"levelo://app?vid=336c288b-11dc-4783-8cee-b45f96ecc39e","ios":"levelo://app?vid=336c288b-11dc-4783-8cee-b45f96ecc39e"},"vehicle_type_id":"4","last_reported":1729516709,"current_range_meters":30000,"station_id":"ce4bgs12rcd13ifvqcag","pricing_plan_id":"cebpf4jnsgd1na2vs0mg"},{"bike_id":"ab7955f3-1994-4819-92a0-b291b30b6261","system_id":"levelo_inurba_marseille","lat":43.29036,"lon":5.3757,"is_reserved":false,"is_disabled":false,"rental_uris":{"android":"levelo://app?vid=ab7955f3-1994-4819-92a0-b291b30b6261","ios":"levelo://app?vid=ab7955f3-1994-4819-92a0-b291b30b6261"},"vehicle_type_id":"4","last_reported":1729516709,"current_range_meters":19200,"station_id":"ce4bh692rcd13ifvqe90","pricing_plan_id":"cebpf4jnsgd1na2vs0mg"},{"bike_id":"8d1f3607-5b33-48bc-8562-4ca9f6416f6c","system_id":"levelo_inurba_marseille","lat":43.34144,"lon":5.40903,"is_reserved":false,"is_disabled":false,"rental_uris":{"android":"levelo://app?vid=8d1f3607-5b33-48bc-8562-4ca9f6416f6c","ios":"levelo://app?vid=8d1f3607-5b33-48bc-8562-4ca9f6416f6c"},"vehicle_type_id":"4","last_reported":1729516709,"current_range_meters":40000,"station_id":"ce4bhqh2rcd13ifvqhlg","pricing_plan_id":"cebpf4jnsgd1na2vs0mg"},{"bike_id":"66aec993-1e64-4d81-a8ad-25dafdb5474b","system_id":"levelo_inurba_marseille","lat":43.2901,"lon":5.35609,"is_reserved":false,"is_disabled":false,"rental_uris":{"android":"levelo://app?vid=66aec993-1e64-4d81-a8ad-25dafdb5474b","ios":"levelo://app?vid=66aec993-1e64-4d81-a8ad-25dafdb5474b"},"vehicle_type_id":"4","last_reported":1729516709,"current_range_meters":2800,"station_id":"ce4bhb92rcd13ifvqen0","pricing_plan_id":"cebpf4jnsgd1na2vs0mg"},{"bike_id":"351f9467-ddaa-45d9-ae1e-a92ccc6417d0","system_id":"levelo_inurba_marseille","lat":43.24812,"lon":5.37456,"is_reserved":false,"is_disabled":false,"rental_uris":{"android":"levelo://app?vid=351f9467-ddaa-45d9-ae1e-a92ccc6417d0","ios":"levelo://app?vid=351f9467-ddaa-45d9-ae1e-a92ccc6417d0"},"vehicle_type_id":"4","last_reported":1729516709,"current_range_meters":30400,"station_id":"ce4bhgh2rcd13ifvqfb0","pricing_plan_id":"cebpf4jnsgd1na2vs0mg"},{"bike_id":"1cbd3b05-89f9-42e3-9fb9-48081e095fec","system_id":"levelo_inurba_marseille","lat":43.27683,"lon":5.38876,"is_reserved":false,"is_disabled":false,"rental_uris":{"android":"levelo://app?vid=1cbd3b05-89f9-42e3-9fb9-48081e095fec","ios":"levelo://app?vid=1cbd3b05-89f9-42e3-9fb9-48081e095fec"},"vehicle_type_id":"4","last_reported":1729516709,"current_range_meters":26800,"station_id":"ce4bhi12rcd13ifvqfo0","pricing_plan_id":"cebpf4jnsgd1na2vs0mg"},{"bike_id":"209a4825-8908-427b-8b79-f7372ed5e86a","system_id":"levelo_inurba_marseille","lat":43.29798,"lon":5.38101,"is_reserved":false,"is_disabled":false,"rental_uris":{"android":"levelo://app?vid=209a4825-8908-427b-8b79-f7372ed5e86a","ios":"levelo://app?vid=209a4825-8908-427b-8b79-f7372ed5e86a"},"vehicle_type_id":"4","last_reported":1729516709,"current_range_meters":35600,"station_id":"ce4bgip2rcd13ifvqbb0","pricing_plan_id":"cebpf4jnsgd1na2vs0mg"},{"bike_id":"f507cd56-95de-4112-bac0-3688235425a1","system_id":"levelo_inurba_marseille","lat":43.2408,"lon":5.3775,"is_reserved":false,"is_disabled":false,"rental_uris":{"android":"levelo://app?vid=f507cd56-95de-4112-bac0-3688235425a1","ios":"levelo://app?vid=f507cd56-95de-4112-bac0-3688235425a1"},"vehicle_type_id":"4","last_reported":1729516709,"current_range_meters":4800,"station_id":"ce4bhnp2rcd13ifvqgvg","pricing_plan_id":"cebpf4jnsgd1na2vs0mg"},{"bike_id":"f3033d3e-ad5a-464e-bd95-7b2498180549","system_id":"levelo_inurba_marseille","lat":43.29554,"lon":5.42279,"is_reserved":false,"is_disabled":false,"rental_uris":{"android":"levelo://app?vid=f3033d3e-ad5a-464e-bd95-7b2498180549","ios":"levelo://app?vid=f3033d3e-ad5a-464e-bd95-7b2498180549"},"vehicle_type_id":"4","last_reported":1729516709,"current_range_meters":38800,"station_id":"ce4bhph2rcd13ifvqhdg","pricing_plan_id":"cebpf4jnsgd1na2vs0mg"},{"bike_id":"fd7d6616-0d10-4436-97b3-dd9ea1bf2c62","system_id":"levelo_inurba_marseille","lat":43.29021,"lon":5.38141,"is_reserved":false,"is_disabled":false,"rental_uris":{"android":"levelo://app?vid=fd7d6616-0d10-4436-97b3-dd9ea1bf2c62","ios":"levelo://app?vid=fd7d6616-0d10-4436-97b3-dd9ea1bf2c62"},"vehicle_type_id":"4","last_reported":1729516709,"current_range_meters":26000,"station_id":"ce4bh4p2rcd13ifvqe1g","pricing_plan_id":"cebpf4jnsgd1na2vs0mg"},{"bike_id":"80949a95-ee7a-4d69-92e6-293afad67cb0","system_id":"levelo_inurba_marseille","lat":43.26902,"lon":5.42505,"is_reserved":false,"is_disabled":false,"rental_uris":{"android":"levelo://app?vid=80949a95-ee7a-4d69-92e6-293afad67cb0","ios":"levelo://app?vid=80949a95-ee7a-4d69-92e6-293afad67cb0"},"vehicle_type_id":"4","last_reported":1729516709,"current_range_meters":30400,"station_id":"","pricing_plan_id":"cebpf4jnsgd1na2vs0mg"},{"bike_id":"500ad0d4-3f89-40f2-adab-1e6110ec377c","system_id":"levelo_inurba_marseille","lat":43.32483,"lon":5.36564,"is_reserved":false,"is_disabled":false,"rental_uris":{"android":"levelo://app?vid=500ad0d4-3f89-40f2-adab-1e6110ec377c","ios":"levelo://app?vid=500ad0d4-3f89-40f2-adab-1e6110ec377c"},"vehicle_type_id":"4","last_reported":1729516709,"current_range_meters":38800,"station_id":"ce4bhs12rcd13ifvqhvg","pricing_plan_id":"cebpf4jnsgd1na2vs0mg"},{"bike_id":"c33d29c7-6761-4ecf-a256-1786246c91b3","system_id":"levelo_inurba_marseille","lat":43.23153,"lon":5.43707,"is_reserved":false,"is_disabled":false,"rental_uris":{"android":"levelo://app?vid=c33d29c7-6761-4ecf-a256-1786246c91b3","ios":"levelo://app?vid=c33d29c7-6761-4ecf-a256-1786246c91b3"},"vehicle_type_id":"4","last_reported":1729516709,"current_range_meters":39200,"station_id":"ce4bhmp2rcd13ifvqgog","pricing_plan_id":"cebpf4jnsgd1na2vs0mg"},{"bike_id":"586c981b-51f6-4859-a43e-098987459617","system_id":"levelo_inurba_marseille","lat":43.23194,"lon":5.3556,"is_reserved":false,"is_disabled":false,"rental_uris":{"android":"levelo://app?vid=586c981b-51f6-4859-a43e-098987459617","ios":"levelo://app?vid=586c981b-51f6-4859-a43e-098987459617"},"vehicle_type_id":"4","last_reported":1729516709,"current_range_meters":39200,"station_id":"ce4bhu92rcd13ifvqi70","pricing_plan_id":"cebpf4jnsgd1na2vs0mg"},{"bike_id":"e868d24d-a495-4582-a68d-fd804fa4e77b","system_id":"levelo_inurba_marseille","lat":43.22927,"lon":5.35376,"is_reserved":false,"is_disabled":false,"rental_uris":{"android":"levelo://app?vid=e868d24d-a495-4582-a68d-fd804fa4e77b","ios":"levelo://app?vid=e868d24d-a495-4582-a68d-fd804fa4e77b"},"vehicle_type_id":"4","last_reported":1729516709,"current_range_meters":36400,"station_id":"cpo3532slgdg3j2ikp40","pricing_plan_id":"cebpf4jnsgd1na2vs0mg"},{"bike_id":"9d850aed-2ff5-4b6b-9107-e43b90b7a5eb","system_id":"levelo_inurba_marseille","lat":43.29266,"lon":5.38437,"is_reserved":false,"is_disabled":false,"rental_uris":{"android":"levelo://app?vid=9d850aed-2ff5-4b6b-9107-e43b90b7a5eb","ios":"levelo://app?vid=9d850aed-2ff5-4b6b-9107-e43b90b7a5eb"},"vehicle_type_id":"4","last_reported":1729516709,"current_range_meters":24000,"station_id":"ce4bh692rcd13ifvqea0","pricing_plan_id":"cebpf4jnsgd1na2vs0mg"},{"bike_id":"819b1e9c-4511-4010-ab98-fa40dd9256e0","system_id":"levelo_inurba_marseille","lat":43.29802,"lon":5.38079,"is_reserved":false,"is_disabled":false,"rental_uris":{"android":"levelo://app?vid=819b1e9c-4511-4010-ab98-fa40dd9256e0","ios":"levelo://app?vid=819b1e9c-4511-4010-ab98-fa40dd9256e0"},"vehicle_type_id":"4","last_reported":1729516709,"current_range_meters":20400,"station_id":"ce4bgip2rcd13ifvqbb0","pricing_plan_id":"cebpf4jnsgd1na2vs0mg"},{"bike_id":"a65bd1da-3721-4f1e-ba04-b2194587e72c","system_id":"levelo_inurba_marseille","lat":43.28151,"lon":5.4265,"is_reserved":false,"is_disabled":false,"rental_uris":{"android":"levelo://app?vid=a65bd1da-3721-4f1e-ba04-b2194587e72c","ios":"levelo://app?vid=a65bd1da-3721-4f1e-ba04-b2194587e72c"},"vehicle_type_id":"4","last_reported":1729516709,"current_range_meters":8800,"station_id":"ce4bhnh2rcd13ifvqgug","pricing_plan_id":"cebpf4jnsgd1na2vs0mg"},{"bike_id":"550a7b11-639f-4c0e-9f32-664ca893be7e","system_id":"levelo_inurba_marseille","lat":43.29691,"lon":5.37314,"is_reserved":false,"is_disabled":false,"rental_uris":{"android":"levelo://app?vid=550a7b11-639f-4c0e-9f32-664ca893be7e","ios":"levelo://app?vid=550a7b11-639f-4c0e-9f32-664ca893be7e"},"vehicle_type_id":"4","last_reported":1729516709,"current_range_meters":28000,"station_id":"ce4bgk12rcd13ifvqbj0","pricing_plan_id":"cebpf4jnsgd1na2vs0mg"},{"bike_id":"ad595771-4b15-4580-b3c2-395fa4d69ec6","system_id":"levelo_inurba_marseille","lat":43.30534,"lon":5.36535,"is_reserved":false,"is_disabled":false,"rental_uris":{"android":"levelo://app?vid=ad595771-4b15-4580-b3c2-395fa4d69ec6","ios":"levelo://app?vid=ad595771-4b15-4580-b3c2-395fa4d69ec6"},"vehicle_type_id":"4","last_reported":1729516709,"current_range_meters":25200,"station_id":"ce4bgs12rcd13ifvqcag","pricing_plan_id":"cebpf4jnsgd1na2vs0mg"},{"bike_id":"3676a773-026d-4bc0-8509-953965fa407c","system_id":"levelo_inurba_marseille","lat":43.3248,"lon":5.36562,"is_reserved":false,"is_disabled":false,"rental_uris":{"android":"levelo://app?vid=3676a773-026d-4bc0-8509-953965fa407c","ios":"levelo://app?vid=3676a773-026d-4bc0-8509-953965fa407c"},"vehicle_type_id":"4","last_reported":1729516709,"current_range_meters":39200,"station_id":"ce4bhs12rcd13ifvqhvg","pricing_plan_id":"cebpf4jnsgd1na2vs0mg"},{"bike_id":"1ddde385-1607-4763-8f57-6b2aeb784888","system_id":"levelo_inurba_marseille","lat":43.25494,"lon":5.37649,"is_reserved":false,"is_disabled":false,"rental_uris":{"android":"levelo://app?vid=1ddde385-1607-4763-8f57-6b2aeb784888","ios":"levelo://app?vid=1ddde385-1607-4763-8f57-6b2aeb784888"},