{"last_updated":1678550881,"ttl":30,"version":"2.2","data":{"bikes":[{"bike_id":"65d5f6dd-559c-4098-ae89-fa6a7b6f047e","system_id":"levelo_inurba_marseille","lat":43.312239,"lon":5.368562,"is_reserved":false,"is_disabled":false,"rental_uris":{"android":"levelo://app?vid=65d5f6dd-559c-4098-ae89-fa6a7b6f047e","ios":"levelo://app?vid=65d5f6dd-559c-4098-ae89-fa6a7b6f047e"},"vehicle_type_id":"4","last_reported":1678550882,"current_range_meters":10800,"station_id":"ce4bgl92rcd13ifvqbq0","pricing_plan_id":"free"},{"bike_id":"225f601f-9ef0-45de-9f54-c55a40e728a6","system_id":"levelo_inurba_marseille","lat":43.309047,"lon":5.368471,"is_reserved":false,"is_disabled":false,"rental_uris":{"android":"levelo://app?vid=225f601f-9ef0-45de-9f54-c55a40e728a6","ios":"levelo://app?vid=225f601f-9ef0-45de-9f54-c55a40e728a6"},"vehicle_type_id":"4","last_reported":1678550882,"current_range_meters":31200,"station_id":"ce4bgn92rcd13ifvqbvg","pricing_plan_id":"free"},{"bike_id":"d8c7ad04-283c-4a58-979d-68247a6cf8a6","system_id":"levelo_inurba_marseille","lat":43.30903,"lon":5.36854,"is_reserved":false,"is_disabled":false,"rental_uris":{"android":"levelo://app?vid=d8c7ad04-283c-4a58-979d-68247a6cf8a6","ios":"levelo://app?vid=d8c7ad04-283c-4a58-979d-68247a6cf8a6"},"vehicle_type_id":"4","last_reported":1678550882,"current_range_meters":31600,"station_id":"","pricing_plan_id":"free"},{"bike_id":"62d5a534-7572-419d-a6ca-d86fc4c7dff0","system_id":"levelo_inurba_marseille","lat":43.314811,"lon":5.373103,"is_reserved":false,"is_disabled":false,"rental_uris":{"android":"levelo://app?vid=62d5a534-7572-419d-a6ca-d86fc4c7dff0","ios":"levelo://app?vid=62d5a534-7572-419d-a6ca-d86fc4c7dff0"},"vehicle_type_id":"4","last_reported":1678550882,"current_range_meters":25200,"station_id":"ce4bgt12rcd13ifvqcd0","pricing_plan_id":"free"},{"bike_id":"ccf42d3a-5a2a-44b4-8a68-aa47682ebb3c","system_id":"levelo_inurba_marseille","lat":43.31794,"lon":5.36814,"is_reserved":false,"is_disabled":false,"rental_uris":{"android":"levelo://app?vid=ccf42d3a-5a2a-44b4-8a68-aa47682ebb3c","ios":"levelo://app?vid=ccf42d3a-5a2a-44b4-8a68-aa47682ebb3c"},"vehicle_type_id":"4","last_reported":1678550882,"current_range_meters":13600,"station_id":"","pricing_plan_id":"free"},{"bike_id":"e2e53e08-2324-41c3-ab72-0640011e851e","system_id":"levelo_inurba_marseille","lat":43.308614,"lon":5.372098,"is_reserved":false,"is_disabled":false,"rental_uris":{"android":"levelo://app?vid=e2e53e08-2324-41c3-ab72-0640011e851e","ios":"levelo://app?vid=e2e53e08-2324-41c3-ab72-0640011e851e"},"vehicle_type_id":"4","last_reported":1678550882,"current_range_meters":8400,"station_id":"ce4bguh2rcd13ifvqckg","pricing_plan_id":"free"},{"bike_id":"599af28a-6d88-4269-9f2c-dedaa622c7e0","system_id":"levelo_inurba_marseille","lat":43.305989,"lon":5.37225,"is_reserved":false,"is_disabled":false,"rental_uris":{"android":"levelo://app?vid=599af28a-6d88-4269-9f2c-dedaa622c7e0","ios":"levelo://app?vid=599af28a-6d88-4269-9f2c-dedaa622c7e0"},"vehicle_type_id":"4","last_reported":1678550882,"current_range_meters":12800,"station_id":"ce4bgqh2rcd13ifvqc4g","pricing_plan_id":"free"},{"bike_id":"54a1a289-5588-41f5-b063-6e7c6b53f631","system_id":"levelo_inurba_marseille","lat":43.31705,"lon":5.3774,"is_reserved":false,"is_disabled":false,"rental_uris":{"android":"levelo://app?vid=54a1a289-5588-41f5-b063-6e7c6b53f631","ios":"levelo://app?vid=54a1a289-5588-41f5-b063-6e7c6b53f631"},"vehicle_type_id":"4","last_reported":1678550882,"current_range_meters":30800,"station_id":"","pricing_plan_id":"free"},{"bike_id":"57d19ccf-ef02-49fb-8468-df9186ced32c","system_id":"levelo_inurba_marseille","lat":43.317065,"lon":5.377685,"is_reserved":false,"is_disabled":false,"rental_uris":{"android":"levelo://app?vid=57d19ccf-ef02-49fb-8468-df9186ced32c","ios":"levelo://app?vid=57d19ccf-ef02-49fb-8468-df9186ced32c"},"vehicle_type_id":"4","last_reported":1678550882,"current_range_meters":28000,"station_id":"","pricing_plan_id":"free"},{"bike_id":"83129ceb-0c43-479c-94b1-245c23138ee4","system_id":"levelo_inurba_marseille","lat":43.30342,"lon":5.37255,"is_reserved":false,"is_disabled":false,"rental_uris":{"android":"levelo://app?vid=83129ceb-0c43-479c-94b1-245c23138ee4","ios":"levelo://app?vid=83129ceb-0c43-479c-94b1-245c23138ee4"},"vehicle_type_id":"4","last_reported":1678550882,"current_range_meters":0,"station_id":"","pricing_plan_id":"free"},{"bike_id":"096447ba-9f87-47b5-a9da-5522f141b29d","system_id":"levelo_inurba_marseille","lat":43.30196,"lon":5.36624,"is_reserved":false,"is_disabled":false,"rental_uris":{"android":"levelo://app?vid=096447ba-9f87-47b5-a9da-5522f141b29d","ios":"levelo://app?vid=096447ba-9f87-47b5-a9da-5522f141b29d"},"vehicle_type_id":"4","last_reported":1678550882,"current_range_meters":0,"station_id":"ce4bgrh2rcd13ifvqc8g","pricing_plan_id":"free"},{"bike_id":"e590922b-2b09-483f-9dcf-066c5a39989f","system_id":"levelo_inurba_marseille","lat":43.30193,"lon":5.36618,"is_reserved":false,"is_disabled":false,"rental_uris":{"android":"levelo://app?vid=e590922b-2b09-483f-9dcf-066c5a39989f","ios":"levelo://app?vid=e590922b-2b09-483f-9dcf-066c5a39989f"},"vehicle_type_id":"4","last_reported":1678550882,"current_range_meters":18000,"station_id":"","pricing_plan_id":"free"},{"bike_id":"ea926c85-5544-4fa6-bc41-b270322ab921","system_id":"levelo_inurba_marseille","lat":43.30191,"lon":5.36618,"is_reserved":false,"is_disabled":false,"rental_uris":{"android":"levelo://app?vid=ea926c85-5544-4fa6-bc41-b270322ab921","ios":"levelo://app?vid=ea926c85-5544-4fa6-bc41-b270322ab921"},"vehicle_type_id":"4","last_reported":1678550882,"current_range_meters":11200,"station_id":"","pricing_plan_id":"free"},{"bike_id":"74a33ed7-ff8a-4031-8748-420c74723d64","system_id":"levelo_inurba_marseille","lat":43.308012,"lon":5.381511,"is_reserved":false,"is_disabled":false,"rental_uris":{"android":"levelo://app?vid=74a33ed7-ff8a-4031-8748-420c74723d64","ios":"levelo://app?vid=74a33ed7-ff8a-4031-8748-420c74723d64"},"vehicle_type_id":"4","last_reported":1678550882,"current_range_meters":31600,"station_id":"ce4bgt12rcd13ifvqce0","pricing_plan_id":"free"},{"bike_id":"3f8d836d-386f-4dc8-a526-031ee431f22d","system_id":"levelo_inurba_marseille","lat":43.304606,"lon":5.379026,"is_reserved":false,"is_disabled":false,"rental_uris":{"android":"levelo://app?vid=3f8d836d-386f-4dc8-a526-031ee431f22d","ios":"levelo://app?vid=3f8d836d-386f-4dc8-a526-031ee431f22d"},"vehicle_type_id":"4","last_reported":1678550882,"current_range_meters":28800,"station_id":"ce4bgup2rcd13ifvqcn0","pricing_plan_id":"free"},{"bike_id":"263dba2f-2b99-46e3-bf4d-0a76c508d27c","system_id":"levelo_inurba_marseille","lat":43.30143,"lon":5.37409,"is_reserved":false,"is_disabled":false,"rental_uris":{"android":"levelo://app?vid=263dba2f-2b99-46e3-bf4d-0a76c508d27c","ios":"levelo://app?vid=263dba2f-2b99-46e3-bf4d-0a76c508d27c"},"vehicle_type_id":"4","last_reported":1678550882,"current_range_meters":15600,"station_id":"ce4bgs92rcd13ifvqcc0","pricing_plan_id":"free"},{"bike_id":"a14ff60e-3379-4c68-b832-201e7cd18968","system_id":"levelo_inurba_marseille","lat":43.313571,"lon":5.384829,"is_reserved":false,"is_disabled":false,"rental_uris":{"android":"levelo://app?vid=a14ff60e-3379-4c68-b832-201e7cd18968","ios":"levelo://app?vid=a14ff60e-3379-4c68-b832-201e7cd18968"},"vehicle_type_id":"4","last_reported":1678550882,"current_range_meters":31600,"station_id":"ce4bgt92rcd13ifvqcf0","pricing_plan_id":"free"},{"bike_id":"51d8fb7e-4b44-4c05-9203-12ed71bf8cb7","system_id":"levelo_inurba_marseille","lat":43.31361,"lon":5.3849,"is_reserved":false,"is_disabled":false,"rental_uris":{"android":"levelo://app?vid=51d8fb7e-4b44-4c05-9203-12ed71bf8cb7","ios":"levelo://app?vid=51d8fb7e-4b44-4c05-9203-12ed71bf8cb7"},"vehicle_type_id":"4","last_reported":1678550882,"current_range_meters":0,"station_id":"ce4bgt92rcd13ifvqcf0","pricing_plan_id":"free"},{"bike_id":"97e0771f-a51d-4134-990b-2363daba27f5","system_id":"levelo_inurba_marseille","lat":43.31367,"lon":5.38498,"is_reserved":false,"is_disabled":false,"rental_uris":{"android":"levelo://app?vid=97e0771f-a51d-4134-990b-2363daba27f5","ios":"levelo://app?vid=97e0771f-a51d-4134-990b-2363daba27f5"},"vehicle_type_id":"4","last_reported":1678550882,"current_range_meters":21200,"station_id":"","pricing_plan_id":"free"},{"bike_id":"6c43bb09-9550-4826-8879-0993b4031222","system_id":"levelo_inurba_marseille","lat":43.313571,"lon":5.384829,"is_reserved":false,"is_disabled":false,"rental_uris":{"android":"levelo://app?vid=6c43bb09-9550-4826-8879-0993b4031222","ios":"levelo://app?vid=6c43bb09-9550-4826-8879-0993b4031222"},"vehicle_type_id":"4","last_reported":1678550882,"current_range_meters":10800,"station_id":"ce4bgt92rcd13ifvqcf0","pricing_plan_id":"free"},{"bike_id":"5acf6232-b975-414d-bd89-f9fd6fcb4fc6","system_id":"levelo_inurba_marseille","lat":43.313571,"lon":5.384829,"is_reserved":false,"is_disabled":false,"rental_uris":{"android":"levelo://app?vid=5acf6232-b975-414d-bd89-f9fd6fcb4fc6","ios":"levelo://app?vid=5acf6232-b975-414d-bd89-f9fd6fcb4fc6"},"vehicle_type_id":"4","last_reported":1678550882,"current_range_meters":19600,"station_id":"ce4bgt92rcd13ifvqcf0","pricing_plan_id":"free"},{"bike_id":"ea5e6d8d-52a6-49ad-adc3-9a0f100f1d23","system_id":"levelo_inurba_marseille","lat":43.313571,"lon":5.384829,"is_reserved":false,"is_disabled":false,"rental_uris":{"android":"levelo://app?vid=ea5e6d8d-52a6-49ad-adc3-9a0f100f1d23","ios":"levelo://app?vid=ea5e6d8d-52a6-49ad-adc3-9a0f100f1d23"},"vehicle_type_id":"4","last_reported":1678550882,"current_range_meters":28000,"station_id":"ce4bgt92rcd13ifvqcf0","pricing_plan_id":"free"},{"bike_id":"478c4d04-b878-48d6-be7e-ab00832b3af9","system_id":"levelo_inurba_marseille","lat":43.313571,"lon":5.384829,"is_reserved":false,"is_disabled":false,"rental_uris":{"android":"levelo://app?vid=478c4d04-b878-48d6-be7e-ab00832b3af9","ios":"levelo://app?vid=478c4d04-b878-48d6-be7e-ab00832b3af9"},"vehicle_type_id":"4","last_reported":1678550882,"current_range_meters":22400,"station_id":"ce4bgt92rcd13ifvqcf0","pricing_plan_id":"free"},{"bike_id":"b36338ba-33a5-4162-8096-8e908ea9331d","system_id":"levelo_inurba_marseille","lat":43.313571,"lon":5.384829,"is_reserved":false,"is_disabled":false,"rental_uris":{"android":"levelo://app?vid=b36338ba-33a5-4162-8096-8e908ea9331d","ios":"levelo://app?vid=b36338ba-33a5-4162-8096-8e908ea9331d"},"vehicle_type_id":"4","last_reported":1678550882,"current_range_meters":16000,"station_id":"ce4bgt92rcd13ifvqcf0","pricing_plan_id":"free"},{"bike_id":"ebba6d7b-e939-4b53-ac6f-61ff3c27f8f1","system_id":"levelo_inurba_marseille","lat":43.298433,"lon":5.362774,"is_reserved":false,"is_disabled":false,"rental_uris":{"android":"levelo://app?vid=ebba6d7b-e939-4b53-ac6f-61ff3c27f8f1","ios":"levelo://app?vid=ebba6d7b-e939-4b53-ac6f-61ff3c27f8f1"},"vehicle_type_id":"4","last_reported":1678550882,"current_range_meters":4000,"station_id":"ce4bgpp2rcd13ifvqc3g","pricing_plan_id":"free"},{"bike_id":"41430dc6-aaf4-467f-9713-1871ccbc10c9","system_id":"levelo_inurba_marseille","lat":43.298433,"lon":5.362774,"is_reserved":false,"is_disabled":false,"rental_uris":{"android":"levelo://app?vid=41430dc6-aaf4-467f-9713-1871ccbc10c9","ios":"levelo://app?vid=41430dc6-aaf4-467f-9713-1871ccbc10c9"},"vehicle_type_id":"4","last_reported":1678550882,"current_range_meters":7200,"station_id":"ce4bgpp2rcd13ifvqc3g","pricing_plan_id":"free"},{"bike_id":"982842a4-529c-46b5-8500-38d49699042b","system_id":"levelo_inurba_marseille","lat":43.298433,"lon":5.362774,"is_reserved":false,"is_disabled":false,"rental_uris":{"android":"levelo://app?vid=982842a4-529c-46b5-8500-38d49699042b","ios":"levelo://app?vid=982842a4-529c-46b5-8500-38d49699042b"},"vehicle_type_id":"4","last_reported":1678550882,"current_range_meters":9600,"station_id":"ce4bgpp2rcd13ifvqc3g","pricing_plan_id":"free"},{"bike_id":"fbe5d2ad-bbae-4cc4-9f85-e6847625336b","system_id":"levelo_inurba_marseille","lat":43.328371,"lon":5.366909,"is_reserved":false,"is_disabled":false,"rental_uris":{"android":"levelo://app?vid=fbe5d2ad-bbae-4cc4-9f85-e6847625336b","ios":"levelo://app?vid=fbe5d2ad-bbae-4cc4-9f85-e6847625336b"},"vehicle_type_id":"4","last_reported":1678550882,"current_range_meters":0,"station_id":"ce4bhs92rcd13ifvqi0g","pricing_plan_id":"free"},{"bike_id":"3e453553-76d8-4e8c-81ec-c2b6680a5da8","system_id":"levelo_inurba_marseille","lat":43.328371,"lon":5.366909,"is_reserved":false,"is_disabled":false,"rental_uris":{"android":"levelo://app?vid=3e453553-76d8-4e8c-81ec-c2b6680a5da8","ios":"levelo://app?vid=3e453553-76d8-4e8c-81ec-c2b6680a5da8"},"vehicle_type_id":"4","last_reported":1678550882,"current_range_meters":0,"station_id":"ce4bhs92rcd13ifvqi0g","pricing_plan_id":"free"},{"bike_id":"b7fadd14-02e3-42d3-a75b-31cb41740238","system_id":"levelo_inurba_marseille","lat":43.328371,"lon":5.366909,"is_reserved":false,"is_disabled":false,"rental_uris":{"android":"levelo://app?vid=b7fadd14-02e3-42d3-a75b-31cb41740238","ios":"levelo://app?vid=b7fadd14-02e3-42d3-a75b-31cb41740238"},"vehicle_type_id":"4","last_reported":1678550882,"current_range_meters":30000,"station_id":"ce4bhs92rcd13ifvqi0g","pricing_plan_id":"free"},{"bike_id":"fd9122f3-dd15-4c68-8c15-92162ebedfc5","system_id":"levelo_inurba_marseille","lat":43.29582,"lon":5.36748,"is_reserved":false,"is_disabled":false,"rental_uris":{"android":"levelo://app?vid=fd9122f3-dd15-4c68-8c15-92162ebedfc5","ios":"levelo://app?vid=fd9122f3-dd15-4c68-8c15-92162ebedfc5"},"vehicle_type_id":"4","last_reported":1678550882,"current_range_meters":0,"station_id":"ce4bgph2rcd13ifvqc2g","pricing_plan_id":"free"},{"bike_id":"ac3f06d0-6b2d-443f-9dbf-d1c5b9b11ceb","system_id":"levelo_inurba_marseille","lat":43.31761,"lon":5.39014,"is_reserved":false,"is_disabled":false,"rental_uris":{"android":"levelo://app?vid=ac3f06d0-6b2d-443f-9dbf-d1c5b9b11ceb","ios":"levelo://app?vid=ac3f06d0-6b2d-443f-9dbf-d1c5b9b11ceb"},"vehicle_type_id":"4","last_reported":1678550882,"current_range_meters":30400,"station_id":"","pricing_plan_id":"free"},{"bike_id":"553c3f49-a156-47e5-9085-d5fe7e3b73f2","system_id":"levelo_inurba_marseille","lat":43.317583,"lon":5.390155,"is_reserved":false,"is_disabled":false,"rental_uris":{"android":"levelo://app?vid=553c3f49-a156-47e5-9085-d5fe7e3b73f2","ios":"levelo://app?vid=553c3f49-a156-47e5-9085-d5fe7e3b73f2"},"vehicle_type_id":"4","last_reported":1678550882,"current_range_meters":10800,"station_id":"ce4bhqp2rcd13ifvqhng","pricing_plan_id":"free"},{"bike_id":"96e2cb7b-b701-4522-8a1b-61cd8419394e","system_id":"levelo_inurba_marseille","lat":43.31763,"lon":5.39015,"is_reserved":false,"is_disabled":false,"rental_uris":{"android":"levelo://app?vid=96e2cb7b-b701-4522-8a1b-61cd8419394e","ios":"levelo://app?vid=96e2cb7b-b701-4522-8a1b-61cd8419394e"},"vehicle_type_id":"4","last_reported":1678550882,"current_range_meters":25200,"station_id":"","pricing_plan_id":"free"},{"bike_id":"10181c2b-6116-47eb-ae0b-ff80d825779c","system_id":"levelo_inurba_marseille","lat":43.31756,"lon":5.39018,"is_reserved":false,"is_disabled":false,"rental_uris":{"android":"levelo://app?vid=10181c2b-6116-47eb-ae0b-ff80d825779c","ios":"levelo://app?vid=10181c2b-6116-47eb-ae0b-ff80d825779c"},"vehicle_type_id":"4","last_reported":1678550882,"current_range_meters":26000,"station_id":"","pricing_plan_id":"free"},{"bike_id":"f1ec5796-207f-4e09-a7e0-b94a8d3a48bb","system_id":"levelo_inurba_marseille","lat":43.317567,"lon":5.390197,"is_reserved":false,"is_disabled":false,"rental_uris":{"android":"levelo://app?vid=f1ec5796-207f-4e09-a7e0-b94a8d3a48bb","ios":"levelo://app?vid=f1ec5796-207f-4e09-a7e0-b94a8d3a48bb"},"vehicle_type_id":"4","last_reported":1678550882,"current_range_meters":6000,"station_id":"","pricing_plan_id":"free"},{"bike_id":"188b88da-caff-4f80-a634-d81c957c5c1b","system_id":"levelo_inurba_marseille","lat":43.317557,"lon":5.390173,"is_reserved":false,"is_disabled":false,"rental_uris":{"android":"levelo://app?vid=188b88da-caff-4f80-a634-d81c957c5c1b","ios":"levelo://app?vid=188b88da-caff-4f80-a634-d81c957c5c1b"},"vehicle_type_id":"4","last_reported":1678550882,"current_range_meters":1200,"station_id":"ce4bhqp2rcd13ifvqhng","pricing_plan_id":"free"},{"bike_id":"60fea2a5-0da2-448b-9db5-f6f47cf4fada","system_id":"levelo_inurba_marseille","lat":43.317557,"lon":5.390173,"is_reserved":false,"is_disabled":false,"rental_uris":{"android":"levelo://app?vid=60fea2a5-0da2-448b-9db5-f6f47cf4fada","ios":"levelo://app?vid=60fea2a5-0da2-448b-9db5-f6f47cf4fada"},"vehicle_type_id":"4","last_reported":1678550882,"current_range_meters":14800,"station_id":"ce4bhqp2rcd13ifvqhng","pricing_plan_id":"free"},{"bike_id":"76dc6d00-9d3a-4a01-b35f-9aa023130ecb","system_id":"levelo_inurba_marseille","lat":43.317557,"lon":5.390173,"is_reserved":false,"is_disabled":false,"rental_uris":{"android":"levelo://app?vid=76dc6d00-9d3a-4a01-b35f-9aa023130ecb","ios":"levelo://app?vid=76dc6d00-9d3a-4a01-b35f-9aa023130ecb"},"vehicle_type_id":"4","last_reported":1678550882,"current_range_meters":11200,"station_id":"ce4bhqp2rcd13ifvqhng","pricing_plan_id":"free"},{"bike_id":"00771ea6-6cbc-4ee4-99dc-bea187bb5664","system_id":"levelo_inurba_marseille","lat":43.31757,"lon":5.39024,"is_reserved":false,"is_disabled":false,"rental_uris":{"android":"levelo://app?vid=00771ea6-6cbc-4ee4-99dc-bea187bb5664","ios":"levelo://app?vid=00771ea6-6cbc-4ee4-99dc-bea187bb5664"},"vehicle_type_id":"4","last_reported":1678550882,"current_range_meters":10400,"station_id":"ce4bhqp2rcd13ifvqhng","pricing_plan_id":"free"},{"bike_id":"5b7b769e-9102-4a4b-af76-949370195299","system_id":"levelo_inurba_marseille","lat":43.29978,"lon":5.38492,"is_reserved":false,"is_disabled":false,"rental_uris":{"android":"levelo://app?vid=5b7b769e-9102-4a4b-af76-949370195299","ios":"levelo://app?vid=5b7b769e-9102-4a4b-af76-949370195299"},"vehicle_type_id":"4","last_reported":1678550882,"current_range_meters":0,"station_id":"ce4bgj92rcd13ifvqbd0","pricing_plan_id":"free"},{"bike_id":"e542f7e7-9a6f-48a7-8743-47e1f365f493","system_id":"levelo_inurba_marseille","lat":43.295279,"lon":5.375048,"is_reserved":false,"is_disabled":false,"rental_uris":{"android":"levelo://app?vid=e542f7e7-9a6f-48a7-8743-47e1f365f493","ios":"levelo://app?vid=e542f7e7-9a6f-48a7-8743-47e1f365f493"},"vehicle_type_id":"4","last_reported":1678550882,"current_range_meters":27600,"station_id":"ce4bgkp2rcd13ifvqbmg","pricing_plan_id":"free"},{"bike_id":"2ec16c11-7b76-4c31-a599-433ef070f8ef","system_id":"levelo_inurba_marseille","lat":43.32368,"lon":5.38883,"is_reserved":false,"is_disabled":false,"rental_uris":{"android":"levelo://app?vid=2ec16c11-7b76-4c31-a599-433ef070f8ef","ios":"levelo://app?vid=2ec16c11-7b76-4c31-a599-433ef070f8ef"},"vehicle_type_id":"4","last_reported":1678550882,"current_range_meters":11600,"station_id":"ce4bhqp2rcd13ifvqhog","pricing_plan_id":"free"},{"bike_id":"ab38dde6-8198-4c69-b4ac-f8e60a5ffa36","system_id":"levelo_inurba_marseille","lat":43.32367,"lon":5.388836,"is_reserved":false,"is_disabled":false,"rental_uris":{"android":"levelo://app?vid=ab38dde6-8198-4c69-b4ac-f8e60a5ffa36","ios":"levelo://app?vid=ab38dde6-8198-4c69-b4ac-f8e60a5ffa36"},"vehicle_type_id":"4","last_reported":1678550882,"current_range_meters":20400,"station_id":"ce4bhqp2rcd13ifvqhog","pricing_plan_id":"free"},{"bike_id":"67329fa4-4e2e-45d8-bd87-598da0f72818","system_id":"levelo_inurba_marseille","lat":43.31282,"lon":5.39421,"is_reserved":false,"is_disabled":false,"rental_uris":{"android":"levelo://app?vid=67329fa4-4e2e-45d8-bd87-598da0f72818","ios":"levelo://app?vid=67329fa4-4e2e-45d8-bd87-598da0f72818"},"vehicle_type_id":"4","last_reported":1678550882,"current_range_meters":0,"station_id":"","pricing_plan_id":"free"},{"bike_id":"0cf1bb3e-ed5b-4bed-8666-ed2bc15a560a","system_id":"levelo_inurba_marseille","lat":43.305994,"lon":5.393687,"is_reserved":false,"is_disabled":false,"rental_uris":{"android":"levelo://app?vid=0cf1bb3e-ed5b-4bed-8666-ed2bc15a560a","ios":"levelo://app?vid=0cf1bb3e-ed5b-4bed-8666-ed2bc15a560a"},"vehicle_type_id":"4","last_reported":1678550882,"current_range_meters":21200,"station_id":"ce4bh0p2rcd13ifvqd80","pricing_plan_id":"free"},{"bike_id":"51a8f2e0-e5a2-40b2-9deb-2470b9859645","system_id":"levelo_inurba_marseille","lat":43.29376,"lon":5.37852,"is_reserved":false,"is_disabled":false,"rental_uris":{"android":"levelo://app?vid=51a8f2e0-e5a2-40b2-9deb-2470b9859645","ios":"levelo://app?vid=51a8f2e0-e5a2-40b2-9deb-2470b9859645"},"vehicle_type_id":"4","last_reported":1678550882,"current_range_meters":8800,"station_id":"ce4bgjh2rcd13ifvqbf0","pricing_plan_id":"free"},{"bike_id":"e84569ef-aa5e-4c12-93f3-cc11f1a6fbc8","system_id":"levelo_inurba_marseille","lat":43.2936,"lon":5.37835,"is_reserved":false,"is_disabled":false,"rental_uris":{"android":"levelo://app?vid=e84569ef-aa5e-4c12-93f3-cc11f1a6fbc8","ios":"levelo://app?vid=e84569ef-aa5e-4c12-93f3-cc11f1a6fbc8"},"vehicle_type_id":"4","last_reported":1678550882,"current_range_meters":12000,"station_id":"ce4bgjh2rcd13ifvqbf0","pricing_plan_id":"free"},{"bike_id":"0ad33b09-99b2-41b0-bc9c-0285b39d394c","system_id":"levelo_inurba_marseille","lat":43.29228,"lon":5.360765,"is_reserved":false,"is_disabled":false,"rental_uris":{"android":"levelo://app?vid=0ad33b09-99b2-41b0-bc9c-0285b39d394c","ios":"levelo://app?vid=0ad33b09-99b2-41b0-bc9c-0285b39d394c"},"vehicle_type_id":"4","last_reported":1678550882,"current_range_meters":1200,"station_id":"","pricing_plan_id":"free"},{"bike_id":"647d5eb0-fecf-4c00-8197-1cab24391b9e","system_id":"levelo_inurba_marseille","lat":43.300852,"lon":5.390859,"is_reserved":false,"is_disabled":false,"rental_uris":{"android":"levelo://app?vid=647d5eb0-fecf-4c00-8197-1cab24391b9e","ios":"levelo://app?vid=647d5eb0-fecf-4c00-8197-1cab24391b9e"},"vehicle_type_id":"4","last_reported":1678550882,"current_range_meters":0,"station_id":"ce4bh192rcd13ifvqdb0","pricing_plan_id":"free"},{"bike_id":"5961a3d6-c271-4e3e-92a1-3ee719a626b3","system_id":"levelo_inurba_marseille","lat":43.30377,"lon":5.39326,"is_reserved":false,"is_disabled":false,"rental_uris":{"android":"levelo://app?vid=5961a3d6-c271-4e3e-92a1-3ee719a626b3","ios":"levelo://app?vid=5961a3d6-c271-4e3e-92a1-3ee719a626b3"},"vehicle_type_id":"4","last_reported":1678550882,"current_range_meters":5200,"station_id":"","pricing_plan_id":"free"},{"bike_id":"d1fd3744-72a1-4b68-b222-0d1daa38eaec","system_id":"levelo_inurba_marseille","lat":43.313291,"lon":5.396838,"is_reserved":false,"is_disabled":false,"rental_uris":{"android":"levelo://app?vid=d1fd3744-72a1-4b68-b222-0d1daa38eaec","ios":"levelo://app?vid=d1fd3744-72a1-4b68-b222-0d1daa38eaec"},"vehicle_type_id":"4","last_reported":1678550882,"current_range_meters":24400,"station_id":"ce4bgvp2rcd13ifvqcu0","pricing_plan_id":"free"},{"bike_id":"32832211-a832-49da-8979-f95f9cd64710","system_id":"levelo_inurba_marseille","lat":43.313291,"lon":5.396838,"is_reserved":false,"is_disabled":false,"rental_uris":{"android":"levelo://app?vid=32832211-a832-49da-8979-f95f9cd64710","ios":"levelo://app?vid=32832211-a832-49da-8979-f95f9cd64710"},"vehicle_type_id":"4","last_reported":1678550882,"current_range_meters":2000,"station_id":"ce4bgvp2rcd13ifvqcu0","pricing_plan_id":"free"},{"bike_id":"da1696c8-1ca2-4520-b3b0-332eb08704f0","system_id":"levelo_inurba_marseille","lat":43.313291,"lon":5.396838,"is_reserved":false,"is_disabled":false,"rental_uris":{"android":"levelo://app?vid=da1696c8-1ca2-4520-b3b0-332eb08704f0","ios":"levelo://app?vid=da1696c8-1ca2-4520-b3b0-332eb08704f0"},"vehicle_type_id":"4","last_reported":1678550882,"current_range_meters":14800,"station_id":"ce4bgvp2rcd13ifvqcu0","pricing_plan_id":"free"},{"bike_id":"0b0fa0d0-94a9-4034-9656-b6c299e809a3","system_id":"levelo_inurba_marseille","lat":43.29529,"lon":5.385581,"is_reserved":false,"is_disabled":false,"rental_uris":{"android":"levelo://app?vid=0b0fa0d0-94a9-4034-9656-b6c299e809a3","ios":"levelo://app?vid=0b0fa0d0-94a9-4034-9656-b6c299e809a3"},"vehicle_type_id":"4","last_reported":1678550882,"current_range_meters":5200,"station_id":"ce4bgih2rcd13ifvqba0","pricing_plan_id":"free"},{"bike_id":"07038c35-b67f-4f7e-8621-19de11938025","system_id":"levelo_inurba_marseille","lat":43.290779,"lon":5.371482,"is_reserved":false,"is_disabled":false,"rental_uris":{"android":"levelo://app?vid=07038c35-b67f-4f7e-8621-19de11938025","ios":"levelo://app?vid=07038c35-b67f-4f7e-8621-19de11938025"},"vehicle_type_id":"4","last_reported":1678550882,"current_range_meters":0,"station_id":"ce4bh5p2rcd13ifvqe4g","pricing_plan_id":"free"},{"bike_id":"2d47497f-b70f-4e39-b7f2-06a935830b8d","system_id":"levelo_inurba_marseille","lat":43.290779,"lon":5.371482,"is_reserved":false,"is_disabled":false,"rental_uris":{"android":"levelo://app?vid=2d47497f-b70f-4e39-b7f2-06a935830b8d","ios":"levelo://app?vid=2d47497f-b70f-4e39-b7f2-06a935830b8d"},"vehicle_type_id":"4","last_reported":1678550882,"current_range_meters":25200,"station_id":"ce4bh5p2rcd13ifvqe4g","pricing_plan_id":"free"},{"bike_id":"8fccd644-54f2-4e78-bf91-9d949d39dcc2","system_id":"levelo_inurba_marseille","lat":43.322557,"lon":5.39453,"is_reserved":false,"is_disabled":false,"rental_uris":{"android":"levelo://app?vid=8fccd644-54f2-4e78-bf91-9d949d39dcc2","ios":"levelo://app?vid=8fccd644-54f2-4e78-bf91-9d949d39dcc2"},"vehicle_type_id":"4","last_reported":1678550882,"current_range_meters":0,"station_id":"","pricing_plan_id":"free"},{"bike_id":"5fc06bcf-ce9c-45c1-b981-371164f2126c","system_id":"levelo_inurba_marseille","lat":43.290624,"lon":5.359245,"is_reserved":false,"is_disabled":false,"rental_uris":{"android":"levelo://app?vid=5fc06bcf-ce9c-45c1-b981-371164f2126c","ios":"levelo://app?vid=5fc06bcf-ce9c-45c1-b981-371164f2126c"},"vehicle_type_id":"4","last_reported":1678550882,"current_range_meters":400,"station_id":"ce4bha92rcd13ifvqeg0","pricing_plan_id":"free"},{"bike_id":"9c49c5f8-fb62-4ecd-ade5-7cac2165e2dd","system_id":"levelo_inurba_marseille","lat":43.29422,"lon":5.38633,"is_reserved":false,"is_disabled":false,"rental_uris":{"android":"levelo://app?vid=9c49c5f8-fb62-4ecd-ade5-7cac2165e2dd","ios":"levelo://app?vid=9c49c5f8-fb62-4ecd-ade5-7cac2165e2dd"},"vehicle_type_id":"4","last_reported":1678550882,"current_range_meters":25200,"station_id":"","pricing_plan_id":"free"},{"bike_id":"e44d11b5-f7ff-4d06-9b7a-2846455c8553","system_id":"levelo_inurba_marseille","lat":43.289468,"lon":5.363719,"is_reserved":false,"is_disabled":false,"rental_uris":{"android":"levelo://app?vid=e44d11b5-f7ff-4d06-9b7a-2846455c8553","ios":"levelo://app?vid=e44d11b5-f7ff-4d06-9b7a-2846455c8553"},"vehicle_type_id":"4","last_reported":1678550882,"current_range_meters":3200,"station_id":"ce4bhc92rcd13ifvqetg","pricing_plan_id":"free"},{"bike_id":"4b73eaa3-0c3e-4fb4-a6c3-ec9987120461","system_id":"levelo_inurba_marseille","lat":43.28937,"lon":5.36684,"is_reserved":false,"is_disabled":false,"rental_uris":{"android":"levelo://app?vid=4b73eaa3-0c3e-4fb4-a6c3-ec9987120461","ios":"levelo://app?vid=4b73eaa3-0c3e-4fb4-a6c3-ec9987120461"},"vehicle_type_id":"4","last_reported":1678550882,"current_range_meters":0,"station_id":"ce4bhjp2rcd13ifvqg90","pricing_plan_id":"free"},{"bike_id":"4d92e5f4-233c-4d09-b495-8999f5aaa05e","system_id":"levelo_inurba_marseille","lat":43.30437,"lon":5.3975,"is_reserved":false,"is_disabled":false,"rental_uris":{"android":"levelo://app?vid=4d92e5f4-233c-4d09-b495-8999f5aaa05e","ios":"levelo://app?vid=4d92e5f4-233c-4d09-b495-8999f5aaa05e"},"vehicle_type_id":"4","last_reported":1678550882,"current_range_meters":16800,"station_id":"","pricing_plan_id":"free"},{"bike_id":"a3401cb2-61e9-4769-84ef-801dc0407392","system_id":"levelo_inurba_marseille","lat":43.292644,"lon":5.384257,"is_reserved":false,"is_disabled":false,"rental_uris":{"android":"levelo://app?vid=a3401cb2-61e9-4769-84ef-801dc0407392","ios":"levelo://app?vid=a3401cb2-61e9-4769-84ef-801dc0407392"},"vehicle_type_id":"4","last_reported":1678550882,"current_range_meters":0,"station_id":"ce4bh692rcd13ifvqea0","pricing_plan_id":"free"},{"bike_id":"73ce66df-2b56-4153-a829-e9f70bb14a8f","system_id":"levelo_inurba_marseille","lat":43.292644,"lon":5.384257,"is_reserved":false,"is_disabled":false,"rental_uris":{"android":"levelo://app?vid=73ce66df-2b56-4153-a829-e9f70bb14a8f","ios":"levelo://app?vid=73ce66df-2b56-4153-a829-e9f70bb14a8f"},"vehicle_type_id":"4","last_reported":1678550882,"current_range_meters":0,"station_id":"ce4bh692rcd13ifvqea0","pricing_plan_id":"free"},{"bike_id":"ec4f6eeb-fa26-473d-9654-621884deb5b2","system_id":"levelo_inurba_marseille","lat":43.292644,"lon":5.384257,"is_reserved":false,"is_disabled":false,"rental_uris":{"android":"levelo://app?vid=ec4f6eeb-fa26-473d-9654-621884deb5b2","ios":"levelo://app?vid=ec4f6eeb-fa26-473d-9654-621884deb5b2"},"vehicle_type_id":"4","last_reported":1678550882,"current_range_meters":3200,"station_id":"ce4bh692rcd13ifvqea0","pricing_plan_id":"free"},{"bike_id":"c26e5911-0744-4f51-b992-a72f52f2b771","system_id":"levelo_inurba_marseille","lat":43.292625,"lon":5.384493,"is_reserved":false,"is_disabled":false,"rental_uris":{"android":"levelo://app?vid=c26e5911-0744-4f51-b992-a72f52f2b771","ios":"levelo://app?vid=c26e5911-0744-4f51-b992-a72f52f2b771"},"vehicle_type_id":"4","last_reported":1678550882,"current_range_meters":0,"station_id":"ce4bh692rcd13ifvqea0","pricing_plan_id":"free"},{"bike_id":"ec87d5e1-9323-4e6a-bdb3-c9bede45715e","system_id":"levelo_inurba_marseille","lat":43.29011,"lon":5.35616,"is_reserved":false,"is_disabled":false,"rental_uris":{"android":"levelo://app?vid=ec87d5e1-9323-4e6a-bdb3-c9bede45715e","ios":"levelo://app?vid=ec87d5e1-9323-4e6a-bdb3-c9bede45715e"},"vehicle_type_id":"4","last_reported":1678550882,"current_range_meters":12000,"station_id":"ce4bhb92rcd13ifvqen0","pricing_plan_id":"free"},{"bike_id":"7845c2f9-0252-4ee7-84df-3734b7b9e2bd","system_id":"levelo_inurba_marseille","lat":43.330442,"lon":5.389148,"is_reserved":false,"is_disabled":false,"rental_uris":{"android":"levelo://app?vid=7845c2f9-0252-4ee7-84df-3734b7b9e2bd","ios":"levelo://app?vid=7845c2f9-0252-4ee7-84df-3734b7b9e2bd"},"vehicle_type_id":"4","last_reported":1678550882,"current_range_meters":16400,"station_id":"ce4bhr92rcd13ifvqhrg","pricing_plan_id":"free"},{"bike_id":"93d0f08a-73ca-405c-9ca0-14d96b5ac486","system_id":"levelo_inurba_marseille","lat":43.29006,"lon":5.35616,"is_reserved":false,"is_disabled":false,"rental_uris":{"android":"levelo://app?vid=93d0f08a-73ca-405c-9ca0-14d96b5ac486","ios":"levelo://app?vid=93d0f08a-73ca-405c-9ca0-14d96b5ac486"},"vehicle_type_id":"4","last_reported":1678550882,"current_range_meters":2400,"station_id":"ce4bhb92rcd13ifvqen0","pricing_plan_id":"free"},{"bike_id":"8f0e4f78-2083-4993-817b-097b8d15e5af","system_id":"levelo_inurba_marseille","lat":43.28856,"lon":5.358371,"is_reserved":false,"is_disabled":false,"rental_uris":{"android":"levelo://app?vid=8f0e4f78-2083-4993-817b-097b8d15e5af","ios":"levelo://app?vid=8f0e4f78-2083-4993-817b-097b8d15e5af"},"vehicle_type_id":"4","last_reported":1678550882,"current_range_meters":20400,"station_id":"ce4bhb12rcd13ifvqem0","pricing_plan_id":"free"},{"bike_id":"cc412d4d-445a-49f4-b097-f02a10fd0db4","system_id":"levelo_inurba_marseille","lat":43.330442,"lon":5.389148,"is_reserved":false,"is_disabled":false,"rental_uris":{"android":"levelo://app?vid=cc412d4d-445a-49f4-b097-f02a10fd0db4","ios":"levelo://app?vid=cc412d4d-445a-49f4-b097-f02a10fd0db4"},"vehicle_type_id":"4","last_reported":1678550882,"current_range_meters":24800,"station_id":"ce4bhr92rcd13ifvqhrg","pricing_plan_id":"free"},{"bike_id":"ac41039e-1765-4f59-b384-d1a19b22e5a5","system_id":"levelo_inurba_marseille","lat":43.330442,"lon":5.389148,"is_reserved":false,"is_disabled":false,"rental_uris":{"android":"levelo://app?vid=ac41039e-1765-4f59-b384-d1a19b22e5a5","ios":"levelo://app?vid=ac41039e-1765-4f59-b384-d1a19b22e5a5"},"vehicle_type_id":"4","last_reported":1678550882,"current_range_meters":15200,"station_id":"ce4bhr92rcd13ifvqhrg","pricing_plan_id":"free"},{"bike_id":"fd086bdc-35bb-4743-98cd-7e935d0a60f4","system_id":"levelo_inurba_marseille","lat":43.330469,"lon":5.389211,"is_reserved":false,"is_disabled":false,"rental_uris":{"android":"levelo://app?vid=fd086bdc-35bb-4743-98cd-7e935d0a60f4","ios":"levelo://app?vid=fd086bdc-35bb-4743-98cd-7e935d0a60f4"},"vehicle_type_id":"4","last_reported":1678550882,"current_range_meters":25600,"station_id":"ce4bhr92rcd13ifvqhrg","pricing_plan_id":"free"},{"bike_id":"0a61eab0-0b6a-46c9-b76a-3ce2cac4523e","system_id":"levelo_inurba_marseille","lat":43.330442,"lon":5.389148,"is_reserved":false,"is_disabled":false,"rental_uris":{"android":"levelo://app?vid=0a61eab0-0b6a-46c9-b76a-3ce2cac4523e","ios":"levelo://app?vid=0a61eab0-0b6a-46c9-b76a-3ce2cac4523e"},"vehicle_type_id":"4","last_reported":1678550882,"current_range_meters":21600,"station_id":"ce4bhr92rcd13ifvqhrg","pricing_plan_id":"free"},{"bike_id":"77e4852d-465f-4e74-8765-f2a7074832a4","system_id":"levelo_inurba_marseille","lat":43.330475,"lon":5.389215,"is_reserved":false,"is_disabled":false,"rental_uris":{"android":"levelo://app?vid=77e4852d-465f-4e74-8765-f2a7074832a4","ios":"levelo://app?vid=77e4852d-465f-4e74-8765-f2a7074832a4"},"vehicle_type_id":"4","last_reported":1678550882,"current_range_meters":4800,"station_id":"","pricing_plan_id":"free"},{"bike_id":"f64b02d1-0a95-4204-9328-ee07805cbd88","system_id":"levelo_inurba_marseille","lat":43.330442,"lon":5.389148,"is_reserved":false,"is_disabled":false,"rental_uris":{"android":"levelo://app?vid=f64b02d1-0a95-4204-9328-ee07805cbd88","ios":"levelo://app?vid=f64b02d1-0a95-4204-9328-ee07805cbd88"},"vehicle_type_id":"4","last_reported":1678550882,"current_range_meters":22800,"station_id":"ce4bhr92rcd13ifvqhrg","pricing_plan_id":"free"},{"bike_id":"a00e561e-6659-4b2f-a0b5-f0540a21016a","system_id":"levelo_inurba_marseille","lat":43.290995,"lon":5.381361,"is_reserved":false,"is_disabled":false,"rental_uris":{"android":"levelo://app?vid=a00e561e-6659-4b2f-a0b5-f0540a21016a","ios":"levelo://app?vid=a00e561e-6659-4b2f-a0b5-f0540a21016a"},"vehicle_type_id":"4","last_reported":1678550882,"current_range_meters":10000,"station_id":"ce4bh512rcd13ifvqe2g","pricing_plan_id":"free"},{"bike_id":"a6f23338-ee50-41b9-bd5e-3e606222180a","system_id":"levelo_inurba_marseille","lat":43.289793,"lon":5.378489,"is_reserved":false,"is_disabled":false,"rental_uris":{"android":"levelo://app?vid=a6f23338-ee50-41b9-bd5e-3e606222180a","ios":"levelo://app?vid=a6f23338-ee50-41b9-bd5e-3e606222180a"},"vehicle_type_id":"4","last_reported":1678550882,"current_range_meters":0,"station_id":"","pricing_plan_id":"free"},{"bike_id":"d123245a-c25f-491a-8d1c-ebc2705895d7","system_id":"levelo_inurba_marseille","lat":43.289741,"lon":5.378306,"is_reserved":false,"is_disabled":false,"rental_uris":{"android":"levelo://app?vid=d123245a-c25f-491a-8d1c-ebc2705895d7","ios":"levelo://app?vid=d123245a-c25f-491a-8d1c-ebc2705895d7"},"vehicle_type_id":"4","last_reported":1678550882,"current_range_meters":20000,"station_id":"ce4bh9p2rcd13ifvqed0","pricing_plan_id":"free"},{"bike_id":"03103003-bc05-4358-895c-11e32ad3788a","system_id":"levelo_inurba_marseille","lat":43.28856,"lon":5.358371,"is_reserved":false,"is_disabled":false,"rental_uris":{"android":"levelo://app?vid=03103003-bc05-4358-895c-11e32ad3788a","ios":"levelo://app?vid=03103003-bc05-4358-895c-11e32ad3788a"},"vehicle_type_id":"4","last_reported":1678550882,"current_range_meters":5600,"station_id":"ce4bhb12rcd13ifvqem0","pricing_plan_id":"free"},{"bike_id":"8064d1bd-ea0d-4e0b-afbc-e28c7a1a90d5","system_id":"levelo_inurba_marseille","lat":43.288537,"lon":5.358557,"is_reserved":false,"is_disabled":false,"rental_uris":{"android":"levelo://app?vid=8064d1bd-ea0d-4e0b-afbc-e28c7a1a90d5","ios":"levelo://app?vid=8064d1bd-ea0d-4e0b-afbc-e28c7a1a90d5"},"vehicle_type_id":"4","last_reported":1678550882,"current_range_meters":14000,"station_id":"","pricing_plan_id":"free"},{"bike_id":"4fb142dd-24ff-4a76-9799-3af9862fef50","system_id":"levelo_inurba_marseille","lat":43.28856,"lon":5.358371,"is_reserved":false,"is_disabled":false,"rental_uris":{"android":"levelo://app?vid=4fb142dd-24ff-4a76-9799-3af9862fef50","ios":"levelo://app?vid=4fb142dd-24ff-4a76-9799-3af9862fef50"},"vehicle_type_id":"4","last_reported":1678550882,"current_range_meters":0,"station_id":"ce4bhb12rcd13ifvqem0","pricing_plan_id":"free"},{"bike_id":"215c868e-0247-4a6b-9042-4dd46d98d93d","system_id":"levelo_inurba_marseille","lat":43.301117,"lon":5.398795,"is_reserved":false,"is_disabled":false,"rental_uris":{"android":"levelo://app?vid=215c868e-0247-4a6b-9042-4dd46d98d93d","ios":"levelo://app?vid=215c868e-0247-4a6b-9042-4dd46d98d93d"},"vehicle_type_id":"4","last_reported":1678550882,"current_range_meters":21200,"station_id":"ce4bh0h2rcd13ifvqd40","pricing_plan_id":"free"},{"bike_id":"132fa643-ef69-48c0-a9d6-c0d7ddba7ccb","system_id":"levelo_inurba_marseille","lat":43.301117,"lon":5.398795,"is_reserved":false,"is_disabled":false,"rental_uris":{"android":"levelo://app?vid=132fa643-ef69-48c0-a9d6-c0d7ddba7ccb","ios":"levelo://app?vid=132fa643-ef69-48c0-a9d6-c0d7ddba7ccb"},"vehicle_type_id":"4","last_reported":1678550882,"current_range_meters":8800,"station_id":"ce4bh0h2rcd13ifvqd40","pricing_plan_id":"free"},{"bike_id":"31c3325b-f6ca-495e-a1f6-143652446750","system_id":"levelo_inurba_marseille","lat":43.30138,"lon":5.3986,"is_reserved":false,"is_disabled":false,"rental_uris":{"android":"levelo://app?vid=31c3325b-f6ca-495e-a1f6-143652446750","ios":"levelo://app?vid=31c3325b-f6ca-495e-a1f6-143652446750"},"vehicle_type_id":"4","last_reported":1678550882,"current_range_meters":14000,"station_id":"","pricing_plan_id":"free"},{"bike_id":"12a0d985-37dc-48bb-a803-94652689e08a","system_id":"levelo_inurba_marseille","lat":43.301117,"lon":5.398795,"is_reserved":false,"is_disabled":false,"rental_uris":{"android":"levelo://app?vid=12a0d985-37dc-48bb-a803-94652689e08a","ios":"levelo://app?vid=12a0d985-37dc-48bb-a803-94652689e08a"},"vehicle_type_id":"4","last_reported":1678550882,"current_range_meters":0,"station_id":"ce4bh0h2rcd13ifvqd40","pricing_plan_id":"free"},{"bike_id":"aa5ad2c8-efae-4636-a232-f9e3e51bed41","system_id":"levelo_inurba_marseille","lat":43.30129,"lon":5.39859,"is_reserved":false,"is_disabled":false,"rental_uris":{"android":"levelo://app?vid=aa5ad2c8-efae-4636-a232-f9e3e51bed41","ios":"levelo://app?vid=aa5ad2c8-efae-4636-a232-f9e3e51bed41"},"vehicle_type_id":"4","last_reported":1678550882,"current_range_meters":16000,"station_id":"ce4bh0h2rcd13ifvqd40","pricing_plan_id":"free"},{"bike_id":"a888d63b-42e9-4272-83b1-323b6cea8f75","system_id":"levelo_inurba_marseille","lat":43.286593,"lon":5.363346,"is_reserved":false,"is_disabled":false,"rental_uris":{"android":"levelo://app?vid=a888d63b-42e9-4272-83b1-323b6cea8f75","ios":"levelo://app?vid=a888d63b-42e9-4272-83b1-323b6cea8f75"},"vehicle_type_id":"4","last_reported":1678550882,"current_range_meters":14000,"station_id":"ce4bhah2rcd13ifvqej0","pricing_plan_id":"free"},{"bike_id":"60401ba2-bc02-4bd1-8bd5-53f29ed98373","system_id":"levelo_inurba_marseille","lat":43.298681,"lon":5.397225,"is_reserved":false,"is_disabled":false,"rental_uris":{"android":"levelo://app?vid=60401ba2-bc02-4bd1-8bd5-53f29ed98373","ios":"levelo://app?vid=60401ba2-bc02-4bd1-8bd5-53f29ed98373"},"vehicle_type_id":"4","last_reported":1678550882,"current_range_meters":6000,"station_id":"ce4bh0h2rcd13ifvqd50","pricing_plan_id":"free"},{"bike_id":"cc403e3c-e964-414f-9ff5-d71032408503","system_id":"levelo_inurba_marseille","lat":43.29543,"lon":5.39395,"is_reserved":false,"is_disabled":false,"rental_uris":{"android":"levelo://app?vid=cc403e3c-e964-414f-9ff5-d71032408503","ios":"levelo://app?vid=cc403e3c-e964-414f-9ff5-d71032408503"},"vehicle_type_id":"4","last_reported":1678550882,"current_range_meters":12800,"station_id":"ce4bh212rcd13ifvqde0","pricing_plan_id":"free"},{"bike_id":"80519695-f427-4fc6-9f73-e2578670fe63","system_id":"levelo_inurba_marseille","lat":43.2954,"lon":5.39395,"is_reserved":false,"is_disabled":false,"rental_uris":{"android":"levelo://app?vid=80519695-f427-4fc6-9f73-e2578670fe63","ios":"levelo://app?vid=80519695-f427-4fc6-9f73-e2578670fe63"},"vehicle_type_id":"4","last_reported":1678550882,"current_range_meters":9200,"station_id":"ce4bh292rcd13ifvqdf0","pricing_plan_id":"free"},{"bike_id":"a1cac8b9-ed27-4a9c-8d8f-545a3aeaaecf","system_id":"levelo_inurba_marseille","lat":43.290334,"lon":5.386282,"is_reserved":false,"is_disabled":false,"rental_uris":{"android":"levelo://app?vid=a1cac8b9-ed27-4a9c-8d8f-545a3aeaaecf","ios":"levelo://app?vid=a1cac8b9-ed27-4a9c-8d8f-545a3aeaaecf"},"vehicle_type_id":"4","last_reported":1678550882,"current_range_meters":0,"station_id":"ce4bh4p2rcd13ifvqe0g","pricing_plan_id":"free"},{"bike_id":"ebd022dd-643b-4548-89a2-c033b4614c12","system_id":"levelo_inurba_marseille","lat":43.302759,"lon":5.400793,"is_reserved":false,"is_disabled":false,"rental_uris":{"android":"levelo://app?vid=ebd022dd-643b-4548-89a2-c033b4614c12","ios":"levelo://app?vid=ebd022dd-643b-4548-89a2-c033b4614c12"},"vehicle_type_id":"4","last_reported":1678550882,"current_range_meters":18000,"station_id":"ce4bgvh2rcd13ifvqcs0","pricing_plan_id":"free"},{"bike_id":"2b334e12-e13a-4b63-8a90-10622838e3da","system_id":"levelo_inurba_marseille","lat":43.302759,"lon":5.400793,"is_reserved":false,"is_disabled":false,"rental_uris":{"android":"levelo://app?vid=2b334e12-e13a-4b63-8a90-10622838e3da","ios":"levelo://app?vid=2b334e12-e13a-4b63-8a90-10622838e3da"},"vehicle_type_id":"4","last_reported":1678550882,"current_range_meters":3600,"station_id":"ce4bgvh2rcd13ifvqcs0","pricing_plan_id":"free"},{"bike_id":"fb42131f-4c56-477f-a9eb-4059249085be","system_id":"levelo_inurba_marseille","lat":43.28608,"lon":5.37069,"is_reserved":false,"is_disabled":false,"rental_uris":{"android":"levelo://app?vid=fb42131f-4c56-477f-a9eb-4059249085be","ios":"levelo://app?vid=fb42131f-4c56-477f-a9eb-4059249085be"},"vehicle_type_id":"4","last_reported":1678550882,"current_range_meters":19600,"station_id":"ce4bht12rcd13ifvqi60","pricing_plan_id":"free"},{"bike_id":"47040cdd-e7fd-454b-a02e-b34cd7023dfd","system_id":"levelo_inurba_marseille","lat":43.316517,"lon":5.404375,"is_reserved":false,"is_disabled":false,"rental_uris":{"android":"levelo://app?vid=47040cdd-e7fd-454b-a02e-b34cd7023dfd","ios":"levelo://app?vid=47040cdd-e7fd-454b-a02e-b34cd7023dfd"},"vehicle_type_id":"4","last_reported":1678550882,"current_range_meters":31600,"station_id":"ce4bh012rcd13ifvqd00","pricing_plan_id":"free"},{"bike_id":"d1652f14-8060-466c-8e55-92f7a99cd8a6","system_id":"levelo_inurba_marseille","lat":43.31642,"lon":5.40433,"is_reserved":false,"is_disabled":false,"rental_uris":{"android":"levelo://app?vid=d1652f14-8060-466c-8e55-92f7a99cd8a6","ios":"levelo://app?vid=d1652f14-8060-466c-8e55-92f7a99cd8a6"},"vehicle_type_id":"4","last_reported":1678550882,"current_range_meters":8400,"station_id":"ce4bh012rcd13ifvqd00","pricing_plan_id":"free"},{"bike_id":"18a0515e-bc00-458f-b3c4-7f303c8fa976","system_id":"levelo_inurba_marseille","lat":43.316565,"lon":5.404317,"is_reserved":false,"is_disabled":false,"rental_uris":{"android":"levelo://app?vid=18a0515e-bc00-458f-b3c4-7f303c8fa976","ios":"levelo://app?vid=18a0515e-bc00-458f-b3c4-7f303c8fa976"},"vehicle_type_id":"4","last_reported":1678550882,"current_range_meters":26000,"station_id":"","pricing_plan_id":"free"},{"bike_id":"f0ce6c0e-808e-4032-ad6a-7cdd26055a24","system_id":"levelo_inurba_marseille","lat":43.316517,"lon":5.404375,"is_reserved":false,"is_disabled":false,"rental_uris":{"android":"levelo://app?vid=f0ce6c0e-808e-4032-ad6a-7cdd26055a24","ios":"levelo://app?vid=f0ce6c0e-808e-4032-ad6a-7cdd26055a24"},"vehicle_type_id":"4","last_reported":1678550882,"current_range_meters":18800,"station_id":"ce4bh012rcd13ifvqd00","pricing_plan_id":"free"},{"bike_id":"82cbaa9d-c9d0-44b2-abf8-1340609971bc","system_id":"levelo_inurba_marseille","lat":43.316517,"lon":5.404375,"is_reserved":false,"is_disabled":false,"rental_uris":{"android":"levelo://app?vid=82cbaa9d-c9d0-44b2-abf8-1340609971bc","ios":"levelo://app?vid=82cbaa9d-c9d0-44b2-abf8-1340609971bc"},"vehicle_type_id":"4","last_reported":1678550882,"current_range_meters":16000,"station_id":"ce4bh012rcd13ifvqd00","pricing_plan_id":"free"},{"bike_id":"07925997-dd1b-44a1-b6b6-0ae4725e97dc","system_id":"levelo_inurba_marseille","lat":43.316517,"lon":5.404375,"is_reserved":false,"is_disabled":false,"rental_uris":{"android":"levelo://app?vid=07925997-dd1b-44a1-b6b6-0ae4725e97dc","ios":"levelo://app?vid=07925997-dd1b-44a1-b6b6-0ae4725e97dc"},"vehicle_type_id":"4","last_reported":1678550882,"current_range_meters":28400,"station_id":"ce4bh012rcd13ifvqd00","pricing_plan_id":"free"},{"bike_id":"b884b4a9-e1af-4382-8a70-658071732a5e","system_id":"levelo_inurba_marseille","lat":43.316517,"lon":5.404375,"is_reserved":false,"is_disabled":false,"rental_uris":{"android":"levelo://app?vid=b884b4a9-e1af-4382-8a70-658071732a5e","ios":"levelo://app?vid=b884b4a9-e1af-4382-8a70-658071732a5e"},"vehicle_type_id":"4","last_reported":1678550882,"current_range_meters":12800,"station_id":"ce4bh012rcd13ifvqd00","pricing_plan_id":"free"},{"bike_id":"534a00c9-541b-419d-98a9-e4ed133212ff","system_id":"levelo_inurba_marseille","lat":43.316517,"lon":5.404375,"is_reserved":false,"is_disabled":false,"rental_uris":{"android":"levelo://app?vid=534a00c9-541b-419d-98a9-e4ed133212ff","ios":"levelo://app?vid=534a00c9-541b-419d-98a9-e4ed133212ff"},"vehicle_type_id":"4","last_reported":1678550882,"current_range_meters":17200,"station_id":"ce4bh012rcd13ifvqd00","pricing_plan_id":"free"},{"bike_id":"ad5f2e48-4bb3-455d-9851-46529cd9aee2","system_id":"levelo_inurba_marseille","lat":43.316517,"lon":5.404375,"is_reserved":false,"is_disabled":false,"rental_uris":{"android":"levelo://app?vid=ad5f2e48-4bb3-455d-9851-46529cd9aee2","ios":"levelo://app?vid=ad5f2e48-4bb3-455d-9851-46529cd9aee2"},"vehicle_type_id":"4","last_reported":1678550882,"current_range_meters":25200,"station_id":"ce4bh012rcd13ifvqd00","pricing_plan_id":"free"},{"bike_id":"8b8a0136-f18b-456c-8664-7648f187bf76","system_id":"levelo_inurba_marseille","lat":43.284635,"lon":5.35892,"is_reserved":false,"is_disabled":false,"rental_uris":{"android":"levelo://app?vid=8b8a0136-f18b-456c-8664-7648f187bf76","ios":"levelo://app?vid=8b8a0136-f18b-456c-8664-7648f187bf76"},"vehicle_type_id":"4","last_reported":1678550882,"current_range_meters":31600,"station_id":"ce4bhah2rcd13ifvqei0","pricing_plan_id":"free"},{"bike_id":"8e81f128-619f-4785-9f9d-da478b69c8f1","system_id":"levelo_inurba_marseille","lat":43.28463,"lon":5.35895,"is_reserved":false,"is_disabled":false,"rental_uris":{"android":"levelo://app?vid=8e81f128-619f-4785-9f9d-da478b69c8f1","ios":"levelo://app?vid=8e81f128-619f-4785-9f9d-da478b69c8f1"},"vehicle_type_id":"4","last_reported":1678550882,"current_range_meters":31600,"station_id":"ce4bhah2rcd13ifvqei0","pricing_plan_id":"free"},{"bike_id":"593279a0-17d0-43f0-99bb-1450c76d6736","system_id":"levelo_inurba_marseille","lat":43.284631,"lon":5.358922,"is_reserved":false,"is_disabled":false,"rental_uris":{"android":"levelo://app?vid=593279a0-17d0-43f0-99bb-1450c76d6736","ios":"levelo://app?vid=593279a0-17d0-43f0-99bb-1450c76d6736"},"vehicle_type_id":"4","last_reported":1678550882,"current_range_meters":28800,"station_id":"ce4bhah2rcd13ifvqei0","pricing_plan_id":"free"},{"bike_id":"de5bd883-373f-452a-be09-5303008eb402","system_id":"levelo_inurba_marseille","lat":43.29573,"lon":5.3998,"is_reserved":false,"is_disabled":false,"rental_uris":{"android":"levelo://app?vid=de5bd883-373f-452a-be09-5303008eb402","ios":"levelo://app?vid=de5bd883-373f-452a-be09-5303008eb402"},"vehicle_type_id":"4","last_reported":1678550882,"current_range_meters":25600,"station_id":"ce4bh312rcd13ifvqdj0","pricing_plan_id":"free"},{"bike_id":"7a118c26-78b3-45a5-8800-d31b737ff05b","system_id":"levelo_inurba_marseille","lat":43.28686,"lon":5.38667,"is_reserved":false,"is_disabled":false,"rental_uris":{"android":"levelo://app?vid=7a118c26-78b3-45a5-8800-d31b737ff05b","ios":"levelo://app?vid=7a118c26-78b3-45a5-8800-d31b737ff05b"},"vehicle_type_id":"4","last_reported":1678550882,"current_range_meters":1600,"station_id":"","pricing_plan_id":"free"},{"bike_id":"9c56dbd4-0203-4736-b9b7-95758b0b3d6e","system_id":"levelo_inurba_marseille","lat":43.286595,"lon":5.386795,"is_reserved":false,"is_disabled":false,"rental_uris":{"android":"levelo://app?vid=9c56dbd4-0203-4736-b9b7-95758b0b3d6e","ios":"levelo://app?vid=9c56dbd4-0203-4736-b9b7-95758b0b3d6e"},"vehicle_type_id":"4","last_reported":1678550882,"current_range_meters":3200,"station_id":"ce4bh492rcd13ifvqdug","pricing_plan_id":"free"},{"bike_id":"8027a692-139d-4c32-ad23-4cb2592a14c9","system_id":"levelo_inurba_marseille","lat":43.28681,"lon":5.3867,"is_reserved":false,"is_disabled":false,"rental_uris":{"android":"levelo://app?vid=8027a692-139d-4c32-ad23-4cb2592a14c9","ios":"levelo://app?vid=8027a692-139d-4c32-ad23-4cb2592a14c9"},"vehicle_type_id":"4","last_reported":1678550882,"current_range_meters":22800,"station_id":"","pricing_plan_id":"free"},{"bike_id":"e278866b-939a-4a4e-81c2-183555f36752","system_id":"levelo_inurba_marseille","lat":43.33717,"lon":5.391857,"is_reserved":false,"is_disabled":false,"rental_uris":{"android":"levelo://app?vid=e278866b-939a-4a4e-81c2-183555f36752","ios":"levelo://app?vid=e278866b-939a-4a4e-81c2-183555f36752"},"vehicle_type_id":"4","last_reported":1678550882,"current_range_meters":14800,"station_id":"ce4bhr92rcd13ifvqhsg","pricing_plan_id":"free"},{"bike_id":"071751a6-2257-4f47-b83d-6a49691737ea","system_id":"levelo_inurba_marseille","lat":43.33717,"lon":5.391857,"is_reserved":false,"is_disabled":false,"rental_uris":{"android":"levelo://app?vid=071751a6-2257-4f47-b83d-6a49691737ea","ios":"levelo://app?vid=071751a6-2257-4f47-b83d-6a49691737ea"},"vehicle_type_id":"4","last_reported":1678550882,"current_range_meters":20800,"station_id":"ce4bhr92rcd13ifvqhsg","pricing_plan_id":"free"},{"bike_id":"c6663e10-5580-4ca6-b47e-7f4f35e494f7","system_id":"levelo_inurba_marseille","lat":43.337168,"lon":5.391825,"is_reserved":false,"is_disabled":false,"rental_uris":{"android":"levelo://app?vid=c6663e10-5580-4ca6-b47e-7f4f35e494f7","ios":"levelo://app?vid=c6663e10-5580-4ca6-b47e-7f4f35e494f7"},"vehicle_type_id":"4","last_reported":1678550882,"current_range_meters":27200,"station_id":"ce4bhr92rcd13ifvqhsg","pricing_plan_id":"free"},{"bike_id":"14c1a253-7802-4bf4-89a4-59cedbb3ff53","system_id":"levelo_inurba_marseille","lat":43.33717,"lon":5.391857,"is_reserved":false,"is_disabled":false,"rental_uris":{"android":"levelo://app?vid=14c1a253-7802-4bf4-89a4-59cedbb3ff53","ios":"levelo://app?vid=14c1a253-7802-4bf4-89a4-59cedbb3ff53"},"vehicle_type_id":"4","last_reported":1678550882,"current_range_meters":23200,"station_id":"ce4bhr92rcd13ifvqhsg","pricing_plan_id":"free"},{"bike_id":"ddabba50-a1dc-4b46-a644-ace5f7860b45","system_id":"levelo_inurba_marseille","lat":43.33717,"lon":5.391857,"is_reserved":false,"is_disabled":false,"rental_uris":{"android":"levelo://app?vid=ddabba50-a1dc-4b46-a644-ace5f7860b45","ios":"levelo://app?vid=ddabba50-a1dc-4b46-a644-ace5f7860b45"},"vehicle_type_id":"4","last_reported":1678550882,"current_range_meters":30800,"station_id":"ce4bhr92rcd13ifvqhsg","pricing_plan_id":"free"},{"bike_id":"42e28ab5-8793-4be0-9d7f-ebdfd7e9b678","system_id":"levelo_inurba_marseille","lat":43.337168,"lon":5.391825,"is_reserved":false,"is_disabled":false,"rental_uris":{"android":"levelo://app?vid=42e28ab5-8793-4be0-9d7f-ebdfd7e9b678","ios":"levelo://app?vid=42e28ab5-8793-4be0-9d7f-ebdfd7e9b678"},"vehicle_type_id":"4","last_reported":1678550882,"current_range_meters":16400,"station_id":"ce4bhr92rcd13ifvqhsg","pricing_plan_id":"free"},{"bike_id":"cbc16dda-d8c6-49fd-8585-f0229a64e994","system_id":"levelo_inurba_marseille","lat":43.33724,"lon":5.39185,"is_reserved":false,"is_disabled":false,"rental_uris":{"android":"levelo://app?vid=cbc16dda-d8c6-49fd-8585-f0229a64e994","ios":"levelo://app?vid=cbc16dda-d8c6-49fd-8585-f0229a64e994"},"vehicle_type_id":"4","last_reported":1678550882,"current_range_meters":31600,"station_id":"","pricing_plan_id":"free"},{"bike_id":"dc1fcedf-3db2-4f93-9984-2278797b37d7","system_id":"levelo_inurba_marseille","lat":43.33717,"lon":5.391857,"is_reserved":false,"is_disabled":false,"rental_uris":{"android":"levelo://app?vid=dc1fcedf-3db2-4f93-9984-2278797b37d7","ios":"levelo://app?vid=dc1fcedf-3db2-4f93-9984-2278797b37d7"},"vehicle_type_id":"4","last_reported":1678550882,"current_range_meters":26400,"station_id":"ce4bhr92rcd13ifvqhsg","pricing_plan_id":"free"},{"bike_id":"50c6273a-2bae-4af0-9f9c-ea3c136a4bfe","system_id":"levelo_inurba_marseille","lat":43.284787,"lon":5.384116,"is_reserved":false,"is_disabled":false,"rental_uris":{"android":"levelo://app?vid=50c6273a-2bae-4af0-9f9c-ea3c136a4bfe","ios":"levelo://app?vid=50c6273a-2bae-4af0-9f9c-ea3c136a4bfe"},"vehicle_type_id":"4","last_reported":1678550882,"current_range_meters":21200,"station_id":"ce4bh512rcd13ifvqe3g","pricing_plan_id":"free"},{"bike_id":"554c5a87-a184-4a88-9a88-87824f4f6449","system_id":"levelo_inurba_marseille","lat":43.284787,"lon":5.384116,"is_reserved":false,"is_disabled":false,"rental_uris":{"android":"levelo://app?vid=554c5a87-a184-4a88-9a88-87824f4f6449","ios":"levelo://app?vid=554c5a87-a184-4a88-9a88-87824f4f6449"},"vehicle_type_id":"4","last_reported":1678550882,"current_range_meters":5600,"station_id":"ce4bh512rcd13ifvqe3g","pricing_plan_id":"free"},{"bike_id":"29f1a8f1-7c96-4378-9801-52b69a0da097","system_id":"levelo_inurba_marseille","lat":43.284227,"lon":5.349837,"is_reserved":false,"is_disabled":false,"rental_uris":{"android":"levelo://app?vid=29f1a8f1-7c96-4378-9801-52b69a0da097","ios":"levelo://app?vid=29f1a8f1-7c96-4378-9801-52b69a0da097"},"vehicle_type_id":"4","last_reported":1678550882,"current_range_meters":26000,"station_id":"ce4bhbh2rcd13ifvqepg","pricing_plan_id":"free"},{"bike_id":"92ca312f-7995-4e4a-9470-83c0ef3b6393","system_id":"levelo_inurba_marseille","lat":43.284229,"lon":5.349801,"is_reserved":false,"is_disabled":false,"rental_uris":{"android":"levelo://app?vid=92ca312f-7995-4e4a-9470-83c0ef3b6393","ios":"levelo://app?vid=92ca312f-7995-4e4a-9470-83c0ef3b6393"},"vehicle_type_id":"4","last_reported":1678550882,"current_range_meters":0,"station_id":"","pricing_plan_id":"free"},{"bike_id":"3130a427-626d-4389-8556-ef613ce27133","system_id":"levelo_inurba_marseille","lat":43.28422,"lon":5.34981,"is_reserved":false,"is_disabled":false,"rental_uris":{"android":"levelo://app?vid=3130a427-626d-4389-8556-ef613ce27133","ios":"levelo://app?vid=3130a427-626d-4389-8556-ef613ce27133"},"vehicle_type_id":"4","last_reported":1678550882,"current_range_meters":2800,"station_id":"ce4bhbh2rcd13ifvqepg","pricing_plan_id":"free"},{"bike_id":"aca77645-9500-497f-8c7f-6e196825a867","system_id":"levelo_inurba_marseille","lat":43.28421,"lon":5.34984,"is_reserved":false,"is_disabled":false,"rental_uris":{"android":"levelo://app?vid=aca77645-9500-497f-8c7f-6e196825a867","ios":"levelo://app?vid=aca77645-9500-497f-8c7f-6e196825a867"},"vehicle_type_id":"4","last_reported":1678550882,"current_range_meters":31600,"station_id":"","pricing_plan_id":"free"},{"bike_id":"4db5b596-eba7-44bb-a27e-9d2522bd6fe2","system_id":"levelo_inurba_marseille","lat":43.284225,"lon":5.349773,"is_reserved":false,"is_disabled":false,"rental_uris":{"android":"levelo://app?vid=4db5b596-eba7-44bb-a27e-9d2522bd6fe2","ios":"levelo://app?vid=4db5b596-eba7-44bb-a27e-9d2522bd6fe2"},"vehicle_type_id":"4","last_reported":1678550882,"current_range_meters":27600,"station_id":"ce4bhbh2rcd13ifvqepg","pricing_plan_id":"free"},{"bike_id":"48995818-1d35-4589-af1d-8f576dd9ef88","system_id":"levelo_inurba_marseille","lat":43.284212,"lon":5.349792,"is_reserved":false,"is_disabled":false,"rental_uris":{"android":"levelo://app?vid=48995818-1d35-4589-af1d-8f576dd9ef88","ios":"levelo://app?vid=48995818-1d35-4589-af1d-8f576dd9ef88"},"vehicle_type_id":"4","last_reported":1678550882,"current_range_meters":1200,"station_id":"","pricing_plan_id":"free"},{"bike_id":"d3ada57c-82ca-413a-a4d2-8c15135cefbc","system_id":"levelo_inurba_marseille","lat":43.2842,"lon":5.34979,"is_reserved":false,"is_disabled":false,"rental_uris":{"android":"levelo://app?vid=d3ada57c-82ca-413a-a4d2-8c15135cefbc","ios":"levelo://app?vid=d3ada57c-82ca-413a-a4d2-8c15135cefbc"},"vehicle_type_id":"4","last_reported":1678550882,"current_range_meters":17200,"station_id":"ce4bhbh2rcd13ifvqepg","pricing_plan_id":"free"},{"bike_id":"cb180451-f948-48b3-8a8e-57aceb1698b4","system_id":"levelo_inurba_marseille","lat":43.284219,"lon":5.3497,"is_reserved":false,"is_disabled":false,"rental_uris":{"android":"levelo://app?vid=cb180451-f948-48b3-8a8e-57aceb1698b4","ios":"levelo://app?vid=cb180451-f948-48b3-8a8e-57aceb1698b4"},"vehicle_type_id":"4","last_reported":1678550882,"current_range_meters":28800,"station_id":"ce4bhbh2rcd13ifvqepg","pricing_plan_id":"free"},{"bike_id":"c21222de-da86-43b9-9c7e-69b121dec975","system_id":"levelo_inurba_marseille","lat":43.284182,"lon":5.349764,"is_reserved":false,"is_disabled":false,"rental_uris":{"android":"levelo://app?vid=c21222de-da86-43b9-9c7e-69b121dec975","ios":"levelo://app?vid=c21222de-da86-43b9-9c7e-69b121dec975"},"vehicle_type_id":"4","last_reported":1678550882,"current_range_meters":7600,"station_id":"ce4bhbh2rcd13ifvqepg","pricing_plan_id":"free"},{"bike_id":"609ffd8a-1266-4f3e-ac01-5c57c6d75edd","system_id":"levelo_inurba_marseille","lat":43.328653,"lon":5.405298,"is_reserved":false,"is_disabled":false,"rental_uris":{"android":"levelo://app?vid=609ffd8a-1266-4f3e-ac01-5c57c6d75edd","ios":"levelo://app?vid=609ffd8a-1266-4f3e-ac01-5c57c6d75edd"},"vehicle_type_id":"4","last_reported":1678550882,"current_range_meters":0,"station_id":"","pricing_plan_id":"free"},{"bike_id":"35535820-5542-4285-8dc5-22ddf75f2174","system_id":"levelo_inurba_marseille","lat":43.292826,"lon":5.401715,"is_reserved":false,"is_disabled":false,"rental_uris":{"android":"levelo://app?vid=35535820-5542-4285-8dc5-22ddf75f2174","ios":"levelo://app?vid=35535820-5542-4285-8dc5-22ddf75f2174"},"vehicle_type_id":"4","last_reported":1678550882,"current_range_meters":1200,"station_id":"ce4bh312rcd13ifvqdk0","pricing_plan_id":"free"},{"bike_id":"6c781efb-7ddf-4334-9623-6fd0366cbbb9","system_id":"levelo_inurba_marseille","lat":43.28274,"lon":5.35065,"is_reserved":false,"is_disabled":false,"rental_uris":{"android":"levelo://app?vid=6c781efb-7ddf-4334-9623-6fd0366cbbb9","ios":"levelo://app?vid=6c781efb-7ddf-4334-9623-6fd0366cbbb9"},"vehicle_type_id":"4","last_reported":1678550882,"current_range_meters":9200,"station_id":"","pricing_plan_id":"free"},{"bike_id":"3f9fd9e3-07e8-4256-8e0a-16923590896b","system_id":"levelo_inurba_marseille","lat":43.2827,"lon":5.3507,"is_reserved":false,"is_disabled":false,"rental_uris":{"android":"levelo://app?vid=3f9fd9e3-07e8-4256-8e0a-16923590896b","ios":"levelo://app?vid=3f9fd9e3-07e8-4256-8e0a-16923590896b"},"vehicle_type_id":"4","last_reported":1678550882,"current_range_meters":0,"station_id":"","pricing_plan_id":"free"},{"bike_id":"ff3c00b5-5aab-4aa0-b3bb-13a9d407243d","system_id":"levelo_inurba_marseille","lat":43.28272,"lon":5.35063,"is_reserved":false,"is_disabled":false,"rental_uris":{"android":"levelo://app?vid=ff3c00b5-5aab-4aa0-b3bb-13a9d407243d","ios":"levelo://app?vid=ff3c00b5-5aab-4aa0-b3bb-13a9d407243d"},"vehicle_type_id":"4","last_reported":1678550882,"current_range_meters":18800,"station_id":"","pricing_plan_id":"free"},{"bike_id":"c6c8a6d4-2835-40e2-9c69-800395c34176","system_id":"levelo_inurba_marseille","lat":43.282744,"lon":5.350533,"is_reserved":false,"is_disabled":false,"rental_uris":{"android":"levelo://app?vid=c6c8a6d4-2835-40e2-9c69-800395c34176","ios":"levelo://app?vid=c6c8a6d4-2835-40e2-9c69-800395c34176"},"vehicle_type_id":"4","last_reported":1678550882,"current_range_meters":0,"station_id":"ce4bhbp2rcd13ifvqerg","pricing_plan_id":"free"},{"bike_id":"e918855a-8cb2-4bc9-89cf-faeb0b5088ab","system_id":"levelo_inurba_marseille","lat":43.282744,"lon":5.350533,"is_reserved":false,"is_disabled":false,"rental_uris":{"android":"levelo://app?vid=e918855a-8cb2-4bc9-89cf-faeb0b5088ab","ios":"levelo://app?vid=e918855a-8cb2-4bc9-89cf-faeb0b5088ab"},"vehicle_type_id":"4","last_reported":1678550882,"current_range_meters":12400,"station_id":"ce4bhbp2rcd13ifvqerg","pricing_plan_id":"free"},{"bike_id":"1dbe3b20-6716-4dbb-a12a-8b24ad04a2b8","system_id":"levelo_inurba_marseille","lat":43.283502,"lon":5.386471,"is_reserved":false,"is_disabled":false,"rental_uris":{"android":"levelo://app?vid=1dbe3b20-6716-4dbb-a12a-8b24ad04a2b8","ios":"levelo://app?vid=1dbe3b20-6716-4dbb-a12a-8b24ad04a2b8"},"vehicle_type_id":"4","last_reported":1678550882,"current_range_meters":2400,"station_id":"ce4bh492rcd13ifvqdvg","pricing_plan_id":"free"},{"bike_id":"6837fba6-bb7f-4be4-a947-c2e2e87a0ac9","system_id":"levelo_inurba_marseille","lat":43.28038,"lon":5.36942,"is_reserved":false,"is_disabled":false,"rental_uris":{"android":"levelo://app?vid=6837fba6-bb7f-4be4-a947-c2e2e87a0ac9","ios":"levelo://app?vid=6837fba6-bb7f-4be4-a947-c2e2e87a0ac9"},"vehicle_type_id":"4","last_reported":1678550882,"current_range_meters":14400,"station_id":"ce4bha12rcd13ifvqef0","pricing_plan_id":"free"},{"bike_id":"8527549d-b655-4c8e-b7c1-e1b3d5c46407","system_id":"levelo_inurba_marseille","lat":43.28039,"lon":5.369297,"is_reserved":false,"is_disabled":false,"rental_uris":{"android":"levelo://app?vid=8527549d-b655-4c8e-b7c1-e1b3d5c46407","ios":"levelo://app?vid=8527549d-b655-4c8e-b7c1-e1b3d5c46407"},"vehicle_type_id":"4","last_reported":1678550882,"current_range_meters":29200,"station_id":"ce4bha12rcd13ifvqef0","pricing_plan_id":"free"},{"bike_id":"d9631ca1-a1af-4fa3-9be0-90776f6fb789","system_id":"levelo_inurba_marseille","lat":43.283502,"lon":5.386471,"is_reserved":false,"is_disabled":false,"rental_uris":{"android":"levelo://app?vid=d9631ca1-a1af-4fa3-9be0-90776f6fb789","ios":"levelo://app?vid=d9631ca1-a1af-4fa3-9be0-90776f6fb789"},"vehicle_type_id":"4","last_reported":1678550882,"current_range_meters":13200,"station_id":"ce4bh492rcd13ifvqdvg","pricing_plan_id":"free"},{"bike_id":"e675d510-450a-45ad-bd19-6e884422c97f","system_id":"levelo_inurba_marseille","lat":43.280321,"lon":5.369385,"is_reserved":false,"is_disabled":false,"rental_uris":{"android":"levelo://app?vid=e675d510-450a-45ad-bd19-6e884422c97f","ios":"levelo://app?vid=e675d510-450a-45ad-bd19-6e884422c97f"},"vehicle_type_id":"4","last_reported":1678550882,"current_range_meters":0,"station_id":"ce4bha12rcd13ifvqef0","pricing_plan_id":"free"},{"bike_id":"0066953d-a70e-4b82-be82-0bb1b7ed112e","system_id":"levelo_inurba_marseille","lat":43.281318,"lon":5.378396,"is_reserved":false,"is_disabled":false,"rental_uris":{"android":"levelo://app?vid=0066953d-a70e-4b82-be82-0bb1b7ed112e","ios":"levelo://app?vid=0066953d-a70e-4b82-be82-0bb1b7ed112e"},"vehicle_type_id":"4","last_reported":1678550882,"current_range_meters":20800,"station_id":"ce4bha12rcd13ifvqee0","pricing_plan_id":"free"},{"bike_id":"650bdca8-027c-4abd-bcd0-38996868794d","system_id":"levelo_inurba_marseille","lat":43.28106,"lon":5.37832,"is_reserved":false,"is_disabled":false,"rental_uris":{"android":"levelo://app?vid=650bdca8-027c-4abd-bcd0-38996868794d","ios":"levelo://app?vid=650bdca8-027c-4abd-bcd0-38996868794d"},"vehicle_type_id":"4","last_reported":1678550882,"current_range_meters":0,"station_id":"ce4bha12rcd13ifvqee0","pricing_plan_id":"free"},{"bike_id":"f6c6c8c8-098e-46bc-a4ff-fa195e940d50","system_id":"levelo_inurba_marseille","lat":43.296263,"lon":5.40601,"is_reserved":false,"is_disabled":false,"rental_uris":{"android":"levelo://app?vid=f6c6c8c8-098e-46bc-a4ff-fa195e940d50","ios":"levelo://app?vid=f6c6c8c8-098e-46bc-a4ff-fa195e940d50"},"vehicle_type_id":"4","last_reported":1678550882,"current_range_meters":9600,"station_id":"ce4bh0h2rcd13ifvqd60","pricing_plan_id":"free"},{"bike_id":"3d575c5a-97dd-4ff8-ab91-33db52c92034","system_id":"levelo_inurba_marseille","lat":43.296263,"lon":5.40601,"is_reserved":false,"is_disabled":false,"rental_uris":{"android":"levelo://app?vid=3d575c5a-97dd-4ff8-ab91-33db52c92034","ios":"levelo://app?vid=3d575c5a-97dd-4ff8-ab91-33db52c92034"},"vehicle_type_id":"4","last_reported":1678550882,"current_range_meters":31600,"station_id":"ce4bh0h2rcd13ifvqd60","pricing_plan_id":"free"},{"bike_id":"7b4a51e5-11c7-476f-b7ce-95d6bc07a2df","system_id":"levelo_inurba_marseille","lat":43.296263,"lon":5.40601,"is_reserved":false,"is_disabled":false,"rental_uris":{"android":"levelo://app?vid=7b4a51e5-11c7-476f-b7ce-95d6bc07a2df","ios":"levelo://app?vid=7b4a51e5-11c7-476f-b7ce-95d6bc07a2df"},"vehicle_type_id":"4","last_reported":1678550882,"current_range_meters":2400,"station_id":"ce4bh0h2rcd13ifvqd60","pricing_plan_id":"free"},{"bike_id":"72fd3d12-762d-4fdb-9ceb-c7ecdba36757","system_id":"levelo_inurba_marseille","lat":43.296263,"lon":5.40601,"is_reserved":false,"is_disabled":false,"rental_uris":{"android":"levelo://app?vid=72fd3d12-762d-4fdb-9ceb-c7ecdba36757","ios":"levelo://app?vid=72fd3d12-762d-4fdb-9ceb-c7ecdba36757"},"vehicle_type_id":"4","last_reported":1678550882,"current_range_meters":28800,"station_id":"ce4bh0h2rcd13ifvqd60","pricing_plan_id":"free"},{"bike_id":"a07715b1-e80d-4f8f-9da4-441e6a75810f","system_id":"levelo_inurba_marseille","lat":43.296263,"lon":5.40601,"is_reserved":false,"is_disabled":false,"rental_uris":{"android":"levelo://app?vid=a07715b1-e80d-4f8f-9da4-441e6a75810f","ios":"levelo://app?vid=a07715b1-e80d-4f8f-9da4-441e6a75810f"},"vehicle_type_id":"4","last_reported":1678550882,"current_range_meters":31600,"station_id":"ce4bh0h2rcd13ifvqd60","pricing_plan_id":"free"},{"bike_id":"49f3504c-53dc-46ff-b610-9c0d7ba6a6f1","system_id":"levelo_inurba_marseille","lat":43.296263,"lon":5.40601,"is_reserved":false,"is_disabled":false,"rental_uris":{"android":"levelo://app?vid=49f3504c-53dc-46ff-b610-9c0d7ba6a6f1","ios":"levelo://app?vid=49f3504c-53dc-46ff-b610-9c0d7ba6a6f1"},"vehicle_type_id":"4","last_reported":1678550882,"current_range_meters":31600,"station_id":"ce4bh0h2rcd13ifvqd60","pricing_plan_id":"free"},{"bike_id":"6bb29b0c-cee0-4615-a3fb-389a2ed7d311","system_id":"levelo_inurba_marseille","lat":43.28974,"lon":5.39978,"is_reserved":false,"is_disabled":false,"rental_uris":{"android":"levelo://app?vid=6bb29b0c-cee0-4615-a3fb-389a2ed7d311","ios":"levelo://app?vid=6bb29b0c-cee0-4615-a3fb-389a2ed7d311"},"vehicle_type_id":"4","last_reported":1678550882,"current_range_meters":0,"station_id":"","pricing_plan_id":"free"},{"bike_id":"88d0c8c0-868f-4802-8e9e-a6d6da6aa1fe","system_id":"levelo_inurba_marseille","lat":43.284462,"lon":5.392121,"is_reserved":false,"is_disabled":false,"rental_uris":{"android":"levelo://app?vid=88d0c8c0-868f-4802-8e9e-a6d6da6aa1fe","ios":"levelo://app?vid=88d0c8c0-868f-4802-8e9e-a6d6da6aa1fe"},"vehicle_type_id":"4","last_reported":1678550882,"current_range_meters":31600,"station_id":"ce4bhoh2rcd13ifvqh5g","pricing_plan_id":"free"},{"bike_id":"a1895172-8972-4dda-bdc4-6efc93ac12ea","system_id":"levelo_inurba_marseille","lat":43.284462,"lon":5.392121,"is_reserved":false,"is_disabled":false,"rental_uris":{"android":"levelo://app?vid=a1895172-8972-4dda-bdc4-6efc93ac12ea","ios":"levelo://app?vid=a1895172-8972-4dda-bdc4-6efc93ac12ea"},"vehicle_type_id":"4","last_reported":1678550882,"current_range_meters":29200,"station_id":"ce4bhoh2rcd13ifvqh5g","pricing_plan_id":"free"},{"bike_id":"b4a7e57b-afb5-4949-8374-4524a1507b69","system_id":"levelo_inurba_marseille","lat":43.304188,"lon":5.412904,"is_reserved":false,"is_disabled":false,"rental_uris":{"android":"levelo://app?vid=b4a7e57b-afb5-4949-8374-4524a1507b69","ios":"levelo://app?vid=b4a7e57b-afb5-4949-8374-4524a1507b69"},"vehicle_type_id":"4","last_reported":1678550882,"current_range_meters":23200,"station_id":"ce4bhop2rcd13ifvqh8g","pricing_plan_id":"free"},{"bike_id":"b9bc0e97-b37a-42d2-aeb5-1ce06031bfba","system_id":"levelo_inurba_marseille","lat":43.287154,"lon":5.399979,"is_reserved":false,"is_disabled":false,"rental_uris":{"android":"levelo://app?vid=b9bc0e97-b37a-42d2-aeb5-1ce06031bfba","ios":"levelo://app?vid=b9bc0e97-b37a-42d2-aeb5-1ce06031bfba"},"vehicle_type_id":"4","last_reported":1678550882,"current_range_meters":3200,"station_id":"ce4bho92rcd13ifvqh3g","pricing_plan_id":"free"},{"bike_id":"adfd98e5-7df3-4042-b42f-82120dc2c3f1","system_id":"levelo_inurba_marseille","lat":43.292571,"lon":5.409107,"is_reserved":false,"is_disabled":false,"rental_uris":{"android":"levelo://app?vid=adfd98e5-7df3-4042-b42f-82120dc2c3f1","ios":"levelo://app?vid=adfd98e5-7df3-4042-b42f-82120dc2c3f1"},"vehicle_type_id":"4","last_reported":1678550882,"current_range_meters":7600,"station_id":"ce4bh192rcd13ifvqdc0","pricing_plan_id":"free"},{"bike_id":"c61dc2fe-d068-4131-bc60-4313e3180b62","system_id":"levelo_inurba_marseille","lat":43.292569,"lon":5.409107,"is_reserved":false,"is_disabled":false,"rental_uris":{"android":"levelo://app?vid=c61dc2fe-d068-4131-bc60-4313e3180b62","ios":"levelo://app?vid=c61dc2fe-d068-4131-bc60-4313e3180b62"},"vehicle_type_id":"4","last_reported":1678550882,"current_range_meters":29600,"station_id":"ce4bh192rcd13ifvqdc0","pricing_plan_id":"free"},{"bike_id":"963d1e0c-da3e-41e2-b385-2edbb57c4f02","system_id":"levelo_inurba_marseille","lat":43.292569,"lon":5.409107,"is_reserved":false,"is_disabled":false,"rental_uris":{"android":"levelo://app?vid=963d1e0c-da3e-41e2-b385-2edbb57c4f02","ios":"levelo://app?vid=963d1e0c-da3e-41e2-b385-2edbb57c4f02"},"vehicle_type_id":"4","last_reported":1678550882,"current_range_meters":12000,"station_id":"ce4bh192rcd13ifvqdc0","pricing_plan_id":"free"},{"bike_id":"ce5c9dca-4ed1-4f55-9583-87a285eacae0","system_id":"levelo_inurba_marseille","lat":43.325233,"lon":5.414318,"is_reserved":false,"is_disabled":false,"rental_uris":{"android":"levelo://app?vid=ce5c9dca-4ed1-4f55-9583-87a285eacae0","ios":"levelo://app?vid=ce5c9dca-4ed1-4f55-9583-87a285eacae0"},"vehicle_type_id":"4","last_reported":1678550882,"current_range_meters":20800,"station_id":"ce4bhq12rcd13ifvqhhg","pricing_plan_id":"free"},{"bike_id":"4d80be05-74c1-4dcd-aac9-c518faffbe55","system_id":"levelo_inurba_marseille","lat":43.292569,"lon":5.409107,"is_reserved":false,"is_disabled":false,"rental_uris":{"android":"levelo://app?vid=4d80be05-74c1-4dcd-aac9-c518faffbe55","ios":"levelo://app?vid=4d80be05-74c1-4dcd-aac9-c518faffbe55"},"vehicle_type_id":"4","last_reported":1678550882,"current_range_meters":0,"station_id":"ce4bh192rcd13ifvqdc0","pricing_plan_id":"free"},{"bike_id":"888ec31e-7ff1-4415-9121-a594691e70f7","system_id":"levelo_inurba_marseille","lat":43.27621,"lon":5.361141,"is_reserved":false,"is_disabled":false,"rental_uris":{"android":"levelo://app?vid=888ec31e-7ff1-4415-9121-a594691e70f7","ios":"levelo://app?vid=888ec31e-7ff1-4415-9121-a594691e70f7"},"vehicle_type_id":"4","last_reported":1678550882,"current_range_meters":31600,"station_id":"","pricing_plan_id":"free"},{"bike_id":"5b4a97ba-02d2-4b91-8dba-2d57128125be","system_id":"levelo_inurba_marseille","lat":43.27618,"lon":5.361009,"is_reserved":false,"is_disabled":false,"rental_uris":{"android":"levelo://app?vid=5b4a97ba-02d2-4b91-8dba-2d57128125be","ios":"levelo://app?vid=5b4a97ba-02d2-4b91-8dba-2d57128125be"},"vehicle_type_id":"4","last_reported":1678550882,"current_range_meters":31600,"station_id":"ce4bgj92rcd13ifvqbe0","pricing_plan_id":"free"},{"bike_id":"18aa44bb-65a4-4112-aada-f68a39a6d620","system_id":"levelo_inurba_marseille","lat":43.27618,"lon":5.361009,"is_reserved":false,"is_disabled":false,"rental_uris":{"android":"levelo://app?vid=18aa44bb-65a4-4112-aada-f68a39a6d620","ios":"levelo://app?vid=18aa44bb-65a4-4112-aada-f68a39a6d620"},"vehicle_type_id":"4","last_reported":1678550882,"current_range_meters":29200,"station_id":"ce4bgj92rcd13ifvqbe0","pricing_plan_id":"free"},{"bike_id":"be3b36ce-29a0-45e6-8ff7-5be42bd9c56e","system_id":"levelo_inurba_marseille","lat":43.292569,"lon":5.409107,"is_reserved":false,"is_disabled":false,"rental_uris":{"android":"levelo://app?vid=be3b36ce-29a0-45e6-8ff7-5be42bd9c56e","ios":"levelo://app?vid=be3b36ce-29a0-45e6-8ff7-5be42bd9c56e"},"vehicle_type_id":"4","last_reported":1678550882,"current_range_meters":31200,"station_id":"ce4bh192rcd13ifvqdc0","pricing_plan_id":"free"},{"bike_id":"c81f28f0-8e18-4d86-9832-4d93127084ed","system_id":"levelo_inurba_marseille","lat":43.27618,"lon":5.361009,"is_reserved":false,"is_disabled":false,"rental_uris":{"android":"levelo://app?vid=c81f28f0-8e18-4d86-9832-4d93127084ed","ios":"levelo://app?vid=c81f28f0-8e18-4d86-9832-4d93127084ed"},"vehicle_type_id":"4","last_reported":1678550882,"current_range_meters":29600,"station_id":"ce4bgj92rcd13ifvqbe0","pricing_plan_id":"free"},{"bike_id":"8c9726c5-efe4-4657-bcf4-896245da61b0","system_id":"levelo_inurba_marseille","lat":43.27618,"lon":5.361009,"is_reserved":false,"is_disabled":false,"rental_uris":{"android":"levelo://app?vid=8c9726c5-efe4-4657-bcf4-896245da61b0","ios":"levelo://app?vid=8c9726c5-efe4-4657-bcf4-896245da61b0"},"vehicle_type_id":"4","last_reported":1678550882,"current_range_meters":28000,"station_id":"ce4bgj92rcd13ifvqbe0","pricing_plan_id":"free"},{"bike_id":"5091e631-fdb3-4caf-831b-84e0485ae4c2","system_id":"levelo_inurba_marseille","lat":43.27618,"lon":5.36103,"is_reserved":false,"is_disabled":false,"rental_uris":{"android":"levelo://app?vid=5091e631-fdb3-4caf-831b-84e0485ae4c2","ios":"levelo://app?vid=5091e631-fdb3-4caf-831b-84e0485ae4c2"},"vehicle_type_id":"4","last_reported":1678550882,"current_range_meters":9200,"station_id":"ce4bgj92rcd13ifvqbe0","pricing_plan_id":"free"},{"bike_id":"4e3fe89f-1f82-43e6-a58d-364147f1545e","system_id":"levelo_inurba_marseille","lat":43.27618,"lon":5.361009,"is_reserved":false,"is_disabled":false,"rental_uris":{"android":"levelo://app?vid=4e3fe89f-1f82-43e6-a58d-364147f1545e","ios":"levelo://app?vid=4e3fe89f-1f82-43e6-a58d-364147f1545e"},"vehicle_type_id":"4","last_reported":1678550882,"current_range_meters":31600,"station_id":"ce4bgj92rcd13ifvqbe0","pricing_plan_id":"free"},{"bike_id":"0ed38106-183b-4227-a120-966927bca757","system_id":"levelo_inurba_marseille","lat":43.27615,"lon":5.36133,"is_reserved":false,"is_disabled":false,"rental_uris":{"android":"levelo://app?vid=0ed38106-183b-4227-a120-966927bca757","ios":"levelo://app?vid=0ed38106-183b-4227-a120-966927bca757"},"vehicle_type_id":"4","last_reported":1678550882,"current_range_meters":23600,"station_id":"ce4bgj92rcd13ifvqbe0","pricing_plan_id":"free"},{"bike_id":"1d321179-1483-4a22-9355-5170945100a9","system_id":"levelo_inurba_marseille","lat":43.27618,"lon":5.361009,"is_reserved":false,"is_disabled":false,"rental_uris":{"android":"levelo://app?vid=1d321179-1483-4a22-9355-5170945100a9","ios":"levelo://app?vid=1d321179-1483-4a22-9355-5170945100a9"},"vehicle_type_id":"4","last_reported":1678550882,"current_range_meters":27600,"station_id":"ce4bgj92rcd13ifvqbe0","pricing_plan_id":"free"},{"bike_id":"b16c1291-f028-4e6a-afb4-0fee24d70911","system_id":"levelo_inurba_marseille","lat":43.27618,"lon":5.361009,"is_reserved":false,"is_disabled":false,"rental_uris":{"android":"levelo://app?vid=b16c1291-f028-4e6a-afb4-0fee24d70911","ios":"levelo://app?vid=b16c1291-f028-4e6a-afb4-0fee24d70911"},"vehicle_type_id":"4","last_reported":1678550882,"current_range_meters":26000,"station_id":"ce4bgj92rcd13ifvqbe0","pricing_plan_id":"free"},{"bike_id":"b0cba8f6-9a98-486e-8756-f88c695ba0fd","system_id":"levelo_inurba_marseille","lat":43.27614,"lon":5.36117,"is_reserved":false,"is_disabled":false,"rental_uris":{"android":"levelo://app?vid=b0cba8f6-9a98-486e-8756-f88c695ba0fd","ios":"levelo://app?vid=b0cba8f6-9a98-486e-8756-f88c695ba0fd"},"vehicle_type_id":"4","last_reported":1678550882,"current_range_meters":26800,"station_id":"","pricing_plan_id":"free"},{"bike_id":"400f8b51-baad-4a15-b7b8-b6df074b0532","system_id":"levelo_inurba_marseille","lat":43.27615,"lon":5.36103,"is_reserved":false,"is_disabled":false,"rental_uris":{"android":"levelo://app?vid=400f8b51-baad-4a15-b7b8-b6df074b0532","ios":"levelo://app?vid=400f8b51-baad-4a15-b7b8-b6df074b0532"},"vehicle_type_id":"4","last_reported":1678550882,"current_range_meters":24800,"station_id":"ce4bgj92rcd13ifvqbe0","pricing_plan_id":"free"},{"bike_id":"a7b0cbd1-8815-4482-8449-bb285944a6d5","system_id":"levelo_inurba_marseille","lat":43.280784,"lon":5.396622,"is_reserved":false,"is_disabled":false,"rental_uris":{"android":"levelo://app?vid=a7b0cbd1-8815-4482-8449-bb285944a6d5","ios":"levelo://app?vid=a7b0cbd1-8815-4482-8449-bb285944a6d5"},"vehicle_type_id":"4","last_reported":1678550882,"current_range_meters":22800,"station_id":"ce4bho12rcd13ifvqh2g","pricing_plan_id":"free"},{"bike_id":"84b09d88-7340-45dd-b875-7082813e844a","system_id":"levelo_inurba_marseille","lat":43.280784,"lon":5.396622,"is_reserved":false,"is_disabled":false,"rental_uris":{"android":"levelo://app?vid=84b09d88-7340-45dd-b875-7082813e844a","ios":"levelo://app?vid=84b09d88-7340-45dd-b875-7082813e844a"},"vehicle_type_id":"4","last_reported":1678550882,"current_range_meters":28800,"station_id":"ce4bho12rcd13ifvqh2g","pricing_plan_id":"free"},{"bike_id":"3d8af6e4-7c91-4adf-b75d-824d8c3b927c","system_id":"levelo_inurba_marseille","lat":43.273613,"lon":5.362705,"is_reserved":false,"is_disabled":false,"rental_uris":{"android":"levelo://app?vid=3d8af6e4-7c91-4adf-b75d-824d8c3b927c","ios":"levelo://app?vid=3d8af6e4-7c91-4adf-b75d-824d8c3b927c"},"vehicle_type_id":"4","last_reported":1678550882,"current_range_meters":29200,"station_id":"ce4bhbh2rcd13ifvqeo0","pricing_plan_id":"free"},{"bike_id":"c16af085-4dd9-442f-a460-082905aa3812","system_id":"levelo_inurba_marseille","lat":43.27372,"lon":5.36259,"is_reserved":false,"is_disabled":false,"rental_uris":{"android":"levelo://app?vid=c16af085-4dd9-442f-a460-082905aa3812","ios":"levelo://app?vid=c16af085-4dd9-442f-a460-082905aa3812"},"vehicle_type_id":"4","last_reported":1678550882,"current_range_meters":28400,"station_id":"ce4bhbh2rcd13ifvqeo0","pricing_plan_id":"free"},{"bike_id":"5d7ac647-d673-4ac2-9279-398723d5949c","system_id":"levelo_inurba_marseille","lat":43.273719,"lon":5.362504,"is_reserved":false,"is_disabled":false,"rental_uris":{"android":"levelo://app?vid=5d7ac647-d673-4ac2-9279-398723d5949c","ios":"levelo://app?vid=5d7ac647-d673-4ac2-9279-398723d5949c"},"vehicle_type_id":"4","last_reported":1678550882,"current_range_meters":27600,"station_id":"","pricing_plan_id":"free"},{"bike_id":"9cb08303-862e-47c8-9ba8-cc785605b3dd","system_id":"levelo_inurba_marseille","lat":43.2737,"lon":5.36253,"is_reserved":false,"is_disabled":false,"rental_uris":{"android":"levelo://app?vid=9cb08303-862e-47c8-9ba8-cc785605b3dd","ios":"levelo://app?vid=9cb08303-862e-47c8-9ba8-cc785605b3dd"},"vehicle_type_id":"4","last_reported":1678550882,"current_range_meters":26800,"station_id":"","pricing_plan_id":"free"},{"bike_id":"8e916c58-d14f-448e-9136-8cd527b06278","system_id":"levelo_inurba_marseille","lat":43.273613,"lon":5.362705,"is_reserved":false,"is_disabled":false,"rental_uris":{"android":"levelo://app?vid=8e916c58-d14f-448e-9136-8cd527b06278","ios":"levelo://app?vid=8e916c58-d14f-448e-9136-8cd527b06278"},"vehicle_type_id":"4","last_reported":1678550882,"current_range_meters":30400,"station_id":"ce4bhbh2rcd13ifvqeo0","pricing_plan_id":"free"},{"bike_id":"7ddaddac-cdad-4dd3-a92b-995b1bc5f50b","system_id":"levelo_inurba_marseille","lat":43.273613,"lon":5.362705,"is_reserved":false,"is_disabled":false,"rental_uris":{"android":"levelo://app?vid=7ddaddac-cdad-4dd3-a92b-995b1bc5f50b","ios":"levelo://app?vid=7ddaddac-cdad-4dd3-a92b-995b1bc5f50b"},"vehicle_type_id":"4","last_reported":1678550882,"current_range_meters":28400,"station_id":"ce4bhbh2rcd13ifvqeo0","pricing_plan_id":"free"},{"bike_id":"8273b884-db78-46a3-88ea-14169e1bed6b","system_id":"levelo_inurba_marseille","lat":43.33609,"lon":5.410237,"is_reserved":false,"is_disabled":false,"rental_uris":{"android":"levelo://app?vid=8273b884-db78-46a3-88ea-14169e1bed6b","ios":"levelo://app?vid=8273b884-db78-46a3-88ea-14169e1bed6b"},"vehicle_type_id":"4","last_reported":1678550882,"current_range_meters":1200,"station_id":"","pricing_plan_id":"free"},{"bike_id":"c6ecb4e9-2b77-4d18-b4c7-28299d010e31","system_id":"levelo_inurba_marseille","lat":43.33612,"lon":5.410321,"is_reserved":false,"is_disabled":false,"rental_uris":{"android":"levelo://app?vid=c6ecb4e9-2b77-4d18-b4c7-28299d010e31","ios":"levelo://app?vid=c6ecb4e9-2b77-4d18-b4c7-28299d010e31"},"vehicle_type_id":"4","last_reported":1678550882,"current_range_meters":4400,"station_id":"ce4bhqh2rcd13ifvqhmg","pricing_plan_id":"free"},{"bike_id":"47e7383d-978a-4b4f-b88d-8ec7b9e3d3d6","system_id":"levelo_inurba_marseille","lat":43.33612,"lon":5.410321,"is_reserved":false,"is_disabled":false,"rental_uris":{"android":"levelo://app?vid=47e7383d-978a-4b4f-b88d-8ec7b9e3d3d6","ios":"levelo://app?vid=47e7383d-978a-4b4f-b88d-8ec7b9e3d3d6"},"vehicle_type_id":"4","last_reported":1678550882,"current_range_meters":0,"station_id":"ce4bhqh2rcd13ifvqhmg","pricing_plan_id":"free"},{"bike_id":"6aeb79b2-4775-4dd0-ab32-651082cd1074","system_id":"levelo_inurba_marseille","lat":43.276769,"lon":5.388787,"is_reserved":false,"is_disabled":false,"rental_uris":{"android":"levelo://app?vid=6aeb79b2-4775-4dd0-ab32-651082cd1074","ios":"levelo://app?vid=6aeb79b2-4775-4dd0-ab32-651082cd1074"},"vehicle_type_id":"4","last_reported":1678550882,"current_range_meters":1600,"station_id":"ce4bhi12rcd13ifvqfo0","pricing_plan_id":"free"},{"bike_id":"4354c3dd-a967-4b42-b13b-8563c765951f","system_id":"levelo_inurba_marseille","lat":43.276769,"lon":5.388787,"is_reserved":false,"is_disabled":false,"rental_uris":{"android":"levelo://app?vid=4354c3dd-a967-4b42-b13b-8563c765951f","ios":"levelo://app?vid=4354c3dd-a967-4b42-b13b-8563c765951f"},"vehicle_type_id":"4","last_reported":1678550882,"current_range_meters":20400,"station_id":"ce4bhi12rcd13ifvqfo0","pricing_plan_id":"free"},{"bike_id":"f36742c3-7699-4511-a39c-5c2c40c0f934","system_id":"levelo_inurba_marseille","lat":43.317121,"lon":5.423936,"is_reserved":false,"is_disabled":false,"rental_uris":{"android":"levelo://app?vid=f36742c3-7699-4511-a39c-5c2c40c0f934","ios":"levelo://app?vid=f36742c3-7699-4511-a39c-5c2c40c0f934"},"vehicle_type_id":"4","last_reported":1678550882,"current_range_meters":31600,"station_id":"ce4bhp92rcd13ifvqhbg","pricing_plan_id":"free"},{"bike_id":"07bccf34-a224-4bc3-98e0-c17f6e2dc01e","system_id":"levelo_inurba_marseille","lat":43.317121,"lon":5.423936,"is_reserved":false,"is_disabled":false,"rental_uris":{"android":"levelo://app?vid=07bccf34-a224-4bc3-98e0-c17f6e2dc01e","ios":"levelo://app?vid=07bccf34-a224-4bc3-98e0-c17f6e2dc01e"},"vehicle_type_id":"4","last_reported":1678550882,"current_range_meters":15600,"station_id":"ce4bhp92rcd13ifvqhbg","pricing_plan_id":"free"},{"bike_id":"4c1fe88c-6181-4859-a674-763e11399838","system_id":"levelo_inurba_marseille","lat":43.317121,"lon":5.423936,"is_reserved":false,"is_disabled":false,"rental_uris":{"android":"levelo://app?vid=4c1fe88c-6181-4859-a674-763e11399838","ios":"levelo://app?vid=4c1fe88c-6181-4859-a674-763e11399838"},"vehicle_type_id":"4","last_reported":1678550882,"current_range_meters":21600,"station_id":"ce4bhp92rcd13ifvqhbg","pricing_plan_id":"free"},{"bike_id":"6e7e6b58-27e8-42c5-a438-4508638380dc","system_id":"levelo_inurba_marseille","lat":43.317121,"lon":5.423936,"is_reserved":false,"is_disabled":false,"rental_uris":{"android":"levelo://app?vid=6e7e6b58-27e8-42c5-a438-4508638380dc","ios":"levelo://app?vid=6e7e6b58-27e8-42c5-a438-4508638380dc"},"vehicle_type_id":"4","last_reported":1678550882,"current_range_meters":30000,"station_id":"ce4bhp92rcd13ifvqhbg","pricing_plan_id":"free"},{"bike_id":"cb7e1cfe-bd7d-47e9-aae3-fbbdf12100ab","system_id":"levelo_inurba_marseille","lat":43.317121,"lon":5.423936,"is_reserved":false,"is_disabled":false,"rental_uris":{"android":"levelo://app?vid=cb7e1cfe-bd7d-47e9-aae3-fbbdf12100ab","ios":"levelo://app?vid=cb7e1cfe-bd7d-47e9-aae3-fbbdf12100ab"},"vehicle_type_id":"4","last_reported":1678550882,"current_range_meters":31600,"station_id":"ce4bhp92rcd13ifvqhbg","pricing_plan_id":"free"},{"bike_id":"bba0c480-f924-4873-997c-97d27ba63120","system_id":"levelo_inurba_marseille","lat":43.317121,"lon":5.423936,"is_reserved":false,"is_disabled":false,"rental_uris":{"android":"levelo://app?vid=bba0c480-f924-4873-997c-97d27ba63120","ios":"levelo://app?vid=bba0c480-f924-4873-997c-97d27ba63120"},"vehicle_type_id":"4","last_reported":1678550882,"current_range_meters":13600,"station_id":"ce4bhp92rcd13ifvqhbg","pricing_plan_id":"free"},{"bike_id":"65b3121c-60d2-44c1-8e9c-ed356c5a7856","system_id":"levelo_inurba_marseille","lat":43.30473,"lon":5.42378,"is_reserved":false,"is_disabled":false,"rental_uris":{"android":"levelo://app?vid=65b3121c-60d2-44c1-8e9c-ed356c5a7856","ios":"levelo://app?vid=65b3121c-60d2-44c1-8e9c-ed356c5a7856"},"vehicle_type_id":"4","last_reported":1678550882,"current_range_meters":0,"station_id":"","pricing_plan_id":"free"},{"bike_id":"77b3969d-2d97-4ea1-a058-43bac5b8c2f7","system_id":"levelo_inurba_marseille","lat":43.274103,"lon":5.394016,"is_reserved":false,"is_disabled":false,"rental_uris":{"android":"levelo://app?vid=77b3969d-2d97-4ea1-a058-43bac5b8c2f7","ios":"levelo://app?vid=77b3969d-2d97-4ea1-a058-43bac5b8c2f7"},"vehicle_type_id":"4","last_reported":1678550882,"current_range_meters":21600,"station_id":"ce4bhdp2rcd13ifvqf20","pricing_plan_id":"free"},{"bike_id":"aa1d41b2-1e61-4041-bb89-8b450e52a3fd","system_id":"levelo_inurba_marseille","lat":43.274103,"lon":5.394016,"is_reserved":false,"is_disabled":false,"rental_uris":{"android":"levelo://app?vid=aa1d41b2-1e61-4041-bb89-8b450e52a3fd","ios":"levelo://app?vid=aa1d41b2-1e61-4041-bb89-8b450e52a3fd"},"vehicle_type_id":"4","last_reported":1678550882,"current_range_meters":19200,"station_id":"ce4bhdp2rcd13ifvqf20","pricing_plan_id":"free"},{"bike_id":"7d803a21-31fc-4fe0-bf43-b4b96654f31f","system_id":"levelo_inurba_marseille","lat":43.295523,"lon":5.422926,"is_reserved":false,"is_disabled":false,"rental_uris":{"android":"levelo://app?vid=7d803a21-31fc-4fe0-bf43-b4b96654f31f","ios":"levelo://app?vid=7d803a21-31fc-4fe0-bf43-b4b96654f31f"},"vehicle_type_id":"4","last_reported":1678550882,"current_range_meters":0,"station_id":"ce4bhph2rcd13ifvqhdg","pricing_plan_id":"free"},{"bike_id":"f9af5074-70c6-45c6-b73e-f76342089532","system_id":"levelo_inurba_marseille","lat":43.27207,"lon":5.39185,"is_reserved":false,"is_disabled":false,"rental_uris":{"android":"levelo://app?vid=f9af5074-70c6-45c6-b73e-f76342089532","ios":"levelo://app?vid=f9af5074-70c6-45c6-b73e-f76342089532"},"vehicle_type_id":"4","last_reported":1678550882,"current_range_meters":0,"station_id":"ce4bhhp2rcd13ifvqfm0","pricing_plan_id":"free"},{"bike_id":"c67033ad-183a-48fa-a726-a0b3a5fa5bf1","system_id":"levelo_inurba_marseille","lat":43.27207,"lon":5.39186,"is_reserved":false,"is_disabled":false,"rental_uris":{"android":"levelo://app?vid=c67033ad-183a-48fa-a726-a0b3a5fa5bf1","ios":"levelo://app?vid=c67033ad-183a-48fa-a726-a0b3a5fa5bf1"},"vehicle_type_id":"4","last_reported":1678550882,"current_range_meters":0,"station_id":"ce4bhhp2rcd13ifvqfm0","pricing_plan_id":"free"},{"bike_id":"2fdc83da-c8e4-4594-be56-0aa97a726c47","system_id":"levelo_inurba_marseille","lat":43.278128,"lon":5.407195,"is_reserved":false,"is_disabled":false,"rental_uris":{"android":"levelo://app?vid=2fdc83da-c8e4-4594-be56-0aa97a726c47","ios":"levelo://app?vid=2fdc83da-c8e4-4594-be56-0aa97a726c47"},"vehicle_type_id":"4","last_reported":1678550882,"current_range_meters":31200,"station_id":"ce4bhnh2rcd13ifvqgtg","pricing_plan_id":"free"},{"bike_id":"e3e2434e-96ae-49fc-b58b-5ea666a00fe3","system_id":"levelo_inurba_marseille","lat":43.278128,"lon":5.407195,"is_reserved":false,"is_disabled":false,"rental_uris":{"android":"levelo://app?vid=e3e2434e-96ae-49fc-b58b-5ea666a00fe3","ios":"levelo://app?vid=e3e2434e-96ae-49fc-b58b-5ea666a00fe3"},"vehicle_type_id":"4","last_reported":1678550882,"current_range_meters":31600,"station_id":"ce4bhnh2rcd13ifvqgtg","pricing_plan_id":"free"},{"bike_id":"4d3c3446-e76a-4a07-9133-b01db6218d24","system_id":"levelo_inurba_marseille","lat":43.278128,"lon":5.407195,"is_reserved":false,"is_disabled":false,"rental_uris":{"android":"levelo://app?vid=4d3c3446-e76a-4a07-9133-b01db6218d24","ios":"levelo://app?vid=4d3c3446-e76a-4a07-9133-b01db6218d24"},"vehicle_type_id":"4","last_reported":1678550882,"current_range_meters":28000,"station_id":"ce4bhnh2rcd13ifvqgtg","pricing_plan_id":"free"},{"bike_id":"b088cb55-b77d-47a3-850d-787655d1f1f1","system_id":"levelo_inurba_marseille","lat":43.278128,"lon":5.407195,"is_reserved":false,"is_disabled":false,"rental_uris":{"android":"levelo://app?vid=b088cb55-b77d-47a3-850d-787655d1f1f1","ios":"levelo://app?vid=b088cb55-b77d-47a3-850d-787655d1f1f1"},"vehicle_type_id":"4","last_reported":1678550882,"current_range_meters":20000,"station_id":"ce4bhnh2rcd13ifvqgtg","pricing_plan_id":"free"},{"bike_id":"397dc0fb-bcf1-492f-99c7-370ccb907969","system_id":"levelo_inurba_marseille","lat":43.278128,"lon":5.407195,"is_reserved":false,"is_disabled":false,"rental_uris":{"android":"levelo://app?vid=397dc0fb-bcf1-492f-99c7-370ccb907969","ios":"levelo://app?vid=397dc0fb-bcf1-492f-99c7-370ccb907969"},"vehicle_type_id":"4","last_reported":1678550882,"current_range_meters":24400,"station_id":"ce4bhnh2rcd13ifvqgtg","pricing_plan_id":"free"},{"bike_id":"c52b2083-8e11-4199-b6a6-45038afd05b7","system_id":"levelo_inurba_marseille","lat":43.278128,"lon":5.407195,"is_reserved":false,"is_disabled":false,"rental_uris":{"android":"levelo://app?vid=c52b2083-8e11-4199-b6a6-45038afd05b7","ios":"levelo://app?vid=c52b2083-8e11-4199-b6a6-45038afd05b7"},"vehicle_type_id":"4","last_reported":1678550882,"current_range_meters":31600,"station_id":"ce4bhnh2rcd13ifvqgtg","pricing_plan_id":"free"},{"bike_id":"36e2b93b-95fd-4f7f-ac5f-1fcb89978e3b","system_id":"levelo_inurba_marseille","lat":43.269467,"lon":5.386439,"is_reserved":false,"is_disabled":false,"rental_uris":{"android":"levelo://app?vid=36e2b93b-95fd-4f7f-ac5f-1fcb89978e3b","ios":"levelo://app?vid=36e2b93b-95fd-4f7f-ac5f-1fcb89978e3b"},"vehicle_type_id":"4","last_reported":1678550882,"current_range_meters":9600,"station_id":"ce4bhh92rcd13ifvqfh0","pricing_plan_id":"free"},{"bike_id":"bb5f7fc0-f454-420c-a6a6-c18ab7cdd7a3","system_id":"levelo_inurba_marseille","lat":43.26681,"lon":5.382694,"is_reserved":false,"is_disabled":false,"rental_uris":{"android":"levelo://app?vid=bb5f7fc0-f454-420c-a6a6-c18ab7cdd7a3","ios":"levelo://app?vid=bb5f7fc0-f454-420c-a6a6-c18ab7cdd7a3"},"vehicle_type_id":"4","last_reported":1678550882,"current_range_meters":18800,"station_id":"ce4bhg92rcd13ifvqf90","pricing_plan_id":"free"},{"bike_id":"38717dea-e3a0-4411-8575-9b1a9d841052","system_id":"levelo_inurba_marseille","lat":43.26681,"lon":5.382694,"is_reserved":false,"is_disabled":false,"rental_uris":{"android":"levelo://app?vid=38717dea-e3a0-4411-8575-9b1a9d841052","ios":"levelo://app?vid=38717dea-e3a0-4411-8575-9b1a9d841052"},"vehicle_type_id":"4","last_reported":1678550882,"current_range_meters":8800,"station_id":"ce4bhg92rcd13ifvqf90","pricing_plan_id":"free"},{"bike_id":"cfdf26ea-229a-437a-b7c8-de5446ddf448","system_id":"levelo_inurba_marseille","lat":43.264869,"lon":5.373501,"is_reserved":false,"is_disabled":false,"rental_uris":{"android":"levelo://app?vid=cfdf26ea-229a-437a-b7c8-de5446ddf448","ios":"levelo://app?vid=cfdf26ea-229a-437a-b7c8-de5446ddf448"},"vehicle_type_id":"4","last_reported":1678550882,"current_range_meters":9600,"station_id":"","pricing_plan_id":"free"},{"bike_id":"94dcb374-4ce8-4987-aa38-577fea4a8cc4","system_id":"levelo_inurba_marseille","lat":43.28002,"lon":5.4166,"is_reserved":false,"is_disabled":false,"rental_uris":{"android":"levelo://app?vid=94dcb374-4ce8-4987-aa38-577fea4a8cc4","ios":"levelo://app?vid=94dcb374-4ce8-4987-aa38-577fea4a8cc4"},"vehicle_type_id":"4","last_reported":1678550882,"current_range_meters":15200,"station_id":"ce4bho12rcd13ifvqh1g","pricing_plan_id":"free"},{"bike_id":"c74558a5-72ed-4570-b6d2-59f927055b62","system_id":"levelo_inurba_marseille","lat":43.28,"lon":5.41658,"is_reserved":false,"is_disabled":false,"rental_uris":{"android":"levelo://app?vid=c74558a5-72ed-4570-b6d2-59f927055b62","ios":"levelo://app?vid=c74558a5-72ed-4570-b6d2-59f927055b62"},"vehicle_type_id":"4","last_reported":1678550882,"current_range_meters":5600,"station_id":"ce4bho12rcd13ifvqh1g","pricing_plan_id":"free"},{"bike_id":"0c4b997a-de40-4b7b-9425-2b228524eb9d","system_id":"levelo_inurba_marseille","lat":43.27998,"lon":5.41661,"is_reserved":false,"is_disabled":false,"rental_uris":{"android":"levelo://app?vid=0c4b997a-de40-4b7b-9425-2b228524eb9d","ios":"levelo://app?vid=0c4b997a-de40-4b7b-9425-2b228524eb9d"},"vehicle_type_id":"4","last_reported":1678550882,"current_range_meters":18800,"station_id":"ce4bho12rcd13ifvqh1g","pricing_plan_id":"free"},{"bike_id":"7d4b096b-e3ba-4467-a96f-b29164f9ea55","system_id":"levelo_inurba_marseille","lat":43.27996,"lon":5.416624,"is_reserved":false,"is_disabled":false,"rental_uris":{"android":"levelo://app?vid=7d4b096b-e3ba-4467-a96f-b29164f9ea55","ios":"levelo://app?vid=7d4b096b-e3ba-4467-a96f-b29164f9ea55"},"vehicle_type_id":"4","last_reported":1678550882,"current_range_meters":10400,"station_id":"ce4bho12rcd13ifvqh1g","pricing_plan_id":"free"},{"bike_id":"7a5bc418-b5bc-41c1-9bb0-ea1445382188","system_id":"levelo_inurba_marseille","lat":43.27996,"lon":5.416624,"is_reserved":false,"is_disabled":false,"rental_uris":{"android":"levelo://app?vid=7a5bc418-b5bc-41c1-9bb0-ea1445382188","ios":"levelo://app?vid=7a5bc418-b5bc-41c1-9bb0-ea1445382188"},"vehicle_type_id":"4","last_reported":1678550882,"current_range_meters":3600,"station_id":"ce4bho12rcd13ifvqh1g","pricing_plan_id":"free"},{"bike_id":"92176464-5367-431a-a01f-4d5d3673564c","system_id":"levelo_inurba_marseille","lat":43.279928,"lon":5.4166,"is_reserved":false,"is_disabled":false,"rental_uris":{"android":"levelo://app?vid=92176464-5367-431a-a01f-4d5d3673564c","ios":"levelo://app?vid=92176464-5367-431a-a01f-4d5d3673564c"},"vehicle_type_id":"4","last_reported":1678550882,"current_range_meters":10000,"station_id":"ce4bho12rcd13ifvqh1g","pricing_plan_id":"free"},{"bike_id":"6954828f-34a9-466f-a607-ab18401fa1ae","system_id":"levelo_inurba_marseille","lat":43.27989,"lon":5.41659,"is_reserved":false,"is_disabled":false,"rental_uris":{"android":"levelo://app?vid=6954828f-34a9-466f-a607-ab18401fa1ae","ios":"levelo://app?vid=6954828f-34a9-466f-a607-ab18401fa1ae"},"vehicle_type_id":"4","last_reported":1678550882,"current_range_meters":8400,"station_id":"ce4bho12rcd13ifvqh1g","pricing_plan_id":"free"},{"bike_id":"91c4e2cf-bf61-42f8-af20-4ebbe466a2a2","system_id":"levelo_inurba_marseille","lat":43.267966,"lon":5.393976,"is_reserved":false,"is_disabled":false,"rental_uris":{"android":"levelo://app?vid=91c4e2cf-bf61-42f8-af20-4ebbe466a2a2","ios":"levelo://app?vid=91c4e2cf-bf61-42f8-af20-4ebbe466a2a2"},"vehicle_type_id":"4","last_reported":1678550882,"current_range_meters":18000,"station_id":"ce4bhh12rcd13ifvqfg0","pricing_plan_id":"free"},{"bike_id":"c48b51c2-c925-4bf7-bef9-8ee75c7cf7c2","system_id":"levelo_inurba_marseille","lat":43.267966,"lon":5.393976,"is_reserved":false,"is_disabled":false,"rental_uris":{"android":"levelo://app?vid=c48b51c2-c925-4bf7-bef9-8ee75c7cf7c2","ios":"levelo://app?vid=c48b51c2-c925-4bf7-bef9-8ee75c7cf7c2"},"vehicle_type_id":"4","last_reported":1678550882,"current_range_meters":6400,"station_id":"ce4bhh12rcd13ifvqfg0","pricing_plan_id":"free"},{"bike_id":"4c42b69d-6422-4d32-bf1d-18fe2c9b6d9c","system_id":"levelo_inurba_marseille","lat":43.267785,"lon":5.394197,"is_reserved":false,"is_disabled":false,"rental_uris":{"android":"levelo://app?vid=4c42b69d-6422-4d32-bf1d-18fe2c9b6d9c","ios":"levelo://app?vid=4c42b69d-6422-4d32-bf1d-18fe2c9b6d9c"},"vehicle_type_id":"4","last_reported":1678550882,"current_range_meters":0,"station_id":"","pricing_plan_id":"free"},{"bike_id":"5ed9e406-d9fc-445f-91f6-a53ebc04878f","system_id":"levelo_inurba_marseille","lat":43.307998,"lon":5.435229,"is_reserved":false,"is_disabled":false,"rental_uris":{"android":"levelo://app?vid=5ed9e406-d9fc-445f-91f6-a53ebc04878f","ios":"levelo://app?vid=5ed9e406-d9fc-445f-91f6-a53ebc04878f"},"vehicle_type_id":"4","last_reported":1678550882,"current_range_meters":6000,"station_id":"","pricing_plan_id":"free"},{"bike_id":"32f547a2-447a-4ec8-849d-09e376531259","system_id":"levelo_inurba_marseille","lat":43.265569,"lon":5.390047,"is_reserved":false,"is_disabled":false,"rental_uris":{"android":"levelo://app?vid=32f547a2-447a-4ec8-849d-09e376531259","ios":"levelo://app?vid=32f547a2-447a-4ec8-849d-09e376531259"},"vehicle_type_id":"4","last_reported":1678550882,"current_range_meters":9200,"station_id":"ce4bhe12rcd13ifvqf30","pricing_plan_id":"free"},{"bike_id":"4781ae1f-2a71-499a-9365-103acb0cacf0","system_id":"levelo_inurba_marseille","lat":43.308051,"lon":5.43527,"is_reserved":false,"is_disabled":false,"rental_uris":{"android":"levelo://app?vid=4781ae1f-2a71-499a-9365-103acb0cacf0","ios":"levelo://app?vid=4781ae1f-2a71-499a-9365-103acb0cacf0"},"vehicle_type_id":"4","last_reported":1678550882,"current_range_meters":0,"station_id":"ce4bhph2rcd13ifvqheg","pricing_plan_id":"free"},{"bike_id":"339c30ff-c400-4b90-b502-bd2eaa922195","system_id":"levelo_inurba_marseille","lat":43.2657,"lon":5.39016,"is_reserved":false,"is_disabled":false,"rental_uris":{"android":"levelo://app?vid=339c30ff-c400-4b90-b502-bd2eaa922195","ios":"levelo://app?vid=339c30ff-c400-4b90-b502-bd2eaa922195"},"vehicle_type_id":"4","last_reported":1678550882,"current_range_meters":22400,"station_id":"","pricing_plan_id":"free"},{"bike_id":"27e80ec1-ac87-4d53-a635-7240aec2e024","system_id":"levelo_inurba_marseille","lat":43.302759,"lon":5.400793,"is_reserved":false,"is_disabled":false,"rental_uris":{"android":"levelo://app?vid=27e80ec1-ac87-4d53-a635-7240aec2e024","ios":"levelo://app?vid=27e80ec1-ac87-4d53-a635-7240aec2e024"},"vehicle_type_id":"4","last_reported":1678550882,"current_range_meters":21200,"station_id":"ce4bgvh2rcd13ifvqcs0","pricing_plan_id":"free"},{"bike_id":"96168561-bd64-44d9-b636-7e902b73a3d5","system_id":"levelo_inurba_marseille","lat":43.261782,"lon":5.374515,"is_reserved":false,"is_disabled":false,"rental_uris":{"android":"levelo://app?vid=96168561-bd64-44d9-b636-7e902b73a3d5","ios":"levelo://app?vid=96168561-bd64-44d9-b636-7e902b73a3d5"},"vehicle_type_id":"4","last_reported":1678550882,"current_range_meters":10400,"station_id":"ce4bhgp2rcd13ifvqfc0","pricing_plan_id":"free"},{"bike_id":"0fee1cd5-40b8-4006-8f3e-f0319d42750b","system_id":"levelo_inurba_marseille","lat":43.26196,"lon":5.37448,"is_reserved":false,"is_disabled":false,"rental_uris":{"android":"levelo://app?vid=0fee1cd5-40b8-4006-8f3e-f0319d42750b","ios":"levelo://app?vid=0fee1cd5-40b8-4006-8f3e-f0319d42750b"},"vehicle_type_id":"4","last_reported":1678550882,"current_range_meters":6800,"station_id":"ce4bhgp2rcd13ifvqfc0","pricing_plan_id":"free"},{"bike_id":"54a1d70d-8d3f-46ac-9bdc-053f79583832","system_id":"levelo_inurba_marseille","lat":43.261782,"lon":5.374515,"is_reserved":false,"is_disabled":false,"rental_uris":{"android":"levelo://app?vid=54a1d70d-8d3f-46ac-9bdc-053f79583832","ios":"levelo://app?vid=54a1d70d-8d3f-46ac-9bdc-053f79583832"},"vehicle_type_id":"4","last_reported":1678550882,"current_range_meters":0,"station_id":"ce4bhgp2rcd13ifvqfc0","pricing_plan_id":"free"},{"bike_id":"291b3e10-31de-4438-bf9c-b8e3f30b9a53","system_id":"levelo_inurba_marseille","lat":43.31713,"lon":5.43703,"is_reserved":false,"is_disabled":false,"rental_uris":{"android":"levelo://app?vid=291b3e10-31de-4438-bf9c-b8e3f30b9a53","ios":"levelo://app?vid=291b3e10-31de-4438-bf9c-b8e3f30b9a53"},"vehicle_type_id":"4","last_reported":1678550882,"current_range_meters":29600,"station_id":"","pricing_plan_id":"free"},