{"last_updated":1730653670,"ttl":60,"version":"2.2","data":{"bikes":[{"bike_id":"daa5500f-6039-4d77-bf02-00710b3acec6","system_id":"levelo_inurba_marseille","lat":43.25934,"lon":5.40918,"is_reserved":false,"is_disabled":false,"rental_uris":{"android":"levelo://app?vid=daa5500f-6039-4d77-bf02-00710b3acec6","ios":"levelo://app?vid=daa5500f-6039-4d77-bf02-00710b3acec6"},"vehicle_type_id":"4","last_reported":1730653670,"current_range_meters":3600,"station_id":"ce4bhm92rcd13ifvqglg","pricing_plan_id":"cebpf4jnsgd1na2vs0mg"},{"bike_id":"9ec66a49-9bf7-474f-9b0a-c4037dff88a5","system_id":"levelo_inurba_marseille","lat":43.27053,"lon":5.40265,"is_reserved":false,"is_disabled":false,"rental_uris":{"android":"levelo://app?vid=9ec66a49-9bf7-474f-9b0a-c4037dff88a5","ios":"levelo://app?vid=9ec66a49-9bf7-474f-9b0a-c4037dff88a5"},"vehicle_type_id":"4","last_reported":1730653670,"current_range_meters":17200,"station_id":"ce4bhk92rcd13ifvqgc0","pricing_plan_id":"cebpf4jnsgd1na2vs0mg"},{"bike_id":"0946d2bc-8f67-472d-8ae9-5c978812db9d","system_id":"levelo_inurba_marseille","lat":43.27815,"lon":5.40713,"is_reserved":false,"is_disabled":false,"rental_uris":{"android":"levelo://app?vid=0946d2bc-8f67-472d-8ae9-5c978812db9d","ios":"levelo://app?vid=0946d2bc-8f67-472d-8ae9-5c978812db9d"},"vehicle_type_id":"4","last_reported":1730653670,"current_range_meters":11200,"station_id":"ce4bhnh2rcd13ifvqgtg","pricing_plan_id":"cebpf4jnsgd1na2vs0mg"},{"bike_id":"d00abb61-0e57-498d-9b2a-8beda63b6fef","system_id":"levelo_inurba_marseille","lat":43.30897,"lon":5.39657,"is_reserved":false,"is_disabled":false,"rental_uris":{"android":"levelo://app?vid=d00abb61-0e57-498d-9b2a-8beda63b6fef","ios":"levelo://app?vid=d00abb61-0e57-498d-9b2a-8beda63b6fef"},"vehicle_type_id":"4","last_reported":1730653670,"current_range_meters":8800,"station_id":"ce4bh012rcd13ifvqcv0","pricing_plan_id":"cebpf4jnsgd1na2vs0mg"},{"bike_id":"8c2cc48d-9ab8-4fc0-82ef-7cafd31d7aa7","system_id":"levelo_inurba_marseille","lat":43.32473,"lon":5.36563,"is_reserved":false,"is_disabled":false,"rental_uris":{"android":"levelo://app?vid=8c2cc48d-9ab8-4fc0-82ef-7cafd31d7aa7","ios":"levelo://app?vid=8c2cc48d-9ab8-4fc0-82ef-7cafd31d7aa7"},"vehicle_type_id":"4","last_reported":1730653670,"current_range_meters":17200,"station_id":"ce4bhs12rcd13ifvqhvg","pricing_plan_id":"cebpf4jnsgd1na2vs0mg"},{"bike_id":"05f17640-6436-445c-b92c-2c9098755b3c","system_id":"levelo_inurba_marseille","lat":43.29524,"lon":5.39412,"is_reserved":false,"is_disabled":false,"rental_uris":{"android":"levelo://app?vid=05f17640-6436-445c-b92c-2c9098755b3c","ios":"levelo://app?vid=05f17640-6436-445c-b92c-2c9098755b3c"},"vehicle_type_id":"4","last_reported":1730653670,"current_range_meters":38800,"station_id":"ce4bh292rcd13ifvqdf0","pricing_plan_id":"cebpf4jnsgd1na2vs0mg"},{"bike_id":"1400481a-d64a-45f2-94ac-6b422dab62e4","system_id":"levelo_inurba_marseille","lat":43.31327,"lon":5.39691,"is_reserved":false,"is_disabled":false,"rental_uris":{"android":"levelo://app?vid=1400481a-d64a-45f2-94ac-6b422dab62e4","ios":"levelo://app?vid=1400481a-d64a-45f2-94ac-6b422dab62e4"},"vehicle_type_id":"4","last_reported":1730653670,"current_range_meters":25600,"station_id":"ce4bgvp2rcd13ifvqcu0","pricing_plan_id":"cebpf4jnsgd1na2vs0mg"},{"bike_id":"fcd81767-2dc7-4408-b5a4-0eadcf4a175a","system_id":"levelo_inurba_marseille","lat":43.31752,"lon":5.39019,"is_reserved":false,"is_disabled":false,"rental_uris":{"android":"levelo://app?vid=fcd81767-2dc7-4408-b5a4-0eadcf4a175a","ios":"levelo://app?vid=fcd81767-2dc7-4408-b5a4-0eadcf4a175a"},"vehicle_type_id":"4","last_reported":1730653670,"current_range_meters":16800,"station_id":"ce4bhqp2rcd13ifvqhng","pricing_plan_id":"cebpf4jnsgd1na2vs0mg"},{"bike_id":"f000d6ee-3311-4e0f-8f93-4332274a3604","system_id":"levelo_inurba_marseille","lat":43.25829,"lon":5.39435,"is_reserved":false,"is_disabled":false,"rental_uris":{"android":"levelo://app?vid=f000d6ee-3311-4e0f-8f93-4332274a3604","ios":"levelo://app?vid=f000d6ee-3311-4e0f-8f93-4332274a3604"},"vehicle_type_id":"4","last_reported":1730653670,"current_range_meters":35600,"station_id":"ce4bhip2rcd13ifvqft0","pricing_plan_id":"cebpf4jnsgd1na2vs0mg"},{"bike_id":"19886e9f-0ec1-498f-9056-d1c6cd79ceb0","system_id":"levelo_inurba_marseille","lat":43.26499,"lon":5.39546,"is_reserved":false,"is_disabled":false,"rental_uris":{"android":"levelo://app?vid=19886e9f-0ec1-498f-9056-d1c6cd79ceb0","ios":"levelo://app?vid=19886e9f-0ec1-498f-9056-d1c6cd79ceb0"},"vehicle_type_id":"4","last_reported":1730653670,"current_range_meters":23200,"station_id":"ce4bhi12rcd13ifvqfq0","pricing_plan_id":"cebpf4jnsgd1na2vs0mg"},{"bike_id":"4ba20270-0a0a-4d0b-b948-9dfe8f9504fc","system_id":"levelo_inurba_marseille","lat":43.28479,"lon":5.38416,"is_reserved":false,"is_disabled":false,"rental_uris":{"android":"levelo://app?vid=4ba20270-0a0a-4d0b-b948-9dfe8f9504fc","ios":"levelo://app?vid=4ba20270-0a0a-4d0b-b948-9dfe8f9504fc"},"vehicle_type_id":"4","last_reported":1730653670,"current_range_meters":8400,"station_id":"ce4bh512rcd13ifvqe3g","pricing_plan_id":"cebpf4jnsgd1na2vs0mg"},{"bike_id":"4147bbfb-4b14-4aca-b782-8ec6c0473609","system_id":"levelo_inurba_marseille","lat":43.23593,"lon":5.40354,"is_reserved":false,"is_disabled":false,"rental_uris":{"android":"levelo://app?vid=4147bbfb-4b14-4aca-b782-8ec6c0473609","ios":"levelo://app?vid=4147bbfb-4b14-4aca-b782-8ec6c0473609"},"vehicle_type_id":"4","last_reported":1730653670,"current_range_meters":20000,"station_id":"","pricing_plan_id":"cebpf4jnsgd1na2vs0mg"},{"bike_id":"649c465a-1abf-4c7c-b3c5-b598107982c7","system_id":"levelo_inurba_marseille","lat":43.30142,"lon":5.37429,"is_reserved":false,"is_disabled":false,"rental_uris":{"android":"levelo://app?vid=649c465a-1abf-4c7c-b3c5-b598107982c7","ios":"levelo://app?vid=649c465a-1abf-4c7c-b3c5-b598107982c7"},"vehicle_type_id":"4","last_reported":1730653670,"current_range_meters":28800,"station_id":"ce4bgs92rcd13ifvqcc0","pricing_plan_id":"cebpf4jnsgd1na2vs0mg"},{"bike_id":"c54d6f12-6af8-4598-9da5-7dfc56c85586","system_id":"levelo_inurba_marseille","lat":43.29977,"lon":5.38495,"is_reserved":false,"is_disabled":false,"rental_uris":{"android":"levelo://app?vid=c54d6f12-6af8-4598-9da5-7dfc56c85586","ios":"levelo://app?vid=c54d6f12-6af8-4598-9da5-7dfc56c85586"},"vehicle_type_id":"4","last_reported":1730653670,"current_range_meters":11200,"station_id":"ce4bgj92rcd13ifvqbd0","pricing_plan_id":"cebpf4jnsgd1na2vs0mg"},{"bike_id":"7ee64e2c-406f-4f6a-83b8-a818b7c16596","system_id":"levelo_inurba_marseille","lat":43.28106,"lon":5.37831,"is_reserved":false,"is_disabled":false,"rental_uris":{"android":"levelo://app?vid=7ee64e2c-406f-4f6a-83b8-a818b7c16596","ios":"levelo://app?vid=7ee64e2c-406f-4f6a-83b8-a818b7c16596"},"vehicle_type_id":"4","last_reported":1730653670,"current_range_meters":23200,"station_id":"ce4bha12rcd13ifvqee0","pricing_plan_id":"cebpf4jnsgd1na2vs0mg"},{"bike_id":"99929054-e2f9-4451-aa6b-3a3c9ff0baa9","system_id":"levelo_inurba_marseille","lat":43.30277,"lon":5.37705,"is_reserved":false,"is_disabled":false,"rental_uris":{"android":"levelo://app?vid=99929054-e2f9-4451-aa6b-3a3c9ff0baa9","ios":"levelo://app?vid=99929054-e2f9-4451-aa6b-3a3c9ff0baa9"},"vehicle_type_id":"4","last_reported":1730653670,"current_range_meters":38400,"station_id":"ce4bguh2rcd13ifvqcj0","pricing_plan_id":"cebpf4jnsgd1na2vs0mg"},{"bike_id":"65bc9b82-fb85-4b4b-8361-41afd6b23846","system_id":"levelo_inurba_marseille","lat":43.25869,"lon":5.399,"is_reserved":false,"is_disabled":false,"rental_uris":{"android":"levelo://app?vid=65bc9b82-fb85-4b4b-8361-41afd6b23846","ios":"levelo://app?vid=65bc9b82-fb85-4b4b-8361-41afd6b23846"},"vehicle_type_id":"4","last_reported":1730653670,"current_range_meters":18000,"station_id":"ce4bhl92rcd13ifvqghg","pricing_plan_id":"cebpf4jnsgd1na2vs0mg"},{"bike_id":"d6b6dad7-6af2-49af-bbb6-ae36a57ed8e7","system_id":"levelo_inurba_marseille","lat":43.28619,"lon":5.37065,"is_reserved":false,"is_disabled":false,"rental_uris":{"android":"levelo://app?vid=d6b6dad7-6af2-49af-bbb6-ae36a57ed8e7","ios":"levelo://app?vid=d6b6dad7-6af2-49af-bbb6-ae36a57ed8e7"},"vehicle_type_id":"4","last_reported":1730653670,"current_range_meters":21600,"station_id":"ce4bht12rcd13ifvqi60","pricing_plan_id":"cebpf4jnsgd1na2vs0mg"},{"bike_id":"7a58bdc6-5db2-4543-b33d-6202d289b688","system_id":"levelo_inurba_marseille","lat":43.33731,"lon":5.39186,"is_reserved":false,"is_disabled":false,"rental_uris":{"android":"levelo://app?vid=7a58bdc6-5db2-4543-b33d-6202d289b688","ios":"levelo://app?vid=7a58bdc6-5db2-4543-b33d-6202d289b688"},"vehicle_type_id":"4","last_reported":1730653670,"current_range_meters":28000,"station_id":"ce4bhr92rcd13ifvqhsg","pricing_plan_id":"cebpf4jnsgd1na2vs0mg"},{"bike_id":"86effa25-ca5a-41d0-8828-393ac9a49db4","system_id":"levelo_inurba_marseille","lat":43.25719,"lon":5.41115,"is_reserved":false,"is_disabled":false,"rental_uris":{"android":"levelo://app?vid=86effa25-ca5a-41d0-8828-393ac9a49db4","ios":"levelo://app?vid=86effa25-ca5a-41d0-8828-393ac9a49db4"},"vehicle_type_id":"4","last_reported":1730653670,"current_range_meters":15200,"station_id":"ce4bhkp2rcd13ifvqgd0","pricing_plan_id":"cebpf4jnsgd1na2vs0mg"},{"bike_id":"baea6945-ac3f-4195-a6a4-4b887db0844f","system_id":"levelo_inurba_marseille","lat":43.27083,"lon":5.4229,"is_reserved":false,"is_disabled":false,"rental_uris":{"android":"levelo://app?vid=baea6945-ac3f-4195-a6a4-4b887db0844f","ios":"levelo://app?vid=baea6945-ac3f-4195-a6a4-4b887db0844f"},"vehicle_type_id":"4","last_reported":1730653670,"current_range_meters":12800,"station_id":"ce4bhk92rcd13ifvqgb0","pricing_plan_id":"cebpf4jnsgd1na2vs0mg"},{"bike_id":"598535da-1e32-42e0-bd65-4ba25549dd70","system_id":"levelo_inurba_marseille","lat":43.31457,"lon":5.37379,"is_reserved":false,"is_disabled":false,"rental_uris":{"android":"levelo://app?vid=598535da-1e32-42e0-bd65-4ba25549dd70","ios":"levelo://app?vid=598535da-1e32-42e0-bd65-4ba25549dd70"},"vehicle_type_id":"4","last_reported":1730653670,"current_range_meters":29600,"station_id":"","pricing_plan_id":"cebpf4jnsgd1na2vs0mg"},{"bike_id":"2378f453-72a7-4eb2-ab3b-946285d406fd","system_id":"levelo_inurba_marseille","lat":43.29231,"lon":5.37734,"is_reserved":false,"is_disabled":false,"rental_uris":{"android":"levelo://app?vid=2378f453-72a7-4eb2-ab3b-946285d406fd","ios":"levelo://app?vid=2378f453-72a7-4eb2-ab3b-946285d406fd"},"vehicle_type_id":"4","last_reported":1730653670,"current_range_meters":12000,"station_id":"ce4bgi12rcd13ifvqb70","pricing_plan_id":"cebpf4jnsgd1na2vs0mg"},{"bike_id":"1a3f11a2-3a67-4c4e-b470-3e770644132a","system_id":"levelo_inurba_marseille","lat":43.25113,"lon":5.40325,"is_reserved":false,"is_disabled":false,"rental_uris":{"android":"levelo://app?vid=1a3f11a2-3a67-4c4e-b470-3e770644132a","ios":"levelo://app?vid=1a3f11a2-3a67-4c4e-b470-3e770644132a"},"vehicle_type_id":"4","last_reported":1730653670,"current_range_meters":1600,"station_id":"ce4bhlh2rcd13ifvqgig","pricing_plan_id":"cebpf4jnsgd1na2vs0mg"},{"bike_id":"2fd7996a-a856-43b8-9100-f65959ddb1b9","system_id":"levelo_inurba_marseille","lat":43.28462,"lon":5.35895,"is_reserved":false,"is_disabled":false,"rental_uris":{"android":"levelo://app?vid=2fd7996a-a856-43b8-9100-f65959ddb1b9","ios":"levelo://app?vid=2fd7996a-a856-43b8-9100-f65959ddb1b9"},"vehicle_type_id":"4","last_reported":1730653670,"current_range_meters":16000,"station_id":"ce4bhah2rcd13ifvqei0","pricing_plan_id":"cebpf4jnsgd1na2vs0mg"},{"bike_id":"45e37847-060c-4fbe-958a-f63e7f57fa30","system_id":"levelo_inurba_marseille","lat":43.27073,"lon":5.42278,"is_reserved":false,"is_disabled":false,"rental_uris":{"android":"levelo://app?vid=45e37847-060c-4fbe-958a-f63e7f57fa30","ios":"levelo://app?vid=45e37847-060c-4fbe-958a-f63e7f57fa30"},"vehicle_type_id":"4","last_reported":1730653670,"current_range_meters":24000,"station_id":"ce4bhk92rcd13ifvqgb0","pricing_plan_id":"cebpf4jnsgd1na2vs0mg"},{"bike_id":"9f223478-460e-4c61-b4f2-20e23bd73f46","system_id":"levelo_inurba_marseille","lat":43.29519,"lon":5.39407,"is_reserved":false,"is_disabled":false,"rental_uris":{"android":"levelo://app?vid=9f223478-460e-4c61-b4f2-20e23bd73f46","ios":"levelo://app?vid=9f223478-460e-4c61-b4f2-20e23bd73f46"},"vehicle_type_id":"4","last_reported":1730653670,"current_range_meters":38800,"station_id":"ce4bh292rcd13ifvqdf0","pricing_plan_id":"cebpf4jnsgd1na2vs0mg"},{"bike_id":"3a996622-6c44-4cae-870b-9a00d697afde","system_id":"levelo_inurba_marseille","lat":43.29808,"lon":5.38089,"is_reserved":false,"is_disabled":false,"rental_uris":{"android":"levelo://app?vid=3a996622-6c44-4cae-870b-9a00d697afde","ios":"levelo://app?vid=3a996622-6c44-4cae-870b-9a00d697afde"},"vehicle_type_id":"4","last_reported":1730653670,"current_range_meters":39200,"station_id":"ce4bgip2rcd13ifvqbb0","pricing_plan_id":"cebpf4jnsgd1na2vs0mg"},{"bike_id":"c89ab191-b07a-439c-a401-b85e67263211","system_id":"levelo_inurba_marseille","lat":43.28936,"lon":5.38409,"is_reserved":false,"is_disabled":false,"rental_uris":{"android":"levelo://app?vid=c89ab191-b07a-439c-a401-b85e67263211","ios":"levelo://app?vid=c89ab191-b07a-439c-a401-b85e67263211"},"vehicle_type_id":"4","last_reported":1730653670,"current_range_meters":8000,"station_id":"ce4bh612rcd13ifvqe6g","pricing_plan_id":"cebpf4jnsgd1na2vs0mg"},{"bike_id":"a7b36593-67cd-4663-b9e1-ed4169eeb26f","system_id":"levelo_inurba_marseille","lat":43.29558,"lon":5.42289,"is_reserved":false,"is_disabled":false,"rental_uris":{"android":"levelo://app?vid=a7b36593-67cd-4663-b9e1-ed4169eeb26f","ios":"levelo://app?vid=a7b36593-67cd-4663-b9e1-ed4169eeb26f"},"vehicle_type_id":"4","last_reported":1730653670,"current_range_meters":6400,"station_id":"ce4bhph2rcd13ifvqhdg","pricing_plan_id":"cebpf4jnsgd1na2vs0mg"},{"bike_id":"e63d72aa-51a3-498d-a39e-f0ad81d08c15","system_id":"levelo_inurba_marseille","lat":43.29537,"lon":5.39401,"is_reserved":false,"is_disabled":false,"rental_uris":{"android":"levelo://app?vid=e63d72aa-51a3-498d-a39e-f0ad81d08c15","ios":"levelo://app?vid=e63d72aa-51a3-498d-a39e-f0ad81d08c15"},"vehicle_type_id":"4","last_reported":1730653670,"current_range_meters":8000,"station_id":"ce4bh292rcd13ifvqdf0","pricing_plan_id":"cebpf4jnsgd1na2vs0mg"},{"bike_id":"a90da372-14a2-4c12-9544-f51bf7459731","system_id":"levelo_inurba_marseille","lat":43.29602,"lon":5.37728,"is_reserved":false,"is_disabled":false,"rental_uris":{"android":"levelo://app?vid=a90da372-14a2-4c12-9544-f51bf7459731","ios":"levelo://app?vid=a90da372-14a2-4c12-9544-f51bf7459731"},"vehicle_type_id":"4","last_reported":1730653670,"current_range_meters":4000,"station_id":"ce4bgi92rcd13ifvqb90","pricing_plan_id":"cebpf4jnsgd1na2vs0mg"},{"bike_id":"c73eb4d8-82be-4a6f-8248-fb005569f1b2","system_id":"levelo_inurba_marseille","lat":43.28468,"lon":5.38412,"is_reserved":false,"is_disabled":false,"rental_uris":{"android":"levelo://app?vid=c73eb4d8-82be-4a6f-8248-fb005569f1b2","ios":"levelo://app?vid=c73eb4d8-82be-4a6f-8248-fb005569f1b2"},"vehicle_type_id":"4","last_reported":1730653670,"current_range_meters":26000,"station_id":"ce4bh512rcd13ifvqe3g","pricing_plan_id":"cebpf4jnsgd1na2vs0mg"},{"bike_id":"31e8f71b-a670-474a-a1c8-071c59dd8a5b","system_id":"levelo_inurba_marseille","lat":43.29544,"lon":5.38553,"is_reserved":false,"is_disabled":false,"rental_uris":{"android":"levelo://app?vid=31e8f71b-a670-474a-a1c8-071c59dd8a5b","ios":"levelo://app?vid=31e8f71b-a670-474a-a1c8-071c59dd8a5b"},"vehicle_type_id":"4","last_reported":1730653670,"current_range_meters":3600,"station_id":"ce4bgih2rcd13ifvqba0","pricing_plan_id":"cebpf4jnsgd1na2vs0mg"},{"bike_id":"9627c4a7-d956-4ab4-9a7d-2e74ba14b65b","system_id":"levelo_inurba_marseille","lat":43.2844,"lon":5.35885,"is_reserved":false,"is_disabled":false,"rental_uris":{"android":"levelo://app?vid=9627c4a7-d956-4ab4-9a7d-2e74ba14b65b","ios":"levelo://app?vid=9627c4a7-d956-4ab4-9a7d-2e74ba14b65b"},"vehicle_type_id":"4","last_reported":1730653670,"current_range_meters":38800,"station_id":"ce4bhah2rcd13ifvqei0","pricing_plan_id":"cebpf4jnsgd1na2vs0mg"},{"bike_id":"99900cb1-3cb4-4382-bc7b-9b83e6eb2020","system_id":"levelo_inurba_marseille","lat":43.29024,"lon":5.38137,"is_reserved":false,"is_disabled":false,"rental_uris":{"android":"levelo://app?vid=99900cb1-3cb4-4382-bc7b-9b83e6eb2020","ios":"levelo://app?vid=99900cb1-3cb4-4382-bc7b-9b83e6eb2020"},"vehicle_type_id":"4","last_reported":1730653670,"current_range_meters":38400,"station_id":"ce4bh4p2rcd13ifvqe1g","pricing_plan_id":"cebpf4jnsgd1na2vs0mg"},{"bike_id":"dcda6d62-942d-4cfc-b0c3-e7315a082712","system_id":"levelo_inurba_marseille","lat":43.27815,"lon":5.40717,"is_reserved":false,"is_disabled":false,"rental_uris":{"android":"levelo://app?vid=dcda6d62-942d-4cfc-b0c3-e7315a082712","ios":"levelo://app?vid=dcda6d62-942d-4cfc-b0c3-e7315a082712"},"vehicle_type_id":"4","last_reported":1730653670,"current_range_meters":36400,"station_id":"ce4bhnh2rcd13ifvqgtg","pricing_plan_id":"cebpf4jnsgd1na2vs0mg"},{"bike_id":"75576e24-6890-4288-9aa5-db2804891d6f","system_id":"levelo_inurba_marseille","lat":43.26937,"lon":5.402535,"is_reserved":false,"is_disabled":false,"rental_uris":{"android":"levelo://app?vid=75576e24-6890-4288-9aa5-db2804891d6f","ios":"levelo://app?vid=75576e24-6890-4288-9aa5-db2804891d6f"},"vehicle_type_id":"4","last_reported":1730653670,"current_range_meters":37600,"station_id":"cjm6bp8fraef2m0cb0m0","pricing_plan_id":"cebpf4jnsgd1na2vs0mg"},{"bike_id":"54337fac-085e-4782-bad6-db9a84abd2e2","system_id":"levelo_inurba_marseille","lat":43.31707,"lon":5.37748,"is_reserved":false,"is_disabled":false,"rental_uris":{"android":"levelo://app?vid=54337fac-085e-4782-bad6-db9a84abd2e2","ios":"levelo://app?vid=54337fac-085e-4782-bad6-db9a84abd2e2"},"vehicle_type_id":"4","last_reported":1730653670,"current_range_meters":38800,"station_id":"ce4bgth2rcd13ifvqch0","pricing_plan_id":"cebpf4jnsgd1na2vs0mg"},{"bike_id":"81844d5a-20e9-4f29-9888-099bfe839eaa","system_id":"levelo_inurba_marseille","lat":43.29752,"lon":5.38087,"is_reserved":false,"is_disabled":false,"rental_uris":{"android":"levelo://app?vid=81844d5a-20e9-4f29-9888-099bfe839eaa","ios":"levelo://app?vid=81844d5a-20e9-4f29-9888-099bfe839eaa"},"vehicle_type_id":"4","last_reported":1730653670,"current_range_meters":31200,"station_id":"","pricing_plan_id":"cebpf4jnsgd1na2vs0mg"},{"bike_id":"fc8ecc7e-9b95-4a98-b23d-59977816ad5d","system_id":"levelo_inurba_marseille","lat":43.23963,"lon":5.36635,"is_reserved":false,"is_disabled":false,"rental_uris":{"android":"levelo://app?vid=fc8ecc7e-9b95-4a98-b23d-59977816ad5d","ios":"levelo://app?vid=fc8ecc7e-9b95-4a98-b23d-59977816ad5d"},"vehicle_type_id":"4","last_reported":1730653670,"current_range_meters":38800,"station_id":"ce4bhi12rcd13ifvqfp0","pricing_plan_id":"cebpf4jnsgd1na2vs0mg"},{"bike_id":"a9e32352-0ca8-4535-87fc-d3cfff86084b","system_id":"levelo_inurba_marseille","lat":43.32487,"lon":5.3657,"is_reserved":false,"is_disabled":false,"rental_uris":{"android":"levelo://app?vid=a9e32352-0ca8-4535-87fc-d3cfff86084b","ios":"levelo://app?vid=a9e32352-0ca8-4535-87fc-d3cfff86084b"},"vehicle_type_id":"4","last_reported":1730653670,"current_range_meters":32400,"station_id":"ce4bhs12rcd13ifvqhvg","pricing_plan_id":"cebpf4jnsgd1na2vs0mg"},{"bike_id":"85331237-2f0b-4e78-a595-b724317397ff","system_id":"levelo_inurba_marseille","lat":43.24179,"lon":5.39732,"is_reserved":false,"is_disabled":false,"rental_uris":{"android":"levelo://app?vid=85331237-2f0b-4e78-a595-b724317397ff","ios":"levelo://app?vid=85331237-2f0b-4e78-a595-b724317397ff"},"vehicle_type_id":"4","last_reported":1730653670,"current_range_meters":28000,"station_id":"ce4bhn12rcd13ifvqgpg","pricing_plan_id":"cebpf4jnsgd1na2vs0mg"},{"bike_id":"7fa9e0db-d5db-4e00-9bab-71088473e9a3","system_id":"levelo_inurba_marseille","lat":43.28357,"lon":5.38106,"is_reserved":false,"is_disabled":false,"rental_uris":{"android":"levelo://app?vid=7fa9e0db-d5db-4e00-9bab-71088473e9a3","ios":"levelo://app?vid=7fa9e0db-d5db-4e00-9bab-71088473e9a3"},"vehicle_type_id":"4","last_reported":1730653670,"current_range_meters":33600,"station_id":"ce4bh412rcd13ifvqdr0","pricing_plan_id":"cebpf4jnsgd1na2vs0mg"},{"bike_id":"7d0d3152-1ba9-47d7-8821-9e8e4d4d45b1","system_id":"levelo_inurba_marseille","lat":43.28378,"lon":5.38638,"is_reserved":false,"is_disabled":false,"rental_uris":{"android":"levelo://app?vid=7d0d3152-1ba9-47d7-8821-9e8e4d4d45b1","ios":"levelo://app?vid=7d0d3152-1ba9-47d7-8821-9e8e4d4d45b1"},"vehicle_type_id":"4","last_reported":1730653670,"current_range_meters":38800,"station_id":"ce4bh492rcd13ifvqdvg","pricing_plan_id":"cebpf4jnsgd1na2vs0mg"},{"bike_id":"ae177b14-0c43-419a-9321-ab52b9e05689","system_id":"levelo_inurba_marseille","lat":43.24053,"lon":5.36719,"is_reserved":false,"is_disabled":false,"rental_uris":{"android":"levelo://app?vid=ae177b14-0c43-419a-9321-ab52b9e05689","ios":"levelo://app?vid=ae177b14-0c43-419a-9321-ab52b9e05689"},"vehicle_type_id":"4","last_reported":1730653670,"current_range_meters":4400,"station_id":"ce4bha12rcd13ifvqef0","pricing_plan_id":"cebpf4jnsgd1na2vs0mg"},{"bike_id":"616b9aee-021c-4bb7-b5b5-16444fc838e4","system_id":"levelo_inurba_marseille","lat":43.29425,"lon":5.38609,"is_reserved":false,"is_disabled":false,"rental_uris":{"android":"levelo://app?vid=616b9aee-021c-4bb7-b5b5-16444fc838e4","ios":"levelo://app?vid=616b9aee-021c-4bb7-b5b5-16444fc838e4"},"vehicle_type_id":"4","last_reported":1730653670,"current_range_meters":38800,"station_id":"ce4bh2h2rcd13ifvqdh0","pricing_plan_id":"cebpf4jnsgd1na2vs0mg"},{"bike_id":"e3368b33-0af2-4840-ba71-a14df39e04a9","system_id":"levelo_inurba_marseille","lat":43.29538,"lon":5.38547,"is_reserved":false,"is_disabled":false,"rental_uris":{"android":"levelo://app?vid=e3368b33-0af2-4840-ba71-a14df39e04a9","ios":"levelo://app?vid=e3368b33-0af2-4840-ba71-a14df39e04a9"},"vehicle_type_id":"4","last_reported":1730653670,"current_range_meters":29600,"station_id":"ce4bgih2rcd13ifvqba0","pricing_plan_id":"cebpf4jnsgd1na2vs0mg"},{"bike_id":"d6b8e5a1-b4f5-4ae9-b612-7f92e8666f3c","system_id":"levelo_inurba_marseille","lat":43.30263,"lon":5.369086,"is_reserved":false,"is_disabled":false,"rental_uris":{"android":"levelo://app?vid=d6b8e5a1-b4f5-4ae9-b612-7f92e8666f3c","ios":"levelo://app?vid=d6b8e5a1-b4f5-4ae9-b612-7f92e8666f3c"},"vehicle_type_id":"4","last_reported":1730653670,"current_range_meters":26000,"station_id":"ce4bgqh2rcd13ifvqc5g","pricing_plan_id":"cebpf4jnsgd1na2vs0mg"},{"bike_id":"75532452-57ed-4b2c-ad26-67356e7d77eb","system_id":"levelo_inurba_marseille","lat":43.2679,"lon":5.39413,"is_reserved":false,"is_disabled":false,"rental_uris":{"android":"levelo://app?vid=75532452-57ed-4b2c-ad26-67356e7d77eb","ios":"levelo://app?vid=75532452-57ed-4b2c-ad26-67356e7d77eb"},"vehicle_type_id":"4","last_reported":1730653670,"current_range_meters":12400,"station_id":"ce4bhh12rcd13ifvqfg0","pricing_plan_id":"cebpf4jnsgd1na2vs0mg"},{"bike_id":"1eeb5c5c-a3a6-4ef6-a852-f083a9363eab","system_id":"levelo_inurba_marseille","lat":43.27071,"lon":5.42284,"is_reserved":false,"is_disabled":false,"rental_uris":{"android":"levelo://app?vid=1eeb5c5c-a3a6-4ef6-a852-f083a9363eab","ios":"levelo://app?vid=1eeb5c5c-a3a6-4ef6-a852-f083a9363eab"},"vehicle_type_id":"4","last_reported":1730653670,"current_range_meters":9600,"station_id":"ce4bhk92rcd13ifvqgb0","pricing_plan_id":"cebpf4jnsgd1na2vs0mg"},{"bike_id":"1e86610f-421e-4bcb-8e1b-7520bf2cf2c6","system_id":"levelo_inurba_marseille","lat":43.28153,"lon":5.42637,"is_reserved":false,"is_disabled":false,"rental_uris":{"android":"levelo://app?vid=1e86610f-421e-4bcb-8e1b-7520bf2cf2c6","ios":"levelo://app?vid=1e86610f-421e-4bcb-8e1b-7520bf2cf2c6"},"vehicle_type_id":"4","last_reported":1730653670,"current_range_meters":4400,"station_id":"ce4bhnh2rcd13ifvqgug","pricing_plan_id":"cebpf4jnsgd1na2vs0mg"},{"bike_id":"e50fd69d-8268-4029-bf65-400af74520b3","system_id":"levelo_inurba_marseille","lat":43.28003,"lon":5.4167,"is_reserved":false,"is_disabled":false,"rental_uris":{"android":"levelo://app?vid=e50fd69d-8268-4029-bf65-400af74520b3","ios":"levelo://app?vid=e50fd69d-8268-4029-bf65-400af74520b3"},"vehicle_type_id":"4","last_reported":1730653670,"current_range_meters":16400,"station_id":"ce4bho12rcd13ifvqh1g","pricing_plan_id":"cebpf4jnsgd1na2vs0mg"},{"bike_id":"b535d7d2-7630-4884-8b57-c1d7e21ce967","system_id":"levelo_inurba_marseille","lat":43.29532,"lon":5.38554,"is_reserved":false,"is_disabled":false,"rental_uris":{"android":"levelo://app?vid=b535d7d2-7630-4884-8b57-c1d7e21ce967","ios":"levelo://app?vid=b535d7d2-7630-4884-8b57-c1d7e21ce967"},"vehicle_type_id":"4","last_reported":1730653670,"current_range_meters":12800,"station_id":"ce4bgih2rcd13ifvqba0","pricing_plan_id":"cebpf4jnsgd1na2vs0mg"},{"bike_id":"badeb4b1-d4a2-4e29-a4c1-c2c0081fee78","system_id":"levelo_inurba_marseille","lat":43.32044,"lon":5.41547,"is_reserved":false,"is_disabled":false,"rental_uris":{"android":"levelo://app?vid=badeb4b1-d4a2-4e29-a4c1-c2c0081fee78","ios":"levelo://app?vid=badeb4b1-d4a2-4e29-a4c1-c2c0081fee78"},"vehicle_type_id":"4","last_reported":1730653670,"current_range_meters":16800,"station_id":"ce4bhq92rcd13ifvqhkg","pricing_plan_id":"cebpf4jnsgd1na2vs0mg"},{"bike_id":"0568e090-5993-40e0-8cc1-fe73b2143b72","system_id":"levelo_inurba_marseille","lat":43.299469,"lon":5.375698,"is_reserved":false,"is_disabled":false,"rental_uris":{"android":"levelo://app?vid=0568e090-5993-40e0-8cc1-fe73b2143b72","ios":"levelo://app?vid=0568e090-5993-40e0-8cc1-fe73b2143b72"},"vehicle_type_id":"4","last_reported":1730653670,"current_range_meters":1600,"station_id":"ce4bgt92rcd13ifvqcf0","pricing_plan_id":"cebpf4jnsgd1na2vs0mg"},{"bike_id":"f98f84fd-f9fe-4c82-ba79-178f37502ab7","system_id":"levelo_inurba_marseille","lat":43.2408,"lon":5.37763,"is_reserved":false,"is_disabled":false,"rental_uris":{"android":"levelo://app?vid=f98f84fd-f9fe-4c82-ba79-178f37502ab7","ios":"levelo://app?vid=f98f84fd-f9fe-4c82-ba79-178f37502ab7"},"vehicle_type_id":"4","last_reported":1730653670,"current_range_meters":25200,"station_id":"ce4bhnp2rcd13ifvqgvg","pricing_plan_id":"cebpf4jnsgd1na2vs0mg"},{"bike_id":"c91d8c06-c02f-4920-a43d-9b39c1810e40","system_id":"levelo_inurba_marseille","lat":43.2706,"lon":5.40262,"is_reserved":false,"is_disabled":false,"rental_uris":{"android":"levelo://app?vid=c91d8c06-c02f-4920-a43d-9b39c1810e40","ios":"levelo://app?vid=c91d8c06-c02f-4920-a43d-9b39c1810e40"},"vehicle_type_id":"4","last_reported":1730653670,"current_range_meters":16800,"station_id":"ce4bhk92rcd13ifvqgc0","pricing_plan_id":"cebpf4jnsgd1na2vs0mg"},{"bike_id":"f689e983-7592-4814-b782-8810ef38aa9f","system_id":"levelo_inurba_marseille","lat":43.30809,"lon":5.38146,"is_reserved":false,"is_disabled":false,"rental_uris":{"android":"levelo://app?vid=f689e983-7592-4814-b782-8810ef38aa9f","ios":"levelo://app?vid=f689e983-7592-4814-b782-8810ef38aa9f"},"vehicle_type_id":"4","last_reported":1730653670,"current_range_meters":38800,"station_id":"ce4bgt12rcd13ifvqce0","pricing_plan_id":"cebpf4jnsgd1na2vs0mg"},{"bike_id":"12e2a17d-b267-46ea-b046-7d399d7c3544","system_id":"levelo_inurba_marseille","lat":43.33728,"lon":5.39185,"is_reserved":false,"is_disabled":false,"rental_uris":{"android":"levelo://app?vid=12e2a17d-b267-46ea-b046-7d399d7c3544","ios":"levelo://app?vid=12e2a17d-b267-46ea-b046-7d399d7c3544"},"vehicle_type_id":"4","last_reported":1730653670,"current_range_meters":26000,"station_id":"ce4bhr92rcd13ifvqhsg","pricing_plan_id":"cebpf4jnsgd1na2vs0mg"},{"bike_id":"8c7ad5cc-5ff9-4c37-818d-c3f5da68c27c","system_id":"levelo_inurba_marseille","lat":43.28416,"lon":5.37516,"is_reserved":false,"is_disabled":false,"rental_uris":{"android":"levelo://app?vid=8c7ad5cc-5ff9-4c37-818d-c3f5da68c27c","ios":"levelo://app?vid=8c7ad5cc-5ff9-4c37-818d-c3f5da68c27c"},"vehicle_type_id":"4","last_reported":1730653670,"current_range_meters":37600,"station_id":"ce4bh412rcd13ifvqds0","pricing_plan_id":"cebpf4jnsgd1na2vs0mg"},{"bike_id":"d4472d20-9c4b-4c70-ad00-3a005519a429","system_id":"levelo_inurba_marseille","lat":43.35391,"lon":5.35726,"is_reserved":false,"is_disabled":false,"rental_uris":{"android":"levelo://app?vid=d4472d20-9c4b-4c70-ad00-3a005519a429","ios":"levelo://app?vid=d4472d20-9c4b-4c70-ad00-3a005519a429"},"vehicle_type_id":"4","last_reported":1730653670,"current_range_meters":14000,"station_id":"","pricing_plan_id":"cebpf4jnsgd1na2vs0mg"},{"bike_id":"6338020e-474a-4c99-b365-eea26fe54739","system_id":"levelo_inurba_marseille","lat":43.32294,"lon":5.38275,"is_reserved":false,"is_disabled":false,"rental_uris":{"android":"levelo://app?vid=6338020e-474a-4c99-b365-eea26fe54739","ios":"levelo://app?vid=6338020e-474a-4c99-b365-eea26fe54739"},"vehicle_type_id":"4","last_reported":1730653670,"current_range_meters":38800,"station_id":"ce4bhr12rcd13ifvqhqg","pricing_plan_id":"cebpf4jnsgd1na2vs0mg"},{"bike_id":"3429e5a0-2b07-4940-8cba-55d6026da33d","system_id":"levelo_inurba_marseille","lat":43.27941,"lon":5.4105,"is_reserved":false,"is_disabled":false,"rental_uris":{"android":"levelo://app?vid=3429e5a0-2b07-4940-8cba-55d6026da33d","ios":"levelo://app?vid=3429e5a0-2b07-4940-8cba-55d6026da33d"},"vehicle_type_id":"4","last_reported":1730653670,"current_range_meters":25600,"station_id":"ce4bhnp2rcd13ifvqh0g","pricing_plan_id":"cebpf4jnsgd1na2vs0mg"},{"bike_id":"262b75cb-4cc5-4ff2-869a-f6570dba6a1f","system_id":"levelo_inurba_marseille","lat":43.30893,"lon":5.37206,"is_reserved":false,"is_disabled":false,"rental_uris":{"android":"levelo://app?vid=262b75cb-4cc5-4ff2-869a-f6570dba6a1f","ios":"levelo://app?vid=262b75cb-4cc5-4ff2-869a-f6570dba6a1f"},"vehicle_type_id":"4","last_reported":1730653670,"current_range_meters":24000,"station_id":"ce4bguh2rcd13ifvqckg","pricing_plan_id":"cebpf4jnsgd1na2vs0mg"},{"bike_id":"f8833f7b-49c8-440c-b671-beb72799bdec","system_id":"levelo_inurba_marseille","lat":43.24992,"lon":5.37511,"is_reserved":false,"is_disabled":false,"rental_uris":{"android":"levelo://app?vid=f8833f7b-49c8-440c-b671-beb72799bdec","ios":"levelo://app?vid=f8833f7b-49c8-440c-b671-beb72799bdec"},"vehicle_type_id":"4","last_reported":1730653670,"current_range_meters":30000,"station_id":"","pricing_plan_id":"cebpf4jnsgd1na2vs0mg"},{"bike_id":"f10b9056-e8b2-4091-abc9-9b932d7103e0","system_id":"levelo_inurba_marseille","lat":43.30823,"lon":5.39632,"is_reserved":false,"is_disabled":false,"rental_uris":{"android":"levelo://app?vid=f10b9056-e8b2-4091-abc9-9b932d7103e0","ios":"levelo://app?vid=f10b9056-e8b2-4091-abc9-9b932d7103e0"},"vehicle_type_id":"4","last_reported":1730653670,"current_range_meters":12000,"station_id":"ce4bh4p2rcd13ifvqe1g","pricing_plan_id":"cebpf4jnsgd1na2vs0mg"},{"bike_id":"aaf754eb-20f3-4f08-87af-47818b5890c8","system_id":"levelo_inurba_marseille","lat":43.30144,"lon":5.37422,"is_reserved":false,"is_disabled":false,"rental_uris":{"android":"levelo://app?vid=aaf754eb-20f3-4f08-87af-47818b5890c8","ios":"levelo://app?vid=aaf754eb-20f3-4f08-87af-47818b5890c8"},"vehicle_type_id":"4","last_reported":1730653670,"current_range_meters":38800,"station_id":"ce4bgs92rcd13ifvqcc0","pricing_plan_id":"cebpf4jnsgd1na2vs0mg"},{"bike_id":"9c95016b-1803-4c7c-8d54-49a63b3d9b30","system_id":"levelo_inurba_marseille","lat":43.27675,"lon":5.38899,"is_reserved":false,"is_disabled":false,"rental_uris":{"android":"levelo://app?vid=9c95016b-1803-4c7c-8d54-49a63b3d9b30","ios":"levelo://app?vid=9c95016b-1803-4c7c-8d54-49a63b3d9b30"},"vehicle_type_id":"4","last_reported":1730653670,"current_range_meters":28800,"station_id":"ce4bhi12rcd13ifvqfo0","pricing_plan_id":"cebpf4jnsgd1na2vs0mg"},{"bike_id":"2b4bbfed-255f-4cd0-bf8b-80e072c9cbe9","system_id":"levelo_inurba_marseille","lat":43.32105,"lon":5.3678,"is_reserved":false,"is_disabled":false,"rental_uris":{"android":"levelo://app?vid=2b4bbfed-255f-4cd0-bf8b-80e072c9cbe9","ios":"levelo://app?vid=2b4bbfed-255f-4cd0-bf8b-80e072c9cbe9"},"vehicle_type_id":"4","last_reported":1730653670,"current_range_meters":9200,"station_id":"ce4bhrh2rcd13ifvqhug","pricing_plan_id":"cebpf4jnsgd1na2vs0mg"},{"bike_id":"18402065-9e87-476b-95ad-30853de181a0","system_id":"levelo_inurba_marseille","lat":43.32455,"lon":5.45543,"is_reserved":false,"is_disabled":false,"rental_uris":{"android":"levelo://app?vid=18402065-9e87-476b-95ad-30853de181a0","ios":"levelo://app?vid=18402065-9e87-476b-95ad-30853de181a0"},"vehicle_type_id":"4","last_reported":1730653670,"current_range_meters":2800,"station_id":"","pricing_plan_id":"cebpf4jnsgd1na2vs0mg"},{"bike_id":"f2a499b9-7e11-47f2-9654-4bee66fdf52b","system_id":"levelo_inurba_marseille","lat":43.27999,"lon":5.40018,"is_reserved":false,"is_disabled":false,"rental_uris":{"android":"levelo://app?vid=f2a499b9-7e11-47f2-9654-4bee66fdf52b","ios":"levelo://app?vid=f2a499b9-7e11-47f2-9654-4bee66fdf52b"},"vehicle_type_id":"4","last_reported":1730653670,"current_range_meters":14400,"station_id":"ce4bho92rcd13ifvqh4g","pricing_plan_id":"cebpf4jnsgd1na2vs0mg"},{"bike_id":"57447015-9545-4692-95c4-d9802aaba6de","system_id":"levelo_inurba_marseille","lat":43.31121,"lon":5.37761,"is_reserved":false,"is_disabled":false,"rental_uris":{"android":"levelo://app?vid=57447015-9545-4692-95c4-d9802aaba6de","ios":"levelo://app?vid=57447015-9545-4692-95c4-d9802aaba6de"},"vehicle_type_id":"4","last_reported":1730653670,"current_range_meters":8400,"station_id":"ce4bgt92rcd13ifvqcg0","pricing_plan_id":"cebpf4jnsgd1na2vs0mg"},{"bike_id":"c142c7d9-aebe-4dd2-8d9a-15e1bf89b071","system_id":"levelo_inurba_marseille","lat":43.28075,"lon":5.39662,"is_reserved":false,"is_disabled":false,"rental_uris":{"android":"levelo://app?vid=c142c7d9-aebe-4dd2-8d9a-15e1bf89b071","ios":"levelo://app?vid=c142c7d9-aebe-4dd2-8d9a-15e1bf89b071"},"vehicle_type_id":"4","last_reported":1730653670,"current_range_meters":35600,"station_id":"ce4bho12rcd13ifvqh2g","pricing_plan_id":"cebpf4jnsgd1na2vs0mg"},{"bike_id":"d5541a12-439a-4845-841b-6ce96c9850ba","system_id":"levelo_inurba_marseille","lat":43.24805,"lon":5.37452,"is_reserved":false,"is_disabled":false,"rental_uris":{"android":"levelo://app?vid=d5541a12-439a-4845-841b-6ce96c9850ba","ios":"levelo://app?vid=d5541a12-439a-4845-841b-6ce96c9850ba"},"vehicle_type_id":"4","last_reported":1730653670,"current_range_meters":16000,"station_id":"ce4bhgh2rcd13ifvqfb0","pricing_plan_id":"cebpf4jnsgd1na2vs0mg"},{"bike_id":"c556f04d-a5be-4d49-ad15-6cb970cca7df","system_id":"levelo_inurba_marseille","lat":43.317078,"lon":5.42402,"is_reserved":false,"is_disabled":false,"rental_uris":{"android":"levelo://app?vid=c556f04d-a5be-4d49-ad15-6cb970cca7df","ios":"levelo://app?vid=c556f04d-a5be-4d49-ad15-6cb970cca7df"},"vehicle_type_id":"4","last_reported":1730653670,"current_range_meters":34800,"station_id":"ce4bhp92rcd13ifvqhbg","pricing_plan_id":"cebpf4jnsgd1na2vs0mg"},{"bike_id":"13b722c5-a092-4f9c-999a-0e0145c6548b","system_id":"levelo_inurba_marseille","lat":43.31228,"lon":5.3687,"is_reserved":false,"is_disabled":false,"rental_uris":{"android":"levelo://app?vid=13b722c5-a092-4f9c-999a-0e0145c6548b","ios":"levelo://app?vid=13b722c5-a092-4f9c-999a-0e0145c6548b"},"vehicle_type_id":"4","last_reported":1730653670,"current_range_meters":24000,"station_id":"ce4bgl92rcd13ifvqbq0","pricing_plan_id":"cebpf4jnsgd1na2vs0mg"},{"bike_id":"690e06d0-518e-4f8e-84f0-5d14b1194c64","system_id":"levelo_inurba_marseille","lat":43.299561,"lon":5.384934,"is_reserved":false,"is_disabled":false,"rental_uris":{"android":"levelo://app?vid=690e06d0-518e-4f8e-84f0-5d14b1194c64","ios":"levelo://app?vid=690e06d0-518e-4f8e-84f0-5d14b1194c64"},"vehicle_type_id":"4","last_reported":1730653670,"current_range_meters":24800,"station_id":"ce4bgj92rcd13ifvqbd0","pricing_plan_id":"cebpf4jnsgd1na2vs0mg"},{"bike_id":"96841145-a99c-4589-96b8-beaaab134d22","system_id":"levelo_inurba_marseille","lat":43.27993,"lon":5.40038,"is_reserved":false,"is_disabled":false,"rental_uris":{"android":"levelo://app?vid=96841145-a99c-4589-96b8-beaaab134d22","ios":"levelo://app?vid=96841145-a99c-4589-96b8-beaaab134d22"},"vehicle_type_id":"4","last_reported":1730653670,"current_range_meters":39200,"station_id":"ce4bho92rcd13ifvqh4g","pricing_plan_id":"cebpf4jnsgd1na2vs0mg"},{"bike_id":"6d8b2126-8a7b-4847-98a6-8ed12957383a","system_id":"levelo_inurba_marseille","lat":43.2583,"lon":5.39438,"is_reserved":false,"is_disabled":false,"rental_uris":{"android":"levelo://app?vid=6d8b2126-8a7b-4847-98a6-8ed12957383a","ios":"levelo://app?vid=6d8b2126-8a7b-4847-98a6-8ed12957383a"},"vehicle_type_id":"4","last_reported":1730653670,"current_range_meters":30800,"station_id":"ce4bhip2rcd13ifvqft0","pricing_plan_id":"cebpf4jnsgd1na2vs0mg"},{"bike_id":"66af1383-325e-45ce-98a5-e5d990004f0f","system_id":"levelo_inurba_marseille","lat":43.27055,"lon":5.40265,"is_reserved":false,"is_disabled":false,"rental_uris":{"android":"levelo://app?vid=66af1383-325e-45ce-98a5-e5d990004f0f","ios":"levelo://app?vid=66af1383-325e-45ce-98a5-e5d990004f0f"},"vehicle_type_id":"4","last_reported":1730653670,"current_range_meters":8000,"station_id":"ce4bhk92rcd13ifvqgc0","pricing_plan_id":"cebpf4jnsgd1na2vs0mg"},{"bike_id":"e4aa7f36-b0fe-47e3-9ec1-0dd54baac1d5","system_id":"levelo_inurba_marseille","lat":43.23199,"lon":5.35543,"is_reserved":false,"is_disabled":false,"rental_uris":{"android":"levelo://app?vid=e4aa7f36-b0fe-47e3-9ec1-0dd54baac1d5","ios":"levelo://app?vid=e4aa7f36-b0fe-47e3-9ec1-0dd54baac1d5"},"vehicle_type_id":"4","last_reported":1730653670,"current_range_meters":34800,"station_id":"ce4bhu92rcd13ifvqi70","pricing_plan_id":"cebpf4jnsgd1na2vs0mg"},{"bike_id":"67ccc17e-bfed-4d2b-b491-3c727fe61bcc","system_id":"levelo_inurba_marseille","lat":43.31176,"lon":5.38716,"is_reserved":false,"is_disabled":false,"rental_uris":{"android":"levelo://app?vid=67ccc17e-bfed-4d2b-b491-3c727fe61bcc","ios":"levelo://app?vid=67ccc17e-bfed-4d2b-b491-3c727fe61bcc"},"vehicle_type_id":"4","last_reported":1730653670,"current_range_meters":38000,"station_id":"ce4bgv12rcd13ifvqcp0","pricing_plan_id":"cebpf4jnsgd1na2vs0mg"},{"bike_id":"f9133fda-7a0c-4030-b6dc-3708b64983b3","system_id":"levelo_inurba_marseille","lat":43.30151,"lon":5.39881,"is_reserved":false,"is_disabled":false,"rental_uris":{"android":"levelo://app?vid=f9133fda-7a0c-4030-b6dc-3708b64983b3","ios":"levelo://app?vid=f9133fda-7a0c-4030-b6dc-3708b64983b3"},"vehicle_type_id":"4","last_reported":1730653670,"current_range_meters":39200,"station_id":"ce4bh0h2rcd13ifvqd40","pricing_plan_id":"cebpf4jnsgd1na2vs0mg"},{"bike_id":"cebda017-238c-4285-81eb-efa0d682b625","system_id":"levelo_inurba_marseille","lat":43.310771,"lon":5.383598,"is_reserved":false,"is_disabled":false,"rental_uris":{"android":"levelo://app?vid=cebda017-238c-4285-81eb-efa0d682b625","ios":"levelo://app?vid=cebda017-238c-4285-81eb-efa0d682b625"},"vehicle_type_id":"4","last_reported":1730653670,"current_range_meters":28400,"station_id":"ce4bgv92rcd13ifvqcr0","pricing_plan_id":"cebpf4jnsgd1na2vs0mg"},{"bike_id":"739c9dca-9415-4b03-859b-1606e5caa095","system_id":"levelo_inurba_marseille","lat":43.34142,"lon":5.40909,"is_reserved":false,"is_disabled":false,"rental_uris":{"android":"levelo://app?vid=739c9dca-9415-4b03-859b-1606e5caa095","ios":"levelo://app?vid=739c9dca-9415-4b03-859b-1606e5caa095"},"vehicle_type_id":"4","last_reported":1730653670,"current_range_meters":36400,"station_id":"ce4bhqh2rcd13ifvqhlg","pricing_plan_id":"cebpf4jnsgd1na2vs0mg"},{"bike_id":"1a0dc82e-f3dc-4cc5-b0af-7ff514a17fe0","system_id":"levelo_inurba_marseille","lat":43.262112,"lon":5.374415,"is_reserved":false,"is_disabled":false,"rental_uris":{"android":"levelo://app?vid=1a0dc82e-f3dc-4cc5-b0af-7ff514a17fe0","ios":"levelo://app?vid=1a0dc82e-f3dc-4cc5-b0af-7ff514a17fe0"},"vehicle_type_id":"4","last_reported":1730653670,"current_range_meters":5600,"station_id":"ce4bgh92rcd13ifvqb40","pricing_plan_id":"cebpf4jnsgd1na2vs0mg"},{"bike_id":"1b80601b-8be3-4b0b-bcc4-eebb89de1629","system_id":"levelo_inurba_marseille","lat":43.25829,"lon":5.3944,"is_reserved":false,"is_disabled":false,"rental_uris":{"android":"levelo://app?vid=1b80601b-8be3-4b0b-bcc4-eebb89de1629","ios":"levelo://app?vid=1b80601b-8be3-4b0b-bcc4-eebb89de1629"},"vehicle_type_id":"4","last_reported":1730653670,"current_range_meters":34800,"station_id":"ce4bhip2rcd13ifvqft0","pricing_plan_id":"cebpf4jnsgd1na2vs0mg"},{"bike_id":"696a8eac-04ff-4549-8edf-541735b2df13","system_id":"levelo_inurba_marseille","lat":43.27593,"lon":5.38432,"is_reserved":false,"is_disabled":false,"rental_uris":{"android":"levelo://app?vid=696a8eac-04ff-4549-8edf-541735b2df13","ios":"levelo://app?vid=696a8eac-04ff-4549-8edf-541735b2df13"},"vehicle_type_id":"4","last_reported":1730653670,"current_range_meters":11600,"station_id":"ce4bhh92rcd13ifvqfi0","pricing_plan_id":"cebpf4jnsgd1na2vs0mg"},{"bike_id":"8c67d340-801d-46e5-b910-2f8aff3ff078","system_id":"levelo_inurba_marseille","lat":43.33318,"lon":5.37073,"is_reserved":false,"is_disabled":false,"rental_uris":{"android":"levelo://app?vid=8c67d340-801d-46e5-b910-2f8aff3ff078","ios":"levelo://app?vid=8c67d340-801d-46e5-b910-2f8aff3ff078"},"vehicle_type_id":"4","last_reported":1730653670,"current_range_meters":5600,"station_id":"","pricing_plan_id":"cebpf4jnsgd1na2vs0mg"},{"bike_id":"3570208c-e147-4907-ad81-5706df635067","system_id":"levelo_inurba_marseille","lat":43.30953,"lon":5.39035,"is_reserved":false,"is_disabled":false,"rental_uris":{"android":"levelo://app?vid=3570208c-e147-4907-ad81-5706df635067","ios":"levelo://app?vid=3570208c-e147-4907-ad81-5706df635067"},"vehicle_type_id":"4","last_reported":1730653670,"current_range_meters":8400,"station_id":"ce4bgup2rcd13ifvqco0","pricing_plan_id":"cebpf4jnsgd1na2vs0mg"},{"bike_id":"93bd388b-38ba-49fc-8c10-6b1db959882a","system_id":"levelo_inurba_marseille","lat":43.24168,"lon":5.36395,"is_reserved":false,"is_disabled":false,"rental_uris":{"android":"levelo://app?vid=93bd388b-38ba-49fc-8c10-6b1db959882a","ios":"levelo://app?vid=93bd388b-38ba-49fc-8c10-6b1db959882a"},"vehicle_type_id":"4","last_reported":1730653670,"current_range_meters":32000,"station_id":"cpo36qri1sfpv3e86is0","pricing_plan_id":"cebpf4jnsgd1na2vs0mg"},{"bike_id":"79f5032c-4427-40bb-bbad-7f35acb21ebc","system_id":"levelo_inurba_marseille","lat":43.32297,"lon":5.38276,"is_reserved":false,"is_disabled":false,"rental_uris":{"android":"levelo://app?vid=79f5032c-4427-40bb-bbad-7f35acb21ebc","ios":"levelo://app?vid=79f5032c-4427-40bb-bbad-7f35acb21ebc"},"vehicle_type_id":"4","last_reported":1730653670,"current_range_meters":16800,"station_id":"ce4bhr12rcd13ifvqhqg","pricing_plan_id":"cebpf4jnsgd1na2vs0mg"},{"bike_id":"6baea359-9bbc-422c-bb8c-23c1fa62fc8e","system_id":"levelo_inurba_marseille","lat":43.28001,"lon":5.40019,"is_reserved":false,"is_disabled":false,"rental_uris":{"android":"levelo://app?vid=6baea359-9bbc-422c-bb8c-23c1fa62fc8e","ios":"levelo://app?vid=6baea359-9bbc-422c-bb8c-23c1fa62fc8e"},"vehicle_type_id":"4","last_reported":1730653670,"current_range_meters":26800,"station_id":"ce4bho92rcd13ifvqh4g","pricing_plan_id":"cebpf4jnsgd1na2vs0mg"},{"bike_id":"9f6f707a-6593-4a0a-9bd1-a432d75f6fd2","system_id":"levelo_inurba_marseille","lat":43.28569,"lon":5.39507,"is_reserved":false,"is_disabled":false,"rental_uris":{"android":"levelo://app?vid=9f6f707a-6593-4a0a-9bd1-a432d75f6fd2","ios":"levelo://app?vid=9f6f707a-6593-4a0a-9bd1-a432d75f6fd2"},"vehicle_type_id":"4","last_reported":1730653670,"current_range_meters":39200,"station_id":"ce4bh292rcd13ifvqdg0","pricing_plan_id":"cebpf4jnsgd1na2vs0mg"},{"bike_id":"55a5ca7c-6af1-429c-9c94-9fa3bccda2bb","system_id":"levelo_inurba_marseille","lat":43.28359,"lon":5.38109,"is_reserved":false,"is_disabled":false,"rental_uris":{"android":"levelo://app?vid=55a5ca7c-6af1-429c-9c94-9fa3bccda2bb","ios":"levelo://app?vid=55a5ca7c-6af1-429c-9c94-9fa3bccda2bb"},"vehicle_type_id":"4","last_reported":1730653670,"current_range_meters":30800,"station_id":"ce4bh412rcd13ifvqdr0","pricing_plan_id":"cebpf4jnsgd1na2vs0mg"},{"bike_id":"edd401b0-0c05-4acf-9402-bda938795dd3","system_id":"levelo_inurba_marseille","lat":43.2696,"lon":5.38633,"is_reserved":false,"is_disabled":false,"rental_uris":{"android":"levelo://app?vid=edd401b0-0c05-4acf-9402-bda938795dd3","ios":"levelo://app?vid=edd401b0-0c05-4acf-9402-bda938795dd3"},"vehicle_type_id":"4","last_reported":1730653670,"current_range_meters":26000,"station_id":"ce4bhh92rcd13ifvqfh0","pricing_plan_id":"cebpf4jnsgd1na2vs0mg"},{"bike_id":"737e9747-c831-402d-a747-149225195082","system_id":"levelo_inurba_marseille","lat":43.31327,"lon":5.39696,"is_reserved":false,"is_disabled":false,"rental_uris":{"android":"levelo://app?vid=737e9747-c831-402d-a747-149225195082","ios":"levelo://app?vid=737e9747-c831-402d-a747-149225195082"},"vehicle_type_id":"4","last_reported":1730653670,"current_range_meters":30800,"station_id":"ce4bgvp2rcd13ifvqcu0","pricing_plan_id":"cebpf4jnsgd1na2vs0mg"},{"bike_id":"541af70e-fe76-4ee4-bc69-2ba83ef56611","system_id":"levelo_inurba_marseille","lat":43.25005,"lon":5.38925,"is_reserved":false,"is_disabled":false,"rental_uris":{"android":"levelo://app?vid=541af70e-fe76-4ee4-bc69-2ba83ef56611","ios":"levelo://app?vid=541af70e-fe76-4ee4-bc69-2ba83ef56611"},"vehicle_type_id":"4","last_reported":1730653670,"current_range_meters":3600,"station_id":"ce4bhgp2rcd13ifvqfd0","pricing_plan_id":"cebpf4jnsgd1na2vs0mg"},{"bike_id":"d5324ca5-5a3a-4892-bb8c-7dbf331e6ea6","system_id":"levelo_inurba_marseille","lat":43.32489,"lon":5.36573,"is_reserved":false,"is_disabled":false,"rental_uris":{"android":"levelo://app?vid=d5324ca5-5a3a-4892-bb8c-7dbf331e6ea6","ios":"levelo://app?vid=d5324ca5-5a3a-4892-bb8c-7dbf331e6ea6"},"vehicle_type_id":"4","last_reported":1730653670,"current_range_meters":38800,"station_id":"ce4bhs12rcd13ifvqhvg","pricing_plan_id":"cebpf4jnsgd1na2vs0mg"},{"bike_id":"0f3a289f-2c66-4a7a-afb1-4ba266f44825","system_id":"levelo_inurba_marseille","lat":43.26508,"lon":5.39532,"is_reserved":false,"is_disabled":false,"rental_uris":{"android":"levelo://app?vid=0f3a289f-2c66-4a7a-afb1-4ba266f44825","ios":"levelo://app?vid=0f3a289f-2c66-4a7a-afb1-4ba266f44825"},"vehicle_type_id":"4","last_reported":1730653670,"current_range_meters":4800,"station_id":"ce4bhi12rcd13ifvqfq0","pricing_plan_id":"cebpf4jnsgd1na2vs0mg"},{"bike_id":"79a2ed75-c2bd-4dc3-a636-9650e59d9d41","system_id":"levelo_inurba_marseille","lat":43.30426,"lon":5.39769,"is_reserved":false,"is_disabled":false,"rental_uris":{"android":"levelo://app?vid=79a2ed75-c2bd-4dc3-a636-9650e59d9d41","ios":"levelo://app?vid=79a2ed75-c2bd-4dc3-a636-9650e59d9d41"},"vehicle_type_id":"4","last_reported":1730653670,"current_range_meters":39200,"station_id":"ce4bh092rcd13ifvqd20","pricing_plan_id":"cebpf4jnsgd1na2vs0mg"},{"bike_id":"e8a1424e-ba8b-4658-9eb0-297d9106be92","system_id":"levelo_inurba_marseille","lat":43.29042,"lon":5.35923,"is_reserved":false,"is_disabled":false,"rental_uris":{"android":"levelo://app?vid=e8a1424e-ba8b-4658-9eb0-297d9106be92","ios":"levelo://app?vid=e8a1424e-ba8b-4658-9eb0-297d9106be92"},"vehicle_type_id":"4","last_reported":1730653670,"current_range_meters":38800,"station_id":"ce4bha92rcd13ifvqeg0","pricing_plan_id":"cebpf4jnsgd1na2vs0mg"},{"bike_id":"7b8934ab-1a6b-4c2d-b5fa-40771c000556","system_id":"levelo_inurba_marseille","lat":43.27073,"lon":5.42285,"is_reserved":false,"is_disabled":false,"rental_uris":{"android":"levelo://app?vid=7b8934ab-1a6b-4c2d-b5fa-40771c000556","ios":"levelo://app?vid=7b8934ab-1a6b-4c2d-b5fa-40771c000556"},"vehicle_type_id":"4","last_reported":1730653670,"current_range_meters":22400,"station_id":"ce4bhk92rcd13ifvqgb0","pricing_plan_id":"cebpf4jnsgd1na2vs0mg"},{"bike_id":"89432544-fbf0-4856-b364-569f6a562f39","system_id":"levelo_inurba_marseille","lat":43.24805,"lon":5.37454,"is_reserved":false,"is_disabled":false,"rental_uris":{"android":"levelo://app?vid=89432544-fbf0-4856-b364-569f6a562f39","ios":"levelo://app?vid=89432544-fbf0-4856-b364-569f6a562f39"},"vehicle_type_id":"4","last_reported":1730653670,"current_range_meters":9200,"station_id":"ce4bhgh2rcd13ifvqfb0","pricing_plan_id":"cebpf4jnsgd1na2vs0mg"},{"bike_id":"832b60bc-0d06-41a3-b29c-3ff7d0f476e1","system_id":"levelo_inurba_marseille","lat":43.23188,"lon":5.35562,"is_reserved":false,"is_disabled":false,"rental_uris":{"android":"levelo://app?vid=832b60bc-0d06-41a3-b29c-3ff7d0f476e1","ios":"levelo://app?vid=832b60bc-0d06-41a3-b29c-3ff7d0f476e1"},"vehicle_type_id":"4","last_reported":1730653670,"current_range_meters":38800,"station_id":"ce4bhu92rcd13ifvqi70","pricing_plan_id":"cebpf4jnsgd1na2vs0mg"},{"bike_id":"7580d83e-3d7c-46be-82b1-25f013a114af","system_id":"levelo_inurba_marseille","lat":43.30945,"lon":5.40143,"is_reserved":false,"is_disabled":false,"rental_uris":{"android":"levelo://app?vid=7580d83e-3d7c-46be-82b1-25f013a114af","ios":"levelo://app?vid=7580d83e-3d7c-46be-82b1-25f013a114af"},"vehicle_type_id":"4","last_reported":1730653670,"current_range_meters":24000,"station_id":"ce4bgvp2rcd13ifvqct0","pricing_plan_id":"cebpf4jnsgd1na2vs0mg"},{"bike_id":"f6f861cf-b60c-4980-89df-25142ab9679e","system_id":"levelo_inurba_marseille","lat":43.24076,"lon":5.37764,"is_reserved":false,"is_disabled":false,"rental_uris":{"android":"levelo://app?vid=f6f861cf-b60c-4980-89df-25142ab9679e","ios":"levelo://app?vid=f6f861cf-b60c-4980-89df-25142ab9679e"},"vehicle_type_id":"4","last_reported":1730653670,"current_range_meters":7200,"station_id":"ce4bhnp2rcd13ifvqgvg","pricing_plan_id":"cebpf4jnsgd1na2vs0mg"},{"bike_id":"c36500d8-3c1b-40b4-b412-de69c457b9cb","system_id":"levelo_inurba_marseille","lat":43.27398,"lon":5.41955,"is_reserved":false,"is_disabled":false,"rental_uris":{"android":"levelo://app?vid=c36500d8-3c1b-40b4-b412-de69c457b9cb","ios":"levelo://app?vid=c36500d8-3c1b-40b4-b412-de69c457b9cb"},"vehicle_type_id":"4","last_reported":1730653670,"current_range_meters":9200,"station_id":"","pricing_plan_id":"cebpf4jnsgd1na2vs0mg"},{"bike_id":"f77bec67-d624-4cf6-ba83-2ec8ff5f64fe","system_id":"levelo_inurba_marseille","lat":43.306057,"lon":5.400991,"is_reserved":false,"is_disabled":false,"rental_uris":{"android":"levelo://app?vid=f77bec67-d624-4cf6-ba83-2ec8ff5f64fe","ios":"levelo://app?vid=f77bec67-d624-4cf6-ba83-2ec8ff5f64fe"},"vehicle_type_id":"4","last_reported":1730653670,"current_range_meters":9600,"station_id":"ce4bh112rcd13ifvqda0","pricing_plan_id":"cebpf4jnsgd1na2vs0mg"},{"bike_id":"404a5b66-72ca-438a-b226-6efcfd22904b","system_id":"levelo_inurba_marseille","lat":43.30144,"lon":5.37415,"is_reserved":false,"is_disabled":false,"rental_uris":{"android":"levelo://app?vid=404a5b66-72ca-438a-b226-6efcfd22904b","ios":"levelo://app?vid=404a5b66-72ca-438a-b226-6efcfd22904b"},"vehicle_type_id":"4","last_reported":1730653670,"current_range_meters":39200,"station_id":"ce4bgs92rcd13ifvqcc0","pricing_plan_id":"cebpf4jnsgd1na2vs0mg"},{"bike_id":"cd16674d-1d1c-46c6-8cfd-f6cdf0953b45","system_id":"levelo_inurba_marseille","lat":43.28003,"lon":5.40017,"is_reserved":false,"is_disabled":false,"rental_uris":{"android":"levelo://app?vid=cd16674d-1d1c-46c6-8cfd-f6cdf0953b45","ios":"levelo://app?vid=cd16674d-1d1c-46c6-8cfd-f6cdf0953b45"},"vehicle_type_id":"4","last_reported":1730653670,"current_range_meters":34800,"station_id":"ce4bho92rcd13ifvqh4g","pricing_plan_id":"cebpf4jnsgd1na2vs0mg"},{"bike_id":"cd97257c-3650-4035-a556-cdb83fb09c54","system_id":"levelo_inurba_marseille","lat":43.280182,"lon":5.400316,"is_reserved":false,"is_disabled":false,"rental_uris":{"android":"levelo://app?vid=cd97257c-3650-4035-a556-cdb83fb09c54","ios":"levelo://app?vid=cd97257c-3650-4035-a556-cdb83fb09c54"},"vehicle_type_id":"4","last_reported":1730653670,"current_range_meters":15200,"station_id":"ce4bho92rcd13ifvqh4g","pricing_plan_id":"cebpf4jnsgd1na2vs0mg"},{"bike_id":"7d0b4b00-6e16-4cfe-82e8-4171e64dfbf0","system_id":"levelo_inurba_marseille","lat":43.26212,"lon":5.37446,"is_reserved":false,"is_disabled":false,"rental_uris":{"android":"levelo://app?vid=7d0b4b00-6e16-4cfe-82e8-4171e64dfbf0","ios":"levelo://app?vid=7d0b4b00-6e16-4cfe-82e8-4171e64dfbf0"},"vehicle_type_id":"4","last_reported":1730653670,"current_range_meters":14400,"station_id":"ce4bhgp2rcd13ifvqfc0","pricing_plan_id":"cebpf4jnsgd1na2vs0mg"},{"bike_id":"08415d1a-2108-44c8-8894-bd5874cfed8e","system_id":"levelo_inurba_marseille","lat":43.30219,"lon":5.39469,"is_reserved":false,"is_disabled":false,"rental_uris":{"android":"levelo://app?vid=08415d1a-2108-44c8-8894-bd5874cfed8e","ios":"levelo://app?vid=08415d1a-2108-44c8-8894-bd5874cfed8e"},"vehicle_type_id":"4","last_reported":1730653670,"current_range_meters":3600,"station_id":"ce4bh0p2rcd13ifvqd70","pricing_plan_id":"cebpf4jnsgd1na2vs0mg"},{"bike_id":"ae1aa80b-9227-4508-a7cd-df336a81d3af","system_id":"levelo_inurba_marseille","lat":43.286073,"lon":5.351022,"is_reserved":false,"is_disabled":false,"rental_uris":{"android":"levelo://app?vid=ae1aa80b-9227-4508-a7cd-df336a81d3af","ios":"levelo://app?vid=ae1aa80b-9227-4508-a7cd-df336a81d3af"},"vehicle_type_id":"4","last_reported":1730653670,"current_range_meters":9600,"station_id":"ce4bhh12rcd13ifvqfg0","pricing_plan_id":"cebpf4jnsgd1na2vs0mg"},{"bike_id":"522d2a91-6e19-43c6-a462-89586443bd15","system_id":"levelo_inurba_marseille","lat":43.27309,"lon":5.36288,"is_reserved":false,"is_disabled":false,"rental_uris":{"android":"levelo://app?vid=522d2a91-6e19-43c6-a462-89586443bd15","ios":"levelo://app?vid=522d2a91-6e19-43c6-a462-89586443bd15"},"vehicle_type_id":"4","last_reported":1730653670,"current_range_meters":16400,"station_id":"","pricing_plan_id":"cebpf4jnsgd1na2vs0mg"},{"bike_id":"5734a169-5dc9-4d48-a4d7-d2f9bf7259cf","system_id":"levelo_inurba_marseille","lat":43.30427,"lon":5.38886,"is_reserved":false,"is_disabled":false,"rental_uris":{"android":"levelo://app?vid=5734a169-5dc9-4d48-a4d7-d2f9bf7259cf","ios":"levelo://app?vid=5734a169-5dc9-4d48-a4d7-d2f9bf7259cf"},"vehicle_type_id":"4","last_reported":1730653670,"current_range_meters":38800,"station_id":"ce4bgk12rcd13ifvqbi0","pricing_plan_id":"cebpf4jnsgd1na2vs0mg"},{"bike_id":"22242c76-42be-49b7-bcdd-78c695b4da2f","system_id":"levelo_inurba_marseille","lat":43.25003,"lon":5.38926,"is_reserved":false,"is_disabled":false,"rental_uris":{"android":"levelo://app?vid=22242c76-42be-49b7-bcdd-78c695b4da2f","ios":"levelo://app?vid=22242c76-42be-49b7-bcdd-78c695b4da2f"},"vehicle_type_id":"4","last_reported":1730653670,"current_range_meters":31200,"station_id":"ce4bhgp2rcd13ifvqfd0","pricing_plan_id":"cebpf4jnsgd1na2vs0mg"},{"bike_id":"d4501869-ea3e-4900-90fb-64180be91a0b","system_id":"levelo_inurba_marseille","lat":43.25577,"lon":5.38238,"is_reserved":false,"is_disabled":false,"rental_uris":{"android":"levelo://app?vid=d4501869-ea3e-4900-90fb-64180be91a0b","ios":"levelo://app?vid=d4501869-ea3e-4900-90fb-64180be91a0b"},"vehicle_type_id":"4","last_reported":1730653670,"current_range_meters":19600,"station_id":"ce4bhih2rcd13ifvqfs0","pricing_plan_id":"cebpf4jnsgd1na2vs0mg"},{"bike_id":"c737b99b-02e2-40a7-87c9-efedc70869d4","system_id":"levelo_inurba_marseille","lat":43.28412,"lon":5.37515,"is_reserved":false,"is_disabled":false,"rental_uris":{"android":"levelo://app?vid=c737b99b-02e2-40a7-87c9-efedc70869d4","ios":"levelo://app?vid=c737b99b-02e2-40a7-87c9-efedc70869d4"},"vehicle_type_id":"4","last_reported":1730653670,"current_range_meters":38800,"station_id":"ce4bh412rcd13ifvqds0","pricing_plan_id":"cebpf4jnsgd1na2vs0mg"},{"bike_id":"08b50212-a0b5-4e30-a0f8-b1838d6fba4f","system_id":"levelo_inurba_marseille","lat":43.28935,"lon":5.38413,"is_reserved":false,"is_disabled":false,"rental_uris":{"android":"levelo://app?vid=08b50212-a0b5-4e30-a0f8-b1838d6fba4f","ios":"levelo://app?vid=08b50212-a0b5-4e30-a0f8-b1838d6fba4f"},"vehicle_type_id":"4","last_reported":1730653670,"current_range_meters":32000,"station_id":"ce4bh612rcd13ifvqe6g","pricing_plan_id":"cebpf4jnsgd1na2vs0mg"},{"bike_id":"a56fea18-a696-4007-a12a-ed30bd374916","system_id":"levelo_inurba_marseille","lat":43.29264,"lon":5.38446,"is_reserved":false,"is_disabled":false,"rental_uris":{"android":"levelo://app?vid=a56fea18-a696-4007-a12a-ed30bd374916","ios":"levelo://app?vid=a56fea18-a696-4007-a12a-ed30bd374916"},"vehicle_type_id":"4","last_reported":1730653670,"current_range_meters":12400,"station_id":"ce4bh692rcd13ifvqea0","pricing_plan_id":"cebpf4jnsgd1na2vs0mg"},{"bike_id":"1cc1ed3c-a1bb-465b-b748-ae8266bac92e","system_id":"levelo_inurba_marseille","lat":43.31234,"lon":5.36877,"is_reserved":false,"is_disabled":false,"rental_uris":{"android":"levelo://app?vid=1cc1ed3c-a1bb-465b-b748-ae8266bac92e","ios":"levelo://app?vid=1cc1ed3c-a1bb-465b-b748-ae8266bac92e"},"vehicle_type_id":"4","last_reported":1730653670,"current_range_meters":30800,"station_id":"ce4bgl92rcd13ifvqbq0","pricing_plan_id":"cebpf4jnsgd1na2vs0mg"},{"bike_id":"b6fedd1a-250c-46bc-8898-b78ca73c2072","system_id":"levelo_inurba_marseille","lat":43.2928,"lon":5.38457,"is_reserved":false,"is_disabled":false,"rental_uris":{"android":"levelo://app?vid=b6fedd1a-250c-46bc-8898-b78ca73c2072","ios":"levelo://app?vid=b6fedd1a-250c-46bc-8898-b78ca73c2072"},"vehicle_type_id":"4","last_reported":1730653670,"current_range_meters":25600,"station_id":"ce4bh692rcd13ifvqea0","pricing_plan_id":"cebpf4jnsgd1na2vs0mg"},{"bike_id":"0a9d42d9-5dd4-4213-8405-1d5d56a3d5e8","system_id":"levelo_inurba_marseille","lat":43.29051,"lon":5.3716,"is_reserved":false,"is_disabled":false,"rental_uris":{"android":"levelo://app?vid=0a9d42d9-5dd4-4213-8405-1d5d56a3d5e8","ios":"levelo://app?vid=0a9d42d9-5dd4-4213-8405-1d5d56a3d5e8"},"vehicle_type_id":"4","last_reported":1730653670,"current_range_meters":30400,"station_id":"ce4bh5p2rcd13ifvqe4g","pricing_plan_id":"cebpf4jnsgd1na2vs0mg"},{"bike_id":"c8808634-572f-4e95-9291-405c42b8dee1","system_id":"levelo_inurba_marseille","lat":43.28043,"lon":5.36933,"is_reserved":false,"is_disabled":false,"rental_uris":{"android":"levelo://app?vid=c8808634-572f-4e95-9291-405c42b8dee1","ios":"levelo://app?vid=c8808634-572f-4e95-9291-405c42b8dee1"},"vehicle_type_id":"4","last_reported":1730653670,"current_range_meters":2000,"station_id":"ce4bha12rcd13ifvqef0","pricing_plan_id":"cebpf4jnsgd1na2vs0mg"},{"bike_id":"e54a9e25-ac9f-47a2-b6ce-8e7088772790","system_id":"levelo_inurba_marseille","lat":43.330231,"lon":5.390431,"is_reserved":false,"is_disabled":false,"rental_uris":{"android":"levelo://app?vid=e54a9e25-ac9f-47a2-b6ce-8e7088772790","ios":"levelo://app?vid=e54a9e25-ac9f-47a2-b6ce-8e7088772790"},"vehicle_type_id":"4","last_reported":1730653670,"current_range_meters":14800,"station_id":"ce4bhr92rcd13ifvqhrg","pricing_plan_id":"cebpf4jnsgd1na2vs0mg"},{"bike_id":"53fb6da2-5c89-4e97-ba46-f5904661009e","system_id":"levelo_inurba_marseille","lat":43.3025,"lon":5.40093,"is_reserved":false,"is_disabled":false,"rental_uris":{"android":"levelo://app?vid=53fb6da2-5c89-4e97-ba46-f5904661009e","ios":"levelo://app?vid=53fb6da2-5c89-4e97-ba46-f5904661009e"},"vehicle_type_id":"4","last_reported":1730653670,"current_range_meters":20400,"station_id":"ce4bgvh2rcd13ifvqcs0","pricing_plan_id":"cebpf4jnsgd1na2vs0mg"},{"bike_id":"560bc009-1455-4318-930a-54ab880d0704","system_id":"levelo_inurba_marseille","lat":43.24076,"lon":5.37765,"is_reserved":false,"is_disabled":false,"rental_uris":{"android":"levelo://app?vid=560bc009-1455-4318-930a-54ab880d0704","ios":"levelo://app?vid=560bc009-1455-4318-930a-54ab880d0704"},"vehicle_type_id":"4","last_reported":1730653670,"current_range_meters":27600,"station_id":"","pricing_plan_id":"cebpf4jnsgd1na2vs0mg"},{"bike_id":"edceb17c-714d-447d-8501-57474aa3afe5","system_id":"levelo_inurba_marseille","lat":43.28359,"lon":5.40099,"is_reserved":false,"is_disabled":false,"rental_uris":{"android":"levelo://app?vid=edceb17c-714d-447d-8501-57474aa3afe5","ios":"levelo://app?vid=edceb17c-714d-447d-8501-57474aa3afe5"},"vehicle_type_id":"4","last_reported":1730653670,"current_range_meters":38800,"station_id":"","pricing_plan_id":"cebpf4jnsgd1na2vs0mg"},{"bike_id":"cb95437c-c986-4f26-b7ef-347452c2b494","system_id":"levelo_inurba_marseille","lat":43.23965,"lon":5.36639,"is_reserved":false,"is_disabled":false,"rental_uris":{"android":"levelo://app?vid=cb95437c-c986-4f26-b7ef-347452c2b494","ios":"levelo://app?vid=cb95437c-c986-4f26-b7ef-347452c2b494"},"vehicle_type_id":"4","last_reported":1730653670,"current_range_meters":38800,"station_id":"ce4bhi12rcd13ifvqfp0","pricing_plan_id":"cebpf4jnsgd1na2vs0mg"},{"bike_id":"df7dd306-5315-4f73-9c7e-c704d38a1f7c","system_id":"levelo_inurba_marseille","lat":43.29106,"lon":5.38152,"is_reserved":false,"is_disabled":false,"rental_uris":{"android":"levelo://app?vid=df7dd306-5315-4f73-9c7e-c704d38a1f7c","ios":"levelo://app?vid=df7dd306-5315-4f73-9c7e-c704d38a1f7c"},"vehicle_type_id":"4","last_reported":1730653670,"current_range_meters":11200,"station_id":"ce4bh512rcd13ifvqe2g","pricing_plan_id":"cebpf4jnsgd1na2vs0mg"},{"bike_id":"b92f1684-5901-4f66-9408-d6c5aff4e1f3","system_id":"levelo_inurba_marseille","lat":43.29516,"lon":5.39036,"is_reserved":false,"is_disabled":false,"rental_uris":{"android":"levelo://app?vid=b92f1684-5901-4f66-9408-d6c5aff4e1f3","ios":"levelo://app?vid=b92f1684-5901-4f66-9408-d6c5aff4e1f3"},"vehicle_type_id":"4","last_reported":1730653670,"current_range_meters":32800,"station_id":"ce4bh3p2rcd13ifvqdp0","pricing_plan_id":"cebpf4jnsgd1na2vs0mg"},{"bike_id":"ab9173ec-0645-441d-90af-326a5e948990","system_id":"levelo_inurba_marseille","lat":43.28349,"lon":5.38115,"is_reserved":false,"is_disabled":false,"rental_uris":{"android":"levelo://app?vid=ab9173ec-0645-441d-90af-326a5e948990","ios":"levelo://app?vid=ab9173ec-0645-441d-90af-326a5e948990"},"vehicle_type_id":"4","last_reported":1730653670,"current_range_meters":31200,"station_id":"ce4bh412rcd13ifvqdr0","pricing_plan_id":"cebpf4jnsgd1na2vs0mg"},{"bike_id":"718d9ab7-5921-49b7-8148-169d6d564cef","system_id":"levelo_inurba_marseille","lat":43.28714,"lon":5.37392,"is_reserved":false,"is_disabled":false,"rental_uris":{"android":"levelo://app?vid=718d9ab7-5921-49b7-8148-169d6d564cef","ios":"levelo://app?vid=718d9ab7-5921-49b7-8148-169d6d564cef"},"vehicle_type_id":"4","last_reported":1730653670,"current_range_meters":6400,"station_id":"ce4bh3p2rcd13ifvqdq0","pricing_plan_id":"cebpf4jnsgd1na2vs0mg"},{"bike_id":"1da82fcb-e72e-432b-af43-e24f18fe2d0a","system_id":"levelo_inurba_marseille","lat":43.27057,"lon":5.40257,"is_reserved":false,"is_disabled":false,"rental_uris":{"android":"levelo://app?vid=1da82fcb-e72e-432b-af43-e24f18fe2d0a","ios":"levelo://app?vid=1da82fcb-e72e-432b-af43-e24f18fe2d0a"},"vehicle_type_id":"4","last_reported":1730653670,"current_range_meters":9600,"station_id":"ce4bhk92rcd13ifvqgc0","pricing_plan_id":"cebpf4jnsgd1na2vs0mg"},{"bike_id":"3e9b85d7-96fb-4b65-9acd-5723483a3709","system_id":"levelo_inurba_marseille","lat":43.31709,"lon":5.37763,"is_reserved":false,"is_disabled":false,"rental_uris":{"android":"levelo://app?vid=3e9b85d7-96fb-4b65-9acd-5723483a3709","ios":"levelo://app?vid=3e9b85d7-96fb-4b65-9acd-5723483a3709"},"vehicle_type_id":"4","last_reported":1730653670,"current_range_meters":38800,"station_id":"ce4bgth2rcd13ifvqch0","pricing_plan_id":"cebpf4jnsgd1na2vs0mg"},{"bike_id":"ad6b9979-2833-497c-ae59-5afeb88a87ce","system_id":"levelo_inurba_marseille","lat":43.32362,"lon":5.36768,"is_reserved":false,"is_disabled":false,"rental_uris":{"android":"levelo://app?vid=ad6b9979-2833-497c-ae59-5afeb88a87ce","ios":"levelo://app?vid=ad6b9979-2833-497c-ae59-5afeb88a87ce"},"vehicle_type_id":"4","last_reported":1730653670,"current_range_meters":5600,"station_id":"ce4bhsh2rcd13ifvqi2g","pricing_plan_id":"cebpf4jnsgd1na2vs0mg"},{"bike_id":"98d4926f-8173-4304-bda1-d144f4ba7601","system_id":"levelo_inurba_marseille","lat":43.308911,"lon":5.39662,"is_reserved":false,"is_disabled":false,"rental_uris":{"android":"levelo://app?vid=98d4926f-8173-4304-bda1-d144f4ba7601","ios":"levelo://app?vid=98d4926f-8173-4304-bda1-d144f4ba7601"},"vehicle_type_id":"4","last_reported":1730653670,"current_range_meters":10000,"station_id":"ce4bh392rcd13ifvqdl0","pricing_plan_id":"cebpf4jnsgd1na2vs0mg"},{"bike_id":"b44939f3-d8c5-4fe0-b15a-afc4e39e9275","system_id":"levelo_inurba_marseille","lat":43.27569,"lon":5.38421,"is_reserved":false,"is_disabled":false,"rental_uris":{"android":"levelo://app?vid=b44939f3-d8c5-4fe0-b15a-afc4e39e9275","ios":"levelo://app?vid=b44939f3-d8c5-4fe0-b15a-afc4e39e9275"},"vehicle_type_id":"4","last_reported":1730653670,"current_range_meters":37600,"station_id":"ce4bhh92rcd13ifvqfi0","pricing_plan_id":"cebpf4jnsgd1na2vs0mg"},{"bike_id":"308ee315-3905-4ae5-b51f-5fadaf9eb7c8","system_id":"levelo_inurba_marseille","lat":43.29979,"lon":5.38489,"is_reserved":false,"is_disabled":false,"rental_uris":{"android":"levelo://app?vid=308ee315-3905-4ae5-b51f-5fadaf9eb7c8","ios":"levelo://app?vid=308ee315-3905-4ae5-b51f-5fadaf9eb7c8"},"vehicle_type_id":"4","last_reported":1730653670,"current_range_meters":38800,"station_id":"ce4bgj92rcd13ifvqbd0","pricing_plan_id":"cebpf4jnsgd1na2vs0mg"},{"bike_id":"bb9d9af0-277e-4c28-8f24-f5ccf466505b","system_id":"levelo_inurba_marseille","lat":43.27999,"lon":5.40011,"is_reserved":false,"is_disabled":false,"rental_uris":{"android":"levelo://app?vid=bb9d9af0-277e-4c28-8f24-f5ccf466505b","ios":"levelo://app?vid=bb9d9af0-277e-4c28-8f24-f5ccf466505b"},"vehicle_type_id":"4","last_reported":1730653670,"current_range_meters":3200,"station_id":"ce4bho92rcd13ifvqh4g","pricing_plan_id":"cebpf4jnsgd1na2vs0mg"},{"bike_id":"22277462-ea58-4946-ba2c-ef08f6cd7659","system_id":"levelo_inurba_marseille","lat":43.2797,"lon":5.4105,"is_reserved":false,"is_disabled":false,"rental_uris":{"android":"levelo://app?vid=22277462-ea58-4946-ba2c-ef08f6cd7659","ios":"levelo://app?vid=22277462-ea58-4946-ba2c-ef08f6cd7659"},"vehicle_type_id":"4","last_reported":1730653670,"current_range_meters":16400,"station_id":"","pricing_plan_id":"cebpf4jnsgd1na2vs0mg"},{"bike_id":"c07332d5-f871-4d7c-9894-5a99fdbe9ec1","system_id":"levelo_inurba_marseille","lat":43.25091,"lon":5.39534,"is_reserved":false,"is_disabled":false,"rental_uris":{"android":"levelo://app?vid=c07332d5-f871-4d7c-9894-5a99fdbe9ec1","ios":"levelo://app?vid=c07332d5-f871-4d7c-9894-5a99fdbe9ec1"},"vehicle_type_id":"4","last_reported":1730653670,"current_range_meters":28400,"station_id":"ce4bhm12rcd13ifvqgkg","pricing_plan_id":"cebpf4jnsgd1na2vs0mg"},{"bike_id":"9189bd4f-40d4-4cef-8039-f57765d47d5f","system_id":"levelo_inurba_marseille","lat":43.32338,"lon":5.40624,"is_reserved":false,"is_disabled":false,"rental_uris":{"android":"levelo://app?vid=9189bd4f-40d4-4cef-8039-f57765d47d5f","ios":"levelo://app?vid=9189bd4f-40d4-4cef-8039-f57765d47d5f"},"vehicle_type_id":"4","last_reported":1730653670,"current_range_meters":16000,"station_id":"ce4bhq92rcd13ifvqhjg","pricing_plan_id":"cebpf4jnsgd1na2vs0mg"},{"bike_id":"34a62e11-0d91-4c7a-9d38-032715e403ec","system_id":"levelo_inurba_marseille","lat":43.26195,"lon":5.37455,"is_reserved":false,"is_disabled":false,"rental_uris":{"android":"levelo://app?vid=34a62e11-0d91-4c7a-9d38-032715e403ec","ios":"levelo://app?vid=34a62e11-0d91-4c7a-9d38-032715e403ec"},"vehicle_type_id":"4","last_reported":1730653670,"current_range_meters":21600,"station_id":"ce4bhgp2rcd13ifvqfc0","pricing_plan_id":"cebpf4jnsgd1na2vs0mg"},{"bike_id":"f9409789-d8b9-45a1-8b54-ee5c8f75b119","system_id":"levelo_inurba_marseille","lat":43.26499,"lon":5.39546,"is_reserved":false,"is_disabled":false,"rental_uris":{"android":"levelo://app?vid=f9409789-d8b9-45a1-8b54-ee5c8f75b119","ios":"levelo://app?vid=f9409789-d8b9-45a1-8b54-ee5c8f75b119"},"vehicle_type_id":"4","last_reported":1730653670,"current_range_meters":13600,"station_id":"ce4bhi12rcd13ifvqfq0","pricing_plan_id":"cebpf4jnsgd1na2vs0mg"},{"bike_id":"807469a2-81d0-40a4-bf41-581af620ef86","system_id":"levelo_inurba_marseille","lat":43.27382,"lon":5.3625,"is_reserved":false,"is_disabled":false,"rental_uris":{"android":"levelo://app?vid=807469a2-81d0-40a4-bf41-581af620ef86","ios":"levelo://app?vid=807469a2-81d0-40a4-bf41-581af620ef86"},"vehicle_type_id":"4","last_reported":1730653670,"current_range_meters":19600,"station_id":"ce4bhbh2rcd13ifvqeo0","pricing_plan_id":"cebpf4jnsgd1na2vs0mg"},{"bike_id":"1bb25281-04e7-463d-95ba-d67adb79f1dd","system_id":"levelo_inurba_marseille","lat":43.30259,"lon":5.40107,"is_reserved":false,"is_disabled":false,"rental_uris":{"android":"levelo://app?vid=1bb25281-04e7-463d-95ba-d67adb79f1dd","ios":"levelo://app?vid=1bb25281-04e7-463d-95ba-d67adb79f1dd"},"vehicle_type_id":"4","last_reported":1730653670,"current_range_meters":38000,"station_id":"ce4bgvh2rcd13ifvqcs0","pricing_plan_id":"cebpf4jnsgd1na2vs0mg"},{"bike_id":"58e7b314-77c5-4411-b74c-8276142971a5","system_id":"levelo_inurba_marseille","lat":43.31998,"lon":5.38161,"is_reserved":false,"is_disabled":false,"rental_uris":{"android":"levelo://app?vid=58e7b314-77c5-4411-b74c-8276142971a5","ios":"levelo://app?vid=58e7b314-77c5-4411-b74c-8276142971a5"},"vehicle_type_id":"4","last_reported":1730653670,"current_range_meters":32000,"station_id":"ce4bhr12rcd13ifvqhpg","pricing_plan_id":"cebpf4jnsgd1na2vs0mg"},{"bike_id":"8607c724-9f8a-4397-ad02-1506610fb15d","system_id":"levelo_inurba_marseille","lat":43.310059,"lon":5.380141,"is_reserved":false,"is_disabled":false,"rental_uris":{"android":"levelo://app?vid=8607c724-9f8a-4397-ad02-1506610fb15d","ios":"levelo://app?vid=8607c724-9f8a-4397-ad02-1506610fb15d"},"vehicle_type_id":"4","last_reported":1730653670,"current_range_meters":15200,"station_id":"","pricing_plan_id":"cebpf4jnsgd1na2vs0mg"},{"bike_id":"4d0eb695-130d-48ed-9e29-38d42ede8fd7","system_id":"levelo_inurba_marseille","lat":43.290355,"lon":5.386463,"is_reserved":false,"is_disabled":false,"rental_uris":{"android":"levelo://app?vid=4d0eb695-130d-48ed-9e29-38d42ede8fd7","ios":"levelo://app?vid=4d0eb695-130d-48ed-9e29-38d42ede8fd7"},"vehicle_type_id":"4","last_reported":1730653670,"current_range_meters":4000,"station_id":"ce4bgkp2rcd13ifvqbmg","pricing_plan_id":"cebpf4jnsgd1na2vs0mg"},{"bike_id":"3d3afa22-19a0-405a-8ea6-205ee0f9acc8","system_id":"levelo_inurba_marseille","lat":43.2997,"lon":5.37186,"is_reserved":false,"is_disabled":false,"rental_uris":{"android":"levelo://app?vid=3d3afa22-19a0-405a-8ea6-205ee0f9acc8","ios":"levelo://app?vid=3d3afa22-19a0-405a-8ea6-205ee0f9acc8"},"vehicle_type_id":"4","last_reported":1730653670,"current_range_meters":38800,"station_id":"ce4bgr92rcd13ifvqc7g","pricing_plan_id":"cebpf4jnsgd1na2vs0mg"},{"bike_id":"aa71cd7d-5c8f-45b0-bfad-65c2a2038acf","system_id":"levelo_inurba_marseille","lat":43.32002,"lon":5.38153,"is_reserved":false,"is_disabled":false,"rental_uris":{"android":"levelo://app?vid=aa71cd7d-5c8f-45b0-bfad-65c2a2038acf","ios":"levelo://app?vid=aa71cd7d-5c8f-45b0-bfad-65c2a2038acf"},"vehicle_type_id":"4","last_reported":1730653670,"current_range_meters":36400,"station_id":"ce4bhr12rcd13ifvqhpg","pricing_plan_id":"cebpf4jnsgd1na2vs0mg"},{"bike_id":"ab1699e7-fd59-45c1-bb74-22f9eae7c326","system_id":"levelo_inurba_marseille","lat":43.25,"lon":5.38929,"is_reserved":false,"is_disabled":false,"rental_uris":{"android":"levelo://app?vid=ab1699e7-fd59-45c1-bb74-22f9eae7c326","ios":"levelo://app?vid=ab1699e7-fd59-45c1-bb74-22f9eae7c326"},"vehicle_type_id":"4","last_reported":1730653670,"current_range_meters":11200,"station_id":"ce4bhgp2rcd13ifvqfd0","pricing_plan_id":"cebpf4jnsgd1na2vs0mg"},{"bike_id":"be0c211c-0613-4667-97e4-89d9bd3b8034","system_id":"levelo_inurba_marseille","lat":43.29097,"lon":5.3814,"is_reserved":false,"is_disabled":false,"rental_uris":{"android":"levelo://app?vid=be0c211c-0613-4667-97e4-89d9bd3b8034","ios":"levelo://app?vid=be0c211c-0613-4667-97e4-89d9bd3b8034"},"vehicle_type_id":"4","last_reported":1730653670,"current_range_meters":37600,"station_id":"ce4bh512rcd13ifvqe2g","pricing_plan_id":"cebpf4jnsgd1na2vs0mg"},{"bike_id":"45adaf51-6b91-4da0-9464-4cf56d1d17ac","system_id":"levelo_inurba_marseille","lat":43.29968,"lon":5.38486,"is_reserved":false,"is_disabled":false,"rental_uris":{"android":"levelo://app?vid=45adaf51-6b91-4da0-9464-4cf56d1d17ac","ios":"levelo://app?vid=45adaf51-6b91-4da0-9464-4cf56d1d17ac"},"vehicle_type_id":"4","last_reported":1730653670,"current_range_meters":36400,"station_id":"ce4bgj92rcd13ifvqbd0","pricing_plan_id":"cebpf4jnsgd1na2vs0mg"},{"bike_id":"370b0eee-c96d-4d61-a94b-55476bdf0d32","system_id":"levelo_inurba_marseille","lat":43.231903,"lon":5.355544,"is_reserved":false,"is_disabled":false,"rental_uris":{"android":"levelo://app?vid=370b0eee-c96d-4d61-a94b-55476bdf0d32","ios":"levelo://app?vid=370b0eee-c96d-4d61-a94b-55476bdf0d32"},"vehicle_type_id":"4","last_reported":1730653670,"current_range_meters":18000,"station_id":"ce4bhu92rcd13ifvqi70","pricing_plan_id":"cebpf4jnsgd1na2vs0mg"},{"bike_id":"24a24910-6987-4ad8-ae1f-25f5202c9fd5","system_id":"levelo_inurba_marseille","lat":43.27564,"lon":5.38415,"is_reserved":false,"is_disabled":false,"rental_uris":{"android":"levelo://app?vid=24a24910-6987-4ad8-ae1f-25f5202c9fd5","ios":"levelo://app?vid=24a24910-6987-4ad8-ae1f-25f5202c9fd5"},"vehicle_type_id":"4","last_reported":1730653670,"current_range_meters":38800,"station_id":"ce4bhh92rcd13ifvqfi0","pricing_plan_id":"cebpf4jnsgd1na2vs0mg"},{"bike_id":"e586a7ba-8fd8-4f49-a4f3-740347852885","system_id":"levelo_inurba_marseille","lat":43.2985,"lon":5.36288,"is_reserved":false,"is_disabled":false,"rental_uris":{"android":"levelo://app?vid=e586a7ba-8fd8-4f49-a4f3-740347852885","ios":"levelo://app?vid=e586a7ba-8fd8-4f49-a4f3-740347852885"},"vehicle_type_id":"4","last_reported":1730653670,"current_range_meters":12400,"station_id":"ce4bgpp2rcd13ifvqc3g","pricing_plan_id":"cebpf4jnsgd1na2vs0mg"},{"bike_id":"e48ecbd0-47f1-4d8e-86c5-c647a9ec1b6b","system_id":"levelo_inurba_marseille","lat":43.31767,"lon":5.39003,"is_reserved":false,"is_disabled":false,"rental_uris":{"android":"levelo://app?vid=e48ecbd0-47f1-4d8e-86c5-c647a9ec1b6b","ios":"levelo://app?vid=e48ecbd0-47f1-4d8e-86c5-c647a9ec1b6b"},"vehicle_type_id":"4","last_reported":1730653670,"current_range_meters":11600,"station_id":"ce4bhqp2rcd13ifvqhng","pricing_plan_id":"cebpf4jnsgd1na2vs0mg"},{"bike_id":"be12279a-4168-46f8-8210-ce8ddc0ec5b9","system_id":"levelo_inurba_marseille","lat":43.28109,"lon":5.37841,"is_reserved":false,"is_disabled":false,"rental_uris":{"android":"levelo://app?vid=be12279a-4168-46f8-8210-ce8ddc0ec5b9","ios":"levelo://app?vid=be12279a-4168-46f8-8210-ce8ddc0ec5b9"},"vehicle_type_id":"4","last_reported":1730653670,"current_range_meters":12000,"station_id":"ce4bha12rcd13ifvqee0","pricing_plan_id":"cebpf4jnsgd1na2vs0mg"},{"bike_id":"cfa5fa1b-b403-4534-9d38-b5bbd3ae03d9","system_id":"levelo_inurba_marseille","lat":43.35562,"lon":5.35811,"is_reserved":false,"is_disabled":false,"rental_uris":{"android":"levelo://app?vid=cfa5fa1b-b403-4534-9d38-b5bbd3ae03d9","ios":"levelo://app?vid=cfa5fa1b-b403-4534-9d38-b5bbd3ae03d9"},"vehicle_type_id":"4","last_reported":1730653670,"current_range_meters":6400,"station_id":"","pricing_plan_id":"cebpf4jnsgd1na2vs0mg"},{"bike_id":"e5d71699-c648-4605-953f-88321837cd27","system_id":"levelo_inurba_marseille","lat":43.24997,"lon":5.38936,"is_reserved":false,"is_disabled":false,"rental_uris":{"android":"levelo://app?vid=e5d71699-c648-4605-953f-88321837cd27","ios":"levelo://app?vid=e5d71699-c648-4605-953f-88321837cd27"},"vehicle_type_id":"4","last_reported":1730653670,"current_range_meters":22000,"station_id":"ce4bhgp2rcd13ifvqfd0","pricing_plan_id":"cebpf4jnsgd1na2vs0mg"},{"bike_id":"578264d4-8fab-4965-83ae-c6571605564c","system_id":"levelo_inurba_marseille","lat":43.29787,"lon":5.38095,"is_reserved":false,"is_disabled":false,"rental_uris":{"android":"levelo://app?vid=578264d4-8fab-4965-83ae-c6571605564c","ios":"levelo://app?vid=578264d4-8fab-4965-83ae-c6571605564c"},"vehicle_type_id":"4","last_reported":1730653670,"current_range_meters":26000,"station_id":"ce4bgip2rcd13ifvqbb0","pricing_plan_id":"cebpf4jnsgd1na2vs0mg"},{"bike_id":"f55ae709-d006-4ef3-92ad-af54d1d21a3c","system_id":"levelo_inurba_marseille","lat":43.28186,"lon":5.38627,"is_reserved":false,"is_disabled":false,"rental_uris":{"android":"levelo://app?vid=f55ae709-d006-4ef3-92ad-af54d1d21a3c","ios":"levelo://app?vid=f55ae709-d006-4ef3-92ad-af54d1d21a3c"},"vehicle_type_id":"4","last_reported":1730653670,"current_range_meters":29600,"station_id":"ce4bh292rcd13ifvqdf0","pricing_plan_id":"cebpf4jnsgd1na2vs0mg"},{"bike_id":"b9a33553-3f6c-4201-9239-8e5cd9472697","system_id":"levelo_inurba_marseille","lat":43.32477,"lon":5.3656,"is_reserved":false,"is_disabled":false,"rental_uris":{"android":"levelo://app?vid=b9a33553-3f6c-4201-9239-8e5cd9472697","ios":"levelo://app?vid=b9a33553-3f6c-4201-9239-8e5cd9472697"},"vehicle_type_id":"4","last_reported":1730653670,"current_range_meters":38400,"station_id":"ce4bhs12rcd13ifvqhvg","pricing_plan_id":"cebpf4jnsgd1na2vs0mg"},{"bike_id":"16bf58ef-c6b4-42d8-b563-07b504ea9514","system_id":"levelo_inurba_marseille","lat":43.25721,"lon":5.41115,"is_reserved":false,"is_disabled":false,"rental_uris":{"android":"levelo://app?vid=16bf58ef-c6b4-42d8-b563-07b504ea9514","ios":"levelo://app?vid=16bf58ef-c6b4-42d8-b563-07b504ea9514"},"vehicle_type_id":"4","last_reported":1730653670,"current_range_meters":27600,"station_id":"ce4bhkp2rcd13ifvqgd0","pricing_plan_id":"cebpf4jnsgd1na2vs0mg"},{"bike_id":"829eb535-300e-48f7-adf4-b502d13ca525","system_id":"levelo_inurba_marseille","lat":43.27071,"lon":5.42278,"is_reserved":false,"is_disabled":false,"rental_uris":{"android":"levelo://app?vid=829eb535-300e-48f7-adf4-b502d13ca525","ios":"levelo://app?vid=829eb535-300e-48f7-adf4-b502d13ca525"},"vehicle_type_id":"4","last_reported":1730653670,"current_range_meters":20400,"station_id":"ce4bhk92rcd13ifvqgb0","pricing_plan_id":"cebpf4jnsgd1na2vs0mg"},{"bike_id":"fbc5fb14-249f-4b6b-8493-264deab2c9b2","system_id":"levelo_inurba_marseille","lat":43.28001,"lon":5.40021,"is_reserved":false,"is_disabled":false,"rental_uris":{"android":"levelo://app?vid=fbc5fb14-249f-4b6b-8493-264deab2c9b2","ios":"levelo://app?vid=fbc5fb14-249f-4b6b-8493-264deab2c9b2"},"vehicle_type_id":"4","last_reported":1730653670,"current_range_meters":36400,"station_id":"ce4bho92rcd13ifvqh4g","pricing_plan_id":"cebpf4jnsgd1na2vs0mg"},{"bike_id":"e0c7f542-dc76-463c-8d0e-ea098ec1a67e","system_id":"levelo_inurba_marseille","lat":43.26756,"lon":5.40766,"is_reserved":false,"is_disabled":false,"rental_uris":{"android":"levelo://app?vid=e0c7f542-dc76-463c-8d0e-ea098ec1a67e","ios":"levelo://app?vid=e0c7f542-dc76-463c-8d0e-ea098ec1a67e"},"vehicle_type_id":"4","last_reported":1730653670,"current_range_meters":4800,"station_id":"","pricing_plan_id":"cebpf4jnsgd1na2vs0mg"},{"bike_id":"ce3ace71-d163-4c8c-9bf2-b13979fee05e","system_id":"levelo_inurba_marseille","lat":43.31326,"lon":5.39695,"is_reserved":false,"is_disabled":false,"rental_uris":{"android":"levelo://app?vid=ce3ace71-d163-4c8c-9bf2-b13979fee05e","ios":"levelo://app?vid=ce3ace71-d163-4c8c-9bf2-b13979fee05e"},"vehicle_type_id":"4","last_reported":1730653670,"current_range_meters":22000,"station_id":"ce4bgvp2rcd13ifvqcu0","pricing_plan_id":"cebpf4jnsgd1na2vs0mg"},{"bike_id":"f8541783-e122-47f7-a5b5-e5b10688b4cc","system_id":"levelo_inurba_marseille","lat":43.32481,"lon":5.36576,"is_reserved":false,"is_disabled":false,"rental_uris":{"android":"levelo://app?vid=f8541783-e122-47f7-a5b5-e5b10688b4cc","ios":"levelo://app?vid=f8541783-e122-47f7-a5b5-e5b10688b4cc"},"vehicle_type_id":"4","last_reported":1730653670,"current_range_meters":38800,"station_id":"ce4bhs12rcd13ifvqhvg","pricing_plan_id":"cebpf4jnsgd1na2vs0mg"},{"bike_id":"55bd5f04-02e9-4d5d-b358-1bd78c5e2afc","system_id":"levelo_inurba_marseille","lat":43.29101,"lon":5.38154,"is_reserved":false,"is_disabled":false,"rental_uris":{"android":"levelo://app?vid=55bd5f04-02e9-4d5d-b358-1bd78c5e2afc","ios":"levelo://app?vid=55bd5f04-02e9-4d5d-b358-1bd78c5e2afc"},"vehicle_type_id":"4","last_reported":1730653670,"current_range_meters":14800,"station_id":"ce4bh512rcd13ifvqe2g","pricing_plan_id":"cebpf4jnsgd1na2vs0mg"},{"bike_id":"e1e2f270-2c5c-4a4b-87d4-5739c8ddac04","system_id":"levelo_inurba_marseille","lat":43.30135,"lon":5.39867,"is_reserved":false,"is_disabled":false,"rental_uris":{"android":"levelo://app?vid=e1e2f270-2c5c-4a4b-87d4-5739c8ddac04","ios":"levelo://app?vid=e1e2f270-2c5c-4a4b-87d4-5739c8ddac04"},"vehicle_type_id":"4","last_reported":1730653670,"current_range_meters":38000,"station_id":"ce4bh0h2rcd13ifvqd40","pricing_plan_id":"cebpf4jnsgd1na2vs0mg"},{"bike_id":"15e017fe-3938-4f85-9462-107d604a0eb3","system_id":"levelo_inurba_marseille","lat":43.29975,"lon":5.37184,"is_reserved":false,"is_disabled":false,"rental_uris":{"android":"levelo://app?vid=15e017fe-3938-4f85-9462-107d604a0eb3","ios":"levelo://app?vid=15e017fe-3938-4f85-9462-107d604a0eb3"},"vehicle_type_id":"4","last_reported":1730653670,"current_range_meters":37600,"station_id":"ce4bgr92rcd13ifvqc7g","pricing_plan_id":"cebpf4jnsgd1na2vs0mg"},{"bike_id":"966deeb6-1f5c-43fe-9fba-f095398425fc","system_id":"levelo_inurba_marseille","lat":43.27909,"lon":5.38027,"is_reserved":false,"is_disabled":false,"rental_uris":{"android":"levelo://app?vid=966deeb6-1f5c-43fe-9fba-f095398425fc","ios":"levelo://app?vid=966deeb6-1f5c-43fe-9fba-f095398425fc"},"vehicle_type_id":"4","last_reported":1730653670,"current_range_meters":16800,"station_id":"ce4bhf92rcd13ifvqf50","pricing_plan_id":"cebpf4jnsgd1na2vs0mg"},{"bike_id":"91f4eaf9-addb-4ec1-bd23-739329b48b9e","system_id":"levelo_inurba_marseille","lat":43.30889,"lon":5.39659,"is_reserved":false,"is_disabled":false,"rental_uris":{"android":"levelo://app?vid=91f4eaf9-addb-4ec1-bd23-739329b48b9e","ios":"levelo://app?vid=91f4eaf9-addb-4ec1-bd23-739329b48b9e"},"vehicle_type_id":"4","last_reported":1730653670,"current_range_meters":32400,"station_id":"ce4bh012rcd13ifvqcv0","pricing_plan_id":"cebpf4jnsgd1na2vs0mg"},{"bike_id":"8016eb79-99b4-44bd-ac05-7846f44e83e0","system_id":"levelo_inurba_marseille","lat":43.33722,"lon":5.39191,"is_reserved":false,"is_disabled":false,"rental_uris":{"android":"levelo://app?vid=8016eb79-99b4-44bd-ac05-7846f44e83e0","ios":"levelo://app?vid=8016eb79-99b4-44bd-ac05-7846f44e83e0"},"vehicle_type_id":"4","last_reported":1730653670,"current_range_meters":17600,"station_id":"ce4bhr92rcd13ifvqhsg","pricing_plan_id":"cebpf4jnsgd1na2vs0mg"},{"bike_id":"0ed3edd9-c5cd-4a8b-9d97-e59222601059","system_id":"levelo_inurba_marseille","lat":43.29627,"lon":5.41921,"is_reserved":false,"is_disabled":false,"rental_uris":{"android":"levelo://app?vid=0ed3edd9-c5cd-4a8b-9d97-e59222601059","ios":"levelo://app?vid=0ed3edd9-c5cd-4a8b-9d97-e59222601059"},"vehicle_type_id":"4","last_reported":1730653670,"current_range_meters":24400,"station_id":"","pricing_plan_id":"cebpf4jnsgd1na2vs0mg"},{"bike_id":"70a6eabf-168f-46b6-b5ab-e15b4a8017ee","system_id":"levelo_inurba_marseille","lat":43.24388,"lon":5.37063,"is_reserved":false,"is_disabled":false,"rental_uris":{"android":"levelo://app?vid=70a6eabf-168f-46b6-b5ab-e15b4a8017ee","ios":"levelo://app?vid=70a6eabf-168f-46b6-b5ab-e15b4a8017ee"},"vehicle_type_id":"4","last_reported":1730653670,"current_range_meters":38800,"station_id":"ce4bhhh2rcd13ifvqfk0","pricing_plan_id":"cebpf4jnsgd1na2vs0mg"},{"bike_id":"09c4e025-0035-4b02-9331-e4c6e4b55438","system_id":"levelo_inurba_marseille","lat":43.30361,"lon":5.39151,"is_reserved":false,"is_disabled":false,"rental_uris":{"android":"levelo://app?vid=09c4e025-0035-4b02-9331-e4c6e4b55438","ios":"levelo://app?vid=09c4e025-0035-4b02-9331-e4c6e4b55438"},"vehicle_type_id":"4","last_reported":1730653670,"current_range_meters":32400,"station_id":"","pricing_plan_id":"cebpf4jnsgd1na2vs0mg"},{"bike_id":"4c5363da-5c0b-454a-944d-a9889b59957e","system_id":"levelo_inurba_marseille","lat":43.24077,"lon":5.37769,"is_reserved":false,"is_disabled":false,"rental_uris":{"android":"levelo://app?vid=4c5363da-5c0b-454a-944d-a9889b59957e","ios":"levelo://app?vid=4c5363da-5c0b-454a-944d-a9889b59957e"},"vehicle_type_id":"4","last_reported":1730653670,"current_range_meters":38800,"station_id":"ce4bhnp2rcd13ifvqgvg","pricing_plan_id":"cebpf4jnsgd1na2vs0mg"},{"bike_id":"57fcaa2f-9fe0-493f-ae2e-dcfdf4ad4817","system_id":"levelo_inurba_marseille","lat":43.26806,"lon":5.40271,"is_reserved":false,"is_disabled":false,"rental_uris":{"android":"levelo://app?vid=57fcaa2f-9fe0-493f-ae2e-dcfdf4ad4817","ios":"levelo://app?vid=57fcaa2f-9fe0-493f-ae2e-dcfdf4ad4817"},"vehicle_type_id":"4","last_reported":1730653670,"current_range_meters":33600,"station_id":"ce501612rcd8frsf0b60","pricing_plan_id":"cebpf4jnsgd1na2vs0mg"},{"bike_id":"652c20d0-2219-4d9e-abee-d7c746263acb","system_id":"levelo_inurba_marseille","lat":43.23959,"lon":5.36629,"is_reserved":false,"is_disabled":false,"rental_uris":{"android":"levelo://app?vid=652c20d0-2219-4d9e-abee-d7c746263acb","ios":"levelo://app?vid=652c20d0-2219-4d9e-abee-d7c746263acb"},"vehicle_type_id":"4","last_reported":1730653670,"current_range_meters":38800,"station_id":"ce4bhi12rcd13ifvqfp0","pricing_plan_id":"cebpf4jnsgd1na2vs0mg"},{"bike_id":"ac11a2be-5eb2-46b6-ae69-af2de727916a","system_id":"levelo_inurba_marseille","lat":43.29917,"lon":5.38147,"is_reserved":false,"is_disabled":false,"rental_uris":{"android":"levelo://app?vid=ac11a2be-5eb2-46b6-ae69-af2de727916a","ios":"levelo://app?vid=ac11a2be-5eb2-46b6-ae69-af2de727916a"},"vehicle_type_id":"4","last_reported":1730653670,"current_range_meters":28400,"station_id":"ce4bgj12rcd13ifvqbc0","pricing_plan_id":"cebpf4jnsgd1na2vs0mg"},{"bike_id":"4a5743e5-ecef-4e1d-aee9-2fbd0a257fdb","system_id":"levelo_inurba_marseille","lat":43.30245,"lon":5.4008,"is_reserved":false,"is_disabled":false,"rental_uris":{"android":"levelo://app?vid=4a5743e5-ecef-4e1d-aee9-2fbd0a257fdb","ios":"levelo://app?vid=4a5743e5-ecef-4e1d-aee9-2fbd0a257fdb"},"vehicle_type_id":"4","last_reported":1730653670,"current_range_meters":20800,"station_id":"ce4bgvh2rcd13ifvqcs0","pricing_plan_id":"cebpf4jnsgd1na2vs0mg"},{"bike_id":"5fb0ce8f-83df-4741-89c7-9393b42785f1","system_id":"levelo_inurba_marseille","lat":43.29978,"lon":5.38498,"is_reserved":false,"is_disabled":false,"rental_uris":{"android":"levelo://app?vid=5fb0ce8f-83df-4741-89c7-9393b42785f1","ios":"levelo://app?vid=5fb0ce8f-83df-4741-89c7-9393b42785f1"},"vehicle_type_id":"4","last_reported":1730653670,"current_range_meters":38800,"station_id":"ce4bgj92rcd13ifvqbd0","pricing_plan_id":"cebpf4jnsgd1na2vs0mg"},{"bike_id":"7e18a773-f9af-4275-ae44-940f6b919f2c","system_id":"levelo_inurba_marseille","lat":43.28489,"lon":5.38552,"is_reserved":false,"is_disabled":false,"rental_uris":{"android":"levelo://app?vid=7e18a773-f9af-4275-ae44-940f6b919f2c","ios":"levelo://app?vid=7e18a773-f9af-4275-ae44-940f6b919f2c"},"vehicle_type_id":"4","last_reported":1730653670,"current_range_meters":36400,"station_id":"ce4bh8p2rcd13ifvqeb0","pricing_plan_id":"cebpf4jnsgd1na2vs0mg"},{"bike_id":"74d37b23-dda1-4516-9c45-76f23ea485af","system_id":"levelo_inurba_marseille","lat":43.24075,"lon":5.37763,"is_reserved":false,"is_disabled":false,"rental_uris":{"android":"levelo://app?vid=74d37b23-dda1-4516-9c45-76f23ea485af","ios":"levelo://app?vid=74d37b23-dda1-4516-9c45-76f23ea485af"},"vehicle_type_id":"4","last_reported":1730653670,"current_range_meters":38800,"station_id":"ce4bhnp2rcd13ifvqgvg","pricing_plan_id":"cebpf4jnsgd1na2vs0mg"},{"bike_id":"5a04cb76-3627-4f04-96bf-07a05c3bcc7e","system_id":"levelo_inurba_marseille","lat":43.2695,"lon":5.40251,"is_reserved":false,"is_disabled":false,"rental_uris":{"android":"levelo://app?vid=5a04cb76-3627-4f04-96bf-07a05c3bcc7e","ios":"levelo://app?vid=5a04cb76-3627-4f04-96bf-07a05c3bcc7e"},"vehicle_type_id":"4","last_reported":1730653670,"current_range_meters":38800,"station_id":"cjm6bp8fraef2m0cb0m0","pricing_plan_id":"cebpf4jnsgd1na2vs0mg"},{"bike_id":"805015d8-b14d-4cbb-88d0-ea4a74902008","system_id":"levelo_inurba_marseille","lat":43.30945,"lon":5.3904,"is_reserved":false,"is_disabled":false,"rental_uris":{"android":"levelo://app?vid=805015d8-b14d-4cbb-88d0-ea4a74902008","ios":"levelo://app?vid=805015d8-b14d-4cbb-88d0-ea4a74902008"},"vehicle_type_id":"4","last_reported":1730653670,"current_range_meters":37600,"station_id":"ce4bgup2rcd13ifvqco0","pricing_plan_id":"cebpf4jnsgd1na2vs0mg"},{"bike_id":"7130e848-db1d-45e3-9ce8-180dd2c4bb7a","system_id":"levelo_inurba_marseille","lat":43.24388,"lon":5.37059,"is_reserved":false,"is_disabled":false,"rental_uris":{"android":"levelo://app?vid=7130e848-db1d-45e3-9ce8-180dd2c4bb7a","ios":"levelo://app?vid=7130e848-db1d-45e3-9ce8-180dd2c4bb7a"},"vehicle_type_id":"4","last_reported":1730653670,"current_range_meters":6400,"station_id":"ce4bhhh2rcd13ifvqfk0","pricing_plan_id":"cebpf4jnsgd1na2vs0mg"},{"bike_id":"f6246492-cf78-4161-9cc1-96b491c72279","system_id":"levelo_inurba_marseille","lat":43.2804,"lon":5.36948,"is_reserved":false,"is_disabled":false,"rental_uris":{"android":"levelo://app?vid=f6246492-cf78-4161-9cc1-96b491c72279","ios":"levelo://app?vid=f6246492-cf78-4161-9cc1-96b491c72279"},"vehicle_type_id":"4","last_reported":1730653670,"current_range_meters":4400,"station_id":"ce4bha12rcd13ifvqef0","pricing_plan_id":"cebpf4jnsgd1na2vs0mg"},{"bike_id":"4fdf76c3-bad0-4717-878e-a2b7bd8c2068","system_id":"levelo_inurba_marseille","lat":43.28005,"lon":5.40004,"is_reserved":false,"is_disabled":false,"rental_uris":{"android":"levelo://app?vid=4fdf76c3-bad0-4717-878e-a2b7bd8c2068","ios":"levelo://app?vid=4fdf76c3-bad0-4717-878e-a2b7bd8c2068"},"vehicle_type_id":"4","last_reported":1730653670,"current_range_meters":16400,"station_id":"ce4bho92rcd13ifvqh4g","pricing_plan_id":"cebpf4jnsgd1na2vs0mg"},{"bike_id":"cba591cc-3344-4729-b4b4-dc7eac052aed","system_id":"levelo_inurba_marseille","lat":43.27175,"lon":5.40998,"is_reserved":false,"is_disabled":false,"rental_uris":{"android":"levelo://app?vid=cba591cc-3344-4729-b4b4-dc7eac052aed","ios":"levelo://app?vid=cba591cc-3344-4729-b4b4-dc7eac052aed"},"vehicle_type_id":"4","last_reported":1730653670,"current_range_meters":10000,"station_id":"ce4bhl12rcd13ifvqgf0","pricing_plan_id":"cebpf4jnsgd1na2vs0mg"},{"bike_id":"16f2c868-9e92-479c-834c-98db58dad80a","system_id":"levelo_inurba_marseille","lat":43.29894,"lon":5.36812,"is_reserved":false,"is_disabled":false,"rental_uris":{"android":"levelo://app?vid=16f2c868-9e92-479c-834c-98db58dad80a","ios":"levelo://app?vid=16f2c868-9e92-479c-834c-98db58dad80a"},"vehicle_type_id":"4","last_reported":1730653670,"current_range_meters":8000,"station_id":"","pricing_plan_id":"cebpf4jnsgd1na2vs0mg"},{"bike_id":"bc37aeaa-f5d4-43c5-a390-436275c631fa","system_id":"levelo_inurba_marseille","lat":43.27565,"lon":5.3842,"is_reserved":false,"is_disabled":false,"rental_uris":{"android":"levelo://app?vid=bc37aeaa-f5d4-43c5-a390-436275c631fa","ios":"levelo://app?vid=bc37aeaa-f5d4-43c5-a390-436275c631fa"},"vehicle_type_id":"4","last_reported":1730653670,"current_range_meters":19600,"station_id":"ce4bhh92rcd13ifvqfi0","pricing_plan_id":"cebpf4jnsgd1na2vs0mg"},{"bike_id":"db21e849-8d13-48e1-821a-115902ca9b3c","system_id":"levelo_inurba_marseille","lat":43.30893,"lon":5.36842,"is_reserved":false,"is_disabled":false,"rental_uris":{"android":"levelo://app?vid=db21e849-8d13-48e1-821a-115902ca9b3c","ios":"levelo://app?vid=db21e849-8d13-48e1-821a-115902ca9b3c"},"vehicle_type_id":"4","last_reported":1730653670,"current_range_meters":16800,"station_id":"ce4bgn92rcd13ifvqbvg","pricing_plan_id":"cebpf4jnsgd1na2vs0mg"},{"bike_id":"c7694004-6aad-4c2d-b3bd-90fae0e28738","system_id":"levelo_inurba_marseille","lat":43.29096,"lon":5.38127,"is_reserved":false,"is_disabled":false,"rental_uris":{"android":"levelo://app?vid=c7694004-6aad-4c2d-b3bd-90fae0e28738","ios":"levelo://app?vid=c7694004-6aad-4c2d-b3bd-90fae0e28738"},"vehicle_type_id":"4","last_reported":1730653670,"current_range_meters":25200,"station_id":"ce4bh512rcd13ifvqe2g","pricing_plan_id":"cebpf4jnsgd1na2vs0mg"},{"bike_id":"b313bf92-7823-49f2-bf35-bcd5b0e8afec","system_id":"levelo_inurba_marseille","lat":43.31488,"lon":5.40352,"is_reserved":false,"is_disabled":false,"rental_uris":{"android":"levelo://app?vid=b313bf92-7823-49f2-bf35-bcd5b0e8afec","ios":"levelo://app?vid=b313bf92-7823-49f2-bf35-bcd5b0e8afec"},"vehicle_type_id":"4","last_reported":1730653670,"current_range_meters":38000,"station_id":"ce4bh012rcd13ifvqd00","pricing_plan_id":"cebpf4jnsgd1na2vs0mg"},{"bike_id":"3a801cbb-1e2e-46c3-bc85-0c5198b9902c","system_id":"levelo_inurba_marseille","lat":43.26533,"lon":5.38833,"is_reserved":false,"is_disabled":false,"rental_uris":{"android":"levelo://app?vid=3a801cbb-1e2e-46c3-bc85-0c5198b9902c","ios":"levelo://app?vid=3a801cbb-1e2e-46c3-bc85-0c5198b9902c"},"vehicle_type_id":"4","last_reported":1730653670,"current_range_meters":31200,"station_id":"","pricing_plan_id":"cebpf4jnsgd1na2vs0mg"},{"bike_id":"364d1f37-99e0-42fa-99c9-317ac534eb05","system_id":"levelo_inurba_marseille","lat":43.26936,"lon":5.38918,"is_reserved":false,"is_disabled":false,"rental_uris":{"android":"levelo://app?vid=364d1f37-99e0-42fa-99c9-317ac534eb05","ios":"levelo://app?vid=364d1f37-99e0-42fa-99c9-317ac534eb05"},"vehicle_type_id":"4","last_reported":1730653670,"current_range_meters":24800,"station_id":"ce4bhhh2rcd13ifvqfl0","pricing_plan_id":"cebpf4jnsgd1na2vs0mg"},{"bike_id":"e9fbfdd8-e235-414d-b733-7f92b48ed3f4","system_id":"levelo_inurba_marseille","lat":43.29071,"lon":5.37163,"is_reserved":false,"is_disabled":false,"rental_uris":{"android":"levelo://app?vid=e9fbfdd8-e235-414d-b733-7f92b48ed3f4","ios":"levelo://app?vid=e9fbfdd8-e235-414d-b733-7f92b48ed3f4"},"vehicle_type_id":"4","last_reported":1730653670,"current_range_meters":38800,"station_id":"ce4bh5p2rcd13ifvqe4g","pricing_plan_id":"cebpf4jnsgd1na2vs0mg"},{"bike_id":"641dfaca-33a3-4060-9d6f-ed8797dc585c","system_id":"levelo_inurba_marseille","lat":43.29032,"lon":5.381285,"is_reserved":false,"is_disabled":false,"rental_uris":{"android":"levelo://app?vid=641dfaca-33a3-4060-9d6f-ed8797dc585c","ios":"levelo://app?vid=641dfaca-33a3-4060-9d6f-ed8797dc585c"},"vehicle_type_id":"4","last_reported":1730653670,"current_range_meters":38800,"station_id":"ce4bh4p2rcd13ifvqe1g","pricing_plan_id":"cebpf4jnsgd1na2vs0mg"},{"bike_id":"65a0d9fd-ee59-42db-8105-f6c992d40c2b","system_id":"levelo_inurba_marseille","lat":43.312066,"lon":5.368231,"is_reserved":false,"is_disabled":false,"rental_uris":{"android":"levelo://app?vid=65a0d9fd-ee59-42db-8105-f6c992d40c2b","ios":"levelo://app?vid=65a0d9fd-ee59-42db-8105-f6c992d40c2b"},"vehicle_type_id":"4","last_reported":1730653670,"current_range_meters":32800,"station_id":"ce4bgl92rcd13ifvqbq0","pricing_plan_id":"cebpf4jnsgd1na2vs0mg"},{"bike_id":"0ad4d9f0-5cfb-456e-98d1-4eb95ab7d61c","system_id":"levelo_inurba_marseille","lat":43.31722,"lon":5.377324,"is_reserved":false,"is_disabled":false,"rental_uris":{"android":"levelo://app?vid=0ad4d9f0-5cfb-456e-98d1-4eb95ab7d61c","ios":"levelo://app?vid=0ad4d9f0-5cfb-456e-98d1-4eb95ab7d61c"},"vehicle_type_id":"4","last_reported":1730653670,"current_range_meters":26800,"station_id":"ce4bgth2rcd13ifvqch0","pricing_plan_id":"cebpf4jnsgd1na2vs0mg"},{"bike_id":"c2327f4d-c1e7-4985-8684-bc562b47282c","system_id":"levelo_inurba_marseille","lat":43.32627,"lon":5.37509,"is_reserved":false,"is_disabled":false,"rental_uris":{"android":"levelo://app?vid=c2327f4d-c1e7-4985-8684-bc562b47282c","ios":"levelo://app?vid=c2327f4d-c1e7-4985-8684-bc562b47282c"},"vehicle_type_id":"4","last_reported":1730653670,"current_range_meters":11200,"station_id":"","pricing_plan_id":"cebpf4jnsgd1na2vs0mg"},{"bike_id":"0a2771a5-aee3-4f1d-9728-37649ea9b870","system_id":"levelo_inurba_marseille","lat":43.27578,"lon":5.38409,"is_reserved":false,"is_disabled":false,"rental_uris":{"android":"levelo://app?vid=0a2771a5-aee3-4f1d-9728-37649ea9b870","ios":"levelo://app?vid=0a2771a5-aee3-4f1d-9728-37649ea9b870"},"vehicle_type_id":"4","last_reported":1730653670,"current_range_meters":15200,"station_id":"ce4bhh92rcd13ifvqfi0","pricing_plan_id":"cebpf4jnsgd1na2vs0mg"},{"bike_id":"fdbe25d6-510f-4682-97b3-865b4c1c8841","system_id":"levelo_inurba_marseille","lat":43.30085,"lon":5.39098,"is_reserved":false,"is_disabled":false,"rental_uris":{"android":"levelo://app?vid=fdbe25d6-510f-4682-97b3-865b4c1c8841","ios":"levelo://app?vid=fdbe25d6-510f-4682-97b3-865b4c1c8841"},"vehicle_type_id":"4","last_reported":1730653670,"current_range_meters":11600,"station_id":"ce4bh192rcd13ifvqdb0","pricing_plan_id":"cebpf4jnsgd1na2vs0mg"},{"bike_id":"dd01c01a-7ede-4e37-ae3f-9907d8834d55","system_id":"levelo_inurba_marseille","lat":43.31229,"lon":5.36868,"is_reserved":false,"is_disabled":false,"rental_uris":{"android":"levelo://app?vid=dd01c01a-7ede-4e37-ae3f-9907d8834d55","ios":"levelo://app?vid=dd01c01a-7ede-4e37-ae3f-9907d8834d55"},"vehicle_type_id":"4","last_reported":1730653670,"current_range_meters":18800,"station_id":"ce4bgl92rcd13ifvqbq0","pricing_plan_id":"cebpf4jnsgd1na2vs0mg"},{"bike_id":"b34d2c1c-a655-4442-ad3e-9e88dc491689","system_id":"levelo_inurba_marseille","lat":43.30538,"lon":5.36572,"is_reserved":false,"is_disabled":false,"rental_uris":{"android":"levelo://app?vid=b34d2c1c-a655-4442-ad3e-9e88dc491689","ios":"levelo://app?vid=b34d2c1c-a655-4442-ad3e-9e88dc491689"},"vehicle_type_id":"4","last_reported":1730653670,"current_range_meters":38400,"station_id":"ce4bgs12rcd13ifvqcag","pricing_plan_id":"cebpf4jnsgd1na2vs0mg"},{"bike_id":"0b64006f-9fd4-4d57-b44f-9dd3cc3a92ec","system_id":"levelo_inurba_marseille","lat":43.31232,"lon":5.36863,"is_reserved":false,"is_disabled":false,"rental_uris":{"android":"levelo://app?vid=0b64006f-9fd4-4d57-b44f-9dd3cc3a92ec","ios":"levelo://app?vid=0b64006f-9fd4-4d57-b44f-9dd3cc3a92ec"},"vehicle_type_id":"4","last_reported":1730653670,"current_range_meters":24400,"station_id":"ce4bgl92rcd13ifvqbq0","pricing_plan_id":"cebpf4jnsgd1na2vs0mg"},{"bike_id":"0e12a1e9-8091-4ed2-ad64-facaf7200d2a","system_id":"levelo_inurba_marseille","lat":43.30965,"lon":5.39034,"is_reserved":false,"is_disabled":false,"rental_uris":{"android":"levelo://app?vid=0e12a1e9-8091-4ed2-ad64-facaf7200d2a","ios":"levelo://app?vid=0e12a1e9-8091-4ed2-ad64-facaf7200d2a"},"vehicle_type_id":"4","last_reported":1730653670,"current_range_meters":14400,"station_id":"ce4bgup2rcd13ifvqco0","pricing_plan_id":"cebpf4jnsgd1na2vs0mg"},{"bike_id":"d4024648-8ce6-4aa4-b0da-f333c371bfc1","system_id":"levelo_inurba_marseille","lat":43.27071,"lon":5.4229,"is_reserved":false,"is_disabled":false,"rental_uris":{"android":"levelo://app?vid=d4024648-8ce6-4aa4-b0da-f333c371bfc1","ios":"levelo://app?vid=d4024648-8ce6-4aa4-b0da-f333c371bfc1"},"vehicle_type_id":"4","last_reported":1730653670,"current_range_meters":6800,"station_id":"ce4bhk92rcd13ifvqgb0","pricing_plan_id":"cebpf4jnsgd1na2vs0mg"},{"bike_id":"5a02bac7-cd5b-45eb-b2e3-16db0ae92f06","system_id":"levelo_inurba_marseille","lat":43.27067,"lon":5.42274,"is_reserved":false,"is_disabled":false,"rental_uris":{"android":"levelo://app?vid=5a02bac7-cd5b-45eb-b2e3-16db0ae92f06","ios":"levelo://app?vid=5a02bac7-cd5b-45eb-b2e3-16db0ae92f06"},"vehicle_type_id":"4","last_reported":1730653670,"current_range_meters":3600,"station_id":"ce4bhk92rcd13ifvqgb0","pricing_plan_id":"cebpf4jnsgd1na2vs0mg"},{"bike_id":"f67020de-8784-4013-9ffa-14545e0f9f3d","system_id":"levelo_inurba_marseille","lat":43.32657,"lon":5.40998,"is_reserved":false,"is_disabled":false,"rental_uris":{"android":"levelo://app?vid=f67020de-8784-4013-9ffa-14545e0f9f3d","ios":"levelo://app?vid=f67020de-8784-4013-9ffa-14545e0f9f3d"},"vehicle_type_id":"4","last_reported":1730653670,"current_range_meters":27200,"station_id":"ce4bhpp2rcd13ifvqhgg","pricing_plan_id":"cebpf4jnsgd1na2vs0mg"},{"bike_id":"4dc11dc3-f00f-4f30-b0d8-fe7057c008f2","system_id":"levelo_inurba_marseille","lat":43.29883,"lon":5.3974,"is_reserved":false,"is_disabled":false,"rental_uris":{"android":"levelo://app?vid=4dc11dc3-f00f-4f30-b0d8-fe7057c008f2","ios":"levelo://app?vid=4dc11dc3-f00f-4f30-b0d8-fe7057c008f2"},"vehicle_type_id":"4","last_reported":1730653670,"current_range_meters":16000,"station_id":"ce4bh0h2rcd13ifvqd50","pricing_plan_id":"cebpf4jnsgd1na2vs0mg"},