{"last_updated":1735981724,"ttl":60,"version":"2.2","data":{"bikes":[{"bike_id":"7e37bb78-6df8-4065-a33a-785e0d2acb31","system_id":"levelo_inurba_marseille","lat":43.29186,"lon":5.35806,"is_reserved":false,"is_disabled":false,"rental_uris":{"android":"levelo://app?vid=7e37bb78-6df8-4065-a33a-785e0d2acb31","ios":"levelo://app?vid=7e37bb78-6df8-4065-a33a-785e0d2acb31"},"vehicle_type_id":"4","last_reported":1735981724,"current_range_meters":39200,"station_id":"ce4bhb12rcd13ifvqel0","pricing_plan_id":"cebpf4jnsgd1na2vs0mg"},{"bike_id":"d1c7e603-0dce-465b-b799-1856c2d7e025","system_id":"levelo_inurba_marseille","lat":43.29367,"lon":5.37854,"is_reserved":false,"is_disabled":false,"rental_uris":{"android":"levelo://app?vid=d1c7e603-0dce-465b-b799-1856c2d7e025","ios":"levelo://app?vid=d1c7e603-0dce-465b-b799-1856c2d7e025"},"vehicle_type_id":"4","last_reported":1735981724,"current_range_meters":39200,"station_id":"ce4bgjh2rcd13ifvqbf0","pricing_plan_id":"cebpf4jnsgd1na2vs0mg"},{"bike_id":"bf54e88b-da3f-4189-8098-c83ac2078216","system_id":"levelo_inurba_marseille","lat":43.27941,"lon":5.410471,"is_reserved":false,"is_disabled":false,"rental_uris":{"android":"levelo://app?vid=bf54e88b-da3f-4189-8098-c83ac2078216","ios":"levelo://app?vid=bf54e88b-da3f-4189-8098-c83ac2078216"},"vehicle_type_id":"4","last_reported":1735981724,"current_range_meters":24800,"station_id":"ce4bhnp2rcd13ifvqh0g","pricing_plan_id":"cebpf4jnsgd1na2vs0mg"},{"bike_id":"8a1c8515-1ea6-4df4-8053-9c02da774842","system_id":"levelo_inurba_marseille","lat":43.306562,"lon":5.400904,"is_reserved":false,"is_disabled":true,"rental_uris":{"android":"levelo://app?vid=8a1c8515-1ea6-4df4-8053-9c02da774842","ios":"levelo://app?vid=8a1c8515-1ea6-4df4-8053-9c02da774842"},"vehicle_type_id":"4","last_reported":1735981724,"current_range_meters":1200,"station_id":"ce4bh112rcd13ifvqda0","pricing_plan_id":"cebpf4jnsgd1na2vs0mg"},{"bike_id":"05793010-67bf-4cf9-85c1-266c8ecb0e3c","system_id":"levelo_inurba_marseille","lat":43.23963,"lon":5.36623,"is_reserved":false,"is_disabled":false,"rental_uris":{"android":"levelo://app?vid=05793010-67bf-4cf9-85c1-266c8ecb0e3c","ios":"levelo://app?vid=05793010-67bf-4cf9-85c1-266c8ecb0e3c"},"vehicle_type_id":"4","last_reported":1735981724,"current_range_meters":33600,"station_id":"ce4bhi12rcd13ifvqfp0","pricing_plan_id":"cebpf4jnsgd1na2vs0mg"},{"bike_id":"ca4beb2c-c4d8-484f-9237-25798230877a","system_id":"levelo_inurba_marseille","lat":43.28996,"lon":5.35625,"is_reserved":false,"is_disabled":false,"rental_uris":{"android":"levelo://app?vid=ca4beb2c-c4d8-484f-9237-25798230877a","ios":"levelo://app?vid=ca4beb2c-c4d8-484f-9237-25798230877a"},"vehicle_type_id":"4","last_reported":1735981724,"current_range_meters":39200,"station_id":"ce4bhb92rcd13ifvqen0","pricing_plan_id":"cebpf4jnsgd1na2vs0mg"},{"bike_id":"cdc4b0cc-0711-4b56-904c-59d269c327ef","system_id":"levelo_inurba_marseille","lat":43.31325,"lon":5.39699,"is_reserved":false,"is_disabled":false,"rental_uris":{"android":"levelo://app?vid=cdc4b0cc-0711-4b56-904c-59d269c327ef","ios":"levelo://app?vid=cdc4b0cc-0711-4b56-904c-59d269c327ef"},"vehicle_type_id":"4","last_reported":1735981724,"current_range_meters":37600,"station_id":"ce4bgvp2rcd13ifvqcu0","pricing_plan_id":"cebpf4jnsgd1na2vs0mg"},{"bike_id":"e1dfcdee-18af-407f-9a6c-807a8fefbf81","system_id":"levelo_inurba_marseille","lat":43.28997,"lon":5.35605,"is_reserved":false,"is_disabled":false,"rental_uris":{"android":"levelo://app?vid=e1dfcdee-18af-407f-9a6c-807a8fefbf81","ios":"levelo://app?vid=e1dfcdee-18af-407f-9a6c-807a8fefbf81"},"vehicle_type_id":"4","last_reported":1735981724,"current_range_meters":38800,"station_id":"ce4bhb92rcd13ifvqen0","pricing_plan_id":"cebpf4jnsgd1na2vs0mg"},{"bike_id":"c817df19-d350-4aff-b4f5-f81966d20238","system_id":"levelo_inurba_marseille","lat":43.29285,"lon":5.37435,"is_reserved":false,"is_disabled":false,"rental_uris":{"android":"levelo://app?vid=c817df19-d350-4aff-b4f5-f81966d20238","ios":"levelo://app?vid=c817df19-d350-4aff-b4f5-f81966d20238"},"vehicle_type_id":"4","last_reported":1735981724,"current_range_meters":38400,"station_id":"ce4bgi12rcd13ifvqb70","pricing_plan_id":"cebpf4jnsgd1na2vs0mg"},{"bike_id":"36d0910b-d540-4d75-b065-f044cb5b6555","system_id":"levelo_inurba_marseille","lat":43.29595,"lon":5.36715,"is_reserved":false,"is_disabled":false,"rental_uris":{"android":"levelo://app?vid=36d0910b-d540-4d75-b065-f044cb5b6555","ios":"levelo://app?vid=36d0910b-d540-4d75-b065-f044cb5b6555"},"vehicle_type_id":"4","last_reported":1735981724,"current_range_meters":38800,"station_id":"ce4bgph2rcd13ifvqc2g","pricing_plan_id":"cebpf4jnsgd1na2vs0mg"},{"bike_id":"f7a3215a-be68-4dc5-8ac2-1c3e9caadab1","system_id":"levelo_inurba_marseille","lat":43.26782,"lon":5.3942,"is_reserved":false,"is_disabled":false,"rental_uris":{"android":"levelo://app?vid=f7a3215a-be68-4dc5-8ac2-1c3e9caadab1","ios":"levelo://app?vid=f7a3215a-be68-4dc5-8ac2-1c3e9caadab1"},"vehicle_type_id":"4","last_reported":1735981724,"current_range_meters":30000,"station_id":"ce4bhh12rcd13ifvqfg0","pricing_plan_id":"cebpf4jnsgd1na2vs0mg"},{"bike_id":"88bb75a7-a83d-4f7b-a8fa-c860a058737d","system_id":"levelo_inurba_marseille","lat":43.30423,"lon":5.39735,"is_reserved":false,"is_disabled":false,"rental_uris":{"android":"levelo://app?vid=88bb75a7-a83d-4f7b-a8fa-c860a058737d","ios":"levelo://app?vid=88bb75a7-a83d-4f7b-a8fa-c860a058737d"},"vehicle_type_id":"4","last_reported":1735981724,"current_range_meters":37600,"station_id":"ce4bh092rcd13ifvqd20","pricing_plan_id":"cebpf4jnsgd1na2vs0mg"},{"bike_id":"fe3aafb8-a6b4-4a18-a86a-13b013e22a76","system_id":"levelo_inurba_marseille","lat":43.31496,"lon":5.37305,"is_reserved":false,"is_disabled":false,"rental_uris":{"android":"levelo://app?vid=fe3aafb8-a6b4-4a18-a86a-13b013e22a76","ios":"levelo://app?vid=fe3aafb8-a6b4-4a18-a86a-13b013e22a76"},"vehicle_type_id":"4","last_reported":1735981724,"current_range_meters":36800,"station_id":"ce4bgt12rcd13ifvqcd0","pricing_plan_id":"cebpf4jnsgd1na2vs0mg"},{"bike_id":"116f92ae-65b4-4f7c-a23b-1117c0a69b33","system_id":"levelo_inurba_marseille","lat":43.286261,"lon":5.35101,"is_reserved":false,"is_disabled":false,"rental_uris":{"android":"levelo://app?vid=116f92ae-65b4-4f7c-a23b-1117c0a69b33","ios":"levelo://app?vid=116f92ae-65b4-4f7c-a23b-1117c0a69b33"},"vehicle_type_id":"4","last_reported":1735981724,"current_range_meters":24000,"station_id":"ce4bhch2rcd13ifvqeug","pricing_plan_id":"cebpf4jnsgd1na2vs0mg"},{"bike_id":"efe82dc4-c15f-4046-9226-91dca361e6bd","system_id":"levelo_inurba_marseille","lat":43.2558,"lon":5.38245,"is_reserved":false,"is_disabled":false,"rental_uris":{"android":"levelo://app?vid=efe82dc4-c15f-4046-9226-91dca361e6bd","ios":"levelo://app?vid=efe82dc4-c15f-4046-9226-91dca361e6bd"},"vehicle_type_id":"4","last_reported":1735981724,"current_range_meters":39200,"station_id":"ce4bhih2rcd13ifvqfs0","pricing_plan_id":"cebpf4jnsgd1na2vs0mg"},{"bike_id":"0a72fabb-c385-470f-8026-c60effe2f3f0","system_id":"levelo_inurba_marseille","lat":43.29683,"lon":5.35976,"is_reserved":false,"is_disabled":false,"rental_uris":{"android":"levelo://app?vid=0a72fabb-c385-470f-8026-c60effe2f3f0","ios":"levelo://app?vid=0a72fabb-c385-470f-8026-c60effe2f3f0"},"vehicle_type_id":"4","last_reported":1735981724,"current_range_meters":22000,"station_id":"","pricing_plan_id":"cebpf4jnsgd1na2vs0mg"},{"bike_id":"76d392c8-6dd4-4fbf-b626-27c2990c047b","system_id":"levelo_inurba_marseille","lat":43.28144,"lon":5.42789,"is_reserved":false,"is_disabled":false,"rental_uris":{"android":"levelo://app?vid=76d392c8-6dd4-4fbf-b626-27c2990c047b","ios":"levelo://app?vid=76d392c8-6dd4-4fbf-b626-27c2990c047b"},"vehicle_type_id":"4","last_reported":1735981724,"current_range_meters":12000,"station_id":"","pricing_plan_id":"cebpf4jnsgd1na2vs0mg"},{"bike_id":"ebb56956-e2e2-4f51-8f7a-80ccc26c078c","system_id":"levelo_inurba_marseille","lat":43.28851,"lon":5.39307,"is_reserved":false,"is_disabled":false,"rental_uris":{"android":"levelo://app?vid=ebb56956-e2e2-4f51-8f7a-80ccc26c078c","ios":"levelo://app?vid=ebb56956-e2e2-4f51-8f7a-80ccc26c078c"},"vehicle_type_id":"4","last_reported":1735981724,"current_range_meters":28000,"station_id":"ce4bh2p2rcd13ifvqdi0","pricing_plan_id":"cebpf4jnsgd1na2vs0mg"},{"bike_id":"7653e4dc-dde3-44a0-90b1-c01d8f4ac579","system_id":"levelo_inurba_marseille","lat":43.23959,"lon":5.36629,"is_reserved":false,"is_disabled":false,"rental_uris":{"android":"levelo://app?vid=7653e4dc-dde3-44a0-90b1-c01d8f4ac579","ios":"levelo://app?vid=7653e4dc-dde3-44a0-90b1-c01d8f4ac579"},"vehicle_type_id":"4","last_reported":1735981724,"current_range_meters":4400,"station_id":"ce4bhi12rcd13ifvqfp0","pricing_plan_id":"cebpf4jnsgd1na2vs0mg"},{"bike_id":"46681a0e-77c7-4e8c-9bb0-8038ae70f7ff","system_id":"levelo_inurba_marseille","lat":43.30321,"lon":5.3688,"is_reserved":false,"is_disabled":false,"rental_uris":{"android":"levelo://app?vid=46681a0e-77c7-4e8c-9bb0-8038ae70f7ff","ios":"levelo://app?vid=46681a0e-77c7-4e8c-9bb0-8038ae70f7ff"},"vehicle_type_id":"4","last_reported":1735981724,"current_range_meters":38800,"station_id":"ce4bgqh2rcd13ifvqc5g","pricing_plan_id":"cebpf4jnsgd1na2vs0mg"},{"bike_id":"593d8424-f565-422e-8480-e0f50e2c043e","system_id":"levelo_inurba_marseille","lat":43.279549,"lon":5.387136,"is_reserved":false,"is_disabled":true,"rental_uris":{"android":"levelo://app?vid=593d8424-f565-422e-8480-e0f50e2c043e","ios":"levelo://app?vid=593d8424-f565-422e-8480-e0f50e2c043e"},"vehicle_type_id":"4","last_reported":1735981724,"current_range_meters":37600,"station_id":"ce4bhg12rcd13ifvqf80","pricing_plan_id":"cebpf4jnsgd1na2vs0mg"},{"bike_id":"53bf85fe-dd63-4844-ad95-abf78e8c02a9","system_id":"levelo_inurba_marseille","lat":43.30166,"lon":5.36645,"is_reserved":false,"is_disabled":false,"rental_uris":{"android":"levelo://app?vid=53bf85fe-dd63-4844-ad95-abf78e8c02a9","ios":"levelo://app?vid=53bf85fe-dd63-4844-ad95-abf78e8c02a9"},"vehicle_type_id":"4","last_reported":1735981724,"current_range_meters":34000,"station_id":"ce4bgrh2rcd13ifvqc8g","pricing_plan_id":"cebpf4jnsgd1na2vs0mg"},{"bike_id":"b2aa002a-204a-4b80-9d0b-d9f09c9d5fa1","system_id":"levelo_inurba_marseille","lat":43.33595,"lon":5.41019,"is_reserved":false,"is_disabled":false,"rental_uris":{"android":"levelo://app?vid=b2aa002a-204a-4b80-9d0b-d9f09c9d5fa1","ios":"levelo://app?vid=b2aa002a-204a-4b80-9d0b-d9f09c9d5fa1"},"vehicle_type_id":"4","last_reported":1735981724,"current_range_meters":24800,"station_id":"ce4bhqh2rcd13ifvqhmg","pricing_plan_id":"cebpf4jnsgd1na2vs0mg"},{"bike_id":"4c62a9c9-0708-418a-8f12-3d6b5bf1e1bd","system_id":"levelo_inurba_marseille","lat":43.243949,"lon":5.370506,"is_reserved":false,"is_disabled":false,"rental_uris":{"android":"levelo://app?vid=4c62a9c9-0708-418a-8f12-3d6b5bf1e1bd","ios":"levelo://app?vid=4c62a9c9-0708-418a-8f12-3d6b5bf1e1bd"},"vehicle_type_id":"4","last_reported":1735981724,"current_range_meters":25200,"station_id":"ce4bhhh2rcd13ifvqfk0","pricing_plan_id":"cebpf4jnsgd1na2vs0mg"},{"bike_id":"f1329035-10b7-43c1-ad3c-926dcf7a3b64","system_id":"levelo_inurba_marseille","lat":43.33021,"lon":5.39043,"is_reserved":false,"is_disabled":false,"rental_uris":{"android":"levelo://app?vid=f1329035-10b7-43c1-ad3c-926dcf7a3b64","ios":"levelo://app?vid=f1329035-10b7-43c1-ad3c-926dcf7a3b64"},"vehicle_type_id":"4","last_reported":1735981724,"current_range_meters":27200,"station_id":"ce4bhr92rcd13ifvqhrg","pricing_plan_id":"cebpf4jnsgd1na2vs0mg"},{"bike_id":"15d7971b-eed3-4b6e-8e61-b40a5a6478e8","system_id":"levelo_inurba_marseille","lat":43.30558,"lon":5.37258,"is_reserved":false,"is_disabled":false,"rental_uris":{"android":"levelo://app?vid=15d7971b-eed3-4b6e-8e61-b40a5a6478e8","ios":"levelo://app?vid=15d7971b-eed3-4b6e-8e61-b40a5a6478e8"},"vehicle_type_id":"4","last_reported":1735981724,"current_range_meters":38800,"station_id":"ce4bgqh2rcd13ifvqc4g","pricing_plan_id":"cebpf4jnsgd1na2vs0mg"},{"bike_id":"9d281a53-6992-4392-9438-72ec394ec5a5","system_id":"levelo_inurba_marseille","lat":43.243925,"lon":5.370586,"is_reserved":false,"is_disabled":false,"rental_uris":{"android":"levelo://app?vid=9d281a53-6992-4392-9438-72ec394ec5a5","ios":"levelo://app?vid=9d281a53-6992-4392-9438-72ec394ec5a5"},"vehicle_type_id":"4","last_reported":1735981724,"current_range_meters":6800,"station_id":"ce4bhhh2rcd13ifvqfk0","pricing_plan_id":"cebpf4jnsgd1na2vs0mg"},{"bike_id":"eb09bd5e-b0d3-4b59-b9d4-1e064baa5923","system_id":"levelo_inurba_marseille","lat":43.28031,"lon":5.36946,"is_reserved":false,"is_disabled":true,"rental_uris":{"android":"levelo://app?vid=eb09bd5e-b0d3-4b59-b9d4-1e064baa5923","ios":"levelo://app?vid=eb09bd5e-b0d3-4b59-b9d4-1e064baa5923"},"vehicle_type_id":"4","last_reported":1735981724,"current_range_meters":800,"station_id":"ce4bha12rcd13ifvqef0","pricing_plan_id":"cebpf4jnsgd1na2vs0mg"},{"bike_id":"6c92faae-448f-4fcd-b837-c7db2ff4caee","system_id":"levelo_inurba_marseille","lat":43.30646,"lon":5.40073,"is_reserved":false,"is_disabled":false,"rental_uris":{"android":"levelo://app?vid=6c92faae-448f-4fcd-b837-c7db2ff4caee","ios":"levelo://app?vid=6c92faae-448f-4fcd-b837-c7db2ff4caee"},"vehicle_type_id":"4","last_reported":1735981724,"current_range_meters":38000,"station_id":"ce4bh112rcd13ifvqda0","pricing_plan_id":"cebpf4jnsgd1na2vs0mg"},{"bike_id":"b3e2621b-8dba-4ed9-979c-bd4efd9c46e9","system_id":"levelo_inurba_marseille","lat":43.29183,"lon":5.39315,"is_reserved":false,"is_disabled":false,"rental_uris":{"android":"levelo://app?vid=b3e2621b-8dba-4ed9-979c-bd4efd9c46e9","ios":"levelo://app?vid=b3e2621b-8dba-4ed9-979c-bd4efd9c46e9"},"vehicle_type_id":"4","last_reported":1735981724,"current_range_meters":38800,"station_id":"ce4bh192rcd13ifvqdd0","pricing_plan_id":"cebpf4jnsgd1na2vs0mg"},{"bike_id":"7816c12e-61a1-48b1-b7a9-75d01de1e070","system_id":"levelo_inurba_marseille","lat":43.289398,"lon":5.363926,"is_reserved":false,"is_disabled":false,"rental_uris":{"android":"levelo://app?vid=7816c12e-61a1-48b1-b7a9-75d01de1e070","ios":"levelo://app?vid=7816c12e-61a1-48b1-b7a9-75d01de1e070"},"vehicle_type_id":"4","last_reported":1735981724,"current_range_meters":38800,"station_id":"ce4bhc92rcd13ifvqetg","pricing_plan_id":"cebpf4jnsgd1na2vs0mg"},{"bike_id":"06e769a5-6b27-4a95-b89e-e018e4e8e240","system_id":"levelo_inurba_marseille","lat":43.24996,"lon":5.38928,"is_reserved":false,"is_disabled":false,"rental_uris":{"android":"levelo://app?vid=06e769a5-6b27-4a95-b89e-e018e4e8e240","ios":"levelo://app?vid=06e769a5-6b27-4a95-b89e-e018e4e8e240"},"vehicle_type_id":"4","last_reported":1735981724,"current_range_meters":32400,"station_id":"ce4bhgp2rcd13ifvqfd0","pricing_plan_id":"cebpf4jnsgd1na2vs0mg"},{"bike_id":"8e73d16b-1acc-4f69-b015-05407354b4ca","system_id":"levelo_inurba_marseille","lat":43.28967,"lon":5.37833,"is_reserved":false,"is_disabled":false,"rental_uris":{"android":"levelo://app?vid=8e73d16b-1acc-4f69-b015-05407354b4ca","ios":"levelo://app?vid=8e73d16b-1acc-4f69-b015-05407354b4ca"},"vehicle_type_id":"4","last_reported":1735981724,"current_range_meters":24800,"station_id":"ce4bh9p2rcd13ifvqed0","pricing_plan_id":"cebpf4jnsgd1na2vs0mg"},{"bike_id":"8134c671-2ab1-454b-8dc5-429e4b508ef7","system_id":"levelo_inurba_marseille","lat":43.267994,"lon":5.402639,"is_reserved":false,"is_disabled":false,"rental_uris":{"android":"levelo://app?vid=8134c671-2ab1-454b-8dc5-429e4b508ef7","ios":"levelo://app?vid=8134c671-2ab1-454b-8dc5-429e4b508ef7"},"vehicle_type_id":"4","last_reported":1735981724,"current_range_meters":34800,"station_id":"ce501612rcd8frsf0b60","pricing_plan_id":"cebpf4jnsgd1na2vs0mg"},{"bike_id":"1edca33b-8d82-4613-945e-057a682428fe","system_id":"levelo_inurba_marseille","lat":43.33111,"lon":5.38238,"is_reserved":false,"is_disabled":false,"rental_uris":{"android":"levelo://app?vid=1edca33b-8d82-4613-945e-057a682428fe","ios":"levelo://app?vid=1edca33b-8d82-4613-945e-057a682428fe"},"vehicle_type_id":"4","last_reported":1735981724,"current_range_meters":30000,"station_id":"","pricing_plan_id":"cebpf4jnsgd1na2vs0mg"},{"bike_id":"845d9b78-445d-4305-8a60-563364d6a6ae","system_id":"levelo_inurba_marseille","lat":43.31324,"lon":5.39689,"is_reserved":false,"is_disabled":false,"rental_uris":{"android":"levelo://app?vid=845d9b78-445d-4305-8a60-563364d6a6ae","ios":"levelo://app?vid=845d9b78-445d-4305-8a60-563364d6a6ae"},"vehicle_type_id":"4","last_reported":1735981724,"current_range_meters":36800,"station_id":"ce4bgvp2rcd13ifvqcu0","pricing_plan_id":"cebpf4jnsgd1na2vs0mg"},{"bike_id":"fb0d5d50-2cba-4668-8a68-53b559a0ffc7","system_id":"levelo_inurba_marseille","lat":43.2466,"lon":5.38164,"is_reserved":false,"is_disabled":false,"rental_uris":{"android":"levelo://app?vid=fb0d5d50-2cba-4668-8a68-53b559a0ffc7","ios":"levelo://app?vid=fb0d5d50-2cba-4668-8a68-53b559a0ffc7"},"vehicle_type_id":"4","last_reported":1735981724,"current_range_meters":30800,"station_id":"ce4bhih2rcd13ifvqfr0","pricing_plan_id":"cebpf4jnsgd1na2vs0mg"},{"bike_id":"0c3b96ff-9de9-4b06-a81b-acb466115de3","system_id":"levelo_inurba_marseille","lat":43.25486,"lon":5.37655,"is_reserved":false,"is_disabled":false,"rental_uris":{"android":"levelo://app?vid=0c3b96ff-9de9-4b06-a81b-acb466115de3","ios":"levelo://app?vid=0c3b96ff-9de9-4b06-a81b-acb466115de3"},"vehicle_type_id":"4","last_reported":1735981724,"current_range_meters":38000,"station_id":"ce4bhh12rcd13ifvqff0","pricing_plan_id":"cebpf4jnsgd1na2vs0mg"},{"bike_id":"7f19a19c-d1b3-49ca-8538-1dc8022ef981","system_id":"levelo_inurba_marseille","lat":43.32081,"lon":5.36803,"is_reserved":false,"is_disabled":false,"rental_uris":{"android":"levelo://app?vid=7f19a19c-d1b3-49ca-8538-1dc8022ef981","ios":"levelo://app?vid=7f19a19c-d1b3-49ca-8538-1dc8022ef981"},"vehicle_type_id":"4","last_reported":1735981724,"current_range_meters":20800,"station_id":"ce4bhrh2rcd13ifvqhug","pricing_plan_id":"cebpf4jnsgd1na2vs0mg"},{"bike_id":"938f72f5-d3ed-4ad0-b720-47ecf0cb2559","system_id":"levelo_inurba_marseille","lat":43.28565,"lon":5.3948,"is_reserved":false,"is_disabled":false,"rental_uris":{"android":"levelo://app?vid=938f72f5-d3ed-4ad0-b720-47ecf0cb2559","ios":"levelo://app?vid=938f72f5-d3ed-4ad0-b720-47ecf0cb2559"},"vehicle_type_id":"4","last_reported":1735981724,"current_range_meters":38800,"station_id":"ce4bh292rcd13ifvqdg0","pricing_plan_id":"cebpf4jnsgd1na2vs0mg"},{"bike_id":"7b8829d7-1e14-4eeb-a440-279490140959","system_id":"levelo_inurba_marseille","lat":43.30432,"lon":5.39745,"is_reserved":false,"is_disabled":false,"rental_uris":{"android":"levelo://app?vid=7b8829d7-1e14-4eeb-a440-279490140959","ios":"levelo://app?vid=7b8829d7-1e14-4eeb-a440-279490140959"},"vehicle_type_id":"4","last_reported":1735981724,"current_range_meters":39200,"station_id":"ce4bh092rcd13ifvqd20","pricing_plan_id":"cebpf4jnsgd1na2vs0mg"},{"bike_id":"22dcddca-903e-4320-8758-4e730ed46e04","system_id":"levelo_inurba_marseille","lat":43.30881,"lon":5.39653,"is_reserved":false,"is_disabled":false,"rental_uris":{"android":"levelo://app?vid=22dcddca-903e-4320-8758-4e730ed46e04","ios":"levelo://app?vid=22dcddca-903e-4320-8758-4e730ed46e04"},"vehicle_type_id":"4","last_reported":1735981724,"current_range_meters":10000,"station_id":"ce4bh012rcd13ifvqcv0","pricing_plan_id":"cebpf4jnsgd1na2vs0mg"},{"bike_id":"30b3b5b5-0e21-47d4-8b6a-303cb84c90ef","system_id":"levelo_inurba_marseille","lat":43.30952,"lon":5.39046,"is_reserved":false,"is_disabled":false,"rental_uris":{"android":"levelo://app?vid=30b3b5b5-0e21-47d4-8b6a-303cb84c90ef","ios":"levelo://app?vid=30b3b5b5-0e21-47d4-8b6a-303cb84c90ef"},"vehicle_type_id":"4","last_reported":1735981724,"current_range_meters":34000,"station_id":"ce4bgup2rcd13ifvqco0","pricing_plan_id":"cebpf4jnsgd1na2vs0mg"},{"bike_id":"900befed-316a-4022-9675-3a013ee278fe","system_id":"levelo_inurba_marseille","lat":43.32353,"lon":5.36766,"is_reserved":false,"is_disabled":true,"rental_uris":{"android":"levelo://app?vid=900befed-316a-4022-9675-3a013ee278fe","ios":"levelo://app?vid=900befed-316a-4022-9675-3a013ee278fe"},"vehicle_type_id":"4","last_reported":1735981724,"current_range_meters":30400,"station_id":"ce4bhsh2rcd13ifvqi2g","pricing_plan_id":"cebpf4jnsgd1na2vs0mg"},{"bike_id":"2d501b20-a059-4090-bcbd-11ae141d8fcf","system_id":"levelo_inurba_marseille","lat":43.28699,"lon":5.37412,"is_reserved":false,"is_disabled":false,"rental_uris":{"android":"levelo://app?vid=2d501b20-a059-4090-bcbd-11ae141d8fcf","ios":"levelo://app?vid=2d501b20-a059-4090-bcbd-11ae141d8fcf"},"vehicle_type_id":"4","last_reported":1735981724,"current_range_meters":30800,"station_id":"ce4bh3p2rcd13ifvqdq0","pricing_plan_id":"cebpf4jnsgd1na2vs0mg"},{"bike_id":"3c7472a4-a45c-4f46-a692-aa44ebf92f21","system_id":"levelo_inurba_marseille","lat":43.27415,"lon":5.39417,"is_reserved":false,"is_disabled":false,"rental_uris":{"android":"levelo://app?vid=3c7472a4-a45c-4f46-a692-aa44ebf92f21","ios":"levelo://app?vid=3c7472a4-a45c-4f46-a692-aa44ebf92f21"},"vehicle_type_id":"4","last_reported":1735981724,"current_range_meters":28000,"station_id":"ce4bhdp2rcd13ifvqf20","pricing_plan_id":"cebpf4jnsgd1na2vs0mg"},{"bike_id":"058ecb54-af3e-4e44-a703-6e3c9b29c958","system_id":"levelo_inurba_marseille","lat":43.29024,"lon":5.35599,"is_reserved":false,"is_disabled":false,"rental_uris":{"android":"levelo://app?vid=058ecb54-af3e-4e44-a703-6e3c9b29c958","ios":"levelo://app?vid=058ecb54-af3e-4e44-a703-6e3c9b29c958"},"vehicle_type_id":"4","last_reported":1735981724,"current_range_meters":38400,"station_id":"ce4bhb92rcd13ifvqen0","pricing_plan_id":"cebpf4jnsgd1na2vs0mg"},{"bike_id":"9b70e635-2e52-4bee-a3b5-8172684c1be9","system_id":"levelo_inurba_marseille","lat":43.31906,"lon":5.40737,"is_reserved":false,"is_disabled":false,"rental_uris":{"android":"levelo://app?vid=9b70e635-2e52-4bee-a3b5-8172684c1be9","ios":"levelo://app?vid=9b70e635-2e52-4bee-a3b5-8172684c1be9"},"vehicle_type_id":"4","last_reported":1735981724,"current_range_meters":36400,"station_id":"ce4bhq12rcd13ifvqhig","pricing_plan_id":"cebpf4jnsgd1na2vs0mg"},{"bike_id":"f0ead5dd-c086-40ba-b637-5a58405b88b0","system_id":"levelo_inurba_marseille","lat":43.25099,"lon":5.40323,"is_reserved":false,"is_disabled":true,"rental_uris":{"android":"levelo://app?vid=f0ead5dd-c086-40ba-b637-5a58405b88b0","ios":"levelo://app?vid=f0ead5dd-c086-40ba-b637-5a58405b88b0"},"vehicle_type_id":"4","last_reported":1735981724,"current_range_meters":1600,"station_id":"ce4bhlh2rcd13ifvqgig","pricing_plan_id":"cebpf4jnsgd1na2vs0mg"},{"bike_id":"b5b2166a-b0b8-4fc4-9960-24fcf8dddf0c","system_id":"levelo_inurba_marseille","lat":43.29183,"lon":5.37713,"is_reserved":false,"is_disabled":false,"rental_uris":{"android":"levelo://app?vid=b5b2166a-b0b8-4fc4-9960-24fcf8dddf0c","ios":"levelo://app?vid=b5b2166a-b0b8-4fc4-9960-24fcf8dddf0c"},"vehicle_type_id":"4","last_reported":1735981724,"current_range_meters":8400,"station_id":"","pricing_plan_id":"cebpf4jnsgd1na2vs0mg"},{"bike_id":"ea7050ff-7aa9-43ba-b203-b876f0962480","system_id":"levelo_inurba_marseille","lat":43.28009,"lon":5.40002,"is_reserved":false,"is_disabled":true,"rental_uris":{"android":"levelo://app?vid=ea7050ff-7aa9-43ba-b203-b876f0962480","ios":"levelo://app?vid=ea7050ff-7aa9-43ba-b203-b876f0962480"},"vehicle_type_id":"4","last_reported":1735981724,"current_range_meters":0,"station_id":"ce4bho92rcd13ifvqh4g","pricing_plan_id":"cebpf4jnsgd1na2vs0mg"},{"bike_id":"ace1766f-9b12-46d0-9afa-fd9b29f81ec7","system_id":"levelo_inurba_marseille","lat":43.30438,"lon":5.38891,"is_reserved":false,"is_disabled":false,"rental_uris":{"android":"levelo://app?vid=ace1766f-9b12-46d0-9afa-fd9b29f81ec7","ios":"levelo://app?vid=ace1766f-9b12-46d0-9afa-fd9b29f81ec7"},"vehicle_type_id":"4","last_reported":1735981724,"current_range_meters":36400,"station_id":"ce4bgk12rcd13ifvqbi0","pricing_plan_id":"cebpf4jnsgd1na2vs0mg"},{"bike_id":"13e1d001-5304-4440-8773-a99209b55da5","system_id":"levelo_inurba_marseille","lat":43.267912,"lon":5.394229,"is_reserved":false,"is_disabled":false,"rental_uris":{"android":"levelo://app?vid=13e1d001-5304-4440-8773-a99209b55da5","ios":"levelo://app?vid=13e1d001-5304-4440-8773-a99209b55da5"},"vehicle_type_id":"4","last_reported":1735981724,"current_range_meters":38000,"station_id":"ce4bhh12rcd13ifvqfg0","pricing_plan_id":"cebpf4jnsgd1na2vs0mg"},{"bike_id":"013a03d3-efe2-4f14-ab94-9d9f117fe332","system_id":"levelo_inurba_marseille","lat":43.26562,"lon":5.37284,"is_reserved":false,"is_disabled":true,"rental_uris":{"android":"levelo://app?vid=013a03d3-efe2-4f14-ab94-9d9f117fe332","ios":"levelo://app?vid=013a03d3-efe2-4f14-ab94-9d9f117fe332"},"vehicle_type_id":"4","last_reported":1735981724,"current_range_meters":0,"station_id":"ce4bhg12rcd13ifvqf70","pricing_plan_id":"cebpf4jnsgd1na2vs0mg"},{"bike_id":"2332862a-3884-4317-af82-ee9793e9b62c","system_id":"levelo_inurba_marseille","lat":43.24085,"lon":5.3772,"is_reserved":false,"is_disabled":false,"rental_uris":{"android":"levelo://app?vid=2332862a-3884-4317-af82-ee9793e9b62c","ios":"levelo://app?vid=2332862a-3884-4317-af82-ee9793e9b62c"},"vehicle_type_id":"4","last_reported":1735981724,"current_range_meters":17200,"station_id":"ce4bhnp2rcd13ifvqgvg","pricing_plan_id":"cebpf4jnsgd1na2vs0mg"},{"bike_id":"2dc8a66d-24cf-4895-80e5-0d94d1246134","system_id":"levelo_inurba_marseille","lat":43.28018,"lon":5.36925,"is_reserved":false,"is_disabled":false,"rental_uris":{"android":"levelo://app?vid=2dc8a66d-24cf-4895-80e5-0d94d1246134","ios":"levelo://app?vid=2dc8a66d-24cf-4895-80e5-0d94d1246134"},"vehicle_type_id":"4","last_reported":1735981724,"current_range_meters":17200,"station_id":"ce4bha12rcd13ifvqef0","pricing_plan_id":"cebpf4jnsgd1na2vs0mg"},{"bike_id":"2a583d9b-e42e-4633-b002-dbbb4f9b26aa","system_id":"levelo_inurba_marseille","lat":43.29948,"lon":5.365467,"is_reserved":false,"is_disabled":false,"rental_uris":{"android":"levelo://app?vid=2a583d9b-e42e-4633-b002-dbbb4f9b26aa","ios":"levelo://app?vid=2a583d9b-e42e-4633-b002-dbbb4f9b26aa"},"vehicle_type_id":"4","last_reported":1735981724,"current_range_meters":22000,"station_id":"ce4bgm92rcd13ifvqbr0","pricing_plan_id":"cebpf4jnsgd1na2vs0mg"},{"bike_id":"d0943ec1-121d-4618-a29a-f7c35af8f741","system_id":"levelo_inurba_marseille","lat":43.25105,"lon":5.404,"is_reserved":false,"is_disabled":false,"rental_uris":{"android":"levelo://app?vid=d0943ec1-121d-4618-a29a-f7c35af8f741","ios":"levelo://app?vid=d0943ec1-121d-4618-a29a-f7c35af8f741"},"vehicle_type_id":"4","last_reported":1735981724,"current_range_meters":16000,"station_id":"","pricing_plan_id":"cebpf4jnsgd1na2vs0mg"},{"bike_id":"1bef6aa8-dfb3-4775-a671-aae48ecae94c","system_id":"levelo_inurba_marseille","lat":43.28157,"lon":5.42642,"is_reserved":false,"is_disabled":false,"rental_uris":{"android":"levelo://app?vid=1bef6aa8-dfb3-4775-a671-aae48ecae94c","ios":"levelo://app?vid=1bef6aa8-dfb3-4775-a671-aae48ecae94c"},"vehicle_type_id":"4","last_reported":1735981724,"current_range_meters":2800,"station_id":"ce4bhnh2rcd13ifvqgug","pricing_plan_id":"cebpf4jnsgd1na2vs0mg"},{"bike_id":"af6f5cf6-fe33-49d4-9b2b-a069d115dde7","system_id":"levelo_inurba_marseille","lat":43.29854,"lon":5.36299,"is_reserved":false,"is_disabled":false,"rental_uris":{"android":"levelo://app?vid=af6f5cf6-fe33-49d4-9b2b-a069d115dde7","ios":"levelo://app?vid=af6f5cf6-fe33-49d4-9b2b-a069d115dde7"},"vehicle_type_id":"4","last_reported":1735981724,"current_range_meters":19600,"station_id":"ce4bgpp2rcd13ifvqc3g","pricing_plan_id":"cebpf4jnsgd1na2vs0mg"},{"bike_id":"3a269826-99f7-4419-932c-0eb0bed13f31","system_id":"levelo_inurba_marseille","lat":43.23963,"lon":5.36616,"is_reserved":false,"is_disabled":false,"rental_uris":{"android":"levelo://app?vid=3a269826-99f7-4419-932c-0eb0bed13f31","ios":"levelo://app?vid=3a269826-99f7-4419-932c-0eb0bed13f31"},"vehicle_type_id":"4","last_reported":1735981724,"current_range_meters":25600,"station_id":"ce4bhi12rcd13ifvqfp0","pricing_plan_id":"cebpf4jnsgd1na2vs0mg"},{"bike_id":"187242c6-6bf3-4f6c-be6f-031703a6b4d1","system_id":"levelo_inurba_marseille","lat":43.25123,"lon":5.40312,"is_reserved":false,"is_disabled":false,"rental_uris":{"android":"levelo://app?vid=187242c6-6bf3-4f6c-be6f-031703a6b4d1","ios":"levelo://app?vid=187242c6-6bf3-4f6c-be6f-031703a6b4d1"},"vehicle_type_id":"4","last_reported":1735981724,"current_range_meters":27200,"station_id":"ce4bhlh2rcd13ifvqgig","pricing_plan_id":"cebpf4jnsgd1na2vs0mg"},{"bike_id":"01a892c4-6d34-4a6b-9f97-5324cd46aa08","system_id":"levelo_inurba_marseille","lat":43.2897,"lon":5.37836,"is_reserved":false,"is_disabled":true,"rental_uris":{"android":"levelo://app?vid=01a892c4-6d34-4a6b-9f97-5324cd46aa08","ios":"levelo://app?vid=01a892c4-6d34-4a6b-9f97-5324cd46aa08"},"vehicle_type_id":"4","last_reported":1735981724,"current_range_meters":38400,"station_id":"ce4bh9p2rcd13ifvqed0","pricing_plan_id":"cebpf4jnsgd1na2vs0mg"},{"bike_id":"7ab9c58a-6b74-449b-aa1a-6a6ce724462a","system_id":"levelo_inurba_marseille","lat":43.28396,"lon":5.39202,"is_reserved":false,"is_disabled":false,"rental_uris":{"android":"levelo://app?vid=7ab9c58a-6b74-449b-aa1a-6a6ce724462a","ios":"levelo://app?vid=7ab9c58a-6b74-449b-aa1a-6a6ce724462a"},"vehicle_type_id":"4","last_reported":1735981724,"current_range_meters":36400,"station_id":"","pricing_plan_id":"cebpf4jnsgd1na2vs0mg"},{"bike_id":"9a483109-5bce-4e89-a527-a3ced035742c","system_id":"levelo_inurba_marseille","lat":43.23199,"lon":5.35545,"is_reserved":false,"is_disabled":false,"rental_uris":{"android":"levelo://app?vid=9a483109-5bce-4e89-a527-a3ced035742c","ios":"levelo://app?vid=9a483109-5bce-4e89-a527-a3ced035742c"},"vehicle_type_id":"4","last_reported":1735981724,"current_range_meters":17200,"station_id":"ce4bhu92rcd13ifvqi70","pricing_plan_id":"cebpf4jnsgd1na2vs0mg"},{"bike_id":"d085f58b-745f-4180-b55b-83a215dc4056","system_id":"levelo_inurba_marseille","lat":43.27944,"lon":5.38731,"is_reserved":false,"is_disabled":false,"rental_uris":{"android":"levelo://app?vid=d085f58b-745f-4180-b55b-83a215dc4056","ios":"levelo://app?vid=d085f58b-745f-4180-b55b-83a215dc4056"},"vehicle_type_id":"4","last_reported":1735981724,"current_range_meters":26800,"station_id":"ce4bhg12rcd13ifvqf80","pricing_plan_id":"cebpf4jnsgd1na2vs0mg"},{"bike_id":"9767a411-20b8-4e49-a743-3c20e32e11d3","system_id":"levelo_inurba_marseille","lat":43.2737,"lon":5.3626,"is_reserved":false,"is_disabled":false,"rental_uris":{"android":"levelo://app?vid=9767a411-20b8-4e49-a743-3c20e32e11d3","ios":"levelo://app?vid=9767a411-20b8-4e49-a743-3c20e32e11d3"},"vehicle_type_id":"4","last_reported":1735981724,"current_range_meters":24000,"station_id":"ce4bhbh2rcd13ifvqeo0","pricing_plan_id":"cebpf4jnsgd1na2vs0mg"},{"bike_id":"c38119df-a0cc-4d53-851b-aebce98309d3","system_id":"levelo_inurba_marseille","lat":43.25012,"lon":5.38913,"is_reserved":false,"is_disabled":false,"rental_uris":{"android":"levelo://app?vid=c38119df-a0cc-4d53-851b-aebce98309d3","ios":"levelo://app?vid=c38119df-a0cc-4d53-851b-aebce98309d3"},"vehicle_type_id":"4","last_reported":1735981724,"current_range_meters":5600,"station_id":"ce4bhgp2rcd13ifvqfd0","pricing_plan_id":"cebpf4jnsgd1na2vs0mg"},{"bike_id":"cf669915-023b-4e4f-930d-6fbbd965c40e","system_id":"levelo_inurba_marseille","lat":43.29199,"lon":5.39305,"is_reserved":false,"is_disabled":false,"rental_uris":{"android":"levelo://app?vid=cf669915-023b-4e4f-930d-6fbbd965c40e","ios":"levelo://app?vid=cf669915-023b-4e4f-930d-6fbbd965c40e"},"vehicle_type_id":"4","last_reported":1735981724,"current_range_meters":38800,"station_id":"ce4bh192rcd13ifvqdd0","pricing_plan_id":"cebpf4jnsgd1na2vs0mg"},{"bike_id":"969c8a84-cf60-4395-8c81-a1d2e7dc81af","system_id":"levelo_inurba_marseille","lat":43.25857,"lon":5.39915,"is_reserved":false,"is_disabled":false,"rental_uris":{"android":"levelo://app?vid=969c8a84-cf60-4395-8c81-a1d2e7dc81af","ios":"levelo://app?vid=969c8a84-cf60-4395-8c81-a1d2e7dc81af"},"vehicle_type_id":"4","last_reported":1735981724,"current_range_meters":22000,"station_id":"ce4bhl92rcd13ifvqghg","pricing_plan_id":"cebpf4jnsgd1na2vs0mg"},{"bike_id":"6c01899f-f768-4219-a021-e1ffd97d60be","system_id":"levelo_inurba_marseille","lat":43.29772,"lon":5.37102,"is_reserved":false,"is_disabled":false,"rental_uris":{"android":"levelo://app?vid=6c01899f-f768-4219-a021-e1ffd97d60be","ios":"levelo://app?vid=6c01899f-f768-4219-a021-e1ffd97d60be"},"vehicle_type_id":"4","last_reported":1735981724,"current_range_meters":36000,"station_id":"ce4bgop2rcd13ifvqc1g","pricing_plan_id":"cebpf4jnsgd1na2vs0mg"},{"bike_id":"d06765fb-ae36-4bd9-824c-0b5234000b68","system_id":"levelo_inurba_marseille","lat":43.25111,"lon":5.40323,"is_reserved":false,"is_disabled":false,"rental_uris":{"android":"levelo://app?vid=d06765fb-ae36-4bd9-824c-0b5234000b68","ios":"levelo://app?vid=d06765fb-ae36-4bd9-824c-0b5234000b68"},"vehicle_type_id":"4","last_reported":1735981724,"current_range_meters":38800,"station_id":"ce4bhlh2rcd13ifvqgig","pricing_plan_id":"cebpf4jnsgd1na2vs0mg"},{"bike_id":"e62a9961-12fa-4314-af24-7ed97deb9ffe","system_id":"levelo_inurba_marseille","lat":43.313717,"lon":5.3857,"is_reserved":false,"is_disabled":false,"rental_uris":{"android":"levelo://app?vid=e62a9961-12fa-4314-af24-7ed97deb9ffe","ios":"levelo://app?vid=e62a9961-12fa-4314-af24-7ed97deb9ffe"},"vehicle_type_id":"4","last_reported":1735981724,"current_range_meters":13600,"station_id":"","pricing_plan_id":"cebpf4jnsgd1na2vs0mg"},{"bike_id":"f3d41f41-839d-41a5-aa6d-f2ba87ff18f0","system_id":"levelo_inurba_marseille","lat":43.24081,"lon":5.37755,"is_reserved":false,"is_disabled":true,"rental_uris":{"android":"levelo://app?vid=f3d41f41-839d-41a5-aa6d-f2ba87ff18f0","ios":"levelo://app?vid=f3d41f41-839d-41a5-aa6d-f2ba87ff18f0"},"vehicle_type_id":"4","last_reported":1735981724,"current_range_meters":400,"station_id":"ce4bhnp2rcd13ifvqgvg","pricing_plan_id":"cebpf4jnsgd1na2vs0mg"},{"bike_id":"6d14468d-d4fe-4fb2-b1d6-ebb52c384fb6","system_id":"levelo_inurba_marseille","lat":43.319931,"lon":5.381504,"is_reserved":false,"is_disabled":false,"rental_uris":{"android":"levelo://app?vid=6d14468d-d4fe-4fb2-b1d6-ebb52c384fb6","ios":"levelo://app?vid=6d14468d-d4fe-4fb2-b1d6-ebb52c384fb6"},"vehicle_type_id":"4","last_reported":1735981724,"current_range_meters":37600,"station_id":"ce4bhr12rcd13ifvqhpg","pricing_plan_id":"cebpf4jnsgd1na2vs0mg"},{"bike_id":"4b03cd5f-9e8c-4d47-9e0b-af68ce649735","system_id":"levelo_inurba_marseille","lat":43.28935,"lon":5.39638,"is_reserved":false,"is_disabled":false,"rental_uris":{"android":"levelo://app?vid=4b03cd5f-9e8c-4d47-9e0b-af68ce649735","ios":"levelo://app?vid=4b03cd5f-9e8c-4d47-9e0b-af68ce649735"},"vehicle_type_id":"4","last_reported":1735981724,"current_range_meters":38800,"station_id":"ce4bh3h2rcd13ifvqdn0","pricing_plan_id":"cebpf4jnsgd1na2vs0mg"},{"bike_id":"2f857458-45ae-4306-9ffb-5d94252d59a5","system_id":"levelo_inurba_marseille","lat":43.24613,"lon":5.38925,"is_reserved":false,"is_disabled":false,"rental_uris":{"android":"levelo://app?vid=2f857458-45ae-4306-9ffb-5d94252d59a5","ios":"levelo://app?vid=2f857458-45ae-4306-9ffb-5d94252d59a5"},"vehicle_type_id":"4","last_reported":1735981724,"current_range_meters":38800,"station_id":"ce4bhg12rcd13ifvqf60","pricing_plan_id":"cebpf4jnsgd1na2vs0mg"},{"bike_id":"1bc3f17f-3a03-40ea-93bc-69b7882c5876","system_id":"levelo_inurba_marseille","lat":43.33725,"lon":5.39168,"is_reserved":false,"is_disabled":false,"rental_uris":{"android":"levelo://app?vid=1bc3f17f-3a03-40ea-93bc-69b7882c5876","ios":"levelo://app?vid=1bc3f17f-3a03-40ea-93bc-69b7882c5876"},"vehicle_type_id":"4","last_reported":1735981724,"current_range_meters":38800,"station_id":"ce4bhr92rcd13ifvqhsg","pricing_plan_id":"cebpf4jnsgd1na2vs0mg"},{"bike_id":"7b78d5e2-5142-402d-a4f8-0f3037a6c533","system_id":"levelo_inurba_marseille","lat":43.26953,"lon":5.3862,"is_reserved":false,"is_disabled":true,"rental_uris":{"android":"levelo://app?vid=7b78d5e2-5142-402d-a4f8-0f3037a6c533","ios":"levelo://app?vid=7b78d5e2-5142-402d-a4f8-0f3037a6c533"},"vehicle_type_id":"4","last_reported":1735981724,"current_range_meters":12800,"station_id":"ce4bhh92rcd13ifvqfh0","pricing_plan_id":"cebpf4jnsgd1na2vs0mg"},{"bike_id":"cbb6eaa8-2a66-410e-9a99-0cc5daa01219","system_id":"levelo_inurba_marseille","lat":43.290016,"lon":5.356162,"is_reserved":false,"is_disabled":true,"rental_uris":{"android":"levelo://app?vid=cbb6eaa8-2a66-410e-9a99-0cc5daa01219","ios":"levelo://app?vid=cbb6eaa8-2a66-410e-9a99-0cc5daa01219"},"vehicle_type_id":"4","last_reported":1735981724,"current_range_meters":38800,"station_id":"ce4bhb92rcd13ifvqen0","pricing_plan_id":"cebpf4jnsgd1na2vs0mg"},{"bike_id":"00b0c897-4e8f-453d-8e9d-6135317dff3d","system_id":"levelo_inurba_marseille","lat":43.2955,"lon":5.4229,"is_reserved":false,"is_disabled":false,"rental_uris":{"android":"levelo://app?vid=00b0c897-4e8f-453d-8e9d-6135317dff3d","ios":"levelo://app?vid=00b0c897-4e8f-453d-8e9d-6135317dff3d"},"vehicle_type_id":"4","last_reported":1735981724,"current_range_meters":38000,"station_id":"ce4bhph2rcd13ifvqhdg","pricing_plan_id":"cebpf4jnsgd1na2vs0mg"},{"bike_id":"d0d21930-fe1d-478b-8251-bcf89564599d","system_id":"levelo_inurba_marseille","lat":43.29549,"lon":5.42274,"is_reserved":false,"is_disabled":false,"rental_uris":{"android":"levelo://app?vid=d0d21930-fe1d-478b-8251-bcf89564599d","ios":"levelo://app?vid=d0d21930-fe1d-478b-8251-bcf89564599d"},"vehicle_type_id":"4","last_reported":1735981724,"current_range_meters":30000,"station_id":"ce4bhph2rcd13ifvqhdg","pricing_plan_id":"cebpf4jnsgd1na2vs0mg"},{"bike_id":"555f7e8a-25ab-41f1-ab6e-3a9e595ad032","system_id":"levelo_inurba_marseille","lat":43.29974,"lon":5.37157,"is_reserved":false,"is_disabled":false,"rental_uris":{"android":"levelo://app?vid=555f7e8a-25ab-41f1-ab6e-3a9e595ad032","ios":"levelo://app?vid=555f7e8a-25ab-41f1-ab6e-3a9e595ad032"},"vehicle_type_id":"4","last_reported":1735981724,"current_range_meters":38800,"station_id":"ce4bgr92rcd13ifvqc7g","pricing_plan_id":"cebpf4jnsgd1na2vs0mg"},{"bike_id":"2f49ac25-7e9b-47de-b5b7-0ed2eac30efa","system_id":"levelo_inurba_marseille","lat":43.29227,"lon":5.36057,"is_reserved":false,"is_disabled":false,"rental_uris":{"android":"levelo://app?vid=2f49ac25-7e9b-47de-b5b7-0ed2eac30efa","ios":"levelo://app?vid=2f49ac25-7e9b-47de-b5b7-0ed2eac30efa"},"vehicle_type_id":"4","last_reported":1735981724,"current_range_meters":30800,"station_id":"ce4bhbh2rcd13ifvqeqg","pricing_plan_id":"cebpf4jnsgd1na2vs0mg"},{"bike_id":"7facf5dc-2dca-40fb-abf1-f4666c23c735","system_id":"levelo_inurba_marseille","lat":43.26707,"lon":5.38267,"is_reserved":false,"is_disabled":false,"rental_uris":{"android":"levelo://app?vid=7facf5dc-2dca-40fb-abf1-f4666c23c735","ios":"levelo://app?vid=7facf5dc-2dca-40fb-abf1-f4666c23c735"},"vehicle_type_id":"4","last_reported":1735981724,"current_range_meters":27200,"station_id":"ce4bhg92rcd13ifvqf90","pricing_plan_id":"cebpf4jnsgd1na2vs0mg"},{"bike_id":"a1603220-b838-47d6-aacb-47e7d4b1014c","system_id":"levelo_inurba_marseille","lat":43.26197,"lon":5.37929,"is_reserved":false,"is_disabled":false,"rental_uris":{"android":"levelo://app?vid=a1603220-b838-47d6-aacb-47e7d4b1014c","ios":"levelo://app?vid=a1603220-b838-47d6-aacb-47e7d4b1014c"},"vehicle_type_id":"4","last_reported":1735981724,"current_range_meters":39200,"station_id":"ce4bhjp2rcd13ifvqg90","pricing_plan_id":"cebpf4jnsgd1na2vs0mg"},{"bike_id":"1237c156-cfa6-45ec-9298-949dcdbd11b6","system_id":"levelo_inurba_marseille","lat":43.27373,"lon":5.36243,"is_reserved":false,"is_disabled":false,"rental_uris":{"android":"levelo://app?vid=1237c156-cfa6-45ec-9298-949dcdbd11b6","ios":"levelo://app?vid=1237c156-cfa6-45ec-9298-949dcdbd11b6"},"vehicle_type_id":"4","last_reported":1735981724,"current_range_meters":37600,"station_id":"ce4bhbh2rcd13ifvqeo0","pricing_plan_id":"cebpf4jnsgd1na2vs0mg"},{"bike_id":"cb9ddef6-e3ca-4d83-8257-6a73eb8266c6","system_id":"levelo_inurba_marseille","lat":43.326569,"lon":5.409918,"is_reserved":false,"is_disabled":false,"rental_uris":{"android":"levelo://app?vid=cb9ddef6-e3ca-4d83-8257-6a73eb8266c6","ios":"levelo://app?vid=cb9ddef6-e3ca-4d83-8257-6a73eb8266c6"},"vehicle_type_id":"4","last_reported":1735981724,"current_range_meters":36400,"station_id":"ce4bhpp2rcd13ifvqhgg","pricing_plan_id":"cebpf4jnsgd1na2vs0mg"},{"bike_id":"7b9e134f-1d5b-46f5-87f8-6cc312c5778f","system_id":"levelo_inurba_marseille","lat":43.229374,"lon":5.353689,"is_reserved":false,"is_disabled":false,"rental_uris":{"android":"levelo://app?vid=7b9e134f-1d5b-46f5-87f8-6cc312c5778f","ios":"levelo://app?vid=7b9e134f-1d5b-46f5-87f8-6cc312c5778f"},"vehicle_type_id":"4","last_reported":1735981724,"current_range_meters":38000,"station_id":"cpo3532slgdg3j2ikp40","pricing_plan_id":"cebpf4jnsgd1na2vs0mg"},{"bike_id":"c0a41200-1ce4-4b17-a1dd-d6d86b277ca4","system_id":"levelo_inurba_marseille","lat":43.28006,"lon":5.36955,"is_reserved":false,"is_disabled":false,"rental_uris":{"android":"levelo://app?vid=c0a41200-1ce4-4b17-a1dd-d6d86b277ca4","ios":"levelo://app?vid=c0a41200-1ce4-4b17-a1dd-d6d86b277ca4"},"vehicle_type_id":"4","last_reported":1735981724,"current_range_meters":38800,"station_id":"ce4bha12rcd13ifvqef0","pricing_plan_id":"cebpf4jnsgd1na2vs0mg"},{"bike_id":"7d2e0d05-7ab3-455c-a664-00e17370d396","system_id":"levelo_inurba_marseille","lat":43.2921,"lon":5.36078,"is_reserved":false,"is_disabled":true,"rental_uris":{"android":"levelo://app?vid=7d2e0d05-7ab3-455c-a664-00e17370d396","ios":"levelo://app?vid=7d2e0d05-7ab3-455c-a664-00e17370d396"},"vehicle_type_id":"4","last_reported":1735981724,"current_range_meters":6000,"station_id":"ce4bhbh2rcd13ifvqeqg","pricing_plan_id":"cebpf4jnsgd1na2vs0mg"},{"bike_id":"5910f076-ad11-493e-bce0-d145456e23af","system_id":"levelo_inurba_marseille","lat":43.27069,"lon":5.42279,"is_reserved":false,"is_disabled":false,"rental_uris":{"android":"levelo://app?vid=5910f076-ad11-493e-bce0-d145456e23af","ios":"levelo://app?vid=5910f076-ad11-493e-bce0-d145456e23af"},"vehicle_type_id":"4","last_reported":1735981724,"current_range_meters":22000,"station_id":"ce4bhk92rcd13ifvqgb0","pricing_plan_id":"cebpf4jnsgd1na2vs0mg"},{"bike_id":"b6bb9f04-4321-49e9-99be-1ec01f122623","system_id":"levelo_inurba_marseille","lat":43.2742,"lon":5.39386,"is_reserved":false,"is_disabled":false,"rental_uris":{"android":"levelo://app?vid=b6bb9f04-4321-49e9-99be-1ec01f122623","ios":"levelo://app?vid=b6bb9f04-4321-49e9-99be-1ec01f122623"},"vehicle_type_id":"4","last_reported":1735981724,"current_range_meters":39200,"station_id":"ce4bhdp2rcd13ifvqf20","pricing_plan_id":"cebpf4jnsgd1na2vs0mg"},{"bike_id":"34825794-d565-4dbd-8cbe-c88df4608f04","system_id":"levelo_inurba_marseille","lat":43.27806,"lon":5.40718,"is_reserved":false,"is_disabled":false,"rental_uris":{"android":"levelo://app?vid=34825794-d565-4dbd-8cbe-c88df4608f04","ios":"levelo://app?vid=34825794-d565-4dbd-8cbe-c88df4608f04"},"vehicle_type_id":"4","last_reported":1735981724,"current_range_meters":37600,"station_id":"ce4bhnh2rcd13ifvqgtg","pricing_plan_id":"cebpf4jnsgd1na2vs0mg"},{"bike_id":"bbd6df7e-268c-4caa-9369-7ab62491865e","system_id":"levelo_inurba_marseille","lat":43.30545,"lon":5.36555,"is_reserved":false,"is_disabled":false,"rental_uris":{"android":"levelo://app?vid=bbd6df7e-268c-4caa-9369-7ab62491865e","ios":"levelo://app?vid=bbd6df7e-268c-4caa-9369-7ab62491865e"},"vehicle_type_id":"4","last_reported":1735981724,"current_range_meters":36000,"station_id":"ce4bgs12rcd13ifvqcag","pricing_plan_id":"cebpf4jnsgd1na2vs0mg"},{"bike_id":"9085f317-eea3-445b-8bdd-28ff00ca8048","system_id":"levelo_inurba_marseille","lat":43.266805,"lon":5.382644,"is_reserved":false,"is_disabled":false,"rental_uris":{"android":"levelo://app?vid=9085f317-eea3-445b-8bdd-28ff00ca8048","ios":"levelo://app?vid=9085f317-eea3-445b-8bdd-28ff00ca8048"},"vehicle_type_id":"4","last_reported":1735981724,"current_range_meters":32000,"station_id":"ce4bhg92rcd13ifvqf90","pricing_plan_id":"cebpf4jnsgd1na2vs0mg"},{"bike_id":"a6f828f1-5f97-4da7-bf33-7d48a155db3e","system_id":"levelo_inurba_marseille","lat":43.27838,"lon":5.392001,"is_reserved":false,"is_disabled":false,"rental_uris":{"android":"levelo://app?vid=a6f828f1-5f97-4da7-bf33-7d48a155db3e","ios":"levelo://app?vid=a6f828f1-5f97-4da7-bf33-7d48a155db3e"},"vehicle_type_id":"4","last_reported":1735981724,"current_range_meters":27600,"station_id":"ce4bhjp2rcd13ifvqga0","pricing_plan_id":"cebpf4jnsgd1na2vs0mg"},{"bike_id":"0d2af419-b932-4758-89fb-ab0fc6fe2641","system_id":"levelo_inurba_marseille","lat":43.30412,"lon":5.41305,"is_reserved":false,"is_disabled":false,"rental_uris":{"android":"levelo://app?vid=0d2af419-b932-4758-89fb-ab0fc6fe2641","ios":"levelo://app?vid=0d2af419-b932-4758-89fb-ab0fc6fe2641"},"vehicle_type_id":"4","last_reported":1735981724,"current_range_meters":16000,"station_id":"ce4bhop2rcd13ifvqh8g","pricing_plan_id":"cebpf4jnsgd1na2vs0mg"},{"bike_id":"e4f1d7f7-1c65-4b71-a2e9-b5c8e7d0e0c5","system_id":"levelo_inurba_marseille","lat":43.25094,"lon":5.40363,"is_reserved":false,"is_disabled":false,"rental_uris":{"android":"levelo://app?vid=e4f1d7f7-1c65-4b71-a2e9-b5c8e7d0e0c5","ios":"levelo://app?vid=e4f1d7f7-1c65-4b71-a2e9-b5c8e7d0e0c5"},"vehicle_type_id":"4","last_reported":1735981724,"current_range_meters":6800,"station_id":"ce4bhlh2rcd13ifvqgig","pricing_plan_id":"cebpf4jnsgd1na2vs0mg"},{"bike_id":"fa095c06-c069-42fb-b1e8-050190f66519","system_id":"levelo_inurba_marseille","lat":43.25466,"lon":5.37668,"is_reserved":false,"is_disabled":false,"rental_uris":{"android":"levelo://app?vid=fa095c06-c069-42fb-b1e8-050190f66519","ios":"levelo://app?vid=fa095c06-c069-42fb-b1e8-050190f66519"},"vehicle_type_id":"4","last_reported":1735981724,"current_range_meters":7200,"station_id":"ce4bhh12rcd13ifvqff0","pricing_plan_id":"cebpf4jnsgd1na2vs0mg"},{"bike_id":"8a94385a-5ec5-4b84-a374-9fa96b860c6e","system_id":"levelo_inurba_marseille","lat":43.31277,"lon":5.40164,"is_reserved":false,"is_disabled":false,"rental_uris":{"android":"levelo://app?vid=8a94385a-5ec5-4b84-a374-9fa96b860c6e","ios":"levelo://app?vid=8a94385a-5ec5-4b84-a374-9fa96b860c6e"},"vehicle_type_id":"4","last_reported":1735981724,"current_range_meters":27600,"station_id":"ce4bh092rcd13ifvqd30","pricing_plan_id":"cebpf4jnsgd1na2vs0mg"},{"bike_id":"40977940-0cd3-4c4e-ab13-342c16c738ab","system_id":"levelo_inurba_marseille","lat":43.24645,"lon":5.38891,"is_reserved":false,"is_disabled":false,"rental_uris":{"android":"levelo://app?vid=40977940-0cd3-4c4e-ab13-342c16c738ab","ios":"levelo://app?vid=40977940-0cd3-4c4e-ab13-342c16c738ab"},"vehicle_type_id":"4","last_reported":1735981724,"current_range_meters":14800,"station_id":"ce4bhg12rcd13ifvqf60","pricing_plan_id":"cebpf4jnsgd1na2vs0mg"},{"bike_id":"0fb09dc4-c559-469b-b944-d0167194cfca","system_id":"levelo_inurba_marseille","lat":43.279529,"lon":5.41046,"is_reserved":false,"is_disabled":false,"rental_uris":{"android":"levelo://app?vid=0fb09dc4-c559-469b-b944-d0167194cfca","ios":"levelo://app?vid=0fb09dc4-c559-469b-b944-d0167194cfca"},"vehicle_type_id":"4","last_reported":1735981724,"current_range_meters":38000,"station_id":"ce4bhnp2rcd13ifvqh0g","pricing_plan_id":"cebpf4jnsgd1na2vs0mg"},{"bike_id":"6befa724-a01f-4ce7-a943-40045c8a7a16","system_id":"levelo_inurba_marseille","lat":43.26932,"lon":5.38917,"is_reserved":false,"is_disabled":false,"rental_uris":{"android":"levelo://app?vid=6befa724-a01f-4ce7-a943-40045c8a7a16","ios":"levelo://app?vid=6befa724-a01f-4ce7-a943-40045c8a7a16"},"vehicle_type_id":"4","last_reported":1735981724,"current_range_meters":36000,"station_id":"ce4bhhh2rcd13ifvqfl0","pricing_plan_id":"cebpf4jnsgd1na2vs0mg"},{"bike_id":"37b7d8de-7cec-49cf-8527-82e8b4cc4c67","system_id":"levelo_inurba_marseille","lat":43.27091,"lon":5.41524,"is_reserved":false,"is_disabled":false,"rental_uris":{"android":"levelo://app?vid=37b7d8de-7cec-49cf-8527-82e8b4cc4c67","ios":"levelo://app?vid=37b7d8de-7cec-49cf-8527-82e8b4cc4c67"},"vehicle_type_id":"4","last_reported":1735981724,"current_range_meters":28000,"station_id":"","pricing_plan_id":"cebpf4jnsgd1na2vs0mg"},{"bike_id":"6c0950ff-ad32-4545-a3b0-d009b8de7beb","system_id":"levelo_inurba_marseille","lat":43.26495,"lon":5.39569,"is_reserved":false,"is_disabled":false,"rental_uris":{"android":"levelo://app?vid=6c0950ff-ad32-4545-a3b0-d009b8de7beb","ios":"levelo://app?vid=6c0950ff-ad32-4545-a3b0-d009b8de7beb"},"vehicle_type_id":"4","last_reported":1735981724,"current_range_meters":39200,"station_id":"ce4bhi12rcd13ifvqfq0","pricing_plan_id":"cebpf4jnsgd1na2vs0mg"},{"bike_id":"641d8acc-50b2-4173-ab23-c70f2a11d28e","system_id":"levelo_inurba_marseille","lat":43.28156,"lon":5.42693,"is_reserved":false,"is_disabled":true,"rental_uris":{"android":"levelo://app?vid=641d8acc-50b2-4173-ab23-c70f2a11d28e","ios":"levelo://app?vid=641d8acc-50b2-4173-ab23-c70f2a11d28e"},"vehicle_type_id":"4","last_reported":1735981724,"current_range_meters":37600,"station_id":"ce4bhnh2rcd13ifvqgug","pricing_plan_id":"cebpf4jnsgd1na2vs0mg"},{"bike_id":"0a903dd4-aa5a-4030-b502-395f71036d16","system_id":"levelo_inurba_marseille","lat":43.24649,"lon":5.3814,"is_reserved":false,"is_disabled":false,"rental_uris":{"android":"levelo://app?vid=0a903dd4-aa5a-4030-b502-395f71036d16","ios":"levelo://app?vid=0a903dd4-aa5a-4030-b502-395f71036d16"},"vehicle_type_id":"4","last_reported":1735981724,"current_range_meters":27600,"station_id":"ce4bhih2rcd13ifvqfr0","pricing_plan_id":"cebpf4jnsgd1na2vs0mg"},{"bike_id":"8e936699-fb94-4c05-a18e-6a31521ab968","system_id":"levelo_inurba_marseille","lat":43.28486,"lon":5.35887,"is_reserved":false,"is_disabled":true,"rental_uris":{"android":"levelo://app?vid=8e936699-fb94-4c05-a18e-6a31521ab968","ios":"levelo://app?vid=8e936699-fb94-4c05-a18e-6a31521ab968"},"vehicle_type_id":"4","last_reported":1735981724,"current_range_meters":31200,"station_id":"ce4bhah2rcd13ifvqei0","pricing_plan_id":"cebpf4jnsgd1na2vs0mg"},{"bike_id":"237a0d5a-8195-4695-b7fc-17dfb3b6dfc0","system_id":"levelo_inurba_marseille","lat":43.28595,"lon":5.3706,"is_reserved":false,"is_disabled":false,"rental_uris":{"android":"levelo://app?vid=237a0d5a-8195-4695-b7fc-17dfb3b6dfc0","ios":"levelo://app?vid=237a0d5a-8195-4695-b7fc-17dfb3b6dfc0"},"vehicle_type_id":"4","last_reported":1735981724,"current_range_meters":17200,"station_id":"ce4bht12rcd13ifvqi60","pricing_plan_id":"cebpf4jnsgd1na2vs0mg"},{"bike_id":"4ae935ee-85f2-47bc-85b6-0463aa6a82e0","system_id":"levelo_inurba_marseille","lat":43.28688,"lon":5.38651,"is_reserved":false,"is_disabled":false,"rental_uris":{"android":"levelo://app?vid=4ae935ee-85f2-47bc-85b6-0463aa6a82e0","ios":"levelo://app?vid=4ae935ee-85f2-47bc-85b6-0463aa6a82e0"},"vehicle_type_id":"4","last_reported":1735981724,"current_range_meters":34000,"station_id":"ce4bh492rcd13ifvqdug","pricing_plan_id":"cebpf4jnsgd1na2vs0mg"},{"bike_id":"3a3a4eb7-ea9e-4f95-973d-bbbd1fc7238b","system_id":"levelo_inurba_marseille","lat":43.27994,"lon":5.41659,"is_reserved":false,"is_disabled":false,"rental_uris":{"android":"levelo://app?vid=3a3a4eb7-ea9e-4f95-973d-bbbd1fc7238b","ios":"levelo://app?vid=3a3a4eb7-ea9e-4f95-973d-bbbd1fc7238b"},"vehicle_type_id":"4","last_reported":1735981724,"current_range_meters":36800,"station_id":"ce4bho12rcd13ifvqh1g","pricing_plan_id":"cebpf4jnsgd1na2vs0mg"},{"bike_id":"bd609247-c05b-4bfd-8224-3974e4956916","system_id":"levelo_inurba_marseille","lat":43.308966,"lon":5.368526,"is_reserved":false,"is_disabled":true,"rental_uris":{"android":"levelo://app?vid=bd609247-c05b-4bfd-8224-3974e4956916","ios":"levelo://app?vid=bd609247-c05b-4bfd-8224-3974e4956916"},"vehicle_type_id":"4","last_reported":1735981724,"current_range_meters":36800,"station_id":"ce4bgn92rcd13ifvqbvg","pricing_plan_id":"cebpf4jnsgd1na2vs0mg"},{"bike_id":"7023404b-8be7-4ebd-b50a-d6abd594a7f9","system_id":"levelo_inurba_marseille","lat":43.2566,"lon":5.41054,"is_reserved":false,"is_disabled":false,"rental_uris":{"android":"levelo://app?vid=7023404b-8be7-4ebd-b50a-d6abd594a7f9","ios":"levelo://app?vid=7023404b-8be7-4ebd-b50a-d6abd594a7f9"},"vehicle_type_id":"4","last_reported":1735981724,"current_range_meters":38800,"station_id":"","pricing_plan_id":"cebpf4jnsgd1na2vs0mg"},{"bike_id":"1595e294-9733-45f9-a349-ecb14d4eee41","system_id":"levelo_inurba_marseille","lat":43.262,"lon":5.37923,"is_reserved":false,"is_disabled":false,"rental_uris":{"android":"levelo://app?vid=1595e294-9733-45f9-a349-ecb14d4eee41","ios":"levelo://app?vid=1595e294-9733-45f9-a349-ecb14d4eee41"},"vehicle_type_id":"4","last_reported":1735981724,"current_range_meters":38800,"station_id":"ce4bhjp2rcd13ifvqg90","pricing_plan_id":"cebpf4jnsgd1na2vs0mg"},{"bike_id":"0a3ae262-e4e9-456e-b2b6-83dd5ef5dc3a","system_id":"levelo_inurba_marseille","lat":43.30534,"lon":5.3652,"is_reserved":false,"is_disabled":false,"rental_uris":{"android":"levelo://app?vid=0a3ae262-e4e9-456e-b2b6-83dd5ef5dc3a","ios":"levelo://app?vid=0a3ae262-e4e9-456e-b2b6-83dd5ef5dc3a"},"vehicle_type_id":"4","last_reported":1735981724,"current_range_meters":39200,"station_id":"ce4bgs12rcd13ifvqcag","pricing_plan_id":"cebpf4jnsgd1na2vs0mg"},{"bike_id":"b50c1e04-9c20-4daa-ad06-7d854e9beedd","system_id":"levelo_inurba_marseille","lat":43.261986,"lon":5.374534,"is_reserved":false,"is_disabled":false,"rental_uris":{"android":"levelo://app?vid=b50c1e04-9c20-4daa-ad06-7d854e9beedd","ios":"levelo://app?vid=b50c1e04-9c20-4daa-ad06-7d854e9beedd"},"vehicle_type_id":"4","last_reported":1735981724,"current_range_meters":34000,"station_id":"ce4bhgp2rcd13ifvqfc0","pricing_plan_id":"cebpf4jnsgd1na2vs0mg"},{"bike_id":"fe6f290f-0e15-46b1-9ee2-787dc5c43fe5","system_id":"levelo_inurba_marseille","lat":43.295545,"lon":5.422906,"is_reserved":false,"is_disabled":false,"rental_uris":{"android":"levelo://app?vid=fe6f290f-0e15-46b1-9ee2-787dc5c43fe5","ios":"levelo://app?vid=fe6f290f-0e15-46b1-9ee2-787dc5c43fe5"},"vehicle_type_id":"4","last_reported":1735981724,"current_range_meters":15200,"station_id":"ce4bhph2rcd13ifvqhdg","pricing_plan_id":"cebpf4jnsgd1na2vs0mg"},{"bike_id":"26c5324c-4029-40f8-8a47-a09a636f20e2","system_id":"levelo_inurba_marseille","lat":43.3009,"lon":5.39084,"is_reserved":false,"is_disabled":false,"rental_uris":{"android":"levelo://app?vid=26c5324c-4029-40f8-8a47-a09a636f20e2","ios":"levelo://app?vid=26c5324c-4029-40f8-8a47-a09a636f20e2"},"vehicle_type_id":"4","last_reported":1735981724,"current_range_meters":38400,"station_id":"ce4bh192rcd13ifvqdb0","pricing_plan_id":"cebpf4jnsgd1na2vs0mg"},{"bike_id":"96bda347-866d-4dff-98a3-e2ed393f23fc","system_id":"levelo_inurba_marseille","lat":43.30332,"lon":5.43532,"is_reserved":false,"is_disabled":false,"rental_uris":{"android":"levelo://app?vid=96bda347-866d-4dff-98a3-e2ed393f23fc","ios":"levelo://app?vid=96bda347-866d-4dff-98a3-e2ed393f23fc"},"vehicle_type_id":"4","last_reported":1735981724,"current_range_meters":24400,"station_id":"","pricing_plan_id":"cebpf4jnsgd1na2vs0mg"},{"bike_id":"1d0ee6fa-7e84-4bad-a513-32569bfb99a6","system_id":"levelo_inurba_marseille","lat":43.27404,"lon":5.39407,"is_reserved":false,"is_disabled":false,"rental_uris":{"android":"levelo://app?vid=1d0ee6fa-7e84-4bad-a513-32569bfb99a6","ios":"levelo://app?vid=1d0ee6fa-7e84-4bad-a513-32569bfb99a6"},"vehicle_type_id":"4","last_reported":1735981724,"current_range_meters":38800,"station_id":"ce4bhdp2rcd13ifvqf20","pricing_plan_id":"cebpf4jnsgd1na2vs0mg"},{"bike_id":"d1bd4f0e-c325-415d-9d63-e6cf1bffab21","system_id":"levelo_inurba_marseille","lat":43.32049,"lon":5.41561,"is_reserved":false,"is_disabled":false,"rental_uris":{"android":"levelo://app?vid=d1bd4f0e-c325-415d-9d63-e6cf1bffab21","ios":"levelo://app?vid=d1bd4f0e-c325-415d-9d63-e6cf1bffab21"},"vehicle_type_id":"4","last_reported":1735981724,"current_range_meters":37600,"station_id":"ce4bhq92rcd13ifvqhkg","pricing_plan_id":"cebpf4jnsgd1na2vs0mg"},{"bike_id":"2ff0edbb-1120-44a4-b8a8-0b9a430d70c1","system_id":"levelo_inurba_marseille","lat":43.30437,"lon":5.38884,"is_reserved":false,"is_disabled":false,"rental_uris":{"android":"levelo://app?vid=2ff0edbb-1120-44a4-b8a8-0b9a430d70c1","ios":"levelo://app?vid=2ff0edbb-1120-44a4-b8a8-0b9a430d70c1"},"vehicle_type_id":"4","last_reported":1735981724,"current_range_meters":38000,"station_id":"ce4bgk12rcd13ifvqbi0","pricing_plan_id":"cebpf4jnsgd1na2vs0mg"},{"bike_id":"983a939f-0c90-4b41-8e07-1ba37a328643","system_id":"levelo_inurba_marseille","lat":43.24175,"lon":5.36394,"is_reserved":false,"is_disabled":false,"rental_uris":{"android":"levelo://app?vid=983a939f-0c90-4b41-8e07-1ba37a328643","ios":"levelo://app?vid=983a939f-0c90-4b41-8e07-1ba37a328643"},"vehicle_type_id":"4","last_reported":1735981724,"current_range_meters":25600,"station_id":"cpo36qri1sfpv3e86is0","pricing_plan_id":"cebpf4jnsgd1na2vs0mg"},{"bike_id":"0d36baca-b4e4-4eb6-85e9-d02c7038df15","system_id":"levelo_inurba_marseille","lat":43.30532,"lon":5.36556,"is_reserved":false,"is_disabled":true,"rental_uris":{"android":"levelo://app?vid=0d36baca-b4e4-4eb6-85e9-d02c7038df15","ios":"levelo://app?vid=0d36baca-b4e4-4eb6-85e9-d02c7038df15"},"vehicle_type_id":"4","last_reported":1735981724,"current_range_meters":28000,"station_id":"ce4bgs12rcd13ifvqcag","pricing_plan_id":"cebpf4jnsgd1na2vs0mg"},{"bike_id":"f109cb44-778a-4750-a80a-baeff700215f","system_id":"levelo_inurba_marseille","lat":43.29023,"lon":5.3863,"is_reserved":false,"is_disabled":false,"rental_uris":{"android":"levelo://app?vid=f109cb44-778a-4750-a80a-baeff700215f","ios":"levelo://app?vid=f109cb44-778a-4750-a80a-baeff700215f"},"vehicle_type_id":"4","last_reported":1735981724,"current_range_meters":30000,"station_id":"ce4bh4p2rcd13ifvqe0g","pricing_plan_id":"cebpf4jnsgd1na2vs0mg"},{"bike_id":"dbd7f6c9-df67-46d9-a336-d417ecad0d25","system_id":"levelo_inurba_marseille","lat":43.299,"lon":5.43654,"is_reserved":false,"is_disabled":true,"rental_uris":{"android":"levelo://app?vid=dbd7f6c9-df67-46d9-a336-d417ecad0d25","ios":"levelo://app?vid=dbd7f6c9-df67-46d9-a336-d417ecad0d25"},"vehicle_type_id":"4","last_reported":1735981724,"current_range_meters":35200,"station_id":"ce4bhpp2rcd13ifvqhfg","pricing_plan_id":"cebpf4jnsgd1na2vs0mg"},{"bike_id":"376c5e24-8c99-4a45-b448-d5554cb31c99","system_id":"levelo_inurba_marseille","lat":43.28728,"lon":5.39996,"is_reserved":false,"is_disabled":true,"rental_uris":{"android":"levelo://app?vid=376c5e24-8c99-4a45-b448-d5554cb31c99","ios":"levelo://app?vid=376c5e24-8c99-4a45-b448-d5554cb31c99"},"vehicle_type_id":"4","last_reported":1735981724,"current_range_meters":36400,"station_id":"ce4bho92rcd13ifvqh3g","pricing_plan_id":"cebpf4jnsgd1na2vs0mg"},{"bike_id":"dfc8a5ce-5ff4-4c79-bd9d-48e6c81f2d38","system_id":"levelo_inurba_marseille","lat":43.28601,"lon":5.37068,"is_reserved":false,"is_disabled":false,"rental_uris":{"android":"levelo://app?vid=dfc8a5ce-5ff4-4c79-bd9d-48e6c81f2d38","ios":"levelo://app?vid=dfc8a5ce-5ff4-4c79-bd9d-48e6c81f2d38"},"vehicle_type_id":"4","last_reported":1735981724,"current_range_meters":25600,"station_id":"ce4bht12rcd13ifvqi60","pricing_plan_id":"cebpf4jnsgd1na2vs0mg"},{"bike_id":"7c863057-f1ae-4435-9460-2cc51ef60299","system_id":"levelo_inurba_marseille","lat":43.29225,"lon":5.36069,"is_reserved":false,"is_disabled":true,"rental_uris":{"android":"levelo://app?vid=7c863057-f1ae-4435-9460-2cc51ef60299","ios":"levelo://app?vid=7c863057-f1ae-4435-9460-2cc51ef60299"},"vehicle_type_id":"4","last_reported":1735981724,"current_range_meters":30800,"station_id":"ce4bhbh2rcd13ifvqeqg","pricing_plan_id":"cebpf4jnsgd1na2vs0mg"},{"bike_id":"349a4ab8-6f13-4948-be71-abaadb9466ee","system_id":"levelo_inurba_marseille","lat":43.24073,"lon":5.37747,"is_reserved":false,"is_disabled":false,"rental_uris":{"android":"levelo://app?vid=349a4ab8-6f13-4948-be71-abaadb9466ee","ios":"levelo://app?vid=349a4ab8-6f13-4948-be71-abaadb9466ee"},"vehicle_type_id":"4","last_reported":1735981724,"current_range_meters":36000,"station_id":"ce4bhnp2rcd13ifvqgvg","pricing_plan_id":"cebpf4jnsgd1na2vs0mg"},{"bike_id":"d6865373-788e-4dce-80ef-db5404051e16","system_id":"levelo_inurba_marseille","lat":43.28445,"lon":5.39186,"is_reserved":false,"is_disabled":false,"rental_uris":{"android":"levelo://app?vid=d6865373-788e-4dce-80ef-db5404051e16","ios":"levelo://app?vid=d6865373-788e-4dce-80ef-db5404051e16"},"vehicle_type_id":"4","last_reported":1735981724,"current_range_meters":38000,"station_id":"ce4bhoh2rcd13ifvqh5g","pricing_plan_id":"cebpf4jnsgd1na2vs0mg"},{"bike_id":"a5857756-0478-41f2-bfa4-405eeda359bc","system_id":"levelo_inurba_marseille","lat":43.26667,"lon":5.38269,"is_reserved":false,"is_disabled":false,"rental_uris":{"android":"levelo://app?vid=a5857756-0478-41f2-bfa4-405eeda359bc","ios":"levelo://app?vid=a5857756-0478-41f2-bfa4-405eeda359bc"},"vehicle_type_id":"4","last_reported":1735981724,"current_range_meters":38800,"station_id":"ce4bhg92rcd13ifvqf90","pricing_plan_id":"cebpf4jnsgd1na2vs0mg"},{"bike_id":"e9c9ac99-6db0-4a19-9854-52585a709e6e","system_id":"levelo_inurba_marseille","lat":43.295774,"lon":5.367316,"is_reserved":false,"is_disabled":false,"rental_uris":{"android":"levelo://app?vid=e9c9ac99-6db0-4a19-9854-52585a709e6e","ios":"levelo://app?vid=e9c9ac99-6db0-4a19-9854-52585a709e6e"},"vehicle_type_id":"4","last_reported":1735981724,"current_range_meters":35200,"station_id":"ce4bgph2rcd13ifvqc2g","pricing_plan_id":"cebpf4jnsgd1na2vs0mg"},{"bike_id":"1f7cd740-2c18-4894-a0a5-47e69df84924","system_id":"levelo_inurba_marseille","lat":43.249872,"lon":5.389475,"is_reserved":false,"is_disabled":false,"rental_uris":{"android":"levelo://app?vid=1f7cd740-2c18-4894-a0a5-47e69df84924","ios":"levelo://app?vid=1f7cd740-2c18-4894-a0a5-47e69df84924"},"vehicle_type_id":"4","last_reported":1735981724,"current_range_meters":32000,"station_id":"ce4bhgp2rcd13ifvqfd0","pricing_plan_id":"cebpf4jnsgd1na2vs0mg"},{"bike_id":"f3998a04-3b93-4948-8eb7-aa16047370fd","system_id":"levelo_inurba_marseille","lat":43.27957,"lon":5.4104,"is_reserved":false,"is_disabled":false,"rental_uris":{"android":"levelo://app?vid=f3998a04-3b93-4948-8eb7-aa16047370fd","ios":"levelo://app?vid=f3998a04-3b93-4948-8eb7-aa16047370fd"},"vehicle_type_id":"4","last_reported":1735981724,"current_range_meters":14400,"station_id":"ce4bhnp2rcd13ifvqh0g","pricing_plan_id":"cebpf4jnsgd1na2vs0mg"},{"bike_id":"f3435332-11c4-4ce2-9f7e-083072d5319f","system_id":"levelo_inurba_marseille","lat":43.25497,"lon":5.37635,"is_reserved":false,"is_disabled":false,"rental_uris":{"android":"levelo://app?vid=f3435332-11c4-4ce2-9f7e-083072d5319f","ios":"levelo://app?vid=f3435332-11c4-4ce2-9f7e-083072d5319f"},"vehicle_type_id":"4","last_reported":1735981724,"current_range_meters":18800,"station_id":"ce4bhh12rcd13ifvqff0","pricing_plan_id":"cebpf4jnsgd1na2vs0mg"},{"bike_id":"ae269516-63cb-416b-964a-217904f9d7b3","system_id":"levelo_inurba_marseille","lat":43.23194,"lon":5.39986,"is_reserved":false,"is_disabled":false,"rental_uris":{"android":"levelo://app?vid=ae269516-63cb-416b-964a-217904f9d7b3","ios":"levelo://app?vid=ae269516-63cb-416b-964a-217904f9d7b3"},"vehicle_type_id":"4","last_reported":1735981724,"current_range_meters":9600,"station_id":"ce4bhn12rcd13ifvqgqg","pricing_plan_id":"cebpf4jnsgd1na2vs0mg"},{"bike_id":"c150b4c3-2169-48df-a9d5-cdbc11d0c0c7","system_id":"levelo_inurba_marseille","lat":43.29224,"lon":5.36043,"is_reserved":false,"is_disabled":true,"rental_uris":{"android":"levelo://app?vid=c150b4c3-2169-48df-a9d5-cdbc11d0c0c7","ios":"levelo://app?vid=c150b4c3-2169-48df-a9d5-cdbc11d0c0c7"},"vehicle_type_id":"4","last_reported":1735981724,"current_range_meters":9200,"station_id":"ce4bhbh2rcd13ifvqeqg","pricing_plan_id":"cebpf4jnsgd1na2vs0mg"},{"bike_id":"b484e738-44ba-4a75-b698-b38576d896fa","system_id":"levelo_inurba_marseille","lat":43.27678,"lon":5.38874,"is_reserved":false,"is_disabled":false,"rental_uris":{"android":"levelo://app?vid=b484e738-44ba-4a75-b698-b38576d896fa","ios":"levelo://app?vid=b484e738-44ba-4a75-b698-b38576d896fa"},"vehicle_type_id":"4","last_reported":1735981724,"current_range_meters":38800,"station_id":"ce4bhi12rcd13ifvqfo0","pricing_plan_id":"cebpf4jnsgd1na2vs0mg"},{"bike_id":"fe403691-7441-47d1-b7fe-b8357fcf3929","system_id":"levelo_inurba_marseille","lat":43.28681,"lon":5.38651,"is_reserved":false,"is_disabled":false,"rental_uris":{"android":"levelo://app?vid=fe403691-7441-47d1-b7fe-b8357fcf3929","ios":"levelo://app?vid=fe403691-7441-47d1-b7fe-b8357fcf3929"},"vehicle_type_id":"4","last_reported":1735981724,"current_range_meters":38800,"station_id":"ce4bh492rcd13ifvqdug","pricing_plan_id":"cebpf4jnsgd1na2vs0mg"},{"bike_id":"80015150-ed7a-4567-92b6-885b195b502e","system_id":"levelo_inurba_marseille","lat":43.30142,"lon":5.3808,"is_reserved":false,"is_disabled":false,"rental_uris":{"android":"levelo://app?vid=80015150-ed7a-4567-92b6-885b195b502e","ios":"levelo://app?vid=80015150-ed7a-4567-92b6-885b195b502e"},"vehicle_type_id":"4","last_reported":1735981724,"current_range_meters":38800,"station_id":"ce4bgjp2rcd13ifvqbh0","pricing_plan_id":"cebpf4jnsgd1na2vs0mg"},{"bike_id":"eaecfcca-aa89-4e9a-8d17-c5be1539665b","system_id":"levelo_inurba_marseille","lat":43.282714,"lon":5.350584,"is_reserved":false,"is_disabled":true,"rental_uris":{"android":"levelo://app?vid=eaecfcca-aa89-4e9a-8d17-c5be1539665b","ios":"levelo://app?vid=eaecfcca-aa89-4e9a-8d17-c5be1539665b"},"vehicle_type_id":"4","last_reported":1735981724,"current_range_meters":7200,"station_id":"ce4bhbp2rcd13ifvqerg","pricing_plan_id":"cebpf4jnsgd1na2vs0mg"},{"bike_id":"896797d5-e48c-435a-a4ff-c7d0b4682116","system_id":"levelo_inurba_marseille","lat":43.27803,"lon":5.40703,"is_reserved":false,"is_disabled":false,"rental_uris":{"android":"levelo://app?vid=896797d5-e48c-435a-a4ff-c7d0b4682116","ios":"levelo://app?vid=896797d5-e48c-435a-a4ff-c7d0b4682116"},"vehicle_type_id":"4","last_reported":1735981724,"current_range_meters":28000,"station_id":"ce4bhnh2rcd13ifvqgtg","pricing_plan_id":"cebpf4jnsgd1na2vs0mg"},{"bike_id":"728e33c6-8a0a-4e9a-a5b8-1b6363b44aeb","system_id":"levelo_inurba_marseille","lat":43.2898,"lon":5.35647,"is_reserved":false,"is_disabled":false,"rental_uris":{"android":"levelo://app?vid=728e33c6-8a0a-4e9a-a5b8-1b6363b44aeb","ios":"levelo://app?vid=728e33c6-8a0a-4e9a-a5b8-1b6363b44aeb"},"vehicle_type_id":"4","last_reported":1735981724,"current_range_meters":38800,"station_id":"ce4bhb92rcd13ifvqen0","pricing_plan_id":"cebpf4jnsgd1na2vs0mg"},{"bike_id":"13ef7d4c-1aac-463f-b78f-283376e4de16","system_id":"levelo_inurba_marseille","lat":43.229221,"lon":5.353776,"is_reserved":false,"is_disabled":false,"rental_uris":{"android":"levelo://app?vid=13ef7d4c-1aac-463f-b78f-283376e4de16","ios":"levelo://app?vid=13ef7d4c-1aac-463f-b78f-283376e4de16"},"vehicle_type_id":"4","last_reported":1735981724,"current_range_meters":37600,"station_id":"cpo3532slgdg3j2ikp40","pricing_plan_id":"cebpf4jnsgd1na2vs0mg"},{"bike_id":"cf54008b-27af-48d5-90e3-f17a9778834c","system_id":"levelo_inurba_marseille","lat":43.31351,"lon":5.38495,"is_reserved":false,"is_disabled":false,"rental_uris":{"android":"levelo://app?vid=cf54008b-27af-48d5-90e3-f17a9778834c","ios":"levelo://app?vid=cf54008b-27af-48d5-90e3-f17a9778834c"},"vehicle_type_id":"4","last_reported":1735981724,"current_range_meters":36400,"station_id":"ce4bgt92rcd13ifvqcf0","pricing_plan_id":"cebpf4jnsgd1na2vs0mg"},{"bike_id":"2a5f3b0a-f9d0-48ea-9bef-aa26f1f028b8","system_id":"levelo_inurba_marseille","lat":43.25671,"lon":5.41111,"is_reserved":false,"is_disabled":false,"rental_uris":{"android":"levelo://app?vid=2a5f3b0a-f9d0-48ea-9bef-aa26f1f028b8","ios":"levelo://app?vid=2a5f3b0a-f9d0-48ea-9bef-aa26f1f028b8"},"vehicle_type_id":"4","last_reported":1735981724,"current_range_meters":38800,"station_id":"ce4bhkp2rcd13ifvqgd0","pricing_plan_id":"cebpf4jnsgd1na2vs0mg"},{"bike_id":"3b123c2a-2f45-40a4-99ee-394de99fe1b6","system_id":"levelo_inurba_marseille","lat":43.29788,"lon":5.39345,"is_reserved":false,"is_disabled":false,"rental_uris":{"android":"levelo://app?vid=3b123c2a-2f45-40a4-99ee-394de99fe1b6","ios":"levelo://app?vid=3b123c2a-2f45-40a4-99ee-394de99fe1b6"},"vehicle_type_id":"4","last_reported":1735981724,"current_range_meters":38800,"station_id":"chh1huq6cuj3fo74tm60","pricing_plan_id":"cebpf4jnsgd1na2vs0mg"},{"bike_id":"9631dc85-3828-4347-b298-22b4a8d770f6","system_id":"levelo_inurba_marseille","lat":43.28482,"lon":5.38437,"is_reserved":false,"is_disabled":false,"rental_uris":{"android":"levelo://app?vid=9631dc85-3828-4347-b298-22b4a8d770f6","ios":"levelo://app?vid=9631dc85-3828-4347-b298-22b4a8d770f6"},"vehicle_type_id":"4","last_reported":1735981724,"current_range_meters":36400,"station_id":"ce4bh512rcd13ifvqe3g","pricing_plan_id":"cebpf4jnsgd1na2vs0mg"},{"bike_id":"f3c12ef4-82bd-48ff-8ba6-8f2c9a44f8b9","system_id":"levelo_inurba_marseille","lat":43.248049,"lon":5.374567,"is_reserved":false,"is_disabled":false,"rental_uris":{"android":"levelo://app?vid=f3c12ef4-82bd-48ff-8ba6-8f2c9a44f8b9","ios":"levelo://app?vid=f3c12ef4-82bd-48ff-8ba6-8f2c9a44f8b9"},"vehicle_type_id":"4","last_reported":1735981724,"current_range_meters":38000,"station_id":"ce4bhgh2rcd13ifvqfb0","pricing_plan_id":"cebpf4jnsgd1na2vs0mg"},{"bike_id":"7d430f43-95c5-4363-9f87-1d675dddcbf2","system_id":"levelo_inurba_marseille","lat":43.25086,"lon":5.39514,"is_reserved":false,"is_disabled":false,"rental_uris":{"android":"levelo://app?vid=7d430f43-95c5-4363-9f87-1d675dddcbf2","ios":"levelo://app?vid=7d430f43-95c5-4363-9f87-1d675dddcbf2"},"vehicle_type_id":"4","last_reported":1735981724,"current_range_meters":37600,"station_id":"ce4bhm12rcd13ifvqgkg","pricing_plan_id":"cebpf4jnsgd1na2vs0mg"},{"bike_id":"c023bde9-ffda-4fe0-b15d-b0ad0e628af2","system_id":"levelo_inurba_marseille","lat":43.25499,"lon":5.37663,"is_reserved":false,"is_disabled":false,"rental_uris":{"android":"levelo://app?vid=c023bde9-ffda-4fe0-b15d-b0ad0e628af2","ios":"levelo://app?vid=c023bde9-ffda-4fe0-b15d-b0ad0e628af2"},"vehicle_type_id":"4","last_reported":1735981724,"current_range_meters":35600,"station_id":"ce4bhh12rcd13ifvqff0","pricing_plan_id":"cebpf4jnsgd1na2vs0mg"},{"bike_id":"68ef66f0-dd96-424a-ba29-3c004929578e","system_id":"levelo_inurba_marseille","lat":43.23186,"lon":5.3999,"is_reserved":false,"is_disabled":false,"rental_uris":{"android":"levelo://app?vid=68ef66f0-dd96-424a-ba29-3c004929578e","ios":"levelo://app?vid=68ef66f0-dd96-424a-ba29-3c004929578e"},"vehicle_type_id":"4","last_reported":1735981724,"current_range_meters":38000,"station_id":"ce4bhn12rcd13ifvqgqg","pricing_plan_id":"cebpf4jnsgd1na2vs0mg"},{"bike_id":"725999bb-8b32-4e5b-95fc-d63880a1b626","system_id":"levelo_inurba_marseille","lat":43.32638,"lon":5.40983,"is_reserved":false,"is_disabled":false,"rental_uris":{"android":"levelo://app?vid=725999bb-8b32-4e5b-95fc-d63880a1b626","ios":"levelo://app?vid=725999bb-8b32-4e5b-95fc-d63880a1b626"},"vehicle_type_id":"4","last_reported":1735981724,"current_range_meters":38800,"station_id":"ce4bhpp2rcd13ifvqhgg","pricing_plan_id":"cebpf4jnsgd1na2vs0mg"},{"bike_id":"c9004ac3-42ab-4865-aaf3-98f250762289","system_id":"levelo_inurba_marseille","lat":43.3014,"lon":5.37444,"is_reserved":false,"is_disabled":false,"rental_uris":{"android":"levelo://app?vid=c9004ac3-42ab-4865-aaf3-98f250762289","ios":"levelo://app?vid=c9004ac3-42ab-4865-aaf3-98f250762289"},"vehicle_type_id":"4","last_reported":1735981724,"current_range_meters":38800,"station_id":"ce4bgs92rcd13ifvqcc0","pricing_plan_id":"cebpf4jnsgd1na2vs0mg"},{"bike_id":"eae11c21-0e68-4841-b456-38f5bd6f851c","system_id":"levelo_inurba_marseille","lat":43.26784,"lon":5.39434,"is_reserved":false,"is_disabled":false,"rental_uris":{"android":"levelo://app?vid=eae11c21-0e68-4841-b456-38f5bd6f851c","ios":"levelo://app?vid=eae11c21-0e68-4841-b456-38f5bd6f851c"},"vehicle_type_id":"4","last_reported":1735981724,"current_range_meters":16000,"station_id":"ce4bhh12rcd13ifvqfg0","pricing_plan_id":"cebpf4jnsgd1na2vs0mg"},{"bike_id":"270f72ca-6ff0-4006-b955-8701cfe72efd","system_id":"levelo_inurba_marseille","lat":43.29246,"lon":5.40114,"is_reserved":false,"is_disabled":true,"rental_uris":{"android":"levelo://app?vid=270f72ca-6ff0-4006-b955-8701cfe72efd","ios":"levelo://app?vid=270f72ca-6ff0-4006-b955-8701cfe72efd"},"vehicle_type_id":"4","last_reported":1735981724,"current_range_meters":7200,"station_id":"ce4bh312rcd13ifvqdk0","pricing_plan_id":"cebpf4jnsgd1na2vs0mg"},{"bike_id":"1bc9b002-2ce3-4a68-9106-e1b275d6ad9f","system_id":"levelo_inurba_marseille","lat":43.32052,"lon":5.41544,"is_reserved":false,"is_disabled":false,"rental_uris":{"android":"levelo://app?vid=1bc9b002-2ce3-4a68-9106-e1b275d6ad9f","ios":"levelo://app?vid=1bc9b002-2ce3-4a68-9106-e1b275d6ad9f"},"vehicle_type_id":"4","last_reported":1735981724,"current_range_meters":36000,"station_id":"ce4bhq92rcd13ifvqhkg","pricing_plan_id":"cebpf4jnsgd1na2vs0mg"},{"bike_id":"16ef519c-c129-4a25-869c-377cd2829023","system_id":"levelo_inurba_marseille","lat":43.319982,"lon":5.381464,"is_reserved":false,"is_disabled":false,"rental_uris":{"android":"levelo://app?vid=16ef519c-c129-4a25-869c-377cd2829023","ios":"levelo://app?vid=16ef519c-c129-4a25-869c-377cd2829023"},"vehicle_type_id":"4","last_reported":1735981724,"current_range_meters":24800,"station_id":"ce4bhr12rcd13ifvqhpg","pricing_plan_id":"cebpf4jnsgd1na2vs0mg"},{"bike_id":"40585e89-8480-4511-a157-1e8766e5bf28","system_id":"levelo_inurba_marseille","lat":43.26209,"lon":5.37444,"is_reserved":false,"is_disabled":false,"rental_uris":{"android":"levelo://app?vid=40585e89-8480-4511-a157-1e8766e5bf28","ios":"levelo://app?vid=40585e89-8480-4511-a157-1e8766e5bf28"},"vehicle_type_id":"4","last_reported":1735981724,"current_range_meters":30000,"station_id":"ce4bhgp2rcd13ifvqfc0","pricing_plan_id":"cebpf4jnsgd1na2vs0mg"},{"bike_id":"dcbbbac4-6615-48d1-aecd-87a0c7ad19b6","system_id":"levelo_inurba_marseille","lat":43.32477,"lon":5.36567,"is_reserved":false,"is_disabled":false,"rental_uris":{"android":"levelo://app?vid=dcbbbac4-6615-48d1-aecd-87a0c7ad19b6","ios":"levelo://app?vid=dcbbbac4-6615-48d1-aecd-87a0c7ad19b6"},"vehicle_type_id":"4","last_reported":1735981724,"current_range_meters":38800,"station_id":"ce4bhs12rcd13ifvqhvg","pricing_plan_id":"cebpf4jnsgd1na2vs0mg"},{"bike_id":"b5de95e0-8f34-41aa-a5fc-c4e76e03a994","system_id":"levelo_inurba_marseille","lat":43.2809,"lon":5.39653,"is_reserved":false,"is_disabled":true,"rental_uris":{"android":"levelo://app?vid=b5de95e0-8f34-41aa-a5fc-c4e76e03a994","ios":"levelo://app?vid=b5de95e0-8f34-41aa-a5fc-c4e76e03a994"},"vehicle_type_id":"4","last_reported":1735981724,"current_range_meters":36800,"station_id":"ce4bho12rcd13ifvqh2g","pricing_plan_id":"cebpf4jnsgd1na2vs0mg"},{"bike_id":"759be572-b19d-406e-a346-0fb62285ee94","system_id":"levelo_inurba_marseille","lat":43.28705,"lon":5.3738,"is_reserved":false,"is_disabled":false,"rental_uris":{"android":"levelo://app?vid=759be572-b19d-406e-a346-0fb62285ee94","ios":"levelo://app?vid=759be572-b19d-406e-a346-0fb62285ee94"},"vehicle_type_id":"4","last_reported":1735981724,"current_range_meters":28400,"station_id":"ce4bh3p2rcd13ifvqdq0","pricing_plan_id":"cebpf4jnsgd1na2vs0mg"},{"bike_id":"2bd213f6-7c3b-4206-a8d7-1b059cfadb7f","system_id":"levelo_inurba_marseille","lat":43.337258,"lon":5.391859,"is_reserved":false,"is_disabled":false,"rental_uris":{"android":"levelo://app?vid=2bd213f6-7c3b-4206-a8d7-1b059cfadb7f","ios":"levelo://app?vid=2bd213f6-7c3b-4206-a8d7-1b059cfadb7f"},"vehicle_type_id":"4","last_reported":1735981724,"current_range_meters":38800,"station_id":"ce4bhr92rcd13ifvqhsg","pricing_plan_id":"cebpf4jnsgd1na2vs0mg"},{"bike_id":"4e2e926a-cc62-4529-8b24-3abbcf0f0be2","system_id":"levelo_inurba_marseille","lat":43.231898,"lon":5.355567,"is_reserved":false,"is_disabled":false,"rental_uris":{"android":"levelo://app?vid=4e2e926a-cc62-4529-8b24-3abbcf0f0be2","ios":"levelo://app?vid=4e2e926a-cc62-4529-8b24-3abbcf0f0be2"},"vehicle_type_id":"4","last_reported":1735981724,"current_range_meters":28800,"station_id":"ce4bhu92rcd13ifvqi70","pricing_plan_id":"cebpf4jnsgd1na2vs0mg"},{"bike_id":"8dcee21a-1bcd-4586-954f-877fd5cefc47","system_id":"levelo_inurba_marseille","lat":43.296926,"lon":5.37282,"is_reserved":false,"is_disabled":false,"rental_uris":{"android":"levelo://app?vid=8dcee21a-1bcd-4586-954f-877fd5cefc47","ios":"levelo://app?vid=8dcee21a-1bcd-4586-954f-877fd5cefc47"},"vehicle_type_id":"4","last_reported":1735981724,"current_range_meters":38000,"station_id":"ce4bgk12rcd13ifvqbj0","pricing_plan_id":"cebpf4jnsgd1na2vs0mg"},{"bike_id":"ee0d189c-f244-4763-a795-2100e580f807","system_id":"levelo_inurba_marseille","lat":43.29572,"lon":5.39976,"is_reserved":false,"is_disabled":false,"rental_uris":{"android":"levelo://app?vid=ee0d189c-f244-4763-a795-2100e580f807","ios":"levelo://app?vid=ee0d189c-f244-4763-a795-2100e580f807"},"vehicle_type_id":"4","last_reported":1735981724,"current_range_meters":32400,"station_id":"ce4bh312rcd13ifvqdj0","pricing_plan_id":"cebpf4jnsgd1na2vs0mg"},{"bike_id":"16bca792-170f-4fc8-b366-3673e97ab09d","system_id":"levelo_inurba_marseille","lat":43.30152,"lon":5.38107,"is_reserved":false,"is_disabled":false,"rental_uris":{"android":"levelo://app?vid=16bca792-170f-4fc8-b366-3673e97ab09d","ios":"levelo://app?vid=16bca792-170f-4fc8-b366-3673e97ab09d"},"vehicle_type_id":"4","last_reported":1735981724,"current_range_meters":38800,"station_id":"ce4bgjp2rcd13ifvqbh0","pricing_plan_id":"cebpf4jnsgd1na2vs0mg"},{"bike_id":"563ce97f-df8f-4ecd-9a64-bee9d9631aba","system_id":"levelo_inurba_marseille","lat":43.2998,"lon":5.37178,"is_reserved":false,"is_disabled":false,"rental_uris":{"android":"levelo://app?vid=563ce97f-df8f-4ecd-9a64-bee9d9631aba","ios":"levelo://app?vid=563ce97f-df8f-4ecd-9a64-bee9d9631aba"},"vehicle_type_id":"4","last_reported":1735981724,"current_range_meters":37600,"station_id":"ce4bgr92rcd13ifvqc7g","pricing_plan_id":"cebpf4jnsgd1na2vs0mg"},{"bike_id":"5e584ae4-fb04-4605-b8fd-532b0218e039","system_id":"levelo_inurba_marseille","lat":43.33604,"lon":5.40991,"is_reserved":false,"is_disabled":false,"rental_uris":{"android":"levelo://app?vid=5e584ae4-fb04-4605-b8fd-532b0218e039","ios":"levelo://app?vid=5e584ae4-fb04-4605-b8fd-532b0218e039"},"vehicle_type_id":"4","last_reported":1735981724,"current_range_meters":16000,"station_id":"ce4bhqh2rcd13ifvqhmg","pricing_plan_id":"cebpf4jnsgd1na2vs0mg"},{"bike_id":"e14fc727-e110-4847-a3c5-e82ea6a6fcb8","system_id":"levelo_inurba_marseille","lat":43.28936,"lon":5.39661,"is_reserved":false,"is_disabled":true,"rental_uris":{"android":"levelo://app?vid=e14fc727-e110-4847-a3c5-e82ea6a6fcb8","ios":"levelo://app?vid=e14fc727-e110-4847-a3c5-e82ea6a6fcb8"},"vehicle_type_id":"4","last_reported":1735981724,"current_range_meters":38800,"station_id":"ce4bh3h2rcd13ifvqdn0","pricing_plan_id":"cebpf4jnsgd1na2vs0mg"},{"bike_id":"93b0597b-4e60-4277-8289-d05658c8f11f","system_id":"levelo_inurba_marseille","lat":43.25118,"lon":5.4034,"is_reserved":false,"is_disabled":false,"rental_uris":{"android":"levelo://app?vid=93b0597b-4e60-4277-8289-d05658c8f11f","ios":"levelo://app?vid=93b0597b-4e60-4277-8289-d05658c8f11f"},"vehicle_type_id":"4","last_reported":1735981724,"current_range_meters":24400,"station_id":"ce4bhlh2rcd13ifvqgig","pricing_plan_id":"cebpf4jnsgd1na2vs0mg"},{"bike_id":"791dec88-10e9-48b5-9fc6-b0acca6d5c2e","system_id":"levelo_inurba_marseille","lat":43.2931,"lon":5.37469,"is_reserved":false,"is_disabled":true,"rental_uris":{"android":"levelo://app?vid=791dec88-10e9-48b5-9fc6-b0acca6d5c2e","ios":"levelo://app?vid=791dec88-10e9-48b5-9fc6-b0acca6d5c2e"},"vehicle_type_id":"4","last_reported":1735981724,"current_range_meters":0,"station_id":"ce4bgi12rcd13ifvqb70","pricing_plan_id":"cebpf4jnsgd1na2vs0mg"},{"bike_id":"77cf10df-8d3e-4740-bb0d-cc701d5ed79f","system_id":"levelo_inurba_marseille","lat":43.3053,"lon":5.36565,"is_reserved":false,"is_disabled":false,"rental_uris":{"android":"levelo://app?vid=77cf10df-8d3e-4740-bb0d-cc701d5ed79f","ios":"levelo://app?vid=77cf10df-8d3e-4740-bb0d-cc701d5ed79f"},"vehicle_type_id":"4","last_reported":1735981724,"current_range_meters":36000,"station_id":"ce4bgs12rcd13ifvqcag","pricing_plan_id":"cebpf4jnsgd1na2vs0mg"},{"bike_id":"a71cb8b6-ab0b-4810-8102-1180edbff67c","system_id":"levelo_inurba_marseille","lat":43.29801,"lon":5.38071,"is_reserved":false,"is_disabled":false,"rental_uris":{"android":"levelo://app?vid=a71cb8b6-ab0b-4810-8102-1180edbff67c","ios":"levelo://app?vid=a71cb8b6-ab0b-4810-8102-1180edbff67c"},"vehicle_type_id":"4","last_reported":1735981724,"current_range_meters":39200,"station_id":"ce4bgip2rcd13ifvqbb0","pricing_plan_id":"cebpf4jnsgd1na2vs0mg"},{"bike_id":"34617586-430d-4b7a-9eab-a1013b7c582e","system_id":"levelo_inurba_marseille","lat":43.289794,"lon":5.378383,"is_reserved":false,"is_disabled":true,"rental_uris":{"android":"levelo://app?vid=34617586-430d-4b7a-9eab-a1013b7c582e","ios":"levelo://app?vid=34617586-430d-4b7a-9eab-a1013b7c582e"},"vehicle_type_id":"4","last_reported":1735981724,"current_range_meters":28000,"station_id":"ce4bh9p2rcd13ifvqed0","pricing_plan_id":"cebpf4jnsgd1na2vs0mg"},{"bike_id":"48d2688d-946c-4cd9-95b1-87f4dc14a3ad","system_id":"levelo_inurba_marseille","lat":43.27917,"lon":5.41205,"is_reserved":false,"is_disabled":false,"rental_uris":{"android":"levelo://app?vid=48d2688d-946c-4cd9-95b1-87f4dc14a3ad","ios":"levelo://app?vid=48d2688d-946c-4cd9-95b1-87f4dc14a3ad"},"vehicle_type_id":"4","last_reported":1735981724,"current_range_meters":14000,"station_id":"","pricing_plan_id":"cebpf4jnsgd1na2vs0mg"},{"bike_id":"0c10e7c0-277f-4c05-a957-8241d256638d","system_id":"levelo_inurba_marseille","lat":43.28408,"lon":5.39212,"is_reserved":false,"is_disabled":false,"rental_uris":{"android":"levelo://app?vid=0c10e7c0-277f-4c05-a957-8241d256638d","ios":"levelo://app?vid=0c10e7c0-277f-4c05-a957-8241d256638d"},"vehicle_type_id":"4","last_reported":1735981724,"current_range_meters":34000,"station_id":"ce4bhoh2rcd13ifvqh5g","pricing_plan_id":"cebpf4jnsgd1na2vs0mg"},{"bike_id":"d9676b1a-df49-429f-b317-1de61bb96597","system_id":"levelo_inurba_marseille","lat":43.28585,"lon":5.35128,"is_reserved":false,"is_disabled":false,"rental_uris":{"android":"levelo://app?vid=d9676b1a-df49-429f-b317-1de61bb96597","ios":"levelo://app?vid=d9676b1a-df49-429f-b317-1de61bb96597"},"vehicle_type_id":"4","last_reported":1735981724,"current_range_meters":30800,"station_id":"ce4bhch2rcd13ifvqeug","pricing_plan_id":"cebpf4jnsgd1na2vs0mg"},{"bike_id":"e40b8873-a7cf-4e56-b106-d515344f64c4","system_id":"levelo_inurba_marseille","lat":43.23191,"lon":5.3555,"is_reserved":false,"is_disabled":false,"rental_uris":{"android":"levelo://app?vid=e40b8873-a7cf-4e56-b106-d515344f64c4","ios":"levelo://app?vid=e40b8873-a7cf-4e56-b106-d515344f64c4"},"vehicle_type_id":"4","last_reported":1735981724,"current_range_meters":39200,"station_id":"ce4bhu92rcd13ifvqi70","pricing_plan_id":"cebpf4jnsgd1na2vs0mg"},{"bike_id":"bbf998ea-d252-4590-8711-16d78ff4b07c","system_id":"levelo_inurba_marseille","lat":43.24642,"lon":5.38901,"is_reserved":false,"is_disabled":false,"rental_uris":{"android":"levelo://app?vid=bbf998ea-d252-4590-8711-16d78ff4b07c","ios":"levelo://app?vid=bbf998ea-d252-4590-8711-16d78ff4b07c"},"vehicle_type_id":"4","last_reported":1735981724,"current_range_meters":38400,"station_id":"ce4bhg12rcd13ifvqf60","pricing_plan_id":"cebpf4jnsgd1na2vs0mg"},{"bike_id":"2f4f6916-6fa5-41fd-bb6c-752a1e31cb90","system_id":"levelo_inurba_marseille","lat":43.29209,"lon":5.36053,"is_reserved":false,"is_disabled":false,"rental_uris":{"android":"levelo://app?vid=2f4f6916-6fa5-41fd-bb6c-752a1e31cb90","ios":"levelo://app?vid=2f4f6916-6fa5-41fd-bb6c-752a1e31cb90"},"vehicle_type_id":"4","last_reported":1735981724,"current_range_meters":33600,"station_id":"ce4bhbh2rcd13ifvqeqg","pricing_plan_id":"cebpf4jnsgd1na2vs0mg"},{"bike_id":"5250f7d4-1da6-441d-b627-ab92cb7e088d","system_id":"levelo_inurba_marseille","lat":43.24806,"lon":5.37457,"is_reserved":false,"is_disabled":true,"rental_uris":{"android":"levelo://app?vid=5250f7d4-1da6-441d-b627-ab92cb7e088d","ios":"levelo://app?vid=5250f7d4-1da6-441d-b627-ab92cb7e088d"},"vehicle_type_id":"4","last_reported":1735981724,"current_range_meters":26000,"station_id":"ce4bhgh2rcd13ifvqfb0","pricing_plan_id":"cebpf4jnsgd1na2vs0mg"},{"bike_id":"c76f010e-8b23-4840-a7a5-a9a5d3648fa3","system_id":"levelo_inurba_marseille","lat":43.30885,"lon":5.37184,"is_reserved":false,"is_disabled":true,"rental_uris":{"android":"levelo://app?vid=c76f010e-8b23-4840-a7a5-a9a5d3648fa3","ios":"levelo://app?vid=c76f010e-8b23-4840-a7a5-a9a5d3648fa3"},"vehicle_type_id":"4","last_reported":1735981724,"current_range_meters":9200,"station_id":"ce4bguh2rcd13ifvqckg","pricing_plan_id":"cebpf4jnsgd1na2vs0mg"},{"bike_id":"6f21fba1-6f8e-47c4-a476-286cca5f9cc6","system_id":"levelo_inurba_marseille","lat":43.282728,"lon":5.350725,"is_reserved":false,"is_disabled":true,"rental_uris":{"android":"levelo://app?vid=6f21fba1-6f8e-47c4-a476-286cca5f9cc6","ios":"levelo://app?vid=6f21fba1-6f8e-47c4-a476-286cca5f9cc6"},"vehicle_type_id":"4","last_reported":1735981724,"current_range_meters":4000,"station_id":"ce4bhbp2rcd13ifvqerg","pricing_plan_id":"cebpf4jnsgd1na2vs0mg"},{"bike_id":"09e64385-2ecb-4bb9-b546-a98347585cb3","system_id":"levelo_inurba_marseille","lat":43.30585,"lon":5.37208,"is_reserved":false,"is_disabled":false,"rental_uris":{"android":"levelo://app?vid=09e64385-2ecb-4bb9-b546-a98347585cb3","ios":"levelo://app?vid=09e64385-2ecb-4bb9-b546-a98347585cb3"},"vehicle_type_id":"4","last_reported":1735981724,"current_range_meters":38800,"station_id":"ce4bgqh2rcd13ifvqc4g","pricing_plan_id":"cebpf4jnsgd1na2vs0mg"},{"bike_id":"067a14cd-d2e4-467c-88bd-28fc181bd951","system_id":"levelo_inurba_marseille","lat":43.28705,"lon":5.37383,"is_reserved":false,"is_disabled":false,"rental_uris":{"android":"levelo://app?vid=067a14cd-d2e4-467c-88bd-28fc181bd951","ios":"levelo://app?vid=067a14cd-d2e4-467c-88bd-28fc181bd951"},"vehicle_type_id":"4","last_reported":1735981724,"current_range_meters":38800,"station_id":"ce4bh3p2rcd13ifvqdq0","pricing_plan_id":"cebpf4jnsgd1na2vs0mg"},{"bike_id":"8a2871f5-9447-484d-9926-098aa750c257","system_id":"levelo_inurba_marseille","lat":43.28408,"lon":5.3753,"is_reserved":false,"is_disabled":false,"rental_uris":{"android":"levelo://app?vid=8a2871f5-9447-484d-9926-098aa750c257","ios":"levelo://app?vid=8a2871f5-9447-484d-9926-098aa750c257"},"vehicle_type_id":"4","last_reported":1735981724,"current_range_meters":22000,"station_id":"ce4bh412rcd13ifvqds0","pricing_plan_id":"cebpf4jnsgd1na2vs0mg"},{"bike_id":"4eea4ba4-b591-434c-8374-6eb211ed15d6","system_id":"levelo_inurba_marseille","lat":43.28705,"lon":5.37385,"is_reserved":false,"is_disabled":false,"rental_uris":{"android":"levelo://app?vid=4eea4ba4-b591-434c-8374-6eb211ed15d6","ios":"levelo://app?vid=4eea4ba4-b591-434c-8374-6eb211ed15d6"},"vehicle_type_id":"4","last_reported":1735981724,"current_range_meters":20800,"station_id":"ce4bh3p2rcd13ifvqdq0","pricing_plan_id":"cebpf4jnsgd1na2vs0mg"},{"bike_id":"1c02ae40-e43c-4632-b75b-2df9308dc3fe","system_id":"levelo_inurba_marseille","lat":43.33764,"lon":5.37445,"is_reserved":false,"is_disabled":false,"rental_uris":{"android":"levelo://app?vid=1c02ae40-e43c-4632-b75b-2df9308dc3fe","ios":"levelo://app?vid=1c02ae40-e43c-4632-b75b-2df9308dc3fe"},"vehicle_type_id":"4","last_reported":1735981724,"current_range_meters":30800,"station_id":"","pricing_plan_id":"cebpf4jnsgd1na2vs0mg"},{"bike_id":"e0a17fdd-f816-499e-8295-a9ce94a610e8","system_id":"levelo_inurba_marseille","lat":43.29695,"lon":5.36614,"is_reserved":false,"is_disabled":false,"rental_uris":{"android":"levelo://app?vid=e0a17fdd-f816-499e-8295-a9ce94a610e8","ios":"levelo://app?vid=e0a17fdd-f816-499e-8295-a9ce94a610e8"},"vehicle_type_id":"4","last_reported":1735981724,"current_range_meters":29600,"station_id":"ce4bgn12rcd13ifvqbt0","pricing_plan_id":"cebpf4jnsgd1na2vs0mg"},{"bike_id":"16ce16b9-b2cd-4fe2-9df1-754160a4f5ce","system_id":"levelo_inurba_marseille","lat":43.28432,"lon":5.39187,"is_reserved":false,"is_disabled":false,"rental_uris":{"android":"levelo://app?vid=16ce16b9-b2cd-4fe2-9df1-754160a4f5ce","ios":"levelo://app?vid=16ce16b9-b2cd-4fe2-9df1-754160a4f5ce"},"vehicle_type_id":"4","last_reported":1735981724,"current_range_meters":28400,"station_id":"ce4bhoh2rcd13ifvqh5g","pricing_plan_id":"cebpf4jnsgd1na2vs0mg"},{"bike_id":"5b31f532-8cdc-4374-a449-6c9c7fdbd8b7","system_id":"levelo_inurba_marseille","lat":43.282668,"lon":5.350822,"is_reserved":false,"is_disabled":false,"rental_uris":{"android":"levelo://app?vid=5b31f532-8cdc-4374-a449-6c9c7fdbd8b7","ios":"levelo://app?vid=5b31f532-8cdc-4374-a449-6c9c7fdbd8b7"},"vehicle_type_id":"4","last_reported":1735981724,"current_range_meters":27600,"station_id":"ce4bhbp2rcd13ifvqerg","pricing_plan_id":"cebpf4jnsgd1na2vs0mg"},{"bike_id":"262b0d7a-b83b-40f1-bc54-810a9a289441","system_id":"levelo_inurba_marseille","lat":43.291875,"lon":5.358121,"is_reserved":false,"is_disabled":false,"rental_uris":{"android":"levelo://app?vid=262b0d7a-b83b-40f1-bc54-810a9a289441","ios":"levelo://app?vid=262b0d7a-b83b-40f1-bc54-810a9a289441"},"vehicle_type_id":"4","last_reported":1735981724,"current_range_meters":38800,"station_id":"ce4bhb12rcd13ifvqel0","pricing_plan_id":"cebpf4jnsgd1na2vs0mg"},{"bike_id":"85cba0a3-d6ec-4723-83bf-95316674cece","system_id":"levelo_inurba_marseille","lat":43.275602,"lon":5.384212,"is_reserved":false,"is_disabled":true,"rental_uris":{"android":"levelo://app?vid=85cba0a3-d6ec-4723-83bf-95316674cece","ios":"levelo://app?vid=85cba0a3-d6ec-4723-83bf-95316674cece"},"vehicle_type_id":"4","last_reported":1735981724,"current_range_meters":6800,"station_id":"ce4bhh92rcd13ifvqfi0","pricing_plan_id":"cebpf4jnsgd1na2vs0mg"},{"bike_id":"d5355d3d-6620-4d8e-801e-d620f116c682","system_id":"levelo_inurba_marseille","lat":43.23057,"lon":5.35493,"is_reserved":false,"is_disabled":false,"rental_uris":{"android":"levelo://app?vid=d5355d3d-6620-4d8e-801e-d620f116c682","ios":"levelo://app?vid=d5355d3d-6620-4d8e-801e-d620f116c682"},"vehicle_type_id":"4","last_reported":1735981724,"current_range_meters":20000,"station_id":"cpo3342slgdg3j2ifvpg","pricing_plan_id":"cebpf4jnsgd1na2vs0mg"},{"bike_id":"266d97a0-8b6a-4815-8e1e-a29e516886ab","system_id":"levelo_inurba_marseille","lat":43.32356,"lon":5.36752,"is_reserved":false,"is_disabled":false,"rental_uris":{"android":"levelo://app?vid=266d97a0-8b6a-4815-8e1e-a29e516886ab","ios":"levelo://app?vid=266d97a0-8b6a-4815-8e1e-a29e516886ab"},"vehicle_type_id":"4","last_reported":1735981724,"current_range_meters":37600,"station_id":"ce4bhsh2rcd13ifvqi2g","pricing_plan_id":"cebpf4jnsgd1na2vs0mg"},{"bike_id":"fed231b8-8d55-420b-88e1-a67f860fe4c7","system_id":"levelo_inurba_marseille","lat":43.31138,"lon":5.38738,"is_reserved":false,"is_disabled":false,"rental_uris":{"android":"levelo://app?vid=fed231b8-8d55-420b-88e1-a67f860fe4c7","ios":"levelo://app?vid=fed231b8-8d55-420b-88e1-a67f860fe4c7"},"vehicle_type_id":"4","last_reported":1735981724,"current_range_meters":16400,"station_id":"ce4bgv12rcd13ifvqcp0","pricing_plan_id":"cebpf4jnsgd1na2vs0mg"},{"bike_id":"9106d3ff-fc86-4d68-9c8d-6412f9d842de","system_id":"levelo_inurba_marseille","lat":43.25478,"lon":5.37655,"is_reserved":false,"is_disabled":false,"rental_uris":{"android":"levelo://app?vid=9106d3ff-fc86-4d68-9c8d-6412f9d842de","ios":"levelo://app?vid=9106d3ff-fc86-4d68-9c8d-6412f9d842de"},"vehicle_type_id":"4","last_reported":1735981724,"current_range_meters":38800,"station_id":"ce4bhh12rcd13ifvqff0","pricing_plan_id":"cebpf4jnsgd1na2vs0mg"},{"bike_id":"20a40771-05e4-4491-8593-80a44dd596df","system_id":"levelo_inurba_marseille","lat":43.28731,"lon":5.36072,"is_reserved":false,"is_disabled":true,"rental_uris":{"android":"levelo://app?vid=20a40771-05e4-4491-8593-80a44dd596df","ios":"levelo://app?vid=20a40771-05e4-4491-8593-80a44dd596df"},"vehicle_type_id":"4","last_reported":1735981724,"current_range_meters":20000,"station_id":"cki0cbj6b192h4jlfktg","pricing_plan_id":"cebpf4jnsgd1na2vs0mg"},{"bike_id":"70c2848a-e325-4867-a87b-ec2e5af222ca","system_id":"levelo_inurba_marseille","lat":43.31086,"lon":5.42457,"is_reserved":false,"is_disabled":false,"rental_uris":{"android":"levelo://app?vid=70c2848a-e325-4867-a87b-ec2e5af222ca","ios":"levelo://app?vid=70c2848a-e325-4867-a87b-ec2e5af222ca"},"vehicle_type_id":"4","last_reported":1735981724,"current_range_meters":38000,"station_id":"ce4bhp92rcd13ifvqhag","pricing_plan_id":"cebpf4jnsgd1na2vs0mg"},{"bike_id":"48dab017-3f42-472f-871a-513ce2bb3aac","system_id":"levelo_inurba_marseille","lat":43.231462,"lon":5.437184,"is_reserved":false,"is_disabled":false,"rental_uris":{"android":"levelo://app?vid=48dab017-3f42-472f-871a-513ce2bb3aac","ios":"levelo://app?vid=48dab017-3f42-472f-871a-513ce2bb3aac"},"vehicle_type_id":"4","last_reported":1735981724,"current_range_meters":38000,"station_id":"ce4bhmp2rcd13ifvqgog","pricing_plan_id":"cebpf4jnsgd1na2vs0mg"},{"bike_id":"c2d3fd37-520e-47f5-9553-43dacdd55650","system_id":"levelo_inurba_marseille","lat":43.30552,"lon":5.38399,"is_reserved":false,"is_disabled":false,"rental_uris":{"android":"levelo://app?vid=c2d3fd37-520e-47f5-9553-43dacdd55650","ios":"levelo://app?vid=c2d3fd37-520e-47f5-9553-43dacdd55650"},"vehicle_type_id":"4","last_reported":1735981724,"current_range_meters":28800,"station_id":"ce4bgg92rcd13ifvqb30","pricing_plan_id":"cebpf4jnsgd1na2vs0mg"},{"bike_id":"4933aa85-174f-4619-b884-90d047cff55f","system_id":"levelo_inurba_marseille","lat":43.28008,"lon":5.39986,"is_reserved":false,"is_disabled":false,"rental_uris":{"android":"levelo://app?vid=4933aa85-174f-4619-b884-90d047cff55f","ios":"levelo://app?vid=4933aa85-174f-4619-b884-90d047cff55f"},"vehicle_type_id":"4","last_reported":1735981724,"current_range_meters":30000,"station_id":"ce4bho92rcd13ifvqh4g","pricing_plan_id":"cebpf4jnsgd1na2vs0mg"},{"bike_id":"c419512d-089a-4e3a-8724-1b15f68ece37","system_id":"levelo_inurba_marseille","lat":43.29791,"lon":5.37095,"is_reserved":false,"is_disabled":false,"rental_uris":{"android":"levelo://app?vid=c419512d-089a-4e3a-8724-1b15f68ece37","ios":"levelo://app?vid=c419512d-089a-4e3a-8724-1b15f68ece37"},"vehicle_type_id":"4","last_reported":1735981724,"current_range_meters":28800,"station_id":"ce4bgop2rcd13ifvqc1g","pricing_plan_id":"cebpf4jnsgd1na2vs0mg"},{"bike_id":"d014f699-d84d-436b-b3bf-8c059d18ea89","system_id":"levelo_inurba_marseille","lat":43.229246,"lon":5.353761,"is_reserved":false,"is_disabled":false,"rental_uris":{"android":"levelo://app?vid=d014f699-d84d-436b-b3bf-8c059d18ea89","ios":"levelo://app?vid=d014f699-d84d-436b-b3bf-8c059d18ea89"},"vehicle_type_id":"4","last_reported":1735981724,"current_range_meters":23200,"station_id":"cpo3532slgdg3j2ikp40","pricing_plan_id":"cebpf4jnsgd1na2vs0mg"},{"bike_id":"f4400503-e667-4894-b784-5761d82d1342","system_id":"levelo_inurba_marseille","lat":43.29724,"lon":5.37997,"is_reserved":false,"is_disabled":false,"rental_uris":{"android":"levelo://app?vid=f4400503-e667-4894-b784-5761d82d1342","ios":"levelo://app?vid=f4400503-e667-4894-b784-5761d82d1342"},"vehicle_type_id":"4","last_reported":1735981724,"current_range_meters":28000,"station_id":"ce4bgkh2rcd13ifvqbl0","pricing_plan_id":"cebpf4jnsgd1na2vs0mg"},{"bike_id":"7b35b2a8-3878-4ec8-b9c2-66dde2137aeb","system_id":"levelo_inurba_marseille","lat":43.2507,"lon":5.40389,"is_reserved":false,"is_disabled":true,"rental_uris":{"android":"levelo://app?vid=7b35b2a8-3878-4ec8-b9c2-66dde2137aeb","ios":"levelo://app?vid=7b35b2a8-3878-4ec8-b9c2-66dde2137aeb"},"vehicle_type_id":"4","last_reported":1735981724,"current_range_meters":0,"station_id":"","pricing_plan_id":"cebpf4jnsgd1na2vs0mg"},{"bike_id":"abac0da6-45fb-4131-a76d-39956f4bb388","system_id":"levelo_inurba_marseille","lat":43.31881,"lon":5.40729,"is_reserved":false,"is_disabled":false,"rental_uris":{"android":"levelo://app?vid=abac0da6-45fb-4131-a76d-39956f4bb388","ios":"levelo://app?vid=abac0da6-45fb-4131-a76d-39956f4bb388"},"vehicle_type_id":"4","last_reported":1735981724,"current_range_meters":37600,"station_id":"ce4bhq12rcd13ifvqhig","pricing_plan_id":"cebpf4jnsgd1na2vs0mg"},{"bike_id":"c14d1989-a72f-4241-a582-39661d0bcfcf","system_id":"levelo_inurba_marseille","lat":43.23195,"lon":5.35568,"is_reserved":false,"is_disabled":false,"rental_uris":{"android":"levelo://app?vid=c14d1989-a72f-4241-a582-39661d0bcfcf","ios":"levelo://app?vid=c14d1989-a72f-4241-a582-39661d0bcfcf"},"vehicle_type_id":"4","last_reported":1735981724,"current_range_meters":38800,"station_id":"ce4bhu92rcd13ifvqi70","pricing_plan_id":"cebpf4jnsgd1na2vs0mg"},{"bike_id":"ef72cdb4-465d-4178-b952-49906f159c48","system_id":"levelo_inurba_marseille","lat":43.28141,"lon":5.42639,"is_reserved":false,"is_disabled":false,"rental_uris":{"android":"levelo://app?vid=ef72cdb4-465d-4178-b952-49906f159c48","ios":"levelo://app?vid=ef72cdb4-465d-4178-b952-49906f159c48"},"vehicle_type_id":"4","last_reported":1735981724,"current_range_meters":19200,"station_id":"ce4bhnh2rcd13ifvqgug","pricing_plan_id":"cebpf4jnsgd1na2vs0mg"},{"bike_id":"2fc24c31-864c-4881-acab-7860d0612aa4","system_id":"levelo_inurba_marseille","lat":43.29205,"lon":5.36039,"is_reserved":false,"is_disabled":false,"rental_uris":{"android":"levelo://app?vid=2fc24c31-864c-4881-acab-7860d0612aa4","ios":"levelo://app?vid=2fc24c31-864c-4881-acab-7860d0612aa4"},"vehicle_type_id":"4","last_reported":1735981724,"current_range_meters":36800,"station_id":"ce4bhbh2rcd13ifvqeqg","pricing_plan_id":"cebpf4jnsgd1na2vs0mg"},{"bike_id":"140e5586-d5e1-42aa-ae6a-327044094fda","system_id":"levelo_inurba_marseille","lat":43.3372,"lon":5.39211,"is_reserved":false,"is_disabled":false,"rental_uris":{"android":"levelo://app?vid=140e5586-d5e1-42aa-ae6a-327044094fda","ios":"levelo://app?vid=140e5586-d5e1-42aa-ae6a-327044094fda"},"vehicle_type_id":"4","last_reported":1735981724,"current_range_meters":38800,"station_id":"ce4bhr92rcd13ifvqhsg","pricing_plan_id":"cebpf4jnsgd1na2vs0mg"},{"bike_id":"4bc33b47-a63c-4f25-a0fe-24c64b43deee","system_id":"levelo_inurba_marseille","lat":43.309101,"lon":5.368522,"is_reserved":false,"is_disabled":false,"rental_uris":{"android":"levelo://app?vid=4bc33b47-a63c-4f25-a0fe-24c64b43deee","ios":"levelo://app?vid=4bc33b47-a63c-4f25-a0fe-24c64b43deee"},"vehicle_type_id":"4","last_reported":1735981724,"current_range_meters":38000,"station_id":"ce4bgn92rcd13ifvqbvg","pricing_plan_id":"cebpf4jnsgd1na2vs0mg"},{"bike_id":"7bbed7be-28f4-4cc7-81bb-977c0d79552f","system_id":"levelo_inurba_marseille","lat":43.23059,"lon":5.35494,"is_reserved":false,"is_disabled":false,"rental_uris":{"android":"levelo://app?vid=7bbed7be-28f4-4cc7-81bb-977c0d79552f","ios":"levelo://app?vid=7bbed7be-28f4-4cc7-81bb-977c0d79552f"},"vehicle_type_id":"4","last_reported":1735981724,"current_range_meters":18800,"station_id":"cpo3342slgdg3j2ifvpg","pricing_plan_id":"cebpf4jnsgd1na2vs0mg"},{"bike_id":"4d8114a1-28f7-4448-b6cf-a96d6d5c4308","system_id":"levelo_inurba_marseille","lat":43.28451,"lon":5.3589,"is_reserved":false,"is_disabled":false,"rental_uris":{"android":"levelo://app?vid=4d8114a1-28f7-4448-b6cf-a96d6d5c4308","ios":"levelo://app?vid=4d8114a1-28f7-4448-b6cf-a96d6d5c4308"},"vehicle_type_id":"4","last_reported":1735981724,"current_range_meters":28800,"station_id":"ce4bhah2rcd13ifvqei0","pricing_plan_id":"cebpf4jnsgd1na2vs0mg"},{"bike_id":"072d8f59-5292-42cb-8ce5-58d420afbb75","system_id":"levelo_inurba_marseille","lat":43.29358,"lon":5.37848,"is_reserved":false,"is_disabled":false,"rental_uris":{"android":"levelo://app?vid=072d8f59-5292-42cb-8ce5-58d420afbb75","ios":"levelo://app?vid=072d8f59-5292-42cb-8ce5-58d420afbb75"},"vehicle_type_id":"4","last_reported":1735981724,"current_range_meters":27600,"station_id":"ce4bgjh2rcd13ifvqbf0","pricing_plan_id":"cebpf4jnsgd1na2vs0mg"},{"bike_id":"f83efa34-f715-4e66-8fe9-fdcbe17ee6a2","system_id":"levelo_inurba_marseille","lat":43.28723,"lon":5.36087,"is_reserved":false,"is_disabled":false,"rental_uris":{"android":"levelo://app?vid=f83efa34-f715-4e66-8fe9-fdcbe17ee6a2","ios":"levelo://app?vid=f83efa34-f715-4e66-8fe9-fdcbe17ee6a2"},"vehicle_type_id":"4","last_reported":1735981724,"current_range_meters":35600,"station_id":"cki0cbj6b192h4jlfktg","pricing_plan_id":"cebpf4jnsgd1na2vs0mg"},