{"last_updated":1781292908,"ttl":60,"version":"2.2","data":{"bikes":[{"bike_id":"ec12d144-24c8-4071-abf6-197e520eae96","system_id":"levelo_inurba_marseille","lat":43.337444,"lon":5.374475,"is_reserved":false,"is_disabled":false,"rental_uris":{"android":"levelo://app?vid=ec12d144-24c8-4071-abf6-197e520eae96","ios":"levelo://app?vid=ec12d144-24c8-4071-abf6-197e520eae96"},"vehicle_type_id":"4","last_reported":1781292909,"current_range_meters":0,"station_id":"","pricing_plan_id":"cebpf4jnsgd1na2vs0mg"},{"bike_id":"643a5108-6712-460c-84ac-96a9e310c2a1","system_id":"levelo_inurba_marseille","lat":43.32335,"lon":5.36766,"is_reserved":false,"is_disabled":false,"rental_uris":{"android":"levelo://app?vid=643a5108-6712-460c-84ac-96a9e310c2a1","ios":"levelo://app?vid=643a5108-6712-460c-84ac-96a9e310c2a1"},"vehicle_type_id":"4","last_reported":1781292909,"current_range_meters":2800,"station_id":"","pricing_plan_id":"cebpf4jnsgd1na2vs0mg"},{"bike_id":"0a743a51-5728-422c-8a96-f69476a8f4cb","system_id":"levelo_inurba_marseille","lat":43.27625,"lon":5.36096,"is_reserved":false,"is_disabled":true,"rental_uris":{"android":"levelo://app?vid=0a743a51-5728-422c-8a96-f69476a8f4cb","ios":"levelo://app?vid=0a743a51-5728-422c-8a96-f69476a8f4cb"},"vehicle_type_id":"4","last_reported":1781292909,"current_range_meters":2800,"station_id":"ce4bgj92rcd13ifvqbe0","pricing_plan_id":"cebpf4jnsgd1na2vs0mg"},{"bike_id":"04353010-291d-4065-8cdc-65d3f10f09c9","system_id":"levelo_inurba_marseille","lat":43.28931,"lon":5.38382,"is_reserved":false,"is_disabled":false,"rental_uris":{"android":"levelo://app?vid=04353010-291d-4065-8cdc-65d3f10f09c9","ios":"levelo://app?vid=04353010-291d-4065-8cdc-65d3f10f09c9"},"vehicle_type_id":"4","last_reported":1781292909,"current_range_meters":2800,"station_id":"ce4bh612rcd13ifvqe6g","pricing_plan_id":"cebpf4jnsgd1na2vs0mg"},{"bike_id":"41efe1ca-29c6-43c8-a63b-61a200f151ca","system_id":"levelo_inurba_marseille","lat":43.26029,"lon":5.37549,"is_reserved":false,"is_disabled":false,"rental_uris":{"android":"levelo://app?vid=41efe1ca-29c6-43c8-a63b-61a200f151ca","ios":"levelo://app?vid=41efe1ca-29c6-43c8-a63b-61a200f151ca"},"vehicle_type_id":"4","last_reported":1781292909,"current_range_meters":2800,"station_id":"ce4bhgh2rcd13ifvqfa0","pricing_plan_id":"cebpf4jnsgd1na2vs0mg"},{"bike_id":"3e28917f-12dd-4b37-af94-6f348c8b7c68","system_id":"levelo_inurba_marseille","lat":43.25581,"lon":5.38226,"is_reserved":false,"is_disabled":true,"rental_uris":{"android":"levelo://app?vid=3e28917f-12dd-4b37-af94-6f348c8b7c68","ios":"levelo://app?vid=3e28917f-12dd-4b37-af94-6f348c8b7c68"},"vehicle_type_id":"4","last_reported":1781292909,"current_range_meters":2800,"station_id":"ce4bhih2rcd13ifvqfs0","pricing_plan_id":"cebpf4jnsgd1na2vs0mg"},{"bike_id":"7d670955-2936-440c-bd70-613ec77c1cc0","system_id":"levelo_inurba_marseille","lat":43.26209,"lon":5.37433,"is_reserved":false,"is_disabled":true,"rental_uris":{"android":"levelo://app?vid=7d670955-2936-440c-bd70-613ec77c1cc0","ios":"levelo://app?vid=7d670955-2936-440c-bd70-613ec77c1cc0"},"vehicle_type_id":"4","last_reported":1781292909,"current_range_meters":2800,"station_id":"ce4bhgp2rcd13ifvqfc0","pricing_plan_id":"cebpf4jnsgd1na2vs0mg"},{"bike_id":"17be60fe-ff7f-4ced-b2c5-f100be112574","system_id":"levelo_inurba_marseille","lat":43.31364,"lon":5.38485,"is_reserved":false,"is_disabled":true,"rental_uris":{"android":"levelo://app?vid=17be60fe-ff7f-4ced-b2c5-f100be112574","ios":"levelo://app?vid=17be60fe-ff7f-4ced-b2c5-f100be112574"},"vehicle_type_id":"4","last_reported":1781292909,"current_range_meters":2800,"station_id":"ce4bgt92rcd13ifvqcf0","pricing_plan_id":"cebpf4jnsgd1na2vs0mg"},{"bike_id":"a7035cfa-2cad-4a3c-b6b7-082bb42a565d","system_id":"levelo_inurba_marseille","lat":43.24063,"lon":5.37801,"is_reserved":false,"is_disabled":false,"rental_uris":{"android":"levelo://app?vid=a7035cfa-2cad-4a3c-b6b7-082bb42a565d","ios":"levelo://app?vid=a7035cfa-2cad-4a3c-b6b7-082bb42a565d"},"vehicle_type_id":"4","last_reported":1781292909,"current_range_meters":2800,"station_id":"ce4bhnp2rcd13ifvqgvg","pricing_plan_id":"cebpf4jnsgd1na2vs0mg"},{"bike_id":"a9cf13f9-b815-499a-be1f-54f36100b9c6","system_id":"levelo_inurba_marseille","lat":43.28854,"lon":5.39296,"is_reserved":false,"is_disabled":false,"rental_uris":{"android":"levelo://app?vid=a9cf13f9-b815-499a-be1f-54f36100b9c6","ios":"levelo://app?vid=a9cf13f9-b815-499a-be1f-54f36100b9c6"},"vehicle_type_id":"4","last_reported":1781292909,"current_range_meters":2800,"station_id":"ce4bh2p2rcd13ifvqdi0","pricing_plan_id":"cebpf4jnsgd1na2vs0mg"},{"bike_id":"a7e75669-ca43-4a43-a3a0-c8103f10f897","system_id":"levelo_inurba_marseille","lat":43.26684,"lon":5.38271,"is_reserved":false,"is_disabled":false,"rental_uris":{"android":"levelo://app?vid=a7e75669-ca43-4a43-a3a0-c8103f10f897","ios":"levelo://app?vid=a7e75669-ca43-4a43-a3a0-c8103f10f897"},"vehicle_type_id":"4","last_reported":1781292909,"current_range_meters":2800,"station_id":"ce4bhg92rcd13ifvqf90","pricing_plan_id":"cebpf4jnsgd1na2vs0mg"},{"bike_id":"f0fd0361-f31f-49cf-b700-8653d29b5d8e","system_id":"levelo_inurba_marseille","lat":43.24793,"lon":5.37463,"is_reserved":false,"is_disabled":false,"rental_uris":{"android":"levelo://app?vid=f0fd0361-f31f-49cf-b700-8653d29b5d8e","ios":"levelo://app?vid=f0fd0361-f31f-49cf-b700-8653d29b5d8e"},"vehicle_type_id":"4","last_reported":1781292909,"current_range_meters":2800,"station_id":"ce4bhgh2rcd13ifvqfb0","pricing_plan_id":"cebpf4jnsgd1na2vs0mg"},{"bike_id":"15fc56fc-294c-406d-b298-e6517f81b737","system_id":"levelo_inurba_marseille","lat":43.24665,"lon":5.43136,"is_reserved":false,"is_disabled":false,"rental_uris":{"android":"levelo://app?vid=15fc56fc-294c-406d-b298-e6517f81b737","ios":"levelo://app?vid=15fc56fc-294c-406d-b298-e6517f81b737"},"vehicle_type_id":"4","last_reported":1781292909,"current_range_meters":2800,"station_id":"st_d2m6c4gdas8pm72e190g","pricing_plan_id":"cebpf4jnsgd1na2vs0mg"},{"bike_id":"f3413c8d-80a6-4129-9004-b88c5c896006","system_id":"levelo_inurba_marseille","lat":43.28861,"lon":5.42505,"is_reserved":false,"is_disabled":false,"rental_uris":{"android":"levelo://app?vid=f3413c8d-80a6-4129-9004-b88c5c896006","ios":"levelo://app?vid=f3413c8d-80a6-4129-9004-b88c5c896006"},"vehicle_type_id":"4","last_reported":1781292909,"current_range_meters":2800,"station_id":"st_d3b462108ojc7389ooeg","pricing_plan_id":"cebpf4jnsgd1na2vs0mg"},{"bike_id":"9426269d-62cd-4971-84a7-d88b31e2908f","system_id":"levelo_inurba_marseille","lat":43.26675,"lon":5.38279,"is_reserved":false,"is_disabled":true,"rental_uris":{"android":"levelo://app?vid=9426269d-62cd-4971-84a7-d88b31e2908f","ios":"levelo://app?vid=9426269d-62cd-4971-84a7-d88b31e2908f"},"vehicle_type_id":"4","last_reported":1781292909,"current_range_meters":2800,"station_id":"ce4bhg92rcd13ifvqf90","pricing_plan_id":"cebpf4jnsgd1na2vs0mg"},{"bike_id":"b83a52e0-5ce2-4476-8f31-517854db02a7","system_id":"levelo_inurba_marseille","lat":43.28724,"lon":5.36091,"is_reserved":false,"is_disabled":false,"rental_uris":{"android":"levelo://app?vid=b83a52e0-5ce2-4476-8f31-517854db02a7","ios":"levelo://app?vid=b83a52e0-5ce2-4476-8f31-517854db02a7"},"vehicle_type_id":"4","last_reported":1781292909,"current_range_meters":3200,"station_id":"cki0cbj6b192h4jlfktg","pricing_plan_id":"cebpf4jnsgd1na2vs0mg"},{"bike_id":"2e41d0d3-9e86-4c08-89a6-e0a70cc8ae89","system_id":"levelo_inurba_marseille","lat":43.29248,"lon":5.38251,"is_reserved":false,"is_disabled":true,"rental_uris":{"android":"levelo://app?vid=2e41d0d3-9e86-4c08-89a6-e0a70cc8ae89","ios":"levelo://app?vid=2e41d0d3-9e86-4c08-89a6-e0a70cc8ae89"},"vehicle_type_id":"4","last_reported":1781292909,"current_range_meters":3200,"station_id":"","pricing_plan_id":"cebpf4jnsgd1na2vs0mg"},{"bike_id":"5ac28b06-af05-4d8b-a509-2f5043908588","system_id":"levelo_inurba_marseille","lat":43.23448,"lon":5.36831,"is_reserved":false,"is_disabled":false,"rental_uris":{"android":"levelo://app?vid=5ac28b06-af05-4d8b-a509-2f5043908588","ios":"levelo://app?vid=5ac28b06-af05-4d8b-a509-2f5043908588"},"vehicle_type_id":"4","last_reported":1781292909,"current_range_meters":3200,"station_id":"","pricing_plan_id":"cebpf4jnsgd1na2vs0mg"},{"bike_id":"2b93ae1e-aed2-4f09-a1d5-207d27d2dd0d","system_id":"levelo_inurba_marseille","lat":43.24485,"lon":5.42519,"is_reserved":false,"is_disabled":false,"rental_uris":{"android":"levelo://app?vid=2b93ae1e-aed2-4f09-a1d5-207d27d2dd0d","ios":"levelo://app?vid=2b93ae1e-aed2-4f09-a1d5-207d27d2dd0d"},"vehicle_type_id":"4","last_reported":1781292909,"current_range_meters":3200,"station_id":"st_d4a3vfp97mjs738cd8kg","pricing_plan_id":"cebpf4jnsgd1na2vs0mg"},{"bike_id":"446e12e6-b3d6-4da6-a064-d7ccde7a6276","system_id":"levelo_inurba_marseille","lat":43.26192,"lon":5.3745,"is_reserved":false,"is_disabled":false,"rental_uris":{"android":"levelo://app?vid=446e12e6-b3d6-4da6-a064-d7ccde7a6276","ios":"levelo://app?vid=446e12e6-b3d6-4da6-a064-d7ccde7a6276"},"vehicle_type_id":"4","last_reported":1781292909,"current_range_meters":3200,"station_id":"ce4bhgp2rcd13ifvqfc0","pricing_plan_id":"cebpf4jnsgd1na2vs0mg"},{"bike_id":"bdb479c4-980c-472e-b4a9-453ed880a6ea","system_id":"levelo_inurba_marseille","lat":43.28615,"lon":5.35117,"is_reserved":false,"is_disabled":false,"rental_uris":{"android":"levelo://app?vid=bdb479c4-980c-472e-b4a9-453ed880a6ea","ios":"levelo://app?vid=bdb479c4-980c-472e-b4a9-453ed880a6ea"},"vehicle_type_id":"4","last_reported":1781292909,"current_range_meters":3200,"station_id":"ce4bhch2rcd13ifvqeug","pricing_plan_id":"cebpf4jnsgd1na2vs0mg"},{"bike_id":"dd8f2fa1-b5da-4cef-87c9-29d3b1051138","system_id":"levelo_inurba_marseille","lat":43.25643,"lon":5.42742,"is_reserved":false,"is_disabled":false,"rental_uris":{"android":"levelo://app?vid=dd8f2fa1-b5da-4cef-87c9-29d3b1051138","ios":"levelo://app?vid=dd8f2fa1-b5da-4cef-87c9-29d3b1051138"},"vehicle_type_id":"4","last_reported":1781292909,"current_range_meters":3200,"station_id":"","pricing_plan_id":"cebpf4jnsgd1na2vs0mg"},{"bike_id":"7224b4e1-7db2-440c-a9cd-99e68f509922","system_id":"levelo_inurba_marseille","lat":43.27307,"lon":5.39066,"is_reserved":false,"is_disabled":false,"rental_uris":{"android":"levelo://app?vid=7224b4e1-7db2-440c-a9cd-99e68f509922","ios":"levelo://app?vid=7224b4e1-7db2-440c-a9cd-99e68f509922"},"vehicle_type_id":"4","last_reported":1781292909,"current_range_meters":3200,"station_id":"ce4bhgp2rcd13ifvqfe0","pricing_plan_id":"cebpf4jnsgd1na2vs0mg"},{"bike_id":"758b8575-bd39-4c4b-83ba-b708bb22f91d","system_id":"levelo_inurba_marseille","lat":43.27559,"lon":5.35922,"is_reserved":false,"is_disabled":false,"rental_uris":{"android":"levelo://app?vid=758b8575-bd39-4c4b-83ba-b708bb22f91d","ios":"levelo://app?vid=758b8575-bd39-4c4b-83ba-b708bb22f91d"},"vehicle_type_id":"4","last_reported":1781292909,"current_range_meters":3200,"station_id":"","pricing_plan_id":"cebpf4jnsgd1na2vs0mg"},{"bike_id":"8859d173-9f5d-4e39-86ed-34ec86a90175","system_id":"levelo_inurba_marseille","lat":43.29919,"lon":5.42784,"is_reserved":false,"is_disabled":false,"rental_uris":{"android":"levelo://app?vid=8859d173-9f5d-4e39-86ed-34ec86a90175","ios":"levelo://app?vid=8859d173-9f5d-4e39-86ed-34ec86a90175"},"vehicle_type_id":"4","last_reported":1781292909,"current_range_meters":3200,"station_id":"","pricing_plan_id":"cebpf4jnsgd1na2vs0mg"},{"bike_id":"4e0b615e-312c-4057-9a07-9db50c738a53","system_id":"levelo_inurba_marseille","lat":43.28684,"lon":5.36314,"is_reserved":false,"is_disabled":true,"rental_uris":{"android":"levelo://app?vid=4e0b615e-312c-4057-9a07-9db50c738a53","ios":"levelo://app?vid=4e0b615e-312c-4057-9a07-9db50c738a53"},"vehicle_type_id":"4","last_reported":1781292909,"current_range_meters":3200,"station_id":"ce4bhah2rcd13ifvqej0","pricing_plan_id":"cebpf4jnsgd1na2vs0mg"},{"bike_id":"2507d607-3822-4c87-a669-ab9b0690fc01","system_id":"levelo_inurba_marseille","lat":43.28612,"lon":5.35094,"is_reserved":false,"is_disabled":false,"rental_uris":{"android":"levelo://app?vid=2507d607-3822-4c87-a669-ab9b0690fc01","ios":"levelo://app?vid=2507d607-3822-4c87-a669-ab9b0690fc01"},"vehicle_type_id":"4","last_reported":1781292909,"current_range_meters":3200,"station_id":"ce4bhch2rcd13ifvqeug","pricing_plan_id":"cebpf4jnsgd1na2vs0mg"},{"bike_id":"2fe78ccb-070f-432a-a7e8-216efa06d701","system_id":"levelo_inurba_marseille","lat":43.2857,"lon":5.4296,"is_reserved":false,"is_disabled":false,"rental_uris":{"android":"levelo://app?vid=2fe78ccb-070f-432a-a7e8-216efa06d701","ios":"levelo://app?vid=2fe78ccb-070f-432a-a7e8-216efa06d701"},"vehicle_type_id":"4","last_reported":1781292909,"current_range_meters":3200,"station_id":"","pricing_plan_id":"cebpf4jnsgd1na2vs0mg"},{"bike_id":"e701585c-89d0-4eaf-8626-265210c3ee56","system_id":"levelo_inurba_marseille","lat":43.29786,"lon":5.3808,"is_reserved":false,"is_disabled":false,"rental_uris":{"android":"levelo://app?vid=e701585c-89d0-4eaf-8626-265210c3ee56","ios":"levelo://app?vid=e701585c-89d0-4eaf-8626-265210c3ee56"},"vehicle_type_id":"4","last_reported":1781292909,"current_range_meters":3200,"station_id":"ce4bgip2rcd13ifvqbb0","pricing_plan_id":"cebpf4jnsgd1na2vs0mg"},{"bike_id":"8682f4e8-0798-4b4f-8fef-c4dc002ea1c8","system_id":"levelo_inurba_marseille","lat":43.29143,"lon":5.46099,"is_reserved":false,"is_disabled":false,"rental_uris":{"android":"levelo://app?vid=8682f4e8-0798-4b4f-8fef-c4dc002ea1c8","ios":"levelo://app?vid=8682f4e8-0798-4b4f-8fef-c4dc002ea1c8"},"vehicle_type_id":"4","last_reported":1781292909,"current_range_meters":3200,"station_id":"","pricing_plan_id":"cebpf4jnsgd1na2vs0mg"},{"bike_id":"75248494-6e46-4c4b-92d2-9db9ddbe9016","system_id":"levelo_inurba_marseille","lat":43.28489,"lon":5.48391,"is_reserved":false,"is_disabled":false,"rental_uris":{"android":"levelo://app?vid=75248494-6e46-4c4b-92d2-9db9ddbe9016","ios":"levelo://app?vid=75248494-6e46-4c4b-92d2-9db9ddbe9016"},"vehicle_type_id":"4","last_reported":1781292909,"current_range_meters":3200,"station_id":"st_d3svhcjqgbts73a3dn0g","pricing_plan_id":"cebpf4jnsgd1na2vs0mg"},{"bike_id":"02779e87-7950-4b3e-a0cb-69ad55469255","system_id":"levelo_inurba_marseille","lat":43.30914,"lon":5.38275,"is_reserved":false,"is_disabled":false,"rental_uris":{"android":"levelo://app?vid=02779e87-7950-4b3e-a0cb-69ad55469255","ios":"levelo://app?vid=02779e87-7950-4b3e-a0cb-69ad55469255"},"vehicle_type_id":"4","last_reported":1781292909,"current_range_meters":3200,"station_id":"","pricing_plan_id":"cebpf4jnsgd1na2vs0mg"},{"bike_id":"26ec08c6-0088-4574-b89f-579ba5665af6","system_id":"levelo_inurba_marseille","lat":43.26692,"lon":5.38265,"is_reserved":false,"is_disabled":false,"rental_uris":{"android":"levelo://app?vid=26ec08c6-0088-4574-b89f-579ba5665af6","ios":"levelo://app?vid=26ec08c6-0088-4574-b89f-579ba5665af6"},"vehicle_type_id":"4","last_reported":1781292909,"current_range_meters":3200,"station_id":"ce4bhg92rcd13ifvqf90","pricing_plan_id":"cebpf4jnsgd1na2vs0mg"},{"bike_id":"dbcda9ae-c30a-47f2-91a8-8dac9b33d85e","system_id":"levelo_inurba_marseille","lat":43.28003,"lon":5.361,"is_reserved":false,"is_disabled":false,"rental_uris":{"android":"levelo://app?vid=dbcda9ae-c30a-47f2-91a8-8dac9b33d85e","ios":"levelo://app?vid=dbcda9ae-c30a-47f2-91a8-8dac9b33d85e"},"vehicle_type_id":"4","last_reported":1781292909,"current_range_meters":3200,"station_id":"","pricing_plan_id":"cebpf4jnsgd1na2vs0mg"},{"bike_id":"2a192182-021b-439d-a0e2-993561972500","system_id":"levelo_inurba_marseille","lat":43.225345,"lon":5.348271,"is_reserved":false,"is_disabled":false,"rental_uris":{"android":"levelo://app?vid=2a192182-021b-439d-a0e2-993561972500","ios":"levelo://app?vid=2a192182-021b-439d-a0e2-993561972500"},"vehicle_type_id":"4","last_reported":1781292909,"current_range_meters":3600,"station_id":"st_cvj5dfep6f1abm77gieg","pricing_plan_id":"cebpf4jnsgd1na2vs0mg"},{"bike_id":"40877921-cf64-4231-b6a7-7f65220da3fe","system_id":"levelo_inurba_marseille","lat":43.29598,"lon":5.38084,"is_reserved":false,"is_disabled":true,"rental_uris":{"android":"levelo://app?vid=40877921-cf64-4231-b6a7-7f65220da3fe","ios":"levelo://app?vid=40877921-cf64-4231-b6a7-7f65220da3fe"},"vehicle_type_id":"4","last_reported":1781292909,"current_range_meters":3600,"station_id":"ce4bgl12rcd13ifvqbo0","pricing_plan_id":"cebpf4jnsgd1na2vs0mg"},{"bike_id":"f6f4f86c-9b37-4ce7-9093-9ca625094014","system_id":"levelo_inurba_marseille","lat":43.28877,"lon":5.42536,"is_reserved":false,"is_disabled":false,"rental_uris":{"android":"levelo://app?vid=f6f4f86c-9b37-4ce7-9093-9ca625094014","ios":"levelo://app?vid=f6f4f86c-9b37-4ce7-9093-9ca625094014"},"vehicle_type_id":"4","last_reported":1781292909,"current_range_meters":3600,"station_id":"st_d3b462108ojc7389ooeg","pricing_plan_id":"cebpf4jnsgd1na2vs0mg"},{"bike_id":"3a3da385-6a73-48f9-afc1-87e7fb825fa9","system_id":"levelo_inurba_marseille","lat":43.30547,"lon":5.36545,"is_reserved":false,"is_disabled":false,"rental_uris":{"android":"levelo://app?vid=3a3da385-6a73-48f9-afc1-87e7fb825fa9","ios":"levelo://app?vid=3a3da385-6a73-48f9-afc1-87e7fb825fa9"},"vehicle_type_id":"4","last_reported":1781292909,"current_range_meters":3600,"station_id":"ce4bgs12rcd13ifvqcag","pricing_plan_id":"cebpf4jnsgd1na2vs0mg"},{"bike_id":"3643eb2e-b0e4-40f6-9aa2-b567c4963540","system_id":"levelo_inurba_marseille","lat":43.32101,"lon":5.3678,"is_reserved":false,"is_disabled":false,"rental_uris":{"android":"levelo://app?vid=3643eb2e-b0e4-40f6-9aa2-b567c4963540","ios":"levelo://app?vid=3643eb2e-b0e4-40f6-9aa2-b567c4963540"},"vehicle_type_id":"4","last_reported":1781292909,"current_range_meters":3600,"station_id":"ce4bhrh2rcd13ifvqhug","pricing_plan_id":"cebpf4jnsgd1na2vs0mg"},{"bike_id":"9cd43abf-af3a-49dd-95ca-a061da9c8e94","system_id":"levelo_inurba_marseille","lat":43.30972,"lon":5.3906,"is_reserved":false,"is_disabled":false,"rental_uris":{"android":"levelo://app?vid=9cd43abf-af3a-49dd-95ca-a061da9c8e94","ios":"levelo://app?vid=9cd43abf-af3a-49dd-95ca-a061da9c8e94"},"vehicle_type_id":"4","last_reported":1781292909,"current_range_meters":3600,"station_id":"ce4bgup2rcd13ifvqco0","pricing_plan_id":"cebpf4jnsgd1na2vs0mg"},{"bike_id":"86980992-c341-4d42-9003-5f417602c220","system_id":"levelo_inurba_marseille","lat":43.29599,"lon":5.38098,"is_reserved":false,"is_disabled":false,"rental_uris":{"android":"levelo://app?vid=86980992-c341-4d42-9003-5f417602c220","ios":"levelo://app?vid=86980992-c341-4d42-9003-5f417602c220"},"vehicle_type_id":"4","last_reported":1781292909,"current_range_meters":3600,"station_id":"ce4bgl12rcd13ifvqbo0","pricing_plan_id":"cebpf4jnsgd1na2vs0mg"},{"bike_id":"89c3f86b-f66b-4b83-8042-5f610fdb4aa4","system_id":"levelo_inurba_marseille","lat":43.3074,"lon":5.42444,"is_reserved":false,"is_disabled":false,"rental_uris":{"android":"levelo://app?vid=89c3f86b-f66b-4b83-8042-5f610fdb4aa4","ios":"levelo://app?vid=89c3f86b-f66b-4b83-8042-5f610fdb4aa4"},"vehicle_type_id":"4","last_reported":1781292909,"current_range_meters":3600,"station_id":"st_cvj6ca6bvosntc0bfgr0","pricing_plan_id":"cebpf4jnsgd1na2vs0mg"},{"bike_id":"09d9c6f1-ccd6-4075-9a03-4634c196f8cd","system_id":"levelo_inurba_marseille","lat":43.24175,"lon":5.36384,"is_reserved":false,"is_disabled":true,"rental_uris":{"android":"levelo://app?vid=09d9c6f1-ccd6-4075-9a03-4634c196f8cd","ios":"levelo://app?vid=09d9c6f1-ccd6-4075-9a03-4634c196f8cd"},"vehicle_type_id":"4","last_reported":1781292909,"current_range_meters":3600,"station_id":"cpo36qri1sfpv3e86is0","pricing_plan_id":"cebpf4jnsgd1na2vs0mg"},{"bike_id":"2f4ea890-b6c2-438f-8695-1b7485710a48","system_id":"levelo_inurba_marseille","lat":43.297364,"lon":5.380432,"is_reserved":false,"is_disabled":false,"rental_uris":{"android":"levelo://app?vid=2f4ea890-b6c2-438f-8695-1b7485710a48","ios":"levelo://app?vid=2f4ea890-b6c2-438f-8695-1b7485710a48"},"vehicle_type_id":"4","last_reported":1781292909,"current_range_meters":3600,"station_id":"ce4bgl12rcd13ifvqbo0","pricing_plan_id":"cebpf4jnsgd1na2vs0mg"},{"bike_id":"f63e0e69-6a54-4e19-8d8e-f67680de3ed1","system_id":"levelo_inurba_marseille","lat":43.24638,"lon":5.43138,"is_reserved":false,"is_disabled":false,"rental_uris":{"android":"levelo://app?vid=f63e0e69-6a54-4e19-8d8e-f67680de3ed1","ios":"levelo://app?vid=f63e0e69-6a54-4e19-8d8e-f67680de3ed1"},"vehicle_type_id":"4","last_reported":1781292909,"current_range_meters":3600,"station_id":"st_d2m6c4gdas8pm72e190g","pricing_plan_id":"cebpf4jnsgd1na2vs0mg"},{"bike_id":"b238b27f-e3be-4653-ab83-3ea23efa9539","system_id":"levelo_inurba_marseille","lat":43.27382,"lon":5.36268,"is_reserved":false,"is_disabled":false,"rental_uris":{"android":"levelo://app?vid=b238b27f-e3be-4653-ab83-3ea23efa9539","ios":"levelo://app?vid=b238b27f-e3be-4653-ab83-3ea23efa9539"},"vehicle_type_id":"4","last_reported":1781292909,"current_range_meters":3600,"station_id":"ce4bhbh2rcd13ifvqeo0","pricing_plan_id":"cebpf4jnsgd1na2vs0mg"},{"bike_id":"97b9414c-f337-4aa3-a619-e8223bfb5c75","system_id":"levelo_inurba_marseille","lat":43.29535,"lon":5.38548,"is_reserved":false,"is_disabled":false,"rental_uris":{"android":"levelo://app?vid=97b9414c-f337-4aa3-a619-e8223bfb5c75","ios":"levelo://app?vid=97b9414c-f337-4aa3-a619-e8223bfb5c75"},"vehicle_type_id":"4","last_reported":1781292909,"current_range_meters":3600,"station_id":"ce4bgih2rcd13ifvqba0","pricing_plan_id":"cebpf4jnsgd1na2vs0mg"},{"bike_id":"7c3c9798-9b75-4378-9f94-0bdd0c17f02c","system_id":"levelo_inurba_marseille","lat":43.2466,"lon":5.38151,"is_reserved":false,"is_disabled":false,"rental_uris":{"android":"levelo://app?vid=7c3c9798-9b75-4378-9f94-0bdd0c17f02c","ios":"levelo://app?vid=7c3c9798-9b75-4378-9f94-0bdd0c17f02c"},"vehicle_type_id":"4","last_reported":1781292909,"current_range_meters":3600,"station_id":"ce4bhih2rcd13ifvqfr0","pricing_plan_id":"cebpf4jnsgd1na2vs0mg"},{"bike_id":"f1a562e5-8cff-449a-bdbb-a7b0c70c969e","system_id":"levelo_inurba_marseille","lat":43.29024,"lon":5.38115,"is_reserved":false,"is_disabled":true,"rental_uris":{"android":"levelo://app?vid=f1a562e5-8cff-449a-bdbb-a7b0c70c969e","ios":"levelo://app?vid=f1a562e5-8cff-449a-bdbb-a7b0c70c969e"},"vehicle_type_id":"4","last_reported":1781292909,"current_range_meters":3600,"station_id":"ce4bh4p2rcd13ifvqe1g","pricing_plan_id":"cebpf4jnsgd1na2vs0mg"},{"bike_id":"276618b2-2a39-42be-b5e9-68c799e0a676","system_id":"levelo_inurba_marseille","lat":43.263523,"lon":5.373854,"is_reserved":false,"is_disabled":false,"rental_uris":{"android":"levelo://app?vid=276618b2-2a39-42be-b5e9-68c799e0a676","ios":"levelo://app?vid=276618b2-2a39-42be-b5e9-68c799e0a676"},"vehicle_type_id":"4","last_reported":1781292909,"current_range_meters":3600,"station_id":"ce4bhgh2rcd13ifvqfb0","pricing_plan_id":"cebpf4jnsgd1na2vs0mg"},{"bike_id":"3371e92b-963a-4ab0-918d-9217e8fd09be","system_id":"levelo_inurba_marseille","lat":43.28345,"lon":5.36668,"is_reserved":false,"is_disabled":false,"rental_uris":{"android":"levelo://app?vid=3371e92b-963a-4ab0-918d-9217e8fd09be","ios":"levelo://app?vid=3371e92b-963a-4ab0-918d-9217e8fd09be"},"vehicle_type_id":"4","last_reported":1781292909,"current_range_meters":3600,"station_id":"","pricing_plan_id":"cebpf4jnsgd1na2vs0mg"},{"bike_id":"a6613fb2-e4cf-43ed-a891-29e085b00b1e","system_id":"levelo_inurba_marseille","lat":43.22541,"lon":5.34829,"is_reserved":false,"is_disabled":false,"rental_uris":{"android":"levelo://app?vid=a6613fb2-e4cf-43ed-a891-29e085b00b1e","ios":"levelo://app?vid=a6613fb2-e4cf-43ed-a891-29e085b00b1e"},"vehicle_type_id":"4","last_reported":1781292909,"current_range_meters":3600,"station_id":"st_cvj5dfep6f1abm77gieg","pricing_plan_id":"cebpf4jnsgd1na2vs0mg"},{"bike_id":"c64f3337-7caa-480a-be6c-ddd9e5ea1e15","system_id":"levelo_inurba_marseille","lat":43.24407,"lon":5.37063,"is_reserved":false,"is_disabled":false,"rental_uris":{"android":"levelo://app?vid=c64f3337-7caa-480a-be6c-ddd9e5ea1e15","ios":"levelo://app?vid=c64f3337-7caa-480a-be6c-ddd9e5ea1e15"},"vehicle_type_id":"4","last_reported":1781292909,"current_range_meters":3600,"station_id":"ce4bhhh2rcd13ifvqfk0","pricing_plan_id":"cebpf4jnsgd1na2vs0mg"},{"bike_id":"e79e8f41-2e4e-410d-bd3f-e773aeb091be","system_id":"levelo_inurba_marseille","lat":43.31537,"lon":5.38026,"is_reserved":false,"is_disabled":false,"rental_uris":{"android":"levelo://app?vid=e79e8f41-2e4e-410d-bd3f-e773aeb091be","ios":"levelo://app?vid=e79e8f41-2e4e-410d-bd3f-e773aeb091be"},"vehicle_type_id":"4","last_reported":1781292909,"current_range_meters":3600,"station_id":"ce4bhsp2rcd13ifvqi50","pricing_plan_id":"cebpf4jnsgd1na2vs0mg"},{"bike_id":"01aba978-2b0d-48ac-83cb-dbf9c6c59825","system_id":"levelo_inurba_marseille","lat":43.28631,"lon":5.35093,"is_reserved":false,"is_disabled":false,"rental_uris":{"android":"levelo://app?vid=01aba978-2b0d-48ac-83cb-dbf9c6c59825","ios":"levelo://app?vid=01aba978-2b0d-48ac-83cb-dbf9c6c59825"},"vehicle_type_id":"4","last_reported":1781292909,"current_range_meters":4000,"station_id":"ce4bhch2rcd13ifvqeug","pricing_plan_id":"cebpf4jnsgd1na2vs0mg"},{"bike_id":"cfca987a-456e-47df-a095-b63382c88e43","system_id":"levelo_inurba_marseille","lat":43.2321,"lon":5.35552,"is_reserved":false,"is_disabled":false,"rental_uris":{"android":"levelo://app?vid=cfca987a-456e-47df-a095-b63382c88e43","ios":"levelo://app?vid=cfca987a-456e-47df-a095-b63382c88e43"},"vehicle_type_id":"4","last_reported":1781292909,"current_range_meters":4000,"station_id":"ce4bhu92rcd13ifvqi70","pricing_plan_id":"cebpf4jnsgd1na2vs0mg"},{"bike_id":"69348b21-98e8-4529-8495-dd8823f37c0d","system_id":"levelo_inurba_marseille","lat":43.30416,"lon":5.4129,"is_reserved":false,"is_disabled":false,"rental_uris":{"android":"levelo://app?vid=69348b21-98e8-4529-8495-dd8823f37c0d","ios":"levelo://app?vid=69348b21-98e8-4529-8495-dd8823f37c0d"},"vehicle_type_id":"4","last_reported":1781292909,"current_range_meters":4000,"station_id":"ce4bhop2rcd13ifvqh8g","pricing_plan_id":"cebpf4jnsgd1na2vs0mg"},{"bike_id":"8cd0c170-ca59-4d7f-9c99-44c5e80e380f","system_id":"levelo_inurba_marseille","lat":43.29842,"lon":5.36271,"is_reserved":false,"is_disabled":false,"rental_uris":{"android":"levelo://app?vid=8cd0c170-ca59-4d7f-9c99-44c5e80e380f","ios":"levelo://app?vid=8cd0c170-ca59-4d7f-9c99-44c5e80e380f"},"vehicle_type_id":"4","last_reported":1781292909,"current_range_meters":4000,"station_id":"ce4bgpp2rcd13ifvqc3g","pricing_plan_id":"cebpf4jnsgd1na2vs0mg"},{"bike_id":"9a7db7eb-8c9c-4ee4-93d9-c9ef675fea88","system_id":"levelo_inurba_marseille","lat":43.33766,"lon":5.37463,"is_reserved":false,"is_disabled":true,"rental_uris":{"android":"levelo://app?vid=9a7db7eb-8c9c-4ee4-93d9-c9ef675fea88","ios":"levelo://app?vid=9a7db7eb-8c9c-4ee4-93d9-c9ef675fea88"},"vehicle_type_id":"4","last_reported":1781292909,"current_range_meters":4000,"station_id":"","pricing_plan_id":"cebpf4jnsgd1na2vs0mg"},{"bike_id":"211cf975-72d3-44df-a469-67af65892e6f","system_id":"levelo_inurba_marseille","lat":43.28859,"lon":5.393,"is_reserved":false,"is_disabled":false,"rental_uris":{"android":"levelo://app?vid=211cf975-72d3-44df-a469-67af65892e6f","ios":"levelo://app?vid=211cf975-72d3-44df-a469-67af65892e6f"},"vehicle_type_id":"4","last_reported":1781292909,"current_range_meters":4000,"station_id":"ce4bh2p2rcd13ifvqdi0","pricing_plan_id":"cebpf4jnsgd1na2vs0mg"},{"bike_id":"e9a2fb92-5e8a-47dc-897b-8b8e2a5a745c","system_id":"levelo_inurba_marseille","lat":43.27209,"lon":5.39154,"is_reserved":false,"is_disabled":false,"rental_uris":{"android":"levelo://app?vid=e9a2fb92-5e8a-47dc-897b-8b8e2a5a745c","ios":"levelo://app?vid=e9a2fb92-5e8a-47dc-897b-8b8e2a5a745c"},"vehicle_type_id":"4","last_reported":1781292909,"current_range_meters":4000,"station_id":"ce4bhhp2rcd13ifvqfm0","pricing_plan_id":"cebpf4jnsgd1na2vs0mg"},{"bike_id":"9a2af89d-96ad-4229-a295-5bd6db69a950","system_id":"levelo_inurba_marseille","lat":43.24803,"lon":5.37432,"is_reserved":false,"is_disabled":false,"rental_uris":{"android":"levelo://app?vid=9a2af89d-96ad-4229-a295-5bd6db69a950","ios":"levelo://app?vid=9a2af89d-96ad-4229-a295-5bd6db69a950"},"vehicle_type_id":"4","last_reported":1781292909,"current_range_meters":4000,"station_id":"ce4bhgh2rcd13ifvqfb0","pricing_plan_id":"cebpf4jnsgd1na2vs0mg"},{"bike_id":"78951da4-d2a9-488e-b056-7eb158ae2ccf","system_id":"levelo_inurba_marseille","lat":43.26362,"lon":5.37822,"is_reserved":false,"is_disabled":false,"rental_uris":{"android":"levelo://app?vid=78951da4-d2a9-488e-b056-7eb158ae2ccf","ios":"levelo://app?vid=78951da4-d2a9-488e-b056-7eb158ae2ccf"},"vehicle_type_id":"4","last_reported":1781292909,"current_range_meters":4000,"station_id":"st_d163nis0mtpqnht9uue0","pricing_plan_id":"cebpf4jnsgd1na2vs0mg"},{"bike_id":"40de0209-043c-4ed6-84c3-7ac1da5cf58d","system_id":"levelo_inurba_marseille","lat":43.32095,"lon":5.36772,"is_reserved":false,"is_disabled":false,"rental_uris":{"android":"levelo://app?vid=40de0209-043c-4ed6-84c3-7ac1da5cf58d","ios":"levelo://app?vid=40de0209-043c-4ed6-84c3-7ac1da5cf58d"},"vehicle_type_id":"4","last_reported":1781292909,"current_range_meters":4000,"station_id":"ce4bhrh2rcd13ifvqhug","pricing_plan_id":"cebpf4jnsgd1na2vs0mg"},{"bike_id":"16acbdd4-bd81-4829-84d0-a5884f26d7a5","system_id":"levelo_inurba_marseille","lat":43.28107,"lon":5.3784,"is_reserved":false,"is_disabled":false,"rental_uris":{"android":"levelo://app?vid=16acbdd4-bd81-4829-84d0-a5884f26d7a5","ios":"levelo://app?vid=16acbdd4-bd81-4829-84d0-a5884f26d7a5"},"vehicle_type_id":"4","last_reported":1781292909,"current_range_meters":4000,"station_id":"ce4bha12rcd13ifvqee0","pricing_plan_id":"cebpf4jnsgd1na2vs0mg"},{"bike_id":"7cdc1c2e-9cf8-4b4f-abad-7714ae9ab13e","system_id":"levelo_inurba_marseille","lat":43.29033,"lon":5.37558,"is_reserved":false,"is_disabled":false,"rental_uris":{"android":"levelo://app?vid=7cdc1c2e-9cf8-4b4f-abad-7714ae9ab13e","ios":"levelo://app?vid=7cdc1c2e-9cf8-4b4f-abad-7714ae9ab13e"},"vehicle_type_id":"4","last_reported":1781292909,"current_range_meters":4000,"station_id":"ce4bh692rcd13ifvqe90","pricing_plan_id":"cebpf4jnsgd1na2vs0mg"},{"bike_id":"e68fddf3-c826-4b80-8260-df958ad54400","system_id":"levelo_inurba_marseille","lat":43.26397,"lon":5.37819,"is_reserved":false,"is_disabled":false,"rental_uris":{"android":"levelo://app?vid=e68fddf3-c826-4b80-8260-df958ad54400","ios":"levelo://app?vid=e68fddf3-c826-4b80-8260-df958ad54400"},"vehicle_type_id":"4","last_reported":1781292909,"current_range_meters":4000,"station_id":"st_d163nis0mtpqnht9uue0","pricing_plan_id":"cebpf4jnsgd1na2vs0mg"},{"bike_id":"a1a9fa86-c8ac-4f99-899e-63cf659590c9","system_id":"levelo_inurba_marseille","lat":43.28388,"lon":5.38664,"is_reserved":false,"is_disabled":false,"rental_uris":{"android":"levelo://app?vid=a1a9fa86-c8ac-4f99-899e-63cf659590c9","ios":"levelo://app?vid=a1a9fa86-c8ac-4f99-899e-63cf659590c9"},"vehicle_type_id":"4","last_reported":1781292909,"current_range_meters":4000,"station_id":"ce4bh492rcd13ifvqdvg","pricing_plan_id":"cebpf4jnsgd1na2vs0mg"},{"bike_id":"3a44773b-a64a-45f6-9197-56969bf49878","system_id":"levelo_inurba_marseille","lat":43.29718,"lon":5.37022,"is_reserved":false,"is_disabled":false,"rental_uris":{"android":"levelo://app?vid=3a44773b-a64a-45f6-9197-56969bf49878","ios":"levelo://app?vid=3a44773b-a64a-45f6-9197-56969bf49878"},"vehicle_type_id":"4","last_reported":1781292909,"current_range_meters":4000,"station_id":"","pricing_plan_id":"cebpf4jnsgd1na2vs0mg"},{"bike_id":"ffcca79d-99ae-4f0c-ab2e-66dd33d95788","system_id":"levelo_inurba_marseille","lat":43.24807,"lon":5.37455,"is_reserved":false,"is_disabled":false,"rental_uris":{"android":"levelo://app?vid=ffcca79d-99ae-4f0c-ab2e-66dd33d95788","ios":"levelo://app?vid=ffcca79d-99ae-4f0c-ab2e-66dd33d95788"},"vehicle_type_id":"4","last_reported":1781292909,"current_range_meters":4000,"station_id":"ce4bhgh2rcd13ifvqfb0","pricing_plan_id":"cebpf4jnsgd1na2vs0mg"},{"bike_id":"bb1d4032-2cdc-46e1-b268-e86749b888e2","system_id":"levelo_inurba_marseille","lat":43.29002,"lon":5.35616,"is_reserved":false,"is_disabled":false,"rental_uris":{"android":"levelo://app?vid=bb1d4032-2cdc-46e1-b268-e86749b888e2","ios":"levelo://app?vid=bb1d4032-2cdc-46e1-b268-e86749b888e2"},"vehicle_type_id":"4","last_reported":1781292909,"current_range_meters":4000,"station_id":"ce4bhb92rcd13ifvqen0","pricing_plan_id":"cebpf4jnsgd1na2vs0mg"},{"bike_id":"6cd18bcf-e413-442f-8416-32391e97b23b","system_id":"levelo_inurba_marseille","lat":43.292777,"lon":5.368411,"is_reserved":false,"is_disabled":false,"rental_uris":{"android":"levelo://app?vid=6cd18bcf-e413-442f-8416-32391e97b23b","ios":"levelo://app?vid=6cd18bcf-e413-442f-8416-32391e97b23b"},"vehicle_type_id":"4","last_reported":1781292909,"current_range_meters":4000,"station_id":"ce4bhbp2rcd13ifvqesg","pricing_plan_id":"cebpf4jnsgd1na2vs0mg"},{"bike_id":"c01f2a41-d46f-4c92-9bf7-b941d7cdc517","system_id":"levelo_inurba_marseille","lat":43.32495,"lon":5.38303,"is_reserved":false,"is_disabled":false,"rental_uris":{"android":"levelo://app?vid=c01f2a41-d46f-4c92-9bf7-b941d7cdc517","ios":"levelo://app?vid=c01f2a41-d46f-4c92-9bf7-b941d7cdc517"},"vehicle_type_id":"4","last_reported":1781292909,"current_range_meters":4000,"station_id":"st_d4asgbiv49dc73anf9m0","pricing_plan_id":"cebpf4jnsgd1na2vs0mg"},{"bike_id":"98d21772-74a0-4528-a783-91f187b87919","system_id":"levelo_inurba_marseille","lat":43.28357,"lon":5.3809,"is_reserved":false,"is_disabled":false,"rental_uris":{"android":"levelo://app?vid=98d21772-74a0-4528-a783-91f187b87919","ios":"levelo://app?vid=98d21772-74a0-4528-a783-91f187b87919"},"vehicle_type_id":"4","last_reported":1781292909,"current_range_meters":4000,"station_id":"ce4bh412rcd13ifvqdr0","pricing_plan_id":"cebpf4jnsgd1na2vs0mg"},{"bike_id":"f757583b-431b-42a5-9be6-03a3a16d684c","system_id":"levelo_inurba_marseille","lat":43.26924,"lon":5.38928,"is_reserved":false,"is_disabled":false,"rental_uris":{"android":"levelo://app?vid=f757583b-431b-42a5-9be6-03a3a16d684c","ios":"levelo://app?vid=f757583b-431b-42a5-9be6-03a3a16d684c"},"vehicle_type_id":"4","last_reported":1781292909,"current_range_meters":4400,"station_id":"ce4bhhh2rcd13ifvqfl0","pricing_plan_id":"cebpf4jnsgd1na2vs0mg"},{"bike_id":"b71af7c2-4d98-4630-86ae-a4a165ba23e9","system_id":"levelo_inurba_marseille","lat":43.28879,"lon":5.37667,"is_reserved":false,"is_disabled":false,"rental_uris":{"android":"levelo://app?vid=b71af7c2-4d98-4630-86ae-a4a165ba23e9","ios":"levelo://app?vid=b71af7c2-4d98-4630-86ae-a4a165ba23e9"},"vehicle_type_id":"4","last_reported":1781292909,"current_range_meters":4400,"station_id":"","pricing_plan_id":"cebpf4jnsgd1na2vs0mg"},{"bike_id":"cb4a87f1-ecd2-4522-a840-5c2028883f08","system_id":"levelo_inurba_marseille","lat":43.2862,"lon":5.35109,"is_reserved":false,"is_disabled":false,"rental_uris":{"android":"levelo://app?vid=cb4a87f1-ecd2-4522-a840-5c2028883f08","ios":"levelo://app?vid=cb4a87f1-ecd2-4522-a840-5c2028883f08"},"vehicle_type_id":"4","last_reported":1781292909,"current_range_meters":4400,"station_id":"ce4bhch2rcd13ifvqeug","pricing_plan_id":"cebpf4jnsgd1na2vs0mg"},{"bike_id":"c2cce0fb-c37a-4618-b09c-7526e91bb3fb","system_id":"levelo_inurba_marseille","lat":43.2655,"lon":5.37293,"is_reserved":false,"is_disabled":false,"rental_uris":{"android":"levelo://app?vid=c2cce0fb-c37a-4618-b09c-7526e91bb3fb","ios":"levelo://app?vid=c2cce0fb-c37a-4618-b09c-7526e91bb3fb"},"vehicle_type_id":"4","last_reported":1781292909,"current_range_meters":4400,"station_id":"ce4bhg12rcd13ifvqf70","pricing_plan_id":"cebpf4jnsgd1na2vs0mg"},{"bike_id":"dbf30277-d3e6-4cad-8465-5c92e1f1d567","system_id":"levelo_inurba_marseille","lat":43.23176,"lon":5.39988,"is_reserved":false,"is_disabled":false,"rental_uris":{"android":"levelo://app?vid=dbf30277-d3e6-4cad-8465-5c92e1f1d567","ios":"levelo://app?vid=dbf30277-d3e6-4cad-8465-5c92e1f1d567"},"vehicle_type_id":"4","last_reported":1781292909,"current_range_meters":4400,"station_id":"ce4bhn12rcd13ifvqgqg","pricing_plan_id":"cebpf4jnsgd1na2vs0mg"},{"bike_id":"8b6b68f1-e508-4aca-8408-2e25b4d6ced5","system_id":"levelo_inurba_marseille","lat":43.21194,"lon":5.35071,"is_reserved":false,"is_disabled":false,"rental_uris":{"android":"levelo://app?vid=8b6b68f1-e508-4aca-8408-2e25b4d6ced5","ios":"levelo://app?vid=8b6b68f1-e508-4aca-8408-2e25b4d6ced5"},"vehicle_type_id":"4","last_reported":1781292909,"current_range_meters":4400,"station_id":"st_cvj6sg6p6f1abm77japg","pricing_plan_id":"cebpf4jnsgd1na2vs0mg"},{"bike_id":"5c4c7c29-d67c-425c-b25c-05cae9e3f92c","system_id":"levelo_inurba_marseille","lat":43.28492,"lon":5.38415,"is_reserved":false,"is_disabled":true,"rental_uris":{"android":"levelo://app?vid=5c4c7c29-d67c-425c-b25c-05cae9e3f92c","ios":"levelo://app?vid=5c4c7c29-d67c-425c-b25c-05cae9e3f92c"},"vehicle_type_id":"4","last_reported":1781292909,"current_range_meters":4400,"station_id":"ce4bh512rcd13ifvqe3g","pricing_plan_id":"cebpf4jnsgd1na2vs0mg"},{"bike_id":"fdc21814-149a-410f-b193-382784505a0f","system_id":"levelo_inurba_marseille","lat":43.23805,"lon":5.36595,"is_reserved":false,"is_disabled":false,"rental_uris":{"android":"levelo://app?vid=fdc21814-149a-410f-b193-382784505a0f","ios":"levelo://app?vid=fdc21814-149a-410f-b193-382784505a0f"},"vehicle_type_id":"4","last_reported":1781292909,"current_range_meters":4400,"station_id":"st_d3nk18o9ro0c73en2l3g","pricing_plan_id":"cebpf4jnsgd1na2vs0mg"},{"bike_id":"f7698676-1932-4dbf-ab9d-6c907c9bbe14","system_id":"levelo_inurba_marseille","lat":43.31886,"lon":5.37143,"is_reserved":false,"is_disabled":false,"rental_uris":{"android":"levelo://app?vid=f7698676-1932-4dbf-ab9d-6c907c9bbe14","ios":"levelo://app?vid=f7698676-1932-4dbf-ab9d-6c907c9bbe14"},"vehicle_type_id":"4","last_reported":1781292909,"current_range_meters":4400,"station_id":"","pricing_plan_id":"cebpf4jnsgd1na2vs0mg"},{"bike_id":"8afeb7a8-b686-4611-8220-2ade2d33c717","system_id":"levelo_inurba_marseille","lat":43.29598,"lon":5.3772,"is_reserved":false,"is_disabled":true,"rental_uris":{"android":"levelo://app?vid=8afeb7a8-b686-4611-8220-2ade2d33c717","ios":"levelo://app?vid=8afeb7a8-b686-4611-8220-2ade2d33c717"},"vehicle_type_id":"4","last_reported":1781292909,"current_range_meters":4400,"station_id":"ce4bgi92rcd13ifvqb90","pricing_plan_id":"cebpf4jnsgd1na2vs0mg"},{"bike_id":"edd7f6cf-c00d-4334-ba4f-ddda86c6a12e","system_id":"levelo_inurba_marseille","lat":43.30278,"lon":5.37694,"is_reserved":false,"is_disabled":false,"rental_uris":{"android":"levelo://app?vid=edd7f6cf-c00d-4334-ba4f-ddda86c6a12e","ios":"levelo://app?vid=edd7f6cf-c00d-4334-ba4f-ddda86c6a12e"},"vehicle_type_id":"4","last_reported":1781292909,"current_range_meters":4400,"station_id":"ce4bguh2rcd13ifvqcj0","pricing_plan_id":"cebpf4jnsgd1na2vs0mg"},{"bike_id":"2609c724-c34c-4127-a9be-64ba1fadfc36","system_id":"levelo_inurba_marseille","lat":43.2416,"lon":5.3642,"is_reserved":false,"is_disabled":false,"rental_uris":{"android":"levelo://app?vid=2609c724-c34c-4127-a9be-64ba1fadfc36","ios":"levelo://app?vid=2609c724-c34c-4127-a9be-64ba1fadfc36"},"vehicle_type_id":"4","last_reported":1781292909,"current_range_meters":4400,"station_id":"cpo36qri1sfpv3e86is0","pricing_plan_id":"cebpf4jnsgd1na2vs0mg"},{"bike_id":"45a07566-fa54-4de3-8957-355133b680d1","system_id":"levelo_inurba_marseille","lat":43.25021,"lon":5.38931,"is_reserved":false,"is_disabled":false,"rental_uris":{"android":"levelo://app?vid=45a07566-fa54-4de3-8957-355133b680d1","ios":"levelo://app?vid=45a07566-fa54-4de3-8957-355133b680d1"},"vehicle_type_id":"4","last_reported":1781292909,"current_range_meters":4400,"station_id":"ce4bhgp2rcd13ifvqfd0","pricing_plan_id":"cebpf4jnsgd1na2vs0mg"},{"bike_id":"899fc967-7875-4bbe-9778-4c7d3ea1d62e","system_id":"levelo_inurba_marseille","lat":43.29097,"lon":5.38783,"is_reserved":false,"is_disabled":false,"rental_uris":{"android":"levelo://app?vid=899fc967-7875-4bbe-9778-4c7d3ea1d62e","ios":"levelo://app?vid=899fc967-7875-4bbe-9778-4c7d3ea1d62e"},"vehicle_type_id":"4","last_reported":1781292909,"current_range_meters":4400,"station_id":"","pricing_plan_id":"cebpf4jnsgd1na2vs0mg"},{"bike_id":"1e5f8c48-dce6-462c-9a99-251ea5543707","system_id":"levelo_inurba_marseille","lat":43.25502,"lon":5.37656,"is_reserved":false,"is_disabled":false,"rental_uris":{"android":"levelo://app?vid=1e5f8c48-dce6-462c-9a99-251ea5543707","ios":"levelo://app?vid=1e5f8c48-dce6-462c-9a99-251ea5543707"},"vehicle_type_id":"4","last_reported":1781292909,"current_range_meters":4400,"station_id":"ce4bhh12rcd13ifvqff0","pricing_plan_id":"cebpf4jnsgd1na2vs0mg"},{"bike_id":"8819498d-77ca-4270-b911-1290b82aa7db","system_id":"levelo_inurba_marseille","lat":43.2867,"lon":5.38664,"is_reserved":false,"is_disabled":false,"rental_uris":{"android":"levelo://app?vid=8819498d-77ca-4270-b911-1290b82aa7db","ios":"levelo://app?vid=8819498d-77ca-4270-b911-1290b82aa7db"},"vehicle_type_id":"4","last_reported":1781292909,"current_range_meters":4400,"station_id":"ce4bh492rcd13ifvqdug","pricing_plan_id":"cebpf4jnsgd1na2vs0mg"},{"bike_id":"1a706732-5203-4eb8-9878-0ee7ddc2410a","system_id":"levelo_inurba_marseille","lat":43.26345,"lon":5.37815,"is_reserved":false,"is_disabled":false,"rental_uris":{"android":"levelo://app?vid=1a706732-5203-4eb8-9878-0ee7ddc2410a","ios":"levelo://app?vid=1a706732-5203-4eb8-9878-0ee7ddc2410a"},"vehicle_type_id":"4","last_reported":1781292909,"current_range_meters":4400,"station_id":"st_d163nis0mtpqnht9uue0","pricing_plan_id":"cebpf4jnsgd1na2vs0mg"},{"bike_id":"eec9a3a5-924d-4095-ad56-112dd87de6ba","system_id":"levelo_inurba_marseille","lat":43.30431,"lon":5.39737,"is_reserved":false,"is_disabled":false,"rental_uris":{"android":"levelo://app?vid=eec9a3a5-924d-4095-ad56-112dd87de6ba","ios":"levelo://app?vid=eec9a3a5-924d-4095-ad56-112dd87de6ba"},"vehicle_type_id":"4","last_reported":1781292909,"current_range_meters":4800,"station_id":"ce4bh092rcd13ifvqd20","pricing_plan_id":"cebpf4jnsgd1na2vs0mg"},{"bike_id":"85d8d647-f7c4-4240-a481-9767ce6f50b8","system_id":"levelo_inurba_marseille","lat":43.27815,"lon":5.40707,"is_reserved":false,"is_disabled":false,"rental_uris":{"android":"levelo://app?vid=85d8d647-f7c4-4240-a481-9767ce6f50b8","ios":"levelo://app?vid=85d8d647-f7c4-4240-a481-9767ce6f50b8"},"vehicle_type_id":"4","last_reported":1781292909,"current_range_meters":4800,"station_id":"ce4bhnh2rcd13ifvqgtg","pricing_plan_id":"cebpf4jnsgd1na2vs0mg"},{"bike_id":"a771b0ba-e6fe-40dc-8f8a-30a1d88a02ab","system_id":"levelo_inurba_marseille","lat":43.29256,"lon":5.38445,"is_reserved":false,"is_disabled":false,"rental_uris":{"android":"levelo://app?vid=a771b0ba-e6fe-40dc-8f8a-30a1d88a02ab","ios":"levelo://app?vid=a771b0ba-e6fe-40dc-8f8a-30a1d88a02ab"},"vehicle_type_id":"4","last_reported":1781292909,"current_range_meters":4800,"station_id":"ce4bh692rcd13ifvqea0","pricing_plan_id":"cebpf4jnsgd1na2vs0mg"},{"bike_id":"b83be4d3-06f4-4b3e-9ba2-a6d47abaf96e","system_id":"levelo_inurba_marseille","lat":43.29257,"lon":5.37611,"is_reserved":false,"is_disabled":true,"rental_uris":{"android":"levelo://app?vid=b83be4d3-06f4-4b3e-9ba2-a6d47abaf96e","ios":"levelo://app?vid=b83be4d3-06f4-4b3e-9ba2-a6d47abaf96e"},"vehicle_type_id":"4","last_reported":1781292909,"current_range_meters":4800,"station_id":"ce4bgi12rcd13ifvqb80","pricing_plan_id":"cebpf4jnsgd1na2vs0mg"},{"bike_id":"318c2327-cd61-4b3a-8efa-5ff92eb9038b","system_id":"levelo_inurba_marseille","lat":43.34054,"lon":5.36561,"is_reserved":false,"is_disabled":false,"rental_uris":{"android":"levelo://app?vid=318c2327-cd61-4b3a-8efa-5ff92eb9038b","ios":"levelo://app?vid=318c2327-cd61-4b3a-8efa-5ff92eb9038b"},"vehicle_type_id":"4","last_reported":1781292909,"current_range_meters":4800,"station_id":"","pricing_plan_id":"cebpf4jnsgd1na2vs0mg"},{"bike_id":"d9bbcfa4-a44d-4020-b0df-d2651b3bdf41","system_id":"levelo_inurba_marseille","lat":43.21188,"lon":5.35056,"is_reserved":false,"is_disabled":false,"rental_uris":{"android":"levelo://app?vid=d9bbcfa4-a44d-4020-b0df-d2651b3bdf41","ios":"levelo://app?vid=d9bbcfa4-a44d-4020-b0df-d2651b3bdf41"},"vehicle_type_id":"4","last_reported":1781292909,"current_range_meters":4800,"station_id":"st_cvj6sg6p6f1abm77japg","pricing_plan_id":"cebpf4jnsgd1na2vs0mg"},{"bike_id":"1cf00d28-1590-4edc-a831-e1616f52c218","system_id":"levelo_inurba_marseille","lat":43.29527,"lon":5.38535,"is_reserved":false,"is_disabled":false,"rental_uris":{"android":"levelo://app?vid=1cf00d28-1590-4edc-a831-e1616f52c218","ios":"levelo://app?vid=1cf00d28-1590-4edc-a831-e1616f52c218"},"vehicle_type_id":"4","last_reported":1781292909,"current_range_meters":4800,"station_id":"ce4bgih2rcd13ifvqba0","pricing_plan_id":"cebpf4jnsgd1na2vs0mg"},{"bike_id":"66fae40d-083e-4fda-b105-98f5ea4343f9","system_id":"levelo_inurba_marseille","lat":43.26932,"lon":5.3892,"is_reserved":false,"is_disabled":false,"rental_uris":{"android":"levelo://app?vid=66fae40d-083e-4fda-b105-98f5ea4343f9","ios":"levelo://app?vid=66fae40d-083e-4fda-b105-98f5ea4343f9"},"vehicle_type_id":"4","last_reported":1781292909,"current_range_meters":4800,"station_id":"ce4bhhh2rcd13ifvqfl0","pricing_plan_id":"cebpf4jnsgd1na2vs0mg"},{"bike_id":"24f02d56-4cb2-4734-b396-c4353be9b86c","system_id":"levelo_inurba_marseille","lat":43.32111,"lon":5.36794,"is_reserved":false,"is_disabled":false,"rental_uris":{"android":"levelo://app?vid=24f02d56-4cb2-4734-b396-c4353be9b86c","ios":"levelo://app?vid=24f02d56-4cb2-4734-b396-c4353be9b86c"},"vehicle_type_id":"4","last_reported":1781292909,"current_range_meters":4800,"station_id":"ce4bhrh2rcd13ifvqhug","pricing_plan_id":"cebpf4jnsgd1na2vs0mg"},{"bike_id":"b4c0f195-58a3-456c-9ed4-e0663f1468e6","system_id":"levelo_inurba_marseille","lat":43.28272,"lon":5.37401,"is_reserved":false,"is_disabled":false,"rental_uris":{"android":"levelo://app?vid=b4c0f195-58a3-456c-9ed4-e0663f1468e6","ios":"levelo://app?vid=b4c0f195-58a3-456c-9ed4-e0663f1468e6"},"vehicle_type_id":"4","last_reported":1781292909,"current_range_meters":4800,"station_id":"","pricing_plan_id":"cebpf4jnsgd1na2vs0mg"},{"bike_id":"a311639b-e89c-49b4-b196-1efe7e03ead0","system_id":"levelo_inurba_marseille","lat":43.2518,"lon":5.3758,"is_reserved":false,"is_disabled":false,"rental_uris":{"android":"levelo://app?vid=a311639b-e89c-49b4-b196-1efe7e03ead0","ios":"levelo://app?vid=a311639b-e89c-49b4-b196-1efe7e03ead0"},"vehicle_type_id":"4","last_reported":1781292909,"current_range_meters":4800,"station_id":"","pricing_plan_id":"cebpf4jnsgd1na2vs0mg"},{"bike_id":"d10aeada-e5bb-465f-aabb-98c102cbbc5d","system_id":"levelo_inurba_marseille","lat":43.231918,"lon":5.355522,"is_reserved":false,"is_disabled":false,"rental_uris":{"android":"levelo://app?vid=d10aeada-e5bb-465f-aabb-98c102cbbc5d","ios":"levelo://app?vid=d10aeada-e5bb-465f-aabb-98c102cbbc5d"},"vehicle_type_id":"4","last_reported":1781292909,"current_range_meters":4800,"station_id":"ce4bhu92rcd13ifvqi70","pricing_plan_id":"cebpf4jnsgd1na2vs0mg"},{"bike_id":"95a6a820-080c-4047-9edc-2eab85cc3ea0","system_id":"levelo_inurba_marseille","lat":43.31271,"lon":5.37302,"is_reserved":false,"is_disabled":false,"rental_uris":{"android":"levelo://app?vid=95a6a820-080c-4047-9edc-2eab85cc3ea0","ios":"levelo://app?vid=95a6a820-080c-4047-9edc-2eab85cc3ea0"},"vehicle_type_id":"4","last_reported":1781292909,"current_range_meters":4800,"station_id":"","pricing_plan_id":"cebpf4jnsgd1na2vs0mg"},{"bike_id":"f5f69f15-c90c-42e6-b06a-3a323fa3f698","system_id":"levelo_inurba_marseille","lat":43.29982,"lon":5.38493,"is_reserved":false,"is_disabled":false,"rental_uris":{"android":"levelo://app?vid=f5f69f15-c90c-42e6-b06a-3a323fa3f698","ios":"levelo://app?vid=f5f69f15-c90c-42e6-b06a-3a323fa3f698"},"vehicle_type_id":"4","last_reported":1781292909,"current_range_meters":5600,"station_id":"ce4bgj92rcd13ifvqbd0","pricing_plan_id":"cebpf4jnsgd1na2vs0mg"},{"bike_id":"a47caa15-5bbd-4fd9-84c1-e2018ea3f40b","system_id":"levelo_inurba_marseille","lat":43.29869,"lon":5.36267,"is_reserved":false,"is_disabled":false,"rental_uris":{"android":"levelo://app?vid=a47caa15-5bbd-4fd9-84c1-e2018ea3f40b","ios":"levelo://app?vid=a47caa15-5bbd-4fd9-84c1-e2018ea3f40b"},"vehicle_type_id":"4","last_reported":1781292909,"current_range_meters":5600,"station_id":"ce4bgpp2rcd13ifvqc3g","pricing_plan_id":"cebpf4jnsgd1na2vs0mg"},{"bike_id":"116e7e79-df73-459e-bb6d-922ab4ccb8bd","system_id":"levelo_inurba_marseille","lat":43.21201,"lon":5.35073,"is_reserved":false,"is_disabled":false,"rental_uris":{"android":"levelo://app?vid=116e7e79-df73-459e-bb6d-922ab4ccb8bd","ios":"levelo://app?vid=116e7e79-df73-459e-bb6d-922ab4ccb8bd"},"vehicle_type_id":"4","last_reported":1781292909,"current_range_meters":5600,"station_id":"st_cvj6sg6p6f1abm77japg","pricing_plan_id":"cebpf4jnsgd1na2vs0mg"},{"bike_id":"1092cd7f-d680-45ee-8ff2-7815bf031c7e","system_id":"levelo_inurba_marseille","lat":43.31627,"lon":5.37698,"is_reserved":false,"is_disabled":false,"rental_uris":{"android":"levelo://app?vid=1092cd7f-d680-45ee-8ff2-7815bf031c7e","ios":"levelo://app?vid=1092cd7f-d680-45ee-8ff2-7815bf031c7e"},"vehicle_type_id":"4","last_reported":1781292909,"current_range_meters":5600,"station_id":"ce4bgth2rcd13ifvqch0","pricing_plan_id":"cebpf4jnsgd1na2vs0mg"},{"bike_id":"e6d0ecc2-1125-423f-82a1-db0def8f9b55","system_id":"levelo_inurba_marseille","lat":43.284614,"lon":5.358905,"is_reserved":false,"is_disabled":false,"rental_uris":{"android":"levelo://app?vid=e6d0ecc2-1125-423f-82a1-db0def8f9b55","ios":"levelo://app?vid=e6d0ecc2-1125-423f-82a1-db0def8f9b55"},"vehicle_type_id":"4","last_reported":1781292909,"current_range_meters":5600,"station_id":"ce4bhah2rcd13ifvqei0","pricing_plan_id":"cebpf4jnsgd1na2vs0mg"},{"bike_id":"0e737488-eea1-4c79-a09b-4e4182d3e90a","system_id":"levelo_inurba_marseille","lat":43.26221,"lon":5.38769,"is_reserved":false,"is_disabled":false,"rental_uris":{"android":"levelo://app?vid=0e737488-eea1-4c79-a09b-4e4182d3e90a","ios":"levelo://app?vid=0e737488-eea1-4c79-a09b-4e4182d3e90a"},"vehicle_type_id":"4","last_reported":1781292909,"current_range_meters":5600,"station_id":"st_d8gjfg747rts73coq3b0","pricing_plan_id":"cebpf4jnsgd1na2vs0mg"},{"bike_id":"1c444fa9-9def-4999-8bc4-4a6c72c5f742","system_id":"levelo_inurba_marseille","lat":43.26024,"lon":5.37548,"is_reserved":false,"is_disabled":false,"rental_uris":{"android":"levelo://app?vid=1c444fa9-9def-4999-8bc4-4a6c72c5f742","ios":"levelo://app?vid=1c444fa9-9def-4999-8bc4-4a6c72c5f742"},"vehicle_type_id":"4","last_reported":1781292909,"current_range_meters":5600,"station_id":"ce4bhgh2rcd13ifvqfa0","pricing_plan_id":"cebpf4jnsgd1na2vs0mg"},{"bike_id":"d162d616-4430-478b-8fdb-05c376117507","system_id":"levelo_inurba_marseille","lat":43.26568,"lon":5.37284,"is_reserved":false,"is_disabled":false,"rental_uris":{"android":"levelo://app?vid=d162d616-4430-478b-8fdb-05c376117507","ios":"levelo://app?vid=d162d616-4430-478b-8fdb-05c376117507"},"vehicle_type_id":"4","last_reported":1781292909,"current_range_meters":5600,"station_id":"ce4bhg12rcd13ifvqf70","pricing_plan_id":"cebpf4jnsgd1na2vs0mg"},{"bike_id":"6e2438bd-db9c-44c7-817f-8838bffe7fff","system_id":"levelo_inurba_marseille","lat":43.26705,"lon":5.38259,"is_reserved":false,"is_disabled":false,"rental_uris":{"android":"levelo://app?vid=6e2438bd-db9c-44c7-817f-8838bffe7fff","ios":"levelo://app?vid=6e2438bd-db9c-44c7-817f-8838bffe7fff"},"vehicle_type_id":"4","last_reported":1781292909,"current_range_meters":5600,"station_id":"ce4bhg92rcd13ifvqf90","pricing_plan_id":"cebpf4jnsgd1na2vs0mg"},{"bike_id":"6edb1571-ff0e-41be-86f6-ab57a8172f99","system_id":"levelo_inurba_marseille","lat":43.32127,"lon":5.36777,"is_reserved":false,"is_disabled":false,"rental_uris":{"android":"levelo://app?vid=6edb1571-ff0e-41be-86f6-ab57a8172f99","ios":"levelo://app?vid=6edb1571-ff0e-41be-86f6-ab57a8172f99"},"vehicle_type_id":"4","last_reported":1781292909,"current_range_meters":5600,"station_id":"ce4bhrh2rcd13ifvqhug","pricing_plan_id":"cebpf4jnsgd1na2vs0mg"},{"bike_id":"c4c8f592-2f0a-488a-9059-30a67bfcfd66","system_id":"levelo_inurba_marseille","lat":43.24806,"lon":5.3745,"is_reserved":false,"is_disabled":false,"rental_uris":{"android":"levelo://app?vid=c4c8f592-2f0a-488a-9059-30a67bfcfd66","ios":"levelo://app?vid=c4c8f592-2f0a-488a-9059-30a67bfcfd66"},"vehicle_type_id":"4","last_reported":1781292909,"current_range_meters":5600,"station_id":"ce4bhgh2rcd13ifvqfb0","pricing_plan_id":"cebpf4jnsgd1na2vs0mg"},{"bike_id":"8bf99202-0aa0-4c45-a06d-a3fa999fbea6","system_id":"levelo_inurba_marseille","lat":43.31128,"lon":5.37147,"is_reserved":false,"is_disabled":true,"rental_uris":{"android":"levelo://app?vid=8bf99202-0aa0-4c45-a06d-a3fa999fbea6","ios":"levelo://app?vid=8bf99202-0aa0-4c45-a06d-a3fa999fbea6"},"vehicle_type_id":"4","last_reported":1781292909,"current_range_meters":5600,"station_id":"","pricing_plan_id":"cebpf4jnsgd1na2vs0mg"},{"bike_id":"1345c154-16ee-4ed3-b4f1-947a1b328d12","system_id":"levelo_inurba_marseille","lat":43.26231,"lon":5.38769,"is_reserved":false,"is_disabled":false,"rental_uris":{"android":"levelo://app?vid=1345c154-16ee-4ed3-b4f1-947a1b328d12","ios":"levelo://app?vid=1345c154-16ee-4ed3-b4f1-947a1b328d12"},"vehicle_type_id":"4","last_reported":1781292909,"current_range_meters":5600,"station_id":"st_d8gjfg747rts73coq3b0","pricing_plan_id":"cebpf4jnsgd1na2vs0mg"},{"bike_id":"a848a5d1-feb4-4560-89e7-b2ad298b123f","system_id":"levelo_inurba_marseille","lat":43.24632,"lon":5.43154,"is_reserved":false,"is_disabled":false,"rental_uris":{"android":"levelo://app?vid=a848a5d1-feb4-4560-89e7-b2ad298b123f","ios":"levelo://app?vid=a848a5d1-feb4-4560-89e7-b2ad298b123f"},"vehicle_type_id":"4","last_reported":1781292909,"current_range_meters":5600,"station_id":"st_d2m6c4gdas8pm72e190g","pricing_plan_id":"cebpf4jnsgd1na2vs0mg"},{"bike_id":"7717390a-9f55-4678-b2a5-ba0a73b8a548","system_id":"levelo_inurba_marseille","lat":43.31595,"lon":5.36964,"is_reserved":false,"is_disabled":false,"rental_uris":{"android":"levelo://app?vid=7717390a-9f55-4678-b2a5-ba0a73b8a548","ios":"levelo://app?vid=7717390a-9f55-4678-b2a5-ba0a73b8a548"},"vehicle_type_id":"4","last_reported":1781292909,"current_range_meters":5600,"station_id":"","pricing_plan_id":"cebpf4jnsgd1na2vs0mg"},{"bike_id":"c7003374-df0a-4adf-a763-b7ffcb27c463","system_id":"levelo_inurba_marseille","lat":43.28484,"lon":5.48391,"is_reserved":false,"is_disabled":false,"rental_uris":{"android":"levelo://app?vid=c7003374-df0a-4adf-a763-b7ffcb27c463","ios":"levelo://app?vid=c7003374-df0a-4adf-a763-b7ffcb27c463"},"vehicle_type_id":"4","last_reported":1781292909,"current_range_meters":5600,"station_id":"st_d3svhcjqgbts73a3dn0g","pricing_plan_id":"cebpf4jnsgd1na2vs0mg"},{"bike_id":"a02b2777-d4a6-4140-aa06-433c7ac3d65c","system_id":"levelo_inurba_marseille","lat":43.24812,"lon":5.37463,"is_reserved":false,"is_disabled":false,"rental_uris":{"android":"levelo://app?vid=a02b2777-d4a6-4140-aa06-433c7ac3d65c","ios":"levelo://app?vid=a02b2777-d4a6-4140-aa06-433c7ac3d65c"},"vehicle_type_id":"4","last_reported":1781292909,"current_range_meters":5600,"station_id":"ce4bhgh2rcd13ifvqfb0","pricing_plan_id":"cebpf4jnsgd1na2vs0mg"},{"bike_id":"ed448e96-86b6-4d9c-8c25-241ec6c86dd5","system_id":"levelo_inurba_marseille","lat":43.26345,"lon":5.37831,"is_reserved":false,"is_disabled":false,"rental_uris":{"android":"levelo://app?vid=ed448e96-86b6-4d9c-8c25-241ec6c86dd5","ios":"levelo://app?vid=ed448e96-86b6-4d9c-8c25-241ec6c86dd5"},"vehicle_type_id":"4","last_reported":1781292909,"current_range_meters":5600,"station_id":"st_d163nis0mtpqnht9uue0","pricing_plan_id":"cebpf4jnsgd1na2vs0mg"},{"bike_id":"750d545d-9962-42b9-9a8e-d0d1cf1bbc44","system_id":"levelo_inurba_marseille","lat":43.25512,"lon":5.37664,"is_reserved":false,"is_disabled":false,"rental_uris":{"android":"levelo://app?vid=750d545d-9962-42b9-9a8e-d0d1cf1bbc44","ios":"levelo://app?vid=750d545d-9962-42b9-9a8e-d0d1cf1bbc44"},"vehicle_type_id":"4","last_reported":1781292909,"current_range_meters":5600,"station_id":"ce4bhh12rcd13ifvqff0","pricing_plan_id":"cebpf4jnsgd1na2vs0mg"},{"bike_id":"61b7a27c-4633-4433-8d95-fae8968731e7","system_id":"levelo_inurba_marseille","lat":43.27498,"lon":5.41663,"is_reserved":false,"is_disabled":false,"rental_uris":{"android":"levelo://app?vid=61b7a27c-4633-4433-8d95-fae8968731e7","ios":"levelo://app?vid=61b7a27c-4633-4433-8d95-fae8968731e7"},"vehicle_type_id":"4","last_reported":1781292909,"current_range_meters":5600,"station_id":"","pricing_plan_id":"cebpf4jnsgd1na2vs0mg"},{"bike_id":"bc87cd35-3f24-40b9-8a82-c24cdb1e46a5","system_id":"levelo_inurba_marseille","lat":43.27511,"lon":5.41593,"is_reserved":false,"is_disabled":false,"rental_uris":{"android":"levelo://app?vid=bc87cd35-3f24-40b9-8a82-c24cdb1e46a5","ios":"levelo://app?vid=bc87cd35-3f24-40b9-8a82-c24cdb1e46a5"},"vehicle_type_id":"4","last_reported":1781292909,"current_range_meters":5600,"station_id":"st_d6im8g6chgec73a5pndg","pricing_plan_id":"cebpf4jnsgd1na2vs0mg"},{"bike_id":"ee494397-ad1c-4b5e-80ed-9cc6e888762d","system_id":"levelo_inurba_marseille","lat":43.31901,"lon":5.42479,"is_reserved":false,"is_disabled":false,"rental_uris":{"android":"levelo://app?vid=ee494397-ad1c-4b5e-80ed-9cc6e888762d","ios":"levelo://app?vid=ee494397-ad1c-4b5e-80ed-9cc6e888762d"},"vehicle_type_id":"4","last_reported":1781292909,"current_range_meters":5600,"station_id":"","pricing_plan_id":"cebpf4jnsgd1na2vs0mg"},{"bike_id":"76ff20aa-c2bd-4fa2-8dca-7099f4d9bbe6","system_id":"levelo_inurba_marseille","lat":43.2119,"lon":5.35076,"is_reserved":false,"is_disabled":false,"rental_uris":{"android":"levelo://app?vid=76ff20aa-c2bd-4fa2-8dca-7099f4d9bbe6","ios":"levelo://app?vid=76ff20aa-c2bd-4fa2-8dca-7099f4d9bbe6"},"vehicle_type_id":"4","last_reported":1781292909,"current_range_meters":5600,"station_id":"st_cvj6sg6p6f1abm77japg","pricing_plan_id":"cebpf4jnsgd1na2vs0mg"},{"bike_id":"4865a1c5-afe2-4dda-8194-f69b08d22f31","system_id":"levelo_inurba_marseille","lat":43.2557,"lon":5.38224,"is_reserved":false,"is_disabled":false,"rental_uris":{"android":"levelo://app?vid=4865a1c5-afe2-4dda-8194-f69b08d22f31","ios":"levelo://app?vid=4865a1c5-afe2-4dda-8194-f69b08d22f31"},"vehicle_type_id":"4","last_reported":1781292909,"current_range_meters":6000,"station_id":"ce4bhih2rcd13ifvqfs0","pricing_plan_id":"cebpf4jnsgd1na2vs0mg"},{"bike_id":"cb89ad1b-8fbc-4756-88a3-c4dbab8d9012","system_id":"levelo_inurba_marseille","lat":43.29299,"lon":5.37146,"is_reserved":false,"is_disabled":false,"rental_uris":{"android":"levelo://app?vid=cb89ad1b-8fbc-4756-88a3-c4dbab8d9012","ios":"levelo://app?vid=cb89ad1b-8fbc-4756-88a3-c4dbab8d9012"},"vehicle_type_id":"4","last_reported":1781292909,"current_range_meters":6000,"station_id":"ce4bgh92rcd13ifvqb40","pricing_plan_id":"cebpf4jnsgd1na2vs0mg"},{"bike_id":"c1d60e02-0712-4ca7-b36b-e7863f34089e","system_id":"levelo_inurba_marseille","lat":43.30765,"lon":5.37995,"is_reserved":false,"is_disabled":false,"rental_uris":{"android":"levelo://app?vid=c1d60e02-0712-4ca7-b36b-e7863f34089e","ios":"levelo://app?vid=c1d60e02-0712-4ca7-b36b-e7863f34089e"},"vehicle_type_id":"4","last_reported":1781292909,"current_range_meters":6000,"station_id":"","pricing_plan_id":"cebpf4jnsgd1na2vs0mg"},{"bike_id":"faf8ca25-719d-47d6-9604-bd79076dfce4","system_id":"levelo_inurba_marseille","lat":43.26684,"lon":5.38262,"is_reserved":false,"is_disabled":false,"rental_uris":{"android":"levelo://app?vid=faf8ca25-719d-47d6-9604-bd79076dfce4","ios":"levelo://app?vid=faf8ca25-719d-47d6-9604-bd79076dfce4"},"vehicle_type_id":"4","last_reported":1781292909,"current_range_meters":6000,"station_id":"ce4bhg92rcd13ifvqf90","pricing_plan_id":"cebpf4jnsgd1na2vs0mg"},{"bike_id":"b105e559-ad92-41ad-9bdf-4bd2f454dd68","system_id":"levelo_inurba_marseille","lat":43.30166,"lon":5.44922,"is_reserved":false,"is_disabled":false,"rental_uris":{"android":"levelo://app?vid=b105e559-ad92-41ad-9bdf-4bd2f454dd68","ios":"levelo://app?vid=b105e559-ad92-41ad-9bdf-4bd2f454dd68"},"vehicle_type_id":"4","last_reported":1781292909,"current_range_meters":6000,"station_id":"","pricing_plan_id":"cebpf4jnsgd1na2vs0mg"},{"bike_id":"f7b2140e-39b4-4c04-9be7-1aff72473e60","system_id":"levelo_inurba_marseille","lat":43.26356,"lon":5.37812,"is_reserved":false,"is_disabled":false,"rental_uris":{"android":"levelo://app?vid=f7b2140e-39b4-4c04-9be7-1aff72473e60","ios":"levelo://app?vid=f7b2140e-39b4-4c04-9be7-1aff72473e60"},"vehicle_type_id":"4","last_reported":1781292909,"current_range_meters":6000,"station_id":"st_d163nis0mtpqnht9uue0","pricing_plan_id":"cebpf4jnsgd1na2vs0mg"},{"bike_id":"5959399d-2a5a-4619-a6df-91439cbfbae4","system_id":"levelo_inurba_marseille","lat":43.27068,"lon":5.38301,"is_reserved":false,"is_disabled":false,"rental_uris":{"android":"levelo://app?vid=5959399d-2a5a-4619-a6df-91439cbfbae4","ios":"levelo://app?vid=5959399d-2a5a-4619-a6df-91439cbfbae4"},"vehicle_type_id":"4","last_reported":1781292909,"current_range_meters":6000,"station_id":"st_d3n2fo6cfp8s73cte1j0","pricing_plan_id":"cebpf4jnsgd1na2vs0mg"},{"bike_id":"cdd0d7c4-3655-4c38-929a-373781280705","system_id":"levelo_inurba_marseille","lat":43.25507,"lon":5.37635,"is_reserved":false,"is_disabled":false,"rental_uris":{"android":"levelo://app?vid=cdd0d7c4-3655-4c38-929a-373781280705","ios":"levelo://app?vid=cdd0d7c4-3655-4c38-929a-373781280705"},"vehicle_type_id":"4","last_reported":1781292909,"current_range_meters":6000,"station_id":"ce4bhh12rcd13ifvqff0","pricing_plan_id":"cebpf4jnsgd1na2vs0mg"},{"bike_id":"87ca9456-790f-4286-a6c6-71b085880557","system_id":"levelo_inurba_marseille","lat":43.30151,"lon":5.380714,"is_reserved":false,"is_disabled":false,"rental_uris":{"android":"levelo://app?vid=87ca9456-790f-4286-a6c6-71b085880557","ios":"levelo://app?vid=87ca9456-790f-4286-a6c6-71b085880557"},"vehicle_type_id":"4","last_reported":1781292909,"current_range_meters":6000,"station_id":"ce4bgjp2rcd13ifvqbh0","pricing_plan_id":"cebpf4jnsgd1na2vs0mg"},{"bike_id":"33532cbe-d4e4-4c5b-864b-e564979ceb6a","system_id":"levelo_inurba_marseille","lat":43.29097,"lon":5.38168,"is_reserved":false,"is_disabled":false,"rental_uris":{"android":"levelo://app?vid=33532cbe-d4e4-4c5b-864b-e564979ceb6a","ios":"levelo://app?vid=33532cbe-d4e4-4c5b-864b-e564979ceb6a"},"vehicle_type_id":"4","last_reported":1781292909,"current_range_meters":6000,"station_id":"ce4bh512rcd13ifvqe2g","pricing_plan_id":"cebpf4jnsgd1na2vs0mg"},{"bike_id":"3eb1ee37-e347-41f2-8d65-873e103ae57e","system_id":"levelo_inurba_marseille","lat":43.26502,"lon":5.39527,"is_reserved":false,"is_disabled":false,"rental_uris":{"android":"levelo://app?vid=3eb1ee37-e347-41f2-8d65-873e103ae57e","ios":"levelo://app?vid=3eb1ee37-e347-41f2-8d65-873e103ae57e"},"vehicle_type_id":"4","last_reported":1781292909,"current_range_meters":6000,"station_id":"ce4bhi12rcd13ifvqfq0","pricing_plan_id":"cebpf4jnsgd1na2vs0mg"},{"bike_id":"7a4ba46c-6362-49a8-982a-a4ee92fd7529","system_id":"levelo_inurba_marseille","lat":43.26869,"lon":5.3706,"is_reserved":false,"is_disabled":false,"rental_uris":{"android":"levelo://app?vid=7a4ba46c-6362-49a8-982a-a4ee92fd7529","ios":"levelo://app?vid=7a4ba46c-6362-49a8-982a-a4ee92fd7529"},"vehicle_type_id":"4","last_reported":1781292909,"current_range_meters":6000,"station_id":"","pricing_plan_id":"cebpf4jnsgd1na2vs0mg"},{"bike_id":"79b43201-72d8-414c-b587-3a09cde9418d","system_id":"levelo_inurba_marseille","lat":43.25039,"lon":5.38963,"is_reserved":false,"is_disabled":false,"rental_uris":{"android":"levelo://app?vid=79b43201-72d8-414c-b587-3a09cde9418d","ios":"levelo://app?vid=79b43201-72d8-414c-b587-3a09cde9418d"},"vehicle_type_id":"4","last_reported":1781292909,"current_range_meters":6000,"station_id":"ce4bhgp2rcd13ifvqfd0","pricing_plan_id":"cebpf4jnsgd1na2vs0mg"},{"bike_id":"a4b5c841-081f-4864-9ad4-e1c7a6e60416","system_id":"levelo_inurba_marseille","lat":43.23799,"lon":5.36629,"is_reserved":false,"is_disabled":true,"rental_uris":{"android":"levelo://app?vid=a4b5c841-081f-4864-9ad4-e1c7a6e60416","ios":"levelo://app?vid=a4b5c841-081f-4864-9ad4-e1c7a6e60416"},"vehicle_type_id":"4","last_reported":1781292909,"current_range_meters":6000,"station_id":"st_d3nk18o9ro0c73en2l3g","pricing_plan_id":"cebpf4jnsgd1na2vs0mg"},{"bike_id":"0f111977-968e-4f06-a972-b4bf5a68a382","system_id":"levelo_inurba_marseille","lat":43.25264,"lon":5.39953,"is_reserved":false,"is_disabled":false,"rental_uris":{"android":"levelo://app?vid=0f111977-968e-4f06-a972-b4bf5a68a382","ios":"levelo://app?vid=0f111977-968e-4f06-a972-b4bf5a68a382"},"vehicle_type_id":"4","last_reported":1781292909,"current_range_meters":6000,"station_id":"","pricing_plan_id":"cebpf4jnsgd1na2vs0mg"},{"bike_id":"fddbf6a7-cfab-4481-914f-86a0d0db8fc2","system_id":"levelo_inurba_marseille","lat":43.26357,"lon":5.37794,"is_reserved":false,"is_disabled":false,"rental_uris":{"android":"levelo://app?vid=fddbf6a7-cfab-4481-914f-86a0d0db8fc2","ios":"levelo://app?vid=fddbf6a7-cfab-4481-914f-86a0d0db8fc2"},"vehicle_type_id":"4","last_reported":1781292909,"current_range_meters":6000,"station_id":"st_d163nis0mtpqnht9uue0","pricing_plan_id":"cebpf4jnsgd1na2vs0mg"},{"bike_id":"83b97a84-3219-4b15-b3c7-d12b8693895b","system_id":"levelo_inurba_marseille","lat":43.26207,"lon":5.37447,"is_reserved":false,"is_disabled":false,"rental_uris":{"android":"levelo://app?vid=83b97a84-3219-4b15-b3c7-d12b8693895b","ios":"levelo://app?vid=83b97a84-3219-4b15-b3c7-d12b8693895b"},"vehicle_type_id":"4","last_reported":1781292909,"current_range_meters":6000,"station_id":"ce4bhgp2rcd13ifvqfc0","pricing_plan_id":"cebpf4jnsgd1na2vs0mg"},{"bike_id":"7bdca9b5-ae95-45af-9bb0-fef90ec460fb","system_id":"levelo_inurba_marseille","lat":43.2844,"lon":5.392,"is_reserved":false,"is_disabled":false,"rental_uris":{"android":"levelo://app?vid=7bdca9b5-ae95-45af-9bb0-fef90ec460fb","ios":"levelo://app?vid=7bdca9b5-ae95-45af-9bb0-fef90ec460fb"},"vehicle_type_id":"4","last_reported":1781292909,"current_range_meters":6400,"station_id":"ce4bhoh2rcd13ifvqh5g","pricing_plan_id":"cebpf4jnsgd1na2vs0mg"},{"bike_id":"f47a4b19-cf40-487c-b9a5-ac5a7187ef94","system_id":"levelo_inurba_marseille","lat":43.27667,"lon":5.35744,"is_reserved":false,"is_disabled":false,"rental_uris":{"android":"levelo://app?vid=f47a4b19-cf40-487c-b9a5-ac5a7187ef94","ios":"levelo://app?vid=f47a4b19-cf40-487c-b9a5-ac5a7187ef94"},"vehicle_type_id":"4","last_reported":1781292909,"current_range_meters":6400,"station_id":"","pricing_plan_id":"cebpf4jnsgd1na2vs0mg"},{"bike_id":"3e4303bd-4e13-42f8-ae0c-25a66192c901","system_id":"levelo_inurba_marseille","lat":43.31549,"lon":5.38812,"is_reserved":false,"is_disabled":false,"rental_uris":{"android":"levelo://app?vid=3e4303bd-4e13-42f8-ae0c-25a66192c901","ios":"levelo://app?vid=3e4303bd-4e13-42f8-ae0c-25a66192c901"},"vehicle_type_id":"4","last_reported":1781292909,"current_range_meters":6400,"station_id":"","pricing_plan_id":"cebpf4jnsgd1na2vs0mg"},{"bike_id":"9355951e-b041-446b-b93e-73dce11071c1","system_id":"levelo_inurba_marseille","lat":43.30297,"lon":5.37316,"is_reserved":false,"is_disabled":false,"rental_uris":{"android":"levelo://app?vid=9355951e-b041-446b-b93e-73dce11071c1","ios":"levelo://app?vid=9355951e-b041-446b-b93e-73dce11071c1"},"vehicle_type_id":"4","last_reported":1781292909,"current_range_meters":6400,"station_id":"","pricing_plan_id":"cebpf4jnsgd1na2vs0mg"},{"bike_id":"52e0ca30-f6db-4b40-a595-fe3e1b7ca10e","system_id":"levelo_inurba_marseille","lat":43.26215,"lon":5.37429,"is_reserved":false,"is_disabled":true,"rental_uris":{"android":"levelo://app?vid=52e0ca30-f6db-4b40-a595-fe3e1b7ca10e","ios":"levelo://app?vid=52e0ca30-f6db-4b40-a595-fe3e1b7ca10e"},"vehicle_type_id":"4","last_reported":1781292909,"current_range_meters":6400,"station_id":"ce4bhgp2rcd13ifvqfc0","pricing_plan_id":"cebpf4jnsgd1na2vs0mg"},{"bike_id":"8fc7a69b-2e9b-47d8-8e82-bcb1cc45e88e","system_id":"levelo_inurba_marseille","lat":43.28922,"lon":5.38388,"is_reserved":false,"is_disabled":false,"rental_uris":{"android":"levelo://app?vid=8fc7a69b-2e9b-47d8-8e82-bcb1cc45e88e","ios":"levelo://app?vid=8fc7a69b-2e9b-47d8-8e82-bcb1cc45e88e"},"vehicle_type_id":"4","last_reported":1781292909,"current_range_meters":6400,"station_id":"ce4bh612rcd13ifvqe6g","pricing_plan_id":"cebpf4jnsgd1na2vs0mg"},{"bike_id":"7ddaee94-78ae-4b80-844b-47c3d7bd374e","system_id":"levelo_inurba_marseille","lat":43.28362,"lon":5.3862,"is_reserved":false,"is_disabled":false,"rental_uris":{"android":"levelo://app?vid=7ddaee94-78ae-4b80-844b-47c3d7bd374e","ios":"levelo://app?vid=7ddaee94-78ae-4b80-844b-47c3d7bd374e"},"vehicle_type_id":"4","last_reported":1781292909,"current_range_meters":6400,"station_id":"ce4bh492rcd13ifvqdvg","pricing_plan_id":"cebpf4jnsgd1na2vs0mg"},{"bike_id":"331d3c2a-5f8a-4e76-bd63-cd3594144ab5","system_id":"levelo_inurba_marseille","lat":43.2862,"lon":5.37051,"is_reserved":false,"is_disabled":false,"rental_uris":{"android":"levelo://app?vid=331d3c2a-5f8a-4e76-bd63-cd3594144ab5","ios":"levelo://app?vid=331d3c2a-5f8a-4e76-bd63-cd3594144ab5"},"vehicle_type_id":"4","last_reported":1781292909,"current_range_meters":6400,"station_id":"ce4bht12rcd13ifvqi60","pricing_plan_id":"cebpf4jnsgd1na2vs0mg"},{"bike_id":"8549ed76-d067-4e8e-8122-bf5cc7918ab0","system_id":"levelo_inurba_marseille","lat":43.27813,"lon":5.4071,"is_reserved":false,"is_disabled":false,"rental_uris":{"android":"levelo://app?vid=8549ed76-d067-4e8e-8122-bf5cc7918ab0","ios":"levelo://app?vid=8549ed76-d067-4e8e-8122-bf5cc7918ab0"},"vehicle_type_id":"4","last_reported":1781292909,"current_range_meters":6400,"station_id":"ce4bhnh2rcd13ifvqgtg","pricing_plan_id":"cebpf4jnsgd1na2vs0mg"},{"bike_id":"2b090a87-f68e-425b-bb1c-698cd697d363","system_id":"levelo_inurba_marseille","lat":43.28622,"lon":5.3509,"is_reserved":false,"is_disabled":false,"rental_uris":{"android":"levelo://app?vid=2b090a87-f68e-425b-bb1c-698cd697d363","ios":"levelo://app?vid=2b090a87-f68e-425b-bb1c-698cd697d363"},"vehicle_type_id":"4","last_reported":1781292909,"current_range_meters":6400,"station_id":"ce4bhch2rcd13ifvqeug","pricing_plan_id":"cebpf4jnsgd1na2vs0mg"},{"bike_id":"3081d497-bbc6-4b87-a5d1-bd53f3b53904","system_id":"levelo_inurba_marseille","lat":43.25518,"lon":5.37653,"is_reserved":false,"is_disabled":false,"rental_uris":{"android":"levelo://app?vid=3081d497-bbc6-4b87-a5d1-bd53f3b53904","ios":"levelo://app?vid=3081d497-bbc6-4b87-a5d1-bd53f3b53904"},"vehicle_type_id":"4","last_reported":1781292909,"current_range_meters":6400,"station_id":"ce4bhh12rcd13ifvqff0","pricing_plan_id":"cebpf4jnsgd1na2vs0mg"},{"bike_id":"0861ae41-ee4b-4f20-9f21-8200b0c33b42","system_id":"levelo_inurba_marseille","lat":43.27771,"lon":5.35547,"is_reserved":false,"is_disabled":false,"rental_uris":{"android":"levelo://app?vid=0861ae41-ee4b-4f20-9f21-8200b0c33b42","ios":"levelo://app?vid=0861ae41-ee4b-4f20-9f21-8200b0c33b42"},"vehicle_type_id":"4","last_reported":1781292909,"current_range_meters":6400,"station_id":"","pricing_plan_id":"cebpf4jnsgd1na2vs0mg"},{"bike_id":"a318bc01-9889-445e-ad9e-b36118278119","system_id":"levelo_inurba_marseille","lat":43.28623,"lon":5.35097,"is_reserved":false,"is_disabled":true,"rental_uris":{"android":"levelo://app?vid=a318bc01-9889-445e-ad9e-b36118278119","ios":"levelo://app?vid=a318bc01-9889-445e-ad9e-b36118278119"},"vehicle_type_id":"4","last_reported":1781292909,"current_range_meters":6400,"station_id":"ce4bhch2rcd13ifvqeug","pricing_plan_id":"cebpf4jnsgd1na2vs0mg"},{"bike_id":"9e36cfa1-09fe-4bd5-9827-624ec281fd82","system_id":"levelo_inurba_marseille","lat":43.26042,"lon":5.3753,"is_reserved":false,"is_disabled":false,"rental_uris":{"android":"levelo://app?vid=9e36cfa1-09fe-4bd5-9827-624ec281fd82","ios":"levelo://app?vid=9e36cfa1-09fe-4bd5-9827-624ec281fd82"},"vehicle_type_id":"4","last_reported":1781292909,"current_range_meters":6400,"station_id":"ce4bhgh2rcd13ifvqfa0","pricing_plan_id":"cebpf4jnsgd1na2vs0mg"},{"bike_id":"448b901d-9e6d-430a-aca0-f81ae66565b3","system_id":"levelo_inurba_marseille","lat":43.26022,"lon":5.37547,"is_reserved":false,"is_disabled":false,"rental_uris":{"android":"levelo://app?vid=448b901d-9e6d-430a-aca0-f81ae66565b3","ios":"levelo://app?vid=448b901d-9e6d-430a-aca0-f81ae66565b3"},"vehicle_type_id":"4","last_reported":1781292909,"current_range_meters":6400,"station_id":"ce4bhgh2rcd13ifvqfa0","pricing_plan_id":"cebpf4jnsgd1na2vs0mg"},{"bike_id":"b154e503-5e6b-4b2c-aea8-7afe1c19122c","system_id":"levelo_inurba_marseille","lat":43.28114,"lon":5.4264,"is_reserved":false,"is_disabled":false,"rental_uris":{"android":"levelo://app?vid=b154e503-5e6b-4b2c-aea8-7afe1c19122c","ios":"levelo://app?vid=b154e503-5e6b-4b2c-aea8-7afe1c19122c"},"vehicle_type_id":"4","last_reported":1781292909,"current_range_meters":6400,"station_id":"ce4bhnh2rcd13ifvqgug","pricing_plan_id":"cebpf4jnsgd1na2vs0mg"},{"bike_id":"7f928b3b-7f65-4d73-95df-3bf5f0b8fb18","system_id":"levelo_inurba_marseille","lat":43.24804,"lon":5.37454,"is_reserved":false,"is_disabled":false,"rental_uris":{"android":"levelo://app?vid=7f928b3b-7f65-4d73-95df-3bf5f0b8fb18","ios":"levelo://app?vid=7f928b3b-7f65-4d73-95df-3bf5f0b8fb18"},"vehicle_type_id":"4","last_reported":1781292909,"current_range_meters":6400,"station_id":"ce4bhgh2rcd13ifvqfb0","pricing_plan_id":"cebpf4jnsgd1na2vs0mg"},{"bike_id":"84cefb90-e5b2-45bd-b10e-3536684b6861","system_id":"levelo_inurba_marseille","lat":43.28869,"lon":5.42521,"is_reserved":false,"is_disabled":false,"rental_uris":{"android":"levelo://app?vid=84cefb90-e5b2-45bd-b10e-3536684b6861","ios":"levelo://app?vid=84cefb90-e5b2-45bd-b10e-3536684b6861"},"vehicle_type_id":"4","last_reported":1781292909,"current_range_meters":6400,"station_id":"st_d3b462108ojc7389ooeg","pricing_plan_id":"cebpf4jnsgd1na2vs0mg"},{"bike_id":"958c8186-ad12-45a2-9fb2-f0f0e06e2fa4","system_id":"levelo_inurba_marseille","lat":43.24496,"lon":5.39677,"is_reserved":false,"is_disabled":false,"rental_uris":{"android":"levelo://app?vid=958c8186-ad12-45a2-9fb2-f0f0e06e2fa4","ios":"levelo://app?vid=958c8186-ad12-45a2-9fb2-f0f0e06e2fa4"},"vehicle_type_id":"4","last_reported":1781292909,"current_range_meters":6400,"station_id":"","pricing_plan_id":"cebpf4jnsgd1na2vs0mg"},{"bike_id":"997fc97f-0eeb-401e-8e9b-134da007a0f4","system_id":"levelo_inurba_marseille","lat":43.28605,"lon":5.35097,"is_reserved":false,"is_disabled":false,"rental_uris":{"android":"levelo://app?vid=997fc97f-0eeb-401e-8e9b-134da007a0f4","ios":"levelo://app?vid=997fc97f-0eeb-401e-8e9b-134da007a0f4"},"vehicle_type_id":"4","last_reported":1781292909,"current_range_meters":6800,"station_id":"ce4bhch2rcd13ifvqeug","pricing_plan_id":"cebpf4jnsgd1na2vs0mg"},{"bike_id":"d6dd20e6-e23b-40fd-bfac-952e7316ee66","system_id":"levelo_inurba_marseille","lat":43.25005,"lon":5.38931,"is_reserved":false,"is_disabled":false,"rental_uris":{"android":"levelo://app?vid=d6dd20e6-e23b-40fd-bfac-952e7316ee66","ios":"levelo://app?vid=d6dd20e6-e23b-40fd-bfac-952e7316ee66"},"vehicle_type_id":"4","last_reported":1781292909,"current_range_meters":6800,"station_id":"ce4bhgp2rcd13ifvqfd0","pricing_plan_id":"cebpf4jnsgd1na2vs0mg"},{"bike_id":"d2380da4-9d9f-4002-b192-8ab26aad71e5","system_id":"levelo_inurba_marseille","lat":43.29037,"lon":5.37554,"is_reserved":false,"is_disabled":false,"rental_uris":{"android":"levelo://app?vid=d2380da4-9d9f-4002-b192-8ab26aad71e5","ios":"levelo://app?vid=d2380da4-9d9f-4002-b192-8ab26aad71e5"},"vehicle_type_id":"4","last_reported":1781292909,"current_range_meters":6800,"station_id":"ce4bh692rcd13ifvqe90","pricing_plan_id":"cebpf4jnsgd1na2vs0mg"},{"bike_id":"f312a474-3688-43e4-8515-a784a5c48528","system_id":"levelo_inurba_marseille","lat":43.21173,"lon":5.35075,"is_reserved":false,"is_disabled":true,"rental_uris":{"android":"levelo://app?vid=f312a474-3688-43e4-8515-a784a5c48528","ios":"levelo://app?vid=f312a474-3688-43e4-8515-a784a5c48528"},"vehicle_type_id":"4","last_reported":1781292909,"current_range_meters":6800,"station_id":"st_cvj6sg6p6f1abm77japg","pricing_plan_id":"cebpf4jnsgd1na2vs0mg"},{"bike_id":"d39db183-6bf7-420a-96f5-b25822544857","system_id":"levelo_inurba_marseille","lat":43.32354,"lon":5.36762,"is_reserved":false,"is_disabled":false,"rental_uris":{"android":"levelo://app?vid=d39db183-6bf7-420a-96f5-b25822544857","ios":"levelo://app?vid=d39db183-6bf7-420a-96f5-b25822544857"},"vehicle_type_id":"4","last_reported":1781292909,"current_range_meters":6800,"station_id":"ce4bhsh2rcd13ifvqi2g","pricing_plan_id":"cebpf4jnsgd1na2vs0mg"},{"bike_id":"a0d2ac5f-fff6-43f6-831d-dfa81e9c3981","system_id":"levelo_inurba_marseille","lat":43.29615,"lon":5.36419,"is_reserved":false,"is_disabled":false,"rental_uris":{"android":"levelo://app?vid=a0d2ac5f-fff6-43f6-831d-dfa81e9c3981","ios":"levelo://app?vid=a0d2ac5f-fff6-43f6-831d-dfa81e9c3981"},"vehicle_type_id":"4","last_reported":1781292909,"current_range_meters":6800,"station_id":"","pricing_plan_id":"cebpf4jnsgd1na2vs0mg"},{"bike_id":"63988e84-7336-4dd9-b1ac-690538f4ecbd","system_id":"levelo_inurba_marseille","lat":43.24071,"lon":5.37746,"is_reserved":false,"is_disabled":false,"rental_uris":{"android":"levelo://app?vid=63988e84-7336-4dd9-b1ac-690538f4ecbd","ios":"levelo://app?vid=63988e84-7336-4dd9-b1ac-690538f4ecbd"},"vehicle_type_id":"4","last_reported":1781292909,"current_range_meters":6800,"station_id":"ce4bhnp2rcd13ifvqgvg","pricing_plan_id":"cebpf4jnsgd1na2vs0mg"},{"bike_id":"2d65b860-94da-4574-a20f-82b65ca5f84b","system_id":"levelo_inurba_marseille","lat":43.22558,"lon":5.41638,"is_reserved":false,"is_disabled":false,"rental_uris":{"android":"levelo://app?vid=2d65b860-94da-4574-a20f-82b65ca5f84b","ios":"levelo://app?vid=2d65b860-94da-4574-a20f-82b65ca5f84b"},"vehicle_type_id":"4","last_reported":1781292909,"current_range_meters":6800,"station_id":"st_d2o4gvlbi1j2169b742g","pricing_plan_id":"cebpf4jnsgd1na2vs0mg"},{"bike_id":"1ca3a914-a55c-4637-a9ca-4ffd36fbecad","system_id":"levelo_inurba_marseille","lat":43.262214,"lon":5.387661,"is_reserved":false,"is_disabled":true,"rental_uris":{"android":"levelo://app?vid=1ca3a914-a55c-4637-a9ca-4ffd36fbecad","ios":"levelo://app?vid=1ca3a914-a55c-4637-a9ca-4ffd36fbecad"},"vehicle_type_id":"4","last_reported":1781292909,"current_range_meters":6800,"station_id":"st_d8gjfg747rts73coq3b0","pricing_plan_id":"cebpf4jnsgd1na2vs0mg"},{"bike_id":"c4decb83-9012-4817-bf29-a7abe31071b8","system_id":"levelo_inurba_marseille","lat":43.27194,"lon":5.40999,"is_reserved":false,"is_disabled":false,"rental_uris":{"android":"levelo://app?vid=c4decb83-9012-4817-bf29-a7abe31071b8","ios":"levelo://app?vid=c4decb83-9012-4817-bf29-a7abe31071b8"},"vehicle_type_id":"4","last_reported":1781292909,"current_range_meters":6800,"station_id":"ce4bhl12rcd13ifvqgf0","pricing_plan_id":"cebpf4jnsgd1na2vs0mg"},{"bike_id":"5ab25b28-e35d-4f10-9ca9-7d658cce4ea9","system_id":"levelo_inurba_marseille","lat":43.28929,"lon":5.38386,"is_reserved":false,"is_disabled":true,"rental_uris":{"android":"levelo://app?vid=5ab25b28-e35d-4f10-9ca9-7d658cce4ea9","ios":"levelo://app?vid=5ab25b28-e35d-4f10-9ca9-7d658cce4ea9"},"vehicle_type_id":"4","last_reported":1781292909,"current_range_meters":6800,"station_id":"ce4bh612rcd13ifvqe6g","pricing_plan_id":"cebpf4jnsgd1na2vs0mg"},{"bike_id":"adfad833-c07b-463e-90b3-d8becfcad9a3","system_id":"levelo_inurba_marseille","lat":43.27378,"lon":5.3627,"is_reserved":false,"is_disabled":false,"rental_uris":{"android":"levelo://app?vid=adfad833-c07b-463e-90b3-d8becfcad9a3","ios":"levelo://app?vid=adfad833-c07b-463e-90b3-d8becfcad9a3"},"vehicle_type_id":"4","last_reported":1781292909,"current_range_meters":6800,"station_id":"ce4bhbh2rcd13ifvqeo0","pricing_plan_id":"cebpf4jnsgd1na2vs0mg"},{"bike_id":"7af5dc62-7a31-4d7c-a26c-927a2cb82321","system_id":"levelo_inurba_marseille","lat":43.32089,"lon":5.36783,"is_reserved":false,"is_disabled":false,"rental_uris":{"android":"levelo://app?vid=7af5dc62-7a31-4d7c-a26c-927a2cb82321","ios":"levelo://app?vid=7af5dc62-7a31-4d7c-a26c-927a2cb82321"},"vehicle_type_id":"4","last_reported":1781292909,"current_range_meters":6800,"station_id":"ce4bhrh2rcd13ifvqhug","pricing_plan_id":"cebpf4jnsgd1na2vs0mg"},{"bike_id":"e8bc347a-a5ba-427e-aeb4-d6847973e6fc","system_id":"levelo_inurba_marseille","lat":43.29055,"lon":5.37202,"is_reserved":false,"is_disabled":false,"rental_uris":{"android":"levelo://app?vid=e8bc347a-a5ba-427e-aeb4-d6847973e6fc","ios":"levelo://app?vid=e8bc347a-a5ba-427e-aeb4-d6847973e6fc"},"vehicle_type_id":"4","last_reported":1781292909,"current_range_meters":6800,"station_id":"","pricing_plan_id":"cebpf4jnsgd1na2vs0mg"},{"bike_id":"c017a8ae-85a7-45a6-aa4f-da9efc8013ea","system_id":"levelo_inurba_marseille","lat":43.24812,"lon":5.37455,"is_reserved":false,"is_disabled":false,"rental_uris":{"android":"levelo://app?vid=c017a8ae-85a7-45a6-aa4f-da9efc8013ea","ios":"levelo://app?vid=c017a8ae-85a7-45a6-aa4f-da9efc8013ea"},"vehicle_type_id":"4","last_reported":1781292909,"current_range_meters":6800,"station_id":"ce4bhgh2rcd13ifvqfb0","pricing_plan_id":"cebpf4jnsgd1na2vs0mg"},{"bike_id":"79de1181-7261-4cd9-b05d-8d932438e848","system_id":"levelo_inurba_marseille","lat":43.28459,"lon":5.35889,"is_reserved":false,"is_disabled":false,"rental_uris":{"android":"levelo://app?vid=79de1181-7261-4cd9-b05d-8d932438e848","ios":"levelo://app?vid=79de1181-7261-4cd9-b05d-8d932438e848"},"vehicle_type_id":"4","last_reported":1781292909,"current_range_meters":6800,"station_id":"ce4bhah2rcd13ifvqei0","pricing_plan_id":"cebpf4jnsgd1na2vs0mg"},{"bike_id":"6df7054b-12fc-4820-90eb-30a94928fe3f","system_id":"levelo_inurba_marseille","lat":43.23784,"lon":5.36619,"is_reserved":false,"is_disabled":false,"rental_uris":{"android":"levelo://app?vid=6df7054b-12fc-4820-90eb-30a94928fe3f","ios":"levelo://app?vid=6df7054b-12fc-4820-90eb-30a94928fe3f"},"vehicle_type_id":"4","last_reported":1781292909,"current_range_meters":6800,"station_id":"st_d3nk18o9ro0c73en2l3g","pricing_plan_id":"cebpf4jnsgd1na2vs0mg"},{"bike_id":"e1c64eb3-fd9e-45a8-ab66-a80f263d9f37","system_id":"levelo_inurba_marseille","lat":43.2767,"lon":5.3574,"is_reserved":false,"is_disabled":false,"rental_uris":{"android":"levelo://app?vid=e1c64eb3-fd9e-45a8-ab66-a80f263d9f37","ios":"levelo://app?vid=e1c64eb3-fd9e-45a8-ab66-a80f263d9f37"},"vehicle_type_id":"4","last_reported":1781292909,"current_range_meters":6800,"station_id":"","pricing_plan_id":"cebpf4jnsgd1na2vs0mg"},{"bike_id":"d0ea2319-ee71-478a-b440-3d1787378585","system_id":"levelo_inurba_marseille","lat":43.29787,"lon":5.38077,"is_reserved":false,"is_disabled":false,"rental_uris":{"android":"levelo://app?vid=d0ea2319-ee71-478a-b440-3d1787378585","ios":"levelo://app?vid=d0ea2319-ee71-478a-b440-3d1787378585"},"vehicle_type_id":"4","last_reported":1781292909,"current_range_meters":6800,"station_id":"ce4bgip2rcd13ifvqbb0","pricing_plan_id":"cebpf4jnsgd1na2vs0mg"},{"bike_id":"d7b50571-dada-47de-b908-bf6ad579fe60","system_id":"levelo_inurba_marseille","lat":43.25497,"lon":5.3765,"is_reserved":false,"is_disabled":false,"rental_uris":{"android":"levelo://app?vid=d7b50571-dada-47de-b908-bf6ad579fe60","ios":"levelo://app?vid=d7b50571-dada-47de-b908-bf6ad579fe60"},"vehicle_type_id":"4","last_reported":1781292909,"current_range_meters":6800,"station_id":"ce4bhh12rcd13ifvqff0","pricing_plan_id":"cebpf4jnsgd1na2vs0mg"},{"bike_id":"c40c4ead-d8dd-4ab4-8b7c-8c735c9c1613","system_id":"levelo_inurba_marseille","lat":43.31892,"lon":5.36814,"is_reserved":false,"is_disabled":false,"rental_uris":{"android":"levelo://app?vid=c40c4ead-d8dd-4ab4-8b7c-8c735c9c1613","ios":"levelo://app?vid=c40c4ead-d8dd-4ab4-8b7c-8c735c9c1613"},"vehicle_type_id":"4","last_reported":1781292909,"current_range_meters":6800,"station_id":"st_d6o2h0d0559c73evc1b0","pricing_plan_id":"cebpf4jnsgd1na2vs0mg"},{"bike_id":"3ea61c54-5ae4-4ec5-8d1e-95c813254f6e","system_id":"levelo_inurba_marseille","lat":43.24467,"lon":5.42532,"is_reserved":false,"is_disabled":false,"rental_uris":{"android":"levelo://app?vid=3ea61c54-5ae4-4ec5-8d1e-95c813254f6e","ios":"levelo://app?vid=3ea61c54-5ae4-4ec5-8d1e-95c813254f6e"},"vehicle_type_id":"4","last_reported":1781292909,"current_range_meters":6800,"station_id":"st_d4a3vfp97mjs738cd8kg","pricing_plan_id":"cebpf4jnsgd1na2vs0mg"},{"bike_id":"67d79504-0563-4610-907f-80e12b8075dc","system_id":"levelo_inurba_marseille","lat":43.244,"lon":5.37061,"is_reserved":false,"is_disabled":false,"rental_uris":{"android":"levelo://app?vid=67d79504-0563-4610-907f-80e12b8075dc","ios":"levelo://app?vid=67d79504-0563-4610-907f-80e12b8075dc"},"vehicle_type_id":"4","last_reported":1781292909,"current_range_meters":7200,"station_id":"ce4bhhh2rcd13ifvqfk0","pricing_plan_id":"cebpf4jnsgd1na2vs0mg"},{"bike_id":"1c088a56-c389-4146-b2df-78ef2395fc5b","system_id":"levelo_inurba_marseille","lat":43.2623,"lon":5.38933,"is_reserved":false,"is_disabled":false,"rental_uris":{"android":"levelo://app?vid=1c088a56-c389-4146-b2df-78ef2395fc5b","ios":"levelo://app?vid=1c088a56-c389-4146-b2df-78ef2395fc5b"},"vehicle_type_id":"4","last_reported":1781292909,"current_range_meters":7200,"station_id":"","pricing_plan_id":"cebpf4jnsgd1na2vs0mg"},{"bike_id":"f4bd0ae9-9a5e-4f7b-b865-f24efdefb544","system_id":"levelo_inurba_marseille","lat":43.31171,"lon":5.38712,"is_reserved":false,"is_disabled":false,"rental_uris":{"android":"levelo://app?vid=f4bd0ae9-9a5e-4f7b-b865-f24efdefb544","ios":"levelo://app?vid=f4bd0ae9-9a5e-4f7b-b865-f24efdefb544"},"vehicle_type_id":"4","last_reported":1781292909,"current_range_meters":7200,"station_id":"","pricing_plan_id":"cebpf4jnsgd1na2vs0mg"},{"bike_id":"693c91f0-ff3b-44f4-998d-bf2d8b19ffbe","system_id":"levelo_inurba_marseille","lat":43.28535,"lon":5.44097,"is_reserved":false,"is_disabled":false,"rental_uris":{"android":"levelo://app?vid=693c91f0-ff3b-44f4-998d-bf2d8b19ffbe","ios":"levelo://app?vid=693c91f0-ff3b-44f4-998d-bf2d8b19ffbe"},"vehicle_type_id":"4","last_reported":1781292909,"current_range_meters":7200,"station_id":"st_d3j3df2ikq2c7380ej80","pricing_plan_id":"cebpf4jnsgd1na2vs0mg"},{"bike_id":"7ec5ac6c-1ad1-484e-b1ac-0dd6240aeac8","system_id":"levelo_inurba_marseille","lat":43.32092,"lon":5.36723,"is_reserved":false,"is_disabled":false,"rental_uris":{"android":"levelo://app?vid=7ec5ac6c-1ad1-484e-b1ac-0dd6240aeac8","ios":"levelo://app?vid=7ec5ac6c-1ad1-484e-b1ac-0dd6240aeac8"},"vehicle_type_id":"4","last_reported":1781292909,"current_range_meters":7200,"station_id":"ce4bhrh2rcd13ifvqhug","pricing_plan_id":"cebpf4jnsgd1na2vs0mg"},{"bike_id":"4947b8c2-071a-443f-9575-374b38d7c540","system_id":"levelo_inurba_marseille","lat":43.29282,"lon":5.37145,"is_reserved":false,"is_disabled":false,"rental_uris":{"android":"levelo://app?vid=4947b8c2-071a-443f-9575-374b38d7c540","ios":"levelo://app?vid=4947b8c2-071a-443f-9575-374b38d7c540"},"vehicle_type_id":"4","last_reported":1781292909,"current_range_meters":7200,"station_id":"ce4bgh92rcd13ifvqb40","pricing_plan_id":"cebpf4jnsgd1na2vs0mg"},{"bike_id":"0cf18776-d755-4c87-a584-0df764b17005","system_id":"levelo_inurba_marseille","lat":43.2907,"lon":5.37162,"is_reserved":false,"is_disabled":false,"rental_uris":{"android":"levelo://app?vid=0cf18776-d755-4c87-a584-0df764b17005","ios":"levelo://app?vid=0cf18776-d755-4c87-a584-0df764b17005"},"vehicle_type_id":"4","last_reported":1781292909,"current_range_meters":7200,"station_id":"ce4bh5p2rcd13ifvqe4g","pricing_plan_id":"cebpf4jnsgd1na2vs0mg"},{"bike_id":"7c56fbf2-b06b-4ad4-bd6e-fb0ad9ba401c","system_id":"levelo_inurba_marseille","lat":43.2871,"lon":5.37943,"is_reserved":false,"is_disabled":true,"rental_uris":{"android":"levelo://app?vid=7c56fbf2-b06b-4ad4-bd6e-fb0ad9ba401c","ios":"levelo://app?vid=7c56fbf2-b06b-4ad4-bd6e-fb0ad9ba401c"},"vehicle_type_id":"4","last_reported":1781292909,"current_range_meters":7200,"station_id":"ce4bh9p2rcd13ifvqec0","pricing_plan_id":"cebpf4jnsgd1na2vs0mg"},{"bike_id":"f2960170-1a29-48bd-a56a-1a7bf5ac7949","system_id":"levelo_inurba_marseille","lat":43.273754,"lon":5.362354,"is_reserved":false,"is_disabled":false,"rental_uris":{"android":"levelo://app?vid=f2960170-1a29-48bd-a56a-1a7bf5ac7949","ios":"levelo://app?vid=f2960170-1a29-48bd-a56a-1a7bf5ac7949"},"vehicle_type_id":"4","last_reported":1781292909,"current_range_meters":7200,"station_id":"ce4bhbh2rcd13ifvqeo0","pricing_plan_id":"cebpf4jnsgd1na2vs0mg"},{"bike_id":"9997c0f2-7a82-4283-bbf0-48d84dc4fda9","system_id":"levelo_inurba_marseille","lat":43.29615,"lon":5.39662,"is_reserved":false,"is_disabled":false,"rental_uris":{"android":"levelo://app?vid=9997c0f2-7a82-4283-bbf0-48d84dc4fda9","ios":"levelo://app?vid=9997c0f2-7a82-4283-bbf0-48d84dc4fda9"},"vehicle_type_id":"4","last_reported":1781292909,"current_range_meters":7200,"station_id":"","pricing_plan_id":"cebpf4jnsgd1na2vs0mg"},{"bike_id":"176d12ca-be79-4291-b043-be7addfe8fdd","system_id":"levelo_inurba_marseille","lat":43.29905,"lon":5.3813,"is_reserved":false,"is_disabled":false,"rental_uris":{"android":"levelo://app?vid=176d12ca-be79-4291-b043-be7addfe8fdd","ios":"levelo://app?vid=176d12ca-be79-4291-b043-be7addfe8fdd"},"vehicle_type_id":"4","last_reported":1781292909,"current_range_meters":7200,"station_id":"ce4bgj12rcd13ifvqbc0","pricing_plan_id":"cebpf4jnsgd1na2vs0mg"},{"bike_id":"f75ae3d6-37bd-457a-a5d9-65d6642bd444","system_id":"levelo_inurba_marseille","lat":43.27623,"lon":5.36103,"is_reserved":false,"is_disabled":false,"rental_uris":{"android":"levelo://app?vid=f75ae3d6-37bd-457a-a5d9-65d6642bd444","ios":"levelo://app?vid=f75ae3d6-37bd-457a-a5d9-65d6642bd444"},"vehicle_type_id":"4","last_reported":1781292909,"current_range_meters":7200,"station_id":"ce4bgj92rcd13ifvqbe0","pricing_plan_id":"cebpf4jnsgd1na2vs0mg"},{"bike_id":"925c1e70-5a7e-4c96-b774-c6af84642d7b","system_id":"levelo_inurba_marseille","lat":43.2621,"lon":5.37433,"is_reserved":false,"is_disabled":false,"rental_uris":{"android":"levelo://app?vid=925c1e70-5a7e-4c96-b774-c6af84642d7b","ios":"levelo://app?vid=925c1e70-5a7e-4c96-b774-c6af84642d7b"},"vehicle_type_id":"4","last_reported":1781292909,"current_range_meters":7200,"station_id":"ce4bhgp2rcd13ifvqfc0","pricing_plan_id":"cebpf4jnsgd1na2vs0mg"},{"bike_id":"1609f7f2-ce35-4e0f-a0ae-988ecdad722b","system_id":"levelo_inurba_marseille","lat":43.25836,"lon":5.39401,"is_reserved":false,"is_disabled":false,"rental_uris":{"android":"levelo://app?vid=1609f7f2-ce35-4e0f-a0ae-988ecdad722b","ios":"levelo://app?vid=1609f7f2-ce35-4e0f-a0ae-988ecdad722b"},"vehicle_type_id":"4","last_reported":1781292909,"current_range_meters":7200,"station_id":"ce4bhip2rcd13ifvqft0","pricing_plan_id":"cebpf4jnsgd1na2vs0mg"},{"bike_id":"c0c7ebc0-5644-4923-b21d-320aa4a5840a","system_id":"levelo_inurba_marseille","lat":43.28914,"lon":5.38381,"is_reserved":false,"is_disabled":false,"rental_uris":{"android":"levelo://app?vid=c0c7ebc0-5644-4923-b21d-320aa4a5840a","ios":"levelo://app?vid=c0c7ebc0-5644-4923-b21d-320aa4a5840a"},"vehicle_type_id":"4","last_reported":1781292909,"current_range_meters":7200,"station_id":"ce4bh612rcd13ifvqe6g","pricing_plan_id":"cebpf4jnsgd1na2vs0mg"},{"bike_id":"89a23f1d-ca37-470b-91e7-b3497add8be9","system_id":"levelo_inurba_marseille","lat":43.305328,"lon":5.36717,"is_reserved":false,"is_disabled":false,"rental_uris":{"android":"levelo://app?vid=89a23f1d-ca37-470b-91e7-b3497add8be9","ios":"levelo://app?vid=89a23f1d-ca37-470b-91e7-b3497add8be9"},"vehicle_type_id":"4","last_reported":1781292909,"current_range_meters":7200,"station_id":"ce4bgrp2rcd13ifvqc9g","pricing_plan_id":"cebpf4jnsgd1na2vs0mg"},{"bike_id":"f57ddc5d-b3ad-43f3-bbc4-226ea7be866d","system_id":"levelo_inurba_marseille","lat":43.29853,"lon":5.42272,"is_reserved":false,"is_disabled":false,"rental_uris":{"android":"levelo://app?vid=f57ddc5d-b3ad-43f3-bbc4-226ea7be866d","ios":"levelo://app?vid=f57ddc5d-b3ad-43f3-bbc4-226ea7be866d"},"vehicle_type_id":"4","last_reported":1781292909,"current_range_meters":7200,"station_id":"","pricing_plan_id":"cebpf4jnsgd1na2vs0mg"},{"bike_id":"fb2a1f7d-f7e9-4d12-bb3c-32e8cd55f82d","system_id":"levelo_inurba_marseille","lat":43.29068,"lon":5.4426,"is_reserved":false,"is_disabled":false,"rental_uris":{"android":"levelo://app?vid=fb2a1f7d-f7e9-4d12-bb3c-32e8cd55f82d","ios":"levelo://app?vid=fb2a1f7d-f7e9-4d12-bb3c-32e8cd55f82d"},"vehicle_type_id":"4","last_reported":1781292909,"current_range_meters":7200,"station_id":"","pricing_plan_id":"cebpf4jnsgd1na2vs0mg"},{"bike_id":"e6dd2d51-0c09-4f37-aab6-d3ebe41e92d3","system_id":"levelo_inurba_marseille","lat":43.26552,"lon":5.37291,"is_reserved":false,"is_disabled":false,"rental_uris":{"android":"levelo://app?vid=e6dd2d51-0c09-4f37-aab6-d3ebe41e92d3","ios":"levelo://app?vid=e6dd2d51-0c09-4f37-aab6-d3ebe41e92d3"},"vehicle_type_id":"4","last_reported":1781292909,"current_range_meters":7200,"station_id":"ce4bhg12rcd13ifvqf70","pricing_plan_id":"cebpf4jnsgd1na2vs0mg"},{"bike_id":"5e65bd81-8190-4fc5-9f8e-d040d3bdd292","system_id":"levelo_inurba_marseille","lat":43.26226,"lon":5.37461,"is_reserved":false,"is_disabled":false,"rental_uris":{"android":"levelo://app?vid=5e65bd81-8190-4fc5-9f8e-d040d3bdd292","ios":"levelo://app?vid=5e65bd81-8190-4fc5-9f8e-d040d3bdd292"},"vehicle_type_id":"4","last_reported":1781292909,"current_range_meters":7200,"station_id":"","pricing_plan_id":"cebpf4jnsgd1na2vs0mg"},{"bike_id":"e1f61ad6-7e3d-40b4-9834-86bf2c8c8eb5","system_id":"levelo_inurba_marseille","lat":43.29533,"lon":5.38542,"is_reserved":false,"is_disabled":false,"rental_uris":{"android":"levelo://app?vid=e1f61ad6-7e3d-40b4-9834-86bf2c8c8eb5","ios":"levelo://app?vid=e1f61ad6-7e3d-40b4-9834-86bf2c8c8eb5"},"vehicle_type_id":"4","last_reported":1781292909,"current_range_meters":7200,"station_id":"ce4bgih2rcd13ifvqba0","pricing_plan_id":"cebpf4jnsgd1na2vs0mg"},{"bike_id":"3fa302e2-4252-4f44-9d6d-bfff11516799","system_id":"levelo_inurba_marseille","lat":43.29704,"lon":5.36613,"is_reserved":false,"is_disabled":false,"rental_uris":{"android":"levelo://app?vid=3fa302e2-4252-4f44-9d6d-bfff11516799","ios":"levelo://app?vid=3fa302e2-4252-4f44-9d6d-bfff11516799"},"vehicle_type_id":"4","last_reported":1781292909,"current_range_meters":7200,"station_id":"ce4bgn12rcd13ifvqbt0","pricing_plan_id":"cebpf4jnsgd1na2vs0mg"},{"bike_id":"29f89edd-ea47-4769-ba03-c94739969a4f","system_id":"levelo_inurba_marseille","lat":43.29382,"lon":5.40179,"is_reserved":false,"is_disabled":false,"rental_uris":{"android":"levelo://app?vid=29f89edd-ea47-4769-ba03-c94739969a4f","ios":"levelo://app?vid=29f89edd-ea47-4769-ba03-c94739969a4f"},"vehicle_type_id":"4","last_reported":1781292909,"current_range_meters":7200,"station_id":"","pricing_plan_id":"cebpf4jnsgd1na2vs0mg"},{"bike_id":"5fe816be-adb0-4ccc-a8a6-ac6bd0711409","system_id":"levelo_inurba_marseille","lat":43.26676,"lon":5.38268,"is_reserved":false,"is_disabled":false,"rental_uris":{"android":"levelo://app?vid=5fe816be-adb0-4ccc-a8a6-ac6bd0711409","ios":"levelo://app?vid=5fe816be-adb0-4ccc-a8a6-ac6bd0711409"},"vehicle_type_id":"4","last_reported":1781292909,"current_range_meters":7200,"station_id":"ce4bhg92rcd13ifvqf90","pricing_plan_id":"cebpf4jnsgd1na2vs0mg"},{"bike_id":"29866fdf-8b3b-4d01-acd8-1c5cee78560c","system_id":"levelo_inurba_marseille","lat":43.24396,"lon":5.37026,"is_reserved":false,"is_disabled":false,"rental_uris":{"android":"levelo://app?vid=29866fdf-8b3b-4d01-acd8-1c5cee78560c","ios":"levelo://app?vid=29866fdf-8b3b-4d01-acd8-1c5cee78560c"},"vehicle_type_id":"4","last_reported":1781292909,"current_range_meters":7200,"station_id":"ce4bhhh2rcd13ifvqfk0","pricing_plan_id":"cebpf4jnsgd1na2vs0mg"},{"bike_id":"f96f9850-1fa1-4da0-b9b2-06c64b7f75d3","system_id":"levelo_inurba_marseille","lat":43.26016,"lon":5.37558,"is_reserved":false,"is_disabled":false,"rental_uris":{"android":"levelo://app?vid=f96f9850-1fa1-4da0-b9b2-06c64b7f75d3","ios":"levelo://app?vid=f96f9850-1fa1-4da0-b9b2-06c64b7f75d3"},"vehicle_type_id":"4","last_reported":1781292909,"current_range_meters":7200,"station_id":"ce4bhgh2rcd13ifvqfa0","pricing_plan_id":"cebpf4jnsgd1na2vs0mg"},{"bike_id":"46d9495a-bf76-4e1d-85b4-b888eb068c07","system_id":"levelo_inurba_marseille","lat":43.26364,"lon":5.37813,"is_reserved":false,"is_disabled":false,"rental_uris":{"android":"levelo://app?vid=46d9495a-bf76-4e1d-85b4-b888eb068c07","ios":"levelo://app?vid=46d9495a-bf76-4e1d-85b4-b888eb068c07"},"vehicle_type_id":"4","last_reported":1781292909,"current_range_meters":7200,"station_id":"st_d163nis0mtpqnht9uue0","pricing_plan_id":"cebpf4jnsgd1na2vs0mg"},{"bike_id":"906fd3b9-418c-4d38-bdd0-f9f1a659ab40","system_id":"levelo_inurba_marseille","lat":43.29725,"lon":5.37771,"is_reserved":false,"is_disabled":false,"rental_uris":{"android":"levelo://app?vid=906fd3b9-418c-4d38-bdd0-f9f1a659ab40","ios":"levelo://app?vid=906fd3b9-418c-4d38-bdd0-f9f1a659ab40"},"vehicle_type_id":"4","last_reported":1781292909,"current_range_meters":7200,"station_id":"ce4bgkh2rcd13ifvqbl0","pricing_plan_id":"cebpf4jnsgd1na2vs0mg"},{"bike_id":"a80c2580-5bf7-4a86-b2d1-488615406ba4","system_id":"levelo_inurba_marseille","lat":43.29043,"lon":5.42619,"is_reserved":false,"is_disabled":false,"rental_uris":{"android":"levelo://app?vid=a80c2580-5bf7-4a86-b2d1-488615406ba4","ios":"levelo://app?vid=a80c2580-5bf7-4a86-b2d1-488615406ba4"},"vehicle_type_id":"4","last_reported":1781292909,"current_range_meters":7200,"station_id":"","pricing_plan_id":"cebpf4jnsgd1na2vs0mg"},{"bike_id":"70782d62-79db-4fe5-9541-fd64ae5ddfbb","system_id":"levelo_inurba_marseille","lat":43.29288,"lon":5.37739,"is_reserved":false,"is_disabled":false,"rental_uris":{"android":"levelo://app?vid=70782d62-79db-4fe5-9541-fd64ae5ddfbb","ios":"levelo://app?vid=70782d62-79db-4fe5-9541-fd64ae5ddfbb"},"vehicle_type_id":"4","last_reported":1781292909,"current_range_meters":7200,"station_id":"","pricing_plan_id":"cebpf4jnsgd1na2vs0mg"},{"bike_id":"580bb4fe-2113-4882-8559-3c84c3b68f85","system_id":"levelo_inurba_marseille","lat":43.26245,"lon":5.38733,"is_reserved":false,"is_disabled":false,"rental_uris":{"android":"levelo://app?vid=580bb4fe-2113-4882-8559-3c84c3b68f85","ios":"levelo://app?vid=580bb4fe-2113-4882-8559-3c84c3b68f85"},"vehicle_type_id":"4","last_reported":1781292909,"current_range_meters":7200,"station_id":"st_d8gjfg747rts73coq3b0","pricing_plan_id":"cebpf4jnsgd1na2vs0mg"},{"bike_id":"ed1b8ea2-ecf3-46da-8352-26963074c835","system_id":"levelo_inurba_marseille","lat":43.24473,"lon":5.42527,"is_reserved":false,"is_disabled":false,"rental_uris":{"android":"levelo://app?vid=ed1b8ea2-ecf3-46da-8352-26963074c835","ios":"levelo://app?vid=ed1b8ea2-ecf3-46da-8352-26963074c835"},"vehicle_type_id":"4","last_reported":1781292909,"current_range_meters":7200,"station_id":"st_d4a3vfp97mjs738cd8kg","pricing_plan_id":"cebpf4jnsgd1na2vs0mg"},{"bike_id":"193c0362-8ea1-4e75-91a5-782c1e91f242","system_id":"levelo_inurba_marseille","lat":43.27821,"lon":5.40703,"is_reserved":false,"is_disabled":false,"rental_uris":{"android":"levelo://app?vid=193c0362-8ea1-4e75-91a5-782c1e91f242","ios":"levelo://app?vid=193c0362-8ea1-4e75-91a5-782c1e91f242"},"vehicle_type_id":"4","last_reported":1781292909,"current_range_meters":7200,"station_id":"ce4bhnh2rcd13ifvqgtg","pricing_plan_id":"cebpf4jnsgd1na2vs0mg"},{"bike_id":"86cffae5-a719-4128-9b84-58e58e49b7c2","system_id":"levelo_inurba_marseille","lat":43.29067,"lon":5.42442,"is_reserved":false,"is_disabled":false,"rental_uris":{"android":"levelo://app?vid=86cffae5-a719-4128-9b84-58e58e49b7c2","ios":"levelo://app?vid=86cffae5-a719-4128-9b84-58e58e49b7c2"},"vehicle_type_id":"4","last_reported":1781292909,"current_range_meters":7200,"station_id":"","pricing_plan_id":"cebpf4jnsgd1na2vs0mg"},{"bike_id":"6ef6a04f-acb2-42d6-81c5-09d00e5e48db","system_id":"levelo_inurba_marseille","lat":43.27665,"lon":5.35743,"is_reserved":false,"is_disabled":false,"rental_uris":{"android":"levelo://app?vid=6ef6a04f-acb2-42d6-81c5-09d00e5e48db","ios":"levelo://app?vid=6ef6a04f-acb2-42d6-81c5-09d00e5e48db"},"vehicle_type_id":"4","last_reported":1781292909,"current_range_meters":7200,"station_id":"","pricing_plan_id":"cebpf4jnsgd1na2vs0mg"},{"bike_id":"9e5dca86-cea8-4464-8ef4-356b17b3a843","system_id":"levelo_inurba_marseille","lat":43.26182,"lon":5.37445,"is_reserved":false,"is_disabled":false,"rental_uris":{"android":"levelo://app?vid=9e5dca86-cea8-4464-8ef4-356b17b3a843","ios":"levelo://app?vid=9e5dca86-cea8-4464-8ef4-356b17b3a843"},"vehicle_type_id":"4","last_reported":1781292909,"current_range_meters":7200,"station_id":"ce4bhgp2rcd13ifvqfc0","pricing_plan_id":"cebpf4jnsgd1na2vs0mg"},