{"last_updated":1758870596,"ttl":60,"version":"2.2","data":{"bikes":[{"bike_id":"a07e7faf-42b2-437b-aba5-96af4463cfae","system_id":"levelo_inurba_marseille","lat":43.298625,"lon":5.389092,"is_reserved":false,"is_disabled":false,"rental_uris":{"android":"levelo://app?vid=a07e7faf-42b2-437b-aba5-96af4463cfae","ios":"levelo://app?vid=a07e7faf-42b2-437b-aba5-96af4463cfae"},"vehicle_type_id":"4","last_reported":1758870596,"current_range_meters":2800,"station_id":"ce4bh392rcd13ifvqdl0","pricing_plan_id":"cebpf4jnsgd1na2vs0mg"},{"bike_id":"933cc938-5ed2-4891-8083-5abecfb2466f","system_id":"levelo_inurba_marseille","lat":43.33611,"lon":5.41036,"is_reserved":false,"is_disabled":false,"rental_uris":{"android":"levelo://app?vid=933cc938-5ed2-4891-8083-5abecfb2466f","ios":"levelo://app?vid=933cc938-5ed2-4891-8083-5abecfb2466f"},"vehicle_type_id":"4","last_reported":1758870596,"current_range_meters":2800,"station_id":"ce4bhqh2rcd13ifvqhmg","pricing_plan_id":"cebpf4jnsgd1na2vs0mg"},{"bike_id":"7ed33cf5-c025-4fca-b62d-66fe538c64b8","system_id":"levelo_inurba_marseille","lat":43.31221,"lon":5.36852,"is_reserved":false,"is_disabled":false,"rental_uris":{"android":"levelo://app?vid=7ed33cf5-c025-4fca-b62d-66fe538c64b8","ios":"levelo://app?vid=7ed33cf5-c025-4fca-b62d-66fe538c64b8"},"vehicle_type_id":"4","last_reported":1758870596,"current_range_meters":3200,"station_id":"ce4bgl92rcd13ifvqbq0","pricing_plan_id":"cebpf4jnsgd1na2vs0mg"},{"bike_id":"9c4a7bdb-c552-4dfd-8efb-40b9e0b0b147","system_id":"levelo_inurba_marseille","lat":43.30919,"lon":5.36747,"is_reserved":false,"is_disabled":false,"rental_uris":{"android":"levelo://app?vid=9c4a7bdb-c552-4dfd-8efb-40b9e0b0b147","ios":"levelo://app?vid=9c4a7bdb-c552-4dfd-8efb-40b9e0b0b147"},"vehicle_type_id":"4","last_reported":1758870596,"current_range_meters":3200,"station_id":"","pricing_plan_id":"cebpf4jnsgd1na2vs0mg"},{"bike_id":"d178800e-e20e-4bc9-a852-c0057fbf45fd","system_id":"levelo_inurba_marseille","lat":43.31075,"lon":5.38357,"is_reserved":false,"is_disabled":false,"rental_uris":{"android":"levelo://app?vid=d178800e-e20e-4bc9-a852-c0057fbf45fd","ios":"levelo://app?vid=d178800e-e20e-4bc9-a852-c0057fbf45fd"},"vehicle_type_id":"4","last_reported":1758870596,"current_range_meters":3200,"station_id":"ce4bgv92rcd13ifvqcr0","pricing_plan_id":"cebpf4jnsgd1na2vs0mg"},{"bike_id":"a24b4c4b-92af-4172-8e9b-b41c08f2d93d","system_id":"levelo_inurba_marseille","lat":43.29227,"lon":5.36075,"is_reserved":false,"is_disabled":false,"rental_uris":{"android":"levelo://app?vid=a24b4c4b-92af-4172-8e9b-b41c08f2d93d","ios":"levelo://app?vid=a24b4c4b-92af-4172-8e9b-b41c08f2d93d"},"vehicle_type_id":"4","last_reported":1758870596,"current_range_meters":3200,"station_id":"ce4bhbh2rcd13ifvqeqg","pricing_plan_id":"cebpf4jnsgd1na2vs0mg"},{"bike_id":"4e737411-53ce-4bdf-9802-c3bc30d9bc94","system_id":"levelo_inurba_marseille","lat":43.29544,"lon":5.40624,"is_reserved":false,"is_disabled":false,"rental_uris":{"android":"levelo://app?vid=4e737411-53ce-4bdf-9802-c3bc30d9bc94","ios":"levelo://app?vid=4e737411-53ce-4bdf-9802-c3bc30d9bc94"},"vehicle_type_id":"4","last_reported":1758870596,"current_range_meters":3600,"station_id":"","pricing_plan_id":"cebpf4jnsgd1na2vs0mg"},{"bike_id":"6206595c-d711-4e92-a51a-ba1390797d02","system_id":"levelo_inurba_marseille","lat":43.29806,"lon":5.381078,"is_reserved":false,"is_disabled":false,"rental_uris":{"android":"levelo://app?vid=6206595c-d711-4e92-a51a-ba1390797d02","ios":"levelo://app?vid=6206595c-d711-4e92-a51a-ba1390797d02"},"vehicle_type_id":"4","last_reported":1758870596,"current_range_meters":3600,"station_id":"ce4bgip2rcd13ifvqbb0","pricing_plan_id":"cebpf4jnsgd1na2vs0mg"},{"bike_id":"136a707a-b224-4c44-8119-f846f7b7d0a7","system_id":"levelo_inurba_marseille","lat":43.29516,"lon":5.37375,"is_reserved":false,"is_disabled":false,"rental_uris":{"android":"levelo://app?vid=136a707a-b224-4c44-8119-f846f7b7d0a7","ios":"levelo://app?vid=136a707a-b224-4c44-8119-f846f7b7d0a7"},"vehicle_type_id":"4","last_reported":1758870596,"current_range_meters":4000,"station_id":"","pricing_plan_id":"cebpf4jnsgd1na2vs0mg"},{"bike_id":"8012b107-f797-4c30-8b4a-af5bb99d05c1","system_id":"levelo_inurba_marseille","lat":43.30146,"lon":5.39085,"is_reserved":false,"is_disabled":false,"rental_uris":{"android":"levelo://app?vid=8012b107-f797-4c30-8b4a-af5bb99d05c1","ios":"levelo://app?vid=8012b107-f797-4c30-8b4a-af5bb99d05c1"},"vehicle_type_id":"4","last_reported":1758870596,"current_range_meters":4000,"station_id":"","pricing_plan_id":"cebpf4jnsgd1na2vs0mg"},{"bike_id":"03362bbd-beb7-4d4e-87c8-58c3f4b53768","system_id":"levelo_inurba_marseille","lat":43.26686,"lon":5.38262,"is_reserved":false,"is_disabled":false,"rental_uris":{"android":"levelo://app?vid=03362bbd-beb7-4d4e-87c8-58c3f4b53768","ios":"levelo://app?vid=03362bbd-beb7-4d4e-87c8-58c3f4b53768"},"vehicle_type_id":"4","last_reported":1758870596,"current_range_meters":3600,"station_id":"ce4bhg92rcd13ifvqf90","pricing_plan_id":"cebpf4jnsgd1na2vs0mg"},{"bike_id":"2896fec8-8330-469a-a771-755aaff115cf","system_id":"levelo_inurba_marseille","lat":43.29037,"lon":5.37572,"is_reserved":false,"is_disabled":false,"rental_uris":{"android":"levelo://app?vid=2896fec8-8330-469a-a771-755aaff115cf","ios":"levelo://app?vid=2896fec8-8330-469a-a771-755aaff115cf"},"vehicle_type_id":"4","last_reported":1758870596,"current_range_meters":4400,"station_id":"ce4bh692rcd13ifvqe90","pricing_plan_id":"cebpf4jnsgd1na2vs0mg"},{"bike_id":"f300add3-ede8-472e-a427-b7bdf81442c0","system_id":"levelo_inurba_marseille","lat":43.28946,"lon":5.36418,"is_reserved":false,"is_disabled":false,"rental_uris":{"android":"levelo://app?vid=f300add3-ede8-472e-a427-b7bdf81442c0","ios":"levelo://app?vid=f300add3-ede8-472e-a427-b7bdf81442c0"},"vehicle_type_id":"4","last_reported":1758870596,"current_range_meters":4400,"station_id":"ce4bhc92rcd13ifvqetg","pricing_plan_id":"cebpf4jnsgd1na2vs0mg"},{"bike_id":"58bcb43d-c000-4e3e-b004-30450f57645b","system_id":"levelo_inurba_marseille","lat":43.29527,"lon":5.37448,"is_reserved":false,"is_disabled":false,"rental_uris":{"android":"levelo://app?vid=58bcb43d-c000-4e3e-b004-30450f57645b","ios":"levelo://app?vid=58bcb43d-c000-4e3e-b004-30450f57645b"},"vehicle_type_id":"4","last_reported":1758870596,"current_range_meters":4400,"station_id":"","pricing_plan_id":"cebpf4jnsgd1na2vs0mg"},{"bike_id":"438ead59-de14-4fa0-a61d-03a70a4122ae","system_id":"levelo_inurba_marseille","lat":43.97269,"lon":4.89111,"is_reserved":false,"is_disabled":true,"rental_uris":{"android":"levelo://app?vid=438ead59-de14-4fa0-a61d-03a70a4122ae","ios":"levelo://app?vid=438ead59-de14-4fa0-a61d-03a70a4122ae"},"vehicle_type_id":"4","last_reported":1758870596,"current_range_meters":4400,"station_id":"","pricing_plan_id":"cebpf4jnsgd1na2vs0mg"},{"bike_id":"8430a467-51e2-47bc-b97c-7f2a26232f92","system_id":"levelo_inurba_marseille","lat":43.29228,"lon":5.36064,"is_reserved":false,"is_disabled":false,"rental_uris":{"android":"levelo://app?vid=8430a467-51e2-47bc-b97c-7f2a26232f92","ios":"levelo://app?vid=8430a467-51e2-47bc-b97c-7f2a26232f92"},"vehicle_type_id":"4","last_reported":1758870596,"current_range_meters":4400,"station_id":"ce4bhbh2rcd13ifvqeqg","pricing_plan_id":"cebpf4jnsgd1na2vs0mg"},{"bike_id":"0d679a69-d5ca-4b58-ba28-3a571dd86a95","system_id":"levelo_inurba_marseille","lat":43.2572,"lon":5.41117,"is_reserved":false,"is_disabled":false,"rental_uris":{"android":"levelo://app?vid=0d679a69-d5ca-4b58-ba28-3a571dd86a95","ios":"levelo://app?vid=0d679a69-d5ca-4b58-ba28-3a571dd86a95"},"vehicle_type_id":"4","last_reported":1758870596,"current_range_meters":4400,"station_id":"ce4bhkp2rcd13ifvqgd0","pricing_plan_id":"cebpf4jnsgd1na2vs0mg"},{"bike_id":"01dfba5c-f084-4704-bd32-3defb79006a0","system_id":"levelo_inurba_marseille","lat":43.31479,"lon":5.37321,"is_reserved":false,"is_disabled":false,"rental_uris":{"android":"levelo://app?vid=01dfba5c-f084-4704-bd32-3defb79006a0","ios":"levelo://app?vid=01dfba5c-f084-4704-bd32-3defb79006a0"},"vehicle_type_id":"4","last_reported":1758870596,"current_range_meters":4800,"station_id":"ce4bgt12rcd13ifvqcd0","pricing_plan_id":"cebpf4jnsgd1na2vs0mg"},{"bike_id":"d1bf5877-7433-4026-a1ea-b36c24e54045","system_id":"levelo_inurba_marseille","lat":43.21212,"lon":5.35088,"is_reserved":false,"is_disabled":false,"rental_uris":{"android":"levelo://app?vid=d1bf5877-7433-4026-a1ea-b36c24e54045","ios":"levelo://app?vid=d1bf5877-7433-4026-a1ea-b36c24e54045"},"vehicle_type_id":"4","last_reported":1758870596,"current_range_meters":4800,"station_id":"","pricing_plan_id":"cebpf4jnsgd1na2vs0mg"},{"bike_id":"2bbcac3c-1bf6-4a99-8d45-0e0e20e8edef","system_id":"levelo_inurba_marseille","lat":43.29072,"lon":5.37185,"is_reserved":false,"is_disabled":false,"rental_uris":{"android":"levelo://app?vid=2bbcac3c-1bf6-4a99-8d45-0e0e20e8edef","ios":"levelo://app?vid=2bbcac3c-1bf6-4a99-8d45-0e0e20e8edef"},"vehicle_type_id":"4","last_reported":1758870596,"current_range_meters":4800,"station_id":"ce4bh5p2rcd13ifvqe4g","pricing_plan_id":"cebpf4jnsgd1na2vs0mg"},{"bike_id":"00813270-9a66-48af-a409-853e7aa8d549","system_id":"levelo_inurba_marseille","lat":43.28718,"lon":5.37937,"is_reserved":false,"is_disabled":false,"rental_uris":{"android":"levelo://app?vid=00813270-9a66-48af-a409-853e7aa8d549","ios":"levelo://app?vid=00813270-9a66-48af-a409-853e7aa8d549"},"vehicle_type_id":"4","last_reported":1758870596,"current_range_meters":4800,"station_id":"ce4bh9p2rcd13ifvqec0","pricing_plan_id":"cebpf4jnsgd1na2vs0mg"},{"bike_id":"b8008c5f-134f-4288-aa94-8782a4989d78","system_id":"levelo_inurba_marseille","lat":43.28348,"lon":5.38098,"is_reserved":false,"is_disabled":false,"rental_uris":{"android":"levelo://app?vid=b8008c5f-134f-4288-aa94-8782a4989d78","ios":"levelo://app?vid=b8008c5f-134f-4288-aa94-8782a4989d78"},"vehicle_type_id":"4","last_reported":1758870596,"current_range_meters":5600,"station_id":"ce4bh412rcd13ifvqdr0","pricing_plan_id":"cebpf4jnsgd1na2vs0mg"},{"bike_id":"2609a7f0-0058-4c97-96f5-49b71462094e","system_id":"levelo_inurba_marseille","lat":43.30535,"lon":5.3672,"is_reserved":false,"is_disabled":true,"rental_uris":{"android":"levelo://app?vid=2609a7f0-0058-4c97-96f5-49b71462094e","ios":"levelo://app?vid=2609a7f0-0058-4c97-96f5-49b71462094e"},"vehicle_type_id":"4","last_reported":1758870596,"current_range_meters":5600,"station_id":"ce4bgrp2rcd13ifvqc9g","pricing_plan_id":"cebpf4jnsgd1na2vs0mg"},{"bike_id":"6cd537e0-dbfc-4f59-b3b3-22491905826b","system_id":"levelo_inurba_marseille","lat":43.24642,"lon":5.38909,"is_reserved":false,"is_disabled":false,"rental_uris":{"android":"levelo://app?vid=6cd537e0-dbfc-4f59-b3b3-22491905826b","ios":"levelo://app?vid=6cd537e0-dbfc-4f59-b3b3-22491905826b"},"vehicle_type_id":"4","last_reported":1758870596,"current_range_meters":6000,"station_id":"ce4bhg12rcd13ifvqf60","pricing_plan_id":"cebpf4jnsgd1na2vs0mg"},{"bike_id":"c88ddbd8-e687-469d-b97a-63b521bd45ae","system_id":"levelo_inurba_marseille","lat":43.24809,"lon":5.3747,"is_reserved":false,"is_disabled":false,"rental_uris":{"android":"levelo://app?vid=c88ddbd8-e687-469d-b97a-63b521bd45ae","ios":"levelo://app?vid=c88ddbd8-e687-469d-b97a-63b521bd45ae"},"vehicle_type_id":"4","last_reported":1758870596,"current_range_meters":6000,"station_id":"ce4bhgh2rcd13ifvqfb0","pricing_plan_id":"cebpf4jnsgd1na2vs0mg"},{"bike_id":"c575721f-de31-4f0e-9dbf-4833e1affcb4","system_id":"levelo_inurba_marseille","lat":43.24099,"lon":5.37783,"is_reserved":false,"is_disabled":false,"rental_uris":{"android":"levelo://app?vid=c575721f-de31-4f0e-9dbf-4833e1affcb4","ios":"levelo://app?vid=c575721f-de31-4f0e-9dbf-4833e1affcb4"},"vehicle_type_id":"4","last_reported":1758870596,"current_range_meters":6400,"station_id":"ce4bhnp2rcd13ifvqgvg","pricing_plan_id":"cebpf4jnsgd1na2vs0mg"},{"bike_id":"ed45a974-76c1-47e5-8dc5-1155672e2c26","system_id":"levelo_inurba_marseille","lat":43.29543,"lon":5.42274,"is_reserved":false,"is_disabled":false,"rental_uris":{"android":"levelo://app?vid=ed45a974-76c1-47e5-8dc5-1155672e2c26","ios":"levelo://app?vid=ed45a974-76c1-47e5-8dc5-1155672e2c26"},"vehicle_type_id":"4","last_reported":1758870596,"current_range_meters":6400,"station_id":"ce4bhph2rcd13ifvqhdg","pricing_plan_id":"cebpf4jnsgd1na2vs0mg"},{"bike_id":"3bd489e5-2659-4c74-b36b-70a17cc86db1","system_id":"levelo_inurba_marseille","lat":43.23389,"lon":5.36022,"is_reserved":false,"is_disabled":false,"rental_uris":{"android":"levelo://app?vid=3bd489e5-2659-4c74-b36b-70a17cc86db1","ios":"levelo://app?vid=3bd489e5-2659-4c74-b36b-70a17cc86db1"},"vehicle_type_id":"4","last_reported":1758870596,"current_range_meters":6400,"station_id":"","pricing_plan_id":"cebpf4jnsgd1na2vs0mg"},{"bike_id":"76d3e8e2-f9f5-49d9-a059-df5f189af9dd","system_id":"levelo_inurba_marseille","lat":43.28359,"lon":5.38628,"is_reserved":false,"is_disabled":false,"rental_uris":{"android":"levelo://app?vid=76d3e8e2-f9f5-49d9-a059-df5f189af9dd","ios":"levelo://app?vid=76d3e8e2-f9f5-49d9-a059-df5f189af9dd"},"vehicle_type_id":"4","last_reported":1758870596,"current_range_meters":6400,"station_id":"ce4bh492rcd13ifvqdvg","pricing_plan_id":"cebpf4jnsgd1na2vs0mg"},{"bike_id":"94b2f036-4ca4-4693-89f2-72df2150ee98","system_id":"levelo_inurba_marseille","lat":43.258265,"lon":5.394374,"is_reserved":false,"is_disabled":true,"rental_uris":{"android":"levelo://app?vid=94b2f036-4ca4-4693-89f2-72df2150ee98","ios":"levelo://app?vid=94b2f036-4ca4-4693-89f2-72df2150ee98"},"vehicle_type_id":"4","last_reported":1758870596,"current_range_meters":6400,"station_id":"ce4bhip2rcd13ifvqft0","pricing_plan_id":"cebpf4jnsgd1na2vs0mg"},{"bike_id":"6c829d01-8eaf-4cf5-9677-36534c54844b","system_id":"levelo_inurba_marseille","lat":43.31713,"lon":5.43709,"is_reserved":false,"is_disabled":false,"rental_uris":{"android":"levelo://app?vid=6c829d01-8eaf-4cf5-9677-36534c54844b","ios":"levelo://app?vid=6c829d01-8eaf-4cf5-9677-36534c54844b"},"vehicle_type_id":"4","last_reported":1758870596,"current_range_meters":6400,"station_id":"ce4bhp92rcd13ifvqhcg","pricing_plan_id":"cebpf4jnsgd1na2vs0mg"},{"bike_id":"d30e861e-4058-469b-a3d8-ba491f250550","system_id":"levelo_inurba_marseille","lat":43.31071,"lon":5.3837,"is_reserved":false,"is_disabled":true,"rental_uris":{"android":"levelo://app?vid=d30e861e-4058-469b-a3d8-ba491f250550","ios":"levelo://app?vid=d30e861e-4058-469b-a3d8-ba491f250550"},"vehicle_type_id":"4","last_reported":1758870596,"current_range_meters":6400,"station_id":"ce4bgv92rcd13ifvqcr0","pricing_plan_id":"cebpf4jnsgd1na2vs0mg"},{"bike_id":"c9583814-42b0-46d7-acf2-c461ff1675d0","system_id":"levelo_inurba_marseille","lat":43.29031,"lon":5.37564,"is_reserved":false,"is_disabled":false,"rental_uris":{"android":"levelo://app?vid=c9583814-42b0-46d7-acf2-c461ff1675d0","ios":"levelo://app?vid=c9583814-42b0-46d7-acf2-c461ff1675d0"},"vehicle_type_id":"4","last_reported":1758870596,"current_range_meters":6800,"station_id":"ce4bh692rcd13ifvqe90","pricing_plan_id":"cebpf4jnsgd1na2vs0mg"},{"bike_id":"379aab78-7d89-4904-9c25-eb1ac1a357cb","system_id":"levelo_inurba_marseille","lat":43.24548,"lon":5.39523,"is_reserved":false,"is_disabled":false,"rental_uris":{"android":"levelo://app?vid=379aab78-7d89-4904-9c25-eb1ac1a357cb","ios":"levelo://app?vid=379aab78-7d89-4904-9c25-eb1ac1a357cb"},"vehicle_type_id":"4","last_reported":1758870596,"current_range_meters":6800,"station_id":"ce4bhlp2rcd13ifvqgjg","pricing_plan_id":"cebpf4jnsgd1na2vs0mg"},{"bike_id":"0ab91c66-4446-45e7-a295-03ae6b7a6521","system_id":"levelo_inurba_marseille","lat":43.30949,"lon":5.39036,"is_reserved":false,"is_disabled":false,"rental_uris":{"android":"levelo://app?vid=0ab91c66-4446-45e7-a295-03ae6b7a6521","ios":"levelo://app?vid=0ab91c66-4446-45e7-a295-03ae6b7a6521"},"vehicle_type_id":"4","last_reported":1758870596,"current_range_meters":6800,"station_id":"ce4bgup2rcd13ifvqco0","pricing_plan_id":"cebpf4jnsgd1na2vs0mg"},{"bike_id":"ee21dca4-84c4-485b-9871-981a7ffc0f98","system_id":"levelo_inurba_marseille","lat":43.30283,"lon":5.37719,"is_reserved":false,"is_disabled":false,"rental_uris":{"android":"levelo://app?vid=ee21dca4-84c4-485b-9871-981a7ffc0f98","ios":"levelo://app?vid=ee21dca4-84c4-485b-9871-981a7ffc0f98"},"vehicle_type_id":"4","last_reported":1758870596,"current_range_meters":6800,"station_id":"ce4bguh2rcd13ifvqcj0","pricing_plan_id":"cebpf4jnsgd1na2vs0mg"},{"bike_id":"3a83ddcd-ce03-4ed4-a7fa-b273c2464f02","system_id":"levelo_inurba_marseille","lat":43.27952,"lon":5.36333,"is_reserved":false,"is_disabled":false,"rental_uris":{"android":"levelo://app?vid=3a83ddcd-ce03-4ed4-a7fa-b273c2464f02","ios":"levelo://app?vid=3a83ddcd-ce03-4ed4-a7fa-b273c2464f02"},"vehicle_type_id":"4","last_reported":1758870596,"current_range_meters":6800,"station_id":"","pricing_plan_id":"cebpf4jnsgd1na2vs0mg"},{"bike_id":"262dc574-a1cb-4c72-8c4c-82b40860fa6d","system_id":"levelo_inurba_marseille","lat":43.2991,"lon":5.37448,"is_reserved":false,"is_disabled":true,"rental_uris":{"android":"levelo://app?vid=262dc574-a1cb-4c72-8c4c-82b40860fa6d","ios":"levelo://app?vid=262dc574-a1cb-4c72-8c4c-82b40860fa6d"},"vehicle_type_id":"4","last_reported":1758870596,"current_range_meters":6800,"station_id":"ce4bgjh2rcd13ifvqbg0","pricing_plan_id":"cebpf4jnsgd1na2vs0mg"},{"bike_id":"2f307845-0a29-4e00-b18c-64599941cc70","system_id":"levelo_inurba_marseille","lat":43.27456,"lon":5.39369,"is_reserved":false,"is_disabled":false,"rental_uris":{"android":"levelo://app?vid=2f307845-0a29-4e00-b18c-64599941cc70","ios":"levelo://app?vid=2f307845-0a29-4e00-b18c-64599941cc70"},"vehicle_type_id":"4","last_reported":1758870596,"current_range_meters":7200,"station_id":"ce4bhdp2rcd13ifvqf20","pricing_plan_id":"cebpf4jnsgd1na2vs0mg"},{"bike_id":"cfa462e1-a746-48ae-b405-0b9474d89333","system_id":"levelo_inurba_marseille","lat":43.28977,"lon":5.36396,"is_reserved":false,"is_disabled":false,"rental_uris":{"android":"levelo://app?vid=cfa462e1-a746-48ae-b405-0b9474d89333","ios":"levelo://app?vid=cfa462e1-a746-48ae-b405-0b9474d89333"},"vehicle_type_id":"4","last_reported":1758870596,"current_range_meters":7200,"station_id":"ce4bhc92rcd13ifvqetg","pricing_plan_id":"cebpf4jnsgd1na2vs0mg"},{"bike_id":"4035ffcf-62d8-4fb0-89da-8d7b6b41ef29","system_id":"levelo_inurba_marseille","lat":43.29435,"lon":5.39791,"is_reserved":false,"is_disabled":true,"rental_uris":{"android":"levelo://app?vid=4035ffcf-62d8-4fb0-89da-8d7b6b41ef29","ios":"levelo://app?vid=4035ffcf-62d8-4fb0-89da-8d7b6b41ef29"},"vehicle_type_id":"4","last_reported":1758870596,"current_range_meters":7200,"station_id":"ce4bh3h2rcd13ifvqdo0","pricing_plan_id":"cebpf4jnsgd1na2vs0mg"},{"bike_id":"736ff02a-66d6-4f5e-865c-68fe9ab585da","system_id":"levelo_inurba_marseille","lat":43.31721,"lon":5.40461,"is_reserved":false,"is_disabled":false,"rental_uris":{"android":"levelo://app?vid=736ff02a-66d6-4f5e-865c-68fe9ab585da","ios":"levelo://app?vid=736ff02a-66d6-4f5e-865c-68fe9ab585da"},"vehicle_type_id":"4","last_reported":1758870596,"current_range_meters":8000,"station_id":"ce4bh012rcd13ifvqd00","pricing_plan_id":"cebpf4jnsgd1na2vs0mg"},{"bike_id":"78d2b417-3d8b-4bb2-ad38-c91fae7b88ad","system_id":"levelo_inurba_marseille","lat":43.33639,"lon":5.41053,"is_reserved":false,"is_disabled":false,"rental_uris":{"android":"levelo://app?vid=78d2b417-3d8b-4bb2-ad38-c91fae7b88ad","ios":"levelo://app?vid=78d2b417-3d8b-4bb2-ad38-c91fae7b88ad"},"vehicle_type_id":"4","last_reported":1758870596,"current_range_meters":8000,"station_id":"ce4bhqh2rcd13ifvqhmg","pricing_plan_id":"cebpf4jnsgd1na2vs0mg"},{"bike_id":"4fe0b6aa-d134-40dd-bf81-049f94bcdfc7","system_id":"levelo_inurba_marseille","lat":43.24062,"lon":5.37782,"is_reserved":false,"is_disabled":false,"rental_uris":{"android":"levelo://app?vid=4fe0b6aa-d134-40dd-bf81-049f94bcdfc7","ios":"levelo://app?vid=4fe0b6aa-d134-40dd-bf81-049f94bcdfc7"},"vehicle_type_id":"4","last_reported":1758870596,"current_range_meters":8000,"station_id":"ce4bhnp2rcd13ifvqgvg","pricing_plan_id":"cebpf4jnsgd1na2vs0mg"},{"bike_id":"09ca26ac-a397-41e2-a68f-e2175a55cb71","system_id":"levelo_inurba_marseille","lat":43.32471,"lon":5.36559,"is_reserved":false,"is_disabled":false,"rental_uris":{"android":"levelo://app?vid=09ca26ac-a397-41e2-a68f-e2175a55cb71","ios":"levelo://app?vid=09ca26ac-a397-41e2-a68f-e2175a55cb71"},"vehicle_type_id":"4","last_reported":1758870596,"current_range_meters":7200,"station_id":"ce4bhs12rcd13ifvqhvg","pricing_plan_id":"cebpf4jnsgd1na2vs0mg"},{"bike_id":"234f9897-ca2f-4a17-807c-faef05729c1e","system_id":"levelo_inurba_marseille","lat":43.30544,"lon":5.36731,"is_reserved":false,"is_disabled":false,"rental_uris":{"android":"levelo://app?vid=234f9897-ca2f-4a17-807c-faef05729c1e","ios":"levelo://app?vid=234f9897-ca2f-4a17-807c-faef05729c1e"},"vehicle_type_id":"4","last_reported":1758870596,"current_range_meters":8000,"station_id":"ce4bgrp2rcd13ifvqc9g","pricing_plan_id":"cebpf4jnsgd1na2vs0mg"},{"bike_id":"379911e0-a8b9-4b05-96ac-c75be54d3c45","system_id":"levelo_inurba_marseille","lat":43.2886,"lon":5.42514,"is_reserved":false,"is_disabled":false,"rental_uris":{"android":"levelo://app?vid=379911e0-a8b9-4b05-96ac-c75be54d3c45","ios":"levelo://app?vid=379911e0-a8b9-4b05-96ac-c75be54d3c45"},"vehicle_type_id":"4","last_reported":1758870596,"current_range_meters":8000,"station_id":"","pricing_plan_id":"cebpf4jnsgd1na2vs0mg"},{"bike_id":"003540d0-bba5-46d8-83b6-5bdcf3a848eb","system_id":"levelo_inurba_marseille","lat":43.32053,"lon":5.41573,"is_reserved":false,"is_disabled":false,"rental_uris":{"android":"levelo://app?vid=003540d0-bba5-46d8-83b6-5bdcf3a848eb","ios":"levelo://app?vid=003540d0-bba5-46d8-83b6-5bdcf3a848eb"},"vehicle_type_id":"4","last_reported":1758870596,"current_range_meters":7200,"station_id":"ce4bhq92rcd13ifvqhkg","pricing_plan_id":"cebpf4jnsgd1na2vs0mg"},{"bike_id":"88d4f928-adea-4cc4-a244-e47fba7e11e6","system_id":"levelo_inurba_marseille","lat":43.23147,"lon":5.4372,"is_reserved":false,"is_disabled":false,"rental_uris":{"android":"levelo://app?vid=88d4f928-adea-4cc4-a244-e47fba7e11e6","ios":"levelo://app?vid=88d4f928-adea-4cc4-a244-e47fba7e11e6"},"vehicle_type_id":"4","last_reported":1758870596,"current_range_meters":8400,"station_id":"ce4bhmp2rcd13ifvqgog","pricing_plan_id":"cebpf4jnsgd1na2vs0mg"},{"bike_id":"ad86a8fc-ef1f-496b-8843-3b37aab70ba4","system_id":"levelo_inurba_marseille","lat":43.23967,"lon":5.36633,"is_reserved":false,"is_disabled":false,"rental_uris":{"android":"levelo://app?vid=ad86a8fc-ef1f-496b-8843-3b37aab70ba4","ios":"levelo://app?vid=ad86a8fc-ef1f-496b-8843-3b37aab70ba4"},"vehicle_type_id":"4","last_reported":1758870596,"current_range_meters":8400,"station_id":"ce4bhi12rcd13ifvqfp0","pricing_plan_id":"cebpf4jnsgd1na2vs0mg"},{"bike_id":"8eae954c-dab6-4303-94f5-569e1c483f62","system_id":"levelo_inurba_marseille","lat":43.29448,"lon":5.40759,"is_reserved":false,"is_disabled":false,"rental_uris":{"android":"levelo://app?vid=8eae954c-dab6-4303-94f5-569e1c483f62","ios":"levelo://app?vid=8eae954c-dab6-4303-94f5-569e1c483f62"},"vehicle_type_id":"4","last_reported":1758870596,"current_range_meters":8800,"station_id":"","pricing_plan_id":"cebpf4jnsgd1na2vs0mg"},{"bike_id":"bdec3261-de13-477f-818b-7af8ae1d1f6a","system_id":"levelo_inurba_marseille","lat":43.23968,"lon":5.37639,"is_reserved":false,"is_disabled":false,"rental_uris":{"android":"levelo://app?vid=bdec3261-de13-477f-818b-7af8ae1d1f6a","ios":"levelo://app?vid=bdec3261-de13-477f-818b-7af8ae1d1f6a"},"vehicle_type_id":"4","last_reported":1758870596,"current_range_meters":8800,"station_id":"","pricing_plan_id":"cebpf4jnsgd1na2vs0mg"},{"bike_id":"7b5d279d-19e6-4c91-9c3b-3c0bd0e166d5","system_id":"levelo_inurba_marseille","lat":43.32325,"lon":5.40605,"is_reserved":false,"is_disabled":false,"rental_uris":{"android":"levelo://app?vid=7b5d279d-19e6-4c91-9c3b-3c0bd0e166d5","ios":"levelo://app?vid=7b5d279d-19e6-4c91-9c3b-3c0bd0e166d5"},"vehicle_type_id":"4","last_reported":1758870596,"current_range_meters":8800,"station_id":"ce4bhq92rcd13ifvqhjg","pricing_plan_id":"cebpf4jnsgd1na2vs0mg"},{"bike_id":"55f18951-9ffd-4cd1-93e1-900b1a2ab8d0","system_id":"levelo_inurba_marseille","lat":43.25492,"lon":5.37653,"is_reserved":false,"is_disabled":false,"rental_uris":{"android":"levelo://app?vid=55f18951-9ffd-4cd1-93e1-900b1a2ab8d0","ios":"levelo://app?vid=55f18951-9ffd-4cd1-93e1-900b1a2ab8d0"},"vehicle_type_id":"4","last_reported":1758870596,"current_range_meters":8400,"station_id":"ce4bhh12rcd13ifvqff0","pricing_plan_id":"cebpf4jnsgd1na2vs0mg"},{"bike_id":"7d4bea17-ae60-4085-aeb3-21aeb9ece858","system_id":"levelo_inurba_marseille","lat":43.31703,"lon":5.40474,"is_reserved":false,"is_disabled":false,"rental_uris":{"android":"levelo://app?vid=7d4bea17-ae60-4085-aeb3-21aeb9ece858","ios":"levelo://app?vid=7d4bea17-ae60-4085-aeb3-21aeb9ece858"},"vehicle_type_id":"4","last_reported":1758870596,"current_range_meters":8800,"station_id":"ce4bh012rcd13ifvqd00","pricing_plan_id":"cebpf4jnsgd1na2vs0mg"},{"bike_id":"f9e21fc1-be7d-42a8-9eff-6458e73f3db9","system_id":"levelo_inurba_marseille","lat":43.323648,"lon":5.367545,"is_reserved":false,"is_disabled":false,"rental_uris":{"android":"levelo://app?vid=f9e21fc1-be7d-42a8-9eff-6458e73f3db9","ios":"levelo://app?vid=f9e21fc1-be7d-42a8-9eff-6458e73f3db9"},"vehicle_type_id":"4","last_reported":1758870596,"current_range_meters":8800,"station_id":"ce4bhsh2rcd13ifvqi2g","pricing_plan_id":"cebpf4jnsgd1na2vs0mg"},{"bike_id":"1efede52-177f-4354-9039-0dd6fcef291e","system_id":"levelo_inurba_marseille","lat":43.31772,"lon":5.39031,"is_reserved":false,"is_disabled":false,"rental_uris":{"android":"levelo://app?vid=1efede52-177f-4354-9039-0dd6fcef291e","ios":"levelo://app?vid=1efede52-177f-4354-9039-0dd6fcef291e"},"vehicle_type_id":"4","last_reported":1758870596,"current_range_meters":9200,"station_id":"ce4bhqp2rcd13ifvqhng","pricing_plan_id":"cebpf4jnsgd1na2vs0mg"},{"bike_id":"003515e8-8117-44bb-979d-5f47e8d50fda","system_id":"levelo_inurba_marseille","lat":43.30626,"lon":5.37613,"is_reserved":false,"is_disabled":false,"rental_uris":{"android":"levelo://app?vid=003515e8-8117-44bb-979d-5f47e8d50fda","ios":"levelo://app?vid=003515e8-8117-44bb-979d-5f47e8d50fda"},"vehicle_type_id":"4","last_reported":1758870596,"current_range_meters":9200,"station_id":"","pricing_plan_id":"cebpf4jnsgd1na2vs0mg"},{"bike_id":"5d386be3-e9d7-4db3-bda9-9ed5fc575891","system_id":"levelo_inurba_marseille","lat":43.30486,"lon":5.37916,"is_reserved":false,"is_disabled":false,"rental_uris":{"android":"levelo://app?vid=5d386be3-e9d7-4db3-bda9-9ed5fc575891","ios":"levelo://app?vid=5d386be3-e9d7-4db3-bda9-9ed5fc575891"},"vehicle_type_id":"4","last_reported":1758870596,"current_range_meters":9200,"station_id":"ce4bgup2rcd13ifvqcn0","pricing_plan_id":"cebpf4jnsgd1na2vs0mg"},{"bike_id":"7c731e25-e85a-488e-8c8c-4f1aece60af0","system_id":"levelo_inurba_marseille","lat":43.23966,"lon":5.36631,"is_reserved":false,"is_disabled":false,"rental_uris":{"android":"levelo://app?vid=7c731e25-e85a-488e-8c8c-4f1aece60af0","ios":"levelo://app?vid=7c731e25-e85a-488e-8c8c-4f1aece60af0"},"vehicle_type_id":"4","last_reported":1758870596,"current_range_meters":8800,"station_id":"ce4bhi12rcd13ifvqfp0","pricing_plan_id":"cebpf4jnsgd1na2vs0mg"},{"bike_id":"5953e050-f8a0-4e94-8fb6-913d54d35f7d","system_id":"levelo_inurba_marseille","lat":43.2732,"lon":5.39085,"is_reserved":false,"is_disabled":false,"rental_uris":{"android":"levelo://app?vid=5953e050-f8a0-4e94-8fb6-913d54d35f7d","ios":"levelo://app?vid=5953e050-f8a0-4e94-8fb6-913d54d35f7d"},"vehicle_type_id":"4","last_reported":1758870596,"current_range_meters":9200,"station_id":"ce4bhgp2rcd13ifvqfe0","pricing_plan_id":"cebpf4jnsgd1na2vs0mg"},{"bike_id":"68141cbc-6b9c-49f4-b058-f4fb9b8677d3","system_id":"levelo_inurba_marseille","lat":43.23197,"lon":5.39974,"is_reserved":false,"is_disabled":false,"rental_uris":{"android":"levelo://app?vid=68141cbc-6b9c-49f4-b058-f4fb9b8677d3","ios":"levelo://app?vid=68141cbc-6b9c-49f4-b058-f4fb9b8677d3"},"vehicle_type_id":"4","last_reported":1758870596,"current_range_meters":9200,"station_id":"ce4bhn12rcd13ifvqgqg","pricing_plan_id":"cebpf4jnsgd1na2vs0mg"},{"bike_id":"a341543f-b296-466f-ba68-88279a4948a9","system_id":"levelo_inurba_marseille","lat":43.29619,"lon":5.37713,"is_reserved":false,"is_disabled":false,"rental_uris":{"android":"levelo://app?vid=a341543f-b296-466f-ba68-88279a4948a9","ios":"levelo://app?vid=a341543f-b296-466f-ba68-88279a4948a9"},"vehicle_type_id":"4","last_reported":1758870596,"current_range_meters":9200,"station_id":"ce4bgi92rcd13ifvqb90","pricing_plan_id":"cebpf4jnsgd1na2vs0mg"},{"bike_id":"212de2eb-8bbc-413c-b204-9fe1facd76e8","system_id":"levelo_inurba_marseille","lat":43.31321,"lon":5.3783,"is_reserved":false,"is_disabled":false,"rental_uris":{"android":"levelo://app?vid=212de2eb-8bbc-413c-b204-9fe1facd76e8","ios":"levelo://app?vid=212de2eb-8bbc-413c-b204-9fe1facd76e8"},"vehicle_type_id":"4","last_reported":1758870596,"current_range_meters":9200,"station_id":"","pricing_plan_id":"cebpf4jnsgd1na2vs0mg"},{"bike_id":"cb3139a4-f2d1-4c6a-bb07-a858c1fa1910","system_id":"levelo_inurba_marseille","lat":43.26564,"lon":5.39043,"is_reserved":false,"is_disabled":false,"rental_uris":{"android":"levelo://app?vid=cb3139a4-f2d1-4c6a-bb07-a858c1fa1910","ios":"levelo://app?vid=cb3139a4-f2d1-4c6a-bb07-a858c1fa1910"},"vehicle_type_id":"4","last_reported":1758870596,"current_range_meters":9200,"station_id":"ce4bhe12rcd13ifvqf30","pricing_plan_id":"cebpf4jnsgd1na2vs0mg"},{"bike_id":"b8f57efd-79df-49ff-950f-08d0874d290f","system_id":"levelo_inurba_marseille","lat":43.2845,"lon":5.39191,"is_reserved":false,"is_disabled":false,"rental_uris":{"android":"levelo://app?vid=b8f57efd-79df-49ff-950f-08d0874d290f","ios":"levelo://app?vid=b8f57efd-79df-49ff-950f-08d0874d290f"},"vehicle_type_id":"4","last_reported":1758870596,"current_range_meters":9600,"station_id":"ce4bhoh2rcd13ifvqh5g","pricing_plan_id":"cebpf4jnsgd1na2vs0mg"},{"bike_id":"7b0b6622-d8fa-42d2-b4f7-2d647cb3bbdc","system_id":"levelo_inurba_marseille","lat":43.30278,"lon":5.37695,"is_reserved":false,"is_disabled":false,"rental_uris":{"android":"levelo://app?vid=7b0b6622-d8fa-42d2-b4f7-2d647cb3bbdc","ios":"levelo://app?vid=7b0b6622-d8fa-42d2-b4f7-2d647cb3bbdc"},"vehicle_type_id":"4","last_reported":1758870596,"current_range_meters":9200,"station_id":"ce4bguh2rcd13ifvqcj0","pricing_plan_id":"cebpf4jnsgd1na2vs0mg"},{"bike_id":"2bd2a176-8590-4e06-8b8c-a96b49b7b36a","system_id":"levelo_inurba_marseille","lat":43.242409,"lon":5.41085,"is_reserved":false,"is_disabled":false,"rental_uris":{"android":"levelo://app?vid=2bd2a176-8590-4e06-8b8c-a96b49b7b36a","ios":"levelo://app?vid=2bd2a176-8590-4e06-8b8c-a96b49b7b36a"},"vehicle_type_id":"4","last_reported":1758870596,"current_range_meters":9600,"station_id":"","pricing_plan_id":"cebpf4jnsgd1na2vs0mg"},{"bike_id":"d7f9e1df-8b0f-4a8d-ad58-d349030d8c25","system_id":"levelo_inurba_marseille","lat":43.29615,"lon":5.37809,"is_reserved":false,"is_disabled":false,"rental_uris":{"android":"levelo://app?vid=d7f9e1df-8b0f-4a8d-ad58-d349030d8c25","ios":"levelo://app?vid=d7f9e1df-8b0f-4a8d-ad58-d349030d8c25"},"vehicle_type_id":"4","last_reported":1758870596,"current_range_meters":9600,"station_id":"","pricing_plan_id":"cebpf4jnsgd1na2vs0mg"},{"bike_id":"3731e4b4-e57b-4ad8-affe-801decac42ca","system_id":"levelo_inurba_marseille","lat":43.24948,"lon":5.40506,"is_reserved":false,"is_disabled":false,"rental_uris":{"android":"levelo://app?vid=3731e4b4-e57b-4ad8-affe-801decac42ca","ios":"levelo://app?vid=3731e4b4-e57b-4ad8-affe-801decac42ca"},"vehicle_type_id":"4","last_reported":1758870596,"current_range_meters":9600,"station_id":"st_d2ngiaodas8pm72gd1h0","pricing_plan_id":"cebpf4jnsgd1na2vs0mg"},{"bike_id":"8844a9c4-131a-4f3b-adcd-805c7a156531","system_id":"levelo_inurba_marseille","lat":43.31538,"lon":5.38036,"is_reserved":false,"is_disabled":false,"rental_uris":{"android":"levelo://app?vid=8844a9c4-131a-4f3b-adcd-805c7a156531","ios":"levelo://app?vid=8844a9c4-131a-4f3b-adcd-805c7a156531"},"vehicle_type_id":"4","last_reported":1758870596,"current_range_meters":9600,"station_id":"ce4bhsp2rcd13ifvqi50","pricing_plan_id":"cebpf4jnsgd1na2vs0mg"},{"bike_id":"dd1c4b61-3dfd-448a-8fa7-54ac381107d9","system_id":"levelo_inurba_marseille","lat":43.30524,"lon":5.36716,"is_reserved":false,"is_disabled":false,"rental_uris":{"android":"levelo://app?vid=dd1c4b61-3dfd-448a-8fa7-54ac381107d9","ios":"levelo://app?vid=dd1c4b61-3dfd-448a-8fa7-54ac381107d9"},"vehicle_type_id":"4","last_reported":1758870596,"current_range_meters":9600,"station_id":"ce4bgrp2rcd13ifvqc9g","pricing_plan_id":"cebpf4jnsgd1na2vs0mg"},{"bike_id":"d0b4ad01-50e6-4264-98b4-6fa8fa23c2cf","system_id":"levelo_inurba_marseille","lat":43.26786,"lon":5.39413,"is_reserved":false,"is_disabled":false,"rental_uris":{"android":"levelo://app?vid=d0b4ad01-50e6-4264-98b4-6fa8fa23c2cf","ios":"levelo://app?vid=d0b4ad01-50e6-4264-98b4-6fa8fa23c2cf"},"vehicle_type_id":"4","last_reported":1758870596,"current_range_meters":9600,"station_id":"ce4bhh12rcd13ifvqfg0","pricing_plan_id":"cebpf4jnsgd1na2vs0mg"},{"bike_id":"d31d856a-933d-49cf-948f-ce03657dfc74","system_id":"levelo_inurba_marseille","lat":43.28426,"lon":5.35041,"is_reserved":false,"is_disabled":false,"rental_uris":{"android":"levelo://app?vid=d31d856a-933d-49cf-948f-ce03657dfc74","ios":"levelo://app?vid=d31d856a-933d-49cf-948f-ce03657dfc74"},"vehicle_type_id":"4","last_reported":1758870596,"current_range_meters":9600,"station_id":"ce4bhbh2rcd13ifvqepg","pricing_plan_id":"cebpf4jnsgd1na2vs0mg"},{"bike_id":"1dc7f111-b63a-4e12-b705-dbf428b5deda","system_id":"levelo_inurba_marseille","lat":43.30177,"lon":5.38069,"is_reserved":false,"is_disabled":false,"rental_uris":{"android":"levelo://app?vid=1dc7f111-b63a-4e12-b705-dbf428b5deda","ios":"levelo://app?vid=1dc7f111-b63a-4e12-b705-dbf428b5deda"},"vehicle_type_id":"4","last_reported":1758870596,"current_range_meters":9600,"station_id":"ce4bgjp2rcd13ifvqbh0","pricing_plan_id":"cebpf4jnsgd1na2vs0mg"},{"bike_id":"7ffd16fe-e13b-40cc-a3d7-f9bcb37e0c5d","system_id":"levelo_inurba_marseille","lat":43.26692,"lon":5.38279,"is_reserved":false,"is_disabled":false,"rental_uris":{"android":"levelo://app?vid=7ffd16fe-e13b-40cc-a3d7-f9bcb37e0c5d","ios":"levelo://app?vid=7ffd16fe-e13b-40cc-a3d7-f9bcb37e0c5d"},"vehicle_type_id":"4","last_reported":1758870596,"current_range_meters":9600,"station_id":"ce4bhg92rcd13ifvqf90","pricing_plan_id":"cebpf4jnsgd1na2vs0mg"},{"bike_id":"f897d300-643c-4c7a-951b-f56d70ef23ca","system_id":"levelo_inurba_marseille","lat":43.30328,"lon":5.39108,"is_reserved":false,"is_disabled":false,"rental_uris":{"android":"levelo://app?vid=f897d300-643c-4c7a-951b-f56d70ef23ca","ios":"levelo://app?vid=f897d300-643c-4c7a-951b-f56d70ef23ca"},"vehicle_type_id":"4","last_reported":1758870596,"current_range_meters":10000,"station_id":"","pricing_plan_id":"cebpf4jnsgd1na2vs0mg"},{"bike_id":"d0494a97-ddba-4f84-8052-e02a05156963","system_id":"levelo_inurba_marseille","lat":43.30275,"lon":5.37716,"is_reserved":false,"is_disabled":false,"rental_uris":{"android":"levelo://app?vid=d0494a97-ddba-4f84-8052-e02a05156963","ios":"levelo://app?vid=d0494a97-ddba-4f84-8052-e02a05156963"},"vehicle_type_id":"4","last_reported":1758870596,"current_range_meters":9600,"station_id":"ce4bguh2rcd13ifvqcj0","pricing_plan_id":"cebpf4jnsgd1na2vs0mg"},{"bike_id":"b0638895-8dbe-4173-950c-83ad3446529c","system_id":"levelo_inurba_marseille","lat":43.312229,"lon":5.368594,"is_reserved":false,"is_disabled":false,"rental_uris":{"android":"levelo://app?vid=b0638895-8dbe-4173-950c-83ad3446529c","ios":"levelo://app?vid=b0638895-8dbe-4173-950c-83ad3446529c"},"vehicle_type_id":"4","last_reported":1758870596,"current_range_meters":10000,"station_id":"ce4bgl92rcd13ifvqbq0","pricing_plan_id":"cebpf4jnsgd1na2vs0mg"},{"bike_id":"c677b036-2566-43af-9581-10e8a1377ff7","system_id":"levelo_inurba_marseille","lat":43.26678,"lon":5.38271,"is_reserved":false,"is_disabled":false,"rental_uris":{"android":"levelo://app?vid=c677b036-2566-43af-9581-10e8a1377ff7","ios":"levelo://app?vid=c677b036-2566-43af-9581-10e8a1377ff7"},"vehicle_type_id":"4","last_reported":1758870596,"current_range_meters":10000,"station_id":"ce4bhg92rcd13ifvqf90","pricing_plan_id":"cebpf4jnsgd1na2vs0mg"},{"bike_id":"41cfb404-a246-4ca2-b7a6-1f89b85dc9db","system_id":"levelo_inurba_marseille","lat":43.30142,"lon":5.37413,"is_reserved":false,"is_disabled":false,"rental_uris":{"android":"levelo://app?vid=41cfb404-a246-4ca2-b7a6-1f89b85dc9db","ios":"levelo://app?vid=41cfb404-a246-4ca2-b7a6-1f89b85dc9db"},"vehicle_type_id":"4","last_reported":1758870596,"current_range_meters":10000,"station_id":"ce4bgs92rcd13ifvqcc0","pricing_plan_id":"cebpf4jnsgd1na2vs0mg"},{"bike_id":"1b95970f-42c4-4ab0-acc7-2baa194657cf","system_id":"levelo_inurba_marseille","lat":43.33615,"lon":5.4104,"is_reserved":false,"is_disabled":false,"rental_uris":{"android":"levelo://app?vid=1b95970f-42c4-4ab0-acc7-2baa194657cf","ios":"levelo://app?vid=1b95970f-42c4-4ab0-acc7-2baa194657cf"},"vehicle_type_id":"4","last_reported":1758870596,"current_range_meters":10800,"station_id":"ce4bhqh2rcd13ifvqhmg","pricing_plan_id":"cebpf4jnsgd1na2vs0mg"},{"bike_id":"f5a888db-229a-4246-81ee-0ff2a1bcfdfa","system_id":"levelo_inurba_marseille","lat":43.2293,"lon":5.35379,"is_reserved":false,"is_disabled":false,"rental_uris":{"android":"levelo://app?vid=f5a888db-229a-4246-81ee-0ff2a1bcfdfa","ios":"levelo://app?vid=f5a888db-229a-4246-81ee-0ff2a1bcfdfa"},"vehicle_type_id":"4","last_reported":1758870596,"current_range_meters":10800,"station_id":"cpo3532slgdg3j2ikp40","pricing_plan_id":"cebpf4jnsgd1na2vs0mg"},{"bike_id":"b95ccc42-8425-40e9-a8b2-4aa5c72cba23","system_id":"levelo_inurba_marseille","lat":43.28492,"lon":5.38567,"is_reserved":false,"is_disabled":false,"rental_uris":{"android":"levelo://app?vid=b95ccc42-8425-40e9-a8b2-4aa5c72cba23","ios":"levelo://app?vid=b95ccc42-8425-40e9-a8b2-4aa5c72cba23"},"vehicle_type_id":"4","last_reported":1758870596,"current_range_meters":10800,"station_id":"ce4bh8p2rcd13ifvqeb0","pricing_plan_id":"cebpf4jnsgd1na2vs0mg"},{"bike_id":"7af93e2a-73e0-4423-a910-8b869e9ee54e","system_id":"levelo_inurba_marseille","lat":43.29879,"lon":5.38906,"is_reserved":false,"is_disabled":false,"rental_uris":{"android":"levelo://app?vid=7af93e2a-73e0-4423-a910-8b869e9ee54e","ios":"levelo://app?vid=7af93e2a-73e0-4423-a910-8b869e9ee54e"},"vehicle_type_id":"4","last_reported":1758870596,"current_range_meters":10800,"station_id":"ce4bh392rcd13ifvqdl0","pricing_plan_id":"cebpf4jnsgd1na2vs0mg"},{"bike_id":"53030e64-f921-444d-bd54-865a8a994a1f","system_id":"levelo_inurba_marseille","lat":43.336127,"lon":5.410305,"is_reserved":false,"is_disabled":false,"rental_uris":{"android":"levelo://app?vid=53030e64-f921-444d-bd54-865a8a994a1f","ios":"levelo://app?vid=53030e64-f921-444d-bd54-865a8a994a1f"},"vehicle_type_id":"4","last_reported":1758870596,"current_range_meters":10800,"station_id":"ce4bhqh2rcd13ifvqhmg","pricing_plan_id":"cebpf4jnsgd1na2vs0mg"},{"bike_id":"1c35bf83-ebdb-4c44-ba8d-eb30d817a599","system_id":"levelo_inurba_marseille","lat":43.304251,"lon":5.39741,"is_reserved":false,"is_disabled":true,"rental_uris":{"android":"levelo://app?vid=1c35bf83-ebdb-4c44-ba8d-eb30d817a599","ios":"levelo://app?vid=1c35bf83-ebdb-4c44-ba8d-eb30d817a599"},"vehicle_type_id":"4","last_reported":1758870596,"current_range_meters":10800,"station_id":"","pricing_plan_id":"cebpf4jnsgd1na2vs0mg"},{"bike_id":"7cda5cc8-118f-428e-9ba6-db3ba2c103f9","system_id":"levelo_inurba_marseille","lat":43.256856,"lon":5.410878,"is_reserved":false,"is_disabled":false,"rental_uris":{"android":"levelo://app?vid=7cda5cc8-118f-428e-9ba6-db3ba2c103f9","ios":"levelo://app?vid=7cda5cc8-118f-428e-9ba6-db3ba2c103f9"},"vehicle_type_id":"4","last_reported":1758870596,"current_range_meters":10800,"station_id":"ce4bhkp2rcd13ifvqgd0","pricing_plan_id":"cebpf4jnsgd1na2vs0mg"},{"bike_id":"e5303607-da03-4ac7-b81e-b332ede84cf7","system_id":"levelo_inurba_marseille","lat":43.31309,"lon":5.37815,"is_reserved":false,"is_disabled":false,"rental_uris":{"android":"levelo://app?vid=e5303607-da03-4ac7-b81e-b332ede84cf7","ios":"levelo://app?vid=e5303607-da03-4ac7-b81e-b332ede84cf7"},"vehicle_type_id":"4","last_reported":1758870596,"current_range_meters":10800,"station_id":"","pricing_plan_id":"cebpf4jnsgd1na2vs0mg"},{"bike_id":"8438aff7-2999-487f-afcb-e7cc7f3388dc","system_id":"levelo_inurba_marseille","lat":43.24548,"lon":5.39523,"is_reserved":false,"is_disabled":false,"rental_uris":{"android":"levelo://app?vid=8438aff7-2999-487f-afcb-e7cc7f3388dc","ios":"levelo://app?vid=8438aff7-2999-487f-afcb-e7cc7f3388dc"},"vehicle_type_id":"4","last_reported":1758870596,"current_range_meters":10800,"station_id":"ce4bhlp2rcd13ifvqgjg","pricing_plan_id":"cebpf4jnsgd1na2vs0mg"},{"bike_id":"d4ff37ac-4b54-432d-a5da-4c0f4f93531f","system_id":"levelo_inurba_marseille","lat":43.24158,"lon":5.36415,"is_reserved":false,"is_disabled":false,"rental_uris":{"android":"levelo://app?vid=d4ff37ac-4b54-432d-a5da-4c0f4f93531f","ios":"levelo://app?vid=d4ff37ac-4b54-432d-a5da-4c0f4f93531f"},"vehicle_type_id":"4","last_reported":1758870596,"current_range_meters":11200,"station_id":"cpo36qri1sfpv3e86is0","pricing_plan_id":"cebpf4jnsgd1na2vs0mg"},{"bike_id":"16d16ff9-64e4-47c4-a91c-349c5ba0b13a","system_id":"levelo_inurba_marseille","lat":43.23148,"lon":5.43726,"is_reserved":false,"is_disabled":false,"rental_uris":{"android":"levelo://app?vid=16d16ff9-64e4-47c4-a91c-349c5ba0b13a","ios":"levelo://app?vid=16d16ff9-64e4-47c4-a91c-349c5ba0b13a"},"vehicle_type_id":"4","last_reported":1758870596,"current_range_meters":10800,"station_id":"ce4bhmp2rcd13ifvqgog","pricing_plan_id":"cebpf4jnsgd1na2vs0mg"},{"bike_id":"7a920ec4-549b-4722-a424-d2a78f7bd404","system_id":"levelo_inurba_marseille","lat":43.28701,"lon":5.37384,"is_reserved":false,"is_disabled":false,"rental_uris":{"android":"levelo://app?vid=7a920ec4-549b-4722-a424-d2a78f7bd404","ios":"levelo://app?vid=7a920ec4-549b-4722-a424-d2a78f7bd404"},"vehicle_type_id":"4","last_reported":1758870596,"current_range_meters":10800,"station_id":"ce4bh3p2rcd13ifvqdq0","pricing_plan_id":"cebpf4jnsgd1na2vs0mg"},{"bike_id":"0a7dee83-f3d6-49dd-9849-b85dcb39280d","system_id":"levelo_inurba_marseille","lat":43.30139,"lon":5.3807,"is_reserved":false,"is_disabled":true,"rental_uris":{"android":"levelo://app?vid=0a7dee83-f3d6-49dd-9849-b85dcb39280d","ios":"levelo://app?vid=0a7dee83-f3d6-49dd-9849-b85dcb39280d"},"vehicle_type_id":"4","last_reported":1758870596,"current_range_meters":11200,"station_id":"ce4bgjp2rcd13ifvqbh0","pricing_plan_id":"cebpf4jnsgd1na2vs0mg"},{"bike_id":"10b90785-4d28-45e8-9504-9fa646684474","system_id":"levelo_inurba_marseille","lat":43.34146,"lon":5.409088,"is_reserved":false,"is_disabled":false,"rental_uris":{"android":"levelo://app?vid=10b90785-4d28-45e8-9504-9fa646684474","ios":"levelo://app?vid=10b90785-4d28-45e8-9504-9fa646684474"},"vehicle_type_id":"4","last_reported":1758870596,"current_range_meters":11200,"station_id":"","pricing_plan_id":"cebpf4jnsgd1na2vs0mg"},{"bike_id":"0d54f249-b891-4504-a5ff-687b2a4870e6","system_id":"levelo_inurba_marseille","lat":43.28629,"lon":5.35113,"is_reserved":false,"is_disabled":false,"rental_uris":{"android":"levelo://app?vid=0d54f249-b891-4504-a5ff-687b2a4870e6","ios":"levelo://app?vid=0d54f249-b891-4504-a5ff-687b2a4870e6"},"vehicle_type_id":"4","last_reported":1758870596,"current_range_meters":11200,"station_id":"ce4bhch2rcd13ifvqeug","pricing_plan_id":"cebpf4jnsgd1na2vs0mg"},{"bike_id":"4699f336-6701-449c-8d9c-2b805d712947","system_id":"levelo_inurba_marseille","lat":43.249452,"lon":5.40493,"is_reserved":false,"is_disabled":false,"rental_uris":{"android":"levelo://app?vid=4699f336-6701-449c-8d9c-2b805d712947","ios":"levelo://app?vid=4699f336-6701-449c-8d9c-2b805d712947"},"vehicle_type_id":"4","last_reported":1758870596,"current_range_meters":11200,"station_id":"st_d2ngiaodas8pm72gd1h0","pricing_plan_id":"cebpf4jnsgd1na2vs0mg"},{"bike_id":"d201e166-152c-43e1-b5e5-501df8137b5d","system_id":"levelo_inurba_marseille","lat":43.30021,"lon":5.38874,"is_reserved":false,"is_disabled":false,"rental_uris":{"android":"levelo://app?vid=d201e166-152c-43e1-b5e5-501df8137b5d","ios":"levelo://app?vid=d201e166-152c-43e1-b5e5-501df8137b5d"},"vehicle_type_id":"4","last_reported":1758870596,"current_range_meters":11200,"station_id":"","pricing_plan_id":"cebpf4jnsgd1na2vs0mg"},{"bike_id":"c7f6a08b-c655-4213-b2ba-7d02e7f382fe","system_id":"levelo_inurba_marseille","lat":43.27988,"lon":5.39483,"is_reserved":false,"is_disabled":false,"rental_uris":{"android":"levelo://app?vid=c7f6a08b-c655-4213-b2ba-7d02e7f382fe","ios":"levelo://app?vid=c7f6a08b-c655-4213-b2ba-7d02e7f382fe"},"vehicle_type_id":"4","last_reported":1758870596,"current_range_meters":11200,"station_id":"","pricing_plan_id":"cebpf4jnsgd1na2vs0mg"},{"bike_id":"0bc84edb-0977-4233-a08c-266d374e054b","system_id":"levelo_inurba_marseille","lat":43.29322,"lon":5.37178,"is_reserved":false,"is_disabled":false,"rental_uris":{"android":"levelo://app?vid=0bc84edb-0977-4233-a08c-266d374e054b","ios":"levelo://app?vid=0bc84edb-0977-4233-a08c-266d374e054b"},"vehicle_type_id":"4","last_reported":1758870596,"current_range_meters":10800,"station_id":"ce4bgh92rcd13ifvqb40","pricing_plan_id":"cebpf4jnsgd1na2vs0mg"},{"bike_id":"6c507fe2-8a16-4919-9858-813dfa4eea11","system_id":"levelo_inurba_marseille","lat":43.30144,"lon":5.38087,"is_reserved":false,"is_disabled":false,"rental_uris":{"android":"levelo://app?vid=6c507fe2-8a16-4919-9858-813dfa4eea11","ios":"levelo://app?vid=6c507fe2-8a16-4919-9858-813dfa4eea11"},"vehicle_type_id":"4","last_reported":1758870596,"current_range_meters":11200,"station_id":"ce4bgjp2rcd13ifvqbh0","pricing_plan_id":"cebpf4jnsgd1na2vs0mg"},{"bike_id":"97a5ee76-2e0a-479d-a727-d5a9ad8fecb2","system_id":"levelo_inurba_marseille","lat":43.22926,"lon":5.35379,"is_reserved":false,"is_disabled":false,"rental_uris":{"android":"levelo://app?vid=97a5ee76-2e0a-479d-a727-d5a9ad8fecb2","ios":"levelo://app?vid=97a5ee76-2e0a-479d-a727-d5a9ad8fecb2"},"vehicle_type_id":"4","last_reported":1758870596,"current_range_meters":11600,"station_id":"cpo3532slgdg3j2ikp40","pricing_plan_id":"cebpf4jnsgd1na2vs0mg"},{"bike_id":"127a2772-9d59-4564-9afc-f6ddd422b53d","system_id":"levelo_inurba_marseille","lat":43.30116,"lon":5.39178,"is_reserved":false,"is_disabled":false,"rental_uris":{"android":"levelo://app?vid=127a2772-9d59-4564-9afc-f6ddd422b53d","ios":"levelo://app?vid=127a2772-9d59-4564-9afc-f6ddd422b53d"},"vehicle_type_id":"4","last_reported":1758870596,"current_range_meters":11600,"station_id":"","pricing_plan_id":"cebpf4jnsgd1na2vs0mg"},{"bike_id":"b00600c3-4313-42bf-ae20-136dc4dd7908","system_id":"levelo_inurba_marseille","lat":43.28982,"lon":5.37837,"is_reserved":false,"is_disabled":false,"rental_uris":{"android":"levelo://app?vid=b00600c3-4313-42bf-ae20-136dc4dd7908","ios":"levelo://app?vid=b00600c3-4313-42bf-ae20-136dc4dd7908"},"vehicle_type_id":"4","last_reported":1758870596,"current_range_meters":11600,"station_id":"ce4bh9p2rcd13ifvqed0","pricing_plan_id":"cebpf4jnsgd1na2vs0mg"},{"bike_id":"c6b3e536-9745-4760-93b7-a9b7697329d8","system_id":"levelo_inurba_marseille","lat":43.28422,"lon":5.35014,"is_reserved":false,"is_disabled":false,"rental_uris":{"android":"levelo://app?vid=c6b3e536-9745-4760-93b7-a9b7697329d8","ios":"levelo://app?vid=c6b3e536-9745-4760-93b7-a9b7697329d8"},"vehicle_type_id":"4","last_reported":1758870596,"current_range_meters":11600,"station_id":"ce4bhbh2rcd13ifvqepg","pricing_plan_id":"cebpf4jnsgd1na2vs0mg"},{"bike_id":"be4b5e72-5f9d-40b8-90e2-7bdcbd9243c9","system_id":"levelo_inurba_marseille","lat":43.30537,"lon":5.3843,"is_reserved":false,"is_disabled":false,"rental_uris":{"android":"levelo://app?vid=be4b5e72-5f9d-40b8-90e2-7bdcbd9243c9","ios":"levelo://app?vid=be4b5e72-5f9d-40b8-90e2-7bdcbd9243c9"},"vehicle_type_id":"4","last_reported":1758870596,"current_range_meters":11600,"station_id":"ce4bgg92rcd13ifvqb30","pricing_plan_id":"cebpf4jnsgd1na2vs0mg"},{"bike_id":"32ad929f-3e3e-4d5c-9b67-71449fd28054","system_id":"levelo_inurba_marseille","lat":43.312266,"lon":5.368592,"is_reserved":false,"is_disabled":false,"rental_uris":{"android":"levelo://app?vid=32ad929f-3e3e-4d5c-9b67-71449fd28054","ios":"levelo://app?vid=32ad929f-3e3e-4d5c-9b67-71449fd28054"},"vehicle_type_id":"4","last_reported":1758870596,"current_range_meters":11600,"station_id":"ce4bgl92rcd13ifvqbq0","pricing_plan_id":"cebpf4jnsgd1na2vs0mg"},{"bike_id":"a867f295-7703-4307-b2f6-5d750ccf273e","system_id":"levelo_inurba_marseille","lat":43.25933,"lon":5.40916,"is_reserved":false,"is_disabled":false,"rental_uris":{"android":"levelo://app?vid=a867f295-7703-4307-b2f6-5d750ccf273e","ios":"levelo://app?vid=a867f295-7703-4307-b2f6-5d750ccf273e"},"vehicle_type_id":"4","last_reported":1758870596,"current_range_meters":11600,"station_id":"ce4bhm92rcd13ifvqglg","pricing_plan_id":"cebpf4jnsgd1na2vs0mg"},{"bike_id":"232f7f05-11b0-4e83-87a0-d64195604901","system_id":"levelo_inurba_marseille","lat":43.27984,"lon":5.41666,"is_reserved":false,"is_disabled":false,"rental_uris":{"android":"levelo://app?vid=232f7f05-11b0-4e83-87a0-d64195604901","ios":"levelo://app?vid=232f7f05-11b0-4e83-87a0-d64195604901"},"vehicle_type_id":"4","last_reported":1758870596,"current_range_meters":12000,"station_id":"ce4bho12rcd13ifvqh1g","pricing_plan_id":"cebpf4jnsgd1na2vs0mg"},{"bike_id":"064cfafc-654c-47b9-87bf-4d744f3f4bdf","system_id":"levelo_inurba_marseille","lat":43.3137,"lon":5.36767,"is_reserved":false,"is_disabled":false,"rental_uris":{"android":"levelo://app?vid=064cfafc-654c-47b9-87bf-4d744f3f4bdf","ios":"levelo://app?vid=064cfafc-654c-47b9-87bf-4d744f3f4bdf"},"vehicle_type_id":"4","last_reported":1758870596,"current_range_meters":12000,"station_id":"","pricing_plan_id":"cebpf4jnsgd1na2vs0mg"},{"bike_id":"d734f0f7-bb82-4cbc-9571-824c32d91d22","system_id":"levelo_inurba_marseille","lat":43.24191,"lon":5.36407,"is_reserved":false,"is_disabled":false,"rental_uris":{"android":"levelo://app?vid=d734f0f7-bb82-4cbc-9571-824c32d91d22","ios":"levelo://app?vid=d734f0f7-bb82-4cbc-9571-824c32d91d22"},"vehicle_type_id":"4","last_reported":1758870596,"current_range_meters":12000,"station_id":"cpo36qri1sfpv3e86is0","pricing_plan_id":"cebpf4jnsgd1na2vs0mg"},{"bike_id":"c31c58ee-4e29-4ce3-bf0a-25ae5cf57cfc","system_id":"levelo_inurba_marseille","lat":43.2495,"lon":5.40494,"is_reserved":false,"is_disabled":false,"rental_uris":{"android":"levelo://app?vid=c31c58ee-4e29-4ce3-bf0a-25ae5cf57cfc","ios":"levelo://app?vid=c31c58ee-4e29-4ce3-bf0a-25ae5cf57cfc"},"vehicle_type_id":"4","last_reported":1758870596,"current_range_meters":12000,"station_id":"st_d2ngiaodas8pm72gd1h0","pricing_plan_id":"cebpf4jnsgd1na2vs0mg"},{"bike_id":"041cd397-24ab-4e04-af23-07b961e161f4","system_id":"levelo_inurba_marseille","lat":43.337444,"lon":5.374475,"is_reserved":false,"is_disabled":false,"rental_uris":{"android":"levelo://app?vid=041cd397-24ab-4e04-af23-07b961e161f4","ios":"levelo://app?vid=041cd397-24ab-4e04-af23-07b961e161f4"},"vehicle_type_id":"4","last_reported":1758870596,"current_range_meters":12000,"station_id":"","pricing_plan_id":"cebpf4jnsgd1na2vs0mg"},{"bike_id":"39e6b2d7-e7bc-4366-8a01-87bc46855564","system_id":"levelo_inurba_marseille","lat":43.32138,"lon":5.36746,"is_reserved":false,"is_disabled":false,"rental_uris":{"android":"levelo://app?vid=39e6b2d7-e7bc-4366-8a01-87bc46855564","ios":"levelo://app?vid=39e6b2d7-e7bc-4366-8a01-87bc46855564"},"vehicle_type_id":"4","last_reported":1758870596,"current_range_meters":12000,"station_id":"","pricing_plan_id":"cebpf4jnsgd1na2vs0mg"},{"bike_id":"b6ff3672-4e7c-404c-ab2a-bd902cf95e14","system_id":"levelo_inurba_marseille","lat":43.26864,"lon":5.4067,"is_reserved":false,"is_disabled":false,"rental_uris":{"android":"levelo://app?vid=b6ff3672-4e7c-404c-ab2a-bd902cf95e14","ios":"levelo://app?vid=b6ff3672-4e7c-404c-ab2a-bd902cf95e14"},"vehicle_type_id":"4","last_reported":1758870596,"current_range_meters":12000,"station_id":"","pricing_plan_id":"cebpf4jnsgd1na2vs0mg"},{"bike_id":"7bae3060-c47a-4be6-bd00-0a07b5d1af80","system_id":"levelo_inurba_marseille","lat":43.27324,"lon":5.391,"is_reserved":false,"is_disabled":false,"rental_uris":{"android":"levelo://app?vid=7bae3060-c47a-4be6-bd00-0a07b5d1af80","ios":"levelo://app?vid=7bae3060-c47a-4be6-bd00-0a07b5d1af80"},"vehicle_type_id":"4","last_reported":1758870596,"current_range_meters":12400,"station_id":"ce4bhgp2rcd13ifvqfe0","pricing_plan_id":"cebpf4jnsgd1na2vs0mg"},{"bike_id":"b0934032-3d3c-44e1-985e-e72b8cee3491","system_id":"levelo_inurba_marseille","lat":43.24639,"lon":5.43147,"is_reserved":false,"is_disabled":false,"rental_uris":{"android":"levelo://app?vid=b0934032-3d3c-44e1-985e-e72b8cee3491","ios":"levelo://app?vid=b0934032-3d3c-44e1-985e-e72b8cee3491"},"vehicle_type_id":"4","last_reported":1758870596,"current_range_meters":12400,"station_id":"st_d2m6c4gdas8pm72e190g","pricing_plan_id":"cebpf4jnsgd1na2vs0mg"},{"bike_id":"99aec3fd-38e8-433a-8b41-16e4e4589de6","system_id":"levelo_inurba_marseille","lat":43.337444,"lon":5.374475,"is_reserved":false,"is_disabled":false,"rental_uris":{"android":"levelo://app?vid=99aec3fd-38e8-433a-8b41-16e4e4589de6","ios":"levelo://app?vid=99aec3fd-38e8-433a-8b41-16e4e4589de6"},"vehicle_type_id":"4","last_reported":1758870596,"current_range_meters":12400,"station_id":"ce4bhih2rcd13ifvqfs0","pricing_plan_id":"cebpf4jnsgd1na2vs0mg"},{"bike_id":"9811e1f7-6003-4f66-9587-6fdbbe85e0ed","system_id":"levelo_inurba_marseille","lat":43.29538,"lon":5.42265,"is_reserved":false,"is_disabled":false,"rental_uris":{"android":"levelo://app?vid=9811e1f7-6003-4f66-9587-6fdbbe85e0ed","ios":"levelo://app?vid=9811e1f7-6003-4f66-9587-6fdbbe85e0ed"},"vehicle_type_id":"4","last_reported":1758870596,"current_range_meters":12400,"station_id":"ce4bhph2rcd13ifvqhdg","pricing_plan_id":"cebpf4jnsgd1na2vs0mg"},{"bike_id":"f9af076b-c426-46f0-97f6-f6a5a530c8e2","system_id":"levelo_inurba_marseille","lat":43.33043,"lon":5.39468,"is_reserved":false,"is_disabled":true,"rental_uris":{"android":"levelo://app?vid=f9af076b-c426-46f0-97f6-f6a5a530c8e2","ios":"levelo://app?vid=f9af076b-c426-46f0-97f6-f6a5a530c8e2"},"vehicle_type_id":"4","last_reported":1758870596,"current_range_meters":12400,"station_id":"","pricing_plan_id":"cebpf4jnsgd1na2vs0mg"},{"bike_id":"4230916c-bbbe-4b72-a888-523b488cdf71","system_id":"levelo_inurba_marseille","lat":43.26685,"lon":5.38276,"is_reserved":false,"is_disabled":false,"rental_uris":{"android":"levelo://app?vid=4230916c-bbbe-4b72-a888-523b488cdf71","ios":"levelo://app?vid=4230916c-bbbe-4b72-a888-523b488cdf71"},"vehicle_type_id":"4","last_reported":1758870596,"current_range_meters":12400,"station_id":"ce4bhg92rcd13ifvqf90","pricing_plan_id":"cebpf4jnsgd1na2vs0mg"},{"bike_id":"0ef81889-2d7f-4e70-b480-0b08f55cbfba","system_id":"levelo_inurba_marseille","lat":43.3087,"lon":5.36853,"is_reserved":false,"is_disabled":false,"rental_uris":{"android":"levelo://app?vid=0ef81889-2d7f-4e70-b480-0b08f55cbfba","ios":"levelo://app?vid=0ef81889-2d7f-4e70-b480-0b08f55cbfba"},"vehicle_type_id":"4","last_reported":1758870596,"current_range_meters":12400,"station_id":"ce4bgn92rcd13ifvqbvg","pricing_plan_id":"cebpf4jnsgd1na2vs0mg"},{"bike_id":"b44e1d36-8452-4ee7-8a78-723a4720942f","system_id":"levelo_inurba_marseille","lat":43.324836,"lon":5.366494,"is_reserved":false,"is_disabled":false,"rental_uris":{"android":"levelo://app?vid=b44e1d36-8452-4ee7-8a78-723a4720942f","ios":"levelo://app?vid=b44e1d36-8452-4ee7-8a78-723a4720942f"},"vehicle_type_id":"4","last_reported":1758870596,"current_range_meters":12000,"station_id":"ce4bhs12rcd13ifvqhvg","pricing_plan_id":"cebpf4jnsgd1na2vs0mg"},{"bike_id":"358b5bd0-bd1a-4b9c-b0d1-08dbb5ab85b3","system_id":"levelo_inurba_marseille","lat":43.2706,"lon":5.40305,"is_reserved":false,"is_disabled":false,"rental_uris":{"android":"levelo://app?vid=358b5bd0-bd1a-4b9c-b0d1-08dbb5ab85b3","ios":"levelo://app?vid=358b5bd0-bd1a-4b9c-b0d1-08dbb5ab85b3"},"vehicle_type_id":"4","last_reported":1758870596,"current_range_meters":12800,"station_id":"ce4bhk92rcd13ifvqgc0","pricing_plan_id":"cebpf4jnsgd1na2vs0mg"},{"bike_id":"50fb9580-ba2f-4e23-b955-c070734f97e1","system_id":"levelo_inurba_marseille","lat":43.29519,"lon":5.37502,"is_reserved":false,"is_disabled":false,"rental_uris":{"android":"levelo://app?vid=50fb9580-ba2f-4e23-b955-c070734f97e1","ios":"levelo://app?vid=50fb9580-ba2f-4e23-b955-c070734f97e1"},"vehicle_type_id":"4","last_reported":1758870596,"current_range_meters":12800,"station_id":"ce4bgkp2rcd13ifvqbmg","pricing_plan_id":"cebpf4jnsgd1na2vs0mg"},{"bike_id":"f3c5f598-e12d-4211-b749-11b51d760ccb","system_id":"levelo_inurba_marseille","lat":43.3016,"lon":5.38087,"is_reserved":false,"is_disabled":false,"rental_uris":{"android":"levelo://app?vid=f3c5f598-e12d-4211-b749-11b51d760ccb","ios":"levelo://app?vid=f3c5f598-e12d-4211-b749-11b51d760ccb"},"vehicle_type_id":"4","last_reported":1758870596,"current_range_meters":12800,"station_id":"ce4bgjp2rcd13ifvqbh0","pricing_plan_id":"cebpf4jnsgd1na2vs0mg"},{"bike_id":"fe00f682-cca5-427d-a71d-4e3cd090cf19","system_id":"levelo_inurba_marseille","lat":43.24068,"lon":5.37759,"is_reserved":false,"is_disabled":false,"rental_uris":{"android":"levelo://app?vid=fe00f682-cca5-427d-a71d-4e3cd090cf19","ios":"levelo://app?vid=fe00f682-cca5-427d-a71d-4e3cd090cf19"},"vehicle_type_id":"4","last_reported":1758870596,"current_range_meters":12800,"station_id":"ce4bhnp2rcd13ifvqgvg","pricing_plan_id":"cebpf4jnsgd1na2vs0mg"},{"bike_id":"5d745794-422d-487f-b147-d00a1b9ca396","system_id":"levelo_inurba_marseille","lat":43.289437,"lon":5.363874,"is_reserved":false,"is_disabled":false,"rental_uris":{"android":"levelo://app?vid=5d745794-422d-487f-b147-d00a1b9ca396","ios":"levelo://app?vid=5d745794-422d-487f-b147-d00a1b9ca396"},"vehicle_type_id":"4","last_reported":1758870596,"current_range_meters":12800,"station_id":"ce4bhc92rcd13ifvqetg","pricing_plan_id":"cebpf4jnsgd1na2vs0mg"},{"bike_id":"c37a4fa9-8929-4812-9e52-967878d66fa4","system_id":"levelo_inurba_marseille","lat":43.278,"lon":5.40706,"is_reserved":false,"is_disabled":false,"rental_uris":{"android":"levelo://app?vid=c37a4fa9-8929-4812-9e52-967878d66fa4","ios":"levelo://app?vid=c37a4fa9-8929-4812-9e52-967878d66fa4"},"vehicle_type_id":"4","last_reported":1758870596,"current_range_meters":12800,"station_id":"ce4bhnh2rcd13ifvqgtg","pricing_plan_id":"cebpf4jnsgd1na2vs0mg"},{"bike_id":"2202b42a-5ef5-42b0-9a0d-87b216b22643","system_id":"levelo_inurba_marseille","lat":43.31389,"lon":5.36704,"is_reserved":false,"is_disabled":false,"rental_uris":{"android":"levelo://app?vid=2202b42a-5ef5-42b0-9a0d-87b216b22643","ios":"levelo://app?vid=2202b42a-5ef5-42b0-9a0d-87b216b22643"},"vehicle_type_id":"4","last_reported":1758870596,"current_range_meters":12800,"station_id":"","pricing_plan_id":"cebpf4jnsgd1na2vs0mg"},{"bike_id":"6a5edbe2-66a8-4cc0-87c0-11d5220ca8c5","system_id":"levelo_inurba_marseille","lat":43.24157,"lon":5.36406,"is_reserved":false,"is_disabled":false,"rental_uris":{"android":"levelo://app?vid=6a5edbe2-66a8-4cc0-87c0-11d5220ca8c5","ios":"levelo://app?vid=6a5edbe2-66a8-4cc0-87c0-11d5220ca8c5"},"vehicle_type_id":"4","last_reported":1758870596,"current_range_meters":13600,"station_id":"cpo36qri1sfpv3e86is0","pricing_plan_id":"cebpf4jnsgd1na2vs0mg"},{"bike_id":"b01b5bc6-6834-41fb-be97-f5b6fb7e9ec8","system_id":"levelo_inurba_marseille","lat":43.26324,"lon":5.39842,"is_reserved":false,"is_disabled":false,"rental_uris":{"android":"levelo://app?vid=b01b5bc6-6834-41fb-be97-f5b6fb7e9ec8","ios":"levelo://app?vid=b01b5bc6-6834-41fb-be97-f5b6fb7e9ec8"},"vehicle_type_id":"4","last_reported":1758870596,"current_range_meters":13600,"station_id":"","pricing_plan_id":"cebpf4jnsgd1na2vs0mg"},{"bike_id":"1074f06e-8896-448f-b385-9143cb21c30f","system_id":"levelo_inurba_marseille","lat":43.28975,"lon":5.37841,"is_reserved":false,"is_disabled":false,"rental_uris":{"android":"levelo://app?vid=1074f06e-8896-448f-b385-9143cb21c30f","ios":"levelo://app?vid=1074f06e-8896-448f-b385-9143cb21c30f"},"vehicle_type_id":"4","last_reported":1758870596,"current_range_meters":13600,"station_id":"ce4bh9p2rcd13ifvqed0","pricing_plan_id":"cebpf4jnsgd1na2vs0mg"},{"bike_id":"3f269743-ee98-4e01-83df-d99e7ce44e71","system_id":"levelo_inurba_marseille","lat":43.30324,"lon":5.40438,"is_reserved":false,"is_disabled":false,"rental_uris":{"android":"levelo://app?vid=3f269743-ee98-4e01-83df-d99e7ce44e71","ios":"levelo://app?vid=3f269743-ee98-4e01-83df-d99e7ce44e71"},"vehicle_type_id":"4","last_reported":1758870596,"current_range_meters":13600,"station_id":"ce4bh012rcd13ifvqd10","pricing_plan_id":"cebpf4jnsgd1na2vs0mg"},{"bike_id":"e576cf57-f0f3-4910-9446-a0b078845208","system_id":"levelo_inurba_marseille","lat":43.2767,"lon":5.38884,"is_reserved":false,"is_disabled":false,"rental_uris":{"android":"levelo://app?vid=e576cf57-f0f3-4910-9446-a0b078845208","ios":"levelo://app?vid=e576cf57-f0f3-4910-9446-a0b078845208"},"vehicle_type_id":"4","last_reported":1758870596,"current_range_meters":12800,"station_id":"ce4bhi12rcd13ifvqfo0","pricing_plan_id":"cebpf4jnsgd1na2vs0mg"},{"bike_id":"78878e08-8999-4fdd-b88c-8890b62947ca","system_id":"levelo_inurba_marseille","lat":43.31709,"lon":5.37752,"is_reserved":false,"is_disabled":false,"rental_uris":{"android":"levelo://app?vid=78878e08-8999-4fdd-b88c-8890b62947ca","ios":"levelo://app?vid=78878e08-8999-4fdd-b88c-8890b62947ca"},"vehicle_type_id":"4","last_reported":1758870596,"current_range_meters":12800,"station_id":"ce4bgth2rcd13ifvqch0","pricing_plan_id":"cebpf4jnsgd1na2vs0mg"},{"bike_id":"a57b3feb-2354-42fe-87fd-e8fcee3a0260","system_id":"levelo_inurba_marseille","lat":43.26953,"lon":5.40241,"is_reserved":false,"is_disabled":false,"rental_uris":{"android":"levelo://app?vid=a57b3feb-2354-42fe-87fd-e8fcee3a0260","ios":"levelo://app?vid=a57b3feb-2354-42fe-87fd-e8fcee3a0260"},"vehicle_type_id":"4","last_reported":1758870596,"current_range_meters":13600,"station_id":"","pricing_plan_id":"cebpf4jnsgd1na2vs0mg"},{"bike_id":"32736573-390f-45f4-828c-a1c00739caec","system_id":"levelo_inurba_marseille","lat":43.28669,"lon":5.38678,"is_reserved":false,"is_disabled":false,"rental_uris":{"android":"levelo://app?vid=32736573-390f-45f4-828c-a1c00739caec","ios":"levelo://app?vid=32736573-390f-45f4-828c-a1c00739caec"},"vehicle_type_id":"4","last_reported":1758870596,"current_range_meters":13600,"station_id":"ce4bh492rcd13ifvqdug","pricing_plan_id":"cebpf4jnsgd1na2vs0mg"},{"bike_id":"75611fb7-df45-4d9f-9db0-a181136cc424","system_id":"levelo_inurba_marseille","lat":43.21755,"lon":5.34605,"is_reserved":false,"is_disabled":true,"rental_uris":{"android":"levelo://app?vid=75611fb7-df45-4d9f-9db0-a181136cc424","ios":"levelo://app?vid=75611fb7-df45-4d9f-9db0-a181136cc424"},"vehicle_type_id":"4","last_reported":1758870596,"current_range_meters":14000,"station_id":"st_cvj6r9ubvosntc0bgbag","pricing_plan_id":"cebpf4jnsgd1na2vs0mg"},{"bike_id":"b4f47bc1-4d12-4541-a757-a859819c9d1c","system_id":"levelo_inurba_marseille","lat":43.276802,"lon":5.388803,"is_reserved":false,"is_disabled":true,"rental_uris":{"android":"levelo://app?vid=b4f47bc1-4d12-4541-a757-a859819c9d1c","ios":"levelo://app?vid=b4f47bc1-4d12-4541-a757-a859819c9d1c"},"vehicle_type_id":"4","last_reported":1758870596,"current_range_meters":14000,"station_id":"","pricing_plan_id":"cebpf4jnsgd1na2vs0mg"},{"bike_id":"057bba5a-4cb8-4c26-a0ba-cfb7049bca00","system_id":"levelo_inurba_marseille","lat":43.28157,"lon":5.42657,"is_reserved":false,"is_disabled":true,"rental_uris":{"android":"levelo://app?vid=057bba5a-4cb8-4c26-a0ba-cfb7049bca00","ios":"levelo://app?vid=057bba5a-4cb8-4c26-a0ba-cfb7049bca00"},"vehicle_type_id":"4","last_reported":1758870596,"current_range_meters":14000,"station_id":"ce4bhnh2rcd13ifvqgug","pricing_plan_id":"cebpf4jnsgd1na2vs0mg"},{"bike_id":"13be0879-670b-43f4-8fc1-8fbc1c4ccf9c","system_id":"levelo_inurba_marseille","lat":43.28429,"lon":5.34997,"is_reserved":false,"is_disabled":false,"rental_uris":{"android":"levelo://app?vid=13be0879-670b-43f4-8fc1-8fbc1c4ccf9c","ios":"levelo://app?vid=13be0879-670b-43f4-8fc1-8fbc1c4ccf9c"},"vehicle_type_id":"4","last_reported":1758870596,"current_range_meters":14000,"station_id":"ce4bhbh2rcd13ifvqepg","pricing_plan_id":"cebpf4jnsgd1na2vs0mg"},{"bike_id":"377142cb-267c-494b-99d9-6fe238c4e676","system_id":"levelo_inurba_marseille","lat":43.30998,"lon":5.40768,"is_reserved":false,"is_disabled":false,"rental_uris":{"android":"levelo://app?vid=377142cb-267c-494b-99d9-6fe238c4e676","ios":"levelo://app?vid=377142cb-267c-494b-99d9-6fe238c4e676"},"vehicle_type_id":"4","last_reported":1758870596,"current_range_meters":14000,"station_id":"","pricing_plan_id":"cebpf4jnsgd1na2vs0mg"},{"bike_id":"64eae9c1-07f4-478d-aa63-d8ef2a709139","system_id":"levelo_inurba_marseille","lat":43.29034,"lon":5.37564,"is_reserved":false,"is_disabled":false,"rental_uris":{"android":"levelo://app?vid=64eae9c1-07f4-478d-aa63-d8ef2a709139","ios":"levelo://app?vid=64eae9c1-07f4-478d-aa63-d8ef2a709139"},"vehicle_type_id":"4","last_reported":1758870596,"current_range_meters":13600,"station_id":"ce4bh692rcd13ifvqe90","pricing_plan_id":"cebpf4jnsgd1na2vs0mg"},{"bike_id":"69b44671-c3c2-4404-9b70-f7b9662a18a3","system_id":"levelo_inurba_marseille","lat":43.25004,"lon":5.3893,"is_reserved":false,"is_disabled":false,"rental_uris":{"android":"levelo://app?vid=69b44671-c3c2-4404-9b70-f7b9662a18a3","ios":"levelo://app?vid=69b44671-c3c2-4404-9b70-f7b9662a18a3"},"vehicle_type_id":"4","last_reported":1758870596,"current_range_meters":14000,"station_id":"ce4bhgp2rcd13ifvqfd0","pricing_plan_id":"cebpf4jnsgd1na2vs0mg"},{"bike_id":"8baeac13-7e80-456d-83aa-12e0372d0df5","system_id":"levelo_inurba_marseille","lat":43.32451,"lon":5.37549,"is_reserved":false,"is_disabled":true,"rental_uris":{"android":"levelo://app?vid=8baeac13-7e80-456d-83aa-12e0372d0df5","ios":"levelo://app?vid=8baeac13-7e80-456d-83aa-12e0372d0df5"},"vehicle_type_id":"4","last_reported":1758870596,"current_range_meters":14000,"station_id":"","pricing_plan_id":"cebpf4jnsgd1na2vs0mg"},{"bike_id":"df649d25-1f44-4471-8cdd-9566da8ef9b9","system_id":"levelo_inurba_marseille","lat":43.32156,"lon":5.38793,"is_reserved":false,"is_disabled":false,"rental_uris":{"android":"levelo://app?vid=df649d25-1f44-4471-8cdd-9566da8ef9b9","ios":"levelo://app?vid=df649d25-1f44-4471-8cdd-9566da8ef9b9"},"vehicle_type_id":"4","last_reported":1758870596,"current_range_meters":14400,"station_id":"","pricing_plan_id":"cebpf4jnsgd1na2vs0mg"},{"bike_id":"e278ba37-5bcd-494c-8dee-7ee6b14675c3","system_id":"levelo_inurba_marseille","lat":43.27682,"lon":5.38883,"is_reserved":false,"is_disabled":false,"rental_uris":{"android":"levelo://app?vid=e278ba37-5bcd-494c-8dee-7ee6b14675c3","ios":"levelo://app?vid=e278ba37-5bcd-494c-8dee-7ee6b14675c3"},"vehicle_type_id":"4","last_reported":1758870596,"current_range_meters":14400,"station_id":"ce4bhi12rcd13ifvqfo0","pricing_plan_id":"cebpf4jnsgd1na2vs0mg"},{"bike_id":"6f97756d-103a-472e-9ee0-e1b6357d8727","system_id":"levelo_inurba_marseille","lat":43.30858,"lon":5.39678,"is_reserved":false,"is_disabled":false,"rental_uris":{"android":"levelo://app?vid=6f97756d-103a-472e-9ee0-e1b6357d8727","ios":"levelo://app?vid=6f97756d-103a-472e-9ee0-e1b6357d8727"},"vehicle_type_id":"4","last_reported":1758870596,"current_range_meters":14400,"station_id":"","pricing_plan_id":"cebpf4jnsgd1na2vs0mg"},{"bike_id":"280349c2-7d75-4732-844a-272770d12d07","system_id":"levelo_inurba_marseille","lat":43.24942,"lon":5.40493,"is_reserved":false,"is_disabled":false,"rental_uris":{"android":"levelo://app?vid=280349c2-7d75-4732-844a-272770d12d07","ios":"levelo://app?vid=280349c2-7d75-4732-844a-272770d12d07"},"vehicle_type_id":"4","last_reported":1758870596,"current_range_meters":14400,"station_id":"st_d2ngiaodas8pm72gd1h0","pricing_plan_id":"cebpf4jnsgd1na2vs0mg"},{"bike_id":"c110996d-22e7-4035-9eef-b37954d27511","system_id":"levelo_inurba_marseille","lat":43.23193,"lon":5.35544,"is_reserved":false,"is_disabled":false,"rental_uris":{"android":"levelo://app?vid=c110996d-22e7-4035-9eef-b37954d27511","ios":"levelo://app?vid=c110996d-22e7-4035-9eef-b37954d27511"},"vehicle_type_id":"4","last_reported":1758870596,"current_range_meters":14400,"station_id":"ce4bhu92rcd13ifvqi70","pricing_plan_id":"cebpf4jnsgd1na2vs0mg"},{"bike_id":"13dce92f-b230-4903-9924-f1c8d8af5c04","system_id":"levelo_inurba_marseille","lat":43.27811,"lon":5.40711,"is_reserved":false,"is_disabled":false,"rental_uris":{"android":"levelo://app?vid=13dce92f-b230-4903-9924-f1c8d8af5c04","ios":"levelo://app?vid=13dce92f-b230-4903-9924-f1c8d8af5c04"},"vehicle_type_id":"4","last_reported":1758870596,"current_range_meters":14400,"station_id":"ce4bhnh2rcd13ifvqgtg","pricing_plan_id":"cebpf4jnsgd1na2vs0mg"},{"bike_id":"ddfc760f-fcb9-4a30-a293-16cfa589da65","system_id":"levelo_inurba_marseille","lat":43.27834,"lon":5.40748,"is_reserved":false,"is_disabled":false,"rental_uris":{"android":"levelo://app?vid=ddfc760f-fcb9-4a30-a293-16cfa589da65","ios":"levelo://app?vid=ddfc760f-fcb9-4a30-a293-16cfa589da65"},"vehicle_type_id":"4","last_reported":1758870596,"current_range_meters":14800,"station_id":"ce4bhnh2rcd13ifvqgtg","pricing_plan_id":"cebpf4jnsgd1na2vs0mg"},{"bike_id":"d86a81ee-f6d4-4b61-b65b-a4fbbff94227","system_id":"levelo_inurba_marseille","lat":43.25832,"lon":5.39445,"is_reserved":false,"is_disabled":false,"rental_uris":{"android":"levelo://app?vid=d86a81ee-f6d4-4b61-b65b-a4fbbff94227","ios":"levelo://app?vid=d86a81ee-f6d4-4b61-b65b-a4fbbff94227"},"vehicle_type_id":"4","last_reported":1758870596,"current_range_meters":14800,"station_id":"ce4bhip2rcd13ifvqft0","pricing_plan_id":"cebpf4jnsgd1na2vs0mg"},{"bike_id":"08fe2b08-b3fa-43f8-ae73-04061f76318d","system_id":"levelo_inurba_marseille","lat":43.305552,"lon":5.365395,"is_reserved":false,"is_disabled":false,"rental_uris":{"android":"levelo://app?vid=08fe2b08-b3fa-43f8-ae73-04061f76318d","ios":"levelo://app?vid=08fe2b08-b3fa-43f8-ae73-04061f76318d"},"vehicle_type_id":"4","last_reported":1758870596,"current_range_meters":14800,"station_id":"","pricing_plan_id":"cebpf4jnsgd1na2vs0mg"},{"bike_id":"1d5d14cf-15e7-4470-bff9-613bb9abe120","system_id":"levelo_inurba_marseille","lat":43.33488,"lon":5.42041,"is_reserved":false,"is_disabled":false,"rental_uris":{"android":"levelo://app?vid=1d5d14cf-15e7-4470-bff9-613bb9abe120","ios":"levelo://app?vid=1d5d14cf-15e7-4470-bff9-613bb9abe120"},"vehicle_type_id":"4","last_reported":1758870596,"current_range_meters":14800,"station_id":"","pricing_plan_id":"cebpf4jnsgd1na2vs0mg"},{"bike_id":"208d8654-3228-40c7-b9c8-8618c2e5fa52","system_id":"levelo_inurba_marseille","lat":43.2864,"lon":5.3826,"is_reserved":false,"is_disabled":false,"rental_uris":{"android":"levelo://app?vid=208d8654-3228-40c7-b9c8-8618c2e5fa52","ios":"levelo://app?vid=208d8654-3228-40c7-b9c8-8618c2e5fa52"},"vehicle_type_id":"4","last_reported":1758870596,"current_range_meters":14800,"station_id":"","pricing_plan_id":"cebpf4jnsgd1na2vs0mg"},{"bike_id":"4475b153-1136-4b41-9101-03bfa7ff821d","system_id":"levelo_inurba_marseille","lat":43.25584,"lon":5.38229,"is_reserved":false,"is_disabled":false,"rental_uris":{"android":"levelo://app?vid=4475b153-1136-4b41-9101-03bfa7ff821d","ios":"levelo://app?vid=4475b153-1136-4b41-9101-03bfa7ff821d"},"vehicle_type_id":"4","last_reported":1758870596,"current_range_meters":14800,"station_id":"ce4bhih2rcd13ifvqfs0","pricing_plan_id":"cebpf4jnsgd1na2vs0mg"},{"bike_id":"10b8d871-07e9-4114-9eb9-6bcce40e7beb","system_id":"levelo_inurba_marseille","lat":43.27045,"lon":5.392226,"is_reserved":false,"is_disabled":false,"rental_uris":{"android":"levelo://app?vid=10b8d871-07e9-4114-9eb9-6bcce40e7beb","ios":"levelo://app?vid=10b8d871-07e9-4114-9eb9-6bcce40e7beb"},"vehicle_type_id":"4","last_reported":1758870596,"current_range_meters":14800,"station_id":"ce4bhe12rcd13ifvqf30","pricing_plan_id":"cebpf4jnsgd1na2vs0mg"},{"bike_id":"5d944089-7d4d-485d-8e5e-fe9c9b3dd7de","system_id":"levelo_inurba_marseille","lat":43.22568,"lon":5.41634,"is_reserved":false,"is_disabled":false,"rental_uris":{"android":"levelo://app?vid=5d944089-7d4d-485d-8e5e-fe9c9b3dd7de","ios":"levelo://app?vid=5d944089-7d4d-485d-8e5e-fe9c9b3dd7de"},"vehicle_type_id":"4","last_reported":1758870596,"current_range_meters":14800,"station_id":"st_d2o4gvlbi1j2169b742g","pricing_plan_id":"cebpf4jnsgd1na2vs0mg"},{"bike_id":"6ee917b5-7410-457c-9b85-88c720c02d38","system_id":"levelo_inurba_marseille","lat":43.3016,"lon":5.3809,"is_reserved":false,"is_disabled":false,"rental_uris":{"android":"levelo://app?vid=6ee917b5-7410-457c-9b85-88c720c02d38","ios":"levelo://app?vid=6ee917b5-7410-457c-9b85-88c720c02d38"},"vehicle_type_id":"4","last_reported":1758870596,"current_range_meters":15200,"station_id":"ce4bgjp2rcd13ifvqbh0","pricing_plan_id":"cebpf4jnsgd1na2vs0mg"},{"bike_id":"f8115e41-51e2-4e98-8d29-a7044595611c","system_id":"levelo_inurba_marseille","lat":43.30128,"lon":5.39866,"is_reserved":false,"is_disabled":false,"rental_uris":{"android":"levelo://app?vid=f8115e41-51e2-4e98-8d29-a7044595611c","ios":"levelo://app?vid=f8115e41-51e2-4e98-8d29-a7044595611c"},"vehicle_type_id":"4","last_reported":1758870596,"current_range_meters":15200,"station_id":"ce4bh0h2rcd13ifvqd40","pricing_plan_id":"cebpf4jnsgd1na2vs0mg"},{"bike_id":"9004b345-7c80-4442-aa3c-82020b52ef9c","system_id":"levelo_inurba_marseille","lat":43.26955,"lon":5.3864,"is_reserved":false,"is_disabled":false,"rental_uris":{"android":"levelo://app?vid=9004b345-7c80-4442-aa3c-82020b52ef9c","ios":"levelo://app?vid=9004b345-7c80-4442-aa3c-82020b52ef9c"},"vehicle_type_id":"4","last_reported":1758870596,"current_range_meters":15200,"station_id":"ce4bhh92rcd13ifvqfh0","pricing_plan_id":"cebpf4jnsgd1na2vs0mg"},{"bike_id":"e438f743-9525-44aa-8cda-c8be3486e464","system_id":"levelo_inurba_marseille","lat":43.333581,"lon":5.410422,"is_reserved":false,"is_disabled":false,"rental_uris":{"android":"levelo://app?vid=e438f743-9525-44aa-8cda-c8be3486e464","ios":"levelo://app?vid=e438f743-9525-44aa-8cda-c8be3486e464"},"vehicle_type_id":"4","last_reported":1758870596,"current_range_meters":15200,"station_id":"ce4bhqh2rcd13ifvqhmg","pricing_plan_id":"cebpf4jnsgd1na2vs0mg"},{"bike_id":"6ff62d79-81a4-487f-8694-4fb22f54a494","system_id":"levelo_inurba_marseille","lat":43.32475,"lon":5.39179,"is_reserved":false,"is_disabled":false,"rental_uris":{"android":"levelo://app?vid=6ff62d79-81a4-487f-8694-4fb22f54a494","ios":"levelo://app?vid=6ff62d79-81a4-487f-8694-4fb22f54a494"},"vehicle_type_id":"4","last_reported":1758870596,"current_range_meters":15200,"station_id":"","pricing_plan_id":"cebpf4jnsgd1na2vs0mg"},{"bike_id":"ee9dbae0-e0e6-4baf-a574-c8f5ce6f3027","system_id":"levelo_inurba_marseille","lat":43.274984,"lon":5.424753,"is_reserved":false,"is_disabled":false,"rental_uris":{"android":"levelo://app?vid=ee9dbae0-e0e6-4baf-a574-c8f5ce6f3027","ios":"levelo://app?vid=ee9dbae0-e0e6-4baf-a574-c8f5ce6f3027"},"vehicle_type_id":"4","last_reported":1758870596,"current_range_meters":15200,"station_id":"ce4bhn92rcd13ifvqgrg","pricing_plan_id":"cebpf4jnsgd1na2vs0mg"},{"bike_id":"3b6cb91b-2951-4ff3-b5e4-1b607c020e8e","system_id":"levelo_inurba_marseille","lat":43.26218,"lon":5.37444,"is_reserved":false,"is_disabled":false,"rental_uris":{"android":"levelo://app?vid=3b6cb91b-2951-4ff3-b5e4-1b607c020e8e","ios":"levelo://app?vid=3b6cb91b-2951-4ff3-b5e4-1b607c020e8e"},"vehicle_type_id":"4","last_reported":1758870596,"current_range_meters":16000,"station_id":"ce4bhgp2rcd13ifvqfc0","pricing_plan_id":"cebpf4jnsgd1na2vs0mg"},{"bike_id":"467b4306-5fd8-484e-9a4b-cf8eb50151ba","system_id":"levelo_inurba_marseille","lat":43.32287,"lon":5.38259,"is_reserved":false,"is_disabled":false,"rental_uris":{"android":"levelo://app?vid=467b4306-5fd8-484e-9a4b-cf8eb50151ba","ios":"levelo://app?vid=467b4306-5fd8-484e-9a4b-cf8eb50151ba"},"vehicle_type_id":"4","last_reported":1758870596,"current_range_meters":16000,"station_id":"ce4bhr12rcd13ifvqhqg","pricing_plan_id":"cebpf4jnsgd1na2vs0mg"},{"bike_id":"08292ac0-f4a0-4778-9703-5ac015ee1e3a","system_id":"levelo_inurba_marseille","lat":43.24625,"lon":5.43155,"is_reserved":false,"is_disabled":false,"rental_uris":{"android":"levelo://app?vid=08292ac0-f4a0-4778-9703-5ac015ee1e3a","ios":"levelo://app?vid=08292ac0-f4a0-4778-9703-5ac015ee1e3a"},"vehicle_type_id":"4","last_reported":1758870596,"current_range_meters":16000,"station_id":"st_d2m6c4gdas8pm72e190g","pricing_plan_id":"cebpf4jnsgd1na2vs0mg"},{"bike_id":"9d95f00f-b6a6-4086-8204-e717c98b9cfc","system_id":"levelo_inurba_marseille","lat":43.241364,"lon":5.376804,"is_reserved":false,"is_disabled":false,"rental_uris":{"android":"levelo://app?vid=9d95f00f-b6a6-4086-8204-e717c98b9cfc","ios":"levelo://app?vid=9d95f00f-b6a6-4086-8204-e717c98b9cfc"},"vehicle_type_id":"4","last_reported":1758870596,"current_range_meters":16000,"station_id":"","pricing_plan_id":"cebpf4jnsgd1na2vs0mg"},{"bike_id":"9a4f92ed-e086-4038-a651-bbe0613f80bd","system_id":"levelo_inurba_marseille","lat":43.22554,"lon":5.4162,"is_reserved":false,"is_disabled":false,"rental_uris":{"android":"levelo://app?vid=9a4f92ed-e086-4038-a651-bbe0613f80bd","ios":"levelo://app?vid=9a4f92ed-e086-4038-a651-bbe0613f80bd"},"vehicle_type_id":"4","last_reported":1758870596,"current_range_meters":16000,"station_id":"st_d2o4gvlbi1j2169b742g","pricing_plan_id":"cebpf4jnsgd1na2vs0mg"},{"bike_id":"0ae70144-35ef-4b7d-87eb-40e2efd64c9c","system_id":"levelo_inurba_marseille","lat":43.267832,"lon":5.394144,"is_reserved":false,"is_disabled":false,"rental_uris":{"android":"levelo://app?vid=0ae70144-35ef-4b7d-87eb-40e2efd64c9c","ios":"levelo://app?vid=0ae70144-35ef-4b7d-87eb-40e2efd64c9c"},"vehicle_type_id":"4","last_reported":1758870596,"current_range_meters":15200,"station_id":"ce4bhh12rcd13ifvqfg0","pricing_plan_id":"cebpf4jnsgd1na2vs0mg"},{"bike_id":"5ba54380-2fc1-4ae5-9bd6-21e0beb4d3dc","system_id":"levelo_inurba_marseille","lat":43.28627,"lon":5.38435,"is_reserved":false,"is_disabled":false,"rental_uris":{"android":"levelo://app?vid=5ba54380-2fc1-4ae5-9bd6-21e0beb4d3dc","ios":"levelo://app?vid=5ba54380-2fc1-4ae5-9bd6-21e0beb4d3dc"},"vehicle_type_id":"4","last_reported":1758870596,"current_range_meters":16000,"station_id":"","pricing_plan_id":"cebpf4jnsgd1na2vs0mg"},{"bike_id":"3f6b9bfb-64f4-45b4-b513-a44204aa7d08","system_id":"levelo_inurba_marseille","lat":43.23178,"lon":5.39987,"is_reserved":false,"is_disabled":false,"rental_uris":{"android":"levelo://app?vid=3f6b9bfb-64f4-45b4-b513-a44204aa7d08","ios":"levelo://app?vid=3f6b9bfb-64f4-45b4-b513-a44204aa7d08"},"vehicle_type_id":"4","last_reported":1758870596,"current_range_meters":16400,"station_id":"ce4bhn12rcd13ifvqgqg","pricing_plan_id":"cebpf4jnsgd1na2vs0mg"},{"bike_id":"03d0b2ac-e3dd-4bbc-936c-40e7e3a2fb57","system_id":"levelo_inurba_marseille","lat":43.26208,"lon":5.37461,"is_reserved":false,"is_disabled":false,"rental_uris":{"android":"levelo://app?vid=03d0b2ac-e3dd-4bbc-936c-40e7e3a2fb57","ios":"levelo://app?vid=03d0b2ac-e3dd-4bbc-936c-40e7e3a2fb57"},"vehicle_type_id":"4","last_reported":1758870596,"current_range_meters":16400,"station_id":"ce4bhgp2rcd13ifvqfc0","pricing_plan_id":"cebpf4jnsgd1na2vs0mg"},{"bike_id":"a903c1bc-90fe-4580-925f-10306b63bf76","system_id":"levelo_inurba_marseille","lat":43.26941,"lon":5.38643,"is_reserved":false,"is_disabled":false,"rental_uris":{"android":"levelo://app?vid=a903c1bc-90fe-4580-925f-10306b63bf76","ios":"levelo://app?vid=a903c1bc-90fe-4580-925f-10306b63bf76"},"vehicle_type_id":"4","last_reported":1758870596,"current_range_meters":16000,"station_id":"ce4bhh92rcd13ifvqfh0","pricing_plan_id":"cebpf4jnsgd1na2vs0mg"},{"bike_id":"47b9cece-62de-43f0-80d8-9147224e7ea6","system_id":"levelo_inurba_marseille","lat":43.30168,"lon":5.38085,"is_reserved":false,"is_disabled":false,"rental_uris":{"android":"levelo://app?vid=47b9cece-62de-43f0-80d8-9147224e7ea6","ios":"levelo://app?vid=47b9cece-62de-43f0-80d8-9147224e7ea6"},"vehicle_type_id":"4","last_reported":1758870596,"current_range_meters":16400,"station_id":"ce4bgjp2rcd13ifvqbh0","pricing_plan_id":"cebpf4jnsgd1na2vs0mg"},{"bike_id":"c47381a3-5a4b-4844-b987-0207088305bf","system_id":"levelo_inurba_marseille","lat":43.3124,"lon":5.3691,"is_reserved":false,"is_disabled":false,"rental_uris":{"android":"levelo://app?vid=c47381a3-5a4b-4844-b987-0207088305bf","ios":"levelo://app?vid=c47381a3-5a4b-4844-b987-0207088305bf"},"vehicle_type_id":"4","last_reported":1758870596,"current_range_meters":16400,"station_id":"ce4bgl92rcd13ifvqbq0","pricing_plan_id":"cebpf4jnsgd1na2vs0mg"},{"bike_id":"d42b2ba5-67f4-4d61-b35d-2700492cd2d0","system_id":"levelo_inurba_marseille","lat":43.269562,"lon":5.386305,"is_reserved":false,"is_disabled":false,"rental_uris":{"android":"levelo://app?vid=d42b2ba5-67f4-4d61-b35d-2700492cd2d0","ios":"levelo://app?vid=d42b2ba5-67f4-4d61-b35d-2700492cd2d0"},"vehicle_type_id":"4","last_reported":1758870596,"current_range_meters":16400,"station_id":"ce4bhh92rcd13ifvqfh0","pricing_plan_id":"cebpf4jnsgd1na2vs0mg"},{"bike_id":"ece36685-817e-47c1-b130-8af29913096b","system_id":"levelo_inurba_marseille","lat":43.292835,"lon":5.401144,"is_reserved":false,"is_disabled":false,"rental_uris":{"android":"levelo://app?vid=ece36685-817e-47c1-b130-8af29913096b","ios":"levelo://app?vid=ece36685-817e-47c1-b130-8af29913096b"},"vehicle_type_id":"4","last_reported":1758870596,"current_range_meters":16400,"station_id":"","pricing_plan_id":"cebpf4jnsgd1na2vs0mg"},{"bike_id":"c0344c79-2ae5-4a66-b545-5235cbd72a4d","system_id":"levelo_inurba_marseille","lat":43.3053,"lon":5.38428,"is_reserved":false,"is_disabled":false,"rental_uris":{"android":"levelo://app?vid=c0344c79-2ae5-4a66-b545-5235cbd72a4d","ios":"levelo://app?vid=c0344c79-2ae5-4a66-b545-5235cbd72a4d"},"vehicle_type_id":"4","last_reported":1758870596,"current_range_meters":16400,"station_id":"ce4bgg92rcd13ifvqb30","pricing_plan_id":"cebpf4jnsgd1na2vs0mg"},{"bike_id":"b5b3cf7c-3cd2-468e-81f0-a3cad12404e6","system_id":"levelo_inurba_marseille","lat":43.25938,"lon":5.40903,"is_reserved":false,"is_disabled":false,"rental_uris":{"android":"levelo://app?vid=b5b3cf7c-3cd2-468e-81f0-a3cad12404e6","ios":"levelo://app?vid=b5b3cf7c-3cd2-468e-81f0-a3cad12404e6"},"vehicle_type_id":"4","last_reported":1758870596,"current_range_meters":16400,"station_id":"ce4bhm92rcd13ifvqglg","pricing_plan_id":"cebpf4jnsgd1na2vs0mg"},{"bike_id":"46a648bf-42a5-4fc5-b881-b77e8e43b612","system_id":"levelo_inurba_marseille","lat":43.22946,"lon":5.35384,"is_reserved":false,"is_disabled":false,"rental_uris":{"android":"levelo://app?vid=46a648bf-42a5-4fc5-b881-b77e8e43b612","ios":"levelo://app?vid=46a648bf-42a5-4fc5-b881-b77e8e43b612"},"vehicle_type_id":"4","last_reported":1758870596,"current_range_meters":16400,"station_id":"cpo3532slgdg3j2ikp40","pricing_plan_id":"cebpf4jnsgd1na2vs0mg"},{"bike_id":"b2fc922b-ff47-4f68-9531-9abaa818a9ad","system_id":"levelo_inurba_marseille","lat":43.24959,"lon":5.40506,"is_reserved":false,"is_disabled":false,"rental_uris":{"android":"levelo://app?vid=b2fc922b-ff47-4f68-9531-9abaa818a9ad","ios":"levelo://app?vid=b2fc922b-ff47-4f68-9531-9abaa818a9ad"},"vehicle_type_id":"4","last_reported":1758870596,"current_range_meters":16400,"station_id":"st_d2ngiaodas8pm72gd1h0","pricing_plan_id":"cebpf4jnsgd1na2vs0mg"},{"bike_id":"175ed984-4779-4b98-920a-039ca300eaa4","system_id":"levelo_inurba_marseille","lat":43.273,"lon":5.40815,"is_reserved":false,"is_disabled":false,"rental_uris":{"android":"levelo://app?vid=175ed984-4779-4b98-920a-039ca300eaa4","ios":"levelo://app?vid=175ed984-4779-4b98-920a-039ca300eaa4"},"vehicle_type_id":"4","last_reported":1758870596,"current_range_meters":16800,"station_id":"","pricing_plan_id":"cebpf4jnsgd1na2vs0mg"},{"bike_id":"1f06a3e3-12af-42ce-879d-764cd221ec77","system_id":"levelo_inurba_marseille","lat":43.28098,"lon":5.37886,"is_reserved":false,"is_disabled":false,"rental_uris":{"android":"levelo://app?vid=1f06a3e3-12af-42ce-879d-764cd221ec77","ios":"levelo://app?vid=1f06a3e3-12af-42ce-879d-764cd221ec77"},"vehicle_type_id":"4","last_reported":1758870596,"current_range_meters":16800,"station_id":"ce4bha12rcd13ifvqee0","pricing_plan_id":"cebpf4jnsgd1na2vs0mg"},{"bike_id":"72332bcf-8799-4f4f-a9fe-7f6699e2fbd1","system_id":"levelo_inurba_marseille","lat":43.28499,"lon":5.38572,"is_reserved":false,"is_disabled":false,"rental_uris":{"android":"levelo://app?vid=72332bcf-8799-4f4f-a9fe-7f6699e2fbd1","ios":"levelo://app?vid=72332bcf-8799-4f4f-a9fe-7f6699e2fbd1"},"vehicle_type_id":"4","last_reported":1758870596,"current_range_meters":16800,"station_id":"ce4bh8p2rcd13ifvqeb0","pricing_plan_id":"cebpf4jnsgd1na2vs0mg"},{"bike_id":"353d16a4-65e9-4896-ad53-df82bb14ace3","system_id":"levelo_inurba_marseille","lat":43.28432,"lon":5.34997,"is_reserved":false,"is_disabled":false,"rental_uris":{"android":"levelo://app?vid=353d16a4-65e9-4896-ad53-df82bb14ace3","ios":"levelo://app?vid=353d16a4-65e9-4896-ad53-df82bb14ace3"},"vehicle_type_id":"4","last_reported":1758870596,"current_range_meters":16800,"station_id":"ce4bhbh2rcd13ifvqepg","pricing_plan_id":"cebpf4jnsgd1na2vs0mg"},{"bike_id":"85782661-163d-4a8b-b5a4-1f0a766faaa2","system_id":"levelo_inurba_marseille","lat":43.24639,"lon":5.43155,"is_reserved":false,"is_disabled":false,"rental_uris":{"android":"levelo://app?vid=85782661-163d-4a8b-b5a4-1f0a766faaa2","ios":"levelo://app?vid=85782661-163d-4a8b-b5a4-1f0a766faaa2"},"vehicle_type_id":"4","last_reported":1758870596,"current_range_meters":16800,"station_id":"st_d2m6c4gdas8pm72e190g","pricing_plan_id":"cebpf4jnsgd1na2vs0mg"},{"bike_id":"fec08481-c683-4f8d-8de9-462eff043834","system_id":"levelo_inurba_marseille","lat":43.27059,"lon":5.40281,"is_reserved":false,"is_disabled":false,"rental_uris":{"android":"levelo://app?vid=fec08481-c683-4f8d-8de9-462eff043834","ios":"levelo://app?vid=fec08481-c683-4f8d-8de9-462eff043834"},"vehicle_type_id":"4","last_reported":1758870596,"current_range_meters":16800,"station_id":"ce4bhk92rcd13ifvqgc0","pricing_plan_id":"cebpf4jnsgd1na2vs0mg"},{"bike_id":"b5bbfa8d-a253-4024-a82b-a7cc298aeeaa","system_id":"levelo_inurba_marseille","lat":43.275,"lon":5.42461,"is_reserved":false,"is_disabled":false,"rental_uris":{"android":"levelo://app?vid=b5bbfa8d-a253-4024-a82b-a7cc298aeeaa","ios":"levelo://app?vid=b5bbfa8d-a253-4024-a82b-a7cc298aeeaa"},"vehicle_type_id":"4","last_reported":1758870596,"current_range_meters":16800,"station_id":"ce4bhn92rcd13ifvqgrg","pricing_plan_id":"cebpf4jnsgd1na2vs0mg"},{"bike_id":"fee74e98-eb52-4f66-a612-109c75f34aa6","system_id":"levelo_inurba_marseille","lat":43.29599,"lon":5.37948,"is_reserved":false,"is_disabled":false,"rental_uris":{"android":"levelo://app?vid=fee74e98-eb52-4f66-a612-109c75f34aa6","ios":"levelo://app?vid=fee74e98-eb52-4f66-a612-109c75f34aa6"},"vehicle_type_id":"4","last_reported":1758870596,"current_range_meters":16800,"station_id":"","pricing_plan_id":"cebpf4jnsgd1na2vs0mg"},{"bike_id":"74a0cd52-f718-4bdb-9392-0d4318de3a49","system_id":"levelo_inurba_marseille","lat":43.32337,"lon":5.40632,"is_reserved":false,"is_disabled":false,"rental_uris":{"android":"levelo://app?vid=74a0cd52-f718-4bdb-9392-0d4318de3a49","ios":"levelo://app?vid=74a0cd52-f718-4bdb-9392-0d4318de3a49"},"vehicle_type_id":"4","last_reported":1758870596,"current_range_meters":16800,"station_id":"ce4bhq92rcd13ifvqhjg","pricing_plan_id":"cebpf4jnsgd1na2vs0mg"},{"bike_id":"c8dc16e3-6997-4f37-b2c6-d43ee9dc37b4","system_id":"levelo_inurba_marseille","lat":43.26781,"lon":5.39425,"is_reserved":false,"is_disabled":false,"rental_uris":{"android":"levelo://app?vid=c8dc16e3-6997-4f37-b2c6-d43ee9dc37b4","ios":"levelo://app?vid=c8dc16e3-6997-4f37-b2c6-d43ee9dc37b4"},"vehicle_type_id":"4","last_reported":1758870596,"current_range_meters":16800,"station_id":"ce4bhh12rcd13ifvqfg0","pricing_plan_id":"cebpf4jnsgd1na2vs0mg"},{"bike_id":"2a416e7a-1803-402e-9523-74bfe690bd54","system_id":"levelo_inurba_marseille","lat":43.32365,"lon":5.36767,"is_reserved":false,"is_disabled":false,"rental_uris":{"android":"levelo://app?vid=2a416e7a-1803-402e-9523-74bfe690bd54","ios":"levelo://app?vid=2a416e7a-1803-402e-9523-74bfe690bd54"},"vehicle_type_id":"4","last_reported":1758870596,"current_range_meters":16800,"station_id":"ce4bhsh2rcd13ifvqi2g","pricing_plan_id":"cebpf4jnsgd1na2vs0mg"},{"bike_id":"c973dbb4-81a7-4731-a850-2666ddbc48bd","system_id":"levelo_inurba_marseille","lat":43.28165,"lon":5.42668,"is_reserved":false,"is_disabled":false,"rental_uris":{"android":"levelo://app?vid=c973dbb4-81a7-4731-a850-2666ddbc48bd","ios":"levelo://app?vid=c973dbb4-81a7-4731-a850-2666ddbc48bd"},"vehicle_type_id":"4","last_reported":1758870596,"current_range_meters":17200,"station_id":"ce4bhnh2rcd13ifvqgug","pricing_plan_id":"cebpf4jnsgd1na2vs0mg"},{"bike_id":"43d3e43e-b792-4604-865a-4db1d5f5a46a","system_id":"levelo_inurba_marseille","lat":43.25081,"lon":5.39518,"is_reserved":false,"is_disabled":true,"rental_uris":{"android":"levelo://app?vid=43d3e43e-b792-4604-865a-4db1d5f5a46a","ios":"levelo://app?vid=43d3e43e-b792-4604-865a-4db1d5f5a46a"},"vehicle_type_id":"4","last_reported":1758870596,"current_range_meters":17200,"station_id":"ce4bhm12rcd13ifvqgkg","pricing_plan_id":"cebpf4jnsgd1na2vs0mg"},{"bike_id":"62c01c88-1842-4e32-b57c-b3c3066ece6b","system_id":"levelo_inurba_marseille","lat":43.26775,"lon":5.3942,"is_reserved":false,"is_disabled":false,"rental_uris":{"android":"levelo://app?vid=62c01c88-1842-4e32-b57c-b3c3066ece6b","ios":"levelo://app?vid=62c01c88-1842-4e32-b57c-b3c3066ece6b"},"vehicle_type_id":"4","last_reported":1758870596,"current_range_meters":16800,"station_id":"ce4bhh12rcd13ifvqfg0","pricing_plan_id":"cebpf4jnsgd1na2vs0mg"},{"bike_id":"63d52c35-c9c9-44eb-9780-1b2f9145123b","system_id":"levelo_inurba_marseille","lat":43.29627,"lon":5.377037,"is_reserved":false,"is_disabled":false,"rental_uris":{"android":"levelo://app?vid=63d52c35-c9c9-44eb-9780-1b2f9145123b","ios":"levelo://app?vid=63d52c35-c9c9-44eb-9780-1b2f9145123b"},"vehicle_type_id":"4","last_reported":1758870596,"current_range_meters":17200,"station_id":"","pricing_plan_id":"cebpf4jnsgd1na2vs0mg"},{"bike_id":"01bf55f2-4ac6-46f6-8504-3267bf31e1a6","system_id":"levelo_inurba_marseille","lat":43.2973,"lon":5.381787,"is_reserved":false,"is_disabled":false,"rental_uris":{"android":"levelo://app?vid=01bf55f2-4ac6-46f6-8504-3267bf31e1a6","ios":"levelo://app?vid=01bf55f2-4ac6-46f6-8504-3267bf31e1a6"},"vehicle_type_id":"4","last_reported":1758870596,"current_range_meters":17200,"station_id":"","pricing_plan_id":"cebpf4jnsgd1na2vs0mg"},{"bike_id":"87284d15-b023-4dc8-a348-ec2b83356dca","system_id":"levelo_inurba_marseille","lat":43.23961,"lon":5.36633,"is_reserved":false,"is_disabled":false,"rental_uris":{"android":"levelo://app?vid=87284d15-b023-4dc8-a348-ec2b83356dca","ios":"levelo://app?vid=87284d15-b023-4dc8-a348-ec2b83356dca"},"vehicle_type_id":"4","last_reported":1758870596,"current_range_meters":17200,"station_id":"ce4bhi12rcd13ifvqfp0","pricing_plan_id":"cebpf4jnsgd1na2vs0mg"},{"bike_id":"da082c0b-444a-46d8-9f6c-05debe0aad78","system_id":"levelo_inurba_marseille","lat":43.30308,"lon":5.36903,"is_reserved":false,"is_disabled":false,"rental_uris":{"android":"levelo://app?vid=da082c0b-444a-46d8-9f6c-05debe0aad78","ios":"levelo://app?vid=da082c0b-444a-46d8-9f6c-05debe0aad78"},"vehicle_type_id":"4","last_reported":1758870596,"current_range_meters":17200,"station_id":"ce4bgqh2rcd13ifvqc5g","pricing_plan_id":"cebpf4jnsgd1na2vs0mg"},{"bike_id":"50403fee-05b6-4f96-a764-c3716edce5ad","system_id":"levelo_inurba_marseille","lat":43.2409,"lon":5.37772,"is_reserved":false,"is_disabled":false,"rental_uris":{"android":"levelo://app?vid=50403fee-05b6-4f96-a764-c3716edce5ad","ios":"levelo://app?vid=50403fee-05b6-4f96-a764-c3716edce5ad"},"vehicle_type_id":"4","last_reported":1758870596,"current_range_meters":17200,"station_id":"ce4bhnp2rcd13ifvqgvg","pricing_plan_id":"cebpf4jnsgd1na2vs0mg"},{"bike_id":"08573649-456d-4c11-850f-85962d8f28db","system_id":"levelo_inurba_marseille","lat":43.273132,"lon":5.391026,"is_reserved":false,"is_disabled":false,"rental_uris":{"android":"levelo://app?vid=08573649-456d-4c11-850f-85962d8f28db","ios":"levelo://app?vid=08573649-456d-4c11-850f-85962d8f28db"},"vehicle_type_id":"4","last_reported":1758870596,"current_range_meters":17200,"station_id":"ce4bhgp2rcd13ifvqfe0","pricing_plan_id":"cebpf4jnsgd1na2vs0mg"},{"bike_id":"d2c76f28-de75-475b-a585-dd5fe8122538","system_id":"levelo_inurba_marseille","lat":43.24096,"lon":5.37756,"is_reserved":false,"is_disabled":false,"rental_uris":{"android":"levelo://app?vid=d2c76f28-de75-475b-a585-dd5fe8122538","ios":"levelo://app?vid=d2c76f28-de75-475b-a585-dd5fe8122538"},"vehicle_type_id":"4","last_reported":1758870596,"current_range_meters":17200,"station_id":"ce4bhnp2rcd13ifvqgvg","pricing_plan_id":"cebpf4jnsgd1na2vs0mg"},{"bike_id":"d633fcde-74bb-4aab-a53c-87ab8e6fdc35","system_id":"levelo_inurba_marseille","lat":43.25,"lon":5.38954,"is_reserved":false,"is_disabled":false,"rental_uris":{"android":"levelo://app?vid=d633fcde-74bb-4aab-a53c-87ab8e6fdc35","ios":"levelo://app?vid=d633fcde-74bb-4aab-a53c-87ab8e6fdc35"},"vehicle_type_id":"4","last_reported":1758870596,"current_range_meters":17600,"station_id":"ce4bhgp2rcd13ifvqfd0","pricing_plan_id":"cebpf4jnsgd1na2vs0mg"},{"bike_id":"ff80ace9-5bb1-4400-92db-811f67417271","system_id":"levelo_inurba_marseille","lat":43.24947,"lon":5.40515,"is_reserved":false,"is_disabled":false,"rental_uris":{"android":"levelo://app?vid=ff80ace9-5bb1-4400-92db-811f67417271","ios":"levelo://app?vid=ff80ace9-5bb1-4400-92db-811f67417271"},"vehicle_type_id":"4","last_reported":1758870596,"current_range_meters":17600,"station_id":"st_d2ngiaodas8pm72gd1h0","pricing_plan_id":"cebpf4jnsgd1na2vs0mg"},{"bike_id":"3a722ba8-3e34-4960-a75b-22d080f8c311","system_id":"levelo_inurba_marseille","lat":43.24082,"lon":5.37771,"is_reserved":false,"is_disabled":false,"rental_uris":{"android":"levelo://app?vid=3a722ba8-3e34-4960-a75b-22d080f8c311","ios":"levelo://app?vid=3a722ba8-3e34-4960-a75b-22d080f8c311"},"vehicle_type_id":"4","last_reported":1758870596,"current_range_meters":17600,"station_id":"ce4bhnp2rcd13ifvqgvg","pricing_plan_id":"cebpf4jnsgd1na2vs0mg"},{"bike_id":"f7d02cdd-1af8-489d-84e6-2169828dbac6","system_id":"levelo_inurba_marseille","lat":43.30546,"lon":5.3671,"is_reserved":false,"is_disabled":false,"rental_uris":{"android":"levelo://app?vid=f7d02cdd-1af8-489d-84e6-2169828dbac6","ios":"levelo://app?vid=f7d02cdd-1af8-489d-84e6-2169828dbac6"},"vehicle_type_id":"4","last_reported":1758870596,"current_range_meters":17600,"station_id":"ce4bgrp2rcd13ifvqc9g","pricing_plan_id":"cebpf4jnsgd1na2vs0mg"},{"bike_id":"7f09bc43-02a6-468a-9182-731c83281b4a","system_id":"levelo_inurba_marseille","lat":43.26354,"lon":5.3748,"is_reserved":false,"is_disabled":false,"rental_uris":{"android":"levelo://app?vid=7f09bc43-02a6-468a-9182-731c83281b4a","ios":"levelo://app?vid=7f09bc43-02a6-468a-9182-731c83281b4a"},"vehicle_type_id":"4","last_reported":1758870596,"current_range_meters":17600,"station_id":"","pricing_plan_id":"cebpf4jnsgd1na2vs0mg"},{"bike_id":"74e80d7c-036c-4d08-a82d-3904c5e3b031","system_id":"levelo_inurba_marseille","lat":43.28271,"lon":5.35085,"is_reserved":false,"is_disabled":true,"rental_uris":{"android":"levelo://app?vid=74e80d7c-036c-4d08-a82d-3904c5e3b031","ios":"levelo://app?vid=74e80d7c-036c-4d08-a82d-3904c5e3b031"},"vehicle_type_id":"4","last_reported":1758870596,"current_range_meters":17600,"station_id":"ce4bhbp2rcd13ifvqerg","pricing_plan_id":"cebpf4jnsgd1na2vs0mg"},{"bike_id":"55dc6bff-6359-476f-a20b-b62c5a2ed2b9","system_id":"levelo_inurba_marseille","lat":43.29036,"lon":5.39969,"is_reserved":false,"is_disabled":false,"rental_uris":{"android":"levelo://app?vid=55dc6bff-6359-476f-a20b-b62c5a2ed2b9","ios":"levelo://app?vid=55dc6bff-6359-476f-a20b-b62c5a2ed2b9"},"vehicle_type_id":"4","last_reported":1758870596,"current_range_meters":17600,"station_id":"ce4bh392rcd13ifvqdm0","pricing_plan_id":"cebpf4jnsgd1na2vs0mg"},{"bike_id":"889259be-1a40-472d-babf-d9213822d385","system_id":"levelo_inurba_marseille","lat":43.24657,"lon":5.38914,"is_reserved":false,"is_disabled":false,"rental_uris":{"android":"levelo://app?vid=889259be-1a40-472d-babf-d9213822d385","ios":"levelo://app?vid=889259be-1a40-472d-babf-d9213822d385"},"vehicle_type_id":"4","last_reported":1758870596,"current_range_meters":17600,"station_id":"ce4bhg12rcd13ifvqf60","pricing_plan_id":"cebpf4jnsgd1na2vs0mg"},{"bike_id":"b2b05317-5410-4dfd-9e85-4226a67481be","system_id":"levelo_inurba_marseille","lat":43.29036,"lon":5.39963,"is_reserved":false,"is_disabled":false,"rental_uris":{"android":"levelo://app?vid=b2b05317-5410-4dfd-9e85-4226a67481be","ios":"levelo://app?vid=b2b05317-5410-4dfd-9e85-4226a67481be"},"vehicle_type_id":"4","last_reported":1758870596,"current_range_meters":17600,"station_id":"ce4bh392rcd13ifvqdm0","pricing_plan_id":"cebpf4jnsgd1na2vs0mg"},{"bike_id":"89486d6a-f02f-43a3-a0ba-1059b6b1fec2","system_id":"levelo_inurba_marseille","lat":43.343223,"lon":5.377898,"is_reserved":false,"is_disabled":false,"rental_uris":{"android":"levelo://app?vid=89486d6a-f02f-43a3-a0ba-1059b6b1fec2","ios":"levelo://app?vid=89486d6a-f02f-43a3-a0ba-1059b6b1fec2"},"vehicle_type_id":"4","last_reported":1758870596,"current_range_meters":17600,"station_id":"","pricing_plan_id":"cebpf4jnsgd1na2vs0mg"},{"bike_id":"92f07c27-7abf-4462-8216-817eba914a39","system_id":"levelo_inurba_marseille","lat":43.27839,"lon":5.39214,"is_reserved":false,"is_disabled":false,"rental_uris":{"android":"levelo://app?vid=92f07c27-7abf-4462-8216-817eba914a39","ios":"levelo://app?vid=92f07c27-7abf-4462-8216-817eba914a39"},"vehicle_type_id":"4","last_reported":1758870596,"current_range_meters":17600,"station_id":"ce4bhjp2rcd13ifvqga0","pricing_plan_id":"cebpf4jnsgd1na2vs0mg"},{"bike_id":"ee925a9c-c600-454e-8837-0da5956fd25f","system_id":"levelo_inurba_marseille","lat":43.22923,"lon":5.35399,"is_reserved":false,"is_disabled":false,"rental_uris":{"android":"levelo://app?vid=ee925a9c-c600-454e-8837-0da5956fd25f","ios":"levelo://app?vid=ee925a9c-c600-454e-8837-0da5956fd25f"},"vehicle_type_id":"4","last_reported":1758870596,"current_range_meters":17600,"station_id":"cpo3532slgdg3j2ikp40","pricing_plan_id":"cebpf4jnsgd1na2vs0mg"},{"bike_id":"8cf842e4-76c1-4a82-ad31-66529da65dba","system_id":"levelo_inurba_marseille","lat":43.26678,"lon":5.40209,"is_reserved":false,"is_disabled":false,"rental_uris":{"android":"levelo://app?vid=8cf842e4-76c1-4a82-ad31-66529da65dba","ios":"levelo://app?vid=8cf842e4-76c1-4a82-ad31-66529da65dba"},"vehicle_type_id":"4","last_reported":1758870596,"current_range_meters":18000,"station_id":"","pricing_plan_id":"cebpf4jnsgd1na2vs0mg"},{"bike_id":"a5a2625f-b126-4eab-82fe-a90b89fac046","system_id":"levelo_inurba_marseille","lat":43.31352,"lon":5.36724,"is_reserved":false,"is_disabled":false,"rental_uris":{"android":"levelo://app?vid=a5a2625f-b126-4eab-82fe-a90b89fac046","ios":"levelo://app?vid=a5a2625f-b126-4eab-82fe-a90b89fac046"},"vehicle_type_id":"4","last_reported":1758870596,"current_range_meters":18000,"station_id":"ce4bgr92rcd13ifvqc6g","pricing_plan_id":"cebpf4jnsgd1na2vs0mg"},{"bike_id":"934ea1ec-b7f6-49a1-9efa-287317d4eb22","system_id":"levelo_inurba_marseille","lat":43.29048,"lon":5.35914,"is_reserved":false,"is_disabled":false,"rental_uris":{"android":"levelo://app?vid=934ea1ec-b7f6-49a1-9efa-287317d4eb22","ios":"levelo://app?vid=934ea1ec-b7f6-49a1-9efa-287317d4eb22"},"vehicle_type_id":"4","last_reported":1758870596,"current_range_meters":18000,"station_id":"","pricing_plan_id":"cebpf4jnsgd1na2vs0mg"},{"bike_id":"3fc6698d-a4e5-4be5-8247-ee21233a204b","system_id":"levelo_inurba_marseille","lat":43.32538,"lon":5.41429,"is_reserved":false,"is_disabled":false,"rental_uris":{"android":"levelo://app?vid=3fc6698d-a4e5-4be5-8247-ee21233a204b","ios":"levelo://app?vid=3fc6698d-a4e5-4be5-8247-ee21233a204b"},"vehicle_type_id":"4","last_reported":1758870596,"current_range_meters":18000,"station_id":"ce4bhq12rcd13ifvqhhg","pricing_plan_id":"cebpf4jnsgd1na2vs0mg"},