{"last_updated":1740654480,"ttl":60,"version":"2.2","data":{"bikes":[{"bike_id":"32d39ccd-0c40-4cda-a0e5-98cc976b3566","system_id":"levelo_inurba_marseille","lat":43.23708,"lon":5.43582,"is_reserved":false,"is_disabled":true,"rental_uris":{"android":"levelo://app?vid=32d39ccd-0c40-4cda-a0e5-98cc976b3566","ios":"levelo://app?vid=32d39ccd-0c40-4cda-a0e5-98cc976b3566"},"vehicle_type_id":"4","last_reported":1740654480,"current_range_meters":0,"station_id":"","pricing_plan_id":"cebpf4jnsgd1na2vs0mg"},{"bike_id":"5b07976e-dea8-4ab0-9dea-ebdb61ec3265","system_id":"levelo_inurba_marseille","lat":43.31411,"lon":5.36655,"is_reserved":false,"is_disabled":true,"rental_uris":{"android":"levelo://app?vid=5b07976e-dea8-4ab0-9dea-ebdb61ec3265","ios":"levelo://app?vid=5b07976e-dea8-4ab0-9dea-ebdb61ec3265"},"vehicle_type_id":"4","last_reported":1740654480,"current_range_meters":0,"station_id":"","pricing_plan_id":"cebpf4jnsgd1na2vs0mg"},{"bike_id":"6d99bc09-c99a-4a9b-99f9-820af25155d9","system_id":"levelo_inurba_marseille","lat":43.3159,"lon":5.37417,"is_reserved":false,"is_disabled":true,"rental_uris":{"android":"levelo://app?vid=6d99bc09-c99a-4a9b-99f9-820af25155d9","ios":"levelo://app?vid=6d99bc09-c99a-4a9b-99f9-820af25155d9"},"vehicle_type_id":"4","last_reported":1740654480,"current_range_meters":0,"station_id":"","pricing_plan_id":"cebpf4jnsgd1na2vs0mg"},{"bike_id":"50329c24-1d30-48ef-9de5-0e66d5b5d36a","system_id":"levelo_inurba_marseille","lat":43.30955,"lon":5.39045,"is_reserved":false,"is_disabled":true,"rental_uris":{"android":"levelo://app?vid=50329c24-1d30-48ef-9de5-0e66d5b5d36a","ios":"levelo://app?vid=50329c24-1d30-48ef-9de5-0e66d5b5d36a"},"vehicle_type_id":"4","last_reported":1740654480,"current_range_meters":0,"station_id":"ce4bgup2rcd13ifvqco0","pricing_plan_id":"cebpf4jnsgd1na2vs0mg"},{"bike_id":"494b3966-010c-425c-89de-02e3250de455","system_id":"levelo_inurba_marseille","lat":43.284712,"lon":5.384182,"is_reserved":false,"is_disabled":true,"rental_uris":{"android":"levelo://app?vid=494b3966-010c-425c-89de-02e3250de455","ios":"levelo://app?vid=494b3966-010c-425c-89de-02e3250de455"},"vehicle_type_id":"4","last_reported":1740654480,"current_range_meters":0,"station_id":"ce4bh512rcd13ifvqe3g","pricing_plan_id":"cebpf4jnsgd1na2vs0mg"},{"bike_id":"c8ba7f6b-1100-42fa-ade1-cfee26d7d0e5","system_id":"levelo_inurba_marseille","lat":43.28621,"lon":5.3509,"is_reserved":false,"is_disabled":true,"rental_uris":{"android":"levelo://app?vid=c8ba7f6b-1100-42fa-ade1-cfee26d7d0e5","ios":"levelo://app?vid=c8ba7f6b-1100-42fa-ade1-cfee26d7d0e5"},"vehicle_type_id":"4","last_reported":1740654480,"current_range_meters":0,"station_id":"ce4bhch2rcd13ifvqeug","pricing_plan_id":"cebpf4jnsgd1na2vs0mg"},{"bike_id":"442e2452-c880-40be-ba16-2c28d16331dd","system_id":"levelo_inurba_marseille","lat":43.26556,"lon":5.39034,"is_reserved":false,"is_disabled":true,"rental_uris":{"android":"levelo://app?vid=442e2452-c880-40be-ba16-2c28d16331dd","ios":"levelo://app?vid=442e2452-c880-40be-ba16-2c28d16331dd"},"vehicle_type_id":"4","last_reported":1740654480,"current_range_meters":0,"station_id":"ce4bhe12rcd13ifvqf30","pricing_plan_id":"cebpf4jnsgd1na2vs0mg"},{"bike_id":"cef63097-ea88-4960-94c3-258b87bdf13e","system_id":"levelo_inurba_marseille","lat":43.2656,"lon":5.37283,"is_reserved":false,"is_disabled":true,"rental_uris":{"android":"levelo://app?vid=cef63097-ea88-4960-94c3-258b87bdf13e","ios":"levelo://app?vid=cef63097-ea88-4960-94c3-258b87bdf13e"},"vehicle_type_id":"4","last_reported":1740654480,"current_range_meters":0,"station_id":"ce4bhg12rcd13ifvqf70","pricing_plan_id":"cebpf4jnsgd1na2vs0mg"},{"bike_id":"86c66cf5-d8f7-4eb8-91dd-eb60a0f17821","system_id":"levelo_inurba_marseille","lat":43.27199,"lon":5.40977,"is_reserved":false,"is_disabled":true,"rental_uris":{"android":"levelo://app?vid=86c66cf5-d8f7-4eb8-91dd-eb60a0f17821","ios":"levelo://app?vid=86c66cf5-d8f7-4eb8-91dd-eb60a0f17821"},"vehicle_type_id":"4","last_reported":1740654480,"current_range_meters":0,"station_id":"ce4bhl12rcd13ifvqgf0","pricing_plan_id":"cebpf4jnsgd1na2vs0mg"},{"bike_id":"211f96a7-e687-4bf2-b368-1b0006a09d84","system_id":"levelo_inurba_marseille","lat":43.27501,"lon":5.4247,"is_reserved":false,"is_disabled":true,"rental_uris":{"android":"levelo://app?vid=211f96a7-e687-4bf2-b368-1b0006a09d84","ios":"levelo://app?vid=211f96a7-e687-4bf2-b368-1b0006a09d84"},"vehicle_type_id":"4","last_reported":1740654480,"current_range_meters":0,"station_id":"ce4bhn92rcd13ifvqgrg","pricing_plan_id":"cebpf4jnsgd1na2vs0mg"},{"bike_id":"7aa21f11-8eb7-443d-8ab3-65620f929cca","system_id":"levelo_inurba_marseille","lat":43.32555,"lon":5.41426,"is_reserved":false,"is_disabled":true,"rental_uris":{"android":"levelo://app?vid=7aa21f11-8eb7-443d-8ab3-65620f929cca","ios":"levelo://app?vid=7aa21f11-8eb7-443d-8ab3-65620f929cca"},"vehicle_type_id":"4","last_reported":1740654480,"current_range_meters":0,"station_id":"ce4bhq12rcd13ifvqhhg","pricing_plan_id":"cebpf4jnsgd1na2vs0mg"},{"bike_id":"1bb2b995-c436-4883-823b-2dc724e52789","system_id":"levelo_inurba_marseille","lat":43.32372,"lon":5.38874,"is_reserved":false,"is_disabled":true,"rental_uris":{"android":"levelo://app?vid=1bb2b995-c436-4883-823b-2dc724e52789","ios":"levelo://app?vid=1bb2b995-c436-4883-823b-2dc724e52789"},"vehicle_type_id":"4","last_reported":1740654480,"current_range_meters":0,"station_id":"ce4bhqp2rcd13ifvqhog","pricing_plan_id":"cebpf4jnsgd1na2vs0mg"},{"bike_id":"5972d90a-efaf-4be2-8fd6-b9d393acbfb2","system_id":"levelo_inurba_marseille","lat":43.26797,"lon":5.40258,"is_reserved":false,"is_disabled":true,"rental_uris":{"android":"levelo://app?vid=5972d90a-efaf-4be2-8fd6-b9d393acbfb2","ios":"levelo://app?vid=5972d90a-efaf-4be2-8fd6-b9d393acbfb2"},"vehicle_type_id":"4","last_reported":1740654480,"current_range_meters":0,"station_id":"ce501612rcd8frsf0b60","pricing_plan_id":"cebpf4jnsgd1na2vs0mg"},{"bike_id":"2762f6a9-d1ca-40e0-835c-6af6419e40c1","system_id":"levelo_inurba_marseille","lat":43.27383,"lon":5.36261,"is_reserved":false,"is_disabled":true,"rental_uris":{"android":"levelo://app?vid=2762f6a9-d1ca-40e0-835c-6af6419e40c1","ios":"levelo://app?vid=2762f6a9-d1ca-40e0-835c-6af6419e40c1"},"vehicle_type_id":"4","last_reported":1740654480,"current_range_meters":400,"station_id":"ce4bhbh2rcd13ifvqeo0","pricing_plan_id":"cebpf4jnsgd1na2vs0mg"},{"bike_id":"30e5ce5b-0c5b-47a5-99e0-3c4fa74c52d4","system_id":"levelo_inurba_marseille","lat":43.28279,"lon":5.35062,"is_reserved":false,"is_disabled":true,"rental_uris":{"android":"levelo://app?vid=30e5ce5b-0c5b-47a5-99e0-3c4fa74c52d4","ios":"levelo://app?vid=30e5ce5b-0c5b-47a5-99e0-3c4fa74c52d4"},"vehicle_type_id":"4","last_reported":1740654480,"current_range_meters":400,"station_id":"ce4bhbp2rcd13ifvqerg","pricing_plan_id":"cebpf4jnsgd1na2vs0mg"},{"bike_id":"325de076-8944-474f-a10f-6ac435691f0f","system_id":"levelo_inurba_marseille","lat":43.27968,"lon":5.387285,"is_reserved":false,"is_disabled":true,"rental_uris":{"android":"levelo://app?vid=325de076-8944-474f-a10f-6ac435691f0f","ios":"levelo://app?vid=325de076-8944-474f-a10f-6ac435691f0f"},"vehicle_type_id":"4","last_reported":1740654480,"current_range_meters":400,"station_id":"ce4bhg12rcd13ifvqf80","pricing_plan_id":"cebpf4jnsgd1na2vs0mg"},{"bike_id":"0b3823c1-d9ef-4ced-9b82-932188e5ed41","system_id":"levelo_inurba_marseille","lat":43.27049,"lon":5.40276,"is_reserved":false,"is_disabled":true,"rental_uris":{"android":"levelo://app?vid=0b3823c1-d9ef-4ced-9b82-932188e5ed41","ios":"levelo://app?vid=0b3823c1-d9ef-4ced-9b82-932188e5ed41"},"vehicle_type_id":"4","last_reported":1740654480,"current_range_meters":400,"station_id":"ce4bhk92rcd13ifvqgc0","pricing_plan_id":"cebpf4jnsgd1na2vs0mg"},{"bike_id":"5e97a04f-8513-4bd6-9741-0d7a392bf2c5","system_id":"levelo_inurba_marseille","lat":43.23173,"lon":5.4371,"is_reserved":false,"is_disabled":true,"rental_uris":{"android":"levelo://app?vid=5e97a04f-8513-4bd6-9741-0d7a392bf2c5","ios":"levelo://app?vid=5e97a04f-8513-4bd6-9741-0d7a392bf2c5"},"vehicle_type_id":"4","last_reported":1740654480,"current_range_meters":400,"station_id":"ce4bhmp2rcd13ifvqgog","pricing_plan_id":"cebpf4jnsgd1na2vs0mg"},{"bike_id":"d8fc8792-b845-4844-bef4-cd612659d248","system_id":"levelo_inurba_marseille","lat":43.30957,"lon":5.39033,"is_reserved":false,"is_disabled":true,"rental_uris":{"android":"levelo://app?vid=d8fc8792-b845-4844-bef4-cd612659d248","ios":"levelo://app?vid=d8fc8792-b845-4844-bef4-cd612659d248"},"vehicle_type_id":"4","last_reported":1740654480,"current_range_meters":800,"station_id":"ce4bgup2rcd13ifvqco0","pricing_plan_id":"cebpf4jnsgd1na2vs0mg"},{"bike_id":"c27409d7-b9a5-464e-9ad8-3a3d3e8d7742","system_id":"levelo_inurba_marseille","lat":43.28997,"lon":5.356,"is_reserved":false,"is_disabled":true,"rental_uris":{"android":"levelo://app?vid=c27409d7-b9a5-464e-9ad8-3a3d3e8d7742","ios":"levelo://app?vid=c27409d7-b9a5-464e-9ad8-3a3d3e8d7742"},"vehicle_type_id":"4","last_reported":1740654480,"current_range_meters":800,"station_id":"ce4bhb92rcd13ifvqen0","pricing_plan_id":"cebpf4jnsgd1na2vs0mg"},{"bike_id":"3296f6c4-a746-4f45-abde-d25cadcc39f8","system_id":"levelo_inurba_marseille","lat":43.28623,"lon":5.35114,"is_reserved":false,"is_disabled":true,"rental_uris":{"android":"levelo://app?vid=3296f6c4-a746-4f45-abde-d25cadcc39f8","ios":"levelo://app?vid=3296f6c4-a746-4f45-abde-d25cadcc39f8"},"vehicle_type_id":"4","last_reported":1740654480,"current_range_meters":800,"station_id":"ce4bhch2rcd13ifvqeug","pricing_plan_id":"cebpf4jnsgd1na2vs0mg"},{"bike_id":"e3ed74ba-8236-4d02-9903-031916667cf5","system_id":"levelo_inurba_marseille","lat":43.33745,"lon":5.37467,"is_reserved":false,"is_disabled":true,"rental_uris":{"android":"levelo://app?vid=e3ed74ba-8236-4d02-9903-031916667cf5","ios":"levelo://app?vid=e3ed74ba-8236-4d02-9903-031916667cf5"},"vehicle_type_id":"4","last_reported":1740654480,"current_range_meters":1200,"station_id":"","pricing_plan_id":"cebpf4jnsgd1na2vs0mg"},{"bike_id":"52cd57cc-c1ea-4d62-91ea-c5e535664552","system_id":"levelo_inurba_marseille","lat":43.29792,"lon":5.38095,"is_reserved":false,"is_disabled":true,"rental_uris":{"android":"levelo://app?vid=52cd57cc-c1ea-4d62-91ea-c5e535664552","ios":"levelo://app?vid=52cd57cc-c1ea-4d62-91ea-c5e535664552"},"vehicle_type_id":"4","last_reported":1740654480,"current_range_meters":1200,"station_id":"ce4bgip2rcd13ifvqbb0","pricing_plan_id":"cebpf4jnsgd1na2vs0mg"},{"bike_id":"fd9f64d4-d06f-4df6-872f-b3450a0dc06c","system_id":"levelo_inurba_marseille","lat":43.30962,"lon":5.39053,"is_reserved":false,"is_disabled":true,"rental_uris":{"android":"levelo://app?vid=fd9f64d4-d06f-4df6-872f-b3450a0dc06c","ios":"levelo://app?vid=fd9f64d4-d06f-4df6-872f-b3450a0dc06c"},"vehicle_type_id":"4","last_reported":1740654480,"current_range_meters":1200,"station_id":"ce4bgup2rcd13ifvqco0","pricing_plan_id":"cebpf4jnsgd1na2vs0mg"},{"bike_id":"4766fe8e-6114-4fe5-ac43-fd67bdb6548c","system_id":"levelo_inurba_marseille","lat":43.30979,"lon":5.39039,"is_reserved":false,"is_disabled":true,"rental_uris":{"android":"levelo://app?vid=4766fe8e-6114-4fe5-ac43-fd67bdb6548c","ios":"levelo://app?vid=4766fe8e-6114-4fe5-ac43-fd67bdb6548c"},"vehicle_type_id":"4","last_reported":1740654480,"current_range_meters":1200,"station_id":"ce4bgup2rcd13ifvqco0","pricing_plan_id":"cebpf4jnsgd1na2vs0mg"},{"bike_id":"1d156d5b-f07f-46f7-871d-bb552a434fa0","system_id":"levelo_inurba_marseille","lat":43.28416,"lon":5.37509,"is_reserved":false,"is_disabled":true,"rental_uris":{"android":"levelo://app?vid=1d156d5b-f07f-46f7-871d-bb552a434fa0","ios":"levelo://app?vid=1d156d5b-f07f-46f7-871d-bb552a434fa0"},"vehicle_type_id":"4","last_reported":1740654480,"current_range_meters":1200,"station_id":"ce4bh412rcd13ifvqds0","pricing_plan_id":"cebpf4jnsgd1na2vs0mg"},{"bike_id":"46b06359-a88a-40f1-841b-ec8ec404461e","system_id":"levelo_inurba_marseille","lat":43.28113,"lon":5.37856,"is_reserved":false,"is_disabled":true,"rental_uris":{"android":"levelo://app?vid=46b06359-a88a-40f1-841b-ec8ec404461e","ios":"levelo://app?vid=46b06359-a88a-40f1-841b-ec8ec404461e"},"vehicle_type_id":"4","last_reported":1740654480,"current_range_meters":1600,"station_id":"ce4bha12rcd13ifvqee0","pricing_plan_id":"cebpf4jnsgd1na2vs0mg"},{"bike_id":"7dab5fc5-2d36-4af3-801e-bbb5e1e00bdd","system_id":"levelo_inurba_marseille","lat":43.27575,"lon":5.38421,"is_reserved":false,"is_disabled":true,"rental_uris":{"android":"levelo://app?vid=7dab5fc5-2d36-4af3-801e-bbb5e1e00bdd","ios":"levelo://app?vid=7dab5fc5-2d36-4af3-801e-bbb5e1e00bdd"},"vehicle_type_id":"4","last_reported":1740654480,"current_range_meters":1600,"station_id":"ce4bhh92rcd13ifvqfi0","pricing_plan_id":"cebpf4jnsgd1na2vs0mg"},{"bike_id":"63c0dedb-9f67-4d32-89ae-dd7951baf66d","system_id":"levelo_inurba_marseille","lat":43.27947,"lon":5.4105,"is_reserved":false,"is_disabled":true,"rental_uris":{"android":"levelo://app?vid=63c0dedb-9f67-4d32-89ae-dd7951baf66d","ios":"levelo://app?vid=63c0dedb-9f67-4d32-89ae-dd7951baf66d"},"vehicle_type_id":"4","last_reported":1740654480,"current_range_meters":1600,"station_id":"ce4bhnp2rcd13ifvqh0g","pricing_plan_id":"cebpf4jnsgd1na2vs0mg"},{"bike_id":"77d72656-ec37-44f1-ab2b-c05ee9e3e3e9","system_id":"levelo_inurba_marseille","lat":43.292661,"lon":5.37562,"is_reserved":false,"is_disabled":true,"rental_uris":{"android":"levelo://app?vid=77d72656-ec37-44f1-ab2b-c05ee9e3e3e9","ios":"levelo://app?vid=77d72656-ec37-44f1-ab2b-c05ee9e3e3e9"},"vehicle_type_id":"4","last_reported":1740654480,"current_range_meters":2000,"station_id":"","pricing_plan_id":"cebpf4jnsgd1na2vs0mg"},{"bike_id":"82c20234-b160-4fae-b86e-63c91417a722","system_id":"levelo_inurba_marseille","lat":43.31493,"lon":5.37305,"is_reserved":false,"is_disabled":false,"rental_uris":{"android":"levelo://app?vid=82c20234-b160-4fae-b86e-63c91417a722","ios":"levelo://app?vid=82c20234-b160-4fae-b86e-63c91417a722"},"vehicle_type_id":"4","last_reported":1740654480,"current_range_meters":2000,"station_id":"ce4bgt12rcd13ifvqcd0","pricing_plan_id":"cebpf4jnsgd1na2vs0mg"},{"bike_id":"bffca0ca-438f-494c-b425-b33884d3abae","system_id":"levelo_inurba_marseille","lat":43.31178,"lon":5.38721,"is_reserved":false,"is_disabled":false,"rental_uris":{"android":"levelo://app?vid=bffca0ca-438f-494c-b425-b33884d3abae","ios":"levelo://app?vid=bffca0ca-438f-494c-b425-b33884d3abae"},"vehicle_type_id":"4","last_reported":1740654480,"current_range_meters":2000,"station_id":"ce4bgv12rcd13ifvqcp0","pricing_plan_id":"cebpf4jnsgd1na2vs0mg"},{"bike_id":"58b74ede-78e4-4694-93a0-03f7eef0ed1f","system_id":"levelo_inurba_marseille","lat":43.29419,"lon":5.38622,"is_reserved":false,"is_disabled":true,"rental_uris":{"android":"levelo://app?vid=58b74ede-78e4-4694-93a0-03f7eef0ed1f","ios":"levelo://app?vid=58b74ede-78e4-4694-93a0-03f7eef0ed1f"},"vehicle_type_id":"4","last_reported":1740654480,"current_range_meters":2000,"station_id":"ce4bh2h2rcd13ifvqdh0","pricing_plan_id":"cebpf4jnsgd1na2vs0mg"},{"bike_id":"d8a26962-3188-4f75-b9ae-64b351a749a0","system_id":"levelo_inurba_marseille","lat":43.28861,"lon":5.35841,"is_reserved":false,"is_disabled":false,"rental_uris":{"android":"levelo://app?vid=d8a26962-3188-4f75-b9ae-64b351a749a0","ios":"levelo://app?vid=d8a26962-3188-4f75-b9ae-64b351a749a0"},"vehicle_type_id":"4","last_reported":1740654480,"current_range_meters":2000,"station_id":"ce4bhb12rcd13ifvqem0","pricing_plan_id":"cebpf4jnsgd1na2vs0mg"},{"bike_id":"f71ae6e7-c012-4c0a-88e1-9e49fb16c718","system_id":"levelo_inurba_marseille","lat":43.30957,"lon":5.3905,"is_reserved":false,"is_disabled":false,"rental_uris":{"android":"levelo://app?vid=f71ae6e7-c012-4c0a-88e1-9e49fb16c718","ios":"levelo://app?vid=f71ae6e7-c012-4c0a-88e1-9e49fb16c718"},"vehicle_type_id":"4","last_reported":1740654480,"current_range_meters":2800,"station_id":"ce4bgup2rcd13ifvqco0","pricing_plan_id":"cebpf4jnsgd1na2vs0mg"},{"bike_id":"949d3ffa-156d-4cf2-b84e-6ecdce819ad1","system_id":"levelo_inurba_marseille","lat":43.23192,"lon":5.39996,"is_reserved":false,"is_disabled":false,"rental_uris":{"android":"levelo://app?vid=949d3ffa-156d-4cf2-b84e-6ecdce819ad1","ios":"levelo://app?vid=949d3ffa-156d-4cf2-b84e-6ecdce819ad1"},"vehicle_type_id":"4","last_reported":1740654480,"current_range_meters":2800,"station_id":"ce4bhn12rcd13ifvqgqg","pricing_plan_id":"cebpf4jnsgd1na2vs0mg"},{"bike_id":"26f59472-0ab2-4e36-ba1c-28ed8253e740","system_id":"levelo_inurba_marseille","lat":43.2749,"lon":5.42475,"is_reserved":false,"is_disabled":false,"rental_uris":{"android":"levelo://app?vid=26f59472-0ab2-4e36-ba1c-28ed8253e740","ios":"levelo://app?vid=26f59472-0ab2-4e36-ba1c-28ed8253e740"},"vehicle_type_id":"4","last_reported":1740654480,"current_range_meters":2800,"station_id":"ce4bhn92rcd13ifvqgrg","pricing_plan_id":"cebpf4jnsgd1na2vs0mg"},{"bike_id":"3c697392-b0b9-448f-895d-a3b25bcf0fb7","system_id":"levelo_inurba_marseille","lat":43.24083,"lon":5.37746,"is_reserved":false,"is_disabled":false,"rental_uris":{"android":"levelo://app?vid=3c697392-b0b9-448f-895d-a3b25bcf0fb7","ios":"levelo://app?vid=3c697392-b0b9-448f-895d-a3b25bcf0fb7"},"vehicle_type_id":"4","last_reported":1740654480,"current_range_meters":2800,"station_id":"ce4bhnp2rcd13ifvqgvg","pricing_plan_id":"cebpf4jnsgd1na2vs0mg"},{"bike_id":"0adcfe65-f896-44c6-9007-1b62a532ef3b","system_id":"levelo_inurba_marseille","lat":43.337444,"lon":5.374475,"is_reserved":false,"is_disabled":false,"rental_uris":{"android":"levelo://app?vid=0adcfe65-f896-44c6-9007-1b62a532ef3b","ios":"levelo://app?vid=0adcfe65-f896-44c6-9007-1b62a532ef3b"},"vehicle_type_id":"4","last_reported":1740654480,"current_range_meters":3200,"station_id":"ce4bhah2rcd13ifvqei0","pricing_plan_id":"cebpf4jnsgd1na2vs0mg"},{"bike_id":"95d27e33-048a-4297-b137-a9c887e8153a","system_id":"levelo_inurba_marseille","lat":43.32481,"lon":5.36563,"is_reserved":false,"is_disabled":false,"rental_uris":{"android":"levelo://app?vid=95d27e33-048a-4297-b137-a9c887e8153a","ios":"levelo://app?vid=95d27e33-048a-4297-b137-a9c887e8153a"},"vehicle_type_id":"4","last_reported":1740654480,"current_range_meters":3200,"station_id":"ce4bhs12rcd13ifvqhvg","pricing_plan_id":"cebpf4jnsgd1na2vs0mg"},{"bike_id":"05a499a8-15ef-4dea-936f-8f7db62497e5","system_id":"levelo_inurba_marseille","lat":43.337444,"lon":5.374475,"is_reserved":false,"is_disabled":false,"rental_uris":{"android":"levelo://app?vid=05a499a8-15ef-4dea-936f-8f7db62497e5","ios":"levelo://app?vid=05a499a8-15ef-4dea-936f-8f7db62497e5"},"vehicle_type_id":"4","last_reported":1740654480,"current_range_meters":3600,"station_id":"ce4bh192rcd13ifvqdb0","pricing_plan_id":"cebpf4jnsgd1na2vs0mg"},{"bike_id":"b5368874-e19e-4e33-8e44-b3ac25e43af6","system_id":"levelo_inurba_marseille","lat":43.31314,"lon":5.37082,"is_reserved":false,"is_disabled":false,"rental_uris":{"android":"levelo://app?vid=b5368874-e19e-4e33-8e44-b3ac25e43af6","ios":"levelo://app?vid=b5368874-e19e-4e33-8e44-b3ac25e43af6"},"vehicle_type_id":"4","last_reported":1740654480,"current_range_meters":4400,"station_id":"","pricing_plan_id":"cebpf4jnsgd1na2vs0mg"},{"bike_id":"77c81af1-e704-4c26-a86c-c4a4779f0337","system_id":"levelo_inurba_marseille","lat":43.27571,"lon":5.38415,"is_reserved":false,"is_disabled":false,"rental_uris":{"android":"levelo://app?vid=77c81af1-e704-4c26-a86c-c4a4779f0337","ios":"levelo://app?vid=77c81af1-e704-4c26-a86c-c4a4779f0337"},"vehicle_type_id":"4","last_reported":1740654480,"current_range_meters":4400,"station_id":"ce4bhh92rcd13ifvqfi0","pricing_plan_id":"cebpf4jnsgd1na2vs0mg"},{"bike_id":"fb715759-741f-4761-8bc6-05cf853ac855","system_id":"levelo_inurba_marseille","lat":43.2862,"lon":5.3511,"is_reserved":false,"is_disabled":false,"rental_uris":{"android":"levelo://app?vid=fb715759-741f-4761-8bc6-05cf853ac855","ios":"levelo://app?vid=fb715759-741f-4761-8bc6-05cf853ac855"},"vehicle_type_id":"4","last_reported":1740654480,"current_range_meters":4800,"station_id":"ce4bhch2rcd13ifvqeug","pricing_plan_id":"cebpf4jnsgd1na2vs0mg"},{"bike_id":"9016af25-b5d3-4e51-8901-9f44826dae82","system_id":"levelo_inurba_marseille","lat":43.29872,"lon":5.38924,"is_reserved":false,"is_disabled":false,"rental_uris":{"android":"levelo://app?vid=9016af25-b5d3-4e51-8901-9f44826dae82","ios":"levelo://app?vid=9016af25-b5d3-4e51-8901-9f44826dae82"},"vehicle_type_id":"4","last_reported":1740654480,"current_range_meters":5600,"station_id":"ce4bh392rcd13ifvqdl0","pricing_plan_id":"cebpf4jnsgd1na2vs0mg"},{"bike_id":"41572412-0232-4d0c-af43-e0fbc74ba0d0","system_id":"levelo_inurba_marseille","lat":43.28421,"lon":5.34987,"is_reserved":false,"is_disabled":false,"rental_uris":{"android":"levelo://app?vid=41572412-0232-4d0c-af43-e0fbc74ba0d0","ios":"levelo://app?vid=41572412-0232-4d0c-af43-e0fbc74ba0d0"},"vehicle_type_id":"4","last_reported":1740654480,"current_range_meters":5600,"station_id":"ce4bhbh2rcd13ifvqepg","pricing_plan_id":"cebpf4jnsgd1na2vs0mg"},{"bike_id":"94b13c54-9848-4cb2-81c2-0eaa43ca712d","system_id":"levelo_inurba_marseille","lat":43.2706,"lon":5.40257,"is_reserved":false,"is_disabled":false,"rental_uris":{"android":"levelo://app?vid=94b13c54-9848-4cb2-81c2-0eaa43ca712d","ios":"levelo://app?vid=94b13c54-9848-4cb2-81c2-0eaa43ca712d"},"vehicle_type_id":"4","last_reported":1740654480,"current_range_meters":6000,"station_id":"ce4bhk92rcd13ifvqgc0","pricing_plan_id":"cebpf4jnsgd1na2vs0mg"},{"bike_id":"4254bdbf-255e-4469-9303-9390a8bf7d03","system_id":"levelo_inurba_marseille","lat":43.317163,"lon":5.437057,"is_reserved":false,"is_disabled":false,"rental_uris":{"android":"levelo://app?vid=4254bdbf-255e-4469-9303-9390a8bf7d03","ios":"levelo://app?vid=4254bdbf-255e-4469-9303-9390a8bf7d03"},"vehicle_type_id":"4","last_reported":1740654480,"current_range_meters":6000,"station_id":"ce4bhp92rcd13ifvqhcg","pricing_plan_id":"cebpf4jnsgd1na2vs0mg"},{"bike_id":"c31b2c84-1a0f-4eec-b240-2dc1c0bf6c3e","system_id":"levelo_inurba_marseille","lat":43.28464,"lon":5.35881,"is_reserved":false,"is_disabled":false,"rental_uris":{"android":"levelo://app?vid=c31b2c84-1a0f-4eec-b240-2dc1c0bf6c3e","ios":"levelo://app?vid=c31b2c84-1a0f-4eec-b240-2dc1c0bf6c3e"},"vehicle_type_id":"4","last_reported":1740654480,"current_range_meters":6400,"station_id":"ce4bhah2rcd13ifvqei0","pricing_plan_id":"cebpf4jnsgd1na2vs0mg"},{"bike_id":"ef8030a9-2b00-44a4-812f-839167d66bb7","system_id":"levelo_inurba_marseille","lat":43.28151,"lon":5.42642,"is_reserved":false,"is_disabled":false,"rental_uris":{"android":"levelo://app?vid=ef8030a9-2b00-44a4-812f-839167d66bb7","ios":"levelo://app?vid=ef8030a9-2b00-44a4-812f-839167d66bb7"},"vehicle_type_id":"4","last_reported":1740654480,"current_range_meters":6400,"station_id":"ce4bhnh2rcd13ifvqgug","pricing_plan_id":"cebpf4jnsgd1na2vs0mg"},{"bike_id":"0dcc0352-3717-4f22-a65a-a320d0beaf65","system_id":"levelo_inurba_marseille","lat":43.26942,"lon":5.40265,"is_reserved":false,"is_disabled":false,"rental_uris":{"android":"levelo://app?vid=0dcc0352-3717-4f22-a65a-a320d0beaf65","ios":"levelo://app?vid=0dcc0352-3717-4f22-a65a-a320d0beaf65"},"vehicle_type_id":"4","last_reported":1740654480,"current_range_meters":6400,"station_id":"cjm6bp8fraef2m0cb0m0","pricing_plan_id":"cebpf4jnsgd1na2vs0mg"},{"bike_id":"af37e999-d607-4f50-9b23-ad42ceb9ad74","system_id":"levelo_inurba_marseille","lat":43.30909,"lon":5.36856,"is_reserved":false,"is_disabled":false,"rental_uris":{"android":"levelo://app?vid=af37e999-d607-4f50-9b23-ad42ceb9ad74","ios":"levelo://app?vid=af37e999-d607-4f50-9b23-ad42ceb9ad74"},"vehicle_type_id":"4","last_reported":1740654480,"current_range_meters":6800,"station_id":"ce4bgn92rcd13ifvqbvg","pricing_plan_id":"cebpf4jnsgd1na2vs0mg"},{"bike_id":"d8310cd2-1e4b-42d7-81d7-35119a1584ec","system_id":"levelo_inurba_marseille","lat":43.297659,"lon":5.403984,"is_reserved":false,"is_disabled":false,"rental_uris":{"android":"levelo://app?vid=d8310cd2-1e4b-42d7-81d7-35119a1584ec","ios":"levelo://app?vid=d8310cd2-1e4b-42d7-81d7-35119a1584ec"},"vehicle_type_id":"4","last_reported":1740654480,"current_range_meters":6800,"station_id":"ce4bh0h2rcd13ifvqd60","pricing_plan_id":"cebpf4jnsgd1na2vs0mg"},{"bike_id":"6ab0c9d6-f98e-40d3-bb1b-45eb6727e9b9","system_id":"levelo_inurba_marseille","lat":43.295435,"lon":5.386072,"is_reserved":false,"is_disabled":false,"rental_uris":{"android":"levelo://app?vid=6ab0c9d6-f98e-40d3-bb1b-45eb6727e9b9","ios":"levelo://app?vid=6ab0c9d6-f98e-40d3-bb1b-45eb6727e9b9"},"vehicle_type_id":"4","last_reported":1740654480,"current_range_meters":6800,"station_id":"ce4bh612rcd13ifvqe6g","pricing_plan_id":"cebpf4jnsgd1na2vs0mg"},{"bike_id":"0677888d-bbb4-4e43-955e-99e91181ed1e","system_id":"levelo_inurba_marseille","lat":43.2419,"lon":5.39729,"is_reserved":false,"is_disabled":false,"rental_uris":{"android":"levelo://app?vid=0677888d-bbb4-4e43-955e-99e91181ed1e","ios":"levelo://app?vid=0677888d-bbb4-4e43-955e-99e91181ed1e"},"vehicle_type_id":"4","last_reported":1740654480,"current_range_meters":6800,"station_id":"ce4bhn12rcd13ifvqgpg","pricing_plan_id":"cebpf4jnsgd1na2vs0mg"},{"bike_id":"eaf865df-5620-4c52-8b05-94b3233cd1bf","system_id":"levelo_inurba_marseille","lat":43.30149,"lon":5.38077,"is_reserved":false,"is_disabled":false,"rental_uris":{"android":"levelo://app?vid=eaf865df-5620-4c52-8b05-94b3233cd1bf","ios":"levelo://app?vid=eaf865df-5620-4c52-8b05-94b3233cd1bf"},"vehicle_type_id":"4","last_reported":1740654480,"current_range_meters":7200,"station_id":"ce4bgjp2rcd13ifvqbh0","pricing_plan_id":"cebpf4jnsgd1na2vs0mg"},{"bike_id":"da3c4fb5-c137-4b78-a6d7-9e67786b17b0","system_id":"levelo_inurba_marseille","lat":43.31344,"lon":5.36716,"is_reserved":false,"is_disabled":false,"rental_uris":{"android":"levelo://app?vid=da3c4fb5-c137-4b78-a6d7-9e67786b17b0","ios":"levelo://app?vid=da3c4fb5-c137-4b78-a6d7-9e67786b17b0"},"vehicle_type_id":"4","last_reported":1740654480,"current_range_meters":7200,"station_id":"ce4bgr92rcd13ifvqc6g","pricing_plan_id":"cebpf4jnsgd1na2vs0mg"},{"bike_id":"86786dac-aa53-405b-8af4-3e7fb55f4310","system_id":"levelo_inurba_marseille","lat":43.30979,"lon":5.39049,"is_reserved":false,"is_disabled":false,"rental_uris":{"android":"levelo://app?vid=86786dac-aa53-405b-8af4-3e7fb55f4310","ios":"levelo://app?vid=86786dac-aa53-405b-8af4-3e7fb55f4310"},"vehicle_type_id":"4","last_reported":1740654480,"current_range_meters":7200,"station_id":"ce4bgup2rcd13ifvqco0","pricing_plan_id":"cebpf4jnsgd1na2vs0mg"},{"bike_id":"32545551-9f8e-4a9b-b7f1-c4ec1daecff6","system_id":"levelo_inurba_marseille","lat":43.2502,"lon":5.3893,"is_reserved":false,"is_disabled":false,"rental_uris":{"android":"levelo://app?vid=32545551-9f8e-4a9b-b7f1-c4ec1daecff6","ios":"levelo://app?vid=32545551-9f8e-4a9b-b7f1-c4ec1daecff6"},"vehicle_type_id":"4","last_reported":1740654480,"current_range_meters":7200,"station_id":"ce4bhgp2rcd13ifvqfd0","pricing_plan_id":"cebpf4jnsgd1na2vs0mg"},{"bike_id":"e106868b-1da6-4d4d-8715-92d94b9b2ad8","system_id":"levelo_inurba_marseille","lat":43.246333,"lon":5.381363,"is_reserved":false,"is_disabled":false,"rental_uris":{"android":"levelo://app?vid=e106868b-1da6-4d4d-8715-92d94b9b2ad8","ios":"levelo://app?vid=e106868b-1da6-4d4d-8715-92d94b9b2ad8"},"vehicle_type_id":"4","last_reported":1740654480,"current_range_meters":7200,"station_id":"ce4bhnp2rcd13ifvqgvg","pricing_plan_id":"cebpf4jnsgd1na2vs0mg"},{"bike_id":"cc5b8803-1413-4f2d-912e-42c063433ae4","system_id":"levelo_inurba_marseille","lat":43.321096,"lon":5.367745,"is_reserved":false,"is_disabled":false,"rental_uris":{"android":"levelo://app?vid=cc5b8803-1413-4f2d-912e-42c063433ae4","ios":"levelo://app?vid=cc5b8803-1413-4f2d-912e-42c063433ae4"},"vehicle_type_id":"4","last_reported":1740654480,"current_range_meters":7200,"station_id":"ce4bhrh2rcd13ifvqhug","pricing_plan_id":"cebpf4jnsgd1na2vs0mg"},{"bike_id":"26c30068-8a23-4c37-9fc4-76843a64236d","system_id":"levelo_inurba_marseille","lat":43.30538,"lon":5.36549,"is_reserved":false,"is_disabled":false,"rental_uris":{"android":"levelo://app?vid=26c30068-8a23-4c37-9fc4-76843a64236d","ios":"levelo://app?vid=26c30068-8a23-4c37-9fc4-76843a64236d"},"vehicle_type_id":"4","last_reported":1740654480,"current_range_meters":8000,"station_id":"ce4bgs12rcd13ifvqcag","pricing_plan_id":"cebpf4jnsgd1na2vs0mg"},{"bike_id":"950ca1b2-009f-4e0e-a9bb-38c6443146d6","system_id":"levelo_inurba_marseille","lat":43.287,"lon":5.37408,"is_reserved":false,"is_disabled":false,"rental_uris":{"android":"levelo://app?vid=950ca1b2-009f-4e0e-a9bb-38c6443146d6","ios":"levelo://app?vid=950ca1b2-009f-4e0e-a9bb-38c6443146d6"},"vehicle_type_id":"4","last_reported":1740654480,"current_range_meters":8000,"station_id":"ce4bh3p2rcd13ifvqdq0","pricing_plan_id":"cebpf4jnsgd1na2vs0mg"},{"bike_id":"ccabebd4-fa50-4dc8-856b-4c9029eb69fd","system_id":"levelo_inurba_marseille","lat":43.23181,"lon":5.39991,"is_reserved":false,"is_disabled":false,"rental_uris":{"android":"levelo://app?vid=ccabebd4-fa50-4dc8-856b-4c9029eb69fd","ios":"levelo://app?vid=ccabebd4-fa50-4dc8-856b-4c9029eb69fd"},"vehicle_type_id":"4","last_reported":1740654480,"current_range_meters":8000,"station_id":"ce4bhn12rcd13ifvqgqg","pricing_plan_id":"cebpf4jnsgd1na2vs0mg"},{"bike_id":"c65869f0-53c5-456a-bc0d-ea555cca58c1","system_id":"levelo_inurba_marseille","lat":43.30141,"lon":5.38779,"is_reserved":false,"is_disabled":false,"rental_uris":{"android":"levelo://app?vid=c65869f0-53c5-456a-bc0d-ea555cca58c1","ios":"levelo://app?vid=c65869f0-53c5-456a-bc0d-ea555cca58c1"},"vehicle_type_id":"4","last_reported":1740654480,"current_range_meters":8400,"station_id":"ce4bghh2rcd13ifvqb60","pricing_plan_id":"cebpf4jnsgd1na2vs0mg"},{"bike_id":"068211e1-e2a7-40f6-8272-b3a8aebab23c","system_id":"levelo_inurba_marseille","lat":43.29262,"lon":5.37616,"is_reserved":false,"is_disabled":false,"rental_uris":{"android":"levelo://app?vid=068211e1-e2a7-40f6-8272-b3a8aebab23c","ios":"levelo://app?vid=068211e1-e2a7-40f6-8272-b3a8aebab23c"},"vehicle_type_id":"4","last_reported":1740654480,"current_range_meters":8400,"station_id":"ce4bgi12rcd13ifvqb80","pricing_plan_id":"cebpf4jnsgd1na2vs0mg"},{"bike_id":"f64b50fd-c0d3-4766-aa8c-920c7166ef73","system_id":"levelo_inurba_marseille","lat":43.3135,"lon":5.36703,"is_reserved":false,"is_disabled":false,"rental_uris":{"android":"levelo://app?vid=f64b50fd-c0d3-4766-aa8c-920c7166ef73","ios":"levelo://app?vid=f64b50fd-c0d3-4766-aa8c-920c7166ef73"},"vehicle_type_id":"4","last_reported":1740654480,"current_range_meters":8400,"station_id":"ce4bgr92rcd13ifvqc6g","pricing_plan_id":"cebpf4jnsgd1na2vs0mg"},{"bike_id":"338c1835-14ef-43f4-904c-c66f2e0ef0f3","system_id":"levelo_inurba_marseille","lat":43.30544,"lon":5.36535,"is_reserved":false,"is_disabled":false,"rental_uris":{"android":"levelo://app?vid=338c1835-14ef-43f4-904c-c66f2e0ef0f3","ios":"levelo://app?vid=338c1835-14ef-43f4-904c-c66f2e0ef0f3"},"vehicle_type_id":"4","last_reported":1740654480,"current_range_meters":8400,"station_id":"ce4bgs12rcd13ifvqcag","pricing_plan_id":"cebpf4jnsgd1na2vs0mg"},{"bike_id":"5e68656b-4654-4790-ad7f-01437bdae155","system_id":"levelo_inurba_marseille","lat":43.30545,"lon":5.36517,"is_reserved":false,"is_disabled":false,"rental_uris":{"android":"levelo://app?vid=5e68656b-4654-4790-ad7f-01437bdae155","ios":"levelo://app?vid=5e68656b-4654-4790-ad7f-01437bdae155"},"vehicle_type_id":"4","last_reported":1740654480,"current_range_meters":8400,"station_id":"ce4bgs12rcd13ifvqcag","pricing_plan_id":"cebpf4jnsgd1na2vs0mg"},{"bike_id":"4d090e3b-1942-41bb-bfbf-de6213ce0e96","system_id":"levelo_inurba_marseille","lat":43.31494,"lon":5.3729,"is_reserved":false,"is_disabled":false,"rental_uris":{"android":"levelo://app?vid=4d090e3b-1942-41bb-bfbf-de6213ce0e96","ios":"levelo://app?vid=4d090e3b-1942-41bb-bfbf-de6213ce0e96"},"vehicle_type_id":"4","last_reported":1740654480,"current_range_meters":8400,"station_id":"ce4bgt12rcd13ifvqcd0","pricing_plan_id":"cebpf4jnsgd1na2vs0mg"},{"bike_id":"e2d6e387-dc3a-4a3e-9ec9-dfd303ef01eb","system_id":"levelo_inurba_marseille","lat":43.28104,"lon":5.37834,"is_reserved":false,"is_disabled":false,"rental_uris":{"android":"levelo://app?vid=e2d6e387-dc3a-4a3e-9ec9-dfd303ef01eb","ios":"levelo://app?vid=e2d6e387-dc3a-4a3e-9ec9-dfd303ef01eb"},"vehicle_type_id":"4","last_reported":1740654480,"current_range_meters":8400,"station_id":"ce4bha12rcd13ifvqee0","pricing_plan_id":"cebpf4jnsgd1na2vs0mg"},{"bike_id":"9721a8d2-5ed5-4c5c-8f41-41104e93930e","system_id":"levelo_inurba_marseille","lat":43.28003,"lon":5.38742,"is_reserved":false,"is_disabled":false,"rental_uris":{"android":"levelo://app?vid=9721a8d2-5ed5-4c5c-8f41-41104e93930e","ios":"levelo://app?vid=9721a8d2-5ed5-4c5c-8f41-41104e93930e"},"vehicle_type_id":"4","last_reported":1740654480,"current_range_meters":8400,"station_id":"ce4bhg12rcd13ifvqf80","pricing_plan_id":"cebpf4jnsgd1na2vs0mg"},{"bike_id":"bde3ecc2-fd13-4519-8cd8-959b951ba9a3","system_id":"levelo_inurba_marseille","lat":43.26033,"lon":5.37555,"is_reserved":false,"is_disabled":false,"rental_uris":{"android":"levelo://app?vid=bde3ecc2-fd13-4519-8cd8-959b951ba9a3","ios":"levelo://app?vid=bde3ecc2-fd13-4519-8cd8-959b951ba9a3"},"vehicle_type_id":"4","last_reported":1740654480,"current_range_meters":8400,"station_id":"ce4bhgh2rcd13ifvqfa0","pricing_plan_id":"cebpf4jnsgd1na2vs0mg"},{"bike_id":"c6d21231-1793-41d9-a0a5-00bbca83d886","system_id":"levelo_inurba_marseille","lat":43.2604,"lon":5.37551,"is_reserved":false,"is_disabled":false,"rental_uris":{"android":"levelo://app?vid=c6d21231-1793-41d9-a0a5-00bbca83d886","ios":"levelo://app?vid=c6d21231-1793-41d9-a0a5-00bbca83d886"},"vehicle_type_id":"4","last_reported":1740654480,"current_range_meters":8400,"station_id":"ce4bhgh2rcd13ifvqfa0","pricing_plan_id":"cebpf4jnsgd1na2vs0mg"},{"bike_id":"1a4f671a-f954-404e-8875-3b9e94408277","system_id":"levelo_inurba_marseille","lat":43.26041,"lon":5.37547,"is_reserved":false,"is_disabled":false,"rental_uris":{"android":"levelo://app?vid=1a4f671a-f954-404e-8875-3b9e94408277","ios":"levelo://app?vid=1a4f671a-f954-404e-8875-3b9e94408277"},"vehicle_type_id":"4","last_reported":1740654480,"current_range_meters":8400,"station_id":"ce4bhgh2rcd13ifvqfa0","pricing_plan_id":"cebpf4jnsgd1na2vs0mg"},{"bike_id":"962a768f-551a-4715-bdf7-2d5405e4118c","system_id":"levelo_inurba_marseille","lat":43.24165,"lon":5.3974,"is_reserved":false,"is_disabled":false,"rental_uris":{"android":"levelo://app?vid=962a768f-551a-4715-bdf7-2d5405e4118c","ios":"levelo://app?vid=962a768f-551a-4715-bdf7-2d5405e4118c"},"vehicle_type_id":"4","last_reported":1740654480,"current_range_meters":8400,"station_id":"ce4bhn12rcd13ifvqgpg","pricing_plan_id":"cebpf4jnsgd1na2vs0mg"},{"bike_id":"9fc706c2-079e-41bb-846c-4846c643b247","system_id":"levelo_inurba_marseille","lat":43.24182,"lon":5.39719,"is_reserved":false,"is_disabled":false,"rental_uris":{"android":"levelo://app?vid=9fc706c2-079e-41bb-846c-4846c643b247","ios":"levelo://app?vid=9fc706c2-079e-41bb-846c-4846c643b247"},"vehicle_type_id":"4","last_reported":1740654480,"current_range_meters":8400,"station_id":"ce4bhn12rcd13ifvqgpg","pricing_plan_id":"cebpf4jnsgd1na2vs0mg"},{"bike_id":"ff34c52f-56f1-4588-9323-32f37bcf554e","system_id":"levelo_inurba_marseille","lat":43.323547,"lon":5.388897,"is_reserved":false,"is_disabled":false,"rental_uris":{"android":"levelo://app?vid=ff34c52f-56f1-4588-9323-32f37bcf554e","ios":"levelo://app?vid=ff34c52f-56f1-4588-9323-32f37bcf554e"},"vehicle_type_id":"4","last_reported":1740654480,"current_range_meters":8400,"station_id":"ce4bhqp2rcd13ifvqhog","pricing_plan_id":"cebpf4jnsgd1na2vs0mg"},{"bike_id":"4d472430-f798-4d66-a15e-a2aa6ed57ca5","system_id":"levelo_inurba_marseille","lat":43.30989,"lon":5.3905,"is_reserved":false,"is_disabled":false,"rental_uris":{"android":"levelo://app?vid=4d472430-f798-4d66-a15e-a2aa6ed57ca5","ios":"levelo://app?vid=4d472430-f798-4d66-a15e-a2aa6ed57ca5"},"vehicle_type_id":"4","last_reported":1740654480,"current_range_meters":8800,"station_id":"ce4bgup2rcd13ifvqco0","pricing_plan_id":"cebpf4jnsgd1na2vs0mg"},{"bike_id":"df5d3e3c-35cf-497c-abe4-7a16a380dc6b","system_id":"levelo_inurba_marseille","lat":43.30154,"lon":5.39859,"is_reserved":false,"is_disabled":false,"rental_uris":{"android":"levelo://app?vid=df5d3e3c-35cf-497c-abe4-7a16a380dc6b","ios":"levelo://app?vid=df5d3e3c-35cf-497c-abe4-7a16a380dc6b"},"vehicle_type_id":"4","last_reported":1740654480,"current_range_meters":8800,"station_id":"ce4bh0h2rcd13ifvqd40","pricing_plan_id":"cebpf4jnsgd1na2vs0mg"},{"bike_id":"2916894f-49b5-4eb9-9bb4-969f106aad4f","system_id":"levelo_inurba_marseille","lat":43.29805,"lon":5.40411,"is_reserved":false,"is_disabled":false,"rental_uris":{"android":"levelo://app?vid=2916894f-49b5-4eb9-9bb4-969f106aad4f","ios":"levelo://app?vid=2916894f-49b5-4eb9-9bb4-969f106aad4f"},"vehicle_type_id":"4","last_reported":1740654480,"current_range_meters":8800,"station_id":"ce4bh112rcd13ifvqd90","pricing_plan_id":"cebpf4jnsgd1na2vs0mg"},{"bike_id":"9fa81dbc-ac93-435a-a8af-b57bf15f8b88","system_id":"levelo_inurba_marseille","lat":43.23196,"lon":5.35539,"is_reserved":false,"is_disabled":false,"rental_uris":{"android":"levelo://app?vid=9fa81dbc-ac93-435a-a8af-b57bf15f8b88","ios":"levelo://app?vid=9fa81dbc-ac93-435a-a8af-b57bf15f8b88"},"vehicle_type_id":"4","last_reported":1740654480,"current_range_meters":8800,"station_id":"ce4bhu92rcd13ifvqi70","pricing_plan_id":"cebpf4jnsgd1na2vs0mg"},{"bike_id":"f766e3d4-eb35-4777-b7ef-5fba818cdd52","system_id":"levelo_inurba_marseille","lat":43.29801,"lon":5.36309,"is_reserved":false,"is_disabled":false,"rental_uris":{"android":"levelo://app?vid=f766e3d4-eb35-4777-b7ef-5fba818cdd52","ios":"levelo://app?vid=f766e3d4-eb35-4777-b7ef-5fba818cdd52"},"vehicle_type_id":"4","last_reported":1740654480,"current_range_meters":9200,"station_id":"ce4bgpp2rcd13ifvqc3g","pricing_plan_id":"cebpf4jnsgd1na2vs0mg"},{"bike_id":"4765f4c4-12f9-410d-89ae-b2b6b8369cf3","system_id":"levelo_inurba_marseille","lat":43.30926,"lon":5.39013,"is_reserved":false,"is_disabled":false,"rental_uris":{"android":"levelo://app?vid=4765f4c4-12f9-410d-89ae-b2b6b8369cf3","ios":"levelo://app?vid=4765f4c4-12f9-410d-89ae-b2b6b8369cf3"},"vehicle_type_id":"4","last_reported":1740654480,"current_range_meters":9200,"station_id":"ce4bgup2rcd13ifvqco0","pricing_plan_id":"cebpf4jnsgd1na2vs0mg"},{"bike_id":"35593f52-cea1-47f3-bc31-1b5a2af0d4d0","system_id":"levelo_inurba_marseille","lat":43.30972,"lon":5.39059,"is_reserved":false,"is_disabled":false,"rental_uris":{"android":"levelo://app?vid=35593f52-cea1-47f3-bc31-1b5a2af0d4d0","ios":"levelo://app?vid=35593f52-cea1-47f3-bc31-1b5a2af0d4d0"},"vehicle_type_id":"4","last_reported":1740654480,"current_range_meters":9200,"station_id":"ce4bgup2rcd13ifvqco0","pricing_plan_id":"cebpf4jnsgd1na2vs0mg"},{"bike_id":"a2471654-b844-4806-bd45-c2c5b9bd290a","system_id":"levelo_inurba_marseille","lat":43.289819,"lon":5.378348,"is_reserved":false,"is_disabled":false,"rental_uris":{"android":"levelo://app?vid=a2471654-b844-4806-bd45-c2c5b9bd290a","ios":"levelo://app?vid=a2471654-b844-4806-bd45-c2c5b9bd290a"},"vehicle_type_id":"4","last_reported":1740654480,"current_range_meters":9200,"station_id":"ce4bh9p2rcd13ifvqed0","pricing_plan_id":"cebpf4jnsgd1na2vs0mg"},{"bike_id":"40f8cdc7-e99f-4bc0-b133-53c02dabc7a9","system_id":"levelo_inurba_marseille","lat":43.26569,"lon":5.39002,"is_reserved":false,"is_disabled":false,"rental_uris":{"android":"levelo://app?vid=40f8cdc7-e99f-4bc0-b133-53c02dabc7a9","ios":"levelo://app?vid=40f8cdc7-e99f-4bc0-b133-53c02dabc7a9"},"vehicle_type_id":"4","last_reported":1740654480,"current_range_meters":9200,"station_id":"ce4bhe12rcd13ifvqf30","pricing_plan_id":"cebpf4jnsgd1na2vs0mg"},{"bike_id":"b9e94433-72b0-448b-9383-91edbc736b90","system_id":"levelo_inurba_marseille","lat":43.26685,"lon":5.38261,"is_reserved":false,"is_disabled":false,"rental_uris":{"android":"levelo://app?vid=b9e94433-72b0-448b-9383-91edbc736b90","ios":"levelo://app?vid=b9e94433-72b0-448b-9383-91edbc736b90"},"vehicle_type_id":"4","last_reported":1740654480,"current_range_meters":9200,"station_id":"ce4bhg92rcd13ifvqf90","pricing_plan_id":"cebpf4jnsgd1na2vs0mg"},{"bike_id":"ad9571bc-5194-4f71-90ef-f1cb0835f36e","system_id":"levelo_inurba_marseille","lat":43.25508,"lon":5.3765,"is_reserved":false,"is_disabled":false,"rental_uris":{"android":"levelo://app?vid=ad9571bc-5194-4f71-90ef-f1cb0835f36e","ios":"levelo://app?vid=ad9571bc-5194-4f71-90ef-f1cb0835f36e"},"vehicle_type_id":"4","last_reported":1740654480,"current_range_meters":9200,"station_id":"ce4bhh12rcd13ifvqff0","pricing_plan_id":"cebpf4jnsgd1na2vs0mg"},{"bike_id":"5169bf4e-5ac4-4560-9d3b-f48581611c45","system_id":"levelo_inurba_marseille","lat":43.25091,"lon":5.3951,"is_reserved":false,"is_disabled":false,"rental_uris":{"android":"levelo://app?vid=5169bf4e-5ac4-4560-9d3b-f48581611c45","ios":"levelo://app?vid=5169bf4e-5ac4-4560-9d3b-f48581611c45"},"vehicle_type_id":"4","last_reported":1740654480,"current_range_meters":9200,"station_id":"ce4bhm12rcd13ifvqgkg","pricing_plan_id":"cebpf4jnsgd1na2vs0mg"},{"bike_id":"c24dd236-5c90-4f51-a57a-2f44c040fc1a","system_id":"levelo_inurba_marseille","lat":43.25955,"lon":5.40906,"is_reserved":false,"is_disabled":false,"rental_uris":{"android":"levelo://app?vid=c24dd236-5c90-4f51-a57a-2f44c040fc1a","ios":"levelo://app?vid=c24dd236-5c90-4f51-a57a-2f44c040fc1a"},"vehicle_type_id":"4","last_reported":1740654480,"current_range_meters":9200,"station_id":"ce4bhm92rcd13ifvqglg","pricing_plan_id":"cebpf4jnsgd1na2vs0mg"},{"bike_id":"d5646970-4783-45c0-aba5-1d384423aca8","system_id":"levelo_inurba_marseille","lat":43.27943,"lon":5.41042,"is_reserved":false,"is_disabled":false,"rental_uris":{"android":"levelo://app?vid=d5646970-4783-45c0-aba5-1d384423aca8","ios":"levelo://app?vid=d5646970-4783-45c0-aba5-1d384423aca8"},"vehicle_type_id":"4","last_reported":1740654480,"current_range_meters":9200,"station_id":"ce4bhnp2rcd13ifvqh0g","pricing_plan_id":"cebpf4jnsgd1na2vs0mg"},{"bike_id":"0f29e289-bfb5-40b7-b1df-d5acef773400","system_id":"levelo_inurba_marseille","lat":43.32361,"lon":5.38894,"is_reserved":false,"is_disabled":false,"rental_uris":{"android":"levelo://app?vid=0f29e289-bfb5-40b7-b1df-d5acef773400","ios":"levelo://app?vid=0f29e289-bfb5-40b7-b1df-d5acef773400"},"vehicle_type_id":"4","last_reported":1740654480,"current_range_meters":9200,"station_id":"ce4bhqp2rcd13ifvqhog","pricing_plan_id":"cebpf4jnsgd1na2vs0mg"},{"bike_id":"a425e775-b361-4ab4-93f9-fa2ea28a8286","system_id":"levelo_inurba_marseille","lat":43.3245,"lon":5.36565,"is_reserved":false,"is_disabled":false,"rental_uris":{"android":"levelo://app?vid=a425e775-b361-4ab4-93f9-fa2ea28a8286","ios":"levelo://app?vid=a425e775-b361-4ab4-93f9-fa2ea28a8286"},"vehicle_type_id":"4","last_reported":1740654480,"current_range_meters":9200,"station_id":"ce4bhs12rcd13ifvqhvg","pricing_plan_id":"cebpf4jnsgd1na2vs0mg"},{"bike_id":"6cd2cf02-8380-49e9-9b70-6b86136e67bf","system_id":"levelo_inurba_marseille","lat":43.22927,"lon":5.35375,"is_reserved":false,"is_disabled":false,"rental_uris":{"android":"levelo://app?vid=6cd2cf02-8380-49e9-9b70-6b86136e67bf","ios":"levelo://app?vid=6cd2cf02-8380-49e9-9b70-6b86136e67bf"},"vehicle_type_id":"4","last_reported":1740654480,"current_range_meters":9200,"station_id":"cpo3532slgdg3j2ikp40","pricing_plan_id":"cebpf4jnsgd1na2vs0mg"},{"bike_id":"55f6da8c-7fbe-4710-bf56-d3ce712c5165","system_id":"levelo_inurba_marseille","lat":43.30302,"lon":5.37708,"is_reserved":false,"is_disabled":false,"rental_uris":{"android":"levelo://app?vid=55f6da8c-7fbe-4710-bf56-d3ce712c5165","ios":"levelo://app?vid=55f6da8c-7fbe-4710-bf56-d3ce712c5165"},"vehicle_type_id":"4","last_reported":1740654480,"current_range_meters":9600,"station_id":"ce4bguh2rcd13ifvqcj0","pricing_plan_id":"cebpf4jnsgd1na2vs0mg"},{"bike_id":"90c5dba5-4b56-4ba9-bf5c-52681de6af71","system_id":"levelo_inurba_marseille","lat":43.30277,"lon":5.37708,"is_reserved":false,"is_disabled":false,"rental_uris":{"android":"levelo://app?vid=90c5dba5-4b56-4ba9-bf5c-52681de6af71","ios":"levelo://app?vid=90c5dba5-4b56-4ba9-bf5c-52681de6af71"},"vehicle_type_id":"4","last_reported":1740654480,"current_range_meters":9600,"station_id":"ce4bguh2rcd13ifvqcj0","pricing_plan_id":"cebpf4jnsgd1na2vs0mg"},{"bike_id":"ae264817-a512-4287-b487-0ee600480d9a","system_id":"levelo_inurba_marseille","lat":43.30221,"lon":5.39469,"is_reserved":false,"is_disabled":false,"rental_uris":{"android":"levelo://app?vid=ae264817-a512-4287-b487-0ee600480d9a","ios":"levelo://app?vid=ae264817-a512-4287-b487-0ee600480d9a"},"vehicle_type_id":"4","last_reported":1740654480,"current_range_meters":9600,"station_id":"ce4bh0p2rcd13ifvqd70","pricing_plan_id":"cebpf4jnsgd1na2vs0mg"},{"bike_id":"91d9626d-cdc0-4e43-bb76-66867fb221a2","system_id":"levelo_inurba_marseille","lat":43.2865,"lon":5.38658,"is_reserved":false,"is_disabled":false,"rental_uris":{"android":"levelo://app?vid=91d9626d-cdc0-4e43-bb76-66867fb221a2","ios":"levelo://app?vid=91d9626d-cdc0-4e43-bb76-66867fb221a2"},"vehicle_type_id":"4","last_reported":1740654480,"current_range_meters":9600,"station_id":"ce4bh492rcd13ifvqdug","pricing_plan_id":"cebpf4jnsgd1na2vs0mg"},{"bike_id":"f66913d8-adc8-4497-b81a-8613461ae8a9","system_id":"levelo_inurba_marseille","lat":43.28409,"lon":5.35007,"is_reserved":false,"is_disabled":false,"rental_uris":{"android":"levelo://app?vid=f66913d8-adc8-4497-b81a-8613461ae8a9","ios":"levelo://app?vid=f66913d8-adc8-4497-b81a-8613461ae8a9"},"vehicle_type_id":"4","last_reported":1740654480,"current_range_meters":9600,"station_id":"ce4bhbh2rcd13ifvqepg","pricing_plan_id":"cebpf4jnsgd1na2vs0mg"},{"bike_id":"2ddd76cf-99e2-47b6-baa1-5133bc8aab87","system_id":"levelo_inurba_marseille","lat":43.26947,"lon":5.38633,"is_reserved":false,"is_disabled":false,"rental_uris":{"android":"levelo://app?vid=2ddd76cf-99e2-47b6-baa1-5133bc8aab87","ios":"levelo://app?vid=2ddd76cf-99e2-47b6-baa1-5133bc8aab87"},"vehicle_type_id":"4","last_reported":1740654480,"current_range_meters":9600,"station_id":"ce4bhh92rcd13ifvqfh0","pricing_plan_id":"cebpf4jnsgd1na2vs0mg"},{"bike_id":"8aefae3d-8df9-4738-afa0-b68595c80fcb","system_id":"levelo_inurba_marseille","lat":43.24078,"lon":5.377602,"is_reserved":false,"is_disabled":false,"rental_uris":{"android":"levelo://app?vid=8aefae3d-8df9-4738-afa0-b68595c80fcb","ios":"levelo://app?vid=8aefae3d-8df9-4738-afa0-b68595c80fcb"},"vehicle_type_id":"4","last_reported":1740654480,"current_range_meters":9600,"station_id":"ce4bhnp2rcd13ifvqgvg","pricing_plan_id":"cebpf4jnsgd1na2vs0mg"},{"bike_id":"afd98e29-9e65-49b1-96e9-da6c0e62de76","system_id":"levelo_inurba_marseille","lat":43.29271,"lon":5.38208,"is_reserved":false,"is_disabled":false,"rental_uris":{"android":"levelo://app?vid=afd98e29-9e65-49b1-96e9-da6c0e62de76","ios":"levelo://app?vid=afd98e29-9e65-49b1-96e9-da6c0e62de76"},"vehicle_type_id":"4","last_reported":1740654480,"current_range_meters":10000,"station_id":"","pricing_plan_id":"cebpf4jnsgd1na2vs0mg"},{"bike_id":"620faf8f-9860-4e84-b6cd-4559a0b9a89c","system_id":"levelo_inurba_marseille","lat":43.32519,"lon":5.36489,"is_reserved":false,"is_disabled":false,"rental_uris":{"android":"levelo://app?vid=620faf8f-9860-4e84-b6cd-4559a0b9a89c","ios":"levelo://app?vid=620faf8f-9860-4e84-b6cd-4559a0b9a89c"},"vehicle_type_id":"4","last_reported":1740654480,"current_range_meters":10000,"station_id":"","pricing_plan_id":"cebpf4jnsgd1na2vs0mg"},{"bike_id":"7c62469b-5202-49e6-bba3-f619a26dfa9a","system_id":"levelo_inurba_marseille","lat":43.30554,"lon":5.36703,"is_reserved":false,"is_disabled":false,"rental_uris":{"android":"levelo://app?vid=7c62469b-5202-49e6-bba3-f619a26dfa9a","ios":"levelo://app?vid=7c62469b-5202-49e6-bba3-f619a26dfa9a"},"vehicle_type_id":"4","last_reported":1740654480,"current_range_meters":10000,"station_id":"ce4bgrp2rcd13ifvqc9g","pricing_plan_id":"cebpf4jnsgd1na2vs0mg"},{"bike_id":"7f5c8962-3c26-494a-9dd5-ffc07bce14b6","system_id":"levelo_inurba_marseille","lat":43.30471,"lon":5.3791,"is_reserved":false,"is_disabled":false,"rental_uris":{"android":"levelo://app?vid=7f5c8962-3c26-494a-9dd5-ffc07bce14b6","ios":"levelo://app?vid=7f5c8962-3c26-494a-9dd5-ffc07bce14b6"},"vehicle_type_id":"4","last_reported":1740654480,"current_range_meters":10000,"station_id":"ce4bgup2rcd13ifvqcn0","pricing_plan_id":"cebpf4jnsgd1na2vs0mg"},{"bike_id":"eec7ba81-7d3c-47ab-a5d5-aaf95e2485ac","system_id":"levelo_inurba_marseille","lat":43.299133,"lon":5.381425,"is_reserved":false,"is_disabled":false,"rental_uris":{"android":"levelo://app?vid=eec7ba81-7d3c-47ab-a5d5-aaf95e2485ac","ios":"levelo://app?vid=eec7ba81-7d3c-47ab-a5d5-aaf95e2485ac"},"vehicle_type_id":"4","last_reported":1740654480,"current_range_meters":10000,"station_id":"ce4bhbh2rcd13ifvqeo0","pricing_plan_id":"cebpf4jnsgd1na2vs0mg"},{"bike_id":"844c2627-4659-4d06-9db8-0803d69b326a","system_id":"levelo_inurba_marseille","lat":43.29224,"lon":5.36062,"is_reserved":false,"is_disabled":false,"rental_uris":{"android":"levelo://app?vid=844c2627-4659-4d06-9db8-0803d69b326a","ios":"levelo://app?vid=844c2627-4659-4d06-9db8-0803d69b326a"},"vehicle_type_id":"4","last_reported":1740654480,"current_range_meters":10000,"station_id":"ce4bhbh2rcd13ifvqeqg","pricing_plan_id":"cebpf4jnsgd1na2vs0mg"},{"bike_id":"579df20a-e9e5-43af-a415-1d5281557859","system_id":"levelo_inurba_marseille","lat":43.25587,"lon":5.38229,"is_reserved":false,"is_disabled":false,"rental_uris":{"android":"levelo://app?vid=579df20a-e9e5-43af-a415-1d5281557859","ios":"levelo://app?vid=579df20a-e9e5-43af-a415-1d5281557859"},"vehicle_type_id":"4","last_reported":1740654480,"current_range_meters":10000,"station_id":"ce4bhih2rcd13ifvqfs0","pricing_plan_id":"cebpf4jnsgd1na2vs0mg"},{"bike_id":"eae6a850-1285-4ec5-abf3-37043ab72d69","system_id":"levelo_inurba_marseille","lat":43.25942,"lon":5.40889,"is_reserved":false,"is_disabled":false,"rental_uris":{"android":"levelo://app?vid=eae6a850-1285-4ec5-abf3-37043ab72d69","ios":"levelo://app?vid=eae6a850-1285-4ec5-abf3-37043ab72d69"},"vehicle_type_id":"4","last_reported":1740654480,"current_range_meters":10000,"station_id":"ce4bhm92rcd13ifvqglg","pricing_plan_id":"cebpf4jnsgd1na2vs0mg"},{"bike_id":"a5f263a2-550b-4c15-978a-08a2144120c3","system_id":"levelo_inurba_marseille","lat":43.23157,"lon":5.43733,"is_reserved":false,"is_disabled":false,"rental_uris":{"android":"levelo://app?vid=a5f263a2-550b-4c15-978a-08a2144120c3","ios":"levelo://app?vid=a5f263a2-550b-4c15-978a-08a2144120c3"},"vehicle_type_id":"4","last_reported":1740654480,"current_range_meters":10000,"station_id":"ce4bhmp2rcd13ifvqgog","pricing_plan_id":"cebpf4jnsgd1na2vs0mg"},{"bike_id":"17973595-0627-4cbe-be09-6d52168568c1","system_id":"levelo_inurba_marseille","lat":43.27834,"lon":5.40722,"is_reserved":false,"is_disabled":false,"rental_uris":{"android":"levelo://app?vid=17973595-0627-4cbe-be09-6d52168568c1","ios":"levelo://app?vid=17973595-0627-4cbe-be09-6d52168568c1"},"vehicle_type_id":"4","last_reported":1740654480,"current_range_meters":10000,"station_id":"ce4bhnh2rcd13ifvqgtg","pricing_plan_id":"cebpf4jnsgd1na2vs0mg"},{"bike_id":"22c25b9b-a22d-4685-a812-ff9e9de3eab7","system_id":"levelo_inurba_marseille","lat":43.3171,"lon":5.43704,"is_reserved":false,"is_disabled":false,"rental_uris":{"android":"levelo://app?vid=22c25b9b-a22d-4685-a812-ff9e9de3eab7","ios":"levelo://app?vid=22c25b9b-a22d-4685-a812-ff9e9de3eab7"},"vehicle_type_id":"4","last_reported":1740654480,"current_range_meters":10000,"station_id":"ce4bhp92rcd13ifvqhcg","pricing_plan_id":"cebpf4jnsgd1na2vs0mg"},{"bike_id":"19e4983d-b74d-4524-9c14-80fb6905f947","system_id":"levelo_inurba_marseille","lat":43.32105,"lon":5.36774,"is_reserved":false,"is_disabled":false,"rental_uris":{"android":"levelo://app?vid=19e4983d-b74d-4524-9c14-80fb6905f947","ios":"levelo://app?vid=19e4983d-b74d-4524-9c14-80fb6905f947"},"vehicle_type_id":"4","last_reported":1740654480,"current_range_meters":10000,"station_id":"ce4bhrh2rcd13ifvqhug","pricing_plan_id":"cebpf4jnsgd1na2vs0mg"},{"bike_id":"91f909e9-358e-43ed-a45f-822af931a978","system_id":"levelo_inurba_marseille","lat":43.23219,"lon":5.40373,"is_reserved":false,"is_disabled":false,"rental_uris":{"android":"levelo://app?vid=91f909e9-358e-43ed-a45f-822af931a978","ios":"levelo://app?vid=91f909e9-358e-43ed-a45f-822af931a978"},"vehicle_type_id":"4","last_reported":1740654480,"current_range_meters":10800,"station_id":"","pricing_plan_id":"cebpf4jnsgd1na2vs0mg"},{"bike_id":"87d92987-b68b-4ae7-9097-cf6bac27adfc","system_id":"levelo_inurba_marseille","lat":43.29265,"lon":5.37621,"is_reserved":false,"is_disabled":false,"rental_uris":{"android":"levelo://app?vid=87d92987-b68b-4ae7-9097-cf6bac27adfc","ios":"levelo://app?vid=87d92987-b68b-4ae7-9097-cf6bac27adfc"},"vehicle_type_id":"4","last_reported":1740654480,"current_range_meters":10800,"station_id":"ce4bgi12rcd13ifvqb80","pricing_plan_id":"cebpf4jnsgd1na2vs0mg"},{"bike_id":"5249bc2c-af1a-4b55-92f5-5ca5eef8feb6","system_id":"levelo_inurba_marseille","lat":43.2929,"lon":5.37622,"is_reserved":false,"is_disabled":false,"rental_uris":{"android":"levelo://app?vid=5249bc2c-af1a-4b55-92f5-5ca5eef8feb6","ios":"levelo://app?vid=5249bc2c-af1a-4b55-92f5-5ca5eef8feb6"},"vehicle_type_id":"4","last_reported":1740654480,"current_range_meters":10800,"station_id":"ce4bgi12rcd13ifvqb80","pricing_plan_id":"cebpf4jnsgd1na2vs0mg"},{"bike_id":"c2c07c19-dbd0-4199-be99-931320c34757","system_id":"levelo_inurba_marseille","lat":43.29843,"lon":5.36279,"is_reserved":false,"is_disabled":false,"rental_uris":{"android":"levelo://app?vid=c2c07c19-dbd0-4199-be99-931320c34757","ios":"levelo://app?vid=c2c07c19-dbd0-4199-be99-931320c34757"},"vehicle_type_id":"4","last_reported":1740654480,"current_range_meters":10800,"station_id":"ce4bgpp2rcd13ifvqc3g","pricing_plan_id":"cebpf4jnsgd1na2vs0mg"},{"bike_id":"fb99a5d2-2b7a-45cf-af7c-9fd30d546041","system_id":"levelo_inurba_marseille","lat":43.28268,"lon":5.35064,"is_reserved":false,"is_disabled":false,"rental_uris":{"android":"levelo://app?vid=fb99a5d2-2b7a-45cf-af7c-9fd30d546041","ios":"levelo://app?vid=fb99a5d2-2b7a-45cf-af7c-9fd30d546041"},"vehicle_type_id":"4","last_reported":1740654480,"current_range_meters":10800,"station_id":"ce4bhbp2rcd13ifvqerg","pricing_plan_id":"cebpf4jnsgd1na2vs0mg"},{"bike_id":"d7ebc185-a545-4834-b5b5-1a0406677abe","system_id":"levelo_inurba_marseille","lat":43.24667,"lon":5.38168,"is_reserved":false,"is_disabled":false,"rental_uris":{"android":"levelo://app?vid=d7ebc185-a545-4834-b5b5-1a0406677abe","ios":"levelo://app?vid=d7ebc185-a545-4834-b5b5-1a0406677abe"},"vehicle_type_id":"4","last_reported":1740654480,"current_range_meters":10800,"station_id":"ce4bhih2rcd13ifvqfr0","pricing_plan_id":"cebpf4jnsgd1na2vs0mg"},{"bike_id":"b9c71651-5089-439f-a919-20f5e0b6deb7","system_id":"levelo_inurba_marseille","lat":43.31332,"lon":5.39706,"is_reserved":false,"is_disabled":false,"rental_uris":{"android":"levelo://app?vid=b9c71651-5089-439f-a919-20f5e0b6deb7","ios":"levelo://app?vid=b9c71651-5089-439f-a919-20f5e0b6deb7"},"vehicle_type_id":"4","last_reported":1740654480,"current_range_meters":11200,"station_id":"ce4bgvp2rcd13ifvqcu0","pricing_plan_id":"cebpf4jnsgd1na2vs0mg"},{"bike_id":"0a3d8e68-ec37-453f-b0ad-d992738ec937","system_id":"levelo_inurba_marseille","lat":43.29027,"lon":5.38646,"is_reserved":false,"is_disabled":false,"rental_uris":{"android":"levelo://app?vid=0a3d8e68-ec37-453f-b0ad-d992738ec937","ios":"levelo://app?vid=0a3d8e68-ec37-453f-b0ad-d992738ec937"},"vehicle_type_id":"4","last_reported":1740654480,"current_range_meters":11200,"station_id":"ce4bh4p2rcd13ifvqe0g","pricing_plan_id":"cebpf4jnsgd1na2vs0mg"},{"bike_id":"b0e2d516-c387-43ec-bccd-1bf33aa90f24","system_id":"levelo_inurba_marseille","lat":43.29221,"lon":5.36087,"is_reserved":false,"is_disabled":false,"rental_uris":{"android":"levelo://app?vid=b0e2d516-c387-43ec-bccd-1bf33aa90f24","ios":"levelo://app?vid=b0e2d516-c387-43ec-bccd-1bf33aa90f24"},"vehicle_type_id":"4","last_reported":1740654480,"current_range_meters":11200,"station_id":"ce4bhbh2rcd13ifvqeqg","pricing_plan_id":"cebpf4jnsgd1na2vs0mg"},{"bike_id":"946ffe70-3e7c-49a6-8659-388e8c6a00a1","system_id":"levelo_inurba_marseille","lat":43.269516,"lon":5.386389,"is_reserved":false,"is_disabled":false,"rental_uris":{"android":"levelo://app?vid=946ffe70-3e7c-49a6-8659-388e8c6a00a1","ios":"levelo://app?vid=946ffe70-3e7c-49a6-8659-388e8c6a00a1"},"vehicle_type_id":"4","last_reported":1740654480,"current_range_meters":11200,"station_id":"ce4bhh92rcd13ifvqfh0","pricing_plan_id":"cebpf4jnsgd1na2vs0mg"},{"bike_id":"7ba56adb-fef1-4fb4-94ed-3de8114f6441","system_id":"levelo_inurba_marseille","lat":43.31336,"lon":5.36711,"is_reserved":false,"is_disabled":false,"rental_uris":{"android":"levelo://app?vid=7ba56adb-fef1-4fb4-94ed-3de8114f6441","ios":"levelo://app?vid=7ba56adb-fef1-4fb4-94ed-3de8114f6441"},"vehicle_type_id":"4","last_reported":1740654480,"current_range_meters":11600,"station_id":"ce4bgr92rcd13ifvqc6g","pricing_plan_id":"cebpf4jnsgd1na2vs0mg"},{"bike_id":"ddbb29cd-0818-4207-8ae6-aa91f60233f7","system_id":"levelo_inurba_marseille","lat":43.28986,"lon":5.37834,"is_reserved":false,"is_disabled":false,"rental_uris":{"android":"levelo://app?vid=ddbb29cd-0818-4207-8ae6-aa91f60233f7","ios":"levelo://app?vid=ddbb29cd-0818-4207-8ae6-aa91f60233f7"},"vehicle_type_id":"4","last_reported":1740654480,"current_range_meters":11600,"station_id":"ce4bh9p2rcd13ifvqed0","pricing_plan_id":"cebpf4jnsgd1na2vs0mg"},{"bike_id":"f9364cab-7851-4711-aa90-7b8a85c15ef6","system_id":"levelo_inurba_marseille","lat":43.30939,"lon":5.39031,"is_reserved":false,"is_disabled":false,"rental_uris":{"android":"levelo://app?vid=f9364cab-7851-4711-aa90-7b8a85c15ef6","ios":"levelo://app?vid=f9364cab-7851-4711-aa90-7b8a85c15ef6"},"vehicle_type_id":"4","last_reported":1740654480,"current_range_meters":12000,"station_id":"ce4bgup2rcd13ifvqco0","pricing_plan_id":"cebpf4jnsgd1na2vs0mg"},{"bike_id":"cd6786ce-b1ba-41d6-8e88-79ca0602184d","system_id":"levelo_inurba_marseille","lat":43.28459,"lon":5.35894,"is_reserved":false,"is_disabled":false,"rental_uris":{"android":"levelo://app?vid=cd6786ce-b1ba-41d6-8e88-79ca0602184d","ios":"levelo://app?vid=cd6786ce-b1ba-41d6-8e88-79ca0602184d"},"vehicle_type_id":"4","last_reported":1740654480,"current_range_meters":12000,"station_id":"ce4bhah2rcd13ifvqei0","pricing_plan_id":"cebpf4jnsgd1na2vs0mg"},{"bike_id":"243189b3-e826-4a57-80d5-d7ab1cda2716","system_id":"levelo_inurba_marseille","lat":43.28941,"lon":5.36405,"is_reserved":false,"is_disabled":false,"rental_uris":{"android":"levelo://app?vid=243189b3-e826-4a57-80d5-d7ab1cda2716","ios":"levelo://app?vid=243189b3-e826-4a57-80d5-d7ab1cda2716"},"vehicle_type_id":"4","last_reported":1740654480,"current_range_meters":12000,"station_id":"ce4bhc92rcd13ifvqetg","pricing_plan_id":"cebpf4jnsgd1na2vs0mg"},{"bike_id":"9fe79d9b-868f-47c9-8b1f-ef7b69d00717","system_id":"levelo_inurba_marseille","lat":43.32537,"lon":5.4143,"is_reserved":false,"is_disabled":false,"rental_uris":{"android":"levelo://app?vid=9fe79d9b-868f-47c9-8b1f-ef7b69d00717","ios":"levelo://app?vid=9fe79d9b-868f-47c9-8b1f-ef7b69d00717"},"vehicle_type_id":"4","last_reported":1740654480,"current_range_meters":12000,"station_id":"ce4bhq12rcd13ifvqhhg","pricing_plan_id":"cebpf4jnsgd1na2vs0mg"},{"bike_id":"9c05c137-ce73-4888-83ec-51c9674942d3","system_id":"levelo_inurba_marseille","lat":43.31342,"lon":5.36704,"is_reserved":false,"is_disabled":false,"rental_uris":{"android":"levelo://app?vid=9c05c137-ce73-4888-83ec-51c9674942d3","ios":"levelo://app?vid=9c05c137-ce73-4888-83ec-51c9674942d3"},"vehicle_type_id":"4","last_reported":1740654480,"current_range_meters":12400,"station_id":"ce4bgr92rcd13ifvqc6g","pricing_plan_id":"cebpf4jnsgd1na2vs0mg"},{"bike_id":"84f89e3c-12df-4756-96d2-2bed8ea6d583","system_id":"levelo_inurba_marseille","lat":43.30545,"lon":5.36547,"is_reserved":false,"is_disabled":false,"rental_uris":{"android":"levelo://app?vid=84f89e3c-12df-4756-96d2-2bed8ea6d583","ios":"levelo://app?vid=84f89e3c-12df-4756-96d2-2bed8ea6d583"},"vehicle_type_id":"4","last_reported":1740654480,"current_range_meters":12400,"station_id":"ce4bgs12rcd13ifvqcag","pricing_plan_id":"cebpf4jnsgd1na2vs0mg"},{"bike_id":"f7848387-0626-4043-afd1-ad9f4e57dad1","system_id":"levelo_inurba_marseille","lat":43.23155,"lon":5.43717,"is_reserved":false,"is_disabled":false,"rental_uris":{"android":"levelo://app?vid=f7848387-0626-4043-afd1-ad9f4e57dad1","ios":"levelo://app?vid=f7848387-0626-4043-afd1-ad9f4e57dad1"},"vehicle_type_id":"4","last_reported":1740654480,"current_range_meters":12400,"station_id":"ce4bhmp2rcd13ifvqgog","pricing_plan_id":"cebpf4jnsgd1na2vs0mg"},{"bike_id":"8f3e7537-e3e1-42ad-b809-9b6b9606e3bd","system_id":"levelo_inurba_marseille","lat":43.2956,"lon":5.42295,"is_reserved":false,"is_disabled":false,"rental_uris":{"android":"levelo://app?vid=8f3e7537-e3e1-42ad-b809-9b6b9606e3bd","ios":"levelo://app?vid=8f3e7537-e3e1-42ad-b809-9b6b9606e3bd"},"vehicle_type_id":"4","last_reported":1740654480,"current_range_meters":12400,"station_id":"ce4bhph2rcd13ifvqhdg","pricing_plan_id":"cebpf4jnsgd1na2vs0mg"},{"bike_id":"2837d85d-02af-49af-900a-3b751e6ef0d6","system_id":"levelo_inurba_marseille","lat":43.3211,"lon":5.36766,"is_reserved":false,"is_disabled":false,"rental_uris":{"android":"levelo://app?vid=2837d85d-02af-49af-900a-3b751e6ef0d6","ios":"levelo://app?vid=2837d85d-02af-49af-900a-3b751e6ef0d6"},"vehicle_type_id":"4","last_reported":1740654480,"current_range_meters":12400,"station_id":"ce4bhrh2rcd13ifvqhug","pricing_plan_id":"cebpf4jnsgd1na2vs0mg"},{"bike_id":"53c97519-31f9-4538-b031-fd7d8c97dfd2","system_id":"levelo_inurba_marseille","lat":43.31363,"lon":5.38496,"is_reserved":false,"is_disabled":false,"rental_uris":{"android":"levelo://app?vid=53c97519-31f9-4538-b031-fd7d8c97dfd2","ios":"levelo://app?vid=53c97519-31f9-4538-b031-fd7d8c97dfd2"},"vehicle_type_id":"4","last_reported":1740654480,"current_range_meters":12800,"station_id":"ce4bgt92rcd13ifvqcf0","pricing_plan_id":"cebpf4jnsgd1na2vs0mg"},{"bike_id":"b384d4b5-a2de-4320-b52b-3b67d7de93cc","system_id":"levelo_inurba_marseille","lat":43.30464,"lon":5.37898,"is_reserved":false,"is_disabled":false,"rental_uris":{"android":"levelo://app?vid=b384d4b5-a2de-4320-b52b-3b67d7de93cc","ios":"levelo://app?vid=b384d4b5-a2de-4320-b52b-3b67d7de93cc"},"vehicle_type_id":"4","last_reported":1740654480,"current_range_meters":12800,"station_id":"ce4bgup2rcd13ifvqcn0","pricing_plan_id":"cebpf4jnsgd1na2vs0mg"},{"bike_id":"99ed134b-314b-4e69-9c00-580c30d8ebf1","system_id":"levelo_inurba_marseille","lat":43.23197,"lon":5.35551,"is_reserved":false,"is_disabled":false,"rental_uris":{"android":"levelo://app?vid=99ed134b-314b-4e69-9c00-580c30d8ebf1","ios":"levelo://app?vid=99ed134b-314b-4e69-9c00-580c30d8ebf1"},"vehicle_type_id":"4","last_reported":1740654480,"current_range_meters":12800,"station_id":"ce4bhu92rcd13ifvqi70","pricing_plan_id":"cebpf4jnsgd1na2vs0mg"},{"bike_id":"5737c94a-2620-452c-8a51-51601b239c0a","system_id":"levelo_inurba_marseille","lat":43.297122,"lon":5.377046,"is_reserved":false,"is_disabled":false,"rental_uris":{"android":"levelo://app?vid=5737c94a-2620-452c-8a51-51601b239c0a","ios":"levelo://app?vid=5737c94a-2620-452c-8a51-51601b239c0a"},"vehicle_type_id":"4","last_reported":1740654480,"current_range_meters":13600,"station_id":"ce4bgj92rcd13ifvqbd0","pricing_plan_id":"cebpf4jnsgd1na2vs0mg"},{"bike_id":"44bd2581-c0ca-41fa-9563-2a8b78ee5910","system_id":"levelo_inurba_marseille","lat":43.2792,"lon":5.37998,"is_reserved":false,"is_disabled":false,"rental_uris":{"android":"levelo://app?vid=44bd2581-c0ca-41fa-9563-2a8b78ee5910","ios":"levelo://app?vid=44bd2581-c0ca-41fa-9563-2a8b78ee5910"},"vehicle_type_id":"4","last_reported":1740654480,"current_range_meters":13600,"station_id":"ce4bhf92rcd13ifvqf50","pricing_plan_id":"cebpf4jnsgd1na2vs0mg"},{"bike_id":"8a7e280a-b445-4575-91e7-4d186d34db98","system_id":"levelo_inurba_marseille","lat":43.27584,"lon":5.38426,"is_reserved":false,"is_disabled":false,"rental_uris":{"android":"levelo://app?vid=8a7e280a-b445-4575-91e7-4d186d34db98","ios":"levelo://app?vid=8a7e280a-b445-4575-91e7-4d186d34db98"},"vehicle_type_id":"4","last_reported":1740654480,"current_range_meters":13600,"station_id":"ce4bhh92rcd13ifvqfi0","pricing_plan_id":"cebpf4jnsgd1na2vs0mg"},{"bike_id":"914e4567-1169-42f3-be7e-93619cd0098d","system_id":"levelo_inurba_marseille","lat":43.27208,"lon":5.39202,"is_reserved":false,"is_disabled":false,"rental_uris":{"android":"levelo://app?vid=914e4567-1169-42f3-be7e-93619cd0098d","ios":"levelo://app?vid=914e4567-1169-42f3-be7e-93619cd0098d"},"vehicle_type_id":"4","last_reported":1740654480,"current_range_meters":13600,"station_id":"ce4bhhp2rcd13ifvqfm0","pricing_plan_id":"cebpf4jnsgd1na2vs0mg"},{"bike_id":"3648d549-1aa7-44d1-bde4-30bac4ece65c","system_id":"levelo_inurba_marseille","lat":43.25574,"lon":5.38248,"is_reserved":false,"is_disabled":false,"rental_uris":{"android":"levelo://app?vid=3648d549-1aa7-44d1-bde4-30bac4ece65c","ios":"levelo://app?vid=3648d549-1aa7-44d1-bde4-30bac4ece65c"},"vehicle_type_id":"4","last_reported":1740654480,"current_range_meters":13600,"station_id":"ce4bhih2rcd13ifvqfs0","pricing_plan_id":"cebpf4jnsgd1na2vs0mg"},{"bike_id":"dda81007-8a87-4e56-beb7-56a971fb6b82","system_id":"levelo_inurba_marseille","lat":43.30135,"lon":5.38785,"is_reserved":false,"is_disabled":false,"rental_uris":{"android":"levelo://app?vid=dda81007-8a87-4e56-beb7-56a971fb6b82","ios":"levelo://app?vid=dda81007-8a87-4e56-beb7-56a971fb6b82"},"vehicle_type_id":"4","last_reported":1740654480,"current_range_meters":14000,"station_id":"ce4bghh2rcd13ifvqb60","pricing_plan_id":"cebpf4jnsgd1na2vs0mg"},{"bike_id":"9825c28a-d416-46b3-8289-a829d8be4423","system_id":"levelo_inurba_marseille","lat":43.296277,"lon":5.377343,"is_reserved":false,"is_disabled":false,"rental_uris":{"android":"levelo://app?vid=9825c28a-d416-46b3-8289-a829d8be4423","ios":"levelo://app?vid=9825c28a-d416-46b3-8289-a829d8be4423"},"vehicle_type_id":"4","last_reported":1740654480,"current_range_meters":14000,"station_id":"ce4bgi92rcd13ifvqb90","pricing_plan_id":"cebpf4jnsgd1na2vs0mg"},{"bike_id":"55d86139-5b19-40df-abd7-c8f3bc007755","system_id":"levelo_inurba_marseille","lat":43.30155,"lon":5.38093,"is_reserved":false,"is_disabled":false,"rental_uris":{"android":"levelo://app?vid=55d86139-5b19-40df-abd7-c8f3bc007755","ios":"levelo://app?vid=55d86139-5b19-40df-abd7-c8f3bc007755"},"vehicle_type_id":"4","last_reported":1740654480,"current_range_meters":14000,"station_id":"ce4bgjp2rcd13ifvqbh0","pricing_plan_id":"cebpf4jnsgd1na2vs0mg"},{"bike_id":"71c9f134-2802-4a3b-9ee0-6ddbae04f20d","system_id":"levelo_inurba_marseille","lat":43.30302,"lon":5.39215,"is_reserved":false,"is_disabled":false,"rental_uris":{"android":"levelo://app?vid=71c9f134-2802-4a3b-9ee0-6ddbae04f20d","ios":"levelo://app?vid=71c9f134-2802-4a3b-9ee0-6ddbae04f20d"},"vehicle_type_id":"4","last_reported":1740654480,"current_range_meters":14000,"station_id":"ce4bgkh2rcd13ifvqbk0","pricing_plan_id":"cebpf4jnsgd1na2vs0mg"},{"bike_id":"999a392f-7543-4c3a-a927-376cfdeb9c12","system_id":"levelo_inurba_marseille","lat":43.30272,"lon":5.37704,"is_reserved":false,"is_disabled":false,"rental_uris":{"android":"levelo://app?vid=999a392f-7543-4c3a-a927-376cfdeb9c12","ios":"levelo://app?vid=999a392f-7543-4c3a-a927-376cfdeb9c12"},"vehicle_type_id":"4","last_reported":1740654480,"current_range_meters":14000,"station_id":"ce4bguh2rcd13ifvqcj0","pricing_plan_id":"cebpf4jnsgd1na2vs0mg"},{"bike_id":"2234478e-ad1c-4a16-bb41-50ee5dd1e74d","system_id":"levelo_inurba_marseille","lat":43.30593,"lon":5.39351,"is_reserved":false,"is_disabled":false,"rental_uris":{"android":"levelo://app?vid=2234478e-ad1c-4a16-bb41-50ee5dd1e74d","ios":"levelo://app?vid=2234478e-ad1c-4a16-bb41-50ee5dd1e74d"},"vehicle_type_id":"4","last_reported":1740654480,"current_range_meters":14000,"station_id":"ce4bh0p2rcd13ifvqd80","pricing_plan_id":"cebpf4jnsgd1na2vs0mg"},{"bike_id":"419c58a1-8df0-42d6-a4b4-1d7a995fad6d","system_id":"levelo_inurba_marseille","lat":43.2587,"lon":5.39889,"is_reserved":false,"is_disabled":false,"rental_uris":{"android":"levelo://app?vid=419c58a1-8df0-42d6-a4b4-1d7a995fad6d","ios":"levelo://app?vid=419c58a1-8df0-42d6-a4b4-1d7a995fad6d"},"vehicle_type_id":"4","last_reported":1740654480,"current_range_meters":14000,"station_id":"ce4bhl92rcd13ifvqghg","pricing_plan_id":"cebpf4jnsgd1na2vs0mg"},{"bike_id":"c9a46336-8808-467e-8593-79b169fe9875","system_id":"levelo_inurba_marseille","lat":43.23163,"lon":5.43701,"is_reserved":false,"is_disabled":false,"rental_uris":{"android":"levelo://app?vid=c9a46336-8808-467e-8593-79b169fe9875","ios":"levelo://app?vid=c9a46336-8808-467e-8593-79b169fe9875"},"vehicle_type_id":"4","last_reported":1740654480,"current_range_meters":14000,"station_id":"ce4bhmp2rcd13ifvqgog","pricing_plan_id":"cebpf4jnsgd1na2vs0mg"},{"bike_id":"364ea645-aefe-4d71-8bcd-ea54ed59c50a","system_id":"levelo_inurba_marseille","lat":43.31711,"lon":5.43697,"is_reserved":false,"is_disabled":false,"rental_uris":{"android":"levelo://app?vid=364ea645-aefe-4d71-8bcd-ea54ed59c50a","ios":"levelo://app?vid=364ea645-aefe-4d71-8bcd-ea54ed59c50a"},"vehicle_type_id":"4","last_reported":1740654480,"current_range_meters":14000,"station_id":"ce4bhp92rcd13ifvqhcg","pricing_plan_id":"cebpf4jnsgd1na2vs0mg"},{"bike_id":"b19c73fb-8d9a-45c6-9bf1-8c417eac4bb0","system_id":"levelo_inurba_marseille","lat":43.31495,"lon":5.37301,"is_reserved":false,"is_disabled":false,"rental_uris":{"android":"levelo://app?vid=b19c73fb-8d9a-45c6-9bf1-8c417eac4bb0","ios":"levelo://app?vid=b19c73fb-8d9a-45c6-9bf1-8c417eac4bb0"},"vehicle_type_id":"4","last_reported":1740654480,"current_range_meters":14400,"station_id":"ce4bgt12rcd13ifvqcd0","pricing_plan_id":"cebpf4jnsgd1na2vs0mg"},{"bike_id":"369ddefb-0793-468f-94b7-6705959382ea","system_id":"levelo_inurba_marseille","lat":43.3172,"lon":5.37737,"is_reserved":false,"is_disabled":false,"rental_uris":{"android":"levelo://app?vid=369ddefb-0793-468f-94b7-6705959382ea","ios":"levelo://app?vid=369ddefb-0793-468f-94b7-6705959382ea"},"vehicle_type_id":"4","last_reported":1740654480,"current_range_meters":14400,"station_id":"ce4bgth2rcd13ifvqch0","pricing_plan_id":"cebpf4jnsgd1na2vs0mg"},{"bike_id":"ec0baca6-ee06-40f3-a920-ad250f3619f6","system_id":"levelo_inurba_marseille","lat":43.29259,"lon":5.38443,"is_reserved":false,"is_disabled":false,"rental_uris":{"android":"levelo://app?vid=ec0baca6-ee06-40f3-a920-ad250f3619f6","ios":"levelo://app?vid=ec0baca6-ee06-40f3-a920-ad250f3619f6"},"vehicle_type_id":"4","last_reported":1740654480,"current_range_meters":14400,"station_id":"ce4bh692rcd13ifvqea0","pricing_plan_id":"cebpf4jnsgd1na2vs0mg"},{"bike_id":"3de9aeda-1f9a-4bbc-8b90-e02a49e56ca9","system_id":"levelo_inurba_marseille","lat":43.23189,"lon":5.35559,"is_reserved":false,"is_disabled":false,"rental_uris":{"android":"levelo://app?vid=3de9aeda-1f9a-4bbc-8b90-e02a49e56ca9","ios":"levelo://app?vid=3de9aeda-1f9a-4bbc-8b90-e02a49e56ca9"},"vehicle_type_id":"4","last_reported":1740654480,"current_range_meters":14400,"station_id":"ce4bhu92rcd13ifvqi70","pricing_plan_id":"cebpf4jnsgd1na2vs0mg"},{"bike_id":"40e25f70-02b5-4811-add6-6e8dbc26a035","system_id":"levelo_inurba_marseille","lat":43.28428,"lon":5.34986,"is_reserved":false,"is_disabled":false,"rental_uris":{"android":"levelo://app?vid=40e25f70-02b5-4811-add6-6e8dbc26a035","ios":"levelo://app?vid=40e25f70-02b5-4811-add6-6e8dbc26a035"},"vehicle_type_id":"4","last_reported":1740654480,"current_range_meters":14800,"station_id":"ce4bhbh2rcd13ifvqepg","pricing_plan_id":"cebpf4jnsgd1na2vs0mg"},{"bike_id":"070f7db1-5041-486b-8bbc-459a66633fc7","system_id":"levelo_inurba_marseille","lat":43.27175,"lon":5.40986,"is_reserved":false,"is_disabled":false,"rental_uris":{"android":"levelo://app?vid=070f7db1-5041-486b-8bbc-459a66633fc7","ios":"levelo://app?vid=070f7db1-5041-486b-8bbc-459a66633fc7"},"vehicle_type_id":"4","last_reported":1740654480,"current_range_meters":14800,"station_id":"ce4bhl12rcd13ifvqgf0","pricing_plan_id":"cebpf4jnsgd1na2vs0mg"},{"bike_id":"2340bf46-394e-4e04-954f-396dfe8676f3","system_id":"levelo_inurba_marseille","lat":43.25096,"lon":5.39555,"is_reserved":false,"is_disabled":false,"rental_uris":{"android":"levelo://app?vid=2340bf46-394e-4e04-954f-396dfe8676f3","ios":"levelo://app?vid=2340bf46-394e-4e04-954f-396dfe8676f3"},"vehicle_type_id":"4","last_reported":1740654480,"current_range_meters":14800,"station_id":"ce4bhm12rcd13ifvqgkg","pricing_plan_id":"cebpf4jnsgd1na2vs0mg"},{"bike_id":"80c486fd-426d-4ee4-bf33-bc8489b7acde","system_id":"levelo_inurba_marseille","lat":43.290314,"lon":5.386463,"is_reserved":false,"is_disabled":false,"rental_uris":{"android":"levelo://app?vid=80c486fd-426d-4ee4-bf33-bc8489b7acde","ios":"levelo://app?vid=80c486fd-426d-4ee4-bf33-bc8489b7acde"},"vehicle_type_id":"4","last_reported":1740654480,"current_range_meters":14800,"station_id":"ce4bhp92rcd13ifvqhcg","pricing_plan_id":"cebpf4jnsgd1na2vs0mg"},{"bike_id":"20ac0122-8fc7-48a7-9ece-d0eae822fe83","system_id":"levelo_inurba_marseille","lat":43.23199,"lon":5.35564,"is_reserved":false,"is_disabled":false,"rental_uris":{"android":"levelo://app?vid=20ac0122-8fc7-48a7-9ece-d0eae822fe83","ios":"levelo://app?vid=20ac0122-8fc7-48a7-9ece-d0eae822fe83"},"vehicle_type_id":"4","last_reported":1740654480,"current_range_meters":14800,"station_id":"ce4bhu92rcd13ifvqi70","pricing_plan_id":"cebpf4jnsgd1na2vs0mg"},{"bike_id":"6bf62df5-9f2c-4676-be2e-3425368f3119","system_id":"levelo_inurba_marseille","lat":43.29353,"lon":5.38244,"is_reserved":false,"is_disabled":false,"rental_uris":{"android":"levelo://app?vid=6bf62df5-9f2c-4676-be2e-3425368f3119","ios":"levelo://app?vid=6bf62df5-9f2c-4676-be2e-3425368f3119"},"vehicle_type_id":"4","last_reported":1740654480,"current_range_meters":15200,"station_id":"","pricing_plan_id":"cebpf4jnsgd1na2vs0mg"},{"bike_id":"d87a4773-6328-43f6-871f-76210bb4e613","system_id":"levelo_inurba_marseille","lat":43.31492,"lon":5.37294,"is_reserved":false,"is_disabled":false,"rental_uris":{"android":"levelo://app?vid=d87a4773-6328-43f6-871f-76210bb4e613","ios":"levelo://app?vid=d87a4773-6328-43f6-871f-76210bb4e613"},"vehicle_type_id":"4","last_reported":1740654480,"current_range_meters":15200,"station_id":"ce4bgt12rcd13ifvqcd0","pricing_plan_id":"cebpf4jnsgd1na2vs0mg"},{"bike_id":"a6d04042-e066-4475-8ca2-38480442f303","system_id":"levelo_inurba_marseille","lat":43.28466,"lon":5.35886,"is_reserved":false,"is_disabled":false,"rental_uris":{"android":"levelo://app?vid=a6d04042-e066-4475-8ca2-38480442f303","ios":"levelo://app?vid=a6d04042-e066-4475-8ca2-38480442f303"},"vehicle_type_id":"4","last_reported":1740654480,"current_range_meters":15200,"station_id":"ce4bhah2rcd13ifvqei0","pricing_plan_id":"cebpf4jnsgd1na2vs0mg"},{"bike_id":"f4950049-155e-46ad-9f8d-f8e88db5e949","system_id":"levelo_inurba_marseille","lat":43.32368,"lon":5.38882,"is_reserved":false,"is_disabled":false,"rental_uris":{"android":"levelo://app?vid=f4950049-155e-46ad-9f8d-f8e88db5e949","ios":"levelo://app?vid=f4950049-155e-46ad-9f8d-f8e88db5e949"},"vehicle_type_id":"4","last_reported":1740654480,"current_range_meters":15200,"station_id":"ce4bhqp2rcd13ifvqhog","pricing_plan_id":"cebpf4jnsgd1na2vs0mg"},{"bike_id":"201b43e1-9166-4b93-9ecb-211bb1985890","system_id":"levelo_inurba_marseille","lat":43.32377,"lon":5.36787,"is_reserved":false,"is_disabled":false,"rental_uris":{"android":"levelo://app?vid=201b43e1-9166-4b93-9ecb-211bb1985890","ios":"levelo://app?vid=201b43e1-9166-4b93-9ecb-211bb1985890"},"vehicle_type_id":"4","last_reported":1740654480,"current_range_meters":15200,"station_id":"ce4bhsh2rcd13ifvqi2g","pricing_plan_id":"cebpf4jnsgd1na2vs0mg"},{"bike_id":"2bc6b0c1-7127-4e48-b7f5-50a3d89bfd6a","system_id":"levelo_inurba_marseille","lat":43.30939,"lon":5.37257,"is_reserved":false,"is_disabled":false,"rental_uris":{"android":"levelo://app?vid=2bc6b0c1-7127-4e48-b7f5-50a3d89bfd6a","ios":"levelo://app?vid=2bc6b0c1-7127-4e48-b7f5-50a3d89bfd6a"},"vehicle_type_id":"4","last_reported":1740654480,"current_range_meters":16000,"station_id":"","pricing_plan_id":"cebpf4jnsgd1na2vs0mg"},{"bike_id":"59ee61a2-a71b-4362-acc5-4789299e013e","system_id":"levelo_inurba_marseille","lat":43.301633,"lon":5.373987,"is_reserved":false,"is_disabled":false,"rental_uris":{"android":"levelo://app?vid=59ee61a2-a71b-4362-acc5-4789299e013e","ios":"levelo://app?vid=59ee61a2-a71b-4362-acc5-4789299e013e"},"vehicle_type_id":"4","last_reported":1740654480,"current_range_meters":16000,"station_id":"ce4bgs92rcd13ifvqcc0","pricing_plan_id":"cebpf4jnsgd1na2vs0mg"},{"bike_id":"af1ddcad-43e7-43b3-af98-bb940c88b0c3","system_id":"levelo_inurba_marseille","lat":43.30953,"lon":5.39054,"is_reserved":false,"is_disabled":false,"rental_uris":{"android":"levelo://app?vid=af1ddcad-43e7-43b3-af98-bb940c88b0c3","ios":"levelo://app?vid=af1ddcad-43e7-43b3-af98-bb940c88b0c3"},"vehicle_type_id":"4","last_reported":1740654480,"current_range_meters":16000,"station_id":"ce4bgup2rcd13ifvqco0","pricing_plan_id":"cebpf4jnsgd1na2vs0mg"},{"bike_id":"08b0fdf8-fa3b-4308-b16b-286aa262ab70","system_id":"levelo_inurba_marseille","lat":43.30217,"lon":5.39467,"is_reserved":false,"is_disabled":false,"rental_uris":{"android":"levelo://app?vid=08b0fdf8-fa3b-4308-b16b-286aa262ab70","ios":"levelo://app?vid=08b0fdf8-fa3b-4308-b16b-286aa262ab70"},"vehicle_type_id":"4","last_reported":1740654480,"current_range_meters":16000,"station_id":"ce4bh0p2rcd13ifvqd70","pricing_plan_id":"cebpf4jnsgd1na2vs0mg"},{"bike_id":"06898cd5-0822-42c1-9310-8a1f4157ae11","system_id":"levelo_inurba_marseille","lat":43.29445,"lon":5.3975,"is_reserved":false,"is_disabled":false,"rental_uris":{"android":"levelo://app?vid=06898cd5-0822-42c1-9310-8a1f4157ae11","ios":"levelo://app?vid=06898cd5-0822-42c1-9310-8a1f4157ae11"},"vehicle_type_id":"4","last_reported":1740654480,"current_range_meters":16000,"station_id":"ce4bh3h2rcd13ifvqdo0","pricing_plan_id":"cebpf4jnsgd1na2vs0mg"},{"bike_id":"d7369b96-8880-4f65-8171-1d8cad5a9f18","system_id":"levelo_inurba_marseille","lat":43.337444,"lon":5.374475,"is_reserved":false,"is_disabled":false,"rental_uris":{"android":"levelo://app?vid=d7369b96-8880-4f65-8171-1d8cad5a9f18","ios":"levelo://app?vid=d7369b96-8880-4f65-8171-1d8cad5a9f18"},"vehicle_type_id":"4","last_reported":1740654480,"current_range_meters":16000,"station_id":"ce4bhah2rcd13ifvqei0","pricing_plan_id":"cebpf4jnsgd1na2vs0mg"},{"bike_id":"de3dd520-4f22-4b6d-baff-89261beca698","system_id":"levelo_inurba_marseille","lat":43.28423,"lon":5.34977,"is_reserved":false,"is_disabled":false,"rental_uris":{"android":"levelo://app?vid=de3dd520-4f22-4b6d-baff-89261beca698","ios":"levelo://app?vid=de3dd520-4f22-4b6d-baff-89261beca698"},"vehicle_type_id":"4","last_reported":1740654480,"current_range_meters":16000,"station_id":"ce4bhbh2rcd13ifvqepg","pricing_plan_id":"cebpf4jnsgd1na2vs0mg"},{"bike_id":"2e985d8a-d719-4178-8316-55556024a438","system_id":"levelo_inurba_marseille","lat":43.25001,"lon":5.38927,"is_reserved":false,"is_disabled":false,"rental_uris":{"android":"levelo://app?vid=2e985d8a-d719-4178-8316-55556024a438","ios":"levelo://app?vid=2e985d8a-d719-4178-8316-55556024a438"},"vehicle_type_id":"4","last_reported":1740654480,"current_range_meters":16000,"station_id":"ce4bhgp2rcd13ifvqfd0","pricing_plan_id":"cebpf4jnsgd1na2vs0mg"},{"bike_id":"31c58e5d-9342-432b-b32a-4dfcdf1667fa","system_id":"levelo_inurba_marseille","lat":43.24402,"lon":5.37058,"is_reserved":false,"is_disabled":false,"rental_uris":{"android":"levelo://app?vid=31c58e5d-9342-432b-b32a-4dfcdf1667fa","ios":"levelo://app?vid=31c58e5d-9342-432b-b32a-4dfcdf1667fa"},"vehicle_type_id":"4","last_reported":1740654480,"current_range_meters":16000,"station_id":"ce4bhhh2rcd13ifvqfk0","pricing_plan_id":"cebpf4jnsgd1na2vs0mg"},{"bike_id":"d337cc62-b29d-4e4a-bd4f-e767bd643d41","system_id":"levelo_inurba_marseille","lat":43.32134,"lon":5.36809,"is_reserved":false,"is_disabled":false,"rental_uris":{"android":"levelo://app?vid=d337cc62-b29d-4e4a-bd4f-e767bd643d41","ios":"levelo://app?vid=d337cc62-b29d-4e4a-bd4f-e767bd643d41"},"vehicle_type_id":"4","last_reported":1740654480,"current_range_meters":16000,"station_id":"ce4bhrh2rcd13ifvqhug","pricing_plan_id":"cebpf4jnsgd1na2vs0mg"},{"bike_id":"ef77bf7f-5b88-41c9-8d3b-c8c9c0447dd9","system_id":"levelo_inurba_marseille","lat":43.28062,"lon":5.35046,"is_reserved":false,"is_disabled":false,"rental_uris":{"android":"levelo://app?vid=ef77bf7f-5b88-41c9-8d3b-c8c9c0447dd9","ios":"levelo://app?vid=ef77bf7f-5b88-41c9-8d3b-c8c9c0447dd9"},"vehicle_type_id":"4","last_reported":1740654480,"current_range_meters":16400,"station_id":"","pricing_plan_id":"cebpf4jnsgd1na2vs0mg"},{"bike_id":"322b4ad3-46bf-4b03-9f85-72dc136cdb3a","system_id":"levelo_inurba_marseille","lat":43.31245,"lon":5.36862,"is_reserved":false,"is_disabled":false,"rental_uris":{"android":"levelo://app?vid=322b4ad3-46bf-4b03-9f85-72dc136cdb3a","ios":"levelo://app?vid=322b4ad3-46bf-4b03-9f85-72dc136cdb3a"},"vehicle_type_id":"4","last_reported":1740654480,"current_range_meters":16400,"station_id":"ce4bgl92rcd13ifvqbq0","pricing_plan_id":"cebpf4jnsgd1na2vs0mg"},{"bike_id":"db969468-b380-4e55-a026-273e3aaa7506","system_id":"levelo_inurba_marseille","lat":43.313587,"lon":5.367387,"is_reserved":false,"is_disabled":false,"rental_uris":{"android":"levelo://app?vid=db969468-b380-4e55-a026-273e3aaa7506","ios":"levelo://app?vid=db969468-b380-4e55-a026-273e3aaa7506"},"vehicle_type_id":"4","last_reported":1740654480,"current_range_meters":16400,"station_id":"ce4bgr92rcd13ifvqc6g","pricing_plan_id":"cebpf4jnsgd1na2vs0mg"},{"bike_id":"47a3d411-4da5-4dfa-8532-893d91aa4b12","system_id":"levelo_inurba_marseille","lat":43.28496,"lon":5.38444,"is_reserved":false,"is_disabled":false,"rental_uris":{"android":"levelo://app?vid=47a3d411-4da5-4dfa-8532-893d91aa4b12","ios":"levelo://app?vid=47a3d411-4da5-4dfa-8532-893d91aa4b12"},"vehicle_type_id":"4","last_reported":1740654480,"current_range_meters":16400,"station_id":"ce4bh512rcd13ifvqe3g","pricing_plan_id":"cebpf4jnsgd1na2vs0mg"},{"bike_id":"7b938360-270f-4c42-adad-7d042b87fd03","system_id":"levelo_inurba_marseille","lat":43.24664,"lon":5.38156,"is_reserved":false,"is_disabled":false,"rental_uris":{"android":"levelo://app?vid=7b938360-270f-4c42-adad-7d042b87fd03","ios":"levelo://app?vid=7b938360-270f-4c42-adad-7d042b87fd03"},"vehicle_type_id":"4","last_reported":1740654480,"current_range_meters":16400,"station_id":"ce4bhih2rcd13ifvqfr0","pricing_plan_id":"cebpf4jnsgd1na2vs0mg"},{"bike_id":"fb70dea8-fe5e-4f29-a636-7a21a96df401","system_id":"levelo_inurba_marseille","lat":43.25592,"lon":5.38244,"is_reserved":false,"is_disabled":false,"rental_uris":{"android":"levelo://app?vid=fb70dea8-fe5e-4f29-a636-7a21a96df401","ios":"levelo://app?vid=fb70dea8-fe5e-4f29-a636-7a21a96df401"},"vehicle_type_id":"4","last_reported":1740654480,"current_range_meters":16400,"station_id":"ce4bhih2rcd13ifvqfs0","pricing_plan_id":"cebpf4jnsgd1na2vs0mg"},{"bike_id":"d4918d6a-5525-4be8-b0c4-7af64b54343d","system_id":"levelo_inurba_marseille","lat":43.241648,"lon":5.364278,"is_reserved":false,"is_disabled":false,"rental_uris":{"android":"levelo://app?vid=d4918d6a-5525-4be8-b0c4-7af64b54343d","ios":"levelo://app?vid=d4918d6a-5525-4be8-b0c4-7af64b54343d"},"vehicle_type_id":"4","last_reported":1740654480,"current_range_meters":16400,"station_id":"cpo36qri1sfpv3e86is0","pricing_plan_id":"cebpf4jnsgd1na2vs0mg"},{"bike_id":"7cf7b894-d393-4f1a-903c-6b57f99cdc54","system_id":"levelo_inurba_marseille","lat":43.26407,"lon":5.38431,"is_reserved":false,"is_disabled":false,"rental_uris":{"android":"levelo://app?vid=7cf7b894-d393-4f1a-903c-6b57f99cdc54","ios":"levelo://app?vid=7cf7b894-d393-4f1a-903c-6b57f99cdc54"},"vehicle_type_id":"4","last_reported":1740654480,"current_range_meters":16800,"station_id":"","pricing_plan_id":"cebpf4jnsgd1na2vs0mg"},{"bike_id":"b4f578c0-5b33-48ef-a584-68beef8afcea","system_id":"levelo_inurba_marseille","lat":43.30598,"lon":5.37231,"is_reserved":false,"is_disabled":false,"rental_uris":{"android":"levelo://app?vid=b4f578c0-5b33-48ef-a584-68beef8afcea","ios":"levelo://app?vid=b4f578c0-5b33-48ef-a584-68beef8afcea"},"vehicle_type_id":"4","last_reported":1740654480,"current_range_meters":16800,"station_id":"ce4bgqh2rcd13ifvqc4g","pricing_plan_id":"cebpf4jnsgd1na2vs0mg"},{"bike_id":"f8d94334-b5af-41e5-9e37-b48b1bc135ec","system_id":"levelo_inurba_marseille","lat":43.30308,"lon":5.36912,"is_reserved":false,"is_disabled":false,"rental_uris":{"android":"levelo://app?vid=f8d94334-b5af-41e5-9e37-b48b1bc135ec","ios":"levelo://app?vid=f8d94334-b5af-41e5-9e37-b48b1bc135ec"},"vehicle_type_id":"4","last_reported":1740654480,"current_range_meters":16800,"station_id":"ce4bgqh2rcd13ifvqc5g","pricing_plan_id":"cebpf4jnsgd1na2vs0mg"},{"bike_id":"a811d308-f951-4e38-8470-ab3be7cef06c","system_id":"levelo_inurba_marseille","lat":43.28458,"lon":5.35889,"is_reserved":false,"is_disabled":false,"rental_uris":{"android":"levelo://app?vid=a811d308-f951-4e38-8470-ab3be7cef06c","ios":"levelo://app?vid=a811d308-f951-4e38-8470-ab3be7cef06c"},"vehicle_type_id":"4","last_reported":1740654480,"current_range_meters":16800,"station_id":"ce4bhah2rcd13ifvqei0","pricing_plan_id":"cebpf4jnsgd1na2vs0mg"},{"bike_id":"304df838-b133-4174-bfb6-4755460cc02a","system_id":"levelo_inurba_marseille","lat":43.286191,"lon":5.351072,"is_reserved":false,"is_disabled":false,"rental_uris":{"android":"levelo://app?vid=304df838-b133-4174-bfb6-4755460cc02a","ios":"levelo://app?vid=304df838-b133-4174-bfb6-4755460cc02a"},"vehicle_type_id":"4","last_reported":1740654480,"current_range_meters":16800,"station_id":"ce4bhch2rcd13ifvqeug","pricing_plan_id":"cebpf4jnsgd1na2vs0mg"},{"bike_id":"627f9d50-99ab-4386-b5d3-b08940f1d52a","system_id":"levelo_inurba_marseille","lat":43.2559,"lon":5.38248,"is_reserved":false,"is_disabled":false,"rental_uris":{"android":"levelo://app?vid=627f9d50-99ab-4386-b5d3-b08940f1d52a","ios":"levelo://app?vid=627f9d50-99ab-4386-b5d3-b08940f1d52a"},"vehicle_type_id":"4","last_reported":1740654480,"current_range_meters":16800,"station_id":"ce4bhih2rcd13ifvqfs0","pricing_plan_id":"cebpf4jnsgd1na2vs0mg"},{"bike_id":"3f5e4c77-943b-4a46-b257-614bf13afec4","system_id":"levelo_inurba_marseille","lat":43.24163,"lon":5.36414,"is_reserved":false,"is_disabled":false,"rental_uris":{"android":"levelo://app?vid=3f5e4c77-943b-4a46-b257-614bf13afec4","ios":"levelo://app?vid=3f5e4c77-943b-4a46-b257-614bf13afec4"},"vehicle_type_id":"4","last_reported":1740654480,"current_range_meters":16800,"station_id":"cpo36qri1sfpv3e86is0","pricing_plan_id":"cebpf4jnsgd1na2vs0mg"},{"bike_id":"a2035f8a-71d6-4907-9d48-9df7f337d1f0","system_id":"levelo_inurba_marseille","lat":43.31443,"lon":5.36661,"is_reserved":false,"is_disabled":false,"rental_uris":{"android":"levelo://app?vid=a2035f8a-71d6-4907-9d48-9df7f337d1f0","ios":"levelo://app?vid=a2035f8a-71d6-4907-9d48-9df7f337d1f0"},"vehicle_type_id":"4","last_reported":1740654480,"current_range_meters":17200,"station_id":"","pricing_plan_id":"cebpf4jnsgd1na2vs0mg"},{"bike_id":"8e100345-e773-4b5f-aa04-a4e55e7b32d1","system_id":"levelo_inurba_marseille","lat":43.31503,"lon":5.37285,"is_reserved":false,"is_disabled":false,"rental_uris":{"android":"levelo://app?vid=8e100345-e773-4b5f-aa04-a4e55e7b32d1","ios":"levelo://app?vid=8e100345-e773-4b5f-aa04-a4e55e7b32d1"},"vehicle_type_id":"4","last_reported":1740654480,"current_range_meters":17200,"station_id":"ce4bgt12rcd13ifvqcd0","pricing_plan_id":"cebpf4jnsgd1na2vs0mg"},{"bike_id":"456d5943-580a-47a5-a590-96d37d45c229","system_id":"levelo_inurba_marseille","lat":43.3047,"lon":5.37908,"is_reserved":false,"is_disabled":false,"rental_uris":{"android":"levelo://app?vid=456d5943-580a-47a5-a590-96d37d45c229","ios":"levelo://app?vid=456d5943-580a-47a5-a590-96d37d45c229"},"vehicle_type_id":"4","last_reported":1740654480,"current_range_meters":17200,"station_id":"ce4bgup2rcd13ifvqcn0","pricing_plan_id":"cebpf4jnsgd1na2vs0mg"},{"bike_id":"d0329c6f-4ac5-48c0-9424-cb69de3c0383","system_id":"levelo_inurba_marseille","lat":43.30146,"lon":5.39847,"is_reserved":false,"is_disabled":false,"rental_uris":{"android":"levelo://app?vid=d0329c6f-4ac5-48c0-9424-cb69de3c0383","ios":"levelo://app?vid=d0329c6f-4ac5-48c0-9424-cb69de3c0383"},"vehicle_type_id":"4","last_reported":1740654480,"current_range_meters":17200,"station_id":"ce4bh0h2rcd13ifvqd40","pricing_plan_id":"cebpf4jnsgd1na2vs0mg"},{"bike_id":"a2461823-f180-4d28-ba95-f17aaf006e7f","system_id":"levelo_inurba_marseille","lat":43.28937,"lon":5.39626,"is_reserved":false,"is_disabled":false,"rental_uris":{"android":"levelo://app?vid=a2461823-f180-4d28-ba95-f17aaf006e7f","ios":"levelo://app?vid=a2461823-f180-4d28-ba95-f17aaf006e7f"},"vehicle_type_id":"4","last_reported":1740654480,"current_range_meters":17200,"station_id":"ce4bh3h2rcd13ifvqdn0","pricing_plan_id":"cebpf4jnsgd1na2vs0mg"},{"bike_id":"259343ec-4f79-4108-a92c-cc49339a7291","system_id":"levelo_inurba_marseille","lat":43.28661,"lon":5.36357,"is_reserved":false,"is_disabled":false,"rental_uris":{"android":"levelo://app?vid=259343ec-4f79-4108-a92c-cc49339a7291","ios":"levelo://app?vid=259343ec-4f79-4108-a92c-cc49339a7291"},"vehicle_type_id":"4","last_reported":1740654480,"current_range_meters":17200,"station_id":"ce4bhah2rcd13ifvqej0","pricing_plan_id":"cebpf4jnsgd1na2vs0mg"},{"bike_id":"43d6aa6f-20c7-4a1b-bcb8-31b660876567","system_id":"levelo_inurba_marseille","lat":43.26553,"lon":5.37288,"is_reserved":false,"is_disabled":false,"rental_uris":{"android":"levelo://app?vid=43d6aa6f-20c7-4a1b-bcb8-31b660876567","ios":"levelo://app?vid=43d6aa6f-20c7-4a1b-bcb8-31b660876567"},"vehicle_type_id":"4","last_reported":1740654480,"current_range_meters":17200,"station_id":"ce4bhg12rcd13ifvqf70","pricing_plan_id":"cebpf4jnsgd1na2vs0mg"},{"bike_id":"ae72f781-057c-4421-a7a6-402c37b2e53e","system_id":"levelo_inurba_marseille","lat":43.33029,"lon":5.39032,"is_reserved":false,"is_disabled":false,"rental_uris":{"android":"levelo://app?vid=ae72f781-057c-4421-a7a6-402c37b2e53e","ios":"levelo://app?vid=ae72f781-057c-4421-a7a6-402c37b2e53e"},"vehicle_type_id":"4","last_reported":1740654480,"current_range_meters":17200,"station_id":"ce4bhr92rcd13ifvqhrg","pricing_plan_id":"cebpf4jnsgd1na2vs0mg"},{"bike_id":"a9da3dc9-ca2e-494e-9892-84cc0468751b","system_id":"levelo_inurba_marseille","lat":43.324808,"lon":5.36562,"is_reserved":false,"is_disabled":false,"rental_uris":{"android":"levelo://app?vid=a9da3dc9-ca2e-494e-9892-84cc0468751b","ios":"levelo://app?vid=a9da3dc9-ca2e-494e-9892-84cc0468751b"},"vehicle_type_id":"4","last_reported":1740654480,"current_range_meters":17200,"station_id":"ce4bhs12rcd13ifvqhvg","pricing_plan_id":"cebpf4jnsgd1na2vs0mg"},{"bike_id":"9f5ee7b6-5523-44e9-bd74-aa932169a7a5","system_id":"levelo_inurba_marseille","lat":43.31389,"lon":5.36719,"is_reserved":false,"is_disabled":false,"rental_uris":{"android":"levelo://app?vid=9f5ee7b6-5523-44e9-bd74-aa932169a7a5","ios":"levelo://app?vid=9f5ee7b6-5523-44e9-bd74-aa932169a7a5"},"vehicle_type_id":"4","last_reported":1740654480,"current_range_meters":17600,"station_id":"","pricing_plan_id":"cebpf4jnsgd1na2vs0mg"},{"bike_id":"16657fa1-03c6-49ec-a407-f3061564a488","system_id":"levelo_inurba_marseille","lat":43.2621,"lon":5.405,"is_reserved":false,"is_disabled":false,"rental_uris":{"android":"levelo://app?vid=16657fa1-03c6-49ec-a407-f3061564a488","ios":"levelo://app?vid=16657fa1-03c6-49ec-a407-f3061564a488"},"vehicle_type_id":"4","last_reported":1740654480,"current_range_meters":17600,"station_id":"ce4bhmh2rcd13ifvqgmg","pricing_plan_id":"cebpf4jnsgd1na2vs0mg"},{"bike_id":"ee45b71b-7d36-4722-afd1-6f3b4db6af3f","system_id":"levelo_inurba_marseille","lat":43.23158,"lon":5.43704,"is_reserved":false,"is_disabled":false,"rental_uris":{"android":"levelo://app?vid=ee45b71b-7d36-4722-afd1-6f3b4db6af3f","ios":"levelo://app?vid=ee45b71b-7d36-4722-afd1-6f3b4db6af3f"},"vehicle_type_id":"4","last_reported":1740654480,"current_range_meters":17600,"station_id":"ce4bhmp2rcd13ifvqgog","pricing_plan_id":"cebpf4jnsgd1na2vs0mg"},{"bike_id":"d581466d-22ef-4f95-abfa-8e4b16c3bd56","system_id":"levelo_inurba_marseille","lat":43.23154,"lon":5.43713,"is_reserved":false,"is_disabled":false,"rental_uris":{"android":"levelo://app?vid=d581466d-22ef-4f95-abfa-8e4b16c3bd56","ios":"levelo://app?vid=d581466d-22ef-4f95-abfa-8e4b16c3bd56"},"vehicle_type_id":"4","last_reported":1740654480,"current_range_meters":17600,"station_id":"ce4bhmp2rcd13ifvqgog","pricing_plan_id":"cebpf4jnsgd1na2vs0mg"},{"bike_id":"4380a28f-e631-41db-9523-e3bc2367fcc4","system_id":"levelo_inurba_marseille","lat":43.24089,"lon":5.37751,"is_reserved":false,"is_disabled":false,"rental_uris":{"android":"levelo://app?vid=4380a28f-e631-41db-9523-e3bc2367fcc4","ios":"levelo://app?vid=4380a28f-e631-41db-9523-e3bc2367fcc4"},"vehicle_type_id":"4","last_reported":1740654480,"current_range_meters":17600,"station_id":"ce4bhnp2rcd13ifvqgvg","pricing_plan_id":"cebpf4jnsgd1na2vs0mg"},{"bike_id":"086d7aa7-e301-4d46-b820-623c8b1bfc75","system_id":"levelo_inurba_marseille","lat":43.29247,"lon":5.37631,"is_reserved":false,"is_disabled":false,"rental_uris":{"android":"levelo://app?vid=086d7aa7-e301-4d46-b820-623c8b1bfc75","ios":"levelo://app?vid=086d7aa7-e301-4d46-b820-623c8b1bfc75"},"vehicle_type_id":"4","last_reported":1740654480,"current_range_meters":18000,"station_id":"ce4bgi12rcd13ifvqb80","pricing_plan_id":"cebpf4jnsgd1na2vs0mg"},{"bike_id":"4c0d75b3-2f2f-43b3-baef-581da01c628e","system_id":"levelo_inurba_marseille","lat":43.3019,"lon":5.36613,"is_reserved":false,"is_disabled":false,"rental_uris":{"android":"levelo://app?vid=4c0d75b3-2f2f-43b3-baef-581da01c628e","ios":"levelo://app?vid=4c0d75b3-2f2f-43b3-baef-581da01c628e"},"vehicle_type_id":"4","last_reported":1740654480,"current_range_meters":18000,"station_id":"ce4bgrh2rcd13ifvqc8g","pricing_plan_id":"cebpf4jnsgd1na2vs0mg"},{"bike_id":"e283a81c-9a0b-4a3a-92cd-0520006cca50","system_id":"levelo_inurba_marseille","lat":43.30087,"lon":5.39078,"is_reserved":false,"is_disabled":false,"rental_uris":{"android":"levelo://app?vid=e283a81c-9a0b-4a3a-92cd-0520006cca50","ios":"levelo://app?vid=e283a81c-9a0b-4a3a-92cd-0520006cca50"},"vehicle_type_id":"4","last_reported":1740654480,"current_range_meters":18000,"station_id":"ce4bh192rcd13ifvqdb0","pricing_plan_id":"cebpf4jnsgd1na2vs0mg"},{"bike_id":"24476cb6-9c12-4997-ab8d-8cfe9d8b4bb4","system_id":"levelo_inurba_marseille","lat":43.28618,"lon":5.35103,"is_reserved":false,"is_disabled":false,"rental_uris":{"android":"levelo://app?vid=24476cb6-9c12-4997-ab8d-8cfe9d8b4bb4","ios":"levelo://app?vid=24476cb6-9c12-4997-ab8d-8cfe9d8b4bb4"},"vehicle_type_id":"4","last_reported":1740654480,"current_range_meters":18000,"station_id":"ce4bhch2rcd13ifvqeug","pricing_plan_id":"cebpf4jnsgd1na2vs0mg"},{"bike_id":"8406ce30-4a26-418c-ab68-0d733d43b9d9","system_id":"levelo_inurba_marseille","lat":43.266,"lon":5.39016,"is_reserved":false,"is_disabled":false,"rental_uris":{"android":"levelo://app?vid=8406ce30-4a26-418c-ab68-0d733d43b9d9","ios":"levelo://app?vid=8406ce30-4a26-418c-ab68-0d733d43b9d9"},"vehicle_type_id":"4","last_reported":1740654480,"current_range_meters":18000,"station_id":"ce4bhe12rcd13ifvqf30","pricing_plan_id":"cebpf4jnsgd1na2vs0mg"},{"bike_id":"852d9e7a-5bff-41ba-8baf-a0e349a4142b","system_id":"levelo_inurba_marseille","lat":43.239684,"lon":5.366272,"is_reserved":false,"is_disabled":false,"rental_uris":{"android":"levelo://app?vid=852d9e7a-5bff-41ba-8baf-a0e349a4142b","ios":"levelo://app?vid=852d9e7a-5bff-41ba-8baf-a0e349a4142b"},"vehicle_type_id":"4","last_reported":1740654480,"current_range_meters":18000,"station_id":"ce4bhi12rcd13ifvqfp0","pricing_plan_id":"cebpf4jnsgd1na2vs0mg"},{"bike_id":"a9757b2e-0188-4e2f-9062-079c74f7d4d4","system_id":"levelo_inurba_marseille","lat":43.25579,"lon":5.38245,"is_reserved":false,"is_disabled":false,"rental_uris":{"android":"levelo://app?vid=a9757b2e-0188-4e2f-9062-079c74f7d4d4","ios":"levelo://app?vid=a9757b2e-0188-4e2f-9062-079c74f7d4d4"},"vehicle_type_id":"4","last_reported":1740654480,"current_range_meters":18000,"station_id":"ce4bhih2rcd13ifvqfs0","pricing_plan_id":"cebpf4jnsgd1na2vs0mg"},{"bike_id":"fc91efbf-8293-4d81-a434-e801ce713165","system_id":"levelo_inurba_marseille","lat":43.32545,"lon":5.41424,"is_reserved":false,"is_disabled":false,"rental_uris":{"android":"levelo://app?vid=fc91efbf-8293-4d81-a434-e801ce713165","ios":"levelo://app?vid=fc91efbf-8293-4d81-a434-e801ce713165"},"vehicle_type_id":"4","last_reported":1740654480,"current_range_meters":18000,"station_id":"ce4bhq12rcd13ifvqhhg","pricing_plan_id":"cebpf4jnsgd1na2vs0mg"},{"bike_id":"d95ed205-f847-4a1b-ba58-fbca887b6d62","system_id":"levelo_inurba_marseille","lat":43.32445,"lon":5.36553,"is_reserved":false,"is_disabled":false,"rental_uris":{"android":"levelo://app?vid=d95ed205-f847-4a1b-ba58-fbca887b6d62","ios":"levelo://app?vid=d95ed205-f847-4a1b-ba58-fbca887b6d62"},"vehicle_type_id":"4","last_reported":1740654480,"current_range_meters":18000,"station_id":"ce4bhs12rcd13ifvqhvg","pricing_plan_id":"cebpf4jnsgd1na2vs0mg"},{"bike_id":"394ad06d-cd07-47bf-9d20-d3a92d1d606b","system_id":"levelo_inurba_marseille","lat":43.22933,"lon":5.35372,"is_reserved":false,"is_disabled":false,"rental_uris":{"android":"levelo://app?vid=394ad06d-cd07-47bf-9d20-d3a92d1d606b","ios":"levelo://app?vid=394ad06d-cd07-47bf-9d20-d3a92d1d606b"},"vehicle_type_id":"4","last_reported":1740654480,"current_range_meters":18000,"station_id":"cpo3532slgdg3j2ikp40","pricing_plan_id":"cebpf4jnsgd1na2vs0mg"},{"bike_id":"ad7f994d-dcbb-4b9f-a1d4-48998b8eb7dc","system_id":"levelo_inurba_marseille","lat":43.29591,"lon":5.38023,"is_reserved":false,"is_disabled":false,"rental_uris":{"android":"levelo://app?vid=ad7f994d-dcbb-4b9f-a1d4-48998b8eb7dc","ios":"levelo://app?vid=ad7f994d-dcbb-4b9f-a1d4-48998b8eb7dc"},"vehicle_type_id":"4","last_reported":1740654480,"current_range_meters":18800,"station_id":"","pricing_plan_id":"cebpf4jnsgd1na2vs0mg"},{"bike_id":"a17a4d09-4bdd-4df6-bebd-1aa821664801","system_id":"levelo_inurba_marseille","lat":43.317553,"lon":5.387126,"is_reserved":false,"is_disabled":false,"rental_uris":{"android":"levelo://app?vid=a17a4d09-4bdd-4df6-bebd-1aa821664801","ios":"levelo://app?vid=a17a4d09-4bdd-4df6-bebd-1aa821664801"},"vehicle_type_id":"4","last_reported":1740654480,"current_range_meters":18800,"station_id":"","pricing_plan_id":"cebpf4jnsgd1na2vs0mg"},{"bike_id":"e59b342b-0d34-4634-a685-379936ef0c6f","system_id":"levelo_inurba_marseille","lat":43.2958,"lon":5.37485,"is_reserved":false,"is_disabled":false,"rental_uris":{"android":"levelo://app?vid=e59b342b-0d34-4634-a685-379936ef0c6f","ios":"levelo://app?vid=e59b342b-0d34-4634-a685-379936ef0c6f"},"vehicle_type_id":"4","last_reported":1740654480,"current_range_meters":18800,"station_id":"ce4bgn12rcd13ifvqbt0","pricing_plan_id":"cebpf4jnsgd1na2vs0mg"},{"bike_id":"adb00dfe-d451-4af9-81da-4c4cab1ba78a","system_id":"levelo_inurba_marseille","lat":43.30468,"lon":5.37896,"is_reserved":false,"is_disabled":false,"rental_uris":{"android":"levelo://app?vid=adb00dfe-d451-4af9-81da-4c4cab1ba78a","ios":"levelo://app?vid=adb00dfe-d451-4af9-81da-4c4cab1ba78a"},"vehicle_type_id":"4","last_reported":1740654480,"current_range_meters":18800,"station_id":"ce4bgup2rcd13ifvqcn0","pricing_plan_id":"cebpf4jnsgd1na2vs0mg"},{"bike_id":"bb36d583-81f8-4ae9-98e0-13fd70340309","system_id":"levelo_inurba_marseille","lat":43.31324,"lon":5.39689,"is_reserved":false,"is_disabled":false,"rental_uris":{"android":"levelo://app?vid=bb36d583-81f8-4ae9-98e0-13fd70340309","ios":"levelo://app?vid=bb36d583-81f8-4ae9-98e0-13fd70340309"},"vehicle_type_id":"4","last_reported":1740654480,"current_range_meters":18800,"station_id":"ce4bgvp2rcd13ifvqcu0","pricing_plan_id":"cebpf4jnsgd1na2vs0mg"},{"bike_id":"3385e8da-a009-4bd0-a431-294122d88259","system_id":"levelo_inurba_marseille","lat":43.30601,"lon":5.39347,"is_reserved":false,"is_disabled":false,"rental_uris":{"android":"levelo://app?vid=3385e8da-a009-4bd0-a431-294122d88259","ios":"levelo://app?vid=3385e8da-a009-4bd0-a431-294122d88259"},