{"last_updated":1730823075,"ttl":60,"version":"2.2","data":{"bikes":[{"bike_id":"c695f9cb-53bc-4a9a-9bbf-0723ea45b9c0","system_id":"levelo_inurba_marseille","lat":43.32656,"lon":5.4096,"is_reserved":false,"is_disabled":false,"rental_uris":{"android":"levelo://app?vid=c695f9cb-53bc-4a9a-9bbf-0723ea45b9c0","ios":"levelo://app?vid=c695f9cb-53bc-4a9a-9bbf-0723ea45b9c0"},"vehicle_type_id":"4","last_reported":1730823075,"current_range_meters":9600,"station_id":"ce4bhpp2rcd13ifvqhgg","pricing_plan_id":"cebpf4jnsgd1na2vs0mg"},{"bike_id":"bec869f9-2cb6-44b5-9a18-da8b6f37ece7","system_id":"levelo_inurba_marseille","lat":43.31362,"lon":5.38504,"is_reserved":false,"is_disabled":false,"rental_uris":{"android":"levelo://app?vid=bec869f9-2cb6-44b5-9a18-da8b6f37ece7","ios":"levelo://app?vid=bec869f9-2cb6-44b5-9a18-da8b6f37ece7"},"vehicle_type_id":"4","last_reported":1730823075,"current_range_meters":38800,"station_id":"ce4bgt92rcd13ifvqcf0","pricing_plan_id":"cebpf4jnsgd1na2vs0mg"},{"bike_id":"b564df92-2505-47ed-837e-f41cd5b8d8f4","system_id":"levelo_inurba_marseille","lat":43.25086,"lon":5.39529,"is_reserved":false,"is_disabled":false,"rental_uris":{"android":"levelo://app?vid=b564df92-2505-47ed-837e-f41cd5b8d8f4","ios":"levelo://app?vid=b564df92-2505-47ed-837e-f41cd5b8d8f4"},"vehicle_type_id":"4","last_reported":1730823075,"current_range_meters":19600,"station_id":"ce4bhm12rcd13ifvqgkg","pricing_plan_id":"cebpf4jnsgd1na2vs0mg"},{"bike_id":"c09de676-a887-4021-b103-7f53d429ce68","system_id":"levelo_inurba_marseille","lat":43.27618,"lon":5.36113,"is_reserved":false,"is_disabled":false,"rental_uris":{"android":"levelo://app?vid=c09de676-a887-4021-b103-7f53d429ce68","ios":"levelo://app?vid=c09de676-a887-4021-b103-7f53d429ce68"},"vehicle_type_id":"4","last_reported":1730823075,"current_range_meters":20000,"station_id":"ce4bgj92rcd13ifvqbe0","pricing_plan_id":"cebpf4jnsgd1na2vs0mg"},{"bike_id":"aaa08d67-4d25-4554-8698-a09bb1536d25","system_id":"levelo_inurba_marseille","lat":43.30893,"lon":5.37193,"is_reserved":false,"is_disabled":false,"rental_uris":{"android":"levelo://app?vid=aaa08d67-4d25-4554-8698-a09bb1536d25","ios":"levelo://app?vid=aaa08d67-4d25-4554-8698-a09bb1536d25"},"vehicle_type_id":"4","last_reported":1730823075,"current_range_meters":19200,"station_id":"ce4bguh2rcd13ifvqckg","pricing_plan_id":"cebpf4jnsgd1na2vs0mg"},{"bike_id":"2f421261-a528-4395-8a49-c894b9963f0b","system_id":"levelo_inurba_marseille","lat":43.30132,"lon":5.39898,"is_reserved":false,"is_disabled":false,"rental_uris":{"android":"levelo://app?vid=2f421261-a528-4395-8a49-c894b9963f0b","ios":"levelo://app?vid=2f421261-a528-4395-8a49-c894b9963f0b"},"vehicle_type_id":"4","last_reported":1730823075,"current_range_meters":26800,"station_id":"ce4bh0h2rcd13ifvqd40","pricing_plan_id":"cebpf4jnsgd1na2vs0mg"},{"bike_id":"15180df8-84a9-400c-a4c9-61688c31e94e","system_id":"levelo_inurba_marseille","lat":43.29715,"lon":5.36604,"is_reserved":false,"is_disabled":false,"rental_uris":{"android":"levelo://app?vid=15180df8-84a9-400c-a4c9-61688c31e94e","ios":"levelo://app?vid=15180df8-84a9-400c-a4c9-61688c31e94e"},"vehicle_type_id":"4","last_reported":1730823075,"current_range_meters":38800,"station_id":"ce4bgn12rcd13ifvqbt0","pricing_plan_id":"cebpf4jnsgd1na2vs0mg"},{"bike_id":"1a95c07e-f0d0-4309-b700-93ebbb2520ab","system_id":"levelo_inurba_marseille","lat":43.28717,"lon":5.36091,"is_reserved":false,"is_disabled":false,"rental_uris":{"android":"levelo://app?vid=1a95c07e-f0d0-4309-b700-93ebbb2520ab","ios":"levelo://app?vid=1a95c07e-f0d0-4309-b700-93ebbb2520ab"},"vehicle_type_id":"4","last_reported":1730823075,"current_range_meters":26000,"station_id":"cki0cbj6b192h4jlfktg","pricing_plan_id":"cebpf4jnsgd1na2vs0mg"},{"bike_id":"47188366-9ba1-4e2e-907e-c2a5c3fd8c31","system_id":"levelo_inurba_marseille","lat":43.313615,"lon":5.36708,"is_reserved":false,"is_disabled":false,"rental_uris":{"android":"levelo://app?vid=47188366-9ba1-4e2e-907e-c2a5c3fd8c31","ios":"levelo://app?vid=47188366-9ba1-4e2e-907e-c2a5c3fd8c31"},"vehicle_type_id":"4","last_reported":1730823075,"current_range_meters":38800,"station_id":"ce4bgr92rcd13ifvqc6g","pricing_plan_id":"cebpf4jnsgd1na2vs0mg"},{"bike_id":"af09d799-a9df-41c4-b436-c13d61a733ed","system_id":"levelo_inurba_marseille","lat":43.2988,"lon":5.3973,"is_reserved":false,"is_disabled":false,"rental_uris":{"android":"levelo://app?vid=af09d799-a9df-41c4-b436-c13d61a733ed","ios":"levelo://app?vid=af09d799-a9df-41c4-b436-c13d61a733ed"},"vehicle_type_id":"4","last_reported":1730823075,"current_range_meters":39200,"station_id":"ce4bh0h2rcd13ifvqd50","pricing_plan_id":"cebpf4jnsgd1na2vs0mg"},{"bike_id":"4147bbfb-4b14-4aca-b782-8ec6c0473609","system_id":"levelo_inurba_marseille","lat":43.23592,"lon":5.40346,"is_reserved":false,"is_disabled":false,"rental_uris":{"android":"levelo://app?vid=4147bbfb-4b14-4aca-b782-8ec6c0473609","ios":"levelo://app?vid=4147bbfb-4b14-4aca-b782-8ec6c0473609"},"vehicle_type_id":"4","last_reported":1730823075,"current_range_meters":8000,"station_id":"","pricing_plan_id":"cebpf4jnsgd1na2vs0mg"},{"bike_id":"fecbbca7-cd01-4827-9a54-e29f09227fd8","system_id":"levelo_inurba_marseille","lat":43.32105,"lon":5.36772,"is_reserved":false,"is_disabled":false,"rental_uris":{"android":"levelo://app?vid=fecbbca7-cd01-4827-9a54-e29f09227fd8","ios":"levelo://app?vid=fecbbca7-cd01-4827-9a54-e29f09227fd8"},"vehicle_type_id":"4","last_reported":1730823075,"current_range_meters":30400,"station_id":"ce4bhrh2rcd13ifvqhug","pricing_plan_id":"cebpf4jnsgd1na2vs0mg"},{"bike_id":"990246da-4caf-4fed-8596-7a019505d30e","system_id":"levelo_inurba_marseille","lat":43.26945,"lon":5.40249,"is_reserved":false,"is_disabled":false,"rental_uris":{"android":"levelo://app?vid=990246da-4caf-4fed-8596-7a019505d30e","ios":"levelo://app?vid=990246da-4caf-4fed-8596-7a019505d30e"},"vehicle_type_id":"4","last_reported":1730823075,"current_range_meters":17600,"station_id":"cjm6bp8fraef2m0cb0m0","pricing_plan_id":"cebpf4jnsgd1na2vs0mg"},{"bike_id":"ac1bd9f2-174f-40dc-be95-a396537c88b6","system_id":"levelo_inurba_marseille","lat":43.29613,"lon":5.37722,"is_reserved":false,"is_disabled":false,"rental_uris":{"android":"levelo://app?vid=ac1bd9f2-174f-40dc-be95-a396537c88b6","ios":"levelo://app?vid=ac1bd9f2-174f-40dc-be95-a396537c88b6"},"vehicle_type_id":"4","last_reported":1730823075,"current_range_meters":12800,"station_id":"ce4bgi92rcd13ifvqb90","pricing_plan_id":"cebpf4jnsgd1na2vs0mg"},{"bike_id":"7107e986-eda8-4d70-9d7c-3b10c8d9db07","system_id":"levelo_inurba_marseille","lat":43.30917,"lon":5.36844,"is_reserved":false,"is_disabled":false,"rental_uris":{"android":"levelo://app?vid=7107e986-eda8-4d70-9d7c-3b10c8d9db07","ios":"levelo://app?vid=7107e986-eda8-4d70-9d7c-3b10c8d9db07"},"vehicle_type_id":"4","last_reported":1730823075,"current_range_meters":38800,"station_id":"ce4bgn92rcd13ifvqbvg","pricing_plan_id":"cebpf4jnsgd1na2vs0mg"},{"bike_id":"a0b76f41-59fc-4a6b-861a-43a84a9e7078","system_id":"levelo_inurba_marseille","lat":43.30875,"lon":5.39639,"is_reserved":false,"is_disabled":false,"rental_uris":{"android":"levelo://app?vid=a0b76f41-59fc-4a6b-861a-43a84a9e7078","ios":"levelo://app?vid=a0b76f41-59fc-4a6b-861a-43a84a9e7078"},"vehicle_type_id":"4","last_reported":1730823075,"current_range_meters":38800,"station_id":"ce4bh012rcd13ifvqcv0","pricing_plan_id":"cebpf4jnsgd1na2vs0mg"},{"bike_id":"35d46972-faca-4525-a2d2-3f928f24f16c","system_id":"levelo_inurba_marseille","lat":43.24168,"lon":5.36402,"is_reserved":false,"is_disabled":false,"rental_uris":{"android":"levelo://app?vid=35d46972-faca-4525-a2d2-3f928f24f16c","ios":"levelo://app?vid=35d46972-faca-4525-a2d2-3f928f24f16c"},"vehicle_type_id":"4","last_reported":1730823075,"current_range_meters":36800,"station_id":"cpo36qri1sfpv3e86is0","pricing_plan_id":"cebpf4jnsgd1na2vs0mg"},{"bike_id":"66eba09f-e5b3-4758-a09b-26366b7c2dce","system_id":"levelo_inurba_marseille","lat":43.28609,"lon":5.37065,"is_reserved":false,"is_disabled":false,"rental_uris":{"android":"levelo://app?vid=66eba09f-e5b3-4758-a09b-26366b7c2dce","ios":"levelo://app?vid=66eba09f-e5b3-4758-a09b-26366b7c2dce"},"vehicle_type_id":"4","last_reported":1730823075,"current_range_meters":17600,"station_id":"ce4bht12rcd13ifvqi60","pricing_plan_id":"cebpf4jnsgd1na2vs0mg"},{"bike_id":"5d297a64-ff15-46ab-8af7-a414a0fee23c","system_id":"levelo_inurba_marseille","lat":43.269103,"lon":5.367799,"is_reserved":false,"is_disabled":false,"rental_uris":{"android":"levelo://app?vid=5d297a64-ff15-46ab-8af7-a414a0fee23c","ios":"levelo://app?vid=5d297a64-ff15-46ab-8af7-a414a0fee23c"},"vehicle_type_id":"4","last_reported":1730823075,"current_range_meters":34800,"station_id":"","pricing_plan_id":"cebpf4jnsgd1na2vs0mg"},{"bike_id":"0102f4c6-1125-460f-a7c9-fbcf7a890bd5","system_id":"levelo_inurba_marseille","lat":43.29419,"lon":5.38626,"is_reserved":false,"is_disabled":false,"rental_uris":{"android":"levelo://app?vid=0102f4c6-1125-460f-a7c9-fbcf7a890bd5","ios":"levelo://app?vid=0102f4c6-1125-460f-a7c9-fbcf7a890bd5"},"vehicle_type_id":"4","last_reported":1730823075,"current_range_meters":33600,"station_id":"ce4bh2h2rcd13ifvqdh0","pricing_plan_id":"cebpf4jnsgd1na2vs0mg"},{"bike_id":"8f1886f0-fbd9-43c2-951e-26351c220f3b","system_id":"levelo_inurba_marseille","lat":43.26498,"lon":5.39544,"is_reserved":false,"is_disabled":false,"rental_uris":{"android":"levelo://app?vid=8f1886f0-fbd9-43c2-951e-26351c220f3b","ios":"levelo://app?vid=8f1886f0-fbd9-43c2-951e-26351c220f3b"},"vehicle_type_id":"4","last_reported":1730823075,"current_range_meters":36400,"station_id":"ce4bhi12rcd13ifvqfq0","pricing_plan_id":"cebpf4jnsgd1na2vs0mg"},{"bike_id":"2c0e31bc-4c36-4147-bfa1-5a31b0a75009","system_id":"levelo_inurba_marseille","lat":43.29222,"lon":5.36059,"is_reserved":false,"is_disabled":false,"rental_uris":{"android":"levelo://app?vid=2c0e31bc-4c36-4147-bfa1-5a31b0a75009","ios":"levelo://app?vid=2c0e31bc-4c36-4147-bfa1-5a31b0a75009"},"vehicle_type_id":"4","last_reported":1730823075,"current_range_meters":38000,"station_id":"ce4bhbh2rcd13ifvqeqg","pricing_plan_id":"cebpf4jnsgd1na2vs0mg"},{"bike_id":"13ea3888-271f-4c34-8153-5c99dbd0af6b","system_id":"levelo_inurba_marseille","lat":43.31073,"lon":5.38352,"is_reserved":false,"is_disabled":false,"rental_uris":{"android":"levelo://app?vid=13ea3888-271f-4c34-8153-5c99dbd0af6b","ios":"levelo://app?vid=13ea3888-271f-4c34-8153-5c99dbd0af6b"},"vehicle_type_id":"4","last_reported":1730823075,"current_range_meters":11600,"station_id":"ce4bgv92rcd13ifvqcr0","pricing_plan_id":"cebpf4jnsgd1na2vs0mg"},{"bike_id":"289dd1b4-9d56-4d55-b9d4-65f41abdbd49","system_id":"levelo_inurba_marseille","lat":43.25886,"lon":5.3992,"is_reserved":false,"is_disabled":false,"rental_uris":{"android":"levelo://app?vid=289dd1b4-9d56-4d55-b9d4-65f41abdbd49","ios":"levelo://app?vid=289dd1b4-9d56-4d55-b9d4-65f41abdbd49"},"vehicle_type_id":"4","last_reported":1730823075,"current_range_meters":29600,"station_id":"ce4bhkp2rcd13ifvqgd0","pricing_plan_id":"cebpf4jnsgd1na2vs0mg"},{"bike_id":"6580ab9c-0754-4666-b081-aec3b75de4c8","system_id":"levelo_inurba_marseille","lat":43.28447,"lon":5.39203,"is_reserved":false,"is_disabled":false,"rental_uris":{"android":"levelo://app?vid=6580ab9c-0754-4666-b081-aec3b75de4c8","ios":"levelo://app?vid=6580ab9c-0754-4666-b081-aec3b75de4c8"},"vehicle_type_id":"4","last_reported":1730823075,"current_range_meters":30800,"station_id":"ce4bhoh2rcd13ifvqh5g","pricing_plan_id":"cebpf4jnsgd1na2vs0mg"},{"bike_id":"51b0cc7e-772d-41e9-97a0-b689f0d0604e","system_id":"levelo_inurba_marseille","lat":43.31335,"lon":5.36715,"is_reserved":false,"is_disabled":false,"rental_uris":{"android":"levelo://app?vid=51b0cc7e-772d-41e9-97a0-b689f0d0604e","ios":"levelo://app?vid=51b0cc7e-772d-41e9-97a0-b689f0d0604e"},"vehicle_type_id":"4","last_reported":1730823075,"current_range_meters":38000,"station_id":"ce4bgr92rcd13ifvqc6g","pricing_plan_id":"cebpf4jnsgd1na2vs0mg"},{"bike_id":"46c4ccb3-6093-4bb4-b793-aa3d3d868d27","system_id":"levelo_inurba_marseille","lat":43.27372,"lon":5.36268,"is_reserved":false,"is_disabled":false,"rental_uris":{"android":"levelo://app?vid=46c4ccb3-6093-4bb4-b793-aa3d3d868d27","ios":"levelo://app?vid=46c4ccb3-6093-4bb4-b793-aa3d3d868d27"},"vehicle_type_id":"4","last_reported":1730823075,"current_range_meters":28400,"station_id":"ce4bhbh2rcd13ifvqeo0","pricing_plan_id":"cebpf4jnsgd1na2vs0mg"},{"bike_id":"b7714781-d668-438d-8d4e-7166167a7e37","system_id":"levelo_inurba_marseille","lat":43.23182,"lon":5.39981,"is_reserved":false,"is_disabled":false,"rental_uris":{"android":"levelo://app?vid=b7714781-d668-438d-8d4e-7166167a7e37","ios":"levelo://app?vid=b7714781-d668-438d-8d4e-7166167a7e37"},"vehicle_type_id":"4","last_reported":1730823075,"current_range_meters":26000,"station_id":"ce4bhn12rcd13ifvqgqg","pricing_plan_id":"cebpf4jnsgd1na2vs0mg"},{"bike_id":"a0bf2373-c535-4a1a-87d4-543381e36de5","system_id":"levelo_inurba_marseille","lat":43.28096,"lon":5.37842,"is_reserved":false,"is_disabled":false,"rental_uris":{"android":"levelo://app?vid=a0bf2373-c535-4a1a-87d4-543381e36de5","ios":"levelo://app?vid=a0bf2373-c535-4a1a-87d4-543381e36de5"},"vehicle_type_id":"4","last_reported":1730823075,"current_range_meters":24000,"station_id":"ce4bha12rcd13ifvqee0","pricing_plan_id":"cebpf4jnsgd1na2vs0mg"},{"bike_id":"ebffee7c-cae5-47c5-9bdb-6d314ad8c91e","system_id":"levelo_inurba_marseille","lat":43.331238,"lon":5.399771,"is_reserved":false,"is_disabled":false,"rental_uris":{"android":"levelo://app?vid=ebffee7c-cae5-47c5-9bdb-6d314ad8c91e","ios":"levelo://app?vid=ebffee7c-cae5-47c5-9bdb-6d314ad8c91e"},"vehicle_type_id":"4","last_reported":1730823075,"current_range_meters":14400,"station_id":"ce4bhr92rcd13ifvqhrg","pricing_plan_id":"cebpf4jnsgd1na2vs0mg"},{"bike_id":"bbacf2f5-f404-4556-9a36-3b785fd95699","system_id":"levelo_inurba_marseille","lat":43.312255,"lon":5.368578,"is_reserved":false,"is_disabled":false,"rental_uris":{"android":"levelo://app?vid=bbacf2f5-f404-4556-9a36-3b785fd95699","ios":"levelo://app?vid=bbacf2f5-f404-4556-9a36-3b785fd95699"},"vehicle_type_id":"4","last_reported":1730823075,"current_range_meters":38800,"station_id":"ce4bgl92rcd13ifvqbq0","pricing_plan_id":"cebpf4jnsgd1na2vs0mg"},{"bike_id":"0fb9819f-f5ed-4bc1-9006-4b1ad7d9b36e","system_id":"levelo_inurba_marseille","lat":43.32477,"lon":5.36579,"is_reserved":false,"is_disabled":false,"rental_uris":{"android":"levelo://app?vid=0fb9819f-f5ed-4bc1-9006-4b1ad7d9b36e","ios":"levelo://app?vid=0fb9819f-f5ed-4bc1-9006-4b1ad7d9b36e"},"vehicle_type_id":"4","last_reported":1730823075,"current_range_meters":12400,"station_id":"ce4bhs12rcd13ifvqhvg","pricing_plan_id":"cebpf4jnsgd1na2vs0mg"},{"bike_id":"42163e3e-5009-401f-a1ce-f09eb7e2a510","system_id":"levelo_inurba_marseille","lat":43.31323,"lon":5.39699,"is_reserved":false,"is_disabled":false,"rental_uris":{"android":"levelo://app?vid=42163e3e-5009-401f-a1ce-f09eb7e2a510","ios":"levelo://app?vid=42163e3e-5009-401f-a1ce-f09eb7e2a510"},"vehicle_type_id":"4","last_reported":1730823075,"current_range_meters":39200,"station_id":"ce4bgvp2rcd13ifvqcu0","pricing_plan_id":"cebpf4jnsgd1na2vs0mg"},{"bike_id":"0946cb4c-1b21-4e1e-a51a-b21aaf723674","system_id":"levelo_inurba_marseille","lat":43.306635,"lon":5.40085,"is_reserved":false,"is_disabled":false,"rental_uris":{"android":"levelo://app?vid=0946cb4c-1b21-4e1e-a51a-b21aaf723674","ios":"levelo://app?vid=0946cb4c-1b21-4e1e-a51a-b21aaf723674"},"vehicle_type_id":"4","last_reported":1730823075,"current_range_meters":39200,"station_id":"ce4bh112rcd13ifvqda0","pricing_plan_id":"cebpf4jnsgd1na2vs0mg"},{"bike_id":"9ddd03df-384f-4632-9bc0-b8297feb51e8","system_id":"levelo_inurba_marseille","lat":43.29041,"lon":5.39977,"is_reserved":false,"is_disabled":false,"rental_uris":{"android":"levelo://app?vid=9ddd03df-384f-4632-9bc0-b8297feb51e8","ios":"levelo://app?vid=9ddd03df-384f-4632-9bc0-b8297feb51e8"},"vehicle_type_id":"4","last_reported":1730823075,"current_range_meters":33200,"station_id":"ce4bh392rcd13ifvqdm0","pricing_plan_id":"cebpf4jnsgd1na2vs0mg"},{"bike_id":"92cce589-c60b-43c6-b4d1-5b81657c9280","system_id":"levelo_inurba_marseille","lat":43.30875,"lon":5.3964,"is_reserved":false,"is_disabled":false,"rental_uris":{"android":"levelo://app?vid=92cce589-c60b-43c6-b4d1-5b81657c9280","ios":"levelo://app?vid=92cce589-c60b-43c6-b4d1-5b81657c9280"},"vehicle_type_id":"4","last_reported":1730823075,"current_range_meters":32800,"station_id":"ce4bh012rcd13ifvqcv0","pricing_plan_id":"cebpf4jnsgd1na2vs0mg"},{"bike_id":"037eaf0f-9112-47d3-aa8d-7a0ef0d58625","system_id":"levelo_inurba_marseille","lat":43.24163,"lon":5.36399,"is_reserved":false,"is_disabled":false,"rental_uris":{"android":"levelo://app?vid=037eaf0f-9112-47d3-aa8d-7a0ef0d58625","ios":"levelo://app?vid=037eaf0f-9112-47d3-aa8d-7a0ef0d58625"},"vehicle_type_id":"4","last_reported":1730823075,"current_range_meters":37600,"station_id":"cpo36qri1sfpv3e86is0","pricing_plan_id":"cebpf4jnsgd1na2vs0mg"},{"bike_id":"8b376bf7-86fa-4589-9980-26f962b825b9","system_id":"levelo_inurba_marseille","lat":43.28462,"lon":5.35892,"is_reserved":false,"is_disabled":false,"rental_uris":{"android":"levelo://app?vid=8b376bf7-86fa-4589-9980-26f962b825b9","ios":"levelo://app?vid=8b376bf7-86fa-4589-9980-26f962b825b9"},"vehicle_type_id":"4","last_reported":1730823075,"current_range_meters":29600,"station_id":"ce4bhah2rcd13ifvqei0","pricing_plan_id":"cebpf4jnsgd1na2vs0mg"},{"bike_id":"741d2691-66c1-4f95-8d58-b1864605c1f6","system_id":"levelo_inurba_marseille","lat":43.28455,"lon":5.35897,"is_reserved":false,"is_disabled":false,"rental_uris":{"android":"levelo://app?vid=741d2691-66c1-4f95-8d58-b1864605c1f6","ios":"levelo://app?vid=741d2691-66c1-4f95-8d58-b1864605c1f6"},"vehicle_type_id":"4","last_reported":1730823075,"current_range_meters":18000,"station_id":"ce4bhah2rcd13ifvqei0","pricing_plan_id":"cebpf4jnsgd1na2vs0mg"},{"bike_id":"0ff3f770-9614-4246-857d-4d0c92bda923","system_id":"levelo_inurba_marseille","lat":43.3122,"lon":5.36864,"is_reserved":false,"is_disabled":false,"rental_uris":{"android":"levelo://app?vid=0ff3f770-9614-4246-857d-4d0c92bda923","ios":"levelo://app?vid=0ff3f770-9614-4246-857d-4d0c92bda923"},"vehicle_type_id":"4","last_reported":1730823075,"current_range_meters":18000,"station_id":"ce4bgl92rcd13ifvqbq0","pricing_plan_id":"cebpf4jnsgd1na2vs0mg"},{"bike_id":"7136708c-95fa-4d0b-bd2d-9a9cbac37cfa","system_id":"levelo_inurba_marseille","lat":43.29873,"lon":5.38906,"is_reserved":false,"is_disabled":false,"rental_uris":{"android":"levelo://app?vid=7136708c-95fa-4d0b-bd2d-9a9cbac37cfa","ios":"levelo://app?vid=7136708c-95fa-4d0b-bd2d-9a9cbac37cfa"},"vehicle_type_id":"4","last_reported":1730823075,"current_range_meters":34000,"station_id":"ce4bh392rcd13ifvqdl0","pricing_plan_id":"cebpf4jnsgd1na2vs0mg"},{"bike_id":"50c422ad-d2fa-4968-b470-366d4869aaab","system_id":"levelo_inurba_marseille","lat":43.3054,"lon":5.36701,"is_reserved":false,"is_disabled":false,"rental_uris":{"android":"levelo://app?vid=50c422ad-d2fa-4968-b470-366d4869aaab","ios":"levelo://app?vid=50c422ad-d2fa-4968-b470-366d4869aaab"},"vehicle_type_id":"4","last_reported":1730823075,"current_range_meters":18000,"station_id":"ce4bgrp2rcd13ifvqc9g","pricing_plan_id":"cebpf4jnsgd1na2vs0mg"},{"bike_id":"4cd65a07-bb8d-4f44-912a-ffebe5320014","system_id":"levelo_inurba_marseille","lat":43.306349,"lon":5.400791,"is_reserved":false,"is_disabled":false,"rental_uris":{"android":"levelo://app?vid=4cd65a07-bb8d-4f44-912a-ffebe5320014","ios":"levelo://app?vid=4cd65a07-bb8d-4f44-912a-ffebe5320014"},"vehicle_type_id":"4","last_reported":1730823075,"current_range_meters":38800,"station_id":"ce4bh112rcd13ifvqda0","pricing_plan_id":"cebpf4jnsgd1na2vs0mg"},{"bike_id":"9144c157-634d-4240-9c41-6d80b65ff913","system_id":"levelo_inurba_marseille","lat":43.30538,"lon":5.3653,"is_reserved":false,"is_disabled":false,"rental_uris":{"android":"levelo://app?vid=9144c157-634d-4240-9c41-6d80b65ff913","ios":"levelo://app?vid=9144c157-634d-4240-9c41-6d80b65ff913"},"vehicle_type_id":"4","last_reported":1730823075,"current_range_meters":30000,"station_id":"ce4bgs12rcd13ifvqcag","pricing_plan_id":"cebpf4jnsgd1na2vs0mg"},{"bike_id":"c8761044-17f9-4a8b-aa11-3a9d0391f0f2","system_id":"levelo_inurba_marseille","lat":43.246582,"lon":5.381731,"is_reserved":false,"is_disabled":false,"rental_uris":{"android":"levelo://app?vid=c8761044-17f9-4a8b-aa11-3a9d0391f0f2","ios":"levelo://app?vid=c8761044-17f9-4a8b-aa11-3a9d0391f0f2"},"vehicle_type_id":"4","last_reported":1730823075,"current_range_meters":21600,"station_id":"ce4bhih2rcd13ifvqfr0","pricing_plan_id":"cebpf4jnsgd1na2vs0mg"},{"bike_id":"6edcb5d2-dbf0-49f4-9f8b-5d93ccae943e","system_id":"levelo_inurba_marseille","lat":43.279071,"lon":5.380142,"is_reserved":false,"is_disabled":false,"rental_uris":{"android":"levelo://app?vid=6edcb5d2-dbf0-49f4-9f8b-5d93ccae943e","ios":"levelo://app?vid=6edcb5d2-dbf0-49f4-9f8b-5d93ccae943e"},"vehicle_type_id":"4","last_reported":1730823075,"current_range_meters":28000,"station_id":"ce4bhf92rcd13ifvqf50","pricing_plan_id":"cebpf4jnsgd1na2vs0mg"},{"bike_id":"dcd8e39f-0684-499c-b680-13842e70a904","system_id":"levelo_inurba_marseille","lat":43.29218,"lon":5.36058,"is_reserved":false,"is_disabled":false,"rental_uris":{"android":"levelo://app?vid=dcd8e39f-0684-499c-b680-13842e70a904","ios":"levelo://app?vid=dcd8e39f-0684-499c-b680-13842e70a904"},"vehicle_type_id":"4","last_reported":1730823075,"current_range_meters":39200,"station_id":"ce4bhbh2rcd13ifvqeqg","pricing_plan_id":"cebpf4jnsgd1na2vs0mg"},{"bike_id":"8fd80f08-482a-4456-a82a-b7aa1b9d0616","system_id":"levelo_inurba_marseille","lat":43.29913,"lon":5.37457,"is_reserved":false,"is_disabled":false,"rental_uris":{"android":"levelo://app?vid=8fd80f08-482a-4456-a82a-b7aa1b9d0616","ios":"levelo://app?vid=8fd80f08-482a-4456-a82a-b7aa1b9d0616"},"vehicle_type_id":"4","last_reported":1730823075,"current_range_meters":36000,"station_id":"ce4bgjh2rcd13ifvqbg0","pricing_plan_id":"cebpf4jnsgd1na2vs0mg"},{"bike_id":"5eeefd11-649c-499f-9856-2a20cd33e6cb","system_id":"levelo_inurba_marseille","lat":43.30545,"lon":5.36714,"is_reserved":false,"is_disabled":false,"rental_uris":{"android":"levelo://app?vid=5eeefd11-649c-499f-9856-2a20cd33e6cb","ios":"levelo://app?vid=5eeefd11-649c-499f-9856-2a20cd33e6cb"},"vehicle_type_id":"4","last_reported":1730823075,"current_range_meters":11600,"station_id":"ce4bgrp2rcd13ifvqc9g","pricing_plan_id":"cebpf4jnsgd1na2vs0mg"},{"bike_id":"d1b2fcf7-ade6-43b4-87a8-752f09442392","system_id":"levelo_inurba_marseille","lat":43.29874,"lon":5.38902,"is_reserved":false,"is_disabled":false,"rental_uris":{"android":"levelo://app?vid=d1b2fcf7-ade6-43b4-87a8-752f09442392","ios":"levelo://app?vid=d1b2fcf7-ade6-43b4-87a8-752f09442392"},"vehicle_type_id":"4","last_reported":1730823075,"current_range_meters":32000,"station_id":"ce4bh392rcd13ifvqdl0","pricing_plan_id":"cebpf4jnsgd1na2vs0mg"},{"bike_id":"6025b22c-cc70-4829-8bb8-d8ee07a71061","system_id":"levelo_inurba_marseille","lat":43.28612,"lon":5.35102,"is_reserved":false,"is_disabled":false,"rental_uris":{"android":"levelo://app?vid=6025b22c-cc70-4829-8bb8-d8ee07a71061","ios":"levelo://app?vid=6025b22c-cc70-4829-8bb8-d8ee07a71061"},"vehicle_type_id":"4","last_reported":1730823075,"current_range_meters":33200,"station_id":"ce4bhch2rcd13ifvqeug","pricing_plan_id":"cebpf4jnsgd1na2vs0mg"},{"bike_id":"7d3664b4-0626-4764-becb-c1d4188a8bfd","system_id":"levelo_inurba_marseille","lat":43.29189,"lon":5.3715,"is_reserved":false,"is_disabled":false,"rental_uris":{"android":"levelo://app?vid=7d3664b4-0626-4764-becb-c1d4188a8bfd","ios":"levelo://app?vid=7d3664b4-0626-4764-becb-c1d4188a8bfd"},"vehicle_type_id":"4","last_reported":1730823075,"current_range_meters":38800,"station_id":"ce4bha92rcd13ifvqeh0","pricing_plan_id":"cebpf4jnsgd1na2vs0mg"},{"bike_id":"0d4888fd-e939-45ae-8c3e-fa6af5519a69","system_id":"levelo_inurba_marseille","lat":43.30595,"lon":5.37217,"is_reserved":false,"is_disabled":false,"rental_uris":{"android":"levelo://app?vid=0d4888fd-e939-45ae-8c3e-fa6af5519a69","ios":"levelo://app?vid=0d4888fd-e939-45ae-8c3e-fa6af5519a69"},"vehicle_type_id":"4","last_reported":1730823075,"current_range_meters":26000,"station_id":"ce4bgqh2rcd13ifvqc4g","pricing_plan_id":"cebpf4jnsgd1na2vs0mg"},{"bike_id":"dc56c6aa-6c86-4c42-8e3e-2e5367f739cd","system_id":"levelo_inurba_marseille","lat":43.298956,"lon":5.365524,"is_reserved":false,"is_disabled":false,"rental_uris":{"android":"levelo://app?vid=dc56c6aa-6c86-4c42-8e3e-2e5367f739cd","ios":"levelo://app?vid=dc56c6aa-6c86-4c42-8e3e-2e5367f739cd"},"vehicle_type_id":"4","last_reported":1730823075,"current_range_meters":9600,"station_id":"ce4bgrh2rcd13ifvqc8g","pricing_plan_id":"cebpf4jnsgd1na2vs0mg"},{"bike_id":"518eee34-1c9b-4af0-85dd-5719e675bd42","system_id":"levelo_inurba_marseille","lat":43.2655,"lon":5.37285,"is_reserved":false,"is_disabled":false,"rental_uris":{"android":"levelo://app?vid=518eee34-1c9b-4af0-85dd-5719e675bd42","ios":"levelo://app?vid=518eee34-1c9b-4af0-85dd-5719e675bd42"},"vehicle_type_id":"4","last_reported":1730823075,"current_range_meters":24800,"station_id":"ce4bhg12rcd13ifvqf70","pricing_plan_id":"cebpf4jnsgd1na2vs0mg"},{"bike_id":"d112ef64-8345-40dc-a437-a0aa8c5bd57d","system_id":"levelo_inurba_marseille","lat":43.30543,"lon":5.36712,"is_reserved":false,"is_disabled":false,"rental_uris":{"android":"levelo://app?vid=d112ef64-8345-40dc-a437-a0aa8c5bd57d","ios":"levelo://app?vid=d112ef64-8345-40dc-a437-a0aa8c5bd57d"},"vehicle_type_id":"4","last_reported":1730823075,"current_range_meters":40000,"station_id":"ce4bgrp2rcd13ifvqc9g","pricing_plan_id":"cebpf4jnsgd1na2vs0mg"},{"bike_id":"0c280d8c-ee87-49f5-8602-cf73142cd5a4","system_id":"levelo_inurba_marseille","lat":43.292,"lon":5.39327,"is_reserved":false,"is_disabled":false,"rental_uris":{"android":"levelo://app?vid=0c280d8c-ee87-49f5-8602-cf73142cd5a4","ios":"levelo://app?vid=0c280d8c-ee87-49f5-8602-cf73142cd5a4"},"vehicle_type_id":"4","last_reported":1730823075,"current_range_meters":3600,"station_id":"ce4bh192rcd13ifvqdd0","pricing_plan_id":"cebpf4jnsgd1na2vs0mg"},{"bike_id":"00db643c-5868-4206-be55-7a08f1b86e96","system_id":"levelo_inurba_marseille","lat":43.2317,"lon":5.39993,"is_reserved":false,"is_disabled":false,"rental_uris":{"android":"levelo://app?vid=00db643c-5868-4206-be55-7a08f1b86e96","ios":"levelo://app?vid=00db643c-5868-4206-be55-7a08f1b86e96"},"vehicle_type_id":"4","last_reported":1730823075,"current_range_meters":19200,"station_id":"ce4bhn12rcd13ifvqgqg","pricing_plan_id":"cebpf4jnsgd1na2vs0mg"},{"bike_id":"2561b6b2-9bfd-4f52-910f-3667bac113f7","system_id":"levelo_inurba_marseille","lat":43.29877,"lon":5.38924,"is_reserved":false,"is_disabled":false,"rental_uris":{"android":"levelo://app?vid=2561b6b2-9bfd-4f52-910f-3667bac113f7","ios":"levelo://app?vid=2561b6b2-9bfd-4f52-910f-3667bac113f7"},"vehicle_type_id":"4","last_reported":1730823075,"current_range_meters":39200,"station_id":"ce4bh392rcd13ifvqdl0","pricing_plan_id":"cebpf4jnsgd1na2vs0mg"},{"bike_id":"ad58724c-2fcc-482f-92fd-df51f8ca4512","system_id":"levelo_inurba_marseille","lat":43.30911,"lon":5.3685,"is_reserved":false,"is_disabled":false,"rental_uris":{"android":"levelo://app?vid=ad58724c-2fcc-482f-92fd-df51f8ca4512","ios":"levelo://app?vid=ad58724c-2fcc-482f-92fd-df51f8ca4512"},"vehicle_type_id":"4","last_reported":1730823075,"current_range_meters":24400,"station_id":"ce4bgn92rcd13ifvqbvg","pricing_plan_id":"cebpf4jnsgd1na2vs0mg"},{"bike_id":"dd39f9f1-9f84-4440-bed0-87ba7e20c7bd","system_id":"levelo_inurba_marseille","lat":43.27995,"lon":5.41651,"is_reserved":false,"is_disabled":false,"rental_uris":{"android":"levelo://app?vid=dd39f9f1-9f84-4440-bed0-87ba7e20c7bd","ios":"levelo://app?vid=dd39f9f1-9f84-4440-bed0-87ba7e20c7bd"},"vehicle_type_id":"4","last_reported":1730823075,"current_range_meters":38800,"station_id":"ce4bho12rcd13ifvqh1g","pricing_plan_id":"cebpf4jnsgd1na2vs0mg"},{"bike_id":"a6d8b7a2-b299-4a40-9a2b-f7c8bf78849b","system_id":"levelo_inurba_marseille","lat":43.30533,"lon":5.36532,"is_reserved":false,"is_disabled":false,"rental_uris":{"android":"levelo://app?vid=a6d8b7a2-b299-4a40-9a2b-f7c8bf78849b","ios":"levelo://app?vid=a6d8b7a2-b299-4a40-9a2b-f7c8bf78849b"},"vehicle_type_id":"4","last_reported":1730823075,"current_range_meters":24800,"station_id":"ce4bgs12rcd13ifvqcag","pricing_plan_id":"cebpf4jnsgd1na2vs0mg"},{"bike_id":"2dd40e8a-347a-4069-9f04-901c41b0a3c7","system_id":"levelo_inurba_marseille","lat":43.32104,"lon":5.36777,"is_reserved":false,"is_disabled":false,"rental_uris":{"android":"levelo://app?vid=2dd40e8a-347a-4069-9f04-901c41b0a3c7","ios":"levelo://app?vid=2dd40e8a-347a-4069-9f04-901c41b0a3c7"},"vehicle_type_id":"4","last_reported":1730823075,"current_range_meters":36400,"station_id":"ce4bhrh2rcd13ifvqhug","pricing_plan_id":"cebpf4jnsgd1na2vs0mg"},{"bike_id":"2e389483-7787-4149-b7f0-0165708a1590","system_id":"levelo_inurba_marseille","lat":43.29734,"lon":5.37685,"is_reserved":false,"is_disabled":false,"rental_uris":{"android":"levelo://app?vid=2e389483-7787-4149-b7f0-0165708a1590","ios":"levelo://app?vid=2e389483-7787-4149-b7f0-0165708a1590"},"vehicle_type_id":"4","last_reported":1730823075,"current_range_meters":30000,"station_id":"ce4bgkh2rcd13ifvqbl0","pricing_plan_id":"cebpf4jnsgd1na2vs0mg"},{"bike_id":"3c5ac311-90c7-4d2b-b377-c2b12c17ace3","system_id":"levelo_inurba_marseille","lat":43.32109,"lon":5.36774,"is_reserved":false,"is_disabled":false,"rental_uris":{"android":"levelo://app?vid=3c5ac311-90c7-4d2b-b377-c2b12c17ace3","ios":"levelo://app?vid=3c5ac311-90c7-4d2b-b377-c2b12c17ace3"},"vehicle_type_id":"4","last_reported":1730823075,"current_range_meters":14000,"station_id":"ce4bhrh2rcd13ifvqhug","pricing_plan_id":"cebpf4jnsgd1na2vs0mg"},{"bike_id":"38526b2a-8697-4aef-a174-e0c1be19b7a7","system_id":"levelo_inurba_marseille","lat":43.28854,"lon":5.35876,"is_reserved":false,"is_disabled":false,"rental_uris":{"android":"levelo://app?vid=38526b2a-8697-4aef-a174-e0c1be19b7a7","ios":"levelo://app?vid=38526b2a-8697-4aef-a174-e0c1be19b7a7"},"vehicle_type_id":"4","last_reported":1730823075,"current_range_meters":16400,"station_id":"ce4bhb12rcd13ifvqem0","pricing_plan_id":"cebpf4jnsgd1na2vs0mg"},{"bike_id":"67dab935-1b71-438c-83ee-d4f8ffbef4c9","system_id":"levelo_inurba_marseille","lat":43.32479,"lon":5.36562,"is_reserved":false,"is_disabled":false,"rental_uris":{"android":"levelo://app?vid=67dab935-1b71-438c-83ee-d4f8ffbef4c9","ios":"levelo://app?vid=67dab935-1b71-438c-83ee-d4f8ffbef4c9"},"vehicle_type_id":"4","last_reported":1730823075,"current_range_meters":22800,"station_id":"ce4bhs12rcd13ifvqhvg","pricing_plan_id":"cebpf4jnsgd1na2vs0mg"},{"bike_id":"01227350-ba89-43f9-9e31-727e7c81bb12","system_id":"levelo_inurba_marseille","lat":43.2707,"lon":5.42285,"is_reserved":false,"is_disabled":false,"rental_uris":{"android":"levelo://app?vid=01227350-ba89-43f9-9e31-727e7c81bb12","ios":"levelo://app?vid=01227350-ba89-43f9-9e31-727e7c81bb12"},"vehicle_type_id":"4","last_reported":1730823075,"current_range_meters":29600,"station_id":"ce4bhk92rcd13ifvqgb0","pricing_plan_id":"cebpf4jnsgd1na2vs0mg"},{"bike_id":"c3a57e08-d20d-43d3-850b-28da6a2418ae","system_id":"levelo_inurba_marseille","lat":43.29175,"lon":5.37145,"is_reserved":false,"is_disabled":false,"rental_uris":{"android":"levelo://app?vid=c3a57e08-d20d-43d3-850b-28da6a2418ae","ios":"levelo://app?vid=c3a57e08-d20d-43d3-850b-28da6a2418ae"},"vehicle_type_id":"4","last_reported":1730823075,"current_range_meters":27600,"station_id":"ce4bha92rcd13ifvqeh0","pricing_plan_id":"cebpf4jnsgd1na2vs0mg"},{"bike_id":"64034af2-67ea-4876-bcba-e9667f90eda7","system_id":"levelo_inurba_marseille","lat":43.33726,"lon":5.39193,"is_reserved":false,"is_disabled":false,"rental_uris":{"android":"levelo://app?vid=64034af2-67ea-4876-bcba-e9667f90eda7","ios":"levelo://app?vid=64034af2-67ea-4876-bcba-e9667f90eda7"},"vehicle_type_id":"4","last_reported":1730823075,"current_range_meters":39200,"station_id":"ce4bhr92rcd13ifvqhsg","pricing_plan_id":"cebpf4jnsgd1na2vs0mg"},{"bike_id":"8f689a17-f0f1-4c2f-9b33-3b3c927da3e7","system_id":"levelo_inurba_marseille","lat":43.31986,"lon":5.38147,"is_reserved":false,"is_disabled":false,"rental_uris":{"android":"levelo://app?vid=8f689a17-f0f1-4c2f-9b33-3b3c927da3e7","ios":"levelo://app?vid=8f689a17-f0f1-4c2f-9b33-3b3c927da3e7"},"vehicle_type_id":"4","last_reported":1730823075,"current_range_meters":39200,"station_id":"ce4bhr12rcd13ifvqhpg","pricing_plan_id":"cebpf4jnsgd1na2vs0mg"},{"bike_id":"77f0f942-cc19-4114-9693-f96851c5cf8b","system_id":"levelo_inurba_marseille","lat":43.31065,"lon":5.3835,"is_reserved":false,"is_disabled":false,"rental_uris":{"android":"levelo://app?vid=77f0f942-cc19-4114-9693-f96851c5cf8b","ios":"levelo://app?vid=77f0f942-cc19-4114-9693-f96851c5cf8b"},"vehicle_type_id":"4","last_reported":1730823075,"current_range_meters":16400,"station_id":"ce4bgv92rcd13ifvqcr0","pricing_plan_id":"cebpf4jnsgd1na2vs0mg"},{"bike_id":"277be6b2-a249-4f7b-a547-37b5188124c7","system_id":"levelo_inurba_marseille","lat":43.29278,"lon":5.36859,"is_reserved":false,"is_disabled":false,"rental_uris":{"android":"levelo://app?vid=277be6b2-a249-4f7b-a547-37b5188124c7","ios":"levelo://app?vid=277be6b2-a249-4f7b-a547-37b5188124c7"},"vehicle_type_id":"4","last_reported":1730823075,"current_range_meters":30000,"station_id":"ce4bhbp2rcd13ifvqesg","pricing_plan_id":"cebpf4jnsgd1na2vs0mg"},{"bike_id":"a61966aa-f283-4659-82c5-d22eae3f576d","system_id":"levelo_inurba_marseille","lat":43.29957,"lon":5.41327,"is_reserved":false,"is_disabled":false,"rental_uris":{"android":"levelo://app?vid=a61966aa-f283-4659-82c5-d22eae3f576d","ios":"levelo://app?vid=a61966aa-f283-4659-82c5-d22eae3f576d"},"vehicle_type_id":"4","last_reported":1730823075,"current_range_meters":14400,"station_id":"ce4bhp12rcd13ifvqh9g","pricing_plan_id":"cebpf4jnsgd1na2vs0mg"},{"bike_id":"d461cad6-67e6-459b-a4e8-3143b68ad1e0","system_id":"levelo_inurba_marseille","lat":43.26552,"lon":5.37292,"is_reserved":false,"is_disabled":false,"rental_uris":{"android":"levelo://app?vid=d461cad6-67e6-459b-a4e8-3143b68ad1e0","ios":"levelo://app?vid=d461cad6-67e6-459b-a4e8-3143b68ad1e0"},"vehicle_type_id":"4","last_reported":1730823075,"current_range_meters":4800,"station_id":"","pricing_plan_id":"cebpf4jnsgd1na2vs0mg"},{"bike_id":"f8aecb67-23ea-4811-ae22-8dfe5163dc47","system_id":"levelo_inurba_marseille","lat":43.31177,"lon":5.38729,"is_reserved":false,"is_disabled":false,"rental_uris":{"android":"levelo://app?vid=f8aecb67-23ea-4811-ae22-8dfe5163dc47","ios":"levelo://app?vid=f8aecb67-23ea-4811-ae22-8dfe5163dc47"},"vehicle_type_id":"4","last_reported":1730823075,"current_range_meters":12000,"station_id":"ce4bgv12rcd13ifvqcp0","pricing_plan_id":"cebpf4jnsgd1na2vs0mg"},{"bike_id":"e44072e1-614a-41d9-9d79-e02616344efa","system_id":"levelo_inurba_marseille","lat":43.31219,"lon":5.36852,"is_reserved":false,"is_disabled":false,"rental_uris":{"android":"levelo://app?vid=e44072e1-614a-41d9-9d79-e02616344efa","ios":"levelo://app?vid=e44072e1-614a-41d9-9d79-e02616344efa"},"vehicle_type_id":"4","last_reported":1730823075,"current_range_meters":36800,"station_id":"ce4bgl92rcd13ifvqbq0","pricing_plan_id":"cebpf4jnsgd1na2vs0mg"},{"bike_id":"b5cc959f-b836-4366-b45e-7fed8bf472d0","system_id":"levelo_inurba_marseille","lat":43.29701,"lon":5.377,"is_reserved":false,"is_disabled":false,"rental_uris":{"android":"levelo://app?vid=b5cc959f-b836-4366-b45e-7fed8bf472d0","ios":"levelo://app?vid=b5cc959f-b836-4366-b45e-7fed8bf472d0"},"vehicle_type_id":"4","last_reported":1730823075,"current_range_meters":19600,"station_id":"ce4bgkh2rcd13ifvqbl0","pricing_plan_id":"cebpf4jnsgd1na2vs0mg"},{"bike_id":"3f632d5b-a9fb-42b2-8a3f-9536a407d0dc","system_id":"levelo_inurba_marseille","lat":43.2316,"lon":5.43706,"is_reserved":false,"is_disabled":false,"rental_uris":{"android":"levelo://app?vid=3f632d5b-a9fb-42b2-8a3f-9536a407d0dc","ios":"levelo://app?vid=3f632d5b-a9fb-42b2-8a3f-9536a407d0dc"},"vehicle_type_id":"4","last_reported":1730823075,"current_range_meters":27200,"station_id":"ce4bhmp2rcd13ifvqgog","pricing_plan_id":"cebpf4jnsgd1na2vs0mg"},{"bike_id":"77f75c58-df77-4d1f-b372-5b5eed455101","system_id":"levelo_inurba_marseille","lat":43.30531,"lon":5.36545,"is_reserved":false,"is_disabled":false,"rental_uris":{"android":"levelo://app?vid=77f75c58-df77-4d1f-b372-5b5eed455101","ios":"levelo://app?vid=77f75c58-df77-4d1f-b372-5b5eed455101"},"vehicle_type_id":"4","last_reported":1730823075,"current_range_meters":38800,"station_id":"ce4bgs12rcd13ifvqcag","pricing_plan_id":"cebpf4jnsgd1na2vs0mg"},{"bike_id":"6bd09a90-c196-4b03-b1ac-05253fd4075e","system_id":"levelo_inurba_marseille","lat":43.29259,"lon":5.40908,"is_reserved":false,"is_disabled":false,"rental_uris":{"android":"levelo://app?vid=6bd09a90-c196-4b03-b1ac-05253fd4075e","ios":"levelo://app?vid=6bd09a90-c196-4b03-b1ac-05253fd4075e"},"vehicle_type_id":"4","last_reported":1730823075,"current_range_meters":37600,"station_id":"ce4bh192rcd13ifvqdc0","pricing_plan_id":"cebpf4jnsgd1na2vs0mg"},{"bike_id":"d0ed6118-8ec0-4b56-8239-de5785f0eb82","system_id":"levelo_inurba_marseille","lat":43.295784,"lon":5.375112,"is_reserved":false,"is_disabled":false,"rental_uris":{"android":"levelo://app?vid=d0ed6118-8ec0-4b56-8239-de5785f0eb82","ios":"levelo://app?vid=d0ed6118-8ec0-4b56-8239-de5785f0eb82"},"vehicle_type_id":"4","last_reported":1730823075,"current_range_meters":16400,"station_id":"ce4bgh92rcd13ifvqb50","pricing_plan_id":"cebpf4jnsgd1na2vs0mg"},{"bike_id":"978400dd-a036-4416-906b-09ee9898dc99","system_id":"levelo_inurba_marseille","lat":43.28694,"lon":5.37386,"is_reserved":false,"is_disabled":false,"rental_uris":{"android":"levelo://app?vid=978400dd-a036-4416-906b-09ee9898dc99","ios":"levelo://app?vid=978400dd-a036-4416-906b-09ee9898dc99"},"vehicle_type_id":"4","last_reported":1730823075,"current_range_meters":12800,"station_id":"ce4bh3p2rcd13ifvqdq0","pricing_plan_id":"cebpf4jnsgd1na2vs0mg"},{"bike_id":"ff667aa2-147a-4a47-b6ea-40549b50c928","system_id":"levelo_inurba_marseille","lat":43.23149,"lon":5.43722,"is_reserved":false,"is_disabled":false,"rental_uris":{"android":"levelo://app?vid=ff667aa2-147a-4a47-b6ea-40549b50c928","ios":"levelo://app?vid=ff667aa2-147a-4a47-b6ea-40549b50c928"},"vehicle_type_id":"4","last_reported":1730823075,"current_range_meters":31200,"station_id":"ce4bhmp2rcd13ifvqgog","pricing_plan_id":"cebpf4jnsgd1na2vs0mg"},{"bike_id":"ef6702f3-524b-4973-921a-ef07dc82659e","system_id":"levelo_inurba_marseille","lat":43.3108,"lon":5.42437,"is_reserved":false,"is_disabled":false,"rental_uris":{"android":"levelo://app?vid=ef6702f3-524b-4973-921a-ef07dc82659e","ios":"levelo://app?vid=ef6702f3-524b-4973-921a-ef07dc82659e"},"vehicle_type_id":"4","last_reported":1730823075,"current_range_meters":11600,"station_id":"ce4bhp92rcd13ifvqhag","pricing_plan_id":"cebpf4jnsgd1na2vs0mg"},{"bike_id":"c8e44e12-42ed-4575-8f4a-3e0634530372","system_id":"levelo_inurba_marseille","lat":43.28464,"lon":5.35894,"is_reserved":false,"is_disabled":false,"rental_uris":{"android":"levelo://app?vid=c8e44e12-42ed-4575-8f4a-3e0634530372","ios":"levelo://app?vid=c8e44e12-42ed-4575-8f4a-3e0634530372"},"vehicle_type_id":"4","last_reported":1730823075,"current_range_meters":14800,"station_id":"ce4bhah2rcd13ifvqei0","pricing_plan_id":"cebpf4jnsgd1na2vs0mg"},{"bike_id":"6f2db367-1a78-461d-b3b5-2e8a58fbe95d","system_id":"levelo_inurba_marseille","lat":43.27727,"lon":5.383455,"is_reserved":false,"is_disabled":false,"rental_uris":{"android":"levelo://app?vid=6f2db367-1a78-461d-b3b5-2e8a58fbe95d","ios":"levelo://app?vid=6f2db367-1a78-461d-b3b5-2e8a58fbe95d"},"vehicle_type_id":"4","last_reported":1730823075,"current_range_meters":26800,"station_id":"ce4bhg12rcd13ifvqf80","pricing_plan_id":"cebpf4jnsgd1na2vs0mg"},{"bike_id":"990c4cc6-4f2c-4a0b-bf77-1f6a3f106100","system_id":"levelo_inurba_marseille","lat":43.33024,"lon":5.39042,"is_reserved":false,"is_disabled":false,"rental_uris":{"android":"levelo://app?vid=990c4cc6-4f2c-4a0b-bf77-1f6a3f106100","ios":"levelo://app?vid=990c4cc6-4f2c-4a0b-bf77-1f6a3f106100"},"vehicle_type_id":"4","last_reported":1730823075,"current_range_meters":12000,"station_id":"ce4bhr92rcd13ifvqhrg","pricing_plan_id":"cebpf4jnsgd1na2vs0mg"},{"bike_id":"0bc693d2-d961-4eee-a856-7fd1c463129d","system_id":"levelo_inurba_marseille","lat":43.29569,"lon":5.37535,"is_reserved":false,"is_disabled":false,"rental_uris":{"android":"levelo://app?vid=0bc693d2-d961-4eee-a856-7fd1c463129d","ios":"levelo://app?vid=0bc693d2-d961-4eee-a856-7fd1c463129d"},"vehicle_type_id":"4","last_reported":1730823075,"current_range_meters":32000,"station_id":"ce4bgh92rcd13ifvqb50","pricing_plan_id":"cebpf4jnsgd1na2vs0mg"},{"bike_id":"0a3c1a6b-eadc-4e53-adb5-ce60bbc39060","system_id":"levelo_inurba_marseille","lat":43.33029,"lon":5.39037,"is_reserved":false,"is_disabled":false,"rental_uris":{"android":"levelo://app?vid=0a3c1a6b-eadc-4e53-adb5-ce60bbc39060","ios":"levelo://app?vid=0a3c1a6b-eadc-4e53-adb5-ce60bbc39060"},"vehicle_type_id":"4","last_reported":1730823075,"current_range_meters":39200,"station_id":"ce4bhr92rcd13ifvqhrg","pricing_plan_id":"cebpf4jnsgd1na2vs0mg"},{"bike_id":"4e5b844c-7b9a-4d72-b44c-dc3b7736deec","system_id":"levelo_inurba_marseille","lat":43.27172,"lon":5.40996,"is_reserved":false,"is_disabled":false,"rental_uris":{"android":"levelo://app?vid=4e5b844c-7b9a-4d72-b44c-dc3b7736deec","ios":"levelo://app?vid=4e5b844c-7b9a-4d72-b44c-dc3b7736deec"},"vehicle_type_id":"4","last_reported":1730823075,"current_range_meters":11600,"station_id":"ce4bhl12rcd13ifvqgf0","pricing_plan_id":"cebpf4jnsgd1na2vs0mg"},{"bike_id":"382cf05d-fc9a-4ebb-8bf2-64026cd9a29f","system_id":"levelo_inurba_marseille","lat":43.33775,"lon":5.3743,"is_reserved":false,"is_disabled":false,"rental_uris":{"android":"levelo://app?vid=382cf05d-fc9a-4ebb-8bf2-64026cd9a29f","ios":"levelo://app?vid=382cf05d-fc9a-4ebb-8bf2-64026cd9a29f"},"vehicle_type_id":"4","last_reported":1730823075,"current_range_meters":38800,"station_id":"","pricing_plan_id":"cebpf4jnsgd1na2vs0mg"},{"bike_id":"f114df28-9b15-4ef1-8a6d-9594ad12810a","system_id":"levelo_inurba_marseille","lat":43.29095,"lon":5.38107,"is_reserved":false,"is_disabled":false,"rental_uris":{"android":"levelo://app?vid=f114df28-9b15-4ef1-8a6d-9594ad12810a","ios":"levelo://app?vid=f114df28-9b15-4ef1-8a6d-9594ad12810a"},"vehicle_type_id":"4","last_reported":1730823075,"current_range_meters":28800,"station_id":"ce4bh512rcd13ifvqe2g","pricing_plan_id":"cebpf4jnsgd1na2vs0mg"},{"bike_id":"c50677bd-2648-4b2c-a85d-fa9aec0be895","system_id":"levelo_inurba_marseille","lat":43.30552,"lon":5.36536,"is_reserved":false,"is_disabled":false,"rental_uris":{"android":"levelo://app?vid=c50677bd-2648-4b2c-a85d-fa9aec0be895","ios":"levelo://app?vid=c50677bd-2648-4b2c-a85d-fa9aec0be895"},"vehicle_type_id":"4","last_reported":1730823075,"current_range_meters":38800,"station_id":"ce4bgs12rcd13ifvqcag","pricing_plan_id":"cebpf4jnsgd1na2vs0mg"},{"bike_id":"202431af-8d33-44c7-8469-ebc4c45a8608","system_id":"levelo_inurba_marseille","lat":43.27192,"lon":5.39185,"is_reserved":false,"is_disabled":false,"rental_uris":{"android":"levelo://app?vid=202431af-8d33-44c7-8469-ebc4c45a8608","ios":"levelo://app?vid=202431af-8d33-44c7-8469-ebc4c45a8608"},"vehicle_type_id":"4","last_reported":1730823075,"current_range_meters":22800,"station_id":"ce4bhhp2rcd13ifvqfm0","pricing_plan_id":"cebpf4jnsgd1na2vs0mg"},{"bike_id":"500d1315-bc60-43a2-a80d-ba46f718b71a","system_id":"levelo_inurba_marseille","lat":43.28717,"lon":5.36102,"is_reserved":false,"is_disabled":false,"rental_uris":{"android":"levelo://app?vid=500d1315-bc60-43a2-a80d-ba46f718b71a","ios":"levelo://app?vid=500d1315-bc60-43a2-a80d-ba46f718b71a"},"vehicle_type_id":"4","last_reported":1730823075,"current_range_meters":26800,"station_id":"cki0cbj6b192h4jlfktg","pricing_plan_id":"cebpf4jnsgd1na2vs0mg"},{"bike_id":"f6fac252-bcfe-4359-8cd8-84ee90eebb7d","system_id":"levelo_inurba_marseille","lat":43.305262,"lon":5.365411,"is_reserved":false,"is_disabled":false,"rental_uris":{"android":"levelo://app?vid=f6fac252-bcfe-4359-8cd8-84ee90eebb7d","ios":"levelo://app?vid=f6fac252-bcfe-4359-8cd8-84ee90eebb7d"},"vehicle_type_id":"4","last_reported":1730823075,"current_range_meters":38800,"station_id":"ce4bgs12rcd13ifvqcag","pricing_plan_id":"cebpf4jnsgd1na2vs0mg"},{"bike_id":"b05fb6f4-a0f1-4a49-9f05-8a9bca9237a8","system_id":"levelo_inurba_marseille","lat":43.28421,"lon":5.37506,"is_reserved":false,"is_disabled":false,"rental_uris":{"android":"levelo://app?vid=b05fb6f4-a0f1-4a49-9f05-8a9bca9237a8","ios":"levelo://app?vid=b05fb6f4-a0f1-4a49-9f05-8a9bca9237a8"},"vehicle_type_id":"4","last_reported":1730823075,"current_range_meters":27600,"station_id":"ce4bh412rcd13ifvqds0","pricing_plan_id":"cebpf4jnsgd1na2vs0mg"},{"bike_id":"1afae486-558a-48f2-a140-81f60c3ec793","system_id":"levelo_inurba_marseille","lat":43.30595,"lon":5.39349,"is_reserved":false,"is_disabled":false,"rental_uris":{"android":"levelo://app?vid=1afae486-558a-48f2-a140-81f60c3ec793","ios":"levelo://app?vid=1afae486-558a-48f2-a140-81f60c3ec793"},"vehicle_type_id":"4","last_reported":1730823075,"current_range_meters":3600,"station_id":"ce4bh0p2rcd13ifvqd80","pricing_plan_id":"cebpf4jnsgd1na2vs0mg"},{"bike_id":"fc7e1c38-5ceb-4fb3-9afa-990ebfb95007","system_id":"levelo_inurba_marseille","lat":43.23147,"lon":5.43712,"is_reserved":false,"is_disabled":false,"rental_uris":{"android":"levelo://app?vid=fc7e1c38-5ceb-4fb3-9afa-990ebfb95007","ios":"levelo://app?vid=fc7e1c38-5ceb-4fb3-9afa-990ebfb95007"},"vehicle_type_id":"4","last_reported":1730823075,"current_range_meters":38800,"station_id":"ce4bhmp2rcd13ifvqgog","pricing_plan_id":"cebpf4jnsgd1na2vs0mg"},{"bike_id":"26c7a904-2c11-4340-ad4b-a0fc1e0e2329","system_id":"levelo_inurba_marseille","lat":43.29279,"lon":5.37466,"is_reserved":false,"is_disabled":false,"rental_uris":{"android":"levelo://app?vid=26c7a904-2c11-4340-ad4b-a0fc1e0e2329","ios":"levelo://app?vid=26c7a904-2c11-4340-ad4b-a0fc1e0e2329"},"vehicle_type_id":"4","last_reported":1730823075,"current_range_meters":6400,"station_id":"ce4bgi12rcd13ifvqb70","pricing_plan_id":"cebpf4jnsgd1na2vs0mg"},{"bike_id":"e43e03f0-5f54-43be-9825-157cccba847c","system_id":"levelo_inurba_marseille","lat":43.283435,"lon":5.381052,"is_reserved":false,"is_disabled":false,"rental_uris":{"android":"levelo://app?vid=e43e03f0-5f54-43be-9825-157cccba847c","ios":"levelo://app?vid=e43e03f0-5f54-43be-9825-157cccba847c"},"vehicle_type_id":"4","last_reported":1730823075,"current_range_meters":28400,"station_id":"ce4bh412rcd13ifvqdr0","pricing_plan_id":"cebpf4jnsgd1na2vs0mg"},{"bike_id":"3bde0c8c-24d6-45d1-974f-d510d1006b94","system_id":"levelo_inurba_marseille","lat":43.25496,"lon":5.37656,"is_reserved":false,"is_disabled":false,"rental_uris":{"android":"levelo://app?vid=3bde0c8c-24d6-45d1-974f-d510d1006b94","ios":"levelo://app?vid=3bde0c8c-24d6-45d1-974f-d510d1006b94"},"vehicle_type_id":"4","last_reported":1730823075,"current_range_meters":22800,"station_id":"ce4bhh12rcd13ifvqff0","pricing_plan_id":"cebpf4jnsgd1na2vs0mg"},{"bike_id":"1d27b3a1-f13e-4920-8c40-27faf2c97a48","system_id":"levelo_inurba_marseille","lat":43.23196,"lon":5.35554,"is_reserved":false,"is_disabled":false,"rental_uris":{"android":"levelo://app?vid=1d27b3a1-f13e-4920-8c40-27faf2c97a48","ios":"levelo://app?vid=1d27b3a1-f13e-4920-8c40-27faf2c97a48"},"vehicle_type_id":"4","last_reported":1730823075,"current_range_meters":38800,"station_id":"ce4bhu92rcd13ifvqi70","pricing_plan_id":"cebpf4jnsgd1na2vs0mg"},{"bike_id":"1a0593ba-0372-4403-b425-6fefe6f56e24","system_id":"levelo_inurba_marseille","lat":43.27205,"lon":5.39188,"is_reserved":false,"is_disabled":false,"rental_uris":{"android":"levelo://app?vid=1a0593ba-0372-4403-b425-6fefe6f56e24","ios":"levelo://app?vid=1a0593ba-0372-4403-b425-6fefe6f56e24"},"vehicle_type_id":"4","last_reported":1730823075,"current_range_meters":4000,"station_id":"ce4bhhp2rcd13ifvqfm0","pricing_plan_id":"cebpf4jnsgd1na2vs0mg"},{"bike_id":"3d50f600-dc31-4a75-be8e-f5e547d358d6","system_id":"levelo_inurba_marseille","lat":43.30927,"lon":5.40149,"is_reserved":false,"is_disabled":false,"rental_uris":{"android":"levelo://app?vid=3d50f600-dc31-4a75-be8e-f5e547d358d6","ios":"levelo://app?vid=3d50f600-dc31-4a75-be8e-f5e547d358d6"},"vehicle_type_id":"4","last_reported":1730823075,"current_range_meters":18000,"station_id":"ce4bgvp2rcd13ifvqct0","pricing_plan_id":"cebpf4jnsgd1na2vs0mg"},{"bike_id":"625bca1f-bb67-40d0-81ef-0603a5903e48","system_id":"levelo_inurba_marseille","lat":43.27994,"lon":5.40021,"is_reserved":false,"is_disabled":false,"rental_uris":{"android":"levelo://app?vid=625bca1f-bb67-40d0-81ef-0603a5903e48","ios":"levelo://app?vid=625bca1f-bb67-40d0-81ef-0603a5903e48"},"vehicle_type_id":"4","last_reported":1730823075,"current_range_meters":25200,"station_id":"ce4bho92rcd13ifvqh4g","pricing_plan_id":"cebpf4jnsgd1na2vs0mg"},{"bike_id":"93c1a1e5-7ffe-4a98-8b7c-24c6acb18bd4","system_id":"levelo_inurba_marseille","lat":43.2988,"lon":5.38903,"is_reserved":false,"is_disabled":false,"rental_uris":{"android":"levelo://app?vid=93c1a1e5-7ffe-4a98-8b7c-24c6acb18bd4","ios":"levelo://app?vid=93c1a1e5-7ffe-4a98-8b7c-24c6acb18bd4"},"vehicle_type_id":"4","last_reported":1730823075,"current_range_meters":29600,"station_id":"ce4bh392rcd13ifvqdl0","pricing_plan_id":"cebpf4jnsgd1na2vs0mg"},{"bike_id":"e7874ce2-f692-46c5-87b4-56890b100158","system_id":"levelo_inurba_marseille","lat":43.23064,"lon":5.35496,"is_reserved":false,"is_disabled":false,"rental_uris":{"android":"levelo://app?vid=e7874ce2-f692-46c5-87b4-56890b100158","ios":"levelo://app?vid=e7874ce2-f692-46c5-87b4-56890b100158"},"vehicle_type_id":"4","last_reported":1730823075,"current_range_meters":38800,"station_id":"cpo3342slgdg3j2ifvpg","pricing_plan_id":"cebpf4jnsgd1na2vs0mg"},{"bike_id":"a61582a0-f5fd-4931-9d23-e25f445ada3a","system_id":"levelo_inurba_marseille","lat":43.293884,"lon":5.394194,"is_reserved":false,"is_disabled":false,"rental_uris":{"android":"levelo://app?vid=a61582a0-f5fd-4931-9d23-e25f445ada3a","ios":"levelo://app?vid=a61582a0-f5fd-4931-9d23-e25f445ada3a"},"vehicle_type_id":"4","last_reported":1730823075,"current_range_meters":7200,"station_id":"ce4bh3h2rcd13ifvqdo0","pricing_plan_id":"cebpf4jnsgd1na2vs0mg"},{"bike_id":"3e06d000-cb3f-4564-ba27-95e2673d7185","system_id":"levelo_inurba_marseille","lat":43.29609,"lon":5.37714,"is_reserved":false,"is_disabled":false,"rental_uris":{"android":"levelo://app?vid=3e06d000-cb3f-4564-ba27-95e2673d7185","ios":"levelo://app?vid=3e06d000-cb3f-4564-ba27-95e2673d7185"},"vehicle_type_id":"4","last_reported":1730823075,"current_range_meters":38000,"station_id":"ce4bgi92rcd13ifvqb90","pricing_plan_id":"cebpf4jnsgd1na2vs0mg"},{"bike_id":"a2f50db2-6f88-44f7-8800-ddf682d5a5cd","system_id":"levelo_inurba_marseille","lat":43.30135,"lon":5.39868,"is_reserved":false,"is_disabled":false,"rental_uris":{"android":"levelo://app?vid=a2f50db2-6f88-44f7-8800-ddf682d5a5cd","ios":"levelo://app?vid=a2f50db2-6f88-44f7-8800-ddf682d5a5cd"},"vehicle_type_id":"4","last_reported":1730823075,"current_range_meters":36400,"station_id":"ce4bh0h2rcd13ifvqd40","pricing_plan_id":"cebpf4jnsgd1na2vs0mg"},{"bike_id":"53b9295e-684a-43f7-957a-0b7e7e8ad690","system_id":"levelo_inurba_marseille","lat":43.27368,"lon":5.36269,"is_reserved":false,"is_disabled":false,"rental_uris":{"android":"levelo://app?vid=53b9295e-684a-43f7-957a-0b7e7e8ad690","ios":"levelo://app?vid=53b9295e-684a-43f7-957a-0b7e7e8ad690"},"vehicle_type_id":"4","last_reported":1730823075,"current_range_meters":15200,"station_id":"ce4bhbh2rcd13ifvqeo0","pricing_plan_id":"cebpf4jnsgd1na2vs0mg"},{"bike_id":"ceb27efe-ac59-4462-b766-3aaa3a648515","system_id":"levelo_inurba_marseille","lat":43.2781,"lon":5.40716,"is_reserved":false,"is_disabled":false,"rental_uris":{"android":"levelo://app?vid=ceb27efe-ac59-4462-b766-3aaa3a648515","ios":"levelo://app?vid=ceb27efe-ac59-4462-b766-3aaa3a648515"},"vehicle_type_id":"4","last_reported":1730823075,"current_range_meters":24000,"station_id":"ce4bhnh2rcd13ifvqgtg","pricing_plan_id":"cebpf4jnsgd1na2vs0mg"},{"bike_id":"fcf9d59e-46dd-4fd2-9642-27e0cceb5ec5","system_id":"levelo_inurba_marseille","lat":43.29707,"lon":5.37696,"is_reserved":false,"is_disabled":false,"rental_uris":{"android":"levelo://app?vid=fcf9d59e-46dd-4fd2-9642-27e0cceb5ec5","ios":"levelo://app?vid=fcf9d59e-46dd-4fd2-9642-27e0cceb5ec5"},"vehicle_type_id":"4","last_reported":1730823075,"current_range_meters":36800,"station_id":"ce4bgkh2rcd13ifvqbl0","pricing_plan_id":"cebpf4jnsgd1na2vs0mg"},{"bike_id":"546ee349-e344-4347-91c6-1762e2666f1d","system_id":"levelo_inurba_marseille","lat":43.31685,"lon":5.40481,"is_reserved":false,"is_disabled":false,"rental_uris":{"android":"levelo://app?vid=546ee349-e344-4347-91c6-1762e2666f1d","ios":"levelo://app?vid=546ee349-e344-4347-91c6-1762e2666f1d"},"vehicle_type_id":"4","last_reported":1730823075,"current_range_meters":21600,"station_id":"ce4bh012rcd13ifvqd00","pricing_plan_id":"cebpf4jnsgd1na2vs0mg"},{"bike_id":"c00bea07-7fca-48ff-b2cb-06a7ad838c9c","system_id":"levelo_inurba_marseille","lat":43.3054,"lon":5.36548,"is_reserved":false,"is_disabled":false,"rental_uris":{"android":"levelo://app?vid=c00bea07-7fca-48ff-b2cb-06a7ad838c9c","ios":"levelo://app?vid=c00bea07-7fca-48ff-b2cb-06a7ad838c9c"},"vehicle_type_id":"4","last_reported":1730823075,"current_range_meters":38800,"station_id":"ce4bgs12rcd13ifvqcag","pricing_plan_id":"cebpf4jnsgd1na2vs0mg"},{"bike_id":"8ec7a0f8-0810-4f63-a3ea-9187f3130e04","system_id":"levelo_inurba_marseille","lat":43.28082,"lon":5.3966,"is_reserved":false,"is_disabled":false,"rental_uris":{"android":"levelo://app?vid=8ec7a0f8-0810-4f63-a3ea-9187f3130e04","ios":"levelo://app?vid=8ec7a0f8-0810-4f63-a3ea-9187f3130e04"},"vehicle_type_id":"4","last_reported":1730823075,"current_range_meters":25600,"station_id":"ce4bho12rcd13ifvqh2g","pricing_plan_id":"cebpf4jnsgd1na2vs0mg"},{"bike_id":"f2ca0e35-5146-43e2-b89c-77b9663ae6bf","system_id":"levelo_inurba_marseille","lat":43.25855,"lon":5.39444,"is_reserved":false,"is_disabled":false,"rental_uris":{"android":"levelo://app?vid=f2ca0e35-5146-43e2-b89c-77b9663ae6bf","ios":"levelo://app?vid=f2ca0e35-5146-43e2-b89c-77b9663ae6bf"},"vehicle_type_id":"4","last_reported":1730823075,"current_range_meters":12400,"station_id":"ce4bhh92rcd13ifvqfj0","pricing_plan_id":"cebpf4jnsgd1na2vs0mg"},{"bike_id":"c6660c5c-3b3e-4729-9c1c-fe1a31ecd2e9","system_id":"levelo_inurba_marseille","lat":43.32478,"lon":5.36573,"is_reserved":false,"is_disabled":false,"rental_uris":{"android":"levelo://app?vid=c6660c5c-3b3e-4729-9c1c-fe1a31ecd2e9","ios":"levelo://app?vid=c6660c5c-3b3e-4729-9c1c-fe1a31ecd2e9"},"vehicle_type_id":"4","last_reported":1730823075,"current_range_meters":34800,"station_id":"ce4bhs12rcd13ifvqhvg","pricing_plan_id":"cebpf4jnsgd1na2vs0mg"},{"bike_id":"ef2c03b8-c03c-4d2d-83de-28332610f75c","system_id":"levelo_inurba_marseille","lat":43.2791,"lon":5.37998,"is_reserved":false,"is_disabled":false,"rental_uris":{"android":"levelo://app?vid=ef2c03b8-c03c-4d2d-83de-28332610f75c","ios":"levelo://app?vid=ef2c03b8-c03c-4d2d-83de-28332610f75c"},"vehicle_type_id":"4","last_reported":1730823075,"current_range_meters":23200,"station_id":"ce4bhf92rcd13ifvqf50","pricing_plan_id":"cebpf4jnsgd1na2vs0mg"},{"bike_id":"eab47ed5-f83a-4939-80d1-ff052743bdd1","system_id":"levelo_inurba_marseille","lat":43.32105,"lon":5.36786,"is_reserved":false,"is_disabled":false,"rental_uris":{"android":"levelo://app?vid=eab47ed5-f83a-4939-80d1-ff052743bdd1","ios":"levelo://app?vid=eab47ed5-f83a-4939-80d1-ff052743bdd1"},"vehicle_type_id":"4","last_reported":1730823075,"current_range_meters":30400,"station_id":"ce4bhrh2rcd13ifvqhug","pricing_plan_id":"cebpf4jnsgd1na2vs0mg"},{"bike_id":"1c5605e4-6a20-44e3-b2ef-bf0ce9b1e84c","system_id":"levelo_inurba_marseille","lat":43.2985,"lon":5.39736,"is_reserved":false,"is_disabled":false,"rental_uris":{"android":"levelo://app?vid=1c5605e4-6a20-44e3-b2ef-bf0ce9b1e84c","ios":"levelo://app?vid=1c5605e4-6a20-44e3-b2ef-bf0ce9b1e84c"},"vehicle_type_id":"4","last_reported":1730823075,"current_range_meters":10000,"station_id":"ce4bh0h2rcd13ifvqd50","pricing_plan_id":"cebpf4jnsgd1na2vs0mg"},{"bike_id":"2fac616e-c10f-4b93-9777-09eb2ba8f7e5","system_id":"levelo_inurba_marseille","lat":43.32479,"lon":5.36567,"is_reserved":false,"is_disabled":false,"rental_uris":{"android":"levelo://app?vid=2fac616e-c10f-4b93-9777-09eb2ba8f7e5","ios":"levelo://app?vid=2fac616e-c10f-4b93-9777-09eb2ba8f7e5"},"vehicle_type_id":"4","last_reported":1730823075,"current_range_meters":38800,"station_id":"ce4bhs12rcd13ifvqhvg","pricing_plan_id":"cebpf4jnsgd1na2vs0mg"},{"bike_id":"a0220463-e9a5-4762-8125-312ce5dd61f0","system_id":"levelo_inurba_marseille","lat":43.25494,"lon":5.37652,"is_reserved":false,"is_disabled":false,"rental_uris":{"android":"levelo://app?vid=a0220463-e9a5-4762-8125-312ce5dd61f0","ios":"levelo://app?vid=a0220463-e9a5-4762-8125-312ce5dd61f0"},"vehicle_type_id":"4","last_reported":1730823075,"current_range_meters":23200,"station_id":"ce4bhh12rcd13ifvqff0","pricing_plan_id":"cebpf4jnsgd1na2vs0mg"},{"bike_id":"d209b447-cbb8-4ee8-b360-9577dfaa222f","system_id":"levelo_inurba_marseille","lat":43.26423,"lon":5.39589,"is_reserved":false,"is_disabled":false,"rental_uris":{"android":"levelo://app?vid=d209b447-cbb8-4ee8-b360-9577dfaa222f","ios":"levelo://app?vid=d209b447-cbb8-4ee8-b360-9577dfaa222f"},"vehicle_type_id":"4","last_reported":1730823075,"current_range_meters":9200,"station_id":"","pricing_plan_id":"cebpf4jnsgd1na2vs0mg"},{"bike_id":"d0492e08-320c-4572-9629-7c941879d48c","system_id":"levelo_inurba_marseille","lat":43.28924,"lon":5.39636,"is_reserved":false,"is_disabled":false,"rental_uris":{"android":"levelo://app?vid=d0492e08-320c-4572-9629-7c941879d48c","ios":"levelo://app?vid=d0492e08-320c-4572-9629-7c941879d48c"},"vehicle_type_id":"4","last_reported":1730823075,"current_range_meters":8800,"station_id":"ce4bh3h2rcd13ifvqdn0","pricing_plan_id":"cebpf4jnsgd1na2vs0mg"},{"bike_id":"c4774159-8365-4552-8ea6-61491785d524","system_id":"levelo_inurba_marseille","lat":43.27989,"lon":5.41663,"is_reserved":false,"is_disabled":false,"rental_uris":{"android":"levelo://app?vid=c4774159-8365-4552-8ea6-61491785d524","ios":"levelo://app?vid=c4774159-8365-4552-8ea6-61491785d524"},"vehicle_type_id":"4","last_reported":1730823075,"current_range_meters":12000,"station_id":"ce4bho12rcd13ifvqh1g","pricing_plan_id":"cebpf4jnsgd1na2vs0mg"},{"bike_id":"98cef258-eb9e-4ec9-9913-db8f1dbd9527","system_id":"levelo_inurba_marseille","lat":43.31323,"lon":5.39694,"is_reserved":false,"is_disabled":false,"rental_uris":{"android":"levelo://app?vid=98cef258-eb9e-4ec9-9913-db8f1dbd9527","ios":"levelo://app?vid=98cef258-eb9e-4ec9-9913-db8f1dbd9527"},"vehicle_type_id":"4","last_reported":1730823075,"current_range_meters":8800,"station_id":"ce4bgvp2rcd13ifvqcu0","pricing_plan_id":"cebpf4jnsgd1na2vs0mg"},{"bike_id":"aac740e9-f8b6-4c4d-bdb9-eb9a8969cb44","system_id":"levelo_inurba_marseille","lat":43.26198,"lon":5.3793,"is_reserved":false,"is_disabled":false,"rental_uris":{"android":"levelo://app?vid=aac740e9-f8b6-4c4d-bdb9-eb9a8969cb44","ios":"levelo://app?vid=aac740e9-f8b6-4c4d-bdb9-eb9a8969cb44"},"vehicle_type_id":"4","last_reported":1730823075,"current_range_meters":19200,"station_id":"ce4bhjp2rcd13ifvqg90","pricing_plan_id":"cebpf4jnsgd1na2vs0mg"},{"bike_id":"88338970-6fd3-491d-b31a-a93eacb1e7c2","system_id":"levelo_inurba_marseille","lat":43.30646,"lon":5.400715,"is_reserved":false,"is_disabled":false,"rental_uris":{"android":"levelo://app?vid=88338970-6fd3-491d-b31a-a93eacb1e7c2","ios":"levelo://app?vid=88338970-6fd3-491d-b31a-a93eacb1e7c2"},"vehicle_type_id":"4","last_reported":1730823075,"current_range_meters":38800,"station_id":"ce4bh112rcd13ifvqda0","pricing_plan_id":"cebpf4jnsgd1na2vs0mg"},{"bike_id":"fbe3f7e4-d7c4-444d-9f29-57814bee6bc7","system_id":"levelo_inurba_marseille","lat":43.28618,"lon":5.351,"is_reserved":false,"is_disabled":false,"rental_uris":{"android":"levelo://app?vid=fbe3f7e4-d7c4-444d-9f29-57814bee6bc7","ios":"levelo://app?vid=fbe3f7e4-d7c4-444d-9f29-57814bee6bc7"},"vehicle_type_id":"4","last_reported":1730823075,"current_range_meters":8000,"station_id":"ce4bhch2rcd13ifvqeug","pricing_plan_id":"cebpf4jnsgd1na2vs0mg"},{"bike_id":"869be72e-00dc-4c8a-bb54-64f8b60f5885","system_id":"levelo_inurba_marseille","lat":43.25502,"lon":5.37652,"is_reserved":false,"is_disabled":false,"rental_uris":{"android":"levelo://app?vid=869be72e-00dc-4c8a-bb54-64f8b60f5885","ios":"levelo://app?vid=869be72e-00dc-4c8a-bb54-64f8b60f5885"},"vehicle_type_id":"4","last_reported":1730823075,"current_range_meters":28800,"station_id":"ce4bhh12rcd13ifvqff0","pricing_plan_id":"cebpf4jnsgd1na2vs0mg"},{"bike_id":"93a83a5c-0d3d-43a2-be24-e99a92c3575d","system_id":"levelo_inurba_marseille","lat":43.30835,"lon":5.37143,"is_reserved":false,"is_disabled":false,"rental_uris":{"android":"levelo://app?vid=93a83a5c-0d3d-43a2-be24-e99a92c3575d","ios":"levelo://app?vid=93a83a5c-0d3d-43a2-be24-e99a92c3575d"},"vehicle_type_id":"4","last_reported":1730823075,"current_range_meters":12000,"station_id":"ce4bguh2rcd13ifvqckg","pricing_plan_id":"cebpf4jnsgd1na2vs0mg"},{"bike_id":"61fdf647-d58a-4fbd-bfc7-2b1b808d286c","system_id":"levelo_inurba_marseille","lat":43.33021,"lon":5.39045,"is_reserved":false,"is_disabled":false,"rental_uris":{"android":"levelo://app?vid=61fdf647-d58a-4fbd-bfc7-2b1b808d286c","ios":"levelo://app?vid=61fdf647-d58a-4fbd-bfc7-2b1b808d286c"},"vehicle_type_id":"4","last_reported":1730823075,"current_range_meters":19600,"station_id":"ce4bhr92rcd13ifvqhrg","pricing_plan_id":"cebpf4jnsgd1na2vs0mg"},{"bike_id":"4d0b6d01-ef22-455c-86fb-6ef3d6cb7da6","system_id":"levelo_inurba_marseille","lat":43.29004,"lon":5.35604,"is_reserved":false,"is_disabled":false,"rental_uris":{"android":"levelo://app?vid=4d0b6d01-ef22-455c-86fb-6ef3d6cb7da6","ios":"levelo://app?vid=4d0b6d01-ef22-455c-86fb-6ef3d6cb7da6"},"vehicle_type_id":"4","last_reported":1730823075,"current_range_meters":6000,"station_id":"ce4bhb92rcd13ifvqen0","pricing_plan_id":"cebpf4jnsgd1na2vs0mg"},{"bike_id":"04575049-e232-448b-97cc-f84df2aa6e6a","system_id":"levelo_inurba_marseille","lat":43.32471,"lon":5.36568,"is_reserved":false,"is_disabled":false,"rental_uris":{"android":"levelo://app?vid=04575049-e232-448b-97cc-f84df2aa6e6a","ios":"levelo://app?vid=04575049-e232-448b-97cc-f84df2aa6e6a"},"vehicle_type_id":"4","last_reported":1730823075,"current_range_meters":40000,"station_id":"ce4bhs12rcd13ifvqhvg","pricing_plan_id":"cebpf4jnsgd1na2vs0mg"},{"bike_id":"7300ad8f-6e37-40f0-9e30-ade39b0cba62","system_id":"levelo_inurba_marseille","lat":43.3055,"lon":5.36721,"is_reserved":false,"is_disabled":false,"rental_uris":{"android":"levelo://app?vid=7300ad8f-6e37-40f0-9e30-ade39b0cba62","ios":"levelo://app?vid=7300ad8f-6e37-40f0-9e30-ade39b0cba62"},"vehicle_type_id":"4","last_reported":1730823075,"current_range_meters":31200,"station_id":"ce4bgrp2rcd13ifvqc9g","pricing_plan_id":"cebpf4jnsgd1na2vs0mg"},{"bike_id":"335245f1-55c0-4da7-baad-ce2bcd44bc35","system_id":"levelo_inurba_marseille","lat":43.27614,"lon":5.36113,"is_reserved":false,"is_disabled":false,"rental_uris":{"android":"levelo://app?vid=335245f1-55c0-4da7-baad-ce2bcd44bc35","ios":"levelo://app?vid=335245f1-55c0-4da7-baad-ce2bcd44bc35"},"vehicle_type_id":"4","last_reported":1730823075,"current_range_meters":4800,"station_id":"ce4bgj92rcd13ifvqbe0","pricing_plan_id":"cebpf4jnsgd1na2vs0mg"},{"bike_id":"942fde1f-76dc-4b68-91ce-7bfb5e926096","system_id":"levelo_inurba_marseille","lat":43.25001,"lon":5.38926,"is_reserved":false,"is_disabled":false,"rental_uris":{"android":"levelo://app?vid=942fde1f-76dc-4b68-91ce-7bfb5e926096","ios":"levelo://app?vid=942fde1f-76dc-4b68-91ce-7bfb5e926096"},"vehicle_type_id":"4","last_reported":1730823075,"current_range_meters":39200,"station_id":"ce4bhgp2rcd13ifvqfd0","pricing_plan_id":"cebpf4jnsgd1na2vs0mg"},{"bike_id":"5426cd4f-5d73-46d7-9904-6760d3b54863","system_id":"levelo_inurba_marseille","lat":43.28928,"lon":5.38353,"is_reserved":false,"is_disabled":false,"rental_uris":{"android":"levelo://app?vid=5426cd4f-5d73-46d7-9904-6760d3b54863","ios":"levelo://app?vid=5426cd4f-5d73-46d7-9904-6760d3b54863"},"vehicle_type_id":"4","last_reported":1730823075,"current_range_meters":32400,"station_id":"ce4bh612rcd13ifvqe6g","pricing_plan_id":"cebpf4jnsgd1na2vs0mg"},{"bike_id":"dfebd7a3-ff6c-4c87-9a32-38af985d8637","system_id":"levelo_inurba_marseille","lat":43.28943,"lon":5.3664,"is_reserved":false,"is_disabled":false,"rental_uris":{"android":"levelo://app?vid=dfebd7a3-ff6c-4c87-9a32-38af985d8637","ios":"levelo://app?vid=dfebd7a3-ff6c-4c87-9a32-38af985d8637"},"vehicle_type_id":"4","last_reported":1730823075,"current_range_meters":19200,"station_id":"ce4bhap2rcd13ifvqek0","pricing_plan_id":"cebpf4jnsgd1na2vs0mg"},{"bike_id":"314504e5-a39d-46f5-933a-e84e1e1a18cd","system_id":"levelo_inurba_marseille","lat":43.30913,"lon":5.36847,"is_reserved":false,"is_disabled":false,"rental_uris":{"android":"levelo://app?vid=314504e5-a39d-46f5-933a-e84e1e1a18cd","ios":"levelo://app?vid=314504e5-a39d-46f5-933a-e84e1e1a18cd"},"vehicle_type_id":"4","last_reported":1730823075,"current_range_meters":14000,"station_id":"ce4bgn92rcd13ifvqbvg","pricing_plan_id":"cebpf4jnsgd1na2vs0mg"},{"bike_id":"c4f8a5ca-6952-4b31-80d7-60f7730d6a84","system_id":"levelo_inurba_marseille","lat":43.32655,"lon":5.40994,"is_reserved":false,"is_disabled":false,"rental_uris":{"android":"levelo://app?vid=c4f8a5ca-6952-4b31-80d7-60f7730d6a84","ios":"levelo://app?vid=c4f8a5ca-6952-4b31-80d7-60f7730d6a84"},"vehicle_type_id":"4","last_reported":1730823075,"current_range_meters":3200,"station_id":"ce4bhpp2rcd13ifvqhgg","pricing_plan_id":"cebpf4jnsgd1na2vs0mg"},{"bike_id":"f5b7d30e-ef63-4628-a74f-2ea8b25469b1","system_id":"levelo_inurba_marseille","lat":43.30131,"lon":5.39867,"is_reserved":false,"is_disabled":false,"rental_uris":{"android":"levelo://app?vid=f5b7d30e-ef63-4628-a74f-2ea8b25469b1","ios":"levelo://app?vid=f5b7d30e-ef63-4628-a74f-2ea8b25469b1"},"vehicle_type_id":"4","last_reported":1730823075,"current_range_meters":38000,"station_id":"ce4bh0h2rcd13ifvqd40","pricing_plan_id":"cebpf4jnsgd1na2vs0mg"},{"bike_id":"d74360a7-cce2-4782-982b-e9593aa5d07d","system_id":"levelo_inurba_marseille","lat":43.3133,"lon":5.39699,"is_reserved":false,"is_disabled":false,"rental_uris":{"android":"levelo://app?vid=d74360a7-cce2-4782-982b-e9593aa5d07d","ios":"levelo://app?vid=d74360a7-cce2-4782-982b-e9593aa5d07d"},"vehicle_type_id":"4","last_reported":1730823075,"current_range_meters":36400,"station_id":"ce4bgvp2rcd13ifvqcu0","pricing_plan_id":"cebpf4jnsgd1na2vs0mg"},{"bike_id":"2e5b4eda-1e00-4de7-bf32-df40f4d56ed2","system_id":"levelo_inurba_marseille","lat":43.32476,"lon":5.36558,"is_reserved":false,"is_disabled":false,"rental_uris":{"android":"levelo://app?vid=2e5b4eda-1e00-4de7-bf32-df40f4d56ed2","ios":"levelo://app?vid=2e5b4eda-1e00-4de7-bf32-df40f4d56ed2"},"vehicle_type_id":"4","last_reported":1730823075,"current_range_meters":9200,"station_id":"ce4bhs12rcd13ifvqhvg","pricing_plan_id":"cebpf4jnsgd1na2vs0mg"},{"bike_id":"066bcc02-2293-4ec0-889a-8132eb791524","system_id":"levelo_inurba_marseille","lat":43.29971,"lon":5.3717,"is_reserved":false,"is_disabled":false,"rental_uris":{"android":"levelo://app?vid=066bcc02-2293-4ec0-889a-8132eb791524","ios":"levelo://app?vid=066bcc02-2293-4ec0-889a-8132eb791524"},"vehicle_type_id":"4","last_reported":1730823075,"current_range_meters":38800,"station_id":"ce4bgr92rcd13ifvqc7g","pricing_plan_id":"cebpf4jnsgd1na2vs0mg"},{"bike_id":"4fd336fb-ec63-4d09-84d4-45cf143f4508","system_id":"levelo_inurba_marseille","lat":43.31324,"lon":5.39695,"is_reserved":false,"is_disabled":false,"rental_uris":{"android":"levelo://app?vid=4fd336fb-ec63-4d09-84d4-45cf143f4508","ios":"levelo://app?vid=4fd336fb-ec63-4d09-84d4-45cf143f4508"},"vehicle_type_id":"4","last_reported":1730823075,"current_range_meters":38000,"station_id":"ce4bgvp2rcd13ifvqcu0","pricing_plan_id":"cebpf4jnsgd1na2vs0mg"},{"bike_id":"a4cc377d-f1b9-4996-bf6b-f5eca70327ec","system_id":"levelo_inurba_marseille","lat":43.32476,"lon":5.36566,"is_reserved":false,"is_disabled":false,"rental_uris":{"android":"levelo://app?vid=a4cc377d-f1b9-4996-bf6b-f5eca70327ec","ios":"levelo://app?vid=a4cc377d-f1b9-4996-bf6b-f5eca70327ec"},"vehicle_type_id":"4","last_reported":1730823075,"current_range_meters":18800,"station_id":"ce4bhs12rcd13ifvqhvg","pricing_plan_id":"cebpf4jnsgd1na2vs0mg"},{"bike_id":"84ca1dbe-c34b-4974-b956-025f0d47e444","system_id":"levelo_inurba_marseille","lat":43.28435,"lon":5.39198,"is_reserved":false,"is_disabled":false,"rental_uris":{"android":"levelo://app?vid=84ca1dbe-c34b-4974-b956-025f0d47e444","ios":"levelo://app?vid=84ca1dbe-c34b-4974-b956-025f0d47e444"},"vehicle_type_id":"4","last_reported":1730823075,"current_range_meters":16000,"station_id":"ce4bht12rcd13ifvqi60","pricing_plan_id":"cebpf4jnsgd1na2vs0mg"},{"bike_id":"2d59967c-0846-495a-9c9f-b4137384c672","system_id":"levelo_inurba_marseille","lat":43.30536,"lon":5.36704,"is_reserved":false,"is_disabled":false,"rental_uris":{"android":"levelo://app?vid=2d59967c-0846-495a-9c9f-b4137384c672","ios":"levelo://app?vid=2d59967c-0846-495a-9c9f-b4137384c672"},"vehicle_type_id":"4","last_reported":1730823075,"current_range_meters":29600,"station_id":"ce4bgrp2rcd13ifvqc9g","pricing_plan_id":"cebpf4jnsgd1na2vs0mg"},{"bike_id":"1980992b-b97e-4255-8ed1-9b446fc18ca7","system_id":"levelo_inurba_marseille","lat":43.27054,"lon":5.40263,"is_reserved":false,"is_disabled":false,"rental_uris":{"android":"levelo://app?vid=1980992b-b97e-4255-8ed1-9b446fc18ca7","ios":"levelo://app?vid=1980992b-b97e-4255-8ed1-9b446fc18ca7"},"vehicle_type_id":"4","last_reported":1730823075,"current_range_meters":21600,"station_id":"ce4bhk92rcd13ifvqgc0","pricing_plan_id":"cebpf4jnsgd1na2vs0mg"},{"bike_id":"b961c364-69f9-4b3b-a2e6-fc6563170e45","system_id":"levelo_inurba_marseille","lat":43.32474,"lon":5.36575,"is_reserved":false,"is_disabled":false,"rental_uris":{"android":"levelo://app?vid=b961c364-69f9-4b3b-a2e6-fc6563170e45","ios":"levelo://app?vid=b961c364-69f9-4b3b-a2e6-fc6563170e45"},"vehicle_type_id":"4","last_reported":1730823075,"current_range_meters":40000,"station_id":"ce4bhs12rcd13ifvqhvg","pricing_plan_id":"cebpf4jnsgd1na2vs0mg"},{"bike_id":"f499ee90-51c0-42ea-bee6-b8b5c260f80a","system_id":"levelo_inurba_marseille","lat":43.32056,"lon":5.41549,"is_reserved":false,"is_disabled":false,"rental_uris":{"android":"levelo://app?vid=f499ee90-51c0-42ea-bee6-b8b5c260f80a","ios":"levelo://app?vid=f499ee90-51c0-42ea-bee6-b8b5c260f80a"},"vehicle_type_id":"4","last_reported":1730823075,"current_range_meters":36800,"station_id":"ce4bhq92rcd13ifvqhkg","pricing_plan_id":"cebpf4jnsgd1na2vs0mg"},{"bike_id":"4e7f9dac-2260-4c20-a364-917572cafa28","system_id":"levelo_inurba_marseille","lat":43.27422,"lon":5.39414,"is_reserved":false,"is_disabled":false,"rental_uris":{"android":"levelo://app?vid=4e7f9dac-2260-4c20-a364-917572cafa28","ios":"levelo://app?vid=4e7f9dac-2260-4c20-a364-917572cafa28"},"vehicle_type_id":"4","last_reported":1730823075,"current_range_meters":24800,"station_id":"ce4bhdp2rcd13ifvqf20","pricing_plan_id":"cebpf4jnsgd1na2vs0mg"},{"bike_id":"aef71622-d0f6-4941-bcfc-4603bad004e6","system_id":"levelo_inurba_marseille","lat":43.3055,"lon":5.36547,"is_reserved":false,"is_disabled":false,"rental_uris":{"android":"levelo://app?vid=aef71622-d0f6-4941-bcfc-4603bad004e6","ios":"levelo://app?vid=aef71622-d0f6-4941-bcfc-4603bad004e6"},"vehicle_type_id":"4","last_reported":1730823075,"current_range_meters":35200,"station_id":"ce4bgs12rcd13ifvqcag","pricing_plan_id":"cebpf4jnsgd1na2vs0mg"},{"bike_id":"eaa75120-457f-4f1e-a35e-9335a679a03f","system_id":"levelo_inurba_marseille","lat":43.30874,"lon":5.39652,"is_reserved":false,"is_disabled":false,"rental_uris":{"android":"levelo://app?vid=eaa75120-457f-4f1e-a35e-9335a679a03f","ios":"levelo://app?vid=eaa75120-457f-4f1e-a35e-9335a679a03f"},"vehicle_type_id":"4","last_reported":1730823075,"current_range_meters":38400,"station_id":"ce4bh012rcd13ifvqcv0","pricing_plan_id":"cebpf4jnsgd1na2vs0mg"},{"bike_id":"1a8c5844-8cbe-4fd1-a7f4-7b0efe210728","system_id":"levelo_inurba_marseille","lat":43.29167,"lon":5.42739,"is_reserved":false,"is_disabled":false,"rental_uris":{"android":"levelo://app?vid=1a8c5844-8cbe-4fd1-a7f4-7b0efe210728","ios":"levelo://app?vid=1a8c5844-8cbe-4fd1-a7f4-7b0efe210728"},"vehicle_type_id":"4","last_reported":1730823075,"current_range_meters":18000,"station_id":"","pricing_plan_id":"cebpf4jnsgd1na2vs0mg"},{"bike_id":"84ad12f4-555d-4a85-a299-0a29b117aa65","system_id":"levelo_inurba_marseille","lat":43.30218,"lon":5.39464,"is_reserved":false,"is_disabled":false,"rental_uris":{"android":"levelo://app?vid=84ad12f4-555d-4a85-a299-0a29b117aa65","ios":"levelo://app?vid=84ad12f4-555d-4a85-a299-0a29b117aa65"},"vehicle_type_id":"4","last_reported":1730823075,"current_range_meters":38800,"station_id":"ce4bh0p2rcd13ifvqd70","pricing_plan_id":"cebpf4jnsgd1na2vs0mg"},{"bike_id":"e74fa1ef-347c-4f40-bd8c-c8d6660f0678","system_id":"levelo_inurba_marseille","lat":43.26026,"lon":5.3755,"is_reserved":false,"is_disabled":false,"rental_uris":{"android":"levelo://app?vid=e74fa1ef-347c-4f40-bd8c-c8d6660f0678","ios":"levelo://app?vid=e74fa1ef-347c-4f40-bd8c-c8d6660f0678"},"vehicle_type_id":"4","last_reported":1730823075,"current_range_meters":32400,"station_id":"ce4bhgh2rcd13ifvqfa0","pricing_plan_id":"cebpf4jnsgd1na2vs0mg"},{"bike_id":"8ff88794-cacf-4a53-9e45-df7b08a65929","system_id":"levelo_inurba_marseille","lat":43.31327,"lon":5.39703,"is_reserved":false,"is_disabled":false,"rental_uris":{"android":"levelo://app?vid=8ff88794-cacf-4a53-9e45-df7b08a65929","ios":"levelo://app?vid=8ff88794-cacf-4a53-9e45-df7b08a65929"},"vehicle_type_id":"4","last_reported":1730823075,"current_range_meters":38000,"station_id":"ce4bgvp2rcd13ifvqcu0","pricing_plan_id":"cebpf4jnsgd1na2vs0mg"},{"bike_id":"117a9406-128e-4323-b245-b2932b759e2b","system_id":"levelo_inurba_marseille","lat":43.33028,"lon":5.39042,"is_reserved":false,"is_disabled":false,"rental_uris":{"android":"levelo://app?vid=117a9406-128e-4323-b245-b2932b759e2b","ios":"levelo://app?vid=117a9406-128e-4323-b245-b2932b759e2b"},"vehicle_type_id":"4","last_reported":1730823075,"current_range_meters":8800,"station_id":"ce4bhr92rcd13ifvqhrg","pricing_plan_id":"cebpf4jnsgd1na2vs0mg"},{"bike_id":"e8ab37f9-17b1-45a1-ae54-f1669e1a75cb","system_id":"levelo_inurba_marseille","lat":43.29691,"lon":5.3771,"is_reserved":false,"is_disabled":false,"rental_uris":{"android":"levelo://app?vid=e8ab37f9-17b1-45a1-ae54-f1669e1a75cb","ios":"levelo://app?vid=e8ab37f9-17b1-45a1-ae54-f1669e1a75cb"},"vehicle_type_id":"4","last_reported":1730823075,"current_range_meters":28800,"station_id":"ce4bgkh2rcd13ifvqbl0","pricing_plan_id":"cebpf4jnsgd1na2vs0mg"},{"bike_id":"b6da3b5a-ddaa-446f-9dad-2712ed86bbe0","system_id":"levelo_inurba_marseille","lat":43.29091,"lon":5.38125,"is_reserved":false,"is_disabled":false,"rental_uris":{"android":"levelo://app?vid=b6da3b5a-ddaa-446f-9dad-2712ed86bbe0","ios":"levelo://app?vid=b6da3b5a-ddaa-446f-9dad-2712ed86bbe0"},"vehicle_type_id":"4","last_reported":1730823075,"current_range_meters":27600,"station_id":"ce4bh512rcd13ifvqe2g","pricing_plan_id":"cebpf4jnsgd1na2vs0mg"},{"bike_id":"91e0571d-9755-4193-9dde-45b769731122","system_id":"levelo_inurba_marseille","lat":43.28267,"lon":5.35075,"is_reserved":false,"is_disabled":false,"rental_uris":{"android":"levelo://app?vid=91e0571d-9755-4193-9dde-45b769731122","ios":"levelo://app?vid=91e0571d-9755-4193-9dde-45b769731122"},"vehicle_type_id":"4","last_reported":1730823075,"current_range_meters":32000,"station_id":"ce4bhbp2rcd13ifvqerg","pricing_plan_id":"cebpf4jnsgd1na2vs0mg"},{"bike_id":"6676ee4c-d19f-4874-b4e5-8ce7671f5e65","system_id":"levelo_inurba_marseille","lat":43.30311,"lon":5.36909,"is_reserved":false,"is_disabled":false,"rental_uris":{"android":"levelo://app?vid=6676ee4c-d19f-4874-b4e5-8ce7671f5e65","ios":"levelo://app?vid=6676ee4c-d19f-4874-b4e5-8ce7671f5e65"},"vehicle_type_id":"4","last_reported":1730823075,"current_range_meters":36000,"station_id":"ce4bgqh2rcd13ifvqc5g","pricing_plan_id":"cebpf4jnsgd1na2vs0mg"},{"bike_id":"9c72faab-092f-4651-a571-49e09ccfb268","system_id":"levelo_inurba_marseille","lat":43.25004,"lon":5.38928,"is_reserved":false,"is_disabled":false,"rental_uris":{"android":"levelo://app?vid=9c72faab-092f-4651-a571-49e09ccfb268","ios":"levelo://app?vid=9c72faab-092f-4651-a571-49e09ccfb268"},"vehicle_type_id":"4","last_reported":1730823075,"current_range_meters":17200,"station_id":"ce4bhgp2rcd13ifvqfd0","pricing_plan_id":"cebpf4jnsgd1na2vs0mg"},{"bike_id":"df28f903-e8fe-4737-94e9-87ce32fb4888","system_id":"levelo_inurba_marseille","lat":43.25496,"lon":5.37653,"is_reserved":false,"is_disabled":false,"rental_uris":{"android":"levelo://app?vid=df28f903-e8fe-4737-94e9-87ce32fb4888","ios":"levelo://app?vid=df28f903-e8fe-4737-94e9-87ce32fb4888"},"vehicle_type_id":"4","last_reported":1730823075,"current_range_meters":17600,"station_id":"ce4bhh12rcd13ifvqff0","pricing_plan_id":"cebpf4jnsgd1na2vs0mg"},{"bike_id":"1c5019a0-3f42-446e-b6a4-ab3c32748806","system_id":"levelo_inurba_marseille","lat":43.27564,"lon":5.38425,"is_reserved":false,"is_disabled":false,"rental_uris":{"android":"levelo://app?vid=1c5019a0-3f42-446e-b6a4-ab3c32748806","ios":"levelo://app?vid=1c5019a0-3f42-446e-b6a4-ab3c32748806"},"vehicle_type_id":"4","last_reported":1730823075,"current_range_meters":9600,"station_id":"ce4bhh92rcd13ifvqfi0","pricing_plan_id":"cebpf4jnsgd1na2vs0mg"},{"bike_id":"bcd429a8-76ee-4d07-8621-bc8e5b407df8","system_id":"levelo_inurba_marseille","lat":43.29789,"lon":5.3712,"is_reserved":false,"is_disabled":false,"rental_uris":{"android":"levelo://app?vid=bcd429a8-76ee-4d07-8621-bc8e5b407df8","ios":"levelo://app?vid=bcd429a8-76ee-4d07-8621-bc8e5b407df8"},"vehicle_type_id":"4","last_reported":1730823075,"current_range_meters":38800,"station_id":"ce4bgop2rcd13ifvqc1g","pricing_plan_id":"cebpf4jnsgd1na2vs0mg"},{"bike_id":"a0037ad7-fff7-4107-a1c0-4e3568279795","system_id":"levelo_inurba_marseille","lat":43.2803,"lon":5.36949,"is_reserved":false,"is_disabled":false,"rental_uris":{"android":"levelo://app?vid=a0037ad7-fff7-4107-a1c0-4e3568279795","ios":"levelo://app?vid=a0037ad7-fff7-4107-a1c0-4e3568279795"},"vehicle_type_id":"4","last_reported":1730823075,"current_range_meters":24400,"station_id":"ce4bha12rcd13ifvqef0","pricing_plan_id":"cebpf4jnsgd1na2vs0mg"},{"bike_id":"6b3e9c27-d216-4dd1-821f-8fef3ddccc5e","system_id":"levelo_inurba_marseille","lat":43.31327,"lon":5.39697,"is_reserved":false,"is_disabled":false,"rental_uris":{"android":"levelo://app?vid=6b3e9c27-d216-4dd1-821f-8fef3ddccc5e","ios":"levelo://app?vid=6b3e9c27-d216-4dd1-821f-8fef3ddccc5e"},"vehicle_type_id":"4","last_reported":1730823075,"current_range_meters":37600,"station_id":"ce4bgvp2rcd13ifvqcu0","pricing_plan_id":"cebpf4jnsgd1na2vs0mg"},{"bike_id":"58edfb35-e387-427f-8d09-567620a121c7","system_id":"levelo_inurba_marseille","lat":43.29265,"lon":5.40883,"is_reserved":false,"is_disabled":false,"rental_uris":{"android":"levelo://app?vid=58edfb35-e387-427f-8d09-567620a121c7","ios":"levelo://app?vid=58edfb35-e387-427f-8d09-567620a121c7"},"vehicle_type_id":"4","last_reported":1730823075,"current_range_meters":40000,"station_id":"ce4bh192rcd13ifvqdc0","pricing_plan_id":"cebpf4jnsgd1na2vs0mg"},{"bike_id":"fcf0522d-970e-451e-a80f-05c5f8f02d3d","system_id":"levelo_inurba_marseille","lat":43.27614,"lon":5.36107,"is_reserved":false,"is_disabled":false,"rental_uris":{"android":"levelo://app?vid=fcf0522d-970e-451e-a80f-05c5f8f02d3d","ios":"levelo://app?vid=fcf0522d-970e-451e-a80f-05c5f8f02d3d"},"vehicle_type_id":"4","last_reported":1730823075,"current_range_meters":33200,"station_id":"ce4bgj92rcd13ifvqbe0","pricing_plan_id":"cebpf4jnsgd1na2vs0mg"},{"bike_id":"b5830c1f-0836-43b2-bad3-8dc10ae8eb7c","system_id":"levelo_inurba_marseille","lat":43.3376,"lon":5.37458,"is_reserved":false,"is_disabled":false,"rental_uris":{"android":"levelo://app?vid=b5830c1f-0836-43b2-bad3-8dc10ae8eb7c","ios":"levelo://app?vid=b5830c1f-0836-43b2-bad3-8dc10ae8eb7c"},"vehicle_type_id":"4","last_reported":1730823075,"current_range_meters":38000,"station_id":"","pricing_plan_id":"cebpf4jnsgd1na2vs0mg"},{"bike_id":"4bcc7749-a497-46e1-a946-891f9d9008cd","system_id":"levelo_inurba_marseille","lat":43.32049,"lon":5.41546,"is_reserved":false,"is_disabled":false,"rental_uris":{"android":"levelo://app?vid=4bcc7749-a497-46e1-a946-891f9d9008cd","ios":"levelo://app?vid=4bcc7749-a497-46e1-a946-891f9d9008cd"},"vehicle_type_id":"4","last_reported":1730823075,"current_range_meters":31200,"station_id":"ce4bhq92rcd13ifvqhkg","pricing_plan_id":"cebpf4jnsgd1na2vs0mg"},{"bike_id":"296f57c6-7b02-4b44-aa0b-2dbf9acb1cda","system_id":"levelo_inurba_marseille","lat":43.31113,"lon":5.3776,"is_reserved":false,"is_disabled":false,"rental_uris":{"android":"levelo://app?vid=296f57c6-7b02-4b44-aa0b-2dbf9acb1cda","ios":"levelo://app?vid=296f57c6-7b02-4b44-aa0b-2dbf9acb1cda"},"vehicle_type_id":"4","last_reported":1730823075,"current_range_meters":6400,"station_id":"ce4bgt92rcd13ifvqcg0","pricing_plan_id":"cebpf4jnsgd1na2vs0mg"},{"bike_id":"d778ba9c-650c-455a-8daf-cdcf6895ade7","system_id":"levelo_inurba_marseille","lat":43.30308,"lon":5.36909,"is_reserved":false,"is_disabled":false,"rental_uris":{"android":"levelo://app?vid=d778ba9c-650c-455a-8daf-cdcf6895ade7","ios":"levelo://app?vid=d778ba9c-650c-455a-8daf-cdcf6895ade7"},"vehicle_type_id":"4","last_reported":1730823075,"current_range_meters":38800,"station_id":"ce4bgqh2rcd13ifvqc5g","pricing_plan_id":"cebpf4jnsgd1na2vs0mg"},{"bike_id":"321e434c-d7d6-44d4-8d83-3391eaa2db1c","system_id":"levelo_inurba_marseille","lat":43.21252,"lon":5.3537,"is_reserved":false,"is_disabled":false,"rental_uris":{"android":"levelo://app?vid=321e434c-d7d6-44d4-8d83-3391eaa2db1c","ios":"levelo://app?vid=321e434c-d7d6-44d4-8d83-3391eaa2db1c"},"vehicle_type_id":"4","last_reported":1730823075,"current_range_meters":16400,"station_id":"","pricing_plan_id":"cebpf4jnsgd1na2vs0mg"},{"bike_id":"b7e168d1-de67-4811-a4d2-ed63f0e2eec0","system_id":"levelo_inurba_marseille","lat":43.28711,"lon":5.37388,"is_reserved":false,"is_disabled":false,"rental_uris":{"android":"levelo://app?vid=b7e168d1-de67-4811-a4d2-ed63f0e2eec0","ios":"levelo://app?vid=b7e168d1-de67-4811-a4d2-ed63f0e2eec0"},"vehicle_type_id":"4","last_reported":1730823075,"current_range_meters":16800,"station_id":"ce4bh3p2rcd13ifvqdq0","pricing_plan_id":"cebpf4jnsgd1na2vs0mg"},{"bike_id":"106ecb85-b008-4043-bb39-19a90b8e3719","system_id":"levelo_inurba_marseille","lat":43.28035,"lon":5.36952,"is_reserved":false,"is_disabled":false,"rental_uris":{"android":"levelo://app?vid=106ecb85-b008-4043-bb39-19a90b8e3719","ios":"levelo://app?vid=106ecb85-b008-4043-bb39-19a90b8e3719"},"vehicle_type_id":"4","last_reported":1730823075,"current_range_meters":38000,"station_id":"ce4bha12rcd13ifvqef0","pricing_plan_id":"cebpf4jnsgd1na2vs0mg"},{"bike_id":"ade98cc7-28e5-4e4d-b8b1-800d7989cd4f","system_id":"levelo_inurba_marseille","lat":43.25084,"lon":5.39529,"is_reserved":false,"is_disabled":false,"rental_uris":{"android":"levelo://app?vid=ade98cc7-28e5-4e4d-b8b1-800d7989cd4f","ios":"levelo://app?vid=ade98cc7-28e5-4e4d-b8b1-800d7989cd4f"},"vehicle_type_id":"4","last_reported":1730823075,"current_range_meters":30800,"station_id":"ce4bhm12rcd13ifvqgkg","pricing_plan_id":"cebpf4jnsgd1na2vs0mg"},{"bike_id":"783b9080-0341-42e2-a02b-aa36dbce6938","system_id":"levelo_inurba_marseille","lat":43.2797,"lon":5.38739,"is_reserved":false,"is_disabled":false,"rental_uris":{"android":"levelo://app?vid=783b9080-0341-42e2-a02b-aa36dbce6938","ios":"levelo://app?vid=783b9080-0341-42e2-a02b-aa36dbce6938"},"vehicle_type_id":"4","last_reported":1730823075,"current_range_meters":26800,"station_id":"ce4bhg12rcd13ifvqf80","pricing_plan_id":"cebpf4jnsgd1na2vs0mg"},{"bike_id":"974782de-f8d9-4613-b0ef-5075fa36b153","system_id":"levelo_inurba_marseille","lat":43.27205,"lon":5.39175,"is_reserved":false,"is_disabled":false,"rental_uris":{"android":"levelo://app?vid=974782de-f8d9-4613-b0ef-5075fa36b153","ios":"levelo://app?vid=974782de-f8d9-4613-b0ef-5075fa36b153"},"vehicle_type_id":"4","last_reported":1730823075,"current_range_meters":24400,"station_id":"ce4bgn12rcd13ifvqbt0","pricing_plan_id":"cebpf4jnsgd1na2vs0mg"},{"bike_id":"65ea5d9a-a4d1-4cc1-a157-a27a15d303b4","system_id":"levelo_inurba_marseille","lat":43.3376,"lon":5.37454,"is_reserved":false,"is_disabled":false,"rental_uris":{"android":"levelo://app?vid=65ea5d9a-a4d1-4cc1-a157-a27a15d303b4","ios":"levelo://app?vid=65ea5d9a-a4d1-4cc1-a157-a27a15d303b4"},"vehicle_type_id":"4","last_reported":1730823075,"current_range_meters":38800,"station_id":"","pricing_plan_id":"cebpf4jnsgd1na2vs0mg"},{"bike_id":"c62a079c-99df-4cbc-89c5-af61c5e4040a","system_id":"levelo_inurba_marseille","lat":43.28438,"lon":5.39196,"is_reserved":false,"is_disabled":false,"rental_uris":{"android":"levelo://app?vid=c62a079c-99df-4cbc-89c5-af61c5e4040a","ios":"levelo://app?vid=c62a079c-99df-4cbc-89c5-af61c5e4040a"},"vehicle_type_id":"4","last_reported":1730823075,"current_range_meters":18000,"station_id":"ce4bhoh2rcd13ifvqh5g","pricing_plan_id":"cebpf4jnsgd1na2vs0mg"},{"bike_id":"b73a9632-0d31-40cf-b427-f952f3ec5cbf","system_id":"levelo_inurba_marseille","lat":43.23951,"lon":5.36639,"is_reserved":false,"is_disabled":false,"rental_uris":{"android":"levelo://app?vid=b73a9632-0d31-40cf-b427-f952f3ec5cbf","ios":"levelo://app?vid=b73a9632-0d31-40cf-b427-f952f3ec5cbf"},"vehicle_type_id":"4","last_reported":1730823075,"current_range_meters":25600,"station_id":"ce4bhi12rcd13ifvqfp0","pricing_plan_id":"cebpf4jnsgd1na2vs0mg"},{"bike_id":"fe306347-a036-463b-8f75-cf7726f863b5","system_id":"levelo_inurba_marseille","lat":43.29005,"lon":5.35613,"is_reserved":false,"is_disabled":false,"rental_uris":{"android":"levelo://app?vid=fe306347-a036-463b-8f75-cf7726f863b5","ios":"levelo://app?vid=fe306347-a036-463b-8f75-cf7726f863b5"},"vehicle_type_id":"4","last_reported":1730823075,"current_range_meters":38800,"station_id":"ce4bhb92rcd13ifvqen0","pricing_plan_id":"cebpf4jnsgd1na2vs0mg"},{"bike_id":"cf2a5438-47e1-4c8c-84ce-a1157556633e","system_id":"levelo_inurba_marseille","lat":43.28433,"lon":5.39193,"is_reserved":false,"is_disabled":false,"rental_uris":{"android":"levelo://app?vid=cf2a5438-47e1-4c8c-84ce-a1157556633e","ios":"levelo://app?vid=cf2a5438-47e1-4c8c-84ce-a1157556633e"},"vehicle_type_id":"4","last_reported":1730823075,"current_range_meters":30000,"station_id":"ce4bhoh2rcd13ifvqh5g","pricing_plan_id":"cebpf4jnsgd1na2vs0mg"},{"bike_id":"1f7fbfde-a4cf-4534-8427-7d97d31af47d","system_id":"levelo_inurba_marseille","lat":43.31352,"lon":5.38501,"is_reserved":false,"is_disabled":false,"rental_uris":{"android":"levelo://app?vid=1f7fbfde-a4cf-4534-8427-7d97d31af47d","ios":"levelo://app?vid=1f7fbfde-a4cf-4534-8427-7d97d31af47d"},"vehicle_type_id":"4","last_reported":1730823075,"current_range_meters":38800,"station_id":"ce4bgt92rcd13ifvqcf0","pricing_plan_id":"cebpf4jnsgd1na2vs0mg"},{"bike_id":"3a801cbb-1e2e-46c3-bc85-0c5198b9902c","system_id":"levelo_inurba_marseille","lat":43.26521,"lon":5.38847,"is_reserved":false,"is_disabled":false,"rental_uris":{"android":"levelo://app?vid=3a801cbb-1e2e-46c3-bc85-0c5198b9902c","ios":"levelo://app?vid=3a801cbb-1e2e-46c3-bc85-0c5198b9902c"},"vehicle_type_id":"4","last_reported":1730823075,"current_range_meters":19200,"station_id":"","pricing_plan_id":"cebpf4jnsgd1na2vs0mg"},{"bike_id":"f20cfecf-a992-4464-a384-bad778375481","system_id":"levelo_inurba_marseille","lat":43.29521,"lon":5.44242,"is_reserved":false,"is_disabled":false,"rental_uris":{"android":"levelo://app?vid=f20cfecf-a992-4464-a384-bad778375481","ios":"levelo://app?vid=f20cfecf-a992-4464-a384-bad778375481"},"vehicle_type_id":"4","last_reported":1730823075,"current_range_meters":6800,"station_id":"","pricing_plan_id":"cebpf4jnsgd1na2vs0mg"},{"bike_id":"c4ad7bbd-6f71-4fb1-8141-b7993eccd368","system_id":"levelo_inurba_marseille","lat":43.2957,"lon":5.39968,"is_reserved":false,"is_disabled":false,"rental_uris":{"android":"levelo://app?vid=c4ad7bbd-6f71-4fb1-8141-b7993eccd368","ios":"levelo://app?vid=c4ad7bbd-6f71-4fb1-8141-b7993eccd368"},"vehicle_type_id":"4","last_reported":1730823075,"current_range_meters":6400,"station_id":"ce4bh312rcd13ifvqdj0","pricing_plan_id":"cebpf4jnsgd1na2vs0mg"},{"bike_id":"0ad4d9f0-5cfb-456e-98d1-4eb95ab7d61c","system_id":"levelo_inurba_marseille","lat":43.31719,"lon":5.37764,"is_reserved":false,"is_disabled":false,"rental_uris":{"android":"levelo://app?vid=0ad4d9f0-5cfb-456e-98d1-4eb95ab7d61c","ios":"levelo://app?vid=0ad4d9f0-5cfb-456e-98d1-4eb95ab7d61c"},"vehicle_type_id":"4","last_reported":1730823075,"current_range_meters":14000,"station_id":"ce4bgth2rcd13ifvqch0","pricing_plan_id":"cebpf4jnsgd1na2vs0mg"},{"bike_id":"4ce93d09-1a2e-4271-9a33-0a5e9e96d715","system_id":"levelo_inurba_marseille","lat":43.30138,"lon":5.39873,"is_reserved":false,"is_disabled":false,"rental_uris":{"android":"levelo://app?vid=4ce93d09-1a2e-4271-9a33-0a5e9e96d715","ios":"levelo://app?vid=4ce93d09-1a2e-4271-9a33-0a5e9e96d715"},"vehicle_type_id":"4","last_reported":1730823075,"current_range_meters":38800,"station_id":"ce4bh0h2rcd13ifvqd40","pricing_plan_id":"cebpf4jnsgd1na2vs0mg"},{"bike_id":"7ce471fb-6685-4b86-9e80-3a7af4fe589c","system_id":"levelo_inurba_marseille","lat":43.30883,"lon":5.39636,"is_reserved":false,"is_disabled":false,"rental_uris":{"android":"levelo://app?vid=7ce471fb-6685-4b86-9e80-3a7af4fe589c","ios":"levelo://app?vid=7ce471fb-6685-4b86-9e80-3a7af4fe589c"},"vehicle_type_id":"4","last_reported":1730823075,"current_range_meters":39200,"station_id":"ce4bh012rcd13ifvqcv0","pricing_plan_id":"cebpf4jnsgd1na2vs0mg"},{"bike_id":"0234cd9c-b5ab-439f-8534-a28ebb4b1c85","system_id":"levelo_inurba_marseille","lat":43.31359,"lon":5.38472,"is_reserved":false,"is_disabled":false,"rental_uris":{"android":"levelo://app?vid=0234cd9c-b5ab-439f-8534-a28ebb4b1c85","ios":"levelo://app?vid=0234cd9c-b5ab-439f-8534-a28ebb4b1c85"},"vehicle_type_id":"4","last_reported":1730823075,"current_range_meters":24000,"station_id":"ce4bgt92rcd13ifvqcf0","pricing_plan_id":"cebpf4jnsgd1na2vs0mg"},{"bike_id":"49d46efd-d61c-4f39-8b58-06068d7b72e3","system_id":"levelo_inurba_marseille","lat":43.2558,"lon":5.38224,"is_reserved":false,"is_disabled":false,"rental_uris":{"android":"levelo://app?vid=49d46efd-d61c-4f39-8b58-06068d7b72e3","ios":"levelo://app?vid=49d46efd-d61c-4f39-8b58-06068d7b72e3"},"vehicle_type_id":"4","last_reported":1730823075,"current_range_meters":28000,"station_id":"ce4bhih2rcd13ifvqfs0","pricing_plan_id":"cebpf4jnsgd1na2vs0mg"},{"bike_id":"2ea1a93e-5020-4953-8a19-4618e9aa157b","system_id":"levelo_inurba_marseille","lat":43.29072,"lon":5.37164,"is_reserved":false,"is_disabled":false,"rental_uris":{"android":"levelo://app?vid=2ea1a93e-5020-4953-8a19-4618e9aa157b","ios":"levelo://app?vid=2ea1a93e-5020-4953-8a19-4618e9aa157b"},"vehicle_type_id":"4","last_reported":1730823075,"current_range_meters":36800,"station_id":"ce4bh5p2rcd13ifvqe4g","pricing_plan_id":"cebpf4jnsgd1na2vs0mg"},{"bike_id":"c133cab2-bfd0-4592-ac95-445c89af3f28","system_id":"levelo_inurba_marseille","lat":43.3236,"lon":5.38892,"is_reserved":false,"is_disabled":false,"rental_uris":{"android":"levelo://app?vid=c133cab2-bfd0-4592-ac95-445c89af3f28","ios":"levelo://app?vid=c133cab2-bfd0-4592-ac95-445c89af3f28"},"vehicle_type_id":"4","last_reported":1730823075,"current_range_meters":38800,"station_id":"ce4bhqp2rcd13ifvqhog","pricing_plan_id":"cebpf4jnsgd1na2vs0mg"},{"bike_id":"2e6bfaeb-d744-4b51-95c3-867352da12fb","system_id":"levelo_inurba_marseille","lat":43.30589,"lon":5.37216,"is_reserved":false,"is_disabled":false,"rental_uris":{"android":"levelo://app?vid=2e6bfaeb-d744-4b51-95c3-867352da12fb","ios":"levelo://app?vid=2e6bfaeb-d744-4b51-95c3-867352da12fb"},"vehicle_type_id":"4","last_reported":1730823075,"current_range_meters":18000,"station_id":"ce4bgqh2rcd13ifvqc4g","pricing_plan_id":"cebpf4jnsgd1na2vs0mg"},{"bike_id":"c6f76162-70fd-4fab-8cf3-25f6b8558215","system_id":"levelo_inurba_marseille","lat":43.33721,"lon":5.39189,"is_reserved":false,"is_disabled":false,"rental_uris":{"android":"levelo://app?vid=c6f76162-70fd-4fab-8cf3-25f6b8558215","ios":"levelo://app?vid=c6f76162-70fd-4fab-8cf3-25f6b8558215"},"vehicle_type_id":"4","last_reported":1730823075,"current_range_meters":38800,"station_id":"ce4bhr92rcd13ifvqhsg","pricing_plan_id":"cebpf4jnsgd1na2vs0mg"},{"bike_id":"813317be-081d-4b98-9a4e-227ca0f5b03f","system_id":"levelo_inurba_marseille","lat":43.28655,"lon":5.36358,"is_reserved":false,"is_disabled":false,"rental_uris":{"android":"levelo://app?vid=813317be-081d-4b98-9a4e-227ca0f5b03f","ios":"levelo://app?vid=813317be-081d-4b98-9a4e-227ca0f5b03f"},"vehicle_type_id":"4","last_reported":1730823075,"current_range_meters":39200,"station_id":"ce4bhah2rcd13ifvqej0","pricing_plan_id":"cebpf4jnsgd1na2vs0mg"},{"bike_id":"3d3934c5-beab-44cd-afe4-a44abdc40952","system_id":"levelo_inurba_marseille","lat":43.29871,"lon":5.3892,"is_reserved":false,"is_disabled":false,"rental_uris":{"android":"levelo://app?vid=3d3934c5-beab-44cd-afe4-a44abdc40952","ios":"levelo://app?vid=3d3934c5-beab-44cd-afe4-a44abdc40952"},"vehicle_type_id":"4","last_reported":1730823075,"current_range_meters":38400,"station_id":"ce4bh392rcd13ifvqdl0","pricing_plan_id":"cebpf4jnsgd1na2vs0mg"},{"bike_id":"4585cbc4-9e08-49dc-8c68-f56205fdd682","system_id":"levelo_inurba_marseille","lat":43.269386,"lon":5.402502,"is_reserved":false,"is_disabled":false,"rental_uris":{"android":"levelo://app?vid=4585cbc4-9e08-49dc-8c68-f56205fdd682","ios":"levelo://app?vid=4585cbc4-9e08-49dc-8c68-f56205fdd682"},"vehicle_type_id":"4","last_reported":1730823075,"current_range_meters":34800,"station_id":"cjm6bp8fraef2m0cb0m0","pricing_plan_id":"cebpf4jnsgd1na2vs0mg"},{"bike_id":"d6550fcd-6ff9-434c-b6c8-d98de1a6c4e5","system_id":"levelo_inurba_marseille","lat":43.25886,"lon":5.39885,"is_reserved":false,"is_disabled":false,"rental_uris":{"android":"levelo://app?vid=d6550fcd-6ff9-434c-b6c8-d98de1a6c4e5","ios":"levelo://app?vid=d6550fcd-6ff9-434c-b6c8-d98de1a6c4e5"},"vehicle_type_id":"4","last_reported":1730823075,"current_range_meters":4000,"station_id":"ce4bhn12rcd13ifvqgqg","pricing_plan_id":"cebpf4jnsgd1na2vs0mg"},{"bike_id":"e5c55dbe-3445-4605-8c51-9c8ae85ecae2","system_id":"levelo_inurba_marseille","lat":43.30265,"lon":5.40078,"is_reserved":false,"is_disabled":false,"rental_uris":{"android":"levelo://app?vid=e5c55dbe-3445-4605-8c51-9c8ae85ecae2","ios":"levelo://app?vid=e5c55dbe-3445-4605-8c51-9c8ae85ecae2"},"vehicle_type_id":"4","last_reported":1730823075,"current_range_meters":24000,"station_id":"ce4bgvh2rcd13ifvqcs0","pricing_plan_id":"cebpf4jnsgd1na2vs0mg"},{"bike_id":"89feb81e-e67b-4dd9-85db-b8762dff9d86","system_id":"levelo_inurba_marseille","lat":43.3133,"lon":5.39706,"is_reserved":false,"is_disabled":false,"rental_uris":{"android":"levelo://app?vid=89feb81e-e67b-4dd9-85db-b8762dff9d86","ios":"levelo://app?vid=89feb81e-e67b-4dd9-85db-b8762dff9d86"},"vehicle_type_id":"4","last_reported":1730823075,"current_range_meters":27200,"station_id":"ce4bgvp2rcd13ifvqcu0","pricing_plan_id":"cebpf4jnsgd1na2vs0mg"},{"bike_id":"b948046d-667b-4c16-b31e-0ed8788e4e42","system_id":"levelo_inurba_marseille","lat":43.337444,"lon":5.374475,"is_reserved":false,"is_disabled":false,"rental_uris":{"android":"levelo://app?vid=b948046d-667b-4c16-b31e-0ed8788e4e42","ios":"levelo://app?vid=b948046d-667b-4c16-b31e-0ed8788e4e42"},"vehicle_type_id":"4","last_reported":1730823075,"current_range_meters":22000,"station_id":"","pricing_plan_id":"cebpf4jnsgd1na2vs0mg"},{"bike_id":"d9b9cd48-2aaa-4a12-802e-a13a56f2640b","system_id":"levelo_inurba_marseille","lat":43.30143,"lon":5.37419,"is_reserved":false,"is_disabled":false,"rental_uris":{"android":"levelo://app?vid=d9b9cd48-2aaa-4a12-802e-a13a56f2640b","ios":"levelo://app?vid=d9b9cd48-2aaa-4a12-802e-a13a56f2640b"},"vehicle_type_id":"4","last_reported":1730823075,"current_range_meters":8800,"station_id":"ce4bgs92rcd13ifvqcc0","pricing_plan_id":"cebpf4jnsgd1na2vs0mg"},{"bike_id":"2e0ef105-bb98-4736-8372-72c4c50acf2b","system_id":"levelo_inurba_marseille","lat":43.31395,"lon":5.37451,"is_reserved":false,"is_disabled":false,"rental_uris":{"android":"levelo://app?vid=2e0ef105-bb98-4736-8372-72c4c50acf2b","ios":"levelo://app?vid=2e0ef105-bb98-4736-8372-72c4c50acf2b"},"vehicle_type_id":"4","last_reported":1730823075,"current_range_meters":23200,"station_id":"","pricing_plan_id":"cebpf4jnsgd1na2vs0mg"},{"bike_id":"f5d1390d-aca4-42c4-b4e0-ce7f93ae8252","system_id":"levelo_inurba_marseille","lat":43.31264,"lon":5.40162,"is_reserved":false,"is_disabled":false,"rental_uris":{"android":"levelo://app?vid=f5d1390d-aca4-42c4-b4e0-ce7f93ae8252","ios":"levelo://app?vid=f5d1390d-aca4-42c4-b4e0-ce7f93ae8252"},"vehicle_type_id":"4","last_reported":1730823075,"current_range_meters":32400,"station_id":"ce4bh092rcd13ifvqd30","pricing_plan_id":"cebpf4jnsgd1na2vs0mg"},{"bike_id":"3c476382-c326-4c35-a5ef-b540254eb2df","system_id":"levelo_inurba_marseille","lat":43.29049,"lon":5.39983,"is_reserved":false,"is_disabled":false,"rental_uris":{"android":"levelo://app?vid=3c476382-c326-4c35-a5ef-b540254eb2df","ios":"levelo://app?vid=3c476382-c326-4c35-a5ef-b540254eb2df"},"vehicle_type_id":"4","last_reported":1730823075,"current_range_meters":39200,"station_id":"ce4bh392rcd13ifvqdm0","pricing_plan_id":"cebpf4jnsgd1na2vs0mg"},{"bike_id":"bde43bed-e450-44a2-8cec-ec92b86e5a75","system_id":"levelo_inurba_marseille","lat":43.30537,"lon":5.3654,"is_reserved":false,"is_disabled":false,"rental_uris":{"android":"levelo://app?vid=bde43bed-e450-44a2-8cec-ec92b86e5a75","ios":"levelo://app?vid=bde43bed-e450-44a2-8cec-ec92b86e5a75"},"vehicle_type_id":"4","last_reported":1730823075,"current_range_meters":36000,"station_id":"ce4bgs12rcd13ifvqcag","pricing_plan_id":"cebpf4jnsgd1na2vs0mg"},{"bike_id":"d27b16f2-76e2-4b70-a37d-aa3b3ac332fe","system_id":"levelo_inurba_marseille","lat":43.278935,"lon":5.380298,"is_reserved":false,"is_disabled":false,"rental_uris":{"android":"levelo://app?vid=d27b16f2-76e2-4b70-a37d-aa3b3ac332fe","ios":"levelo://app?vid=d27b16f2-76e2-4b70-a37d-aa3b3ac332fe"},"vehicle_type_id":"4","last_reported":1730823075,"current_range_meters":24400,"station_id":"ce4bhf92rcd13ifvqf50","pricing_plan_id":"cebpf4jnsgd1na2vs0mg"},{"bike_id":"e625bdfe-74f0-446c-8af8-77d97a5a23fe","system_id":"levelo_inurba_marseille","lat":43.30528,"lon":5.36551,"is_reserved":false,"is_disabled":false,"rental_uris":{"android":"levelo://app?vid=e625bdfe-74f0-446c-8af8-77d97a5a23fe","ios":"levelo://app?vid=e625bdfe-74f0-446c-8af8-77d97a5a23fe"},"vehicle_type_id":"4","last_reported":1730823075,"current_range_meters":38800,"station_id":"ce4bgs12rcd13ifvqcag","pricing_plan_id":"cebpf4jnsgd1na2vs0mg"},{"bike_id":"7b14d034-d348-452a-a841-588a4fc11893","system_id":"levelo_inurba_marseille","lat":43.29307,"lon":5.37175,"is_reserved":false,"is_disabled":false,"rental_uris":{"android":"levelo://app?vid=7b14d034-d348-452a-a841-588a4fc11893","ios":"levelo://app?vid=7b14d034-d348-452a-a841-588a4fc11893"},"vehicle_type_id":"4","last_reported":1730823075,"current_range_meters":18000,"station_id":"ce4bhb92rcd13ifvqen0","pricing_plan_id":"cebpf4jnsgd1na2vs0mg"},{"bike_id":"7181ae63-6148-4573-baa2-8f142aa9988d","system_id":"levelo_inurba_marseille","lat":43.30083,"lon":5.39106,"is_reserved":false,"is_disabled":false,"rental_uris":{"android":"levelo://app?vid=7181ae63-6148-4573-baa2-8f142aa9988d","ios":"levelo://app?vid=7181ae63-6148-4573-baa2-8f142aa9988d"},"vehicle_type_id":"4","last_reported":1730823075,"current_range_meters":36800,"station_id":"ce4bh192rcd13ifvqdb0","pricing_plan_id":"cebpf4jnsgd1na2vs0mg"},