{"last_updated":1751569652,"ttl":60,"version":"2.2","data":{"bikes":[{"bike_id":"3da29fb8-fc97-44c6-b9ac-31dd456b2fd4","system_id":"levelo_inurba_marseille","lat":43.33771,"lon":5.37424,"is_reserved":false,"is_disabled":true,"rental_uris":{"android":"levelo://app?vid=3da29fb8-fc97-44c6-b9ac-31dd456b2fd4","ios":"levelo://app?vid=3da29fb8-fc97-44c6-b9ac-31dd456b2fd4"},"vehicle_type_id":"4","last_reported":1751569652,"current_range_meters":0,"station_id":"","pricing_plan_id":"cebpf4jnsgd1na2vs0mg"},{"bike_id":"01861ad8-a8d7-4be6-816e-651927c87584","system_id":"levelo_inurba_marseille","lat":43.33751,"lon":5.37456,"is_reserved":false,"is_disabled":true,"rental_uris":{"android":"levelo://app?vid=01861ad8-a8d7-4be6-816e-651927c87584","ios":"levelo://app?vid=01861ad8-a8d7-4be6-816e-651927c87584"},"vehicle_type_id":"4","last_reported":1751569652,"current_range_meters":0,"station_id":"","pricing_plan_id":"cebpf4jnsgd1na2vs0mg"},{"bike_id":"fa970b88-b003-4494-bc40-b404de4a92ce","system_id":"levelo_inurba_marseille","lat":43.2688,"lon":5.3686,"is_reserved":false,"is_disabled":true,"rental_uris":{"android":"levelo://app?vid=fa970b88-b003-4494-bc40-b404de4a92ce","ios":"levelo://app?vid=fa970b88-b003-4494-bc40-b404de4a92ce"},"vehicle_type_id":"4","last_reported":1751569652,"current_range_meters":0,"station_id":"","pricing_plan_id":"cebpf4jnsgd1na2vs0mg"},{"bike_id":"da921d92-526f-401b-95dc-b12109d1091d","system_id":"levelo_inurba_marseille","lat":43.36196,"lon":5.34929,"is_reserved":false,"is_disabled":true,"rental_uris":{"android":"levelo://app?vid=da921d92-526f-401b-95dc-b12109d1091d","ios":"levelo://app?vid=da921d92-526f-401b-95dc-b12109d1091d"},"vehicle_type_id":"4","last_reported":1751569652,"current_range_meters":0,"station_id":"","pricing_plan_id":"cebpf4jnsgd1na2vs0mg"},{"bike_id":"6e5b5a4d-1ee5-4068-9613-fb44ab4d8a9a","system_id":"levelo_inurba_marseille","lat":43.34866,"lon":5.34617,"is_reserved":false,"is_disabled":true,"rental_uris":{"android":"levelo://app?vid=6e5b5a4d-1ee5-4068-9613-fb44ab4d8a9a","ios":"levelo://app?vid=6e5b5a4d-1ee5-4068-9613-fb44ab4d8a9a"},"vehicle_type_id":"4","last_reported":1751569652,"current_range_meters":0,"station_id":"","pricing_plan_id":"cebpf4jnsgd1na2vs0mg"},{"bike_id":"031ffef9-24ba-4401-b1e2-e2fe37de45da","system_id":"levelo_inurba_marseille","lat":43.2775,"lon":5.38871,"is_reserved":false,"is_disabled":true,"rental_uris":{"android":"levelo://app?vid=031ffef9-24ba-4401-b1e2-e2fe37de45da","ios":"levelo://app?vid=031ffef9-24ba-4401-b1e2-e2fe37de45da"},"vehicle_type_id":"4","last_reported":1751569652,"current_range_meters":0,"station_id":"","pricing_plan_id":"cebpf4jnsgd1na2vs0mg"},{"bike_id":"8e365e3c-559a-4ba6-a6c5-4c159e2434fc","system_id":"levelo_inurba_marseille","lat":43.21743,"lon":5.3459,"is_reserved":false,"is_disabled":true,"rental_uris":{"android":"levelo://app?vid=8e365e3c-559a-4ba6-a6c5-4c159e2434fc","ios":"levelo://app?vid=8e365e3c-559a-4ba6-a6c5-4c159e2434fc"},"vehicle_type_id":"4","last_reported":1751569652,"current_range_meters":0,"station_id":"","pricing_plan_id":"cebpf4jnsgd1na2vs0mg"},{"bike_id":"b87537a5-0ef7-4a87-9959-cd0a9fa65894","system_id":"levelo_inurba_marseille","lat":43.29352,"lon":5.37144,"is_reserved":false,"is_disabled":true,"rental_uris":{"android":"levelo://app?vid=b87537a5-0ef7-4a87-9959-cd0a9fa65894","ios":"levelo://app?vid=b87537a5-0ef7-4a87-9959-cd0a9fa65894"},"vehicle_type_id":"4","last_reported":1751569652,"current_range_meters":0,"station_id":"","pricing_plan_id":"cebpf4jnsgd1na2vs0mg"},{"bike_id":"178c091c-5d1c-4d80-9bd1-b0d54f080808","system_id":"levelo_inurba_marseille","lat":43.286163,"lon":5.35114,"is_reserved":false,"is_disabled":true,"rental_uris":{"android":"levelo://app?vid=178c091c-5d1c-4d80-9bd1-b0d54f080808","ios":"levelo://app?vid=178c091c-5d1c-4d80-9bd1-b0d54f080808"},"vehicle_type_id":"4","last_reported":1751569652,"current_range_meters":0,"station_id":"","pricing_plan_id":"cebpf4jnsgd1na2vs0mg"},{"bike_id":"5fe1f33a-ebc4-4182-b521-7ef3eadc1773","system_id":"levelo_inurba_marseille","lat":43.26882,"lon":5.36862,"is_reserved":false,"is_disabled":true,"rental_uris":{"android":"levelo://app?vid=5fe1f33a-ebc4-4182-b521-7ef3eadc1773","ios":"levelo://app?vid=5fe1f33a-ebc4-4182-b521-7ef3eadc1773"},"vehicle_type_id":"4","last_reported":1751569652,"current_range_meters":0,"station_id":"","pricing_plan_id":"cebpf4jnsgd1na2vs0mg"},{"bike_id":"c8bdee6f-2ae9-4b92-95e3-02278f2d6814","system_id":"levelo_inurba_marseille","lat":43.26574,"lon":5.40287,"is_reserved":false,"is_disabled":true,"rental_uris":{"android":"levelo://app?vid=c8bdee6f-2ae9-4b92-95e3-02278f2d6814","ios":"levelo://app?vid=c8bdee6f-2ae9-4b92-95e3-02278f2d6814"},"vehicle_type_id":"4","last_reported":1751569652,"current_range_meters":0,"station_id":"","pricing_plan_id":"cebpf4jnsgd1na2vs0mg"},{"bike_id":"dae283d7-b3a5-45bb-aa70-0bc042295024","system_id":"levelo_inurba_marseille","lat":43.29371,"lon":5.3784,"is_reserved":false,"is_disabled":true,"rental_uris":{"android":"levelo://app?vid=dae283d7-b3a5-45bb-aa70-0bc042295024","ios":"levelo://app?vid=dae283d7-b3a5-45bb-aa70-0bc042295024"},"vehicle_type_id":"4","last_reported":1751569652,"current_range_meters":0,"station_id":"ce4bgjh2rcd13ifvqbf0","pricing_plan_id":"cebpf4jnsgd1na2vs0mg"},{"bike_id":"ac69e96b-bb08-451e-8d10-693315a5bcd3","system_id":"levelo_inurba_marseille","lat":43.30533,"lon":5.36548,"is_reserved":false,"is_disabled":true,"rental_uris":{"android":"levelo://app?vid=ac69e96b-bb08-451e-8d10-693315a5bcd3","ios":"levelo://app?vid=ac69e96b-bb08-451e-8d10-693315a5bcd3"},"vehicle_type_id":"4","last_reported":1751569652,"current_range_meters":0,"station_id":"ce4bgs12rcd13ifvqcag","pricing_plan_id":"cebpf4jnsgd1na2vs0mg"},{"bike_id":"32b41c72-2f6b-460d-8866-a8380b3ce1fe","system_id":"levelo_inurba_marseille","lat":43.31484,"lon":5.37306,"is_reserved":false,"is_disabled":true,"rental_uris":{"android":"levelo://app?vid=32b41c72-2f6b-460d-8866-a8380b3ce1fe","ios":"levelo://app?vid=32b41c72-2f6b-460d-8866-a8380b3ce1fe"},"vehicle_type_id":"4","last_reported":1751569652,"current_range_meters":0,"station_id":"ce4bgt12rcd13ifvqcd0","pricing_plan_id":"cebpf4jnsgd1na2vs0mg"},{"bike_id":"48a69f1f-834d-43f6-a98d-1e23aa3cad7f","system_id":"levelo_inurba_marseille","lat":43.28939,"lon":5.36631,"is_reserved":false,"is_disabled":true,"rental_uris":{"android":"levelo://app?vid=48a69f1f-834d-43f6-a98d-1e23aa3cad7f","ios":"levelo://app?vid=48a69f1f-834d-43f6-a98d-1e23aa3cad7f"},"vehicle_type_id":"4","last_reported":1751569652,"current_range_meters":0,"station_id":"ce4bhap2rcd13ifvqek0","pricing_plan_id":"cebpf4jnsgd1na2vs0mg"},{"bike_id":"e78d5b1c-ae45-4f11-adc9-02a23bab07d5","system_id":"levelo_inurba_marseille","lat":43.262172,"lon":5.374394,"is_reserved":false,"is_disabled":true,"rental_uris":{"android":"levelo://app?vid=e78d5b1c-ae45-4f11-adc9-02a23bab07d5","ios":"levelo://app?vid=e78d5b1c-ae45-4f11-adc9-02a23bab07d5"},"vehicle_type_id":"4","last_reported":1751569652,"current_range_meters":0,"station_id":"ce4bhgp2rcd13ifvqfc0","pricing_plan_id":"cebpf4jnsgd1na2vs0mg"},{"bike_id":"45a36d42-3f75-4451-929c-2980bab85fb7","system_id":"levelo_inurba_marseille","lat":43.23166,"lon":5.43704,"is_reserved":false,"is_disabled":true,"rental_uris":{"android":"levelo://app?vid=45a36d42-3f75-4451-929c-2980bab85fb7","ios":"levelo://app?vid=45a36d42-3f75-4451-929c-2980bab85fb7"},"vehicle_type_id":"4","last_reported":1751569652,"current_range_meters":0,"station_id":"ce4bhmp2rcd13ifvqgog","pricing_plan_id":"cebpf4jnsgd1na2vs0mg"},{"bike_id":"74048b68-e069-4d0c-8b6b-30443c3a8faa","system_id":"levelo_inurba_marseille","lat":43.32074,"lon":5.41531,"is_reserved":false,"is_disabled":true,"rental_uris":{"android":"levelo://app?vid=74048b68-e069-4d0c-8b6b-30443c3a8faa","ios":"levelo://app?vid=74048b68-e069-4d0c-8b6b-30443c3a8faa"},"vehicle_type_id":"4","last_reported":1751569652,"current_range_meters":0,"station_id":"ce4bhq92rcd13ifvqhkg","pricing_plan_id":"cebpf4jnsgd1na2vs0mg"},{"bike_id":"e1d1f11b-4ee1-414f-b3e6-0d53e6e841c3","system_id":"levelo_inurba_marseille","lat":43.241653,"lon":5.3639,"is_reserved":false,"is_disabled":true,"rental_uris":{"android":"levelo://app?vid=e1d1f11b-4ee1-414f-b3e6-0d53e6e841c3","ios":"levelo://app?vid=e1d1f11b-4ee1-414f-b3e6-0d53e6e841c3"},"vehicle_type_id":"4","last_reported":1751569652,"current_range_meters":0,"station_id":"cpo36qri1sfpv3e86is0","pricing_plan_id":"cebpf4jnsgd1na2vs0mg"},{"bike_id":"34525e0e-88eb-4fe8-be83-e19f0f1185d3","system_id":"levelo_inurba_marseille","lat":43.22495,"lon":5.34762,"is_reserved":false,"is_disabled":true,"rental_uris":{"android":"levelo://app?vid=34525e0e-88eb-4fe8-be83-e19f0f1185d3","ios":"levelo://app?vid=34525e0e-88eb-4fe8-be83-e19f0f1185d3"},"vehicle_type_id":"4","last_reported":1751569652,"current_range_meters":0,"station_id":"st_cvj5dfep6f1abm77gieg","pricing_plan_id":"cebpf4jnsgd1na2vs0mg"},{"bike_id":"9795e511-4f68-494d-9846-41f87f5dd923","system_id":"levelo_inurba_marseille","lat":43.22514,"lon":5.34798,"is_reserved":false,"is_disabled":true,"rental_uris":{"android":"levelo://app?vid=9795e511-4f68-494d-9846-41f87f5dd923","ios":"levelo://app?vid=9795e511-4f68-494d-9846-41f87f5dd923"},"vehicle_type_id":"4","last_reported":1751569652,"current_range_meters":0,"station_id":"st_cvj5dfep6f1abm77gieg","pricing_plan_id":"cebpf4jnsgd1na2vs0mg"},{"bike_id":"711daaef-62a7-4507-b46e-24f8c3ebc905","system_id":"levelo_inurba_marseille","lat":43.21774,"lon":5.34566,"is_reserved":false,"is_disabled":true,"rental_uris":{"android":"levelo://app?vid=711daaef-62a7-4507-b46e-24f8c3ebc905","ios":"levelo://app?vid=711daaef-62a7-4507-b46e-24f8c3ebc905"},"vehicle_type_id":"4","last_reported":1751569652,"current_range_meters":0,"station_id":"st_cvj6r9ubvosntc0bgbag","pricing_plan_id":"cebpf4jnsgd1na2vs0mg"},{"bike_id":"7750661e-3127-4501-aa76-1d7cb6be5070","system_id":"levelo_inurba_marseille","lat":43.21752,"lon":5.34605,"is_reserved":false,"is_disabled":true,"rental_uris":{"android":"levelo://app?vid=7750661e-3127-4501-aa76-1d7cb6be5070","ios":"levelo://app?vid=7750661e-3127-4501-aa76-1d7cb6be5070"},"vehicle_type_id":"4","last_reported":1751569652,"current_range_meters":0,"station_id":"st_cvj6r9ubvosntc0bgbag","pricing_plan_id":"cebpf4jnsgd1na2vs0mg"},{"bike_id":"50fac6cb-ae71-4eab-af1d-232517f03a03","system_id":"levelo_inurba_marseille","lat":43.30239,"lon":5.40013,"is_reserved":false,"is_disabled":true,"rental_uris":{"android":"levelo://app?vid=50fac6cb-ae71-4eab-af1d-232517f03a03","ios":"levelo://app?vid=50fac6cb-ae71-4eab-af1d-232517f03a03"},"vehicle_type_id":"4","last_reported":1751569652,"current_range_meters":400,"station_id":"ce4bgvh2rcd13ifvqcs0","pricing_plan_id":"cebpf4jnsgd1na2vs0mg"},{"bike_id":"bc5dd2b3-3385-463b-a084-678650a16b75","system_id":"levelo_inurba_marseille","lat":43.268446,"lon":5.370804,"is_reserved":false,"is_disabled":true,"rental_uris":{"android":"levelo://app?vid=bc5dd2b3-3385-463b-a084-678650a16b75","ios":"levelo://app?vid=bc5dd2b3-3385-463b-a084-678650a16b75"},"vehicle_type_id":"4","last_reported":1751569652,"current_range_meters":800,"station_id":"","pricing_plan_id":"cebpf4jnsgd1na2vs0mg"},{"bike_id":"c62f691e-f6e2-4e0e-ac39-8bcda47cf506","system_id":"levelo_inurba_marseille","lat":43.28484,"lon":5.38416,"is_reserved":false,"is_disabled":true,"rental_uris":{"android":"levelo://app?vid=c62f691e-f6e2-4e0e-ac39-8bcda47cf506","ios":"levelo://app?vid=c62f691e-f6e2-4e0e-ac39-8bcda47cf506"},"vehicle_type_id":"4","last_reported":1751569652,"current_range_meters":800,"station_id":"ce4bh512rcd13ifvqe3g","pricing_plan_id":"cebpf4jnsgd1na2vs0mg"},{"bike_id":"3cd8a91e-3967-465c-a6f8-6ad83ba9f37b","system_id":"levelo_inurba_marseille","lat":43.24071,"lon":5.37765,"is_reserved":false,"is_disabled":true,"rental_uris":{"android":"levelo://app?vid=3cd8a91e-3967-465c-a6f8-6ad83ba9f37b","ios":"levelo://app?vid=3cd8a91e-3967-465c-a6f8-6ad83ba9f37b"},"vehicle_type_id":"4","last_reported":1751569652,"current_range_meters":800,"station_id":"ce4bhnp2rcd13ifvqgvg","pricing_plan_id":"cebpf4jnsgd1na2vs0mg"},{"bike_id":"0a185492-26a8-4775-85c2-10610805774a","system_id":"levelo_inurba_marseille","lat":43.277,"lon":5.43058,"is_reserved":false,"is_disabled":true,"rental_uris":{"android":"levelo://app?vid=0a185492-26a8-4775-85c2-10610805774a","ios":"levelo://app?vid=0a185492-26a8-4775-85c2-10610805774a"},"vehicle_type_id":"4","last_reported":1751569652,"current_range_meters":1200,"station_id":"","pricing_plan_id":"cebpf4jnsgd1na2vs0mg"},{"bike_id":"4fd21bf2-bbd5-4ebb-ad0a-8367582d6c30","system_id":"levelo_inurba_marseille","lat":43.28632,"lon":5.35081,"is_reserved":false,"is_disabled":true,"rental_uris":{"android":"levelo://app?vid=4fd21bf2-bbd5-4ebb-ad0a-8367582d6c30","ios":"levelo://app?vid=4fd21bf2-bbd5-4ebb-ad0a-8367582d6c30"},"vehicle_type_id":"4","last_reported":1751569652,"current_range_meters":1200,"station_id":"ce4bhch2rcd13ifvqeug","pricing_plan_id":"cebpf4jnsgd1na2vs0mg"},{"bike_id":"c42d264c-aa49-4760-81e2-f90f0fe635ef","system_id":"levelo_inurba_marseille","lat":43.25868,"lon":5.39895,"is_reserved":false,"is_disabled":true,"rental_uris":{"android":"levelo://app?vid=c42d264c-aa49-4760-81e2-f90f0fe635ef","ios":"levelo://app?vid=c42d264c-aa49-4760-81e2-f90f0fe635ef"},"vehicle_type_id":"4","last_reported":1751569652,"current_range_meters":1200,"station_id":"ce4bhl92rcd13ifvqghg","pricing_plan_id":"cebpf4jnsgd1na2vs0mg"},{"bike_id":"a90c52fb-1e3e-4a58-9fe3-84bce58e0cee","system_id":"levelo_inurba_marseille","lat":43.30417,"lon":5.41291,"is_reserved":false,"is_disabled":true,"rental_uris":{"android":"levelo://app?vid=a90c52fb-1e3e-4a58-9fe3-84bce58e0cee","ios":"levelo://app?vid=a90c52fb-1e3e-4a58-9fe3-84bce58e0cee"},"vehicle_type_id":"4","last_reported":1751569652,"current_range_meters":1200,"station_id":"ce4bhop2rcd13ifvqh8g","pricing_plan_id":"cebpf4jnsgd1na2vs0mg"},{"bike_id":"a6d7a0d5-d9ae-4fc1-b44b-2efbae6ccc62","system_id":"levelo_inurba_marseille","lat":43.21764,"lon":5.34571,"is_reserved":false,"is_disabled":true,"rental_uris":{"android":"levelo://app?vid=a6d7a0d5-d9ae-4fc1-b44b-2efbae6ccc62","ios":"levelo://app?vid=a6d7a0d5-d9ae-4fc1-b44b-2efbae6ccc62"},"vehicle_type_id":"4","last_reported":1751569652,"current_range_meters":1200,"station_id":"st_cvj6r9ubvosntc0bgbag","pricing_plan_id":"cebpf4jnsgd1na2vs0mg"},{"bike_id":"95da757d-b0cb-4757-9ea5-02e73242e4f4","system_id":"levelo_inurba_marseille","lat":43.23964,"lon":5.36625,"is_reserved":false,"is_disabled":true,"rental_uris":{"android":"levelo://app?vid=95da757d-b0cb-4757-9ea5-02e73242e4f4","ios":"levelo://app?vid=95da757d-b0cb-4757-9ea5-02e73242e4f4"},"vehicle_type_id":"4","last_reported":1751569652,"current_range_meters":1600,"station_id":"ce4bhi12rcd13ifvqfp0","pricing_plan_id":"cebpf4jnsgd1na2vs0mg"},{"bike_id":"82fe187f-756c-4548-a7c4-3fc3ac31b7d2","system_id":"levelo_inurba_marseille","lat":43.21748,"lon":5.34599,"is_reserved":false,"is_disabled":true,"rental_uris":{"android":"levelo://app?vid=82fe187f-756c-4548-a7c4-3fc3ac31b7d2","ios":"levelo://app?vid=82fe187f-756c-4548-a7c4-3fc3ac31b7d2"},"vehicle_type_id":"4","last_reported":1751569652,"current_range_meters":1600,"station_id":"st_cvj6r9ubvosntc0bgbag","pricing_plan_id":"cebpf4jnsgd1na2vs0mg"},{"bike_id":"dbcf5d05-d06c-4648-9a6d-1315c6fde5a1","system_id":"levelo_inurba_marseille","lat":43.29024,"lon":5.38649,"is_reserved":false,"is_disabled":true,"rental_uris":{"android":"levelo://app?vid=dbcf5d05-d06c-4648-9a6d-1315c6fde5a1","ios":"levelo://app?vid=dbcf5d05-d06c-4648-9a6d-1315c6fde5a1"},"vehicle_type_id":"4","last_reported":1751569652,"current_range_meters":2000,"station_id":"ce4bh4p2rcd13ifvqe0g","pricing_plan_id":"cebpf4jnsgd1na2vs0mg"},{"bike_id":"8bc2b944-52b5-499d-937d-63e091042a0d","system_id":"levelo_inurba_marseille","lat":43.26194,"lon":5.37449,"is_reserved":false,"is_disabled":true,"rental_uris":{"android":"levelo://app?vid=8bc2b944-52b5-499d-937d-63e091042a0d","ios":"levelo://app?vid=8bc2b944-52b5-499d-937d-63e091042a0d"},"vehicle_type_id":"4","last_reported":1751569652,"current_range_meters":2000,"station_id":"ce4bhgp2rcd13ifvqfc0","pricing_plan_id":"cebpf4jnsgd1na2vs0mg"},{"bike_id":"bf1d8300-e3da-4c93-8145-192573c57a3d","system_id":"levelo_inurba_marseille","lat":43.32033,"lon":5.41507,"is_reserved":false,"is_disabled":true,"rental_uris":{"android":"levelo://app?vid=bf1d8300-e3da-4c93-8145-192573c57a3d","ios":"levelo://app?vid=bf1d8300-e3da-4c93-8145-192573c57a3d"},"vehicle_type_id":"4","last_reported":1751569652,"current_range_meters":2000,"station_id":"ce4bhq92rcd13ifvqhkg","pricing_plan_id":"cebpf4jnsgd1na2vs0mg"},{"bike_id":"cd2a3af2-854b-4519-92e5-1eaf70ba8a37","system_id":"levelo_inurba_marseille","lat":43.21194,"lon":5.35067,"is_reserved":false,"is_disabled":true,"rental_uris":{"android":"levelo://app?vid=cd2a3af2-854b-4519-92e5-1eaf70ba8a37","ios":"levelo://app?vid=cd2a3af2-854b-4519-92e5-1eaf70ba8a37"},"vehicle_type_id":"4","last_reported":1751569652,"current_range_meters":2000,"station_id":"st_cvj6sg6p6f1abm77japg","pricing_plan_id":"cebpf4jnsgd1na2vs0mg"},{"bike_id":"9748b77d-b29a-4d26-acdd-dd7a0eda1230","system_id":"levelo_inurba_marseille","lat":43.251228,"lon":5.403244,"is_reserved":false,"is_disabled":false,"rental_uris":{"android":"levelo://app?vid=9748b77d-b29a-4d26-acdd-dd7a0eda1230","ios":"levelo://app?vid=9748b77d-b29a-4d26-acdd-dd7a0eda1230"},"vehicle_type_id":"4","last_reported":1751569652,"current_range_meters":2800,"station_id":"ce4bhlh2rcd13ifvqgig","pricing_plan_id":"cebpf4jnsgd1na2vs0mg"},{"bike_id":"8becf1b9-b72c-4763-a062-bbd587ae45bf","system_id":"levelo_inurba_marseille","lat":43.32613,"lon":5.42556,"is_reserved":false,"is_disabled":false,"rental_uris":{"android":"levelo://app?vid=8becf1b9-b72c-4763-a062-bbd587ae45bf","ios":"levelo://app?vid=8becf1b9-b72c-4763-a062-bbd587ae45bf"},"vehicle_type_id":"4","last_reported":1751569652,"current_range_meters":3600,"station_id":"","pricing_plan_id":"cebpf4jnsgd1na2vs0mg"},{"bike_id":"5a4a13d1-b271-4e67-9487-f6d41b0cfb16","system_id":"levelo_inurba_marseille","lat":43.29532,"lon":5.38546,"is_reserved":false,"is_disabled":false,"rental_uris":{"android":"levelo://app?vid=5a4a13d1-b271-4e67-9487-f6d41b0cfb16","ios":"levelo://app?vid=5a4a13d1-b271-4e67-9487-f6d41b0cfb16"},"vehicle_type_id":"4","last_reported":1751569652,"current_range_meters":3600,"station_id":"ce4bgih2rcd13ifvqba0","pricing_plan_id":"cebpf4jnsgd1na2vs0mg"},{"bike_id":"4da0547e-4ddc-4635-ad40-5bb2bf0d4678","system_id":"levelo_inurba_marseille","lat":43.298575,"lon":5.363119,"is_reserved":false,"is_disabled":false,"rental_uris":{"android":"levelo://app?vid=4da0547e-4ddc-4635-ad40-5bb2bf0d4678","ios":"levelo://app?vid=4da0547e-4ddc-4635-ad40-5bb2bf0d4678"},"vehicle_type_id":"4","last_reported":1751569652,"current_range_meters":3600,"station_id":"ce4bgpp2rcd13ifvqc3g","pricing_plan_id":"cebpf4jnsgd1na2vs0mg"},{"bike_id":"0bff54ad-1dd0-4ea3-8fb7-f6af70f93492","system_id":"levelo_inurba_marseille","lat":43.29059,"lon":5.35909,"is_reserved":false,"is_disabled":false,"rental_uris":{"android":"levelo://app?vid=0bff54ad-1dd0-4ea3-8fb7-f6af70f93492","ios":"levelo://app?vid=0bff54ad-1dd0-4ea3-8fb7-f6af70f93492"},"vehicle_type_id":"4","last_reported":1751569652,"current_range_meters":3600,"station_id":"ce4bha92rcd13ifvqeg0","pricing_plan_id":"cebpf4jnsgd1na2vs0mg"},{"bike_id":"eb46ef8c-752f-4c4f-bc1c-db3e6eca9464","system_id":"levelo_inurba_marseille","lat":43.289347,"lon":5.366331,"is_reserved":false,"is_disabled":false,"rental_uris":{"android":"levelo://app?vid=eb46ef8c-752f-4c4f-bc1c-db3e6eca9464","ios":"levelo://app?vid=eb46ef8c-752f-4c4f-bc1c-db3e6eca9464"},"vehicle_type_id":"4","last_reported":1751569652,"current_range_meters":3600,"station_id":"ce4bhap2rcd13ifvqek0","pricing_plan_id":"cebpf4jnsgd1na2vs0mg"},{"bike_id":"076447d8-baa1-4d84-830d-66b72d4695cf","system_id":"levelo_inurba_marseille","lat":43.24979,"lon":5.38896,"is_reserved":false,"is_disabled":false,"rental_uris":{"android":"levelo://app?vid=076447d8-baa1-4d84-830d-66b72d4695cf","ios":"levelo://app?vid=076447d8-baa1-4d84-830d-66b72d4695cf"},"vehicle_type_id":"4","last_reported":1751569652,"current_range_meters":3600,"station_id":"ce4bhgp2rcd13ifvqfd0","pricing_plan_id":"cebpf4jnsgd1na2vs0mg"},{"bike_id":"b5f9c177-e511-4a26-9abb-a8c98a9e71b2","system_id":"levelo_inurba_marseille","lat":43.21192,"lon":5.35066,"is_reserved":false,"is_disabled":false,"rental_uris":{"android":"levelo://app?vid=b5f9c177-e511-4a26-9abb-a8c98a9e71b2","ios":"levelo://app?vid=b5f9c177-e511-4a26-9abb-a8c98a9e71b2"},"vehicle_type_id":"4","last_reported":1751569652,"current_range_meters":3600,"station_id":"st_cvj6sg6p6f1abm77japg","pricing_plan_id":"cebpf4jnsgd1na2vs0mg"},{"bike_id":"3b36ce57-9beb-477f-bc87-6dbaa2e3ff6a","system_id":"levelo_inurba_marseille","lat":43.291,"lon":5.38118,"is_reserved":false,"is_disabled":false,"rental_uris":{"android":"levelo://app?vid=3b36ce57-9beb-477f-bc87-6dbaa2e3ff6a","ios":"levelo://app?vid=3b36ce57-9beb-477f-bc87-6dbaa2e3ff6a"},"vehicle_type_id":"4","last_reported":1751569652,"current_range_meters":4000,"station_id":"ce4bh512rcd13ifvqe2g","pricing_plan_id":"cebpf4jnsgd1na2vs0mg"},{"bike_id":"75f20b33-b883-4711-9ff8-53f9c0439626","system_id":"levelo_inurba_marseille","lat":43.28482,"lon":5.38418,"is_reserved":false,"is_disabled":false,"rental_uris":{"android":"levelo://app?vid=75f20b33-b883-4711-9ff8-53f9c0439626","ios":"levelo://app?vid=75f20b33-b883-4711-9ff8-53f9c0439626"},"vehicle_type_id":"4","last_reported":1751569652,"current_range_meters":4000,"station_id":"ce4bh512rcd13ifvqe3g","pricing_plan_id":"cebpf4jnsgd1na2vs0mg"},{"bike_id":"388f4532-5501-4811-bd4f-81b34e9e7dfd","system_id":"levelo_inurba_marseille","lat":43.26496,"lon":5.3955,"is_reserved":false,"is_disabled":false,"rental_uris":{"android":"levelo://app?vid=388f4532-5501-4811-bd4f-81b34e9e7dfd","ios":"levelo://app?vid=388f4532-5501-4811-bd4f-81b34e9e7dfd"},"vehicle_type_id":"4","last_reported":1751569652,"current_range_meters":4000,"station_id":"ce4bhi12rcd13ifvqfq0","pricing_plan_id":"cebpf4jnsgd1na2vs0mg"},{"bike_id":"4cbb709f-957a-4ce9-9ee6-6cbe76aeadf9","system_id":"levelo_inurba_marseille","lat":43.336,"lon":5.40998,"is_reserved":false,"is_disabled":false,"rental_uris":{"android":"levelo://app?vid=4cbb709f-957a-4ce9-9ee6-6cbe76aeadf9","ios":"levelo://app?vid=4cbb709f-957a-4ce9-9ee6-6cbe76aeadf9"},"vehicle_type_id":"4","last_reported":1751569652,"current_range_meters":4400,"station_id":"ce4bhqh2rcd13ifvqhmg","pricing_plan_id":"cebpf4jnsgd1na2vs0mg"},{"bike_id":"c6c54a6a-4ff0-4116-8793-6d5cc14ab224","system_id":"levelo_inurba_marseille","lat":43.3029,"lon":5.39205,"is_reserved":false,"is_disabled":false,"rental_uris":{"android":"levelo://app?vid=c6c54a6a-4ff0-4116-8793-6d5cc14ab224","ios":"levelo://app?vid=c6c54a6a-4ff0-4116-8793-6d5cc14ab224"},"vehicle_type_id":"4","last_reported":1751569652,"current_range_meters":4800,"station_id":"ce4bgkh2rcd13ifvqbk0","pricing_plan_id":"cebpf4jnsgd1na2vs0mg"},{"bike_id":"03010218-8164-44f9-b182-f190a967e927","system_id":"levelo_inurba_marseille","lat":43.30598,"lon":5.37224,"is_reserved":false,"is_disabled":false,"rental_uris":{"android":"levelo://app?vid=03010218-8164-44f9-b182-f190a967e927","ios":"levelo://app?vid=03010218-8164-44f9-b182-f190a967e927"},"vehicle_type_id":"4","last_reported":1751569652,"current_range_meters":4800,"station_id":"ce4bgqh2rcd13ifvqc4g","pricing_plan_id":"cebpf4jnsgd1na2vs0mg"},{"bike_id":"c355807d-17ef-4436-b11f-8269a58353c6","system_id":"levelo_inurba_marseille","lat":43.28415,"lon":5.35001,"is_reserved":false,"is_disabled":false,"rental_uris":{"android":"levelo://app?vid=c355807d-17ef-4436-b11f-8269a58353c6","ios":"levelo://app?vid=c355807d-17ef-4436-b11f-8269a58353c6"},"vehicle_type_id":"4","last_reported":1751569652,"current_range_meters":4800,"station_id":"ce4bhbh2rcd13ifvqepg","pricing_plan_id":"cebpf4jnsgd1na2vs0mg"},{"bike_id":"24dcc44b-dda1-46e0-908d-484f5b6b21bc","system_id":"levelo_inurba_marseille","lat":43.2707,"lon":5.42269,"is_reserved":false,"is_disabled":false,"rental_uris":{"android":"levelo://app?vid=24dcc44b-dda1-46e0-908d-484f5b6b21bc","ios":"levelo://app?vid=24dcc44b-dda1-46e0-908d-484f5b6b21bc"},"vehicle_type_id":"4","last_reported":1751569652,"current_range_meters":4800,"station_id":"ce4bhk92rcd13ifvqgb0","pricing_plan_id":"cebpf4jnsgd1na2vs0mg"},{"bike_id":"107be23d-3b59-4bbf-a14c-db89d6a5f201","system_id":"levelo_inurba_marseille","lat":43.28415,"lon":5.34971,"is_reserved":false,"is_disabled":false,"rental_uris":{"android":"levelo://app?vid=107be23d-3b59-4bbf-a14c-db89d6a5f201","ios":"levelo://app?vid=107be23d-3b59-4bbf-a14c-db89d6a5f201"},"vehicle_type_id":"4","last_reported":1751569652,"current_range_meters":5600,"station_id":"ce4bhbh2rcd13ifvqepg","pricing_plan_id":"cebpf4jnsgd1na2vs0mg"},{"bike_id":"d7e585a5-773b-4437-b4e0-bc55bfc3d716","system_id":"levelo_inurba_marseille","lat":43.29868,"lon":5.39723,"is_reserved":false,"is_disabled":false,"rental_uris":{"android":"levelo://app?vid=d7e585a5-773b-4437-b4e0-bc55bfc3d716","ios":"levelo://app?vid=d7e585a5-773b-4437-b4e0-bc55bfc3d716"},"vehicle_type_id":"4","last_reported":1751569652,"current_range_meters":6000,"station_id":"ce4bh0h2rcd13ifvqd50","pricing_plan_id":"cebpf4jnsgd1na2vs0mg"},{"bike_id":"a338f12c-600f-4597-b78a-96cc13e07464","system_id":"levelo_inurba_marseille","lat":43.2842,"lon":5.34964,"is_reserved":false,"is_disabled":false,"rental_uris":{"android":"levelo://app?vid=a338f12c-600f-4597-b78a-96cc13e07464","ios":"levelo://app?vid=a338f12c-600f-4597-b78a-96cc13e07464"},"vehicle_type_id":"4","last_reported":1751569652,"current_range_meters":6000,"station_id":"ce4bhbh2rcd13ifvqepg","pricing_plan_id":"cebpf4jnsgd1na2vs0mg"},{"bike_id":"3099513a-eeaf-4b5e-ae00-040714d33555","system_id":"levelo_inurba_marseille","lat":43.27969,"lon":5.38738,"is_reserved":false,"is_disabled":false,"rental_uris":{"android":"levelo://app?vid=3099513a-eeaf-4b5e-ae00-040714d33555","ios":"levelo://app?vid=3099513a-eeaf-4b5e-ae00-040714d33555"},"vehicle_type_id":"4","last_reported":1751569652,"current_range_meters":6000,"station_id":"ce4bhg12rcd13ifvqf80","pricing_plan_id":"cebpf4jnsgd1na2vs0mg"},{"bike_id":"8a66890a-a59b-4bef-8e35-490c4eae833b","system_id":"levelo_inurba_marseille","lat":43.2251,"lon":5.34781,"is_reserved":false,"is_disabled":false,"rental_uris":{"android":"levelo://app?vid=8a66890a-a59b-4bef-8e35-490c4eae833b","ios":"levelo://app?vid=8a66890a-a59b-4bef-8e35-490c4eae833b"},"vehicle_type_id":"4","last_reported":1751569652,"current_range_meters":6000,"station_id":"st_cvj5dfep6f1abm77gieg","pricing_plan_id":"cebpf4jnsgd1na2vs0mg"},{"bike_id":"96b35004-93c5-4a2b-9f77-723bef6d49c4","system_id":"levelo_inurba_marseille","lat":43.280313,"lon":5.38371,"is_reserved":false,"is_disabled":false,"rental_uris":{"android":"levelo://app?vid=96b35004-93c5-4a2b-9f77-723bef6d49c4","ios":"levelo://app?vid=96b35004-93c5-4a2b-9f77-723bef6d49c4"},"vehicle_type_id":"4","last_reported":1751569652,"current_range_meters":6400,"station_id":"","pricing_plan_id":"cebpf4jnsgd1na2vs0mg"},{"bike_id":"9507d43e-f1bf-4cef-be12-f88e9cc4ff16","system_id":"levelo_inurba_marseille","lat":43.30314,"lon":5.36893,"is_reserved":false,"is_disabled":false,"rental_uris":{"android":"levelo://app?vid=9507d43e-f1bf-4cef-be12-f88e9cc4ff16","ios":"levelo://app?vid=9507d43e-f1bf-4cef-be12-f88e9cc4ff16"},"vehicle_type_id":"4","last_reported":1751569652,"current_range_meters":6400,"station_id":"ce4bgqh2rcd13ifvqc5g","pricing_plan_id":"cebpf4jnsgd1na2vs0mg"},{"bike_id":"0a564776-0d86-4574-a711-abfe9c893113","system_id":"levelo_inurba_marseille","lat":43.29254,"lon":5.38436,"is_reserved":false,"is_disabled":false,"rental_uris":{"android":"levelo://app?vid=0a564776-0d86-4574-a711-abfe9c893113","ios":"levelo://app?vid=0a564776-0d86-4574-a711-abfe9c893113"},"vehicle_type_id":"4","last_reported":1751569652,"current_range_meters":6400,"station_id":"ce4bh692rcd13ifvqea0","pricing_plan_id":"cebpf4jnsgd1na2vs0mg"},{"bike_id":"af54642b-28b5-41d3-8f83-38ec4ca7444f","system_id":"levelo_inurba_marseille","lat":43.286133,"lon":5.351125,"is_reserved":false,"is_disabled":true,"rental_uris":{"android":"levelo://app?vid=af54642b-28b5-41d3-8f83-38ec4ca7444f","ios":"levelo://app?vid=af54642b-28b5-41d3-8f83-38ec4ca7444f"},"vehicle_type_id":"4","last_reported":1751569652,"current_range_meters":6400,"station_id":"ce4bhch2rcd13ifvqeug","pricing_plan_id":"cebpf4jnsgd1na2vs0mg"},{"bike_id":"a8ad1a8c-da06-4fe2-9ac2-39381ddf67b7","system_id":"levelo_inurba_marseille","lat":43.25864,"lon":5.39891,"is_reserved":false,"is_disabled":false,"rental_uris":{"android":"levelo://app?vid=a8ad1a8c-da06-4fe2-9ac2-39381ddf67b7","ios":"levelo://app?vid=a8ad1a8c-da06-4fe2-9ac2-39381ddf67b7"},"vehicle_type_id":"4","last_reported":1751569652,"current_range_meters":6400,"station_id":"ce4bhl92rcd13ifvqghg","pricing_plan_id":"cebpf4jnsgd1na2vs0mg"},{"bike_id":"05c7b799-9781-4950-8cd4-d185fec2ae95","system_id":"levelo_inurba_marseille","lat":43.21213,"lon":5.35049,"is_reserved":false,"is_disabled":false,"rental_uris":{"android":"levelo://app?vid=05c7b799-9781-4950-8cd4-d185fec2ae95","ios":"levelo://app?vid=05c7b799-9781-4950-8cd4-d185fec2ae95"},"vehicle_type_id":"4","last_reported":1751569652,"current_range_meters":6400,"station_id":"st_cvj6sg6p6f1abm77japg","pricing_plan_id":"cebpf4jnsgd1na2vs0mg"},{"bike_id":"eb0d3ed1-e2b4-4bd0-a81b-713cfa117f49","system_id":"levelo_inurba_marseille","lat":43.290838,"lon":5.371616,"is_reserved":false,"is_disabled":false,"rental_uris":{"android":"levelo://app?vid=eb0d3ed1-e2b4-4bd0-a81b-713cfa117f49","ios":"levelo://app?vid=eb0d3ed1-e2b4-4bd0-a81b-713cfa117f49"},"vehicle_type_id":"4","last_reported":1751569652,"current_range_meters":6800,"station_id":"ce4bh5p2rcd13ifvqe4g","pricing_plan_id":"cebpf4jnsgd1na2vs0mg"},{"bike_id":"ff272d85-da46-4755-bc11-997da42c06f1","system_id":"levelo_inurba_marseille","lat":43.28416,"lon":5.34978,"is_reserved":false,"is_disabled":false,"rental_uris":{"android":"levelo://app?vid=ff272d85-da46-4755-bc11-997da42c06f1","ios":"levelo://app?vid=ff272d85-da46-4755-bc11-997da42c06f1"},"vehicle_type_id":"4","last_reported":1751569652,"current_range_meters":6800,"station_id":"ce4bhbh2rcd13ifvqepg","pricing_plan_id":"cebpf4jnsgd1na2vs0mg"},{"bike_id":"4f21d7a9-19ab-4462-b7e9-d71f2b9c0b7e","system_id":"levelo_inurba_marseille","lat":43.25938,"lon":5.40899,"is_reserved":false,"is_disabled":false,"rental_uris":{"android":"levelo://app?vid=4f21d7a9-19ab-4462-b7e9-d71f2b9c0b7e","ios":"levelo://app?vid=4f21d7a9-19ab-4462-b7e9-d71f2b9c0b7e"},"vehicle_type_id":"4","last_reported":1751569652,"current_range_meters":6800,"station_id":"ce4bhm92rcd13ifvqglg","pricing_plan_id":"cebpf4jnsgd1na2vs0mg"},{"bike_id":"2a6c29b8-2f70-4acd-862c-8ebcdde6117b","system_id":"levelo_inurba_marseille","lat":43.297821,"lon":5.393395,"is_reserved":false,"is_disabled":false,"rental_uris":{"android":"levelo://app?vid=2a6c29b8-2f70-4acd-862c-8ebcdde6117b","ios":"levelo://app?vid=2a6c29b8-2f70-4acd-862c-8ebcdde6117b"},"vehicle_type_id":"4","last_reported":1751569652,"current_range_meters":6800,"station_id":"chh1huq6cuj3fo74tm60","pricing_plan_id":"cebpf4jnsgd1na2vs0mg"},{"bike_id":"20bb56ed-051a-4b72-aba1-9d6db2122626","system_id":"levelo_inurba_marseille","lat":43.295083,"lon":5.3901,"is_reserved":false,"is_disabled":false,"rental_uris":{"android":"levelo://app?vid=20bb56ed-051a-4b72-aba1-9d6db2122626","ios":"levelo://app?vid=20bb56ed-051a-4b72-aba1-9d6db2122626"},"vehicle_type_id":"4","last_reported":1751569652,"current_range_meters":7200,"station_id":"ce4bh3p2rcd13ifvqdp0","pricing_plan_id":"cebpf4jnsgd1na2vs0mg"},{"bike_id":"d22c0d42-8237-421d-9980-e55072dca1df","system_id":"levelo_inurba_marseille","lat":43.28487,"lon":5.38417,"is_reserved":false,"is_disabled":false,"rental_uris":{"android":"levelo://app?vid=d22c0d42-8237-421d-9980-e55072dca1df","ios":"levelo://app?vid=d22c0d42-8237-421d-9980-e55072dca1df"},"vehicle_type_id":"4","last_reported":1751569652,"current_range_meters":7200,"station_id":"ce4bh512rcd13ifvqe3g","pricing_plan_id":"cebpf4jnsgd1na2vs0mg"},{"bike_id":"ac31760f-bc8c-4829-ae59-52e027e035db","system_id":"levelo_inurba_marseille","lat":43.286082,"lon":5.370683,"is_reserved":false,"is_disabled":false,"rental_uris":{"android":"levelo://app?vid=ac31760f-bc8c-4829-ae59-52e027e035db","ios":"levelo://app?vid=ac31760f-bc8c-4829-ae59-52e027e035db"},"vehicle_type_id":"4","last_reported":1751569652,"current_range_meters":7200,"station_id":"ce4bht12rcd13ifvqi60","pricing_plan_id":"cebpf4jnsgd1na2vs0mg"},{"bike_id":"783839aa-077c-47ac-8fd0-4f50d2c2aa3b","system_id":"levelo_inurba_marseille","lat":43.295829,"lon":5.380887,"is_reserved":false,"is_disabled":false,"rental_uris":{"android":"levelo://app?vid=783839aa-077c-47ac-8fd0-4f50d2c2aa3b","ios":"levelo://app?vid=783839aa-077c-47ac-8fd0-4f50d2c2aa3b"},"vehicle_type_id":"4","last_reported":1751569652,"current_range_meters":8000,"station_id":"","pricing_plan_id":"cebpf4jnsgd1na2vs0mg"},{"bike_id":"d6e293ba-6a64-4660-88d4-c97cb694da59","system_id":"levelo_inurba_marseille","lat":43.29307,"lon":5.37182,"is_reserved":false,"is_disabled":false,"rental_uris":{"android":"levelo://app?vid=d6e293ba-6a64-4660-88d4-c97cb694da59","ios":"levelo://app?vid=d6e293ba-6a64-4660-88d4-c97cb694da59"},"vehicle_type_id":"4","last_reported":1751569652,"current_range_meters":8000,"station_id":"ce4bgh92rcd13ifvqb40","pricing_plan_id":"cebpf4jnsgd1na2vs0mg"},{"bike_id":"14a9040d-1c6b-4aed-b714-12b20b1b1579","system_id":"levelo_inurba_marseille","lat":43.22486,"lon":5.34747,"is_reserved":false,"is_disabled":false,"rental_uris":{"android":"levelo://app?vid=14a9040d-1c6b-4aed-b714-12b20b1b1579","ios":"levelo://app?vid=14a9040d-1c6b-4aed-b714-12b20b1b1579"},"vehicle_type_id":"4","last_reported":1751569652,"current_range_meters":8000,"station_id":"st_cvj5dfep6f1abm77gieg","pricing_plan_id":"cebpf4jnsgd1na2vs0mg"},{"bike_id":"781fe459-a3b4-44ae-b671-8c1ab901839a","system_id":"levelo_inurba_marseille","lat":43.2954,"lon":5.37445,"is_reserved":false,"is_disabled":false,"rental_uris":{"android":"levelo://app?vid=781fe459-a3b4-44ae-b671-8c1ab901839a","ios":"levelo://app?vid=781fe459-a3b4-44ae-b671-8c1ab901839a"},"vehicle_type_id":"4","last_reported":1751569652,"current_range_meters":8400,"station_id":"","pricing_plan_id":"cebpf4jnsgd1na2vs0mg"},{"bike_id":"6c7854c1-9df5-4703-beb3-fd06bebc3852","system_id":"levelo_inurba_marseille","lat":43.24166,"lon":5.36393,"is_reserved":false,"is_disabled":false,"rental_uris":{"android":"levelo://app?vid=6c7854c1-9df5-4703-beb3-fd06bebc3852","ios":"levelo://app?vid=6c7854c1-9df5-4703-beb3-fd06bebc3852"},"vehicle_type_id":"4","last_reported":1751569652,"current_range_meters":8400,"station_id":"cpo36qri1sfpv3e86is0","pricing_plan_id":"cebpf4jnsgd1na2vs0mg"},{"bike_id":"ee52bb69-c8b2-41be-a2e5-3247fedc1a39","system_id":"levelo_inurba_marseille","lat":43.24076,"lon":5.37147,"is_reserved":false,"is_disabled":false,"rental_uris":{"android":"levelo://app?vid=ee52bb69-c8b2-41be-a2e5-3247fedc1a39","ios":"levelo://app?vid=ee52bb69-c8b2-41be-a2e5-3247fedc1a39"},"vehicle_type_id":"4","last_reported":1751569652,"current_range_meters":8800,"station_id":"","pricing_plan_id":"cebpf4jnsgd1na2vs0mg"},{"bike_id":"9a7d342a-ff8e-46c4-af1e-6e0519bd67dc","system_id":"levelo_inurba_marseille","lat":43.291433,"lon":5.355899,"is_reserved":false,"is_disabled":false,"rental_uris":{"android":"levelo://app?vid=9a7d342a-ff8e-46c4-af1e-6e0519bd67dc","ios":"levelo://app?vid=9a7d342a-ff8e-46c4-af1e-6e0519bd67dc"},"vehicle_type_id":"4","last_reported":1751569652,"current_range_meters":8800,"station_id":"","pricing_plan_id":"cebpf4jnsgd1na2vs0mg"},{"bike_id":"772d4110-8af4-4d4a-bc40-d2829eef26f8","system_id":"levelo_inurba_marseille","lat":43.28632,"lon":5.35092,"is_reserved":false,"is_disabled":false,"rental_uris":{"android":"levelo://app?vid=772d4110-8af4-4d4a-bc40-d2829eef26f8","ios":"levelo://app?vid=772d4110-8af4-4d4a-bc40-d2829eef26f8"},"vehicle_type_id":"4","last_reported":1751569652,"current_range_meters":8800,"station_id":"ce4bhch2rcd13ifvqeug","pricing_plan_id":"cebpf4jnsgd1na2vs0mg"},{"bike_id":"eeec8619-8642-4a8f-81fe-119ed2cf330c","system_id":"levelo_inurba_marseille","lat":43.25498,"lon":5.37648,"is_reserved":false,"is_disabled":false,"rental_uris":{"android":"levelo://app?vid=eeec8619-8642-4a8f-81fe-119ed2cf330c","ios":"levelo://app?vid=eeec8619-8642-4a8f-81fe-119ed2cf330c"},"vehicle_type_id":"4","last_reported":1751569652,"current_range_meters":8800,"station_id":"ce4bhh12rcd13ifvqff0","pricing_plan_id":"cebpf4jnsgd1na2vs0mg"},{"bike_id":"5ec60076-3316-4e3f-9ff3-923b3e8478fb","system_id":"levelo_inurba_marseille","lat":43.23179,"lon":5.39986,"is_reserved":false,"is_disabled":false,"rental_uris":{"android":"levelo://app?vid=5ec60076-3316-4e3f-9ff3-923b3e8478fb","ios":"levelo://app?vid=5ec60076-3316-4e3f-9ff3-923b3e8478fb"},"vehicle_type_id":"4","last_reported":1751569652,"current_range_meters":8800,"station_id":"ce4bhn12rcd13ifvqgqg","pricing_plan_id":"cebpf4jnsgd1na2vs0mg"},{"bike_id":"f2d1945a-625c-433b-8fdd-844f4394e949","system_id":"levelo_inurba_marseille","lat":43.31709,"lon":5.43715,"is_reserved":false,"is_disabled":false,"rental_uris":{"android":"levelo://app?vid=f2d1945a-625c-433b-8fdd-844f4394e949","ios":"levelo://app?vid=f2d1945a-625c-433b-8fdd-844f4394e949"},"vehicle_type_id":"4","last_reported":1751569652,"current_range_meters":8800,"station_id":"ce4bhp92rcd13ifvqhcg","pricing_plan_id":"cebpf4jnsgd1na2vs0mg"},{"bike_id":"22c65f34-5b9a-4ce8-b3b0-5a1a52b259a2","system_id":"levelo_inurba_marseille","lat":43.29708,"lon":5.40179,"is_reserved":false,"is_disabled":false,"rental_uris":{"android":"levelo://app?vid=22c65f34-5b9a-4ce8-b3b0-5a1a52b259a2","ios":"levelo://app?vid=22c65f34-5b9a-4ce8-b3b0-5a1a52b259a2"},"vehicle_type_id":"4","last_reported":1751569652,"current_range_meters":9200,"station_id":"","pricing_plan_id":"cebpf4jnsgd1na2vs0mg"},{"bike_id":"bf00a211-3496-4df0-8e4e-99767047ca09","system_id":"levelo_inurba_marseille","lat":43.2994,"lon":5.37593,"is_reserved":false,"is_disabled":false,"rental_uris":{"android":"levelo://app?vid=bf00a211-3496-4df0-8e4e-99767047ca09","ios":"levelo://app?vid=bf00a211-3496-4df0-8e4e-99767047ca09"},"vehicle_type_id":"4","last_reported":1751569652,"current_range_meters":9200,"station_id":"","pricing_plan_id":"cebpf4jnsgd1na2vs0mg"},{"bike_id":"e26ba497-efc7-4420-b8c5-9fa5e27f2ce4","system_id":"levelo_inurba_marseille","lat":43.31357,"lon":5.370715,"is_reserved":false,"is_disabled":false,"rental_uris":{"android":"levelo://app?vid=e26ba497-efc7-4420-b8c5-9fa5e27f2ce4","ios":"levelo://app?vid=e26ba497-efc7-4420-b8c5-9fa5e27f2ce4"},"vehicle_type_id":"4","last_reported":1751569652,"current_range_meters":9200,"station_id":"","pricing_plan_id":"cebpf4jnsgd1na2vs0mg"},{"bike_id":"e9f07541-ff0e-4a6b-bf07-b4471635bcc9","system_id":"levelo_inurba_marseille","lat":43.30136,"lon":5.38777,"is_reserved":false,"is_disabled":false,"rental_uris":{"android":"levelo://app?vid=e9f07541-ff0e-4a6b-bf07-b4471635bcc9","ios":"levelo://app?vid=e9f07541-ff0e-4a6b-bf07-b4471635bcc9"},"vehicle_type_id":"4","last_reported":1751569652,"current_range_meters":9200,"station_id":"ce4bghh2rcd13ifvqb60","pricing_plan_id":"cebpf4jnsgd1na2vs0mg"},{"bike_id":"bcfd0eda-b9ab-4bec-9ca3-3f2b86617415","system_id":"levelo_inurba_marseille","lat":43.21194,"lon":5.35074,"is_reserved":false,"is_disabled":false,"rental_uris":{"android":"levelo://app?vid=bcfd0eda-b9ab-4bec-9ca3-3f2b86617415","ios":"levelo://app?vid=bcfd0eda-b9ab-4bec-9ca3-3f2b86617415"},"vehicle_type_id":"4","last_reported":1751569652,"current_range_meters":9200,"station_id":"st_cvj6sg6p6f1abm77japg","pricing_plan_id":"cebpf4jnsgd1na2vs0mg"},{"bike_id":"2d1bbaf0-0e94-4159-b969-37b2baaa8333","system_id":"levelo_inurba_marseille","lat":43.29257,"lon":5.38437,"is_reserved":false,"is_disabled":false,"rental_uris":{"android":"levelo://app?vid=2d1bbaf0-0e94-4159-b969-37b2baaa8333","ios":"levelo://app?vid=2d1bbaf0-0e94-4159-b969-37b2baaa8333"},"vehicle_type_id":"4","last_reported":1751569652,"current_range_meters":9600,"station_id":"ce4bh692rcd13ifvqea0","pricing_plan_id":"cebpf4jnsgd1na2vs0mg"},{"bike_id":"a749287d-23e0-4bf5-9396-a3f4da10fa7c","system_id":"levelo_inurba_marseille","lat":43.30421,"lon":5.41276,"is_reserved":false,"is_disabled":false,"rental_uris":{"android":"levelo://app?vid=a749287d-23e0-4bf5-9396-a3f4da10fa7c","ios":"levelo://app?vid=a749287d-23e0-4bf5-9396-a3f4da10fa7c"},"vehicle_type_id":"4","last_reported":1751569652,"current_range_meters":9600,"station_id":"ce4bhop2rcd13ifvqh8g","pricing_plan_id":"cebpf4jnsgd1na2vs0mg"},{"bike_id":"a3c220bc-6e5b-4f14-8d6f-f2fac84ad833","system_id":"levelo_inurba_marseille","lat":43.29508,"lon":5.37489,"is_reserved":false,"is_disabled":false,"rental_uris":{"android":"levelo://app?vid=a3c220bc-6e5b-4f14-8d6f-f2fac84ad833","ios":"levelo://app?vid=a3c220bc-6e5b-4f14-8d6f-f2fac84ad833"},"vehicle_type_id":"4","last_reported":1751569652,"current_range_meters":10000,"station_id":"ce4bgkp2rcd13ifvqbmg","pricing_plan_id":"cebpf4jnsgd1na2vs0mg"},{"bike_id":"800ac973-a239-4346-a78a-5991f8f1b1a6","system_id":"levelo_inurba_marseille","lat":43.26214,"lon":5.37443,"is_reserved":false,"is_disabled":false,"rental_uris":{"android":"levelo://app?vid=800ac973-a239-4346-a78a-5991f8f1b1a6","ios":"levelo://app?vid=800ac973-a239-4346-a78a-5991f8f1b1a6"},"vehicle_type_id":"4","last_reported":1751569652,"current_range_meters":10000,"station_id":"ce4bhgp2rcd13ifvqfc0","pricing_plan_id":"cebpf4jnsgd1na2vs0mg"},{"bike_id":"12446a0f-3806-42a5-8746-3ec31815e030","system_id":"levelo_inurba_marseille","lat":43.28704,"lon":5.39989,"is_reserved":false,"is_disabled":false,"rental_uris":{"android":"levelo://app?vid=12446a0f-3806-42a5-8746-3ec31815e030","ios":"levelo://app?vid=12446a0f-3806-42a5-8746-3ec31815e030"},"vehicle_type_id":"4","last_reported":1751569652,"current_range_meters":10000,"station_id":"ce4bho92rcd13ifvqh3g","pricing_plan_id":"cebpf4jnsgd1na2vs0mg"},{"bike_id":"e36eeb04-35cc-4a52-97d7-6ba58bfe555b","system_id":"levelo_inurba_marseille","lat":43.29552,"lon":5.42268,"is_reserved":false,"is_disabled":false,"rental_uris":{"android":"levelo://app?vid=e36eeb04-35cc-4a52-97d7-6ba58bfe555b","ios":"levelo://app?vid=e36eeb04-35cc-4a52-97d7-6ba58bfe555b"},"vehicle_type_id":"4","last_reported":1751569652,"current_range_meters":10000,"station_id":"ce4bhph2rcd13ifvqhdg","pricing_plan_id":"cebpf4jnsgd1na2vs0mg"},{"bike_id":"16a8afe6-e43e-4d1b-a7bd-ed83d113735a","system_id":"levelo_inurba_marseille","lat":43.32436,"lon":5.41185,"is_reserved":false,"is_disabled":false,"rental_uris":{"android":"levelo://app?vid=16a8afe6-e43e-4d1b-a7bd-ed83d113735a","ios":"levelo://app?vid=16a8afe6-e43e-4d1b-a7bd-ed83d113735a"},"vehicle_type_id":"4","last_reported":1751569652,"current_range_meters":10800,"station_id":"","pricing_plan_id":"cebpf4jnsgd1na2vs0mg"},{"bike_id":"c1658b09-1d46-4641-9341-bdc36682757d","system_id":"levelo_inurba_marseille","lat":43.28419,"lon":5.34964,"is_reserved":false,"is_disabled":false,"rental_uris":{"android":"levelo://app?vid=c1658b09-1d46-4641-9341-bdc36682757d","ios":"levelo://app?vid=c1658b09-1d46-4641-9341-bdc36682757d"},"vehicle_type_id":"4","last_reported":1751569652,"current_range_meters":10800,"station_id":"ce4bhbh2rcd13ifvqepg","pricing_plan_id":"cebpf4jnsgd1na2vs0mg"},{"bike_id":"341d2b3e-066e-4f2e-add4-eb9910cbfc09","system_id":"levelo_inurba_marseille","lat":43.25865,"lon":5.39902,"is_reserved":false,"is_disabled":false,"rental_uris":{"android":"levelo://app?vid=341d2b3e-066e-4f2e-add4-eb9910cbfc09","ios":"levelo://app?vid=341d2b3e-066e-4f2e-add4-eb9910cbfc09"},"vehicle_type_id":"4","last_reported":1751569652,"current_range_meters":10800,"station_id":"ce4bhl92rcd13ifvqghg","pricing_plan_id":"cebpf4jnsgd1na2vs0mg"},{"bike_id":"7f31cae1-9e47-40be-af25-cafa3596a3cd","system_id":"levelo_inurba_marseille","lat":43.25943,"lon":5.40903,"is_reserved":false,"is_disabled":false,"rental_uris":{"android":"levelo://app?vid=7f31cae1-9e47-40be-af25-cafa3596a3cd","ios":"levelo://app?vid=7f31cae1-9e47-40be-af25-cafa3596a3cd"},"vehicle_type_id":"4","last_reported":1751569652,"current_range_meters":10800,"station_id":"ce4bhm92rcd13ifvqglg","pricing_plan_id":"cebpf4jnsgd1na2vs0mg"},{"bike_id":"bf15751b-ca26-4581-a366-a8abf429cb2a","system_id":"levelo_inurba_marseille","lat":43.289337,"lon":5.396381,"is_reserved":false,"is_disabled":false,"rental_uris":{"android":"levelo://app?vid=bf15751b-ca26-4581-a366-a8abf429cb2a","ios":"levelo://app?vid=bf15751b-ca26-4581-a366-a8abf429cb2a"},"vehicle_type_id":"4","last_reported":1751569652,"current_range_meters":11200,"station_id":"","pricing_plan_id":"cebpf4jnsgd1na2vs0mg"},{"bike_id":"5a7db573-3d39-4105-a92d-7359359fbec0","system_id":"levelo_inurba_marseille","lat":43.2799,"lon":5.40015,"is_reserved":false,"is_disabled":false,"rental_uris":{"android":"levelo://app?vid=5a7db573-3d39-4105-a92d-7359359fbec0","ios":"levelo://app?vid=5a7db573-3d39-4105-a92d-7359359fbec0"},"vehicle_type_id":"4","last_reported":1751569652,"current_range_meters":11200,"station_id":"ce4bho92rcd13ifvqh4g","pricing_plan_id":"cebpf4jnsgd1na2vs0mg"},{"bike_id":"09ffb8e9-c9a1-4e0d-9696-f9329890ef4f","system_id":"levelo_inurba_marseille","lat":43.29623,"lon":5.381232,"is_reserved":false,"is_disabled":false,"rental_uris":{"android":"levelo://app?vid=09ffb8e9-c9a1-4e0d-9696-f9329890ef4f","ios":"levelo://app?vid=09ffb8e9-c9a1-4e0d-9696-f9329890ef4f"},"vehicle_type_id":"4","last_reported":1751569652,"current_range_meters":11600,"station_id":"","pricing_plan_id":"cebpf4jnsgd1na2vs0mg"},{"bike_id":"0e030323-4386-4e72-9a0d-0f6a2ff539de","system_id":"levelo_inurba_marseille","lat":43.29614,"lon":5.405618,"is_reserved":false,"is_disabled":false,"rental_uris":{"android":"levelo://app?vid=0e030323-4386-4e72-9a0d-0f6a2ff539de","ios":"levelo://app?vid=0e030323-4386-4e72-9a0d-0f6a2ff539de"},"vehicle_type_id":"4","last_reported":1751569652,"current_range_meters":11600,"station_id":"ce4bh0h2rcd13ifvqd60","pricing_plan_id":"cebpf4jnsgd1na2vs0mg"},{"bike_id":"cee92ef3-0e06-4f2e-940b-e3c8008d7a87","system_id":"levelo_inurba_marseille","lat":43.305779,"lon":5.393506,"is_reserved":false,"is_disabled":false,"rental_uris":{"android":"levelo://app?vid=cee92ef3-0e06-4f2e-940b-e3c8008d7a87","ios":"levelo://app?vid=cee92ef3-0e06-4f2e-940b-e3c8008d7a87"},"vehicle_type_id":"4","last_reported":1751569652,"current_range_meters":11600,"station_id":"ce4bh0p2rcd13ifvqd80","pricing_plan_id":"cebpf4jnsgd1na2vs0mg"},{"bike_id":"84a13075-b5fd-4203-8b43-ceaaca15392a","system_id":"levelo_inurba_marseille","lat":43.2885,"lon":5.39301,"is_reserved":false,"is_disabled":false,"rental_uris":{"android":"levelo://app?vid=84a13075-b5fd-4203-8b43-ceaaca15392a","ios":"levelo://app?vid=84a13075-b5fd-4203-8b43-ceaaca15392a"},"vehicle_type_id":"4","last_reported":1751569652,"current_range_meters":11600,"station_id":"ce4bh2p2rcd13ifvqdi0","pricing_plan_id":"cebpf4jnsgd1na2vs0mg"},{"bike_id":"b7a190bb-0b58-4561-847c-f01ec571983c","system_id":"levelo_inurba_marseille","lat":43.28404,"lon":5.34975,"is_reserved":false,"is_disabled":false,"rental_uris":{"android":"levelo://app?vid=b7a190bb-0b58-4561-847c-f01ec571983c","ios":"levelo://app?vid=b7a190bb-0b58-4561-847c-f01ec571983c"},"vehicle_type_id":"4","last_reported":1751569652,"current_range_meters":11600,"station_id":"ce4bhbh2rcd13ifvqepg","pricing_plan_id":"cebpf4jnsgd1na2vs0mg"},{"bike_id":"16c129ac-1926-420c-9f4e-b22cd7e84bf5","system_id":"levelo_inurba_marseille","lat":43.27901,"lon":5.38008,"is_reserved":false,"is_disabled":false,"rental_uris":{"android":"levelo://app?vid=16c129ac-1926-420c-9f4e-b22cd7e84bf5","ios":"levelo://app?vid=16c129ac-1926-420c-9f4e-b22cd7e84bf5"},"vehicle_type_id":"4","last_reported":1751569652,"current_range_meters":11600,"station_id":"ce4bhf92rcd13ifvqf50","pricing_plan_id":"cebpf4jnsgd1na2vs0mg"},{"bike_id":"7d455cf4-771b-4cdc-a5a9-a2d24e0b62cf","system_id":"levelo_inurba_marseille","lat":43.25496,"lon":5.37648,"is_reserved":false,"is_disabled":false,"rental_uris":{"android":"levelo://app?vid=7d455cf4-771b-4cdc-a5a9-a2d24e0b62cf","ios":"levelo://app?vid=7d455cf4-771b-4cdc-a5a9-a2d24e0b62cf"},"vehicle_type_id":"4","last_reported":1751569652,"current_range_meters":11600,"station_id":"ce4bhh12rcd13ifvqff0","pricing_plan_id":"cebpf4jnsgd1na2vs0mg"},{"bike_id":"4399d7c3-f84e-4e37-8732-8ee9261c53e6","system_id":"levelo_inurba_marseille","lat":43.28413,"lon":5.34948,"is_reserved":false,"is_disabled":false,"rental_uris":{"android":"levelo://app?vid=4399d7c3-f84e-4e37-8732-8ee9261c53e6","ios":"levelo://app?vid=4399d7c3-f84e-4e37-8732-8ee9261c53e6"},"vehicle_type_id":"4","last_reported":1751569652,"current_range_meters":12000,"station_id":"ce4bhbh2rcd13ifvqepg","pricing_plan_id":"cebpf4jnsgd1na2vs0mg"},{"bike_id":"8d071a64-16a8-4919-9e72-4fdecaee4db1","system_id":"levelo_inurba_marseille","lat":43.2815,"lon":5.42643,"is_reserved":false,"is_disabled":false,"rental_uris":{"android":"levelo://app?vid=8d071a64-16a8-4919-9e72-4fdecaee4db1","ios":"levelo://app?vid=8d071a64-16a8-4919-9e72-4fdecaee4db1"},"vehicle_type_id":"4","last_reported":1751569652,"current_range_meters":12000,"station_id":"ce4bhnh2rcd13ifvqgug","pricing_plan_id":"cebpf4jnsgd1na2vs0mg"},{"bike_id":"86cc5a7a-2d45-42d8-a84b-f67c973c028a","system_id":"levelo_inurba_marseille","lat":43.28158,"lon":5.42641,"is_reserved":false,"is_disabled":false,"rental_uris":{"android":"levelo://app?vid=86cc5a7a-2d45-42d8-a84b-f67c973c028a","ios":"levelo://app?vid=86cc5a7a-2d45-42d8-a84b-f67c973c028a"},"vehicle_type_id":"4","last_reported":1751569652,"current_range_meters":12000,"station_id":"ce4bhnh2rcd13ifvqgug","pricing_plan_id":"cebpf4jnsgd1na2vs0mg"},{"bike_id":"1a75a1ec-a87a-493d-a59d-140f1e240a24","system_id":"levelo_inurba_marseille","lat":43.23194,"lon":5.35541,"is_reserved":false,"is_disabled":false,"rental_uris":{"android":"levelo://app?vid=1a75a1ec-a87a-493d-a59d-140f1e240a24","ios":"levelo://app?vid=1a75a1ec-a87a-493d-a59d-140f1e240a24"},"vehicle_type_id":"4","last_reported":1751569652,"current_range_meters":12000,"station_id":"ce4bhu92rcd13ifvqi70","pricing_plan_id":"cebpf4jnsgd1na2vs0mg"},{"bike_id":"d3b75c22-74ea-485c-b7c9-29fa0e688c4c","system_id":"levelo_inurba_marseille","lat":43.28722,"lon":5.36085,"is_reserved":false,"is_disabled":false,"rental_uris":{"android":"levelo://app?vid=d3b75c22-74ea-485c-b7c9-29fa0e688c4c","ios":"levelo://app?vid=d3b75c22-74ea-485c-b7c9-29fa0e688c4c"},"vehicle_type_id":"4","last_reported":1751569652,"current_range_meters":12000,"station_id":"cki0cbj6b192h4jlfktg","pricing_plan_id":"cebpf4jnsgd1na2vs0mg"},{"bike_id":"a588469b-12ca-41c6-8c6f-3f3bda5b7f15","system_id":"levelo_inurba_marseille","lat":43.31568,"lon":5.38365,"is_reserved":false,"is_disabled":false,"rental_uris":{"android":"levelo://app?vid=a588469b-12ca-41c6-8c6f-3f3bda5b7f15","ios":"levelo://app?vid=a588469b-12ca-41c6-8c6f-3f3bda5b7f15"},"vehicle_type_id":"4","last_reported":1751569652,"current_range_meters":12400,"station_id":"","pricing_plan_id":"cebpf4jnsgd1na2vs0mg"},{"bike_id":"32a89a6e-2257-48a8-b888-69b4a5c47d7e","system_id":"levelo_inurba_marseille","lat":43.29603,"lon":5.3809,"is_reserved":false,"is_disabled":false,"rental_uris":{"android":"levelo://app?vid=32a89a6e-2257-48a8-b888-69b4a5c47d7e","ios":"levelo://app?vid=32a89a6e-2257-48a8-b888-69b4a5c47d7e"},"vehicle_type_id":"4","last_reported":1751569652,"current_range_meters":12400,"station_id":"ce4bgl12rcd13ifvqbo0","pricing_plan_id":"cebpf4jnsgd1na2vs0mg"},{"bike_id":"23d7b32e-9187-40d4-9954-9264ba6b302d","system_id":"levelo_inurba_marseille","lat":43.31352,"lon":5.36724,"is_reserved":false,"is_disabled":false,"rental_uris":{"android":"levelo://app?vid=23d7b32e-9187-40d4-9954-9264ba6b302d","ios":"levelo://app?vid=23d7b32e-9187-40d4-9954-9264ba6b302d"},"vehicle_type_id":"4","last_reported":1751569652,"current_range_meters":12400,"station_id":"ce4bgr92rcd13ifvqc6g","pricing_plan_id":"cebpf4jnsgd1na2vs0mg"},{"bike_id":"2260b388-a8d7-4934-9f59-992d50ac4750","system_id":"levelo_inurba_marseille","lat":43.30144,"lon":5.37417,"is_reserved":false,"is_disabled":false,"rental_uris":{"android":"levelo://app?vid=2260b388-a8d7-4934-9f59-992d50ac4750","ios":"levelo://app?vid=2260b388-a8d7-4934-9f59-992d50ac4750"},"vehicle_type_id":"4","last_reported":1751569652,"current_range_meters":12400,"station_id":"ce4bgs92rcd13ifvqcc0","pricing_plan_id":"cebpf4jnsgd1na2vs0mg"},{"bike_id":"c7324661-a58e-4f18-b9db-b63d238f9e7e","system_id":"levelo_inurba_marseille","lat":43.28576,"lon":5.3949,"is_reserved":false,"is_disabled":false,"rental_uris":{"android":"levelo://app?vid=c7324661-a58e-4f18-b9db-b63d238f9e7e","ios":"levelo://app?vid=c7324661-a58e-4f18-b9db-b63d238f9e7e"},"vehicle_type_id":"4","last_reported":1751569652,"current_range_meters":12400,"station_id":"ce4bh292rcd13ifvqdg0","pricing_plan_id":"cebpf4jnsgd1na2vs0mg"},{"bike_id":"5919a0bf-ecdd-451a-92c6-10ab7ba1f3f2","system_id":"levelo_inurba_marseille","lat":43.24812,"lon":5.37458,"is_reserved":false,"is_disabled":false,"rental_uris":{"android":"levelo://app?vid=5919a0bf-ecdd-451a-92c6-10ab7ba1f3f2","ios":"levelo://app?vid=5919a0bf-ecdd-451a-92c6-10ab7ba1f3f2"},"vehicle_type_id":"4","last_reported":1751569652,"current_range_meters":12400,"station_id":"ce4bhgh2rcd13ifvqfb0","pricing_plan_id":"cebpf4jnsgd1na2vs0mg"},{"bike_id":"912d67f3-78e7-48fd-8929-37f0572cfee4","system_id":"levelo_inurba_marseille","lat":43.26376,"lon":5.37393,"is_reserved":false,"is_disabled":false,"rental_uris":{"android":"levelo://app?vid=912d67f3-78e7-48fd-8929-37f0572cfee4","ios":"levelo://app?vid=912d67f3-78e7-48fd-8929-37f0572cfee4"},"vehicle_type_id":"4","last_reported":1751569652,"current_range_meters":12800,"station_id":"","pricing_plan_id":"cebpf4jnsgd1na2vs0mg"},{"bike_id":"8b3755fc-2284-401e-bc3a-14d8474e8e49","system_id":"levelo_inurba_marseille","lat":43.2858,"lon":5.35146,"is_reserved":false,"is_disabled":false,"rental_uris":{"android":"levelo://app?vid=8b3755fc-2284-401e-bc3a-14d8474e8e49","ios":"levelo://app?vid=8b3755fc-2284-401e-bc3a-14d8474e8e49"},"vehicle_type_id":"4","last_reported":1751569652,"current_range_meters":12800,"station_id":"","pricing_plan_id":"cebpf4jnsgd1na2vs0mg"},{"bike_id":"bccb34f9-0872-4b0d-9793-613ffc5c3e0b","system_id":"levelo_inurba_marseille","lat":43.27633,"lon":5.36101,"is_reserved":false,"is_disabled":false,"rental_uris":{"android":"levelo://app?vid=bccb34f9-0872-4b0d-9793-613ffc5c3e0b","ios":"levelo://app?vid=bccb34f9-0872-4b0d-9793-613ffc5c3e0b"},"vehicle_type_id":"4","last_reported":1751569652,"current_range_meters":12800,"station_id":"ce4bgj92rcd13ifvqbe0","pricing_plan_id":"cebpf4jnsgd1na2vs0mg"},{"bike_id":"60ac0866-6cab-4a94-8395-34c49f9e27c1","system_id":"levelo_inurba_marseille","lat":43.27379,"lon":5.36251,"is_reserved":false,"is_disabled":false,"rental_uris":{"android":"levelo://app?vid=60ac0866-6cab-4a94-8395-34c49f9e27c1","ios":"levelo://app?vid=60ac0866-6cab-4a94-8395-34c49f9e27c1"},"vehicle_type_id":"4","last_reported":1751569652,"current_range_meters":12800,"station_id":"ce4bhbh2rcd13ifvqeo0","pricing_plan_id":"cebpf4jnsgd1na2vs0mg"},{"bike_id":"3b753967-68ac-497d-b237-6eeb00254464","system_id":"levelo_inurba_marseille","lat":43.28422,"lon":5.34968,"is_reserved":false,"is_disabled":false,"rental_uris":{"android":"levelo://app?vid=3b753967-68ac-497d-b237-6eeb00254464","ios":"levelo://app?vid=3b753967-68ac-497d-b237-6eeb00254464"},"vehicle_type_id":"4","last_reported":1751569652,"current_range_meters":12800,"station_id":"ce4bhbh2rcd13ifvqepg","pricing_plan_id":"cebpf4jnsgd1na2vs0mg"},{"bike_id":"1c494b60-aa41-4af9-83fd-d2ccd388ce43","system_id":"levelo_inurba_marseille","lat":43.25715,"lon":5.41106,"is_reserved":false,"is_disabled":false,"rental_uris":{"android":"levelo://app?vid=1c494b60-aa41-4af9-83fd-d2ccd388ce43","ios":"levelo://app?vid=1c494b60-aa41-4af9-83fd-d2ccd388ce43"},"vehicle_type_id":"4","last_reported":1751569652,"current_range_meters":12800,"station_id":"ce4bhkp2rcd13ifvqgd0","pricing_plan_id":"cebpf4jnsgd1na2vs0mg"},{"bike_id":"9f9b4b6b-fc02-4866-bcb0-736521c7b409","system_id":"levelo_inurba_marseille","lat":43.31723,"lon":5.42392,"is_reserved":false,"is_disabled":false,"rental_uris":{"android":"levelo://app?vid=9f9b4b6b-fc02-4866-bcb0-736521c7b409","ios":"levelo://app?vid=9f9b4b6b-fc02-4866-bcb0-736521c7b409"},"vehicle_type_id":"4","last_reported":1751569652,"current_range_meters":12800,"station_id":"ce4bhp92rcd13ifvqhbg","pricing_plan_id":"cebpf4jnsgd1na2vs0mg"},{"bike_id":"05cead15-229f-4df7-be28-65114c415172","system_id":"levelo_inurba_marseille","lat":43.2938,"lon":5.37851,"is_reserved":false,"is_disabled":false,"rental_uris":{"android":"levelo://app?vid=05cead15-229f-4df7-be28-65114c415172","ios":"levelo://app?vid=05cead15-229f-4df7-be28-65114c415172"},"vehicle_type_id":"4","last_reported":1751569652,"current_range_meters":13600,"station_id":"ce4bgjh2rcd13ifvqbf0","pricing_plan_id":"cebpf4jnsgd1na2vs0mg"},{"bike_id":"4a7c3d94-6240-4178-9433-94fa1620a2d6","system_id":"levelo_inurba_marseille","lat":43.2997,"lon":5.37179,"is_reserved":false,"is_disabled":false,"rental_uris":{"android":"levelo://app?vid=4a7c3d94-6240-4178-9433-94fa1620a2d6","ios":"levelo://app?vid=4a7c3d94-6240-4178-9433-94fa1620a2d6"},"vehicle_type_id":"4","last_reported":1751569652,"current_range_meters":14000,"station_id":"ce4bgr92rcd13ifvqc7g","pricing_plan_id":"cebpf4jnsgd1na2vs0mg"},{"bike_id":"4df53676-c970-4ad2-b0cf-7b050d07887d","system_id":"levelo_inurba_marseille","lat":43.289947,"lon":5.356323,"is_reserved":false,"is_disabled":false,"rental_uris":{"android":"levelo://app?vid=4df53676-c970-4ad2-b0cf-7b050d07887d","ios":"levelo://app?vid=4df53676-c970-4ad2-b0cf-7b050d07887d"},"vehicle_type_id":"4","last_reported":1751569652,"current_range_meters":14000,"station_id":"ce4bhb92rcd13ifvqen0","pricing_plan_id":"cebpf4jnsgd1na2vs0mg"},{"bike_id":"ba154a12-11bd-42a5-958a-5992f5d043d1","system_id":"levelo_inurba_marseille","lat":43.30504,"lon":5.3715,"is_reserved":false,"is_disabled":false,"rental_uris":{"android":"levelo://app?vid=ba154a12-11bd-42a5-958a-5992f5d043d1","ios":"levelo://app?vid=ba154a12-11bd-42a5-958a-5992f5d043d1"},"vehicle_type_id":"4","last_reported":1751569652,"current_range_meters":14400,"station_id":"","pricing_plan_id":"cebpf4jnsgd1na2vs0mg"},{"bike_id":"9cc8755c-39a8-4688-a1f1-627755527735","system_id":"levelo_inurba_marseille","lat":43.30301,"lon":5.39211,"is_reserved":false,"is_disabled":false,"rental_uris":{"android":"levelo://app?vid=9cc8755c-39a8-4688-a1f1-627755527735","ios":"levelo://app?vid=9cc8755c-39a8-4688-a1f1-627755527735"},"vehicle_type_id":"4","last_reported":1751569652,"current_range_meters":14400,"station_id":"ce4bgkh2rcd13ifvqbk0","pricing_plan_id":"cebpf4jnsgd1na2vs0mg"},{"bike_id":"d4540199-1be4-4e68-ab3b-af02c21ced2f","system_id":"levelo_inurba_marseille","lat":43.26227,"lon":5.40463,"is_reserved":false,"is_disabled":false,"rental_uris":{"android":"levelo://app?vid=d4540199-1be4-4e68-ab3b-af02c21ced2f","ios":"levelo://app?vid=d4540199-1be4-4e68-ab3b-af02c21ced2f"},"vehicle_type_id":"4","last_reported":1751569652,"current_range_meters":14400,"station_id":"ce4bhmh2rcd13ifvqgmg","pricing_plan_id":"cebpf4jnsgd1na2vs0mg"},{"bike_id":"a2ff82df-1f9f-40e3-a570-34607949f3a2","system_id":"levelo_inurba_marseille","lat":43.29689,"lon":5.37301,"is_reserved":false,"is_disabled":false,"rental_uris":{"android":"levelo://app?vid=a2ff82df-1f9f-40e3-a570-34607949f3a2","ios":"levelo://app?vid=a2ff82df-1f9f-40e3-a570-34607949f3a2"},"vehicle_type_id":"4","last_reported":1751569652,"current_range_meters":14800,"station_id":"ce4bgk12rcd13ifvqbj0","pricing_plan_id":"cebpf4jnsgd1na2vs0mg"},{"bike_id":"ac01ee7b-5af9-4805-99b1-732f99ff31b2","system_id":"levelo_inurba_marseille","lat":43.27377,"lon":5.36257,"is_reserved":false,"is_disabled":false,"rental_uris":{"android":"levelo://app?vid=ac01ee7b-5af9-4805-99b1-732f99ff31b2","ios":"levelo://app?vid=ac01ee7b-5af9-4805-99b1-732f99ff31b2"},"vehicle_type_id":"4","last_reported":1751569652,"current_range_meters":14800,"station_id":"ce4bhbh2rcd13ifvqeo0","pricing_plan_id":"cebpf4jnsgd1na2vs0mg"},{"bike_id":"44a9443d-3135-4a25-856d-9bda0e293f4a","system_id":"levelo_inurba_marseille","lat":43.28414,"lon":5.34976,"is_reserved":false,"is_disabled":false,"rental_uris":{"android":"levelo://app?vid=44a9443d-3135-4a25-856d-9bda0e293f4a","ios":"levelo://app?vid=44a9443d-3135-4a25-856d-9bda0e293f4a"},"vehicle_type_id":"4","last_reported":1751569652,"current_range_meters":14800,"station_id":"ce4bhbh2rcd13ifvqepg","pricing_plan_id":"cebpf4jnsgd1na2vs0mg"},{"bike_id":"0f192a53-6a80-441f-9705-3495103aea52","system_id":"levelo_inurba_marseille","lat":43.28614,"lon":5.351071,"is_reserved":false,"is_disabled":false,"rental_uris":{"android":"levelo://app?vid=0f192a53-6a80-441f-9705-3495103aea52","ios":"levelo://app?vid=0f192a53-6a80-441f-9705-3495103aea52"},"vehicle_type_id":"4","last_reported":1751569652,"current_range_meters":14800,"station_id":"ce4bhch2rcd13ifvqeug","pricing_plan_id":"cebpf4jnsgd1na2vs0mg"},{"bike_id":"e99f07fa-756f-44b5-ba7e-c3bc9046d58c","system_id":"levelo_inurba_marseille","lat":43.28608,"lon":5.35078,"is_reserved":false,"is_disabled":false,"rental_uris":{"android":"levelo://app?vid=e99f07fa-756f-44b5-ba7e-c3bc9046d58c","ios":"levelo://app?vid=e99f07fa-756f-44b5-ba7e-c3bc9046d58c"},"vehicle_type_id":"4","last_reported":1751569652,"current_range_meters":14800,"station_id":"ce4bhch2rcd13ifvqeug","pricing_plan_id":"cebpf4jnsgd1na2vs0mg"},{"bike_id":"37b84a38-055a-4a6e-a56a-8ff3d0c1b2ec","system_id":"levelo_inurba_marseille","lat":43.21196,"lon":5.35079,"is_reserved":false,"is_disabled":false,"rental_uris":{"android":"levelo://app?vid=37b84a38-055a-4a6e-a56a-8ff3d0c1b2ec","ios":"levelo://app?vid=37b84a38-055a-4a6e-a56a-8ff3d0c1b2ec"},"vehicle_type_id":"4","last_reported":1751569652,"current_range_meters":14800,"station_id":"st_cvj6sg6p6f1abm77japg","pricing_plan_id":"cebpf4jnsgd1na2vs0mg"},{"bike_id":"4d4995e7-0bba-4ac2-a238-afd84a5e99b5","system_id":"levelo_inurba_marseille","lat":43.304848,"lon":5.398345,"is_reserved":false,"is_disabled":false,"rental_uris":{"android":"levelo://app?vid=4d4995e7-0bba-4ac2-a238-afd84a5e99b5","ios":"levelo://app?vid=4d4995e7-0bba-4ac2-a238-afd84a5e99b5"},"vehicle_type_id":"4","last_reported":1751569652,"current_range_meters":15200,"station_id":"","pricing_plan_id":"cebpf4jnsgd1na2vs0mg"},{"bike_id":"175513bb-dce2-48e2-83c8-1e9f1cb23cd0","system_id":"levelo_inurba_marseille","lat":43.286255,"lon":5.412651,"is_reserved":false,"is_disabled":false,"rental_uris":{"android":"levelo://app?vid=175513bb-dce2-48e2-83c8-1e9f1cb23cd0","ios":"levelo://app?vid=175513bb-dce2-48e2-83c8-1e9f1cb23cd0"},"vehicle_type_id":"4","last_reported":1751569652,"current_range_meters":15200,"station_id":"","pricing_plan_id":"cebpf4jnsgd1na2vs0mg"},{"bike_id":"d6a97fc8-7c5d-4b77-9d38-d22003db8fe5","system_id":"levelo_inurba_marseille","lat":43.34721,"lon":5.36602,"is_reserved":false,"is_disabled":false,"rental_uris":{"android":"levelo://app?vid=d6a97fc8-7c5d-4b77-9d38-d22003db8fe5","ios":"levelo://app?vid=d6a97fc8-7c5d-4b77-9d38-d22003db8fe5"},"vehicle_type_id":"4","last_reported":1751569652,"current_range_meters":15200,"station_id":"","pricing_plan_id":"cebpf4jnsgd1na2vs0mg"},{"bike_id":"b55f4778-93bf-4c10-bc97-3510dc8f339c","system_id":"levelo_inurba_marseille","lat":43.23966,"lon":5.36629,"is_reserved":false,"is_disabled":false,"rental_uris":{"android":"levelo://app?vid=b55f4778-93bf-4c10-bc97-3510dc8f339c","ios":"levelo://app?vid=b55f4778-93bf-4c10-bc97-3510dc8f339c"},"vehicle_type_id":"4","last_reported":1751569652,"current_range_meters":15200,"station_id":"ce4bhi12rcd13ifvqfp0","pricing_plan_id":"cebpf4jnsgd1na2vs0mg"},{"bike_id":"136a9611-6902-45b0-87ab-686a823c4d24","system_id":"levelo_inurba_marseille","lat":43.26485,"lon":5.39535,"is_reserved":false,"is_disabled":false,"rental_uris":{"android":"levelo://app?vid=136a9611-6902-45b0-87ab-686a823c4d24","ios":"levelo://app?vid=136a9611-6902-45b0-87ab-686a823c4d24"},"vehicle_type_id":"4","last_reported":1751569652,"current_range_meters":15200,"station_id":"ce4bhi12rcd13ifvqfq0","pricing_plan_id":"cebpf4jnsgd1na2vs0mg"},{"bike_id":"efa4c9f0-95a5-4009-802b-fecc9bcfc781","system_id":"levelo_inurba_marseille","lat":43.31758,"lon":5.39019,"is_reserved":false,"is_disabled":false,"rental_uris":{"android":"levelo://app?vid=efa4c9f0-95a5-4009-802b-fecc9bcfc781","ios":"levelo://app?vid=efa4c9f0-95a5-4009-802b-fecc9bcfc781"},"vehicle_type_id":"4","last_reported":1751569652,"current_range_meters":15200,"station_id":"ce4bhqp2rcd13ifvqhng","pricing_plan_id":"cebpf4jnsgd1na2vs0mg"},{"bike_id":"7c67e7dd-7a7f-426b-9249-641f91643932","system_id":"levelo_inurba_marseille","lat":43.24177,"lon":5.36396,"is_reserved":false,"is_disabled":false,"rental_uris":{"android":"levelo://app?vid=7c67e7dd-7a7f-426b-9249-641f91643932","ios":"levelo://app?vid=7c67e7dd-7a7f-426b-9249-641f91643932"},"vehicle_type_id":"4","last_reported":1751569652,"current_range_meters":15200,"station_id":"cpo36qri1sfpv3e86is0","pricing_plan_id":"cebpf4jnsgd1na2vs0mg"},{"bike_id":"a10f52d5-f0b3-4e38-8e1b-891c225cb35e","system_id":"levelo_inurba_marseille","lat":43.21209,"lon":5.35047,"is_reserved":false,"is_disabled":false,"rental_uris":{"android":"levelo://app?vid=a10f52d5-f0b3-4e38-8e1b-891c225cb35e","ios":"levelo://app?vid=a10f52d5-f0b3-4e38-8e1b-891c225cb35e"},"vehicle_type_id":"4","last_reported":1751569652,"current_range_meters":15200,"station_id":"st_cvj6sg6p6f1abm77japg","pricing_plan_id":"cebpf4jnsgd1na2vs0mg"},{"bike_id":"0b03e171-2415-4997-a909-94fffa24318c","system_id":"levelo_inurba_marseille","lat":43.32051,"lon":5.40894,"is_reserved":false,"is_disabled":false,"rental_uris":{"android":"levelo://app?vid=0b03e171-2415-4997-a909-94fffa24318c","ios":"levelo://app?vid=0b03e171-2415-4997-a909-94fffa24318c"},"vehicle_type_id":"4","last_reported":1751569652,"current_range_meters":16000,"station_id":"","pricing_plan_id":"cebpf4jnsgd1na2vs0mg"},{"bike_id":"0c4b7fdb-b39e-49b3-a2b0-ae3d0f43e89d","system_id":"levelo_inurba_marseille","lat":43.32902,"lon":5.40552,"is_reserved":false,"is_disabled":false,"rental_uris":{"android":"levelo://app?vid=0c4b7fdb-b39e-49b3-a2b0-ae3d0f43e89d","ios":"levelo://app?vid=0c4b7fdb-b39e-49b3-a2b0-ae3d0f43e89d"},"vehicle_type_id":"4","last_reported":1751569652,"current_range_meters":16000,"station_id":"","pricing_plan_id":"cebpf4jnsgd1na2vs0mg"},{"bike_id":"d02cb105-63da-493b-a46e-55e2efadf889","system_id":"levelo_inurba_marseille","lat":43.29269,"lon":5.3843,"is_reserved":false,"is_disabled":false,"rental_uris":{"android":"levelo://app?vid=d02cb105-63da-493b-a46e-55e2efadf889","ios":"levelo://app?vid=d02cb105-63da-493b-a46e-55e2efadf889"},"vehicle_type_id":"4","last_reported":1751569652,"current_range_meters":16000,"station_id":"ce4bh692rcd13ifvqea0","pricing_plan_id":"cebpf4jnsgd1na2vs0mg"},{"bike_id":"603f229c-09b9-4145-9510-d250a8eff49b","system_id":"levelo_inurba_marseille","lat":43.28638,"lon":5.35093,"is_reserved":false,"is_disabled":false,"rental_uris":{"android":"levelo://app?vid=603f229c-09b9-4145-9510-d250a8eff49b","ios":"levelo://app?vid=603f229c-09b9-4145-9510-d250a8eff49b"},"vehicle_type_id":"4","last_reported":1751569652,"current_range_meters":16000,"station_id":"ce4bhch2rcd13ifvqeug","pricing_plan_id":"cebpf4jnsgd1na2vs0mg"},{"bike_id":"5243c9d3-c44b-418d-aeae-29f412b42f25","system_id":"levelo_inurba_marseille","lat":43.2481,"lon":5.3746,"is_reserved":false,"is_disabled":false,"rental_uris":{"android":"levelo://app?vid=5243c9d3-c44b-418d-aeae-29f412b42f25","ios":"levelo://app?vid=5243c9d3-c44b-418d-aeae-29f412b42f25"},"vehicle_type_id":"4","last_reported":1751569652,"current_range_meters":16000,"station_id":"ce4bhgh2rcd13ifvqfb0","pricing_plan_id":"cebpf4jnsgd1na2vs0mg"},{"bike_id":"2596bf02-4b4e-4a73-96c0-306657fb5dc9","system_id":"levelo_inurba_marseille","lat":43.26205,"lon":5.37442,"is_reserved":false,"is_disabled":false,"rental_uris":{"android":"levelo://app?vid=2596bf02-4b4e-4a73-96c0-306657fb5dc9","ios":"levelo://app?vid=2596bf02-4b4e-4a73-96c0-306657fb5dc9"},"vehicle_type_id":"4","last_reported":1751569652,"current_range_meters":16000,"station_id":"ce4bhgp2rcd13ifvqfc0","pricing_plan_id":"cebpf4jnsgd1na2vs0mg"},{"bike_id":"d2bf14df-3f08-4e98-877f-c7a5b364bc6f","system_id":"levelo_inurba_marseille","lat":43.27817,"lon":5.40711,"is_reserved":false,"is_disabled":false,"rental_uris":{"android":"levelo://app?vid=d2bf14df-3f08-4e98-877f-c7a5b364bc6f","ios":"levelo://app?vid=d2bf14df-3f08-4e98-877f-c7a5b364bc6f"},"vehicle_type_id":"4","last_reported":1751569652,"current_range_meters":16000,"station_id":"ce4bhnh2rcd13ifvqgtg","pricing_plan_id":"cebpf4jnsgd1na2vs0mg"},{"bike_id":"f11f97b5-0869-4086-b9c0-f1dc87545c82","system_id":"levelo_inurba_marseille","lat":43.23193,"lon":5.35557,"is_reserved":false,"is_disabled":false,"rental_uris":{"android":"levelo://app?vid=f11f97b5-0869-4086-b9c0-f1dc87545c82","ios":"levelo://app?vid=f11f97b5-0869-4086-b9c0-f1dc87545c82"},"vehicle_type_id":"4","last_reported":1751569652,"current_range_meters":16000,"station_id":"ce4bhu92rcd13ifvqi70","pricing_plan_id":"cebpf4jnsgd1na2vs0mg"},{"bike_id":"a6715104-7492-4ec6-a996-23050baf8551","system_id":"levelo_inurba_marseille","lat":43.22542,"lon":5.34761,"is_reserved":false,"is_disabled":false,"rental_uris":{"android":"levelo://app?vid=a6715104-7492-4ec6-a996-23050baf8551","ios":"levelo://app?vid=a6715104-7492-4ec6-a996-23050baf8551"},"vehicle_type_id":"4","last_reported":1751569652,"current_range_meters":16000,"station_id":"st_cvj5dfep6f1abm77gieg","pricing_plan_id":"cebpf4jnsgd1na2vs0mg"},{"bike_id":"af213e10-6367-4cec-af17-63aa54d97712","system_id":"levelo_inurba_marseille","lat":43.27624,"lon":5.36079,"is_reserved":false,"is_disabled":false,"rental_uris":{"android":"levelo://app?vid=af213e10-6367-4cec-af17-63aa54d97712","ios":"levelo://app?vid=af213e10-6367-4cec-af17-63aa54d97712"},"vehicle_type_id":"4","last_reported":1751569652,"current_range_meters":16400,"station_id":"ce4bgj92rcd13ifvqbe0","pricing_plan_id":"cebpf4jnsgd1na2vs0mg"},{"bike_id":"8ebe74e9-6cc0-4208-af0e-9e8908d07919","system_id":"levelo_inurba_marseille","lat":43.2843,"lon":5.34984,"is_reserved":false,"is_disabled":false,"rental_uris":{"android":"levelo://app?vid=8ebe74e9-6cc0-4208-af0e-9e8908d07919","ios":"levelo://app?vid=8ebe74e9-6cc0-4208-af0e-9e8908d07919"},"vehicle_type_id":"4","last_reported":1751569652,"current_range_meters":16400,"station_id":"ce4bhbh2rcd13ifvqepg","pricing_plan_id":"cebpf4jnsgd1na2vs0mg"},{"bike_id":"7ab1a795-ce92-4d6c-a196-1a8646dda6f4","system_id":"levelo_inurba_marseille","lat":43.28425,"lon":5.34981,"is_reserved":false,"is_disabled":false,"rental_uris":{"android":"levelo://app?vid=7ab1a795-ce92-4d6c-a196-1a8646dda6f4","ios":"levelo://app?vid=7ab1a795-ce92-4d6c-a196-1a8646dda6f4"},"vehicle_type_id":"4","last_reported":1751569652,"current_range_meters":16400,"station_id":"ce4bhbh2rcd13ifvqepg","pricing_plan_id":"cebpf4jnsgd1na2vs0mg"},{"bike_id":"6ee47da4-9cb7-4584-be45-580a2eecea99","system_id":"levelo_inurba_marseille","lat":43.25536,"lon":5.37648,"is_reserved":false,"is_disabled":false,"rental_uris":{"android":"levelo://app?vid=6ee47da4-9cb7-4584-be45-580a2eecea99","ios":"levelo://app?vid=6ee47da4-9cb7-4584-be45-580a2eecea99"},"vehicle_type_id":"4","last_reported":1751569652,"current_range_meters":16400,"station_id":"ce4bhh12rcd13ifvqff0","pricing_plan_id":"cebpf4jnsgd1na2vs0mg"},{"bike_id":"876baad4-af20-4b26-9619-557eb59dd3a0","system_id":"levelo_inurba_marseille","lat":43.23193,"lon":5.355474,"is_reserved":false,"is_disabled":false,"rental_uris":{"android":"levelo://app?vid=876baad4-af20-4b26-9619-557eb59dd3a0","ios":"levelo://app?vid=876baad4-af20-4b26-9619-557eb59dd3a0"},"vehicle_type_id":"4","last_reported":1751569652,"current_range_meters":16400,"station_id":"ce4bhu92rcd13ifvqi70","pricing_plan_id":"cebpf4jnsgd1na2vs0mg"},{"bike_id":"dfbce5f2-d4be-4fb4-b96e-89f73ba79196","system_id":"levelo_inurba_marseille","lat":43.211916,"lon":5.350703,"is_reserved":false,"is_disabled":false,"rental_uris":{"android":"levelo://app?vid=dfbce5f2-d4be-4fb4-b96e-89f73ba79196","ios":"levelo://app?vid=dfbce5f2-d4be-4fb4-b96e-89f73ba79196"},"vehicle_type_id":"4","last_reported":1751569652,"current_range_meters":16400,"station_id":"st_cvj6sg6p6f1abm77japg","pricing_plan_id":"cebpf4jnsgd1na2vs0mg"},{"bike_id":"0c5e46df-9adb-4aa5-842c-17a1961c0106","system_id":"levelo_inurba_marseille","lat":43.27995,"lon":5.40723,"is_reserved":false,"is_disabled":false,"rental_uris":{"android":"levelo://app?vid=0c5e46df-9adb-4aa5-842c-17a1961c0106","ios":"levelo://app?vid=0c5e46df-9adb-4aa5-842c-17a1961c0106"},"vehicle_type_id":"4","last_reported":1751569652,"current_range_meters":16800,"station_id":"","pricing_plan_id":"cebpf4jnsgd1na2vs0mg"},{"bike_id":"5598d938-8bfc-4250-bd61-6a56a6c0876b","system_id":"levelo_inurba_marseille","lat":43.27413,"lon":5.36266,"is_reserved":false,"is_disabled":false,"rental_uris":{"android":"levelo://app?vid=5598d938-8bfc-4250-bd61-6a56a6c0876b","ios":"levelo://app?vid=5598d938-8bfc-4250-bd61-6a56a6c0876b"},"vehicle_type_id":"4","last_reported":1751569652,"current_range_meters":16800,"station_id":"","pricing_plan_id":"cebpf4jnsgd1na2vs0mg"},{"bike_id":"389def1d-0895-4af3-9101-7c6e6e1aa773","system_id":"levelo_inurba_marseille","lat":43.289338,"lon":5.396172,"is_reserved":false,"is_disabled":false,"rental_uris":{"android":"levelo://app?vid=389def1d-0895-4af3-9101-7c6e6e1aa773","ios":"levelo://app?vid=389def1d-0895-4af3-9101-7c6e6e1aa773"},"vehicle_type_id":"4","last_reported":1751569652,"current_range_meters":16800,"station_id":"ce4bh3h2rcd13ifvqdn0","pricing_plan_id":"cebpf4jnsgd1na2vs0mg"},{"bike_id":"efd39573-3e62-4943-bd41-7a5e046acff7","system_id":"levelo_inurba_marseille","lat":43.27372,"lon":5.36257,"is_reserved":false,"is_disabled":false,"rental_uris":{"android":"levelo://app?vid=efd39573-3e62-4943-bd41-7a5e046acff7","ios":"levelo://app?vid=efd39573-3e62-4943-bd41-7a5e046acff7"},"vehicle_type_id":"4","last_reported":1751569652,"current_range_meters":16800,"station_id":"ce4bhbh2rcd13ifvqeo0","pricing_plan_id":"cebpf4jnsgd1na2vs0mg"},{"bike_id":"b35c913a-6b27-4cc6-9ebb-fdd74d5d7c59","system_id":"levelo_inurba_marseille","lat":43.28422,"lon":5.34983,"is_reserved":false,"is_disabled":false,"rental_uris":{"android":"levelo://app?vid=b35c913a-6b27-4cc6-9ebb-fdd74d5d7c59","ios":"levelo://app?vid=b35c913a-6b27-4cc6-9ebb-fdd74d5d7c59"},"vehicle_type_id":"4","last_reported":1751569652,"current_range_meters":16800,"station_id":"ce4bhbh2rcd13ifvqepg","pricing_plan_id":"cebpf4jnsgd1na2vs0mg"},{"bike_id":"80a421f9-82c6-43e6-aaa0-88dda18c110c","system_id":"levelo_inurba_marseille","lat":43.28412,"lon":5.3498,"is_reserved":false,"is_disabled":false,"rental_uris":{"android":"levelo://app?vid=80a421f9-82c6-43e6-aaa0-88dda18c110c","ios":"levelo://app?vid=80a421f9-82c6-43e6-aaa0-88dda18c110c"},"vehicle_type_id":"4","last_reported":1751569652,"current_range_meters":16800,"station_id":"ce4bhbh2rcd13ifvqepg","pricing_plan_id":"cebpf4jnsgd1na2vs0mg"},{"bike_id":"21f958e0-ca5b-48fa-99ef-ba85d36d64ee","system_id":"levelo_inurba_marseille","lat":43.2619,"lon":5.37447,"is_reserved":false,"is_disabled":false,"rental_uris":{"android":"levelo://app?vid=21f958e0-ca5b-48fa-99ef-ba85d36d64ee","ios":"levelo://app?vid=21f958e0-ca5b-48fa-99ef-ba85d36d64ee"},"vehicle_type_id":"4","last_reported":1751569652,"current_range_meters":16800,"station_id":"ce4bhgp2rcd13ifvqfc0","pricing_plan_id":"cebpf4jnsgd1na2vs0mg"},{"bike_id":"1e72282f-57fe-4941-8a32-3b216e13345e","system_id":"levelo_inurba_marseille","lat":43.32341,"lon":5.40614,"is_reserved":false,"is_disabled":false,"rental_uris":{"android":"levelo://app?vid=1e72282f-57fe-4941-8a32-3b216e13345e","ios":"levelo://app?vid=1e72282f-57fe-4941-8a32-3b216e13345e"},"vehicle_type_id":"4","last_reported":1751569652,"current_range_meters":16800,"station_id":"ce4bhq92rcd13ifvqhjg","pricing_plan_id":"cebpf4jnsgd1na2vs0mg"},{"bike_id":"b3bdafac-5fdd-4245-9328-43b6d54aec01","system_id":"levelo_inurba_marseille","lat":43.32365,"lon":5.38908,"is_reserved":false,"is_disabled":false,"rental_uris":{"android":"levelo://app?vid=b3bdafac-5fdd-4245-9328-43b6d54aec01","ios":"levelo://app?vid=b3bdafac-5fdd-4245-9328-43b6d54aec01"},"vehicle_type_id":"4","last_reported":1751569652,"current_range_meters":16800,"station_id":"ce4bhqp2rcd13ifvqhog","pricing_plan_id":"cebpf4jnsgd1na2vs0mg"},{"bike_id":"04e6c422-f573-4b46-85ae-d31c2fc5977b","system_id":"levelo_inurba_marseille","lat":43.24196,"lon":5.3637,"is_reserved":false,"is_disabled":false,"rental_uris":{"android":"levelo://app?vid=04e6c422-f573-4b46-85ae-d31c2fc5977b","ios":"levelo://app?vid=04e6c422-f573-4b46-85ae-d31c2fc5977b"},"vehicle_type_id":"4","last_reported":1751569652,"current_range_meters":16800,"station_id":"cpo36qri1sfpv3e86is0","pricing_plan_id":"cebpf4jnsgd1na2vs0mg"},{"bike_id":"5e197122-e8ec-4f01-b370-6bbfc10c6950","system_id":"levelo_inurba_marseille","lat":43.21211,"lon":5.35046,"is_reserved":false,"is_disabled":false,"rental_uris":{"android":"levelo://app?vid=5e197122-e8ec-4f01-b370-6bbfc10c6950","ios":"levelo://app?vid=5e197122-e8ec-4f01-b370-6bbfc10c6950"},"vehicle_type_id":"4","last_reported":1751569652,"current_range_meters":16800,"station_id":"st_cvj6sg6p6f1abm77japg","pricing_plan_id":"cebpf4jnsgd1na2vs0mg"},{"bike_id":"cc04118e-9312-4bf8-9106-d64e829afbaa","system_id":"levelo_inurba_marseille","lat":43.21193,"lon":5.3507,"is_reserved":false,"is_disabled":false,"rental_uris":{"android":"levelo://app?vid=cc04118e-9312-4bf8-9106-d64e829afbaa","ios":"levelo://app?vid=cc04118e-9312-4bf8-9106-d64e829afbaa"},"vehicle_type_id":"4","last_reported":1751569652,"current_range_meters":16800,"station_id":"st_cvj6sg6p6f1abm77japg","pricing_plan_id":"cebpf4jnsgd1na2vs0mg"},{"bike_id":"27b2c459-7e28-4563-b22f-60d0278cb331","system_id":"levelo_inurba_marseille","lat":43.27619,"lon":5.36092,"is_reserved":false,"is_disabled":false,"rental_uris":{"android":"levelo://app?vid=27b2c459-7e28-4563-b22f-60d0278cb331","ios":"levelo://app?vid=27b2c459-7e28-4563-b22f-60d0278cb331"},"vehicle_type_id":"4","last_reported":1751569652,"current_range_meters":17200,"station_id":"ce4bgj92rcd13ifvqbe0","pricing_plan_id":"cebpf4jnsgd1na2vs0mg"},{"bike_id":"0a538aa1-d128-47ad-9d68-1cbfb5e84d5b","system_id":"levelo_inurba_marseille","lat":43.29682,"lon":5.37291,"is_reserved":false,"is_disabled":false,"rental_uris":{"android":"levelo://app?vid=0a538aa1-d128-47ad-9d68-1cbfb5e84d5b","ios":"levelo://app?vid=0a538aa1-d128-47ad-9d68-1cbfb5e84d5b"},"vehicle_type_id":"4","last_reported":1751569652,"current_range_meters":17200,"station_id":"ce4bgk12rcd13ifvqbj0","pricing_plan_id":"cebpf4jnsgd1na2vs0mg"},{"bike_id":"f13e3692-bde4-4389-8b3c-00bd0988b988","system_id":"levelo_inurba_marseille","lat":43.30279,"lon":5.37703,"is_reserved":false,"is_disabled":false,"rental_uris":{"android":"levelo://app?vid=f13e3692-bde4-4389-8b3c-00bd0988b988","ios":"levelo://app?vid=f13e3692-bde4-4389-8b3c-00bd0988b988"},"vehicle_type_id":"4","last_reported":1751569652,"current_range_meters":17200,"station_id":"ce4bguh2rcd13ifvqcj0","pricing_plan_id":"cebpf4jnsgd1na2vs0mg"},{"bike_id":"589d5eda-19de-49b3-b5e8-b78c57a5aee8","system_id":"levelo_inurba_marseille","lat":43.28618,"lon":5.35097,"is_reserved":false,"is_disabled":false,"rental_uris":{"android":"levelo://app?vid=589d5eda-19de-49b3-b5e8-b78c57a5aee8","ios":"levelo://app?vid=589d5eda-19de-49b3-b5e8-b78c57a5aee8"},"vehicle_type_id":"4","last_reported":1751569652,"current_range_meters":17200,"station_id":"ce4bhch2rcd13ifvqeug","pricing_plan_id":"cebpf4jnsgd1na2vs0mg"},{"bike_id":"55aa929b-2db6-4ab6-8121-df233a47781a","system_id":"levelo_inurba_marseille","lat":43.26214,"lon":5.37435,"is_reserved":false,"is_disabled":false,"rental_uris":{"android":"levelo://app?vid=55aa929b-2db6-4ab6-8121-df233a47781a","ios":"levelo://app?vid=55aa929b-2db6-4ab6-8121-df233a47781a"},"vehicle_type_id":"4","last_reported":1751569652,"current_range_meters":17200,"station_id":"ce4bhgp2rcd13ifvqfc0","pricing_plan_id":"cebpf4jnsgd1na2vs0mg"},{"bike_id":"f1b8be6b-5160-46cf-8639-5feed5223608","system_id":"levelo_inurba_marseille","lat":43.26192,"lon":5.37446,"is_reserved":false,"is_disabled":false,"rental_uris":{"android":"levelo://app?vid=f1b8be6b-5160-46cf-8639-5feed5223608","ios":"levelo://app?vid=f1b8be6b-5160-46cf-8639-5feed5223608"},"vehicle_type_id":"4","last_reported":1751569652,"current_range_meters":17200,"station_id":"ce4bhgp2rcd13ifvqfc0","pricing_plan_id":"cebpf4jnsgd1na2vs0mg"},{"bike_id":"1698c836-6036-4087-af38-f7024f2152dc","system_id":"levelo_inurba_marseille","lat":43.26208,"lon":5.37431,"is_reserved":false,"is_disabled":false,"rental_uris":{"android":"levelo://app?vid=1698c836-6036-4087-af38-f7024f2152dc","ios":"levelo://app?vid=1698c836-6036-4087-af38-f7024f2152dc"},"vehicle_type_id":"4","last_reported":1751569652,"current_range_meters":17200,"station_id":"ce4bhgp2rcd13ifvqfc0","pricing_plan_id":"cebpf4jnsgd1na2vs0mg"},{"bike_id":"085a9b83-3f84-40f5-9e64-5af9b3d60f63","system_id":"levelo_inurba_marseille","lat":43.298993,"lon":5.4365,"is_reserved":false,"is_disabled":false,"rental_uris":{"android":"levelo://app?vid=085a9b83-3f84-40f5-9e64-5af9b3d60f63","ios":"levelo://app?vid=085a9b83-3f84-40f5-9e64-5af9b3d60f63"},"vehicle_type_id":"4","last_reported":1751569652,"current_range_meters":17200,"station_id":"ce4bhpp2rcd13ifvqhfg","pricing_plan_id":"cebpf4jnsgd1na2vs0mg"},{"bike_id":"bc13ae0c-5973-4f3e-bebb-8e6c20cdc88e","system_id":"levelo_inurba_marseille","lat":43.28624,"lon":5.35093,"is_reserved":false,"is_disabled":false,"rental_uris":{"android":"levelo://app?vid=bc13ae0c-5973-4f3e-bebb-8e6c20cdc88e","ios":"levelo://app?vid=bc13ae0c-5973-4f3e-bebb-8e6c20cdc88e"},"vehicle_type_id":"4","last_reported":1751569652,"current_range_meters":17600,"station_id":"","pricing_plan_id":"cebpf4jnsgd1na2vs0mg"},{"bike_id":"1c8ab180-05fd-405f-9922-b2b2c2d5142f","system_id":"levelo_inurba_marseille","lat":43.33805,"lon":5.38146,"is_reserved":false,"is_disabled":false,"rental_uris":{"android":"levelo://app?vid=1c8ab180-05fd-405f-9922-b2b2c2d5142f","ios":"levelo://app?vid=1c8ab180-05fd-405f-9922-b2b2c2d5142f"},"vehicle_type_id":"4","last_reported":1751569652,"current_range_meters":17600,"station_id":"","pricing_plan_id":"cebpf4jnsgd1na2vs0mg"},{"bike_id":"5739258f-ee15-4c05-8466-bf15c2ab964f","system_id":"levelo_inurba_marseille","lat":43.29602,"lon":5.38087,"is_reserved":false,"is_disabled":false,"rental_uris":{"android":"levelo://app?vid=5739258f-ee15-4c05-8466-bf15c2ab964f","ios":"levelo://app?vid=5739258f-ee15-4c05-8466-bf15c2ab964f"},"vehicle_type_id":"4","last_reported":1751569652,"current_range_meters":17600,"station_id":"ce4bgl12rcd13ifvqbo0","pricing_plan_id":"cebpf4jnsgd1na2vs0mg"},{"bike_id":"3e6c6bf4-74b9-4539-a7cd-ac1c43c97b3c","system_id":"levelo_inurba_marseille","lat":43.28851,"lon":5.39304,"is_reserved":false,"is_disabled":false,"rental_uris":{"android":"levelo://app?vid=3e6c6bf4-74b9-4539-a7cd-ac1c43c97b3c","ios":"levelo://app?vid=3e6c6bf4-74b9-4539-a7cd-ac1c43c97b3c"},"vehicle_type_id":"4","last_reported":1751569652,"current_range_meters":17600,"station_id":"ce4bh2p2rcd13ifvqdi0","pricing_plan_id":"cebpf4jnsgd1na2vs0mg"},{"bike_id":"7a0bf08f-cf06-41ff-8c60-4062a4af9732","system_id":"levelo_inurba_marseille","lat":43.28608,"lon":5.35108,"is_reserved":false,"is_disabled":false,"rental_uris":{"android":"levelo://app?vid=7a0bf08f-cf06-41ff-8c60-4062a4af9732","ios":"levelo://app?vid=7a0bf08f-cf06-41ff-8c60-4062a4af9732"},"vehicle_type_id":"4","last_reported":1751569652,"current_range_meters":17600,"station_id":"ce4bhch2rcd13ifvqeug","pricing_plan_id":"cebpf4jnsgd1na2vs0mg"},{"bike_id":"e391fd11-574f-4d19-b3ca-1a8c66b968f9","system_id":"levelo_inurba_marseille","lat":43.23963,"lon":5.36631,"is_reserved":false,"is_disabled":false,"rental_uris":{"android":"levelo://app?vid=e391fd11-574f-4d19-b3ca-1a8c66b968f9","ios":"levelo://app?vid=e391fd11-574f-4d19-b3ca-1a8c66b968f9"},"vehicle_type_id":"4","last_reported":1751569652,"current_range_meters":17600,"station_id":"ce4bhi12rcd13ifvqfp0","pricing_plan_id":"cebpf4jnsgd1na2vs0mg"},{"bike_id":"d7d5b776-bcc7-423d-8a89-6abd09a6c07c","system_id":"levelo_inurba_marseille","lat":43.2417,"lon":5.36388,"is_reserved":false,"is_disabled":false,"rental_uris":{"android":"levelo://app?vid=d7d5b776-bcc7-423d-8a89-6abd09a6c07c","ios":"levelo://app?vid=d7d5b776-bcc7-423d-8a89-6abd09a6c07c"},"vehicle_type_id":"4","last_reported":1751569652,"current_range_meters":17600,"station_id":"cpo36qri1sfpv3e86is0","pricing_plan_id":"cebpf4jnsgd1na2vs0mg"},{"bike_id":"32c0fc37-6823-41d0-9497-8d1eea24742c","system_id":"levelo_inurba_marseille","lat":43.24176,"lon":5.36383,"is_reserved":false,"is_disabled":false,"rental_uris":{"android":"levelo://app?vid=32c0fc37-6823-41d0-9497-8d1eea24742c","ios":"levelo://app?vid=32c0fc37-6823-41d0-9497-8d1eea24742c"},"vehicle_type_id":"4","last_reported":1751569652,"current_range_meters":17600,"station_id":"cpo36qri1sfpv3e86is0","pricing_plan_id":"cebpf4jnsgd1na2vs0mg"},{"bike_id":"5f1e5526-9ff8-4075-8194-48a897f058b4","system_id":"levelo_inurba_marseille","lat":43.21193,"lon":5.35066,"is_reserved":false,"is_disabled":false,"rental_uris":{"android":"levelo://app?vid=5f1e5526-9ff8-4075-8194-48a897f058b4","ios":"levelo://app?vid=5f1e5526-9ff8-4075-8194-48a897f058b4"},"vehicle_type_id":"4","last_reported":1751569652,"current_range_meters":17600,"station_id":"st_cvj6sg6p6f1abm77japg","pricing_plan_id":"cebpf4jnsgd1na2vs0mg"},{"bike_id":"65368a1c-78d8-4502-8660-3a4a115d03e1","system_id":"levelo_inurba_marseille","lat":43.2763,"lon":5.36099,"is_reserved":false,"is_disabled":false,"rental_uris":{"android":"levelo://app?vid=65368a1c-78d8-4502-8660-3a4a115d03e1","ios":"levelo://app?vid=65368a1c-78d8-4502-8660-3a4a115d03e1"},"vehicle_type_id":"4","last_reported":1751569652,"current_range_meters":18000,"station_id":"ce4bgj92rcd13ifvqbe0","pricing_plan_id":"cebpf4jnsgd1na2vs0mg"},{"bike_id":"a0962a9b-5031-4998-ac45-a7fe8b578c72","system_id":"levelo_inurba_marseille","lat":43.28411,"lon":5.34981,"is_reserved":false,"is_disabled":false,"rental_uris":{"android":"levelo://app?vid=a0962a9b-5031-4998-ac45-a7fe8b578c72","ios":"levelo://app?vid=a0962a9b-5031-4998-ac45-a7fe8b578c72"},"vehicle_type_id":"4","last_reported":1751569652,"current_range_meters":18000,"station_id":"ce4bhbh2rcd13ifvqepg","pricing_plan_id":"cebpf4jnsgd1na2vs0mg"},{"bike_id":"14ecf157-0e2a-4d14-860f-77ba787d04dc","system_id":"levelo_inurba_marseille","lat":43.28611,"lon":5.35109,"is_reserved":false,"is_disabled":false,"rental_uris":{"android":"levelo://app?vid=14ecf157-0e2a-4d14-860f-77ba787d04dc","ios":"levelo://app?vid=14ecf157-0e2a-4d14-860f-77ba787d04dc"},"vehicle_type_id":"4","last_reported":1751569652,"current_range_meters":18000,"station_id":"ce4bhch2rcd13ifvqeug","pricing_plan_id":"cebpf4jnsgd1na2vs0mg"},{"bike_id":"ba926bfc-9632-4680-b0ed-32a040d6fb83","system_id":"levelo_inurba_marseille","lat":43.21771,"lon":5.3458,"is_reserved":false,"is_disabled":false,"rental_uris":{"android":"levelo://app?vid=ba926bfc-9632-4680-b0ed-32a040d6fb83","ios":"levelo://app?vid=ba926bfc-9632-4680-b0ed-32a040d6fb83"},"vehicle_type_id":"4","last_reported":1751569652,"current_range_meters":18000,"station_id":"st_cvj6r9ubvosntc0bgbag","pricing_plan_id":"cebpf4jnsgd1na2vs0mg"},{"bike_id":"b13877a6-4825-4d82-b46b-67fa8ad66c5d","system_id":"levelo_inurba_marseille","lat":43.21189,"lon":5.35059,"is_reserved":false,"is_disabled":false,"rental_uris":{"android":"levelo://app?vid=b13877a6-4825-4d82-b46b-67fa8ad66c5d","ios":"levelo://app?vid=b13877a6-4825-4d82-b46b-67fa8ad66c5d"},"vehicle_type_id":"4","last_reported":1751569652,"current_range_meters":18000,"station_id":"st_cvj6sg6p6f1abm77japg","pricing_plan_id":"cebpf4jnsgd1na2vs0mg"},{"bike_id":"7712491c-e18b-4b09-bb79-30880b357c07","system_id":"levelo_inurba_marseille","lat":43.21193,"lon":5.35075,"is_reserved":false,"is_disabled":false,"rental_uris":{"android":"levelo://app?vid=7712491c-e18b-4b09-bb79-30880b357c07","ios":"levelo://app?vid=7712491c-e18b-4b09-bb79-30880b357c07"},"vehicle_type_id":"4","last_reported":1751569652,"current_range_meters":18000,"station_id":"st_cvj6sg6p6f1abm77japg","pricing_plan_id":"cebpf4jnsgd1na2vs0mg"},{"bike_id":"5dc0e370-e5f0-457a-97b1-fa5027dd1f16","system_id":"levelo_inurba_marseille","lat":43.31733,"lon":5.43647,"is_reserved":false,"is_disabled":false,"rental_uris":{"android":"levelo://app?vid=5dc0e370-e5f0-457a-97b1-fa5027dd1f16","ios":"levelo://app?vid=5dc0e370-e5f0-457a-97b1-fa5027dd1f16"},"vehicle_type_id":"4","last_reported":1751569652,"current_range_meters":18800,"station_id":"","pricing_plan_id":"cebpf4jnsgd1na2vs0mg"},{"bike_id":"82e8bbb2-dcad-4b63-8caa-3d9b669b8184","system_id":"levelo_inurba_marseille","lat":43.28619,"lon":5.351043,"is_reserved":false,"is_disabled":false,"rental_uris":{"android":"levelo://app?vid=82e8bbb2-dcad-4b63-8caa-3d9b669b8184","ios":"levelo://app?vid=82e8bbb2-dcad-4b63-8caa-3d9b669b8184"},"vehicle_type_id":"4","last_reported":1751569652,"current_range_meters":18800,"station_id":"ce4bhch2rcd13ifvqeug","pricing_plan_id":"cebpf4jnsgd1na2vs0mg"},{"bike_id":"07f7fbed-5fcc-4102-97b7-f1bf37fc1cfe","system_id":"levelo_inurba_marseille","lat":43.320577,"lon":5.41547,"is_reserved":false,"is_disabled":false,"rental_uris":{"android":"levelo://app?vid=07f7fbed-5fcc-4102-97b7-f1bf37fc1cfe","ios":"levelo://app?vid=07f7fbed-5fcc-4102-97b7-f1bf37fc1cfe"},"vehicle_type_id":"4","last_reported":1751569652,"current_range_meters":18800,"station_id":"ce4bhq92rcd13ifvqhkg","pricing_plan_id":"cebpf4jnsgd1na2vs0mg"},{"bike_id":"cee0b5b6-9b90-457a-85f4-540287a23b84","system_id":"levelo_inurba_marseille","lat":43.211914,"lon":5.350688,"is_reserved":false,"is_disabled":false,"rental_uris":{"android":"levelo://app?vid=cee0b5b6-9b90-457a-85f4-540287a23b84","ios":"levelo://app?vid=cee0b5b6-9b90-457a-85f4-540287a23b84"},"vehicle_type_id":"4","last_reported":1751569652,"current_range_meters":18800,"station_id":"st_cvj6sg6p6f1abm77japg","pricing_plan_id":"cebpf4jnsgd1na2vs0mg"},{"bike_id":"ec8ef8bf-fa80-4ebb-88c3-4bdfd5683817","system_id":"levelo_inurba_marseille","lat":43.27667,"lon":5.38866,"is_reserved":false,"is_disabled":false,"rental_uris":{"android":"levelo://app?vid=ec8ef8bf-fa80-4ebb-88c3-4bdfd5683817","ios":"levelo://app?vid=ec8ef8bf-fa80-4ebb-88c3-4bdfd5683817"},"vehicle_type_id":"4","last_reported":1751569652,"current_range_meters":19200,"station_id":"","pricing_plan_id":"cebpf4jnsgd1na2vs0mg"},{"bike_id":"233b323f-633a-4135-b674-9fdbf331794c","system_id":"levelo_inurba_marseille","lat":43.27368,"lon":5.36254,"is_reserved":false,"is_disabled":false,"rental_uris":{"android":"levelo://app?vid=233b323f-633a-4135-b674-9fdbf331794c","ios":"levelo://app?vid=233b323f-633a-4135-b674-9fdbf331794c"},"vehicle_type_id":"4","last_reported":1751569652,"current_range_meters":19200,"station_id":"ce4bhbh2rcd13ifvqeo0","pricing_plan_id":"cebpf4jnsgd1na2vs0mg"},{"bike_id":"d6b96429-1049-4a0e-89dd-175c24a280d4","system_id":"levelo_inurba_marseille","lat":43.28618,"lon":5.35103,"is_reserved":false,"is_disabled":false,"rental_uris":{"android":"levelo://app?vid=d6b96429-1049-4a0e-89dd-175c24a280d4","ios":"levelo://app?vid=d6b96429-1049-4a0e-89dd-175c24a280d4"},"vehicle_type_id":"4","last_reported":1751569652,"current_range_meters":19200,"station_id":"ce4bhch2rcd13ifvqeug","pricing_plan_id":"cebpf4jnsgd1na2vs0mg"},{"bike_id":"714a9d74-b619-4630-8755-23cfa63ab328","system_id":"levelo_inurba_marseille","lat":43.28616,"lon":5.3511,"is_reserved":false,"is_disabled":false,"rental_uris":{"android":"levelo://app?vid=714a9d74-b619-4630-8755-23cfa63ab328","ios":"levelo://app?vid=714a9d74-b619-4630-8755-23cfa63ab328"},"vehicle_type_id":"4","last_reported":1751569652,"current_range_meters":19200,"station_id":"ce4bhch2rcd13ifvqeug","pricing_plan_id":"cebpf4jnsgd1na2vs0mg"},{"bike_id":"c398f460-3283-4f43-a0bb-3bbf5f86c97f","system_id":"levelo_inurba_marseille","lat":43.27903,"lon":5.38008,"is_reserved":false,"is_disabled":false,"rental_uris":{"android":"levelo://app?vid=c398f460-3283-4f43-a0bb-3bbf5f86c97f","ios":"levelo://app?vid=c398f460-3283-4f43-a0bb-3bbf5f86c97f"},"vehicle_type_id":"4","last_reported":1751569652,"current_range_meters":19200,"station_id":"ce4bhf92rcd13ifvqf50","pricing_plan_id":"cebpf4jnsgd1na2vs0mg"},{"bike_id":"dad33994-290b-427c-ba5c-e2b6c98b1b51","system_id":"levelo_inurba_marseille","lat":43.24165,"lon":5.36389,"is_reserved":false,"is_disabled":false,"rental_uris":{"android":"levelo://app?vid=dad33994-290b-427c-ba5c-e2b6c98b1b51","ios":"levelo://app?vid=dad33994-290b-427c-ba5c-e2b6c98b1b51"},"vehicle_type_id":"4","last_reported":1751569652,"current_range_meters":19200,"station_id":"cpo36qri1sfpv3e86is0","pricing_plan_id":"cebpf4jnsgd1na2vs0mg"},{"bike_id":"8734bc42-361e-4c72-9212-27e99f10c61f","system_id":"levelo_inurba_marseille","lat":43.27373,"lon":5.42758,"is_reserved":false,"is_disabled":false,"rental_uris":{"android":"levelo://app?vid=8734bc42-361e-4c72-9212-27e99f10c61f","ios":"levelo://app?vid=8734bc42-361e-4c72-9212-27e99f10c61f"},"vehicle_type_id":"4","last_reported":1751569652,"current_range_meters":19600,"station_id":"","pricing_plan_id":"cebpf4jnsgd1na2vs0mg"},{"bike_id":"4b8da722-ee9e-48a4-a5e5-3a8a10364708","system_id":"levelo_inurba_marseille","lat":43.31228,"lon":5.37809,"is_reserved":false,"is_disabled":false,"rental_uris":{"android":"levelo://app?vid=4b8da722-ee9e-48a4-a5e5-3a8a10364708","ios":"levelo://app?vid=4b8da722-ee9e-48a4-a5e5-3a8a10364708"},"vehicle_type_id":"4","last_reported":1751569652,"current_range_meters":19600,"station_id":"","pricing_plan_id":"cebpf4jnsgd1na2vs0mg"},{"bike_id":"c1c90b44-4e3b-483b-81b4-cb0ae090e98f","system_id":"levelo_inurba_marseille","lat":43.248021,"lon":5.374561,"is_reserved":false,"is_disabled":false,"rental_uris":{"android":"levelo://app?vid=c1c90b44-4e3b-483b-81b4-cb0ae090e98f","ios":"levelo://app?vid=c1c90b44-4e3b-483b-81b4-cb0ae090e98f"},"vehicle_type_id":"4","last_reported":1751569652,"current_range_meters":19600,"station_id":"ce4bhgh2rcd13ifvqfb0","pricing_plan_id":"cebpf4jnsgd1na2vs0mg"},{"bike_id":"51fa2768-c5ae-402f-85b5-e8d4be893052","system_id":"levelo_inurba_marseille","lat":43.25514,"lon":5.37629,"is_reserved":false,"is_disabled":false,"rental_uris":{"android":"levelo://app?vid=51fa2768-c5ae-402f-85b5-e8d4be893052","ios":"levelo://app?vid=51fa2768-c5ae-402f-85b5-e8d4be893052"},"vehicle_type_id":"4","last_reported":1751569652,"current_range_meters":19600,"station_id":"ce4bhh12rcd13ifvqff0","pricing_plan_id":"cebpf4jnsgd1na2vs0mg"},{"bike_id":"456d4f78-64a9-4f3d-a262-94237ff2e3a1","system_id":"levelo_inurba_marseille","lat":43.25864,"lon":5.39894,"is_reserved":false,"is_disabled":false,"rental_uris":{"android":"levelo://app?vid=456d4f78-64a9-4f3d-a262-94237ff2e3a1","ios":"levelo://app?vid=456d4f78-64a9-4f3d-a262-94237ff2e3a1"},"vehicle_type_id":"4","last_reported":1751569652,"current_range_meters":19600,"station_id":"ce4bhl92rcd13ifvqghg","pricing_plan_id":"cebpf4jnsgd1na2vs0mg"},{"bike_id":"db1fce1d-f917-44d2-b5d7-7b74d6c802b7","system_id":"levelo_inurba_marseille","lat":43.24081,"lon":5.37763,"is_reserved":false,"is_disabled":false,"rental_uris":{"android":"levelo://app?vid=db1fce1d-f917-44d2-b5d7-7b74d6c802b7","ios":"levelo://app?vid=db1fce1d-f917-44d2-b5d7-7b74d6c802b7"},"vehicle_type_id":"4","last_reported":1751569652,"current_range_meters":19600,"station_id":"ce4bhnp2rcd13ifvqgvg","pricing_plan_id":"cebpf4jnsgd1na2vs0mg"},{"bike_id":"4a0d5f74-6ea9-4d88-9123-3c26ecbb9703","system_id":"levelo_inurba_marseille","lat":43.23199,"lon":5.35541,"is_reserved":false,"is_disabled":false,"rental_uris":{"android":"levelo://app?vid=4a0d5f74-6ea9-4d88-9123-3c26ecbb9703","ios":"levelo://app?vid=4a0d5f74-6ea9-4d88-9123-3c26ecbb9703"},"vehicle_type_id":"4","last_reported":1751569652,"current_range_meters":19600,"station_id":"ce4bhu92rcd13ifvqi70","pricing_plan_id":"cebpf4jnsgd1na2vs0mg"},{"bike_id":"a60dfed7-a81f-496e-b726-f516c85d3312","system_id":"levelo_inurba_marseille","lat":43.30806,"lon":5.36767,"is_reserved":false,"is_disabled":false,"rental_uris":{"android":"levelo://app?vid=a60dfed7-a81f-496e-b726-f516c85d3312","ios":"levelo://app?vid=a60dfed7-a81f-496e-b726-f516c85d3312"},"vehicle_type_id":"4","last_reported":1751569652,"current_range_meters":20000,"station_id":"","pricing_plan_id":"cebpf4jnsgd1na2vs0mg"},{"bike_id":"9bfb165a-abb2-48f2-bd73-068527f815e3","system_id":"levelo_inurba_marseille","lat":43.27376,"lon":5.36259,"is_reserved":false,"is_disabled":false,"rental_uris":{"android":"levelo://app?vid=9bfb165a-abb2-48f2-bd73-068527f815e3","ios":"levelo://app?vid=9bfb165a-abb2-48f2-bd73-068527f815e3"},"vehicle_type_id":"4","last_reported":1751569652,"current_range_meters":20000,"station_id":"ce4bhbh2rcd13ifvqeo0","pricing_plan_id":"cebpf4jnsgd1na2vs0mg"},{"bike_id":"7ac510a6-907d-4497-8ef4-8084e820f9fa","system_id":"levelo_inurba_marseille","lat":43.286205,"lon":5.351009,"is_reserved":false,"is_disabled":false,"rental_uris":{"android":"levelo://app?vid=7ac510a6-907d-4497-8ef4-8084e820f9fa","ios":"levelo://app?vid=7ac510a6-907d-4497-8ef4-8084e820f9fa"},"vehicle_type_id":"4","last_reported":1751569652,"current_range_meters":20000,"station_id":"ce4bhch2rcd13ifvqeug","pricing_plan_id":"cebpf4jnsgd1na2vs0mg"},{"bike_id":"75cfa1b3-d7dd-4c04-b12d-eb8bb97484ad","system_id":"levelo_inurba_marseille","lat":43.26043,"lon":5.37542,"is_reserved":false,"is_disabled":false,"rental_uris":{"android":"levelo://app?vid=75cfa1b3-d7dd-4c04-b12d-eb8bb97484ad","ios":"levelo://app?vid=75cfa1b3-d7dd-4c04-b12d-eb8bb97484ad"},"vehicle_type_id":"4","last_reported":1751569652,"current_range_meters":20000,"station_id":"ce4bhgh2rcd13ifvqfa0","pricing_plan_id":"cebpf4jnsgd1na2vs0mg"},{"bike_id":"a42d5df3-6f4c-497d-9e93-38a11d3432c4","system_id":"levelo_inurba_marseille","lat":43.26503,"lon":5.39535,"is_reserved":false,"is_disabled":false,"rental_uris":{"android":"levelo://app?vid=a42d5df3-6f4c-497d-9e93-38a11d3432c4","ios":"levelo://app?vid=a42d5df3-6f4c-497d-9e93-38a11d3432c4"},"vehicle_type_id":"4","last_reported":1751569652,"current_range_meters":20000,"station_id":"ce4bhi12rcd13ifvqfq0","pricing_plan_id":"cebpf4jnsgd1na2vs0mg"},{"bike_id":"acaea3d4-89fe-49f6-a119-3f6302ae77b1","system_id":"levelo_inurba_marseille","lat":43.29559,"lon":5.42275,"is_reserved":false,"is_disabled":false,"rental_uris":{"android":"levelo://app?vid=acaea3d4-89fe-49f6-a119-3f6302ae77b1","ios":"levelo://app?vid=acaea3d4-89fe-49f6-a119-3f6302ae77b1"},"vehicle_type_id":"4","last_reported":1751569652,"current_range_meters":20000,"station_id":"ce4bhph2rcd13ifvqhdg","pricing_plan_id":"cebpf4jnsgd1na2vs0mg"},{"bike_id":"c13c93ac-6b62-443c-9e36-caf61b27325a","system_id":"levelo_inurba_marseille","lat":43.21176,"lon":5.35081,"is_reserved":false,"is_disabled":false,"rental_uris":{"android":"levelo://app?vid=c13c93ac-6b62-443c-9e36-caf61b27325a","ios":"levelo://app?vid=c13c93ac-6b62-443c-9e36-caf61b27325a"},"vehicle_type_id":"4","last_reported":1751569652,"current_range_meters":20000,"station_id":"st_cvj6sg6p6f1abm77japg","pricing_plan_id":"cebpf4jnsgd1na2vs0mg"},{"bike_id":"7be93d05-2405-4cfe-a0c4-c6f3670e10c7","system_id":"levelo_inurba_marseille","lat":43.21198,"lon":5.35048,"is_reserved":false,"is_disabled":false,"rental_uris":{"android":"levelo://app?vid=7be93d05-2405-4cfe-a0c4-c6f3670e10c7","ios":"levelo://app?vid=7be93d05-2405-4cfe-a0c4-c6f3670e10c7"},"vehicle_type_id":"4","last_reported":1751569652,"current_range_meters":20000,"station_id":"st_cvj6sg6p6f1abm77japg","pricing_plan_id":"cebpf4jnsgd1na2vs0mg"},{"bike_id":"2928bd56-4eee-4a37-8abc-4ac927a2ccdb","system_id":"levelo_inurba_marseille","lat":43.2906,"lon":5.37144,"is_reserved":false,"is_disabled":false,"rental_uris":{"android":"levelo://app?vid=2928bd56-4eee-4a37-8abc-4ac927a2ccdb","ios":"levelo://app?vid=2928bd56-4eee-4a37-8abc-4ac927a2ccdb"},