{"last_updated":1723835236,"ttl":30,"version":"2.2","data":{"bikes":[{"bike_id":"0bec9390-194d-4d6b-86e2-9b9427187de3","system_id":"levelo_inurba_marseille","lat":43.309076,"lon":5.368465,"is_reserved":false,"is_disabled":false,"rental_uris":{"android":"levelo://app?vid=0bec9390-194d-4d6b-86e2-9b9427187de3","ios":"levelo://app?vid=0bec9390-194d-4d6b-86e2-9b9427187de3"},"vehicle_type_id":"4","last_reported":1723835236,"current_range_meters":26800,"station_id":"ce4bgn92rcd13ifvqbvg","pricing_plan_id":"cebpf4jnsgd1na2vs0mg"},{"bike_id":"42eb66f3-a7ec-445e-8848-505e7f38f2db","system_id":"levelo_inurba_marseille","lat":43.309076,"lon":5.368465,"is_reserved":false,"is_disabled":false,"rental_uris":{"android":"levelo://app?vid=42eb66f3-a7ec-445e-8848-505e7f38f2db","ios":"levelo://app?vid=42eb66f3-a7ec-445e-8848-505e7f38f2db"},"vehicle_type_id":"4","last_reported":1723835236,"current_range_meters":17600,"station_id":"ce4bgn92rcd13ifvqbvg","pricing_plan_id":"cebpf4jnsgd1na2vs0mg"},{"bike_id":"9ce20853-0ce7-4082-84c5-ee43b352aad8","system_id":"levelo_inurba_marseille","lat":43.314811,"lon":5.373103,"is_reserved":false,"is_disabled":false,"rental_uris":{"android":"levelo://app?vid=9ce20853-0ce7-4082-84c5-ee43b352aad8","ios":"levelo://app?vid=9ce20853-0ce7-4082-84c5-ee43b352aad8"},"vehicle_type_id":"4","last_reported":1723835236,"current_range_meters":28400,"station_id":"ce4bgt12rcd13ifvqcd0","pricing_plan_id":"cebpf4jnsgd1na2vs0mg"},{"bike_id":"e1f1a0f6-951d-42c0-8928-c4911ee3275a","system_id":"levelo_inurba_marseille","lat":43.314811,"lon":5.373103,"is_reserved":false,"is_disabled":false,"rental_uris":{"android":"levelo://app?vid=e1f1a0f6-951d-42c0-8928-c4911ee3275a","ios":"levelo://app?vid=e1f1a0f6-951d-42c0-8928-c4911ee3275a"},"vehicle_type_id":"4","last_reported":1723835236,"current_range_meters":22000,"station_id":"ce4bgt12rcd13ifvqcd0","pricing_plan_id":"cebpf4jnsgd1na2vs0mg"},{"bike_id":"1f1f9f24-0ad7-42c4-934c-735d79a93372","system_id":"levelo_inurba_marseille","lat":43.31485,"lon":5.37311,"is_reserved":false,"is_disabled":false,"rental_uris":{"android":"levelo://app?vid=1f1f9f24-0ad7-42c4-934c-735d79a93372","ios":"levelo://app?vid=1f1f9f24-0ad7-42c4-934c-735d79a93372"},"vehicle_type_id":"4","last_reported":1723835236,"current_range_meters":19200,"station_id":"ce4bgt12rcd13ifvqcd0","pricing_plan_id":"cebpf4jnsgd1na2vs0mg"},{"bike_id":"1c7f57fe-a5fb-441a-9af5-7d0b7bc543d6","system_id":"levelo_inurba_marseille","lat":43.314811,"lon":5.373103,"is_reserved":false,"is_disabled":false,"rental_uris":{"android":"levelo://app?vid=1c7f57fe-a5fb-441a-9af5-7d0b7bc543d6","ios":"levelo://app?vid=1c7f57fe-a5fb-441a-9af5-7d0b7bc543d6"},"vehicle_type_id":"4","last_reported":1723835236,"current_range_meters":4000,"station_id":"ce4bgt12rcd13ifvqcd0","pricing_plan_id":"cebpf4jnsgd1na2vs0mg"},{"bike_id":"54c1372a-fb16-40c9-bf2f-6e56b7ad5b8e","system_id":"levelo_inurba_marseille","lat":43.31486,"lon":5.37312,"is_reserved":false,"is_disabled":false,"rental_uris":{"android":"levelo://app?vid=54c1372a-fb16-40c9-bf2f-6e56b7ad5b8e","ios":"levelo://app?vid=54c1372a-fb16-40c9-bf2f-6e56b7ad5b8e"},"vehicle_type_id":"4","last_reported":1723835236,"current_range_meters":0,"station_id":"ce4bgt12rcd13ifvqcd0","pricing_plan_id":"cebpf4jnsgd1na2vs0mg"},{"bike_id":"7999adc2-e217-47a1-905f-ab236cf06a67","system_id":"levelo_inurba_marseille","lat":43.31494,"lon":5.37313,"is_reserved":false,"is_disabled":false,"rental_uris":{"android":"levelo://app?vid=7999adc2-e217-47a1-905f-ab236cf06a67","ios":"levelo://app?vid=7999adc2-e217-47a1-905f-ab236cf06a67"},"vehicle_type_id":"4","last_reported":1723835236,"current_range_meters":0,"station_id":"ce4bgt12rcd13ifvqcd0","pricing_plan_id":"cebpf4jnsgd1na2vs0mg"},{"bike_id":"58ff9280-d50c-448d-bae6-9dd9a7c04337","system_id":"levelo_inurba_marseille","lat":43.309034,"lon":5.371783,"is_reserved":false,"is_disabled":false,"rental_uris":{"android":"levelo://app?vid=58ff9280-d50c-448d-bae6-9dd9a7c04337","ios":"levelo://app?vid=58ff9280-d50c-448d-bae6-9dd9a7c04337"},"vehicle_type_id":"4","last_reported":1723835236,"current_range_meters":28400,"station_id":"ce4bguh2rcd13ifvqckg","pricing_plan_id":"cebpf4jnsgd1na2vs0mg"},{"bike_id":"1080f4cf-8d0b-49a3-90a1-cd44acc0587f","system_id":"levelo_inurba_marseille","lat":43.309034,"lon":5.371783,"is_reserved":false,"is_disabled":false,"rental_uris":{"android":"levelo://app?vid=1080f4cf-8d0b-49a3-90a1-cd44acc0587f","ios":"levelo://app?vid=1080f4cf-8d0b-49a3-90a1-cd44acc0587f"},"vehicle_type_id":"4","last_reported":1723835236,"current_range_meters":0,"station_id":"ce4bguh2rcd13ifvqckg","pricing_plan_id":"cebpf4jnsgd1na2vs0mg"},{"bike_id":"d5be0194-0975-4dce-965c-8eea453a9406","system_id":"levelo_inurba_marseille","lat":43.309034,"lon":5.371783,"is_reserved":false,"is_disabled":false,"rental_uris":{"android":"levelo://app?vid=d5be0194-0975-4dce-965c-8eea453a9406","ios":"levelo://app?vid=d5be0194-0975-4dce-965c-8eea453a9406"},"vehicle_type_id":"4","last_reported":1723835236,"current_range_meters":29600,"station_id":"ce4bguh2rcd13ifvqckg","pricing_plan_id":"cebpf4jnsgd1na2vs0mg"},{"bike_id":"76d43900-5603-408a-b772-36ef433e57cf","system_id":"levelo_inurba_marseille","lat":43.30537,"lon":5.367345,"is_reserved":false,"is_disabled":false,"rental_uris":{"android":"levelo://app?vid=76d43900-5603-408a-b772-36ef433e57cf","ios":"levelo://app?vid=76d43900-5603-408a-b772-36ef433e57cf"},"vehicle_type_id":"4","last_reported":1723835236,"current_range_meters":9600,"station_id":"ce4bgrp2rcd13ifvqc9g","pricing_plan_id":"cebpf4jnsgd1na2vs0mg"},{"bike_id":"c2d9a4f0-37c9-4e27-bc91-847a36f5b33d","system_id":"levelo_inurba_marseille","lat":43.305714,"lon":5.365633,"is_reserved":false,"is_disabled":false,"rental_uris":{"android":"levelo://app?vid=c2d9a4f0-37c9-4e27-bc91-847a36f5b33d","ios":"levelo://app?vid=c2d9a4f0-37c9-4e27-bc91-847a36f5b33d"},"vehicle_type_id":"4","last_reported":1723835236,"current_range_meters":29200,"station_id":"ce4bgs12rcd13ifvqcag","pricing_plan_id":"cebpf4jnsgd1na2vs0mg"},{"bike_id":"928210c1-d381-4ede-8d57-5b33463ba3dd","system_id":"levelo_inurba_marseille","lat":43.305714,"lon":5.365633,"is_reserved":false,"is_disabled":false,"rental_uris":{"android":"levelo://app?vid=928210c1-d381-4ede-8d57-5b33463ba3dd","ios":"levelo://app?vid=928210c1-d381-4ede-8d57-5b33463ba3dd"},"vehicle_type_id":"4","last_reported":1723835236,"current_range_meters":8800,"station_id":"ce4bgs12rcd13ifvqcag","pricing_plan_id":"cebpf4jnsgd1na2vs0mg"},{"bike_id":"abfd15ee-216a-42d1-aedd-d8a69f4d84bb","system_id":"levelo_inurba_marseille","lat":43.305706,"lon":5.365654,"is_reserved":false,"is_disabled":false,"rental_uris":{"android":"levelo://app?vid=abfd15ee-216a-42d1-aedd-d8a69f4d84bb","ios":"levelo://app?vid=abfd15ee-216a-42d1-aedd-d8a69f4d84bb"},"vehicle_type_id":"4","last_reported":1723835236,"current_range_meters":4000,"station_id":"ce4bgs12rcd13ifvqcag","pricing_plan_id":"cebpf4jnsgd1na2vs0mg"},{"bike_id":"0f412fe3-359a-47c3-93c5-9bbcc1f9267f","system_id":"levelo_inurba_marseille","lat":43.305989,"lon":5.37225,"is_reserved":false,"is_disabled":false,"rental_uris":{"android":"levelo://app?vid=0f412fe3-359a-47c3-93c5-9bbcc1f9267f","ios":"levelo://app?vid=0f412fe3-359a-47c3-93c5-9bbcc1f9267f"},"vehicle_type_id":"4","last_reported":1723835236,"current_range_meters":14000,"station_id":"ce4bgqh2rcd13ifvqc4g","pricing_plan_id":"cebpf4jnsgd1na2vs0mg"},{"bike_id":"757638db-9fa7-4e5d-baf8-b481e6e0edab","system_id":"levelo_inurba_marseille","lat":43.305989,"lon":5.37225,"is_reserved":false,"is_disabled":false,"rental_uris":{"android":"levelo://app?vid=757638db-9fa7-4e5d-baf8-b481e6e0edab","ios":"levelo://app?vid=757638db-9fa7-4e5d-baf8-b481e6e0edab"},"vehicle_type_id":"4","last_reported":1723835236,"current_range_meters":17200,"station_id":"ce4bgqh2rcd13ifvqc4g","pricing_plan_id":"cebpf4jnsgd1na2vs0mg"},{"bike_id":"2a05d716-41da-4e87-a373-a6e6bb060ee3","system_id":"levelo_inurba_marseille","lat":43.311131,"lon":5.377651,"is_reserved":false,"is_disabled":false,"rental_uris":{"android":"levelo://app?vid=2a05d716-41da-4e87-a373-a6e6bb060ee3","ios":"levelo://app?vid=2a05d716-41da-4e87-a373-a6e6bb060ee3"},"vehicle_type_id":"4","last_reported":1723835236,"current_range_meters":0,"station_id":"ce4bgt92rcd13ifvqcg0","pricing_plan_id":"cebpf4jnsgd1na2vs0mg"},{"bike_id":"8caa330a-a11b-4f88-bff9-95841d3c8947","system_id":"levelo_inurba_marseille","lat":43.307945,"lon":5.376487,"is_reserved":false,"is_disabled":false,"rental_uris":{"android":"levelo://app?vid=8caa330a-a11b-4f88-bff9-95841d3c8947","ios":"levelo://app?vid=8caa330a-a11b-4f88-bff9-95841d3c8947"},"vehicle_type_id":"4","last_reported":1723835236,"current_range_meters":4000,"station_id":"ce4bgv92rcd13ifvqcq0","pricing_plan_id":"cebpf4jnsgd1na2vs0mg"},{"bike_id":"e868e9e9-9725-4cc4-902d-ca09cdc9574c","system_id":"levelo_inurba_marseille","lat":43.307945,"lon":5.376487,"is_reserved":false,"is_disabled":false,"rental_uris":{"android":"levelo://app?vid=e868e9e9-9725-4cc4-902d-ca09cdc9574c","ios":"levelo://app?vid=e868e9e9-9725-4cc4-902d-ca09cdc9574c"},"vehicle_type_id":"4","last_reported":1723835236,"current_range_meters":31600,"station_id":"ce4bgv92rcd13ifvqcq0","pricing_plan_id":"cebpf4jnsgd1na2vs0mg"},{"bike_id":"6f3b0fff-03c6-4bf2-bf94-008f2d7ba3a4","system_id":"levelo_inurba_marseille","lat":43.3137,"lon":5.3792,"is_reserved":false,"is_disabled":false,"rental_uris":{"android":"levelo://app?vid=6f3b0fff-03c6-4bf2-bf94-008f2d7ba3a4","ios":"levelo://app?vid=6f3b0fff-03c6-4bf2-bf94-008f2d7ba3a4"},"vehicle_type_id":"4","last_reported":1723835236,"current_range_meters":5600,"station_id":"","pricing_plan_id":"cebpf4jnsgd1na2vs0mg"},{"bike_id":"8f9be6a0-3bd8-4121-a29f-be5747bec62b","system_id":"levelo_inurba_marseille","lat":43.30304,"lon":5.368987,"is_reserved":false,"is_disabled":false,"rental_uris":{"android":"levelo://app?vid=8f9be6a0-3bd8-4121-a29f-be5747bec62b","ios":"levelo://app?vid=8f9be6a0-3bd8-4121-a29f-be5747bec62b"},"vehicle_type_id":"4","last_reported":1723835236,"current_range_meters":17600,"station_id":"ce4bgqh2rcd13ifvqc5g","pricing_plan_id":"cebpf4jnsgd1na2vs0mg"},{"bike_id":"6525aa52-816a-4c8e-ad78-f32505ccdfba","system_id":"levelo_inurba_marseille","lat":43.31028,"lon":5.3806,"is_reserved":false,"is_disabled":false,"rental_uris":{"android":"levelo://app?vid=6525aa52-816a-4c8e-ad78-f32505ccdfba","ios":"levelo://app?vid=6525aa52-816a-4c8e-ad78-f32505ccdfba"},"vehicle_type_id":"4","last_reported":1723835236,"current_range_meters":7200,"station_id":"","pricing_plan_id":"cebpf4jnsgd1na2vs0mg"},{"bike_id":"90814cd5-2627-47c1-a420-5e3b8b639331","system_id":"levelo_inurba_marseille","lat":43.301939,"lon":5.366286,"is_reserved":false,"is_disabled":false,"rental_uris":{"android":"levelo://app?vid=90814cd5-2627-47c1-a420-5e3b8b639331","ios":"levelo://app?vid=90814cd5-2627-47c1-a420-5e3b8b639331"},"vehicle_type_id":"4","last_reported":1723835236,"current_range_meters":7200,"station_id":"ce4bgrh2rcd13ifvqc8g","pricing_plan_id":"cebpf4jnsgd1na2vs0mg"},{"bike_id":"b6dc6e0b-2ee1-477a-a43f-9844e7059340","system_id":"levelo_inurba_marseille","lat":43.308012,"lon":5.381511,"is_reserved":false,"is_disabled":false,"rental_uris":{"android":"levelo://app?vid=b6dc6e0b-2ee1-477a-a43f-9844e7059340","ios":"levelo://app?vid=b6dc6e0b-2ee1-477a-a43f-9844e7059340"},"vehicle_type_id":"4","last_reported":1723835236,"current_range_meters":5600,"station_id":"ce4bgt12rcd13ifvqce0","pricing_plan_id":"cebpf4jnsgd1na2vs0mg"},{"bike_id":"bc9a7f62-7a39-4aa4-90a3-8074cf6bcb2e","system_id":"levelo_inurba_marseille","lat":43.304606,"lon":5.379026,"is_reserved":false,"is_disabled":false,"rental_uris":{"android":"levelo://app?vid=bc9a7f62-7a39-4aa4-90a3-8074cf6bcb2e","ios":"levelo://app?vid=bc9a7f62-7a39-4aa4-90a3-8074cf6bcb2e"},"vehicle_type_id":"4","last_reported":1723835236,"current_range_meters":7200,"station_id":"ce4bgup2rcd13ifvqcn0","pricing_plan_id":"cebpf4jnsgd1na2vs0mg"},{"bike_id":"e93f0fb7-1c7c-4d4d-87b9-7e0f8b2084e6","system_id":"levelo_inurba_marseille","lat":43.304606,"lon":5.379026,"is_reserved":false,"is_disabled":false,"rental_uris":{"android":"levelo://app?vid=e93f0fb7-1c7c-4d4d-87b9-7e0f8b2084e6","ios":"levelo://app?vid=e93f0fb7-1c7c-4d4d-87b9-7e0f8b2084e6"},"vehicle_type_id":"4","last_reported":1723835236,"current_range_meters":19600,"station_id":"ce4bgup2rcd13ifvqcn0","pricing_plan_id":"cebpf4jnsgd1na2vs0mg"},{"bike_id":"36060edc-f2e2-404e-a11a-5a54f4141c9c","system_id":"levelo_inurba_marseille","lat":43.324771,"lon":5.36557,"is_reserved":false,"is_disabled":false,"rental_uris":{"android":"levelo://app?vid=36060edc-f2e2-404e-a11a-5a54f4141c9c","ios":"levelo://app?vid=36060edc-f2e2-404e-a11a-5a54f4141c9c"},"vehicle_type_id":"4","last_reported":1723835236,"current_range_meters":6400,"station_id":"ce4bhs12rcd13ifvqhvg","pricing_plan_id":"cebpf4jnsgd1na2vs0mg"},{"bike_id":"1c81e1d4-cd3f-4ab6-8400-274b8c3c299a","system_id":"levelo_inurba_marseille","lat":43.324771,"lon":5.36557,"is_reserved":false,"is_disabled":false,"rental_uris":{"android":"levelo://app?vid=1c81e1d4-cd3f-4ab6-8400-274b8c3c299a","ios":"levelo://app?vid=1c81e1d4-cd3f-4ab6-8400-274b8c3c299a"},"vehicle_type_id":"4","last_reported":1723835236,"current_range_meters":31200,"station_id":"ce4bhs12rcd13ifvqhvg","pricing_plan_id":"cebpf4jnsgd1na2vs0mg"},{"bike_id":"94077f2b-f47f-48d7-8e74-d50d3804e489","system_id":"levelo_inurba_marseille","lat":43.324771,"lon":5.36557,"is_reserved":false,"is_disabled":false,"rental_uris":{"android":"levelo://app?vid=94077f2b-f47f-48d7-8e74-d50d3804e489","ios":"levelo://app?vid=94077f2b-f47f-48d7-8e74-d50d3804e489"},"vehicle_type_id":"4","last_reported":1723835236,"current_range_meters":14800,"station_id":"ce4bhs12rcd13ifvqhvg","pricing_plan_id":"cebpf4jnsgd1na2vs0mg"},{"bike_id":"f9ad0309-7f53-4d9b-9ddf-f24ce78ffb0d","system_id":"levelo_inurba_marseille","lat":43.324771,"lon":5.36557,"is_reserved":false,"is_disabled":false,"rental_uris":{"android":"levelo://app?vid=f9ad0309-7f53-4d9b-9ddf-f24ce78ffb0d","ios":"levelo://app?vid=f9ad0309-7f53-4d9b-9ddf-f24ce78ffb0d"},"vehicle_type_id":"4","last_reported":1723835236,"current_range_meters":3200,"station_id":"ce4bhs12rcd13ifvqhvg","pricing_plan_id":"cebpf4jnsgd1na2vs0mg"},{"bike_id":"70e48759-80a3-4fc5-8a83-4198db01e0f5","system_id":"levelo_inurba_marseille","lat":43.310804,"lon":5.38359,"is_reserved":false,"is_disabled":false,"rental_uris":{"android":"levelo://app?vid=70e48759-80a3-4fc5-8a83-4198db01e0f5","ios":"levelo://app?vid=70e48759-80a3-4fc5-8a83-4198db01e0f5"},"vehicle_type_id":"4","last_reported":1723835236,"current_range_meters":4400,"station_id":"ce4bgv92rcd13ifvqcr0","pricing_plan_id":"cebpf4jnsgd1na2vs0mg"},{"bike_id":"d54575d5-28ef-415f-b770-7a74f06a47ac","system_id":"levelo_inurba_marseille","lat":43.302784,"lon":5.377158,"is_reserved":false,"is_disabled":false,"rental_uris":{"android":"levelo://app?vid=d54575d5-28ef-415f-b770-7a74f06a47ac","ios":"levelo://app?vid=d54575d5-28ef-415f-b770-7a74f06a47ac"},"vehicle_type_id":"4","last_reported":1723835236,"current_range_meters":14400,"station_id":"ce4bguh2rcd13ifvqcj0","pricing_plan_id":"cebpf4jnsgd1na2vs0mg"},{"bike_id":"456a0459-e7c0-4689-82c9-b5c35dea6184","system_id":"levelo_inurba_marseille","lat":43.30145,"lon":5.3742,"is_reserved":false,"is_disabled":false,"rental_uris":{"android":"levelo://app?vid=456a0459-e7c0-4689-82c9-b5c35dea6184","ios":"levelo://app?vid=456a0459-e7c0-4689-82c9-b5c35dea6184"},"vehicle_type_id":"4","last_reported":1723835236,"current_range_meters":0,"station_id":"ce4bgs92rcd13ifvqcc0","pricing_plan_id":"cebpf4jnsgd1na2vs0mg"},{"bike_id":"ec9fe6dd-25ca-431a-8e8d-e392153e939b","system_id":"levelo_inurba_marseille","lat":43.302784,"lon":5.377158,"is_reserved":false,"is_disabled":false,"rental_uris":{"android":"levelo://app?vid=ec9fe6dd-25ca-431a-8e8d-e392153e939b","ios":"levelo://app?vid=ec9fe6dd-25ca-431a-8e8d-e392153e939b"},"vehicle_type_id":"4","last_reported":1723835236,"current_range_meters":2800,"station_id":"ce4bguh2rcd13ifvqcj0","pricing_plan_id":"cebpf4jnsgd1na2vs0mg"},{"bike_id":"22a66c08-3a8a-458e-ab77-7fef1f12a42d","system_id":"levelo_inurba_marseille","lat":43.30143,"lon":5.37413,"is_reserved":false,"is_disabled":false,"rental_uris":{"android":"levelo://app?vid=22a66c08-3a8a-458e-ab77-7fef1f12a42d","ios":"levelo://app?vid=22a66c08-3a8a-458e-ab77-7fef1f12a42d"},"vehicle_type_id":"4","last_reported":1723835236,"current_range_meters":28800,"station_id":"ce4bgs92rcd13ifvqcc0","pricing_plan_id":"cebpf4jnsgd1na2vs0mg"},{"bike_id":"3ed19df9-ee92-4e9a-aea0-70af6f4f9420","system_id":"levelo_inurba_marseille","lat":43.302784,"lon":5.377158,"is_reserved":false,"is_disabled":false,"rental_uris":{"android":"levelo://app?vid=3ed19df9-ee92-4e9a-aea0-70af6f4f9420","ios":"levelo://app?vid=3ed19df9-ee92-4e9a-aea0-70af6f4f9420"},"vehicle_type_id":"4","last_reported":1723835236,"current_range_meters":27600,"station_id":"ce4bguh2rcd13ifvqcj0","pricing_plan_id":"cebpf4jnsgd1na2vs0mg"},{"bike_id":"3002f280-7517-4418-82ef-061406a0cac0","system_id":"levelo_inurba_marseille","lat":43.325242,"lon":5.369292,"is_reserved":false,"is_disabled":false,"rental_uris":{"android":"levelo://app?vid=3002f280-7517-4418-82ef-061406a0cac0","ios":"levelo://app?vid=3002f280-7517-4418-82ef-061406a0cac0"},"vehicle_type_id":"4","last_reported":1723835236,"current_range_meters":6000,"station_id":"","pricing_plan_id":"cebpf4jnsgd1na2vs0mg"},{"bike_id":"31d9c63a-7a7a-4091-9284-7d01058b5804","system_id":"levelo_inurba_marseille","lat":43.319935,"lon":5.381699,"is_reserved":false,"is_disabled":false,"rental_uris":{"android":"levelo://app?vid=31d9c63a-7a7a-4091-9284-7d01058b5804","ios":"levelo://app?vid=31d9c63a-7a7a-4091-9284-7d01058b5804"},"vehicle_type_id":"4","last_reported":1723835236,"current_range_meters":12800,"station_id":"ce4bhr12rcd13ifvqhpg","pricing_plan_id":"cebpf4jnsgd1na2vs0mg"},{"bike_id":"ce02ec92-1446-4adf-a543-f97cf98b6137","system_id":"levelo_inurba_marseille","lat":43.30594,"lon":5.38181,"is_reserved":false,"is_disabled":false,"rental_uris":{"android":"levelo://app?vid=ce02ec92-1446-4adf-a543-f97cf98b6137","ios":"levelo://app?vid=ce02ec92-1446-4adf-a543-f97cf98b6137"},"vehicle_type_id":"4","last_reported":1723835236,"current_range_meters":26000,"station_id":"","pricing_plan_id":"cebpf4jnsgd1na2vs0mg"},{"bike_id":"7700f169-b114-4c54-b321-85bc078df956","system_id":"levelo_inurba_marseille","lat":43.298764,"lon":5.388973,"is_reserved":false,"is_disabled":false,"rental_uris":{"android":"levelo://app?vid=7700f169-b114-4c54-b321-85bc078df956","ios":"levelo://app?vid=7700f169-b114-4c54-b321-85bc078df956"},"vehicle_type_id":"4","last_reported":1723835236,"current_range_meters":26800,"station_id":"ce4bh392rcd13ifvqdl0","pricing_plan_id":"cebpf4jnsgd1na2vs0mg"},{"bike_id":"157511e4-4ba0-497a-aeb9-4308d190a3ff","system_id":"levelo_inurba_marseille","lat":43.319935,"lon":5.381699,"is_reserved":false,"is_disabled":false,"rental_uris":{"android":"levelo://app?vid=157511e4-4ba0-497a-aeb9-4308d190a3ff","ios":"levelo://app?vid=157511e4-4ba0-497a-aeb9-4308d190a3ff"},"vehicle_type_id":"4","last_reported":1723835236,"current_range_meters":22800,"station_id":"ce4bhr12rcd13ifvqhpg","pricing_plan_id":"cebpf4jnsgd1na2vs0mg"},{"bike_id":"6a741a84-bc9f-4576-bbee-619766dba520","system_id":"levelo_inurba_marseille","lat":43.313571,"lon":5.384829,"is_reserved":false,"is_disabled":false,"rental_uris":{"android":"levelo://app?vid=6a741a84-bc9f-4576-bbee-619766dba520","ios":"levelo://app?vid=6a741a84-bc9f-4576-bbee-619766dba520"},"vehicle_type_id":"4","last_reported":1723835236,"current_range_meters":18800,"station_id":"ce4bgt92rcd13ifvqcf0","pricing_plan_id":"cebpf4jnsgd1na2vs0mg"},{"bike_id":"01aaec81-19d0-4ac2-9aaa-f3db70537489","system_id":"levelo_inurba_marseille","lat":43.313571,"lon":5.384829,"is_reserved":false,"is_disabled":false,"rental_uris":{"android":"levelo://app?vid=01aaec81-19d0-4ac2-9aaa-f3db70537489","ios":"levelo://app?vid=01aaec81-19d0-4ac2-9aaa-f3db70537489"},"vehicle_type_id":"4","last_reported":1723835236,"current_range_meters":0,"station_id":"ce4bgt92rcd13ifvqcf0","pricing_plan_id":"cebpf4jnsgd1na2vs0mg"},{"bike_id":"d8f28f9c-ad98-4a4e-a4cb-308773f00484","system_id":"levelo_inurba_marseille","lat":43.299724,"lon":5.371829,"is_reserved":false,"is_disabled":false,"rental_uris":{"android":"levelo://app?vid=d8f28f9c-ad98-4a4e-a4cb-308773f00484","ios":"levelo://app?vid=d8f28f9c-ad98-4a4e-a4cb-308773f00484"},"vehicle_type_id":"4","last_reported":1723835236,"current_range_meters":3200,"station_id":"ce4bgr92rcd13ifvqc7g","pricing_plan_id":"cebpf4jnsgd1na2vs0mg"},{"bike_id":"68accf28-c789-46f8-b499-3563b5a57dda","system_id":"levelo_inurba_marseille","lat":43.311722,"lon":5.387247,"is_reserved":false,"is_disabled":false,"rental_uris":{"android":"levelo://app?vid=68accf28-c789-46f8-b499-3563b5a57dda","ios":"levelo://app?vid=68accf28-c789-46f8-b499-3563b5a57dda"},"vehicle_type_id":"4","last_reported":1723835236,"current_range_meters":18800,"station_id":"ce4bgv12rcd13ifvqcp0","pricing_plan_id":"cebpf4jnsgd1na2vs0mg"},{"bike_id":"0d6af493-8cb8-4f67-8dc8-0e57738b440d","system_id":"levelo_inurba_marseille","lat":43.311722,"lon":5.387247,"is_reserved":false,"is_disabled":false,"rental_uris":{"android":"levelo://app?vid=0d6af493-8cb8-4f67-8dc8-0e57738b440d","ios":"levelo://app?vid=0d6af493-8cb8-4f67-8dc8-0e57738b440d"},"vehicle_type_id":"4","last_reported":1723835236,"current_range_meters":3600,"station_id":"ce4bgv12rcd13ifvqcp0","pricing_plan_id":"cebpf4jnsgd1na2vs0mg"},{"bike_id":"bb7eb28c-2c60-42f7-9ba7-22b317b164eb","system_id":"levelo_inurba_marseille","lat":43.311722,"lon":5.387247,"is_reserved":false,"is_disabled":false,"rental_uris":{"android":"levelo://app?vid=bb7eb28c-2c60-42f7-9ba7-22b317b164eb","ios":"levelo://app?vid=bb7eb28c-2c60-42f7-9ba7-22b317b164eb"},"vehicle_type_id":"4","last_reported":1723835236,"current_range_meters":2400,"station_id":"ce4bgv12rcd13ifvqcp0","pricing_plan_id":"cebpf4jnsgd1na2vs0mg"},{"bike_id":"f4bb82aa-3d7e-4385-85c7-5b03e7cceb50","system_id":"levelo_inurba_marseille","lat":43.312273,"lon":5.387643,"is_reserved":false,"is_disabled":false,"rental_uris":{"android":"levelo://app?vid=f4bb82aa-3d7e-4385-85c7-5b03e7cceb50","ios":"levelo://app?vid=f4bb82aa-3d7e-4385-85c7-5b03e7cceb50"},"vehicle_type_id":"4","last_reported":1723835236,"current_range_meters":10800,"station_id":"","pricing_plan_id":"cebpf4jnsgd1na2vs0mg"},{"bike_id":"868b6d71-8151-4838-8b06-55b6943654a2","system_id":"levelo_inurba_marseille","lat":43.301417,"lon":5.3809,"is_reserved":false,"is_disabled":false,"rental_uris":{"android":"levelo://app?vid=868b6d71-8151-4838-8b06-55b6943654a2","ios":"levelo://app?vid=868b6d71-8151-4838-8b06-55b6943654a2"},"vehicle_type_id":"4","last_reported":1723835236,"current_range_meters":20000,"station_id":"ce4bgjp2rcd13ifvqbh0","pricing_plan_id":"cebpf4jnsgd1na2vs0mg"},{"bike_id":"41bc60ab-9556-4e38-aaff-bfbf1bac322c","system_id":"levelo_inurba_marseille","lat":43.297794,"lon":5.370888,"is_reserved":false,"is_disabled":false,"rental_uris":{"android":"levelo://app?vid=41bc60ab-9556-4e38-aaff-bfbf1bac322c","ios":"levelo://app?vid=41bc60ab-9556-4e38-aaff-bfbf1bac322c"},"vehicle_type_id":"4","last_reported":1723835236,"current_range_meters":24800,"station_id":"ce4bgop2rcd13ifvqc1g","pricing_plan_id":"cebpf4jnsgd1na2vs0mg"},{"bike_id":"15048367-3358-48cd-b17c-93c824ff4de5","system_id":"levelo_inurba_marseille","lat":43.296131,"lon":5.370773,"is_reserved":false,"is_disabled":false,"rental_uris":{"android":"levelo://app?vid=15048367-3358-48cd-b17c-93c824ff4de5","ios":"levelo://app?vid=15048367-3358-48cd-b17c-93c824ff4de5"},"vehicle_type_id":"4","last_reported":1723835236,"current_range_meters":18800,"station_id":"ce4bgnh2rcd13ifvqc0g","pricing_plan_id":"cebpf4jnsgd1na2vs0mg"},{"bike_id":"9df65002-26f2-4f99-a3e3-ca292a5064ed","system_id":"levelo_inurba_marseille","lat":43.29573,"lon":5.367355,"is_reserved":false,"is_disabled":false,"rental_uris":{"android":"levelo://app?vid=9df65002-26f2-4f99-a3e3-ca292a5064ed","ios":"levelo://app?vid=9df65002-26f2-4f99-a3e3-ca292a5064ed"},"vehicle_type_id":"4","last_reported":1723835236,"current_range_meters":7600,"station_id":"ce4bgph2rcd13ifvqc2g","pricing_plan_id":"cebpf4jnsgd1na2vs0mg"},{"bike_id":"7537df8d-f0db-4bd1-8e98-0b61b068fe7f","system_id":"levelo_inurba_marseille","lat":43.29605,"lon":5.36136,"is_reserved":false,"is_disabled":false,"rental_uris":{"android":"levelo://app?vid=7537df8d-f0db-4bd1-8e98-0b61b068fe7f","ios":"levelo://app?vid=7537df8d-f0db-4bd1-8e98-0b61b068fe7f"},"vehicle_type_id":"4","last_reported":1723835236,"current_range_meters":13600,"station_id":"","pricing_plan_id":"cebpf4jnsgd1na2vs0mg"},{"bike_id":"30202f3e-7bc9-43b7-9369-223ed0fc81af","system_id":"levelo_inurba_marseille","lat":43.30952,"lon":5.39018,"is_reserved":false,"is_disabled":false,"rental_uris":{"android":"levelo://app?vid=30202f3e-7bc9-43b7-9369-223ed0fc81af","ios":"levelo://app?vid=30202f3e-7bc9-43b7-9369-223ed0fc81af"},"vehicle_type_id":"4","last_reported":1723835236,"current_range_meters":10400,"station_id":"ce4bgup2rcd13ifvqco0","pricing_plan_id":"cebpf4jnsgd1na2vs0mg"},{"bike_id":"fc6e6383-3cfb-424f-b08d-48d459fcbaf5","system_id":"levelo_inurba_marseille","lat":43.296935,"lon":5.376544,"is_reserved":false,"is_disabled":false,"rental_uris":{"android":"levelo://app?vid=fc6e6383-3cfb-424f-b08d-48d459fcbaf5","ios":"levelo://app?vid=fc6e6383-3cfb-424f-b08d-48d459fcbaf5"},"vehicle_type_id":"4","last_reported":1723835236,"current_range_meters":17600,"station_id":"ce4bgkh2rcd13ifvqbl0","pricing_plan_id":"cebpf4jnsgd1na2vs0mg"},{"bike_id":"c7450306-26d8-42b7-81a2-6a2e58e716ed","system_id":"levelo_inurba_marseille","lat":43.309589,"lon":5.390258,"is_reserved":false,"is_disabled":false,"rental_uris":{"android":"levelo://app?vid=c7450306-26d8-42b7-81a2-6a2e58e716ed","ios":"levelo://app?vid=c7450306-26d8-42b7-81a2-6a2e58e716ed"},"vehicle_type_id":"4","last_reported":1723835236,"current_range_meters":7600,"station_id":"ce4bgup2rcd13ifvqco0","pricing_plan_id":"cebpf4jnsgd1na2vs0mg"},{"bike_id":"dd910a62-2b20-467f-84d3-abc2f754dccf","system_id":"levelo_inurba_marseille","lat":43.296935,"lon":5.376544,"is_reserved":false,"is_disabled":false,"rental_uris":{"android":"levelo://app?vid=dd910a62-2b20-467f-84d3-abc2f754dccf","ios":"levelo://app?vid=dd910a62-2b20-467f-84d3-abc2f754dccf"},"vehicle_type_id":"4","last_reported":1723835236,"current_range_meters":6800,"station_id":"ce4bgkh2rcd13ifvqbl0","pricing_plan_id":"cebpf4jnsgd1na2vs0mg"},{"bike_id":"93ed026b-030c-45e6-8823-513af1676276","system_id":"levelo_inurba_marseille","lat":43.309512,"lon":5.390225,"is_reserved":false,"is_disabled":false,"rental_uris":{"android":"levelo://app?vid=93ed026b-030c-45e6-8823-513af1676276","ios":"levelo://app?vid=93ed026b-030c-45e6-8823-513af1676276"},"vehicle_type_id":"4","last_reported":1723835236,"current_range_meters":29600,"station_id":"ce4bgup2rcd13ifvqco0","pricing_plan_id":"cebpf4jnsgd1na2vs0mg"},{"bike_id":"7a266996-8fd5-4225-beb5-dc591054aa0b","system_id":"levelo_inurba_marseille","lat":43.30955,"lon":5.39024,"is_reserved":false,"is_disabled":false,"rental_uris":{"android":"levelo://app?vid=7a266996-8fd5-4225-beb5-dc591054aa0b","ios":"levelo://app?vid=7a266996-8fd5-4225-beb5-dc591054aa0b"},"vehicle_type_id":"4","last_reported":1723835236,"current_range_meters":2400,"station_id":"","pricing_plan_id":"cebpf4jnsgd1na2vs0mg"},{"bike_id":"63c513b1-ccc4-4b30-8f55-3d49a727b709","system_id":"levelo_inurba_marseille","lat":43.30954,"lon":5.39024,"is_reserved":false,"is_disabled":false,"rental_uris":{"android":"levelo://app?vid=63c513b1-ccc4-4b30-8f55-3d49a727b709","ios":"levelo://app?vid=63c513b1-ccc4-4b30-8f55-3d49a727b709"},"vehicle_type_id":"4","last_reported":1723835236,"current_range_meters":0,"station_id":"ce4bgup2rcd13ifvqco0","pricing_plan_id":"cebpf4jnsgd1na2vs0mg"},{"bike_id":"d49da0e7-1563-47d6-873e-fb78c5f828b3","system_id":"levelo_inurba_marseille","lat":43.30949,"lon":5.39025,"is_reserved":false,"is_disabled":false,"rental_uris":{"android":"levelo://app?vid=d49da0e7-1563-47d6-873e-fb78c5f828b3","ios":"levelo://app?vid=d49da0e7-1563-47d6-873e-fb78c5f828b3"},"vehicle_type_id":"4","last_reported":1723835236,"current_range_meters":29600,"station_id":"ce4bgup2rcd13ifvqco0","pricing_plan_id":"cebpf4jnsgd1na2vs0mg"},{"bike_id":"2edae5da-54ac-4111-8e42-7ea1439a1655","system_id":"levelo_inurba_marseille","lat":43.309537,"lon":5.390267,"is_reserved":false,"is_disabled":false,"rental_uris":{"android":"levelo://app?vid=2edae5da-54ac-4111-8e42-7ea1439a1655","ios":"levelo://app?vid=2edae5da-54ac-4111-8e42-7ea1439a1655"},"vehicle_type_id":"4","last_reported":1723835236,"current_range_meters":6000,"station_id":"","pricing_plan_id":"cebpf4jnsgd1na2vs0mg"},{"bike_id":"8a6f8dc7-d9e7-491e-bd4e-cf6340da7836","system_id":"levelo_inurba_marseille","lat":43.30956,"lon":5.39028,"is_reserved":false,"is_disabled":false,"rental_uris":{"android":"levelo://app?vid=8a6f8dc7-d9e7-491e-bd4e-cf6340da7836","ios":"levelo://app?vid=8a6f8dc7-d9e7-491e-bd4e-cf6340da7836"},"vehicle_type_id":"4","last_reported":1723835236,"current_range_meters":0,"station_id":"ce4bgup2rcd13ifvqco0","pricing_plan_id":"cebpf4jnsgd1na2vs0mg"},{"bike_id":"14649fe9-001b-44e6-8aa2-4570071b1c57","system_id":"levelo_inurba_marseille","lat":43.30957,"lon":5.39029,"is_reserved":false,"is_disabled":false,"rental_uris":{"android":"levelo://app?vid=14649fe9-001b-44e6-8aa2-4570071b1c57","ios":"levelo://app?vid=14649fe9-001b-44e6-8aa2-4570071b1c57"},"vehicle_type_id":"4","last_reported":1723835236,"current_range_meters":20000,"station_id":"ce4bgup2rcd13ifvqco0","pricing_plan_id":"cebpf4jnsgd1na2vs0mg"},{"bike_id":"9c8e21f5-eaaa-4077-8b0d-4e6ee31991bd","system_id":"levelo_inurba_marseille","lat":43.30954,"lon":5.39029,"is_reserved":false,"is_disabled":false,"rental_uris":{"android":"levelo://app?vid=9c8e21f5-eaaa-4077-8b0d-4e6ee31991bd","ios":"levelo://app?vid=9c8e21f5-eaaa-4077-8b0d-4e6ee31991bd"},"vehicle_type_id":"4","last_reported":1723835236,"current_range_meters":10800,"station_id":"ce4bgup2rcd13ifvqco0","pricing_plan_id":"cebpf4jnsgd1na2vs0mg"},{"bike_id":"f20803d9-b8d9-42c2-a25a-c82b7d19e7f2","system_id":"levelo_inurba_marseille","lat":43.30954,"lon":5.39029,"is_reserved":false,"is_disabled":false,"rental_uris":{"android":"levelo://app?vid=f20803d9-b8d9-42c2-a25a-c82b7d19e7f2","ios":"levelo://app?vid=f20803d9-b8d9-42c2-a25a-c82b7d19e7f2"},"vehicle_type_id":"4","last_reported":1723835236,"current_range_meters":4000,"station_id":"ce4bgup2rcd13ifvqco0","pricing_plan_id":"cebpf4jnsgd1na2vs0mg"},{"bike_id":"7e076281-ee66-4165-ab7b-25c02ac27e1d","system_id":"levelo_inurba_marseille","lat":43.30953,"lon":5.3903,"is_reserved":false,"is_disabled":false,"rental_uris":{"android":"levelo://app?vid=7e076281-ee66-4165-ab7b-25c02ac27e1d","ios":"levelo://app?vid=7e076281-ee66-4165-ab7b-25c02ac27e1d"},"vehicle_type_id":"4","last_reported":1723835236,"current_range_meters":9600,"station_id":"ce4bgup2rcd13ifvqco0","pricing_plan_id":"cebpf4jnsgd1na2vs0mg"},{"bike_id":"04fc03fc-e315-4fed-a01f-6c6e356511f4","system_id":"levelo_inurba_marseille","lat":43.30955,"lon":5.39031,"is_reserved":false,"is_disabled":false,"rental_uris":{"android":"levelo://app?vid=04fc03fc-e315-4fed-a01f-6c6e356511f4","ios":"levelo://app?vid=04fc03fc-e315-4fed-a01f-6c6e356511f4"},"vehicle_type_id":"4","last_reported":1723835236,"current_range_meters":15200,"station_id":"ce4bgup2rcd13ifvqco0","pricing_plan_id":"cebpf4jnsgd1na2vs0mg"},{"bike_id":"c2507d6a-8fdc-42aa-a849-be807d3314fa","system_id":"levelo_inurba_marseille","lat":43.299028,"lon":5.381509,"is_reserved":false,"is_disabled":false,"rental_uris":{"android":"levelo://app?vid=c2507d6a-8fdc-42aa-a849-be807d3314fa","ios":"levelo://app?vid=c2507d6a-8fdc-42aa-a849-be807d3314fa"},"vehicle_type_id":"4","last_reported":1723835236,"current_range_meters":24000,"station_id":"ce4bgj12rcd13ifvqbc0","pricing_plan_id":"cebpf4jnsgd1na2vs0mg"},{"bike_id":"76daf1cb-cab4-447e-81dc-21ad814db61e","system_id":"levelo_inurba_marseille","lat":43.30947,"lon":5.39029,"is_reserved":false,"is_disabled":false,"rental_uris":{"android":"levelo://app?vid=76daf1cb-cab4-447e-81dc-21ad814db61e","ios":"levelo://app?vid=76daf1cb-cab4-447e-81dc-21ad814db61e"},"vehicle_type_id":"4","last_reported":1723835236,"current_range_meters":22000,"station_id":"ce4bgup2rcd13ifvqco0","pricing_plan_id":"cebpf4jnsgd1na2vs0mg"},{"bike_id":"93e8b8cb-d1cb-4018-b1b2-ed5e9e32e4bb","system_id":"levelo_inurba_marseille","lat":43.30953,"lon":5.39031,"is_reserved":false,"is_disabled":false,"rental_uris":{"android":"levelo://app?vid=93e8b8cb-d1cb-4018-b1b2-ed5e9e32e4bb","ios":"levelo://app?vid=93e8b8cb-d1cb-4018-b1b2-ed5e9e32e4bb"},"vehicle_type_id":"4","last_reported":1723835236,"current_range_meters":10000,"station_id":"ce4bgup2rcd13ifvqco0","pricing_plan_id":"cebpf4jnsgd1na2vs0mg"},{"bike_id":"42ad48c3-5a51-49fc-b416-9b28d3d18433","system_id":"levelo_inurba_marseille","lat":43.30952,"lon":5.39031,"is_reserved":false,"is_disabled":false,"rental_uris":{"android":"levelo://app?vid=42ad48c3-5a51-49fc-b416-9b28d3d18433","ios":"levelo://app?vid=42ad48c3-5a51-49fc-b416-9b28d3d18433"},"vehicle_type_id":"4","last_reported":1723835236,"current_range_meters":8400,"station_id":"ce4bgup2rcd13ifvqco0","pricing_plan_id":"cebpf4jnsgd1na2vs0mg"},{"bike_id":"9aa2d2dd-57d6-41c3-8e31-9ef3dc5e2c9c","system_id":"levelo_inurba_marseille","lat":43.30943,"lon":5.39029,"is_reserved":false,"is_disabled":false,"rental_uris":{"android":"levelo://app?vid=9aa2d2dd-57d6-41c3-8e31-9ef3dc5e2c9c","ios":"levelo://app?vid=9aa2d2dd-57d6-41c3-8e31-9ef3dc5e2c9c"},"vehicle_type_id":"4","last_reported":1723835236,"current_range_meters":31200,"station_id":"ce4bgup2rcd13ifvqco0","pricing_plan_id":"cebpf4jnsgd1na2vs0mg"},{"bike_id":"2ba3f437-a542-4b1c-9347-a05561bf018f","system_id":"levelo_inurba_marseille","lat":43.30953,"lon":5.39032,"is_reserved":false,"is_disabled":false,"rental_uris":{"android":"levelo://app?vid=2ba3f437-a542-4b1c-9347-a05561bf018f","ios":"levelo://app?vid=2ba3f437-a542-4b1c-9347-a05561bf018f"},"vehicle_type_id":"4","last_reported":1723835236,"current_range_meters":31200,"station_id":"ce4bgup2rcd13ifvqco0","pricing_plan_id":"cebpf4jnsgd1na2vs0mg"},{"bike_id":"e2938117-8870-40ad-99f5-951f583244cc","system_id":"levelo_inurba_marseille","lat":43.30947,"lon":5.39031,"is_reserved":false,"is_disabled":false,"rental_uris":{"android":"levelo://app?vid=e2938117-8870-40ad-99f5-951f583244cc","ios":"levelo://app?vid=e2938117-8870-40ad-99f5-951f583244cc"},"vehicle_type_id":"4","last_reported":1723835236,"current_range_meters":26800,"station_id":"ce4bgup2rcd13ifvqco0","pricing_plan_id":"cebpf4jnsgd1na2vs0mg"},{"bike_id":"ef9e8bf0-16cd-48cd-a0a2-237eddd9d079","system_id":"levelo_inurba_marseille","lat":43.309301,"lon":5.390267,"is_reserved":false,"is_disabled":false,"rental_uris":{"android":"levelo://app?vid=ef9e8bf0-16cd-48cd-a0a2-237eddd9d079","ios":"levelo://app?vid=ef9e8bf0-16cd-48cd-a0a2-237eddd9d079"},"vehicle_type_id":"4","last_reported":1723835236,"current_range_meters":8000,"station_id":"ce4bgup2rcd13ifvqco0","pricing_plan_id":"cebpf4jnsgd1na2vs0mg"},{"bike_id":"293e07c6-bed0-4819-bb0d-ab5b0e4dc802","system_id":"levelo_inurba_marseille","lat":43.30948,"lon":5.39032,"is_reserved":false,"is_disabled":false,"rental_uris":{"android":"levelo://app?vid=293e07c6-bed0-4819-bb0d-ab5b0e4dc802","ios":"levelo://app?vid=293e07c6-bed0-4819-bb0d-ab5b0e4dc802"},"vehicle_type_id":"4","last_reported":1723835236,"current_range_meters":18000,"station_id":"ce4bgup2rcd13ifvqco0","pricing_plan_id":"cebpf4jnsgd1na2vs0mg"},{"bike_id":"cba6f0bf-7b52-4a75-8c74-d781d8f1cea6","system_id":"levelo_inurba_marseille","lat":43.30949,"lon":5.39033,"is_reserved":false,"is_disabled":false,"rental_uris":{"android":"levelo://app?vid=cba6f0bf-7b52-4a75-8c74-d781d8f1cea6","ios":"levelo://app?vid=cba6f0bf-7b52-4a75-8c74-d781d8f1cea6"},"vehicle_type_id":"4","last_reported":1723835236,"current_range_meters":31200,"station_id":"ce4bgup2rcd13ifvqco0","pricing_plan_id":"cebpf4jnsgd1na2vs0mg"},{"bike_id":"458567bc-0260-46e8-ad5f-dd0a6f8a2b1e","system_id":"levelo_inurba_marseille","lat":43.309589,"lon":5.390258,"is_reserved":false,"is_disabled":false,"rental_uris":{"android":"levelo://app?vid=458567bc-0260-46e8-ad5f-dd0a6f8a2b1e","ios":"levelo://app?vid=458567bc-0260-46e8-ad5f-dd0a6f8a2b1e"},"vehicle_type_id":"4","last_reported":1723835236,"current_range_meters":16800,"station_id":"ce4bgup2rcd13ifvqco0","pricing_plan_id":"cebpf4jnsgd1na2vs0mg"},{"bike_id":"5625f5d6-faae-4655-855d-78ece61c6a0e","system_id":"levelo_inurba_marseille","lat":43.30948,"lon":5.39033,"is_reserved":false,"is_disabled":false,"rental_uris":{"android":"levelo://app?vid=5625f5d6-faae-4655-855d-78ece61c6a0e","ios":"levelo://app?vid=5625f5d6-faae-4655-855d-78ece61c6a0e"},"vehicle_type_id":"4","last_reported":1723835236,"current_range_meters":18000,"station_id":"ce4bgup2rcd13ifvqco0","pricing_plan_id":"cebpf4jnsgd1na2vs0mg"},{"bike_id":"fefe9e5c-a364-43b4-adb8-5351a27d51da","system_id":"levelo_inurba_marseille","lat":43.30951,"lon":5.39035,"is_reserved":false,"is_disabled":false,"rental_uris":{"android":"levelo://app?vid=fefe9e5c-a364-43b4-adb8-5351a27d51da","ios":"levelo://app?vid=fefe9e5c-a364-43b4-adb8-5351a27d51da"},"vehicle_type_id":"4","last_reported":1723835236,"current_range_meters":20400,"station_id":"ce4bgup2rcd13ifvqco0","pricing_plan_id":"cebpf4jnsgd1na2vs0mg"},{"bike_id":"9fbd890b-975e-45fb-816f-56e2953e9c18","system_id":"levelo_inurba_marseille","lat":43.309589,"lon":5.390258,"is_reserved":false,"is_disabled":false,"rental_uris":{"android":"levelo://app?vid=9fbd890b-975e-45fb-816f-56e2953e9c18","ios":"levelo://app?vid=9fbd890b-975e-45fb-816f-56e2953e9c18"},"vehicle_type_id":"4","last_reported":1723835236,"current_range_meters":11200,"station_id":"ce4bgup2rcd13ifvqco0","pricing_plan_id":"cebpf4jnsgd1na2vs0mg"},{"bike_id":"88f168e5-3e6f-4d96-8e2c-a5de8ab9b768","system_id":"levelo_inurba_marseille","lat":43.30953,"lon":5.39036,"is_reserved":false,"is_disabled":false,"rental_uris":{"android":"levelo://app?vid=88f168e5-3e6f-4d96-8e2c-a5de8ab9b768","ios":"levelo://app?vid=88f168e5-3e6f-4d96-8e2c-a5de8ab9b768"},"vehicle_type_id":"4","last_reported":1723835236,"current_range_meters":4400,"station_id":"ce4bgup2rcd13ifvqco0","pricing_plan_id":"cebpf4jnsgd1na2vs0mg"},{"bike_id":"1c24f73e-1f44-4fcd-8360-ad3334cac8e2","system_id":"levelo_inurba_marseille","lat":43.30954,"lon":5.39037,"is_reserved":false,"is_disabled":false,"rental_uris":{"android":"levelo://app?vid=1c24f73e-1f44-4fcd-8360-ad3334cac8e2","ios":"levelo://app?vid=1c24f73e-1f44-4fcd-8360-ad3334cac8e2"},"vehicle_type_id":"4","last_reported":1723835236,"current_range_meters":15200,"station_id":"ce4bgup2rcd13ifvqco0","pricing_plan_id":"cebpf4jnsgd1na2vs0mg"},{"bike_id":"27c13c30-bf4d-4891-a0c6-172801232e47","system_id":"levelo_inurba_marseille","lat":43.30957,"lon":5.39038,"is_reserved":false,"is_disabled":false,"rental_uris":{"android":"levelo://app?vid=27c13c30-bf4d-4891-a0c6-172801232e47","ios":"levelo://app?vid=27c13c30-bf4d-4891-a0c6-172801232e47"},"vehicle_type_id":"4","last_reported":1723835236,"current_range_meters":21200,"station_id":"ce4bgup2rcd13ifvqco0","pricing_plan_id":"cebpf4jnsgd1na2vs0mg"},{"bike_id":"bd4d30a6-fe92-4227-a1f5-8e54e67c2e42","system_id":"levelo_inurba_marseille","lat":43.30951,"lon":5.39037,"is_reserved":false,"is_disabled":false,"rental_uris":{"android":"levelo://app?vid=bd4d30a6-fe92-4227-a1f5-8e54e67c2e42","ios":"levelo://app?vid=bd4d30a6-fe92-4227-a1f5-8e54e67c2e42"},"vehicle_type_id":"4","last_reported":1723835236,"current_range_meters":11200,"station_id":"ce4bgup2rcd13ifvqco0","pricing_plan_id":"cebpf4jnsgd1na2vs0mg"},{"bike_id":"af827add-9713-4f73-9b83-eb7fba32754f","system_id":"levelo_inurba_marseille","lat":43.309589,"lon":5.390258,"is_reserved":false,"is_disabled":false,"rental_uris":{"android":"levelo://app?vid=af827add-9713-4f73-9b83-eb7fba32754f","ios":"levelo://app?vid=af827add-9713-4f73-9b83-eb7fba32754f"},"vehicle_type_id":"4","last_reported":1723835236,"current_range_meters":24000,"station_id":"ce4bgup2rcd13ifvqco0","pricing_plan_id":"cebpf4jnsgd1na2vs0mg"},{"bike_id":"704d985f-3aa9-4287-a4d6-6d2e69a4f58a","system_id":"levelo_inurba_marseille","lat":43.3095,"lon":5.39037,"is_reserved":false,"is_disabled":false,"rental_uris":{"android":"levelo://app?vid=704d985f-3aa9-4287-a4d6-6d2e69a4f58a","ios":"levelo://app?vid=704d985f-3aa9-4287-a4d6-6d2e69a4f58a"},"vehicle_type_id":"4","last_reported":1723835236,"current_range_meters":11200,"station_id":"ce4bgup2rcd13ifvqco0","pricing_plan_id":"cebpf4jnsgd1na2vs0mg"},{"bike_id":"4eb6f90c-ce00-40b6-adf0-56487d0eb823","system_id":"levelo_inurba_marseille","lat":43.30949,"lon":5.39037,"is_reserved":false,"is_disabled":false,"rental_uris":{"android":"levelo://app?vid=4eb6f90c-ce00-40b6-adf0-56487d0eb823","ios":"levelo://app?vid=4eb6f90c-ce00-40b6-adf0-56487d0eb823"},"vehicle_type_id":"4","last_reported":1723835236,"current_range_meters":1600,"station_id":"ce4bgup2rcd13ifvqco0","pricing_plan_id":"cebpf4jnsgd1na2vs0mg"},{"bike_id":"4746e3aa-2e1d-47e4-adb9-a4fcd8eae585","system_id":"levelo_inurba_marseille","lat":43.3095,"lon":5.39038,"is_reserved":false,"is_disabled":false,"rental_uris":{"android":"levelo://app?vid=4746e3aa-2e1d-47e4-adb9-a4fcd8eae585","ios":"levelo://app?vid=4746e3aa-2e1d-47e4-adb9-a4fcd8eae585"},"vehicle_type_id":"4","last_reported":1723835236,"current_range_meters":19200,"station_id":"ce4bgup2rcd13ifvqco0","pricing_plan_id":"cebpf4jnsgd1na2vs0mg"},{"bike_id":"efd4d22b-8970-4ce9-ae22-f66d894b8192","system_id":"levelo_inurba_marseille","lat":43.30951,"lon":5.39039,"is_reserved":false,"is_disabled":false,"rental_uris":{"android":"levelo://app?vid=efd4d22b-8970-4ce9-ae22-f66d894b8192","ios":"levelo://app?vid=efd4d22b-8970-4ce9-ae22-f66d894b8192"},"vehicle_type_id":"4","last_reported":1723835236,"current_range_meters":28000,"station_id":"ce4bgup2rcd13ifvqco0","pricing_plan_id":"cebpf4jnsgd1na2vs0mg"},{"bike_id":"3b71dcbb-1dd5-4ad7-9cc5-6b0f4a96a4dd","system_id":"levelo_inurba_marseille","lat":43.30951,"lon":5.3904,"is_reserved":false,"is_disabled":false,"rental_uris":{"android":"levelo://app?vid=3b71dcbb-1dd5-4ad7-9cc5-6b0f4a96a4dd","ios":"levelo://app?vid=3b71dcbb-1dd5-4ad7-9cc5-6b0f4a96a4dd"},"vehicle_type_id":"4","last_reported":1723835236,"current_range_meters":31200,"station_id":"ce4bgup2rcd13ifvqco0","pricing_plan_id":"cebpf4jnsgd1na2vs0mg"},{"bike_id":"2073c45a-e362-480c-aebc-3d779ac1e6db","system_id":"levelo_inurba_marseille","lat":43.30953,"lon":5.39041,"is_reserved":false,"is_disabled":false,"rental_uris":{"android":"levelo://app?vid=2073c45a-e362-480c-aebc-3d779ac1e6db","ios":"levelo://app?vid=2073c45a-e362-480c-aebc-3d779ac1e6db"},"vehicle_type_id":"4","last_reported":1723835236,"current_range_meters":13600,"station_id":"ce4bgup2rcd13ifvqco0","pricing_plan_id":"cebpf4jnsgd1na2vs0mg"},{"bike_id":"90cf136a-7e54-48c6-9652-79cbeebb4bf5","system_id":"levelo_inurba_marseille","lat":43.30951,"lon":5.39041,"is_reserved":false,"is_disabled":false,"rental_uris":{"android":"levelo://app?vid=90cf136a-7e54-48c6-9652-79cbeebb4bf5","ios":"levelo://app?vid=90cf136a-7e54-48c6-9652-79cbeebb4bf5"},"vehicle_type_id":"4","last_reported":1723835236,"current_range_meters":25200,"station_id":"ce4bgup2rcd13ifvqco0","pricing_plan_id":"cebpf4jnsgd1na2vs0mg"},{"bike_id":"033375c2-c45c-4d5a-aa9e-67ca21c74297","system_id":"levelo_inurba_marseille","lat":43.30946,"lon":5.39042,"is_reserved":false,"is_disabled":false,"rental_uris":{"android":"levelo://app?vid=033375c2-c45c-4d5a-aa9e-67ca21c74297","ios":"levelo://app?vid=033375c2-c45c-4d5a-aa9e-67ca21c74297"},"vehicle_type_id":"4","last_reported":1723835236,"current_range_meters":15600,"station_id":"ce4bgup2rcd13ifvqco0","pricing_plan_id":"cebpf4jnsgd1na2vs0mg"},{"bike_id":"e3d609cf-e59e-4b97-a00a-e9fe2c4423c2","system_id":"levelo_inurba_marseille","lat":43.30952,"lon":5.39044,"is_reserved":false,"is_disabled":false,"rental_uris":{"android":"levelo://app?vid=e3d609cf-e59e-4b97-a00a-e9fe2c4423c2","ios":"levelo://app?vid=e3d609cf-e59e-4b97-a00a-e9fe2c4423c2"},"vehicle_type_id":"4","last_reported":1723835236,"current_range_meters":19600,"station_id":"ce4bgup2rcd13ifvqco0","pricing_plan_id":"cebpf4jnsgd1na2vs0mg"},{"bike_id":"1b500d5b-f46e-409e-bc8b-86cb25060923","system_id":"levelo_inurba_marseille","lat":43.30951,"lon":5.39044,"is_reserved":false,"is_disabled":false,"rental_uris":{"android":"levelo://app?vid=1b500d5b-f46e-409e-bc8b-86cb25060923","ios":"levelo://app?vid=1b500d5b-f46e-409e-bc8b-86cb25060923"},"vehicle_type_id":"4","last_reported":1723835236,"current_range_meters":25200,"station_id":"ce4bgup2rcd13ifvqco0","pricing_plan_id":"cebpf4jnsgd1na2vs0mg"},{"bike_id":"a6e63cc9-8f44-41cb-90d9-409cedc90823","system_id":"levelo_inurba_marseille","lat":43.30947,"lon":5.39043,"is_reserved":false,"is_disabled":false,"rental_uris":{"android":"levelo://app?vid=a6e63cc9-8f44-41cb-90d9-409cedc90823","ios":"levelo://app?vid=a6e63cc9-8f44-41cb-90d9-409cedc90823"},"vehicle_type_id":"4","last_reported":1723835236,"current_range_meters":7200,"station_id":"ce4bgup2rcd13ifvqco0","pricing_plan_id":"cebpf4jnsgd1na2vs0mg"},{"bike_id":"6539f01d-b46d-4db6-9802-9a60e1c3e121","system_id":"levelo_inurba_marseille","lat":43.3095,"lon":5.39044,"is_reserved":false,"is_disabled":false,"rental_uris":{"android":"levelo://app?vid=6539f01d-b46d-4db6-9802-9a60e1c3e121","ios":"levelo://app?vid=6539f01d-b46d-4db6-9802-9a60e1c3e121"},"vehicle_type_id":"4","last_reported":1723835236,"current_range_meters":13200,"station_id":"ce4bgup2rcd13ifvqco0","pricing_plan_id":"cebpf4jnsgd1na2vs0mg"},{"bike_id":"c9ed0f12-5b32-43ea-b81c-9a6184d5d8d0","system_id":"levelo_inurba_marseille","lat":43.30944,"lon":5.39043,"is_reserved":false,"is_disabled":false,"rental_uris":{"android":"levelo://app?vid=c9ed0f12-5b32-43ea-b81c-9a6184d5d8d0","ios":"levelo://app?vid=c9ed0f12-5b32-43ea-b81c-9a6184d5d8d0"},"vehicle_type_id":"4","last_reported":1723835236,"current_range_meters":11200,"station_id":"ce4bgup2rcd13ifvqco0","pricing_plan_id":"cebpf4jnsgd1na2vs0mg"},{"bike_id":"e7966b35-2297-4a42-be40-4f6c0792c235","system_id":"levelo_inurba_marseille","lat":43.30946,"lon":5.39044,"is_reserved":false,"is_disabled":false,"rental_uris":{"android":"levelo://app?vid=e7966b35-2297-4a42-be40-4f6c0792c235","ios":"levelo://app?vid=e7966b35-2297-4a42-be40-4f6c0792c235"},"vehicle_type_id":"4","last_reported":1723835236,"current_range_meters":4800,"station_id":"ce4bgup2rcd13ifvqco0","pricing_plan_id":"cebpf4jnsgd1na2vs0mg"},{"bike_id":"3f876144-2c5b-4468-83d1-86b11b3a2fb5","system_id":"levelo_inurba_marseille","lat":43.30952,"lon":5.390464,"is_reserved":false,"is_disabled":false,"rental_uris":{"android":"levelo://app?vid=3f876144-2c5b-4468-83d1-86b11b3a2fb5","ios":"levelo://app?vid=3f876144-2c5b-4468-83d1-86b11b3a2fb5"},"vehicle_type_id":"4","last_reported":1723835236,"current_range_meters":24400,"station_id":"ce4bgup2rcd13ifvqco0","pricing_plan_id":"cebpf4jnsgd1na2vs0mg"},{"bike_id":"50f7a106-fb7e-4b22-80fb-4aa4878d20eb","system_id":"levelo_inurba_marseille","lat":43.30953,"lon":5.39047,"is_reserved":false,"is_disabled":false,"rental_uris":{"android":"levelo://app?vid=50f7a106-fb7e-4b22-80fb-4aa4878d20eb","ios":"levelo://app?vid=50f7a106-fb7e-4b22-80fb-4aa4878d20eb"},"vehicle_type_id":"4","last_reported":1723835236,"current_range_meters":18800,"station_id":"ce4bgup2rcd13ifvqco0","pricing_plan_id":"cebpf4jnsgd1na2vs0mg"},{"bike_id":"a6a72077-43d6-4af7-a8a7-f893ef85ab87","system_id":"levelo_inurba_marseille","lat":43.30947,"lon":5.39046,"is_reserved":false,"is_disabled":false,"rental_uris":{"android":"levelo://app?vid=a6a72077-43d6-4af7-a8a7-f893ef85ab87","ios":"levelo://app?vid=a6a72077-43d6-4af7-a8a7-f893ef85ab87"},"vehicle_type_id":"4","last_reported":1723835236,"current_range_meters":8400,"station_id":"ce4bgup2rcd13ifvqco0","pricing_plan_id":"cebpf4jnsgd1na2vs0mg"},{"bike_id":"5e8c3b11-1935-43b1-8215-176ec55e05f2","system_id":"levelo_inurba_marseille","lat":43.30946,"lon":5.39047,"is_reserved":false,"is_disabled":false,"rental_uris":{"android":"levelo://app?vid=5e8c3b11-1935-43b1-8215-176ec55e05f2","ios":"levelo://app?vid=5e8c3b11-1935-43b1-8215-176ec55e05f2"},"vehicle_type_id":"4","last_reported":1723835236,"current_range_meters":18800,"station_id":"ce4bgup2rcd13ifvqco0","pricing_plan_id":"cebpf4jnsgd1na2vs0mg"},{"bike_id":"6ede9333-46eb-4917-aa03-dd88302a4a6b","system_id":"levelo_inurba_marseille","lat":43.30957,"lon":5.39051,"is_reserved":false,"is_disabled":false,"rental_uris":{"android":"levelo://app?vid=6ede9333-46eb-4917-aa03-dd88302a4a6b","ios":"levelo://app?vid=6ede9333-46eb-4917-aa03-dd88302a4a6b"},"vehicle_type_id":"4","last_reported":1723835236,"current_range_meters":11600,"station_id":"ce4bgup2rcd13ifvqco0","pricing_plan_id":"cebpf4jnsgd1na2vs0mg"},{"bike_id":"a1618b8e-5d3f-4cbb-a0f1-469a41eef48a","system_id":"levelo_inurba_marseille","lat":43.30943,"lon":5.39048,"is_reserved":false,"is_disabled":false,"rental_uris":{"android":"levelo://app?vid=a1618b8e-5d3f-4cbb-a0f1-469a41eef48a","ios":"levelo://app?vid=a1618b8e-5d3f-4cbb-a0f1-469a41eef48a"},"vehicle_type_id":"4","last_reported":1723835236,"current_range_meters":16400,"station_id":"ce4bgup2rcd13ifvqco0","pricing_plan_id":"cebpf4jnsgd1na2vs0mg"},{"bike_id":"07c3bc9a-acf3-4f2a-93cf-d382d59d6a40","system_id":"levelo_inurba_marseille","lat":43.30944,"lon":5.3905,"is_reserved":false,"is_disabled":false,"rental_uris":{"android":"levelo://app?vid=07c3bc9a-acf3-4f2a-93cf-d382d59d6a40","ios":"levelo://app?vid=07c3bc9a-acf3-4f2a-93cf-d382d59d6a40"},"vehicle_type_id":"4","last_reported":1723835236,"current_range_meters":7200,"station_id":"ce4bgup2rcd13ifvqco0","pricing_plan_id":"cebpf4jnsgd1na2vs0mg"},{"bike_id":"7d25b1be-02ee-483e-84cc-152659258e27","system_id":"levelo_inurba_marseille","lat":43.30947,"lon":5.39052,"is_reserved":false,"is_disabled":false,"rental_uris":{"android":"levelo://app?vid=7d25b1be-02ee-483e-84cc-152659258e27","ios":"levelo://app?vid=7d25b1be-02ee-483e-84cc-152659258e27"},"vehicle_type_id":"4","last_reported":1723835236,"current_range_meters":6400,"station_id":"ce4bgup2rcd13ifvqco0","pricing_plan_id":"cebpf4jnsgd1na2vs0mg"},{"bike_id":"55816f08-b33c-407c-9e21-da97ff388c04","system_id":"levelo_inurba_marseille","lat":43.30947,"lon":5.39052,"is_reserved":false,"is_disabled":false,"rental_uris":{"android":"levelo://app?vid=55816f08-b33c-407c-9e21-da97ff388c04","ios":"levelo://app?vid=55816f08-b33c-407c-9e21-da97ff388c04"},"vehicle_type_id":"4","last_reported":1723835236,"current_range_meters":31200,"station_id":"ce4bgup2rcd13ifvqco0","pricing_plan_id":"cebpf4jnsgd1na2vs0mg"},{"bike_id":"64331153-86f3-4033-b847-42aa4de274f3","system_id":"levelo_inurba_marseille","lat":43.30953,"lon":5.39055,"is_reserved":false,"is_disabled":false,"rental_uris":{"android":"levelo://app?vid=64331153-86f3-4033-b847-42aa4de274f3","ios":"levelo://app?vid=64331153-86f3-4033-b847-42aa4de274f3"},"vehicle_type_id":"4","last_reported":1723835236,"current_range_meters":31200,"station_id":"ce4bgup2rcd13ifvqco0","pricing_plan_id":"cebpf4jnsgd1na2vs0mg"},{"bike_id":"db0f0ec3-e9cf-4b97-b805-e1aa8d60a613","system_id":"levelo_inurba_marseille","lat":43.30951,"lon":5.39057,"is_reserved":false,"is_disabled":false,"rental_uris":{"android":"levelo://app?vid=db0f0ec3-e9cf-4b97-b805-e1aa8d60a613","ios":"levelo://app?vid=db0f0ec3-e9cf-4b97-b805-e1aa8d60a613"},"vehicle_type_id":"4","last_reported":1723835236,"current_range_meters":30800,"station_id":"ce4bgup2rcd13ifvqco0","pricing_plan_id":"cebpf4jnsgd1na2vs0mg"},{"bike_id":"864dbf84-46a8-4a39-9e14-a484ee7bed9e","system_id":"levelo_inurba_marseille","lat":43.29747,"lon":5.37937,"is_reserved":false,"is_disabled":false,"rental_uris":{"android":"levelo://app?vid=864dbf84-46a8-4a39-9e14-a484ee7bed9e","ios":"levelo://app?vid=864dbf84-46a8-4a39-9e14-a484ee7bed9e"},"vehicle_type_id":"4","last_reported":1723835236,"current_range_meters":9200,"station_id":"","pricing_plan_id":"cebpf4jnsgd1na2vs0mg"},{"bike_id":"385575a9-8130-445b-b87c-a0dad42f8d25","system_id":"levelo_inurba_marseille","lat":43.298037,"lon":5.381066,"is_reserved":false,"is_disabled":false,"rental_uris":{"android":"levelo://app?vid=385575a9-8130-445b-b87c-a0dad42f8d25","ios":"levelo://app?vid=385575a9-8130-445b-b87c-a0dad42f8d25"},"vehicle_type_id":"4","last_reported":1723835236,"current_range_meters":31200,"station_id":"ce4bgip2rcd13ifvqbb0","pricing_plan_id":"cebpf4jnsgd1na2vs0mg"},{"bike_id":"63f56ce2-9de7-4822-8da3-ec8294ae09ed","system_id":"levelo_inurba_marseille","lat":43.298037,"lon":5.381066,"is_reserved":false,"is_disabled":false,"rental_uris":{"android":"levelo://app?vid=63f56ce2-9de7-4822-8da3-ec8294ae09ed","ios":"levelo://app?vid=63f56ce2-9de7-4822-8da3-ec8294ae09ed"},"vehicle_type_id":"4","last_reported":1723835236,"current_range_meters":7200,"station_id":"ce4bgip2rcd13ifvqbb0","pricing_plan_id":"cebpf4jnsgd1na2vs0mg"},{"bike_id":"2963b2be-478b-4641-80eb-7453afe84cf7","system_id":"levelo_inurba_marseille","lat":43.304274,"lon":5.388873,"is_reserved":false,"is_disabled":false,"rental_uris":{"android":"levelo://app?vid=2963b2be-478b-4641-80eb-7453afe84cf7","ios":"levelo://app?vid=2963b2be-478b-4641-80eb-7453afe84cf7"},"vehicle_type_id":"4","last_reported":1723835236,"current_range_meters":2000,"station_id":"ce4bgk12rcd13ifvqbi0","pricing_plan_id":"cebpf4jnsgd1na2vs0mg"},{"bike_id":"d50bb9b4-8047-453f-b369-bdb84529ecac","system_id":"levelo_inurba_marseille","lat":43.304278,"lon":5.388868,"is_reserved":false,"is_disabled":false,"rental_uris":{"android":"levelo://app?vid=d50bb9b4-8047-453f-b369-bdb84529ecac","ios":"levelo://app?vid=d50bb9b4-8047-453f-b369-bdb84529ecac"},"vehicle_type_id":"4","last_reported":1723835236,"current_range_meters":1200,"station_id":"ce4bgk12rcd13ifvqbi0","pricing_plan_id":"cebpf4jnsgd1na2vs0mg"},{"bike_id":"da94652c-5fd1-4b42-bc36-76af73a52918","system_id":"levelo_inurba_marseille","lat":43.304274,"lon":5.388873,"is_reserved":false,"is_disabled":false,"rental_uris":{"android":"levelo://app?vid=da94652c-5fd1-4b42-bc36-76af73a52918","ios":"levelo://app?vid=da94652c-5fd1-4b42-bc36-76af73a52918"},"vehicle_type_id":"4","last_reported":1723835236,"current_range_meters":15200,"station_id":"ce4bgk12rcd13ifvqbi0","pricing_plan_id":"cebpf4jnsgd1na2vs0mg"},{"bike_id":"9d2b6787-6d73-4139-ac5d-8470e1464c5a","system_id":"levelo_inurba_marseille","lat":43.295748,"lon":5.37522,"is_reserved":false,"is_disabled":false,"rental_uris":{"android":"levelo://app?vid=9d2b6787-6d73-4139-ac5d-8470e1464c5a","ios":"levelo://app?vid=9d2b6787-6d73-4139-ac5d-8470e1464c5a"},"vehicle_type_id":"4","last_reported":1723835236,"current_range_meters":12000,"station_id":"ce4bgh92rcd13ifvqb50","pricing_plan_id":"cebpf4jnsgd1na2vs0mg"},{"bike_id":"85f3605d-a924-4f0e-8524-211836ebb4a6","system_id":"levelo_inurba_marseille","lat":43.304278,"lon":5.388868,"is_reserved":false,"is_disabled":false,"rental_uris":{"android":"levelo://app?vid=85f3605d-a924-4f0e-8524-211836ebb4a6","ios":"levelo://app?vid=85f3605d-a924-4f0e-8524-211836ebb4a6"},"vehicle_type_id":"4","last_reported":1723835236,"current_range_meters":13600,"station_id":"ce4bgk12rcd13ifvqbi0","pricing_plan_id":"cebpf4jnsgd1na2vs0mg"},{"bike_id":"e72e6c64-7211-4557-9127-5d61a32256eb","system_id":"levelo_inurba_marseille","lat":43.296177,"lon":5.37713,"is_reserved":false,"is_disabled":false,"rental_uris":{"android":"levelo://app?vid=e72e6c64-7211-4557-9127-5d61a32256eb","ios":"levelo://app?vid=e72e6c64-7211-4557-9127-5d61a32256eb"},"vehicle_type_id":"4","last_reported":1723835236,"current_range_meters":0,"station_id":"ce4bgi92rcd13ifvqb90","pricing_plan_id":"cebpf4jnsgd1na2vs0mg"},{"bike_id":"a91a90db-6c3f-4e6a-986b-41b7117c761c","system_id":"levelo_inurba_marseille","lat":43.296277,"lon":5.377108,"is_reserved":false,"is_disabled":false,"rental_uris":{"android":"levelo://app?vid=a91a90db-6c3f-4e6a-986b-41b7117c761c","ios":"levelo://app?vid=a91a90db-6c3f-4e6a-986b-41b7117c761c"},"vehicle_type_id":"4","last_reported":1723835236,"current_range_meters":27200,"station_id":"ce4bgi92rcd13ifvqb90","pricing_plan_id":"cebpf4jnsgd1na2vs0mg"},{"bike_id":"3470cdb6-52df-403f-8b44-7821ac14e758","system_id":"levelo_inurba_marseille","lat":43.295279,"lon":5.375048,"is_reserved":false,"is_disabled":false,"rental_uris":{"android":"levelo://app?vid=3470cdb6-52df-403f-8b44-7821ac14e758","ios":"levelo://app?vid=3470cdb6-52df-403f-8b44-7821ac14e758"},"vehicle_type_id":"4","last_reported":1723835236,"current_range_meters":25200,"station_id":"ce4bgkp2rcd13ifvqbmg","pricing_plan_id":"cebpf4jnsgd1na2vs0mg"},{"bike_id":"467e8a4d-40cf-4c33-8a82-72241ce64de4","system_id":"levelo_inurba_marseille","lat":43.29971,"lon":5.38498,"is_reserved":false,"is_disabled":false,"rental_uris":{"android":"levelo://app?vid=467e8a4d-40cf-4c33-8a82-72241ce64de4","ios":"levelo://app?vid=467e8a4d-40cf-4c33-8a82-72241ce64de4"},"vehicle_type_id":"4","last_reported":1723835236,"current_range_meters":31200,"station_id":"ce4bgj92rcd13ifvqbd0","pricing_plan_id":"cebpf4jnsgd1na2vs0mg"},{"bike_id":"0b76bc56-eba4-4cbf-a8a5-e3cc217d5487","system_id":"levelo_inurba_marseille","lat":43.299717,"lon":5.384845,"is_reserved":false,"is_disabled":false,"rental_uris":{"android":"levelo://app?vid=0b76bc56-eba4-4cbf-a8a5-e3cc217d5487","ios":"levelo://app?vid=0b76bc56-eba4-4cbf-a8a5-e3cc217d5487"},"vehicle_type_id":"4","last_reported":1723835236,"current_range_meters":27200,"station_id":"ce4bgj92rcd13ifvqbd0","pricing_plan_id":"cebpf4jnsgd1na2vs0mg"},{"bike_id":"350f42b9-fca3-412c-8c68-f9d3a3347318","system_id":"levelo_inurba_marseille","lat":43.295192,"lon":5.375109,"is_reserved":false,"is_disabled":false,"rental_uris":{"android":"levelo://app?vid=350f42b9-fca3-412c-8c68-f9d3a3347318","ios":"levelo://app?vid=350f42b9-fca3-412c-8c68-f9d3a3347318"},"vehicle_type_id":"4","last_reported":1723835236,"current_range_meters":26800,"station_id":"","pricing_plan_id":"cebpf4jnsgd1na2vs0mg"},{"bike_id":"e463d2c5-45f1-4959-8905-e340eed30472","system_id":"levelo_inurba_marseille","lat":43.295279,"lon":5.375048,"is_reserved":false,"is_disabled":false,"rental_uris":{"android":"levelo://app?vid=e463d2c5-45f1-4959-8905-e340eed30472","ios":"levelo://app?vid=e463d2c5-45f1-4959-8905-e340eed30472"},"vehicle_type_id":"4","last_reported":1723835236,"current_range_meters":31200,"station_id":"ce4bgkp2rcd13ifvqbmg","pricing_plan_id":"cebpf4jnsgd1na2vs0mg"},{"bike_id":"562fd2ba-7f28-40a1-a44e-9014b9cbe651","system_id":"levelo_inurba_marseille","lat":43.301396,"lon":5.387812,"is_reserved":false,"is_disabled":false,"rental_uris":{"android":"levelo://app?vid=562fd2ba-7f28-40a1-a44e-9014b9cbe651","ios":"levelo://app?vid=562fd2ba-7f28-40a1-a44e-9014b9cbe651"},"vehicle_type_id":"4","last_reported":1723835236,"current_range_meters":20800,"station_id":"ce4bghh2rcd13ifvqb60","pricing_plan_id":"cebpf4jnsgd1na2vs0mg"},{"bike_id":"ad53421d-0a20-4bb0-b4cb-65e8130395a9","system_id":"levelo_inurba_marseille","lat":43.301396,"lon":5.387812,"is_reserved":false,"is_disabled":false,"rental_uris":{"android":"levelo://app?vid=ad53421d-0a20-4bb0-b4cb-65e8130395a9","ios":"levelo://app?vid=ad53421d-0a20-4bb0-b4cb-65e8130395a9"},"vehicle_type_id":"4","last_reported":1723835236,"current_range_meters":7600,"station_id":"ce4bghh2rcd13ifvqb60","pricing_plan_id":"cebpf4jnsgd1na2vs0mg"},{"bike_id":"329b892d-97a9-4347-9ad3-310731e348ff","system_id":"levelo_inurba_marseille","lat":43.301396,"lon":5.387812,"is_reserved":false,"is_disabled":false,"rental_uris":{"android":"levelo://app?vid=329b892d-97a9-4347-9ad3-310731e348ff","ios":"levelo://app?vid=329b892d-97a9-4347-9ad3-310731e348ff"},"vehicle_type_id":"4","last_reported":1723835236,"current_range_meters":10800,"station_id":"ce4bghh2rcd13ifvqb60","pricing_plan_id":"cebpf4jnsgd1na2vs0mg"},{"bike_id":"d1434798-7d58-47ee-8dce-e65d8815bb91","system_id":"levelo_inurba_marseille","lat":43.32367,"lon":5.388836,"is_reserved":false,"is_disabled":false,"rental_uris":{"android":"levelo://app?vid=d1434798-7d58-47ee-8dce-e65d8815bb91","ios":"levelo://app?vid=d1434798-7d58-47ee-8dce-e65d8815bb91"},"vehicle_type_id":"4","last_reported":1723835236,"current_range_meters":21200,"station_id":"ce4bhqp2rcd13ifvqhog","pricing_plan_id":"cebpf4jnsgd1na2vs0mg"},{"bike_id":"402c23ae-3b47-4966-86de-af9e31194029","system_id":"levelo_inurba_marseille","lat":43.32366,"lon":5.38892,"is_reserved":false,"is_disabled":false,"rental_uris":{"android":"levelo://app?vid=402c23ae-3b47-4966-86de-af9e31194029","ios":"levelo://app?vid=402c23ae-3b47-4966-86de-af9e31194029"},"vehicle_type_id":"4","last_reported":1723835236,"current_range_meters":10800,"station_id":"ce4bhqp2rcd13ifvqhog","pricing_plan_id":"cebpf4jnsgd1na2vs0mg"},{"bike_id":"a3f52049-f799-4b2d-b92f-1a64e47a6816","system_id":"levelo_inurba_marseille","lat":43.29387,"lon":5.37325,"is_reserved":false,"is_disabled":false,"rental_uris":{"android":"levelo://app?vid=a3f52049-f799-4b2d-b92f-1a64e47a6816","ios":"levelo://app?vid=a3f52049-f799-4b2d-b92f-1a64e47a6816"},"vehicle_type_id":"4","last_reported":1723835236,"current_range_meters":0,"station_id":"","pricing_plan_id":"cebpf4jnsgd1na2vs0mg"},{"bike_id":"4c280185-47cd-488a-8246-04cc1b677379","system_id":"levelo_inurba_marseille","lat":43.29602,"lon":5.381084,"is_reserved":false,"is_disabled":false,"rental_uris":{"android":"levelo://app?vid=4c280185-47cd-488a-8246-04cc1b677379","ios":"levelo://app?vid=4c280185-47cd-488a-8246-04cc1b677379"},"vehicle_type_id":"4","last_reported":1723835236,"current_range_meters":6800,"station_id":"ce4bgl12rcd13ifvqbo0","pricing_plan_id":"cebpf4jnsgd1na2vs0mg"},{"bike_id":"7c81c0f5-1de0-460a-a33f-cb65c4cda453","system_id":"levelo_inurba_marseille","lat":43.29602,"lon":5.381084,"is_reserved":false,"is_disabled":false,"rental_uris":{"android":"levelo://app?vid=7c81c0f5-1de0-460a-a33f-cb65c4cda453","ios":"levelo://app?vid=7c81c0f5-1de0-460a-a33f-cb65c4cda453"},"vehicle_type_id":"4","last_reported":1723835236,"current_range_meters":10400,"station_id":"ce4bgl12rcd13ifvqbo0","pricing_plan_id":"cebpf4jnsgd1na2vs0mg"},{"bike_id":"f476d40c-5718-44d7-9981-29b594e4bd3d","system_id":"levelo_inurba_marseille","lat":43.29608,"lon":5.38105,"is_reserved":false,"is_disabled":false,"rental_uris":{"android":"levelo://app?vid=f476d40c-5718-44d7-9981-29b594e4bd3d","ios":"levelo://app?vid=f476d40c-5718-44d7-9981-29b594e4bd3d"},"vehicle_type_id":"4","last_reported":1723835236,"current_range_meters":0,"station_id":"ce4bgl12rcd13ifvqbo0","pricing_plan_id":"cebpf4jnsgd1na2vs0mg"},{"bike_id":"e90ad201-d7f5-4fa5-9683-4158ea0810cd","system_id":"levelo_inurba_marseille","lat":43.29602,"lon":5.381084,"is_reserved":false,"is_disabled":false,"rental_uris":{"android":"levelo://app?vid=e90ad201-d7f5-4fa5-9683-4158ea0810cd","ios":"levelo://app?vid=e90ad201-d7f5-4fa5-9683-4158ea0810cd"},"vehicle_type_id":"4","last_reported":1723835236,"current_range_meters":1200,"station_id":"ce4bgl12rcd13ifvqbo0","pricing_plan_id":"cebpf4jnsgd1na2vs0mg"},{"bike_id":"a6865106-8338-4d95-9a3f-bdf6592ce38f","system_id":"levelo_inurba_marseille","lat":43.29602,"lon":5.381084,"is_reserved":false,"is_disabled":false,"rental_uris":{"android":"levelo://app?vid=a6865106-8338-4d95-9a3f-bdf6592ce38f","ios":"levelo://app?vid=a6865106-8338-4d95-9a3f-bdf6592ce38f"},"vehicle_type_id":"4","last_reported":1723835236,"current_range_meters":19200,"station_id":"ce4bgl12rcd13ifvqbo0","pricing_plan_id":"cebpf4jnsgd1na2vs0mg"},{"bike_id":"c04a82c8-7066-4c54-b6ef-4a9896ca8fe0","system_id":"levelo_inurba_marseille","lat":43.29602,"lon":5.381084,"is_reserved":false,"is_disabled":false,"rental_uris":{"android":"levelo://app?vid=c04a82c8-7066-4c54-b6ef-4a9896ca8fe0","ios":"levelo://app?vid=c04a82c8-7066-4c54-b6ef-4a9896ca8fe0"},"vehicle_type_id":"4","last_reported":1723835236,"current_range_meters":16000,"station_id":"ce4bgl12rcd13ifvqbo0","pricing_plan_id":"cebpf4jnsgd1na2vs0mg"},{"bike_id":"8ccccdb1-32b8-4972-9979-256d37667a56","system_id":"levelo_inurba_marseille","lat":43.32385,"lon":5.3892,"is_reserved":false,"is_disabled":false,"rental_uris":{"android":"levelo://app?vid=8ccccdb1-32b8-4972-9979-256d37667a56","ios":"levelo://app?vid=8ccccdb1-32b8-4972-9979-256d37667a56"},"vehicle_type_id":"4","last_reported":1723835236,"current_range_meters":14000,"station_id":"ce4bhqp2rcd13ifvqhog","pricing_plan_id":"cebpf4jnsgd1na2vs0mg"},{"bike_id":"b3c6e91e-ac38-4509-aea8-446b111674c9","system_id":"levelo_inurba_marseille","lat":43.29602,"lon":5.381084,"is_reserved":false,"is_disabled":false,"rental_uris":{"android":"levelo://app?vid=b3c6e91e-ac38-4509-aea8-446b111674c9","ios":"levelo://app?vid=b3c6e91e-ac38-4509-aea8-446b111674c9"},"vehicle_type_id":"4","last_reported":1723835236,"current_range_meters":7200,"station_id":"ce4bgl12rcd13ifvqbo0","pricing_plan_id":"cebpf4jnsgd1na2vs0mg"},{"bike_id":"b820cec9-ff92-4eba-940e-c12d878eb4e9","system_id":"levelo_inurba_marseille","lat":43.32388,"lon":5.38922,"is_reserved":false,"is_disabled":false,"rental_uris":{"android":"levelo://app?vid=b820cec9-ff92-4eba-940e-c12d878eb4e9","ios":"levelo://app?vid=b820cec9-ff92-4eba-940e-c12d878eb4e9"},"vehicle_type_id":"4","last_reported":1723835236,"current_range_meters":2400,"station_id":"ce4bhqp2rcd13ifvqhog","pricing_plan_id":"cebpf4jnsgd1na2vs0mg"},{"bike_id":"8b8e0fb0-e41b-4a76-9a57-907455453cad","system_id":"levelo_inurba_marseille","lat":43.29602,"lon":5.381084,"is_reserved":false,"is_disabled":false,"rental_uris":{"android":"levelo://app?vid=8b8e0fb0-e41b-4a76-9a57-907455453cad","ios":"levelo://app?vid=8b8e0fb0-e41b-4a76-9a57-907455453cad"},"vehicle_type_id":"4","last_reported":1723835236,"current_range_meters":31600,"station_id":"ce4bgl12rcd13ifvqbo0","pricing_plan_id":"cebpf4jnsgd1na2vs0mg"},{"bike_id":"9b286582-12a1-48ae-bdf8-574bb38f5f21","system_id":"levelo_inurba_marseille","lat":43.29318,"lon":5.37182,"is_reserved":false,"is_disabled":false,"rental_uris":{"android":"levelo://app?vid=9b286582-12a1-48ae-bdf8-574bb38f5f21","ios":"levelo://app?vid=9b286582-12a1-48ae-bdf8-574bb38f5f21"},"vehicle_type_id":"4","last_reported":1723835236,"current_range_meters":31200,"station_id":"ce4bgh92rcd13ifvqb40","pricing_plan_id":"cebpf4jnsgd1na2vs0mg"},{"bike_id":"f9ebf540-0f85-4442-8a3e-b57356fd48a8","system_id":"levelo_inurba_marseille","lat":43.29315,"lon":5.37182,"is_reserved":false,"is_disabled":false,"rental_uris":{"android":"levelo://app?vid=f9ebf540-0f85-4442-8a3e-b57356fd48a8","ios":"levelo://app?vid=f9ebf540-0f85-4442-8a3e-b57356fd48a8"},"vehicle_type_id":"4","last_reported":1723835236,"current_range_meters":31200,"station_id":"ce4bgh92rcd13ifvqb40","pricing_plan_id":"cebpf4jnsgd1na2vs0mg"},{"bike_id":"62320cdf-360d-438b-bb22-67fe1067720b","system_id":"levelo_inurba_marseille","lat":43.293123,"lon":5.371713,"is_reserved":false,"is_disabled":false,"rental_uris":{"android":"levelo://app?vid=62320cdf-360d-438b-bb22-67fe1067720b","ios":"levelo://app?vid=62320cdf-360d-438b-bb22-67fe1067720b"},"vehicle_type_id":"4","last_reported":1723835236,"current_range_meters":28000,"station_id":"ce4bgh92rcd13ifvqb40","pricing_plan_id":"cebpf4jnsgd1na2vs0mg"},{"bike_id":"c44c32bb-6a7b-4a57-a1c0-4c6c08691aec","system_id":"levelo_inurba_marseille","lat":43.29311,"lon":5.37181,"is_reserved":false,"is_disabled":false,"rental_uris":{"android":"levelo://app?vid=c44c32bb-6a7b-4a57-a1c0-4c6c08691aec","ios":"levelo://app?vid=c44c32bb-6a7b-4a57-a1c0-4c6c08691aec"},"vehicle_type_id":"4","last_reported":1723835236,"current_range_meters":31600,"station_id":"ce4bgh92rcd13ifvqb40","pricing_plan_id":"cebpf4jnsgd1na2vs0mg"},{"bike_id":"a129bcf9-72a2-4cdf-ade2-b1a534fff3de","system_id":"levelo_inurba_marseille","lat":43.2931,"lon":5.37177,"is_reserved":false,"is_disabled":false,"rental_uris":{"android":"levelo://app?vid=a129bcf9-72a2-4cdf-ade2-b1a534fff3de","ios":"levelo://app?vid=a129bcf9-72a2-4cdf-ade2-b1a534fff3de"},"vehicle_type_id":"4","last_reported":1723835236,"current_range_meters":31200,"station_id":"ce4bgh92rcd13ifvqb40","pricing_plan_id":"cebpf4jnsgd1na2vs0mg"},{"bike_id":"bc4aad92-6dfe-431e-96d7-64e8339c93d4","system_id":"levelo_inurba_marseille","lat":43.292749,"lon":5.368402,"is_reserved":false,"is_disabled":false,"rental_uris":{"android":"levelo://app?vid=bc4aad92-6dfe-431e-96d7-64e8339c93d4","ios":"levelo://app?vid=bc4aad92-6dfe-431e-96d7-64e8339c93d4"},"vehicle_type_id":"4","last_reported":1723835236,"current_range_meters":30000,"station_id":"ce4bhbp2rcd13ifvqesg","pricing_plan_id":"cebpf4jnsgd1na2vs0mg"},{"bike_id":"27f8d6ae-3bd9-4349-b469-b739cde28692","system_id":"levelo_inurba_marseille","lat":43.2928,"lon":5.36847,"is_reserved":false,"is_disabled":false,"rental_uris":{"android":"levelo://app?vid=27f8d6ae-3bd9-4349-b469-b739cde28692","ios":"levelo://app?vid=27f8d6ae-3bd9-4349-b469-b739cde28692"},"vehicle_type_id":"4","last_reported":1723835236,"current_range_meters":20000,"station_id":"ce4bhbp2rcd13ifvqesg","pricing_plan_id":"cebpf4jnsgd1na2vs0mg"},{"bike_id":"17b9bc88-68f7-4fbb-80dc-3a89d2034699","system_id":"levelo_inurba_marseille","lat":43.29308,"lon":5.37178,"is_reserved":false,"is_disabled":false,"rental_uris":{"android":"levelo://app?vid=17b9bc88-68f7-4fbb-80dc-3a89d2034699","ios":"levelo://app?vid=17b9bc88-68f7-4fbb-80dc-3a89d2034699"},"vehicle_type_id":"4","last_reported":1723835236,"current_range_meters":31200,"station_id":"ce4bgh92rcd13ifvqb40","pricing_plan_id":"cebpf4jnsgd1na2vs0mg"},{"bike_id":"8d2aa36c-09aa-4897-9190-b87b9eff11cb","system_id":"levelo_inurba_marseille","lat":43.292749,"lon":5.368402,"is_reserved":false,"is_disabled":false,"rental_uris":{"android":"levelo://app?vid=8d2aa36c-09aa-4897-9190-b87b9eff11cb","ios":"levelo://app?vid=8d2aa36c-09aa-4897-9190-b87b9eff11cb"},"vehicle_type_id":"4","last_reported":1723835236,"current_range_meters":23600,"station_id":"ce4bhbp2rcd13ifvqesg","pricing_plan_id":"cebpf4jnsgd1na2vs0mg"},{"bike_id":"e48ba5e8-bbb7-46ca-bbaa-3e9dba16dcfd","system_id":"levelo_inurba_marseille","lat":43.292749,"lon":5.368402,"is_reserved":false,"is_disabled":false,"rental_uris":{"android":"levelo://app?vid=e48ba5e8-bbb7-46ca-bbaa-3e9dba16dcfd","ios":"levelo://app?vid=e48ba5e8-bbb7-46ca-bbaa-3e9dba16dcfd"},"vehicle_type_id":"4","last_reported":1723835236,"current_range_meters":9200,"station_id":"ce4bhbp2rcd13ifvqesg","pricing_plan_id":"cebpf4jnsgd1na2vs0mg"},{"bike_id":"4ee806ee-d7d7-43a5-b989-f9ce1b2bfc14","system_id":"levelo_inurba_marseille","lat":43.292749,"lon":5.368402,"is_reserved":false,"is_disabled":false,"rental_uris":{"android":"levelo://app?vid=4ee806ee-d7d7-43a5-b989-f9ce1b2bfc14","ios":"levelo://app?vid=4ee806ee-d7d7-43a5-b989-f9ce1b2bfc14"},"vehicle_type_id":"4","last_reported":1723835236,"current_range_meters":26000,"station_id":"ce4bhbp2rcd13ifvqesg","pricing_plan_id":"cebpf4jnsgd1na2vs0mg"},{"bike_id":"61875bf5-1bd5-42da-bdbc-c13e114234c2","system_id":"levelo_inurba_marseille","lat":43.292749,"lon":5.368402,"is_reserved":false,"is_disabled":false,"rental_uris":{"android":"levelo://app?vid=61875bf5-1bd5-42da-bdbc-c13e114234c2","ios":"levelo://app?vid=61875bf5-1bd5-42da-bdbc-c13e114234c2"},"vehicle_type_id":"4","last_reported":1723835236,"current_range_meters":1600,"station_id":"ce4bhbp2rcd13ifvqesg","pricing_plan_id":"cebpf4jnsgd1na2vs0mg"},{"bike_id":"774c828e-ca58-4c94-bb0d-c307fce41475","system_id":"levelo_inurba_marseille","lat":43.29276,"lon":5.36851,"is_reserved":false,"is_disabled":false,"rental_uris":{"android":"levelo://app?vid=774c828e-ca58-4c94-bb0d-c307fce41475","ios":"levelo://app?vid=774c828e-ca58-4c94-bb0d-c307fce41475"},"vehicle_type_id":"4","last_reported":1723835236,"current_range_meters":30000,"station_id":"","pricing_plan_id":"cebpf4jnsgd1na2vs0mg"},{"bike_id":"5bc27e17-0766-42ab-96dc-924c28867e02","system_id":"levelo_inurba_marseille","lat":43.292749,"lon":5.368402,"is_reserved":false,"is_disabled":false,"rental_uris":{"android":"levelo://app?vid=5bc27e17-0766-42ab-96dc-924c28867e02","ios":"levelo://app?vid=5bc27e17-0766-42ab-96dc-924c28867e02"},"vehicle_type_id":"4","last_reported":1723835236,"current_range_meters":25600,"station_id":"ce4bhbp2rcd13ifvqesg","pricing_plan_id":"cebpf4jnsgd1na2vs0mg"},{"bike_id":"c2433bc7-879f-497e-9c0d-b109c0f9eca9","system_id":"levelo_inurba_marseille","lat":43.292749,"lon":5.368402,"is_reserved":false,"is_disabled":false,"rental_uris":{"android":"levelo://app?vid=c2433bc7-879f-497e-9c0d-b109c0f9eca9","ios":"levelo://app?vid=c2433bc7-879f-497e-9c0d-b109c0f9eca9"},"vehicle_type_id":"4","last_reported":1723835236,"current_range_meters":31200,"station_id":"ce4bhbp2rcd13ifvqesg","pricing_plan_id":"cebpf4jnsgd1na2vs0mg"},{"bike_id":"748d4af5-ae6c-4bed-833f-aac3b5180df4","system_id":"levelo_inurba_marseille","lat":43.29271,"lon":5.36846,"is_reserved":false,"is_disabled":false,"rental_uris":{"android":"levelo://app?vid=748d4af5-ae6c-4bed-833f-aac3b5180df4","ios":"levelo://app?vid=748d4af5-ae6c-4bed-833f-aac3b5180df4"},"vehicle_type_id":"4","last_reported":1723835236,"current_range_meters":4400,"station_id":"ce4bhbp2rcd13ifvqesg","pricing_plan_id":"cebpf4jnsgd1na2vs0mg"},{"bike_id":"e367104f-696c-4b51-a33c-7ece0efaec15","system_id":"levelo_inurba_marseille","lat":43.29297,"lon":5.37166,"is_reserved":false,"is_disabled":false,"rental_uris":{"android":"levelo://app?vid=e367104f-696c-4b51-a33c-7ece0efaec15","ios":"levelo://app?vid=e367104f-696c-4b51-a33c-7ece0efaec15"},"vehicle_type_id":"4","last_reported":1723835236,"current_range_meters":14000,"station_id":"ce4bgh92rcd13ifvqb40","pricing_plan_id":"cebpf4jnsgd1na2vs0mg"},{"bike_id":"8ad56377-0c5b-446b-96fa-e963aa50ec71","system_id":"levelo_inurba_marseille","lat":43.292749,"lon":5.368402,"is_reserved":false,"is_disabled":false,"rental_uris":{"android":"levelo://app?vid=8ad56377-0c5b-446b-96fa-e963aa50ec71","ios":"levelo://app?vid=8ad56377-0c5b-446b-96fa-e963aa50ec71"},"vehicle_type_id":"4","last_reported":1723835236,"current_range_meters":31200,"station_id":"ce4bhbp2rcd13ifvqesg","pricing_plan_id":"cebpf4jnsgd1na2vs0mg"},{"bike_id":"a7dd538a-6efd-41fd-8186-c80e63c43f9c","system_id":"levelo_inurba_marseille","lat":43.292749,"lon":5.368402,"is_reserved":false,"is_disabled":false,"rental_uris":{"android":"levelo://app?vid=a7dd538a-6efd-41fd-8186-c80e63c43f9c","ios":"levelo://app?vid=a7dd538a-6efd-41fd-8186-c80e63c43f9c"},"vehicle_type_id":"4","last_reported":1723835236,"current_range_meters":31200,"station_id":"ce4bhbp2rcd13ifvqesg","pricing_plan_id":"cebpf4jnsgd1na2vs0mg"},{"bike_id":"f38fa803-c2e9-4b17-ad96-bf95f011eb03","system_id":"levelo_inurba_marseille","lat":43.29233,"lon":5.36474,"is_reserved":false,"is_disabled":false,"rental_uris":{"android":"levelo://app?vid=f38fa803-c2e9-4b17-ad96-bf95f011eb03","ios":"levelo://app?vid=f38fa803-c2e9-4b17-ad96-bf95f011eb03"},"vehicle_type_id":"4","last_reported":1723835236,"current_range_meters":11600,"station_id":"","pricing_plan_id":"cebpf4jnsgd1na2vs0mg"},{"bike_id":"4900bc7a-7ce2-4f37-8f0b-64bd6c297de2","system_id":"levelo_inurba_marseille","lat":43.29296,"lon":5.374542,"is_reserved":false,"is_disabled":false,"rental_uris":{"android":"levelo://app?vid=4900bc7a-7ce2-4f37-8f0b-64bd6c297de2","ios":"levelo://app?vid=4900bc7a-7ce2-4f37-8f0b-64bd6c297de2"},"vehicle_type_id":"4","last_reported":1723835236,"current_range_meters":0,"station_id":"ce4bgi12rcd13ifvqb70","pricing_plan_id":"cebpf4jnsgd1na2vs0mg"},{"bike_id":"c179785b-2278-47eb-b6fa-a33dabdd50ea","system_id":"levelo_inurba_marseille","lat":43.30574,"lon":5.39347,"is_reserved":false,"is_disabled":false,"rental_uris":{"android":"levelo://app?vid=c179785b-2278-47eb-b6fa-a33dabdd50ea","ios":"levelo://app?vid=c179785b-2278-47eb-b6fa-a33dabdd50ea"},"vehicle_type_id":"4","last_reported":1723835236,"current_range_meters":12000,"station_id":"ce4bh0p2rcd13ifvqd80","pricing_plan_id":"cebpf4jnsgd1na2vs0mg"},{"bike_id":"2131fe08-86ff-48a3-a50e-bc99805c3601","system_id":"levelo_inurba_marseille","lat":43.30592,"lon":5.39361,"is_reserved":false,"is_disabled":false,"rental_uris":{"android":"levelo://app?vid=2131fe08-86ff-48a3-a50e-bc99805c3601","ios":"levelo://app?vid=2131fe08-86ff-48a3-a50e-bc99805c3601"},"vehicle_type_id":"4","last_reported":1723835236,"current_range_meters":3600,"station_id":"ce4bh0p2rcd13ifvqd80","pricing_plan_id":"cebpf4jnsgd1na2vs0mg"},{"bike_id":"a269af98-2ff2-4b65-8efd-9ad57bf5f225","system_id":"levelo_inurba_marseille","lat":43.30592,"lon":5.39361,"is_reserved":false,"is_disabled":false,"rental_uris":{"android":"levelo://app?vid=a269af98-2ff2-4b65-8efd-9ad57bf5f225","ios":"levelo://app?vid=a269af98-2ff2-4b65-8efd-9ad57bf5f225"},"vehicle_type_id":"4","last_reported":1723835236,"current_range_meters":10000,"station_id":"ce4bh0p2rcd13ifvqd80","pricing_plan_id":"cebpf4jnsgd1na2vs0mg"},{"bike_id":"e47b7b18-bc18-4351-8269-a75a2964e645","system_id":"levelo_inurba_marseille","lat":43.293009,"lon":5.374584,"is_reserved":false,"is_disabled":false,"rental_uris":{"android":"levelo://app?vid=e47b7b18-bc18-4351-8269-a75a2964e645","ios":"levelo://app?vid=e47b7b18-bc18-4351-8269-a75a2964e645"},"vehicle_type_id":"4","last_reported":1723835236,"current_range_meters":21600,"station_id":"ce4bgi12rcd13ifvqb70","pricing_plan_id":"cebpf4jnsgd1na2vs0mg"},{"bike_id":"2a4487bd-b6a5-419f-8442-3511ea804938","system_id":"levelo_inurba_marseille","lat":43.303002,"lon":5.392142,"is_reserved":false,"is_disabled":false,"rental_uris":{"android":"levelo://app?vid=2a4487bd-b6a5-419f-8442-3511ea804938","ios":"levelo://app?vid=2a4487bd-b6a5-419f-8442-3511ea804938"},"vehicle_type_id":"4","last_reported":1723835236,"current_range_meters":24000,"station_id":"ce4bgkh2rcd13ifvqbk0","pricing_plan_id":"cebpf4jnsgd1na2vs0mg"},{"bike_id":"65d7b381-f800-4667-bc05-8d3ce1a75e84","system_id":"levelo_inurba_marseille","lat":43.2936,"lon":5.37835,"is_reserved":false,"is_disabled":false,"rental_uris":{"android":"levelo://app?vid=65d7b381-f800-4667-bc05-8d3ce1a75e84","ios":"levelo://app?vid=65d7b381-f800-4667-bc05-8d3ce1a75e84"},"vehicle_type_id":"4","last_reported":1723835236,"current_range_meters":30400,"station_id":"ce4bgjh2rcd13ifvqbf0","pricing_plan_id":"cebpf4jnsgd1na2vs0mg"},{"bike_id":"8c303f6e-10e1-4806-b731-945ffbcea663","system_id":"levelo_inurba_marseille","lat":43.2936,"lon":5.37835,"is_reserved":false,"is_disabled":false,"rental_uris":{"android":"levelo://app?vid=8c303f6e-10e1-4806-b731-945ffbcea663","ios":"levelo://app?vid=8c303f6e-10e1-4806-b731-945ffbcea663"},"vehicle_type_id":"4","last_reported":1723835236,"current_range_meters":18000,"station_id":"ce4bgjh2rcd13ifvqbf0","pricing_plan_id":"cebpf4jnsgd1na2vs0mg"},{"bike_id":"bda15aa4-65f0-47ff-b604-ab0c9598d083","system_id":"levelo_inurba_marseille","lat":43.29376,"lon":5.37858,"is_reserved":false,"is_disabled":false,"rental_uris":{"android":"levelo://app?vid=bda15aa4-65f0-47ff-b604-ab0c9598d083","ios":"levelo://app?vid=bda15aa4-65f0-47ff-b604-ab0c9598d083"},"vehicle_type_id":"4","last_reported":1723835236,"current_range_meters":0,"station_id":"ce4bgjh2rcd13ifvqbf0","pricing_plan_id":"cebpf4jnsgd1na2vs0mg"},{"bike_id":"5a609353-57a7-4244-b25d-b28188ecc703","system_id":"levelo_inurba_marseille","lat":43.29375,"lon":5.37858,"is_reserved":false,"is_disabled":false,"rental_uris":{"android":"levelo://app?vid=5a609353-57a7-4244-b25d-b28188ecc703","ios":"levelo://app?vid=5a609353-57a7-4244-b25d-b28188ecc703"},"vehicle_type_id":"4","last_reported":1723835236,"current_range_meters":11200,"station_id":"ce4bgjh2rcd13ifvqbf0","pricing_plan_id":"cebpf4jnsgd1na2vs0mg"},{"bike_id":"a11a5efb-44fb-47be-9f78-f6b803567532","system_id":"levelo_inurba_marseille","lat":43.302992,"lon":5.392136,"is_reserved":false,"is_disabled":false,"rental_uris":{"android":"levelo://app?vid=a11a5efb-44fb-47be-9f78-f6b803567532","ios":"levelo://app?vid=a11a5efb-44fb-47be-9f78-f6b803567532"},"vehicle_type_id":"4","last_reported":1723835236,"current_range_meters":9600,"station_id":"ce4bgkh2rcd13ifvqbk0","pricing_plan_id":"cebpf4jnsgd1na2vs0mg"},{"bike_id":"e04e2e8d-f7a1-4b5f-827f-8f995eb60bf2","system_id":"levelo_inurba_marseille","lat":43.302992,"lon":5.392136,"is_reserved":false,"is_disabled":false,"rental_uris":{"android":"levelo://app?vid=e04e2e8d-f7a1-4b5f-827f-8f995eb60bf2","ios":"levelo://app?vid=e04e2e8d-f7a1-4b5f-827f-8f995eb60bf2"},"vehicle_type_id":"4","last_reported":1723835236,"current_range_meters":24800,"station_id":"ce4bgkh2rcd13ifvqbk0","pricing_plan_id":"cebpf4jnsgd1na2vs0mg"},{"bike_id":"e74594c4-ba2d-428f-9b0b-8a32f41c8821","system_id":"levelo_inurba_marseille","lat":43.2923,"lon":5.36067,"is_reserved":false,"is_disabled":false,"rental_uris":{"android":"levelo://app?vid=e74594c4-ba2d-428f-9b0b-8a32f41c8821","ios":"levelo://app?vid=e74594c4-ba2d-428f-9b0b-8a32f41c8821"},"vehicle_type_id":"4","last_reported":1723835236,"current_range_meters":6800,"station_id":"ce4bhbh2rcd13ifvqeqg","pricing_plan_id":"cebpf4jnsgd1na2vs0mg"},{"bike_id":"b393222c-a11b-46c0-8bfe-823cbc5398b6","system_id":"levelo_inurba_marseille","lat":43.292311,"lon":5.360731,"is_reserved":false,"is_disabled":false,"rental_uris":{"android":"levelo://app?vid=b393222c-a11b-46c0-8bfe-823cbc5398b6","ios":"levelo://app?vid=b393222c-a11b-46c0-8bfe-823cbc5398b6"},"vehicle_type_id":"4","last_reported":1723835236,"current_range_meters":29600,"station_id":"ce4bhbh2rcd13ifvqeqg","pricing_plan_id":"cebpf4jnsgd1na2vs0mg"},{"bike_id":"54db9036-3221-4392-9995-3948279349a4","system_id":"levelo_inurba_marseille","lat":43.29227,"lon":5.36062,"is_reserved":false,"is_disabled":false,"rental_uris":{"android":"levelo://app?vid=54db9036-3221-4392-9995-3948279349a4","ios":"levelo://app?vid=54db9036-3221-4392-9995-3948279349a4"},"vehicle_type_id":"4","last_reported":1723835236,"current_range_meters":7200,"station_id":"ce4bhbh2rcd13ifvqeqg","pricing_plan_id":"cebpf4jnsgd1na2vs0mg"},{"bike_id":"634870cf-3d41-43ac-951a-dc3387be93e6","system_id":"levelo_inurba_marseille","lat":43.292275,"lon":5.360512,"is_reserved":false,"is_disabled":false,"rental_uris":{"android":"levelo://app?vid=634870cf-3d41-43ac-951a-dc3387be93e6","ios":"levelo://app?vid=634870cf-3d41-43ac-951a-dc3387be93e6"},"vehicle_type_id":"4","last_reported":1723835236,"current_range_meters":30000,"station_id":"ce4bhbh2rcd13ifvqeqg","pricing_plan_id":"cebpf4jnsgd1na2vs0mg"},{"bike_id":"4b168796-2821-4dea-bec2-377be3da5b0d","system_id":"levelo_inurba_marseille","lat":43.29676,"lon":5.38564,"is_reserved":false,"is_disabled":false,"rental_uris":{"android":"levelo://app?vid=4b168796-2821-4dea-bec2-377be3da5b0d","ios":"levelo://app?vid=4b168796-2821-4dea-bec2-377be3da5b0d"},"vehicle_type_id":"4","last_reported":1723835236,"current_range_meters":30000,"station_id":"","pricing_plan_id":"cebpf4jnsgd1na2vs0mg"},{"bike_id":"3d781265-4e5e-461c-95a4-d703de6424d9","system_id":"levelo_inurba_marseille","lat":43.29225,"lon":5.3606,"is_reserved":false,"is_disabled":false,"rental_uris":{"android":"levelo://app?vid=3d781265-4e5e-461c-95a4-d703de6424d9","ios":"levelo://app?vid=3d781265-4e5e-461c-95a4-d703de6424d9"},"vehicle_type_id":"4","last_reported":1723835236,"current_range_meters":29200,"station_id":"ce4bhbh2rcd13ifvqeqg","pricing_plan_id":"cebpf4jnsgd1na2vs0mg"},{"bike_id":"6dd1fe45-9c57-4d07-bb81-48ec20e8809b","system_id":"levelo_inurba_marseille","lat":43.29224,"lon":5.36066,"is_reserved":false,"is_disabled":false,"rental_uris":{"android":"levelo://app?vid=6dd1fe45-9c57-4d07-bb81-48ec20e8809b","ios":"levelo://app?vid=6dd1fe45-9c57-4d07-bb81-48ec20e8809b"},"vehicle_type_id":"4","last_reported":1723835236,"current_range_meters":26000,"station_id":"ce4bhbh2rcd13ifvqeqg","pricing_plan_id":"cebpf4jnsgd1na2vs0mg"},{"bike_id":"57fe9c78-0b22-488d-abd0-4db4ffc48686","system_id":"levelo_inurba_marseille","lat":43.292253,"lon":5.360557,"is_reserved":false,"is_disabled":false,"rental_uris":{"android":"levelo://app?vid=57fe9c78-0b22-488d-abd0-4db4ffc48686","ios":"levelo://app?vid=57fe9c78-0b22-488d-abd0-4db4ffc48686"},"vehicle_type_id":"4","last_reported":1723835236,"current_range_meters":23200,"station_id":"ce4bhbh2rcd13ifvqeqg","pricing_plan_id":"cebpf4jnsgd1na2vs0mg"},{"bike_id":"a9d2cc4d-6463-4765-84e0-2a2f1bf36e39","system_id":"levelo_inurba_marseille","lat":43.292311,"lon":5.360731,"is_reserved":false,"is_disabled":false,"rental_uris":{"android":"levelo://app?vid=a9d2cc4d-6463-4765-84e0-2a2f1bf36e39","ios":"levelo://app?vid=a9d2cc4d-6463-4765-84e0-2a2f1bf36e39"},"vehicle_type_id":"4","last_reported":1723835236,"current_range_meters":30800,"station_id":"ce4bhbh2rcd13ifvqeqg","pricing_plan_id":"cebpf4jnsgd1na2vs0mg"},{"bike_id":"4e91e5f1-660e-419e-a55d-f2c9cb1b6c3a","system_id":"levelo_inurba_marseille","lat":43.292213,"lon":5.360703,"is_reserved":false,"is_disabled":false,"rental_uris":{"android":"levelo://app?vid=4e91e5f1-660e-419e-a55d-f2c9cb1b6c3a","ios":"levelo://app?vid=4e91e5f1-660e-419e-a55d-f2c9cb1b6c3a"},"vehicle_type_id":"4","last_reported":1723835236,"current_range_meters":13200,"station_id":"ce4bhbh2rcd13ifvqeqg","pricing_plan_id":"cebpf4jnsgd1na2vs0mg"},{"bike_id":"1475b943-5187-47c1-86ca-15bb269078df","system_id":"levelo_inurba_marseille","lat":43.29219,"lon":5.36061,"is_reserved":false,"is_disabled":false,"rental_uris":{"android":"levelo://app?vid=1475b943-5187-47c1-86ca-15bb269078df","ios":"levelo://app?vid=1475b943-5187-47c1-86ca-15bb269078df"},"vehicle_type_id":"4","last_reported":1723835236,"current_range_meters":19200,"station_id":"ce4bhbh2rcd13ifvqeqg","pricing_plan_id":"cebpf4jnsgd1na2vs0mg"},{"bike_id":"3219fe98-bdc0-4308-b782-31075059b072","system_id":"levelo_inurba_marseille","lat":43.29218,"lon":5.360464,"is_reserved":false,"is_disabled":false,"rental_uris":{"android":"levelo://app?vid=3219fe98-bdc0-4308-b782-31075059b072","ios":"levelo://app?vid=3219fe98-bdc0-4308-b782-31075059b072"},"vehicle_type_id":"4","last_reported":1723835236,"current_range_meters":31200,"station_id":"ce4bhbh2rcd13ifvqeqg","pricing_plan_id":"cebpf4jnsgd1na2vs0mg"},{"bike_id":"7d84b894-0bab-4c8b-aefb-eb1134a154a9","system_id":"levelo_inurba_marseille","lat":43.298764,"lon":5.388973,"is_reserved":false,"is_disabled":false,"rental_uris":{"android":"levelo://app?vid=7d84b894-0bab-4c8b-aefb-eb1134a154a9","ios":"levelo://app?vid=7d84b894-0bab-4c8b-aefb-eb1134a154a9"},"vehicle_type_id":"4","last_reported":1723835236,"current_range_meters":800,"station_id":"ce4bh392rcd13ifvqdl0","pricing_plan_id":"cebpf4jnsgd1na2vs0mg"},{"bike_id":"4aa3cbbc-8918-47b6-a743-22c862ba7460","system_id":"levelo_inurba_marseille","lat":43.305994,"lon":5.393687,"is_reserved":false,"is_disabled":false,"rental_uris":{"android":"levelo://app?vid=4aa3cbbc-8918-47b6-a743-22c862ba7460","ios":"levelo://app?vid=4aa3cbbc-8918-47b6-a743-22c862ba7460"},"vehicle_type_id":"4","last_reported":1723835236,"current_range_meters":18800,"station_id":"ce4bh0p2rcd13ifvqd80","pricing_plan_id":"cebpf4jnsgd1na2vs0mg"},{"bike_id":"6ad210b1-8ed2-41e6-8bf3-32f61bddb71c","system_id":"levelo_inurba_marseille","lat":43.291713,"lon":5.371372,"is_reserved":false,"is_disabled":false,"rental_uris":{"android":"levelo://app?vid=6ad210b1-8ed2-41e6-8bf3-32f61bddb71c","ios":"levelo://app?vid=6ad210b1-8ed2-41e6-8bf3-32f61bddb71c"},"vehicle_type_id":"4","last_reported":1723835236,"current_range_meters":25600,"station_id":"ce4bha92rcd13ifvqeh0","pricing_plan_id":"cebpf4jnsgd1na2vs0mg"},{"bike_id":"224d3a68-74c9-4433-b745-192346885c13","system_id":"levelo_inurba_marseille","lat":43.298764,"lon":5.388973,"is_reserved":false,"is_disabled":false,"rental_uris":{"android":"levelo://app?vid=224d3a68-74c9-4433-b745-192346885c13","ios":"levelo://app?vid=224d3a68-74c9-4433-b745-192346885c13"},"vehicle_type_id":"4","last_reported":1723835236,"current_range_meters":27200,"station_id":"ce4bh392rcd13ifvqdl0","pricing_plan_id":"cebpf4jnsgd1na2vs0mg"},{"bike_id":"1095ae45-91b7-414e-ba06-dc0aee6013c7","system_id":"levelo_inurba_marseille","lat":43.298764,"lon":5.388973,"is_reserved":false,"is_disabled":false,"rental_uris":{"android":"levelo://app?vid=1095ae45-91b7-414e-ba06-dc0aee6013c7","ios":"levelo://app?vid=1095ae45-91b7-414e-ba06-dc0aee6013c7"},"vehicle_type_id":"4","last_reported":1723835236,"current_range_meters":11200,"station_id":"ce4bh392rcd13ifvqdl0","pricing_plan_id":"cebpf4jnsgd1na2vs0mg"},{"bike_id":"dfdd3825-4d0e-4650-9551-f7dd27f75570","system_id":"levelo_inurba_marseille","lat":43.292005,"lon":5.357875,"is_reserved":false,"is_disabled":false,"rental_uris":{"android":"levelo://app?vid=dfdd3825-4d0e-4650-9551-f7dd27f75570","ios":"levelo://app?vid=dfdd3825-4d0e-4650-9551-f7dd27f75570"},"vehicle_type_id":"4","last_reported":1723835236,"current_range_meters":24000,"station_id":"ce4bhb12rcd13ifvqel0","pricing_plan_id":"cebpf4jnsgd1na2vs0mg"},{"bike_id":"0fc9b76e-a7e1-49ac-a094-d4b764601291","system_id":"levelo_inurba_marseille","lat":43.29201,"lon":5.35805,"is_reserved":false,"is_disabled":false,"rental_uris":{"android":"levelo://app?vid=0fc9b76e-a7e1-49ac-a094-d4b764601291","ios":"levelo://app?vid=0fc9b76e-a7e1-49ac-a094-d4b764601291"},"vehicle_type_id":"4","last_reported":1723835236,"current_range_meters":8400,"station_id":"ce4bhb12rcd13ifvqel0","pricing_plan_id":"cebpf4jnsgd1na2vs0mg"},{"bike_id":"010c1249-09f6-4c7e-9318-3925cbaff368","system_id":"levelo_inurba_marseille","lat":43.30886,"lon":5.39636,"is_reserved":false,"is_disabled":false,"rental_uris":{"android":"levelo://app?vid=010c1249-09f6-4c7e-9318-3925cbaff368","ios":"levelo://app?vid=010c1249-09f6-4c7e-9318-3925cbaff368"},"vehicle_type_id":"4","last_reported":1723835236,"current_range_meters":31200,"station_id":"ce4bh012rcd13ifvqcv0","pricing_plan_id":"cebpf4jnsgd1na2vs0mg"},{"bike_id":"72d69a4f-9245-41b1-9e0e-c4dbfe415e00","system_id":"levelo_inurba_marseille","lat":43.29193,"lon":5.35803,"is_reserved":false,"is_disabled":false,"rental_uris":{"android":"levelo://app?vid=72d69a4f-9245-41b1-9e0e-c4dbfe415e00","ios":"levelo://app?vid=72d69a4f-9245-41b1-9e0e-c4dbfe415e00"},"vehicle_type_id":"4","last_reported":1723835236,"current_range_meters":27200,"station_id":"ce4bhb12rcd13ifvqel0","pricing_plan_id":"cebpf4jnsgd1na2vs0mg"},{"bike_id":"bba2a96d-843f-49d9-8223-4c74030946fc","system_id":"levelo_inurba_marseille","lat":43.309038,"lon":5.396546,"is_reserved":false,"is_disabled":false,"rental_uris":{"android":"levelo://app?vid=bba2a96d-843f-49d9-8223-4c74030946fc","ios":"levelo://app?vid=bba2a96d-843f-49d9-8223-4c74030946fc"},"vehicle_type_id":"4","last_reported":1723835236,"current_range_meters":30400,"station_id":"ce4bh012rcd13ifvqcv0","pricing_plan_id":"cebpf4jnsgd1na2vs0mg"},{"bike_id":"17e8b79a-00f4-4065-a88e-bc8b510b5998","system_id":"levelo_inurba_marseille","lat":43.313343,"lon":5.396947,"is_reserved":false,"is_disabled":false,"rental_uris":{"android":"levelo://app?vid=17e8b79a-00f4-4065-a88e-bc8b510b5998","ios":"levelo://app?vid=17e8b79a-00f4-4065-a88e-bc8b510b5998"},"vehicle_type_id":"4","last_reported":1723835236,"current_range_meters":29200,"station_id":"ce4bgvp2rcd13ifvqcu0","pricing_plan_id":"cebpf4jnsgd1na2vs0mg"},{"bike_id":"7b0e55e9-3e98-4882-8bb0-c26f760a1c2d","system_id":"levelo_inurba_marseille","lat":43.29189,"lon":5.35791,"is_reserved":false,"is_disabled":false,"rental_uris":{"android":"levelo://app?vid=7b0e55e9-3e98-4882-8bb0-c26f760a1c2d","ios":"levelo://app?vid=7b0e55e9-3e98-4882-8bb0-c26f760a1c2d"},"vehicle_type_id":"4","last_reported":1723835236,"current_range_meters":0,"station_id":"ce4bhb12rcd13ifvqel0","pricing_plan_id":"cebpf4jnsgd1na2vs0mg"},{"bike_id":"5298f9b8-e31e-414e-b262-7c0198bfe329","system_id":"levelo_inurba_marseille","lat":43.29544,"lon":5.38541,"is_reserved":false,"is_disabled":false,"rental_uris":{"android":"levelo://app?vid=5298f9b8-e31e-414e-b262-7c0198bfe329","ios":"levelo://app?vid=5298f9b8-e31e-414e-b262-7c0198bfe329"},"vehicle_type_id":"4","last_reported":1723835236,"current_range_meters":31200,"station_id":"ce4bgih2rcd13ifvqba0","pricing_plan_id":"cebpf4jnsgd1na2vs0mg"},{"bike_id":"db6ebc2d-9045-44d3-bedb-83743d7087fc","system_id":"levelo_inurba_marseille","lat":43.309047,"lon":5.396551,"is_reserved":false,"is_disabled":false,"rental_uris":{"android":"levelo://app?vid=db6ebc2d-9045-44d3-bedb-83743d7087fc","ios":"levelo://app?vid=db6ebc2d-9045-44d3-bedb-83743d7087fc"},"vehicle_type_id":"4","last_reported":1723835236,"current_range_meters":15600,"station_id":"ce4bh012rcd13ifvqcv0","pricing_plan_id":"cebpf4jnsgd1na2vs0mg"},{"bike_id":"b77fa359-6563-4507-a9e0-015a579c9a03","system_id":"levelo_inurba_marseille","lat":43.309038,"lon":5.396546,"is_reserved":false,"is_disabled":false,"rental_uris":{"android":"levelo://app?vid=b77fa359-6563-4507-a9e0-015a579c9a03","ios":"levelo://app?vid=b77fa359-6563-4507-a9e0-015a579c9a03"},"vehicle_type_id":"4","last_reported":1723835236,"current_range_meters":22000,"station_id":"ce4bh012rcd13ifvqcv0","pricing_plan_id":"cebpf4jnsgd1na2vs0mg"},{"bike_id":"c03a7cfb-b74f-4dd1-b552-fa39962c3621","system_id":"levelo_inurba_marseille","lat":43.31324,"lon":5.39707,"is_reserved":false,"is_disabled":false,"rental_uris":{"android":"levelo://app?vid=c03a7cfb-b74f-4dd1-b552-fa39962c3621","ios":"levelo://app?vid=c03a7cfb-b74f-4dd1-b552-fa39962c3621"},"vehicle_type_id":"4","last_reported":1723835236,"current_range_meters":30400,"station_id":"ce4bgvp2rcd13ifvqcu0","pricing_plan_id":"cebpf4jnsgd1na2vs0mg"},{"bike_id":"8110adaa-26a0-4521-87bd-cb9edfb8face","system_id":"levelo_inurba_marseille","lat":43.29529,"lon":5.385581,"is_reserved":false,"is_disabled":false,"rental_uris":{"android":"levelo://app?vid=8110adaa-26a0-4521-87bd-cb9edfb8face","ios":"levelo://app?vid=8110adaa-26a0-4521-87bd-cb9edfb8face"},"vehicle_type_id":"4","last_reported":1723835236,"current_range_meters":25200,"station_id":"ce4bgih2rcd13ifvqba0","pricing_plan_id":"cebpf4jnsgd1na2vs0mg"},{"bike_id":"9acc7243-5de5-4b72-b233-af6a21033e30","system_id":"levelo_inurba_marseille","lat":43.295349,"lon":5.385361,"is_reserved":false,"is_disabled":false,"rental_uris":{"android":"levelo://app?vid=9acc7243-5de5-4b72-b233-af6a21033e30","ios":"levelo://app?vid=9acc7243-5de5-4b72-b233-af6a21033e30"},"vehicle_type_id":"4","last_reported":1723835236,"current_range_meters":6800,"station_id":"ce4bgih2rcd13ifvqba0","pricing_plan_id":"cebpf4jnsgd1na2vs0mg"},{"bike_id":"900996b2-7e31-446a-b112-bdad15c9102c","system_id":"levelo_inurba_marseille","lat":43.29531,"lon":5.38532,"is_reserved":false,"is_disabled":false,"rental_uris":{"android":"levelo://app?vid=900996b2-7e31-446a-b112-bdad15c9102c","ios":"levelo://app?vid=900996b2-7e31-446a-b112-bdad15c9102c"},"vehicle_type_id":"4","last_reported":1723835236,"current_range_meters":18000,"station_id":"ce4bgih2rcd13ifvqba0","pricing_plan_id":"cebpf4jnsgd1na2vs0mg"},{"bike_id":"5d4b0a11-d9b7-403e-ada2-5de2634f33e1","system_id":"levelo_inurba_marseille","lat":43.295349,"lon":5.385411,"is_reserved":false,"is_disabled":false,"rental_uris":{"android":"levelo://app?vid=5d4b0a11-d9b7-403e-ada2-5de2634f33e1","ios":"levelo://app?vid=5d4b0a11-d9b7-403e-ada2-5de2634f33e1"},"vehicle_type_id":"4","last_reported":1723835236,"current_range_meters":31200,"station_id":"ce4bgih2rcd13ifvqba0","pricing_plan_id":"cebpf4jnsgd1na2vs0mg"},{"bike_id":"308c613c-ab29-4ab7-8482-fd980d480389","system_id":"levelo_inurba_marseille","lat":43.29527,"lon":5.38529,"is_reserved":false,"is_disabled":false,"rental_uris":{"android":"levelo://app?vid=308c613c-ab29-4ab7-8482-fd980d480389","ios":"levelo://app?vid=308c613c-ab29-4ab7-8482-fd980d480389"},"vehicle_type_id":"4","last_reported":1723835236,"current_range_meters":14800,"station_id":"ce4bgih2rcd13ifvqba0","pricing_plan_id":"cebpf4jnsgd1na2vs0mg"},{"bike_id":"c83ba061-f7bd-48cd-a066-cc25f99160b2","system_id":"levelo_inurba_marseille","lat":43.29531,"lon":5.38539,"is_reserved":false,"is_disabled":false,"rental_uris":{"android":"levelo://app?vid=c83ba061-f7bd-48cd-a066-cc25f99160b2","ios":"levelo://app?vid=c83ba061-f7bd-48cd-a066-cc25f99160b2"},"vehicle_type_id":"4","last_reported":1723835236,"current_range_meters":19200,"station_id":"ce4bgih2rcd13ifvqba0","pricing_plan_id":"cebpf4jnsgd1na2vs0mg"},{"bike_id":"ac535b22-82de-4778-8b81-9d26800b12fa","system_id":"levelo_inurba_marseille","lat":43.29529,"lon":5.385581,"is_reserved":false,"is_disabled":false,"rental_uris":{"android":"levelo://app?vid=ac535b22-82de-4778-8b81-9d26800b12fa","ios":"levelo://app?vid=ac535b22-82de-4778-8b81-9d26800b12fa"},"vehicle_type_id":"4","last_reported":1723835236,"current_range_meters":21600,"station_id":"ce4bgih2rcd13ifvqba0","pricing_plan_id":"cebpf4jnsgd1na2vs0mg"},{"bike_id":"6355eda8-0a99-4c37-b7b0-31e03536839c","system_id":"levelo_inurba_marseille","lat":43.29533,"lon":5.38546,"is_reserved":false,"is_disabled":false,"rental_uris":{"android":"levelo://app?vid=6355eda8-0a99-4c37-b7b0-31e03536839c","ios":"levelo://app?vid=6355eda8-0a99-4c37-b7b0-31e03536839c"},"vehicle_type_id":"4","last_reported":1723835236,"current_range_meters":12400,"station_id":"ce4bgih2rcd13ifvqba0","pricing_plan_id":"cebpf4jnsgd1na2vs0mg"},{"bike_id":"bbaf6212-6d85-4ae9-b828-2f7c038ea1ef","system_id":"levelo_inurba_marseille","lat":43.29528,"lon":5.38538,"is_reserved":false,"is_disabled":false,"rental_uris":{"android":"levelo://app?vid=bbaf6212-6d85-4ae9-b828-2f7c038ea1ef","ios":"levelo://app?vid=bbaf6212-6d85-4ae9-b828-2f7c038ea1ef"},"vehicle_type_id":"4","last_reported":1723835236,"current_range_meters":16800,"station_id":"ce4bgih2rcd13ifvqba0","pricing_plan_id":"cebpf4jnsgd1na2vs0mg"},{"bike_id":"a92d22fc-a2b2-406a-b4c3-732e3b780fb1","system_id":"levelo_inurba_marseille","lat":43.29529,"lon":5.385581,"is_reserved":false,"is_disabled":false,"rental_uris":{"android":"levelo://app?vid=a92d22fc-a2b2-406a-b4c3-732e3b780fb1","ios":"levelo://app?vid=a92d22fc-a2b2-406a-b4c3-732e3b780fb1"},"vehicle_type_id":"4","last_reported":1723835236,"current_range_meters":21600,"station_id":"ce4bgih2rcd13ifvqba0","pricing_plan_id":"cebpf4jnsgd1na2vs0mg"},{"bike_id":"c2266628-179b-4c66-8835-6f18f37625bd","system_id":"levelo_inurba_marseille","lat":43.29529,"lon":5.38542,"is_reserved":false,"is_disabled":false,"rental_uris":{"android":"levelo://app?vid=c2266628-179b-4c66-8835-6f18f37625bd","ios":"levelo://app?vid=c2266628-179b-4c66-8835-6f18f37625bd"},"vehicle_type_id":"4","last_reported":1723835236,"current_range_meters":31200,"station_id":"ce4bgih2rcd13ifvqba0","pricing_plan_id":"cebpf4jnsgd1na2vs0mg"},{"bike_id":"077affc4-ee76-4f95-9e60-aa2548000bb2","system_id":"levelo_inurba_marseille","lat":43.29532,"lon":5.38549,"is_reserved":false,"is_disabled":false,"rental_uris":{"android":"levelo://app?vid=077affc4-ee76-4f95-9e60-aa2548000bb2","ios":"levelo://app?vid=077affc4-ee76-4f95-9e60-aa2548000bb2"},"vehicle_type_id":"4","last_reported":1723835236,"current_range_meters":21200,"station_id":"ce4bgih2rcd13ifvqba0","pricing_plan_id":"cebpf4jnsgd1na2vs0mg"},{"bike_id":"308ee173-25c0-4494-8d1c-099fda28bc28","system_id":"levelo_inurba_marseille","lat":43.2953,"lon":5.38546,"is_reserved":false,"is_disabled":false,"rental_uris":{"android":"levelo://app?vid=308ee173-25c0-4494-8d1c-099fda28bc28","ios":"levelo://app?vid=308ee173-25c0-4494-8d1c-099fda28bc28"},"vehicle_type_id":"4","last_reported":1723835236,"current_range_meters":9600,"station_id":"ce4bgih2rcd13ifvqba0","pricing_plan_id":"cebpf4jnsgd1na2vs0mg"},{"bike_id":"9e16e9b6-a68c-4f93-a6f2-d638ddaa2c27","system_id":"levelo_inurba_marseille","lat":43.29531,"lon":5.38548,"is_reserved":false,"is_disabled":false,"rental_uris":{"android":"levelo://app?vid=9e16e9b6-a68c-4f93-a6f2-d638ddaa2c27","ios":"levelo://app?vid=9e16e9b6-a68c-4f93-a6f2-d638ddaa2c27"},"vehicle_type_id":"4","last_reported":1723835236,"current_range_meters":31200,"station_id":"ce4bgih2rcd13ifvqba0","pricing_plan_id":"cebpf4jnsgd1na2vs0mg"},{"bike_id":"b47b47c3-fabb-4ad8-95fb-52efb663b447","system_id":"levelo_inurba_marseille","lat":43.29533,"lon":5.38553,"is_reserved":false,"is_disabled":false,"rental_uris":{"android":"levelo://app?vid=b47b47c3-fabb-4ad8-95fb-52efb663b447","ios":"levelo://app?vid=b47b47c3-fabb-4ad8-95fb-52efb663b447"},"vehicle_type_id":"4","last_reported":1723835236,"current_range_meters":5600,"station_id":"ce4bgih2rcd13ifvqba0","pricing_plan_id":"cebpf4jnsgd1na2vs0mg"},