{"last_updated":1739023631,"ttl":60,"version":"2.2","data":{"bikes":[{"bike_id":"4d1cb6c8-6560-49bb-a306-8fb356ee06c2","system_id":"levelo_inurba_marseille","lat":43.2847,"lon":5.38413,"is_reserved":false,"is_disabled":false,"rental_uris":{"android":"levelo://app?vid=4d1cb6c8-6560-49bb-a306-8fb356ee06c2","ios":"levelo://app?vid=4d1cb6c8-6560-49bb-a306-8fb356ee06c2"},"vehicle_type_id":"4","last_reported":1739023631,"current_range_meters":27600,"station_id":"ce4bh512rcd13ifvqe3g","pricing_plan_id":"cebpf4jnsgd1na2vs0mg"},{"bike_id":"8bf9c0d5-b42b-43f3-ac16-58c6303bc32c","system_id":"levelo_inurba_marseille","lat":43.27071,"lon":5.42273,"is_reserved":false,"is_disabled":false,"rental_uris":{"android":"levelo://app?vid=8bf9c0d5-b42b-43f3-ac16-58c6303bc32c","ios":"levelo://app?vid=8bf9c0d5-b42b-43f3-ac16-58c6303bc32c"},"vehicle_type_id":"4","last_reported":1739023631,"current_range_meters":19600,"station_id":"ce4bhk92rcd13ifvqgb0","pricing_plan_id":"cebpf4jnsgd1na2vs0mg"},{"bike_id":"24e6347d-30fc-429d-a054-000bdfd80c76","system_id":"levelo_inurba_marseille","lat":43.28281,"lon":5.35067,"is_reserved":false,"is_disabled":false,"rental_uris":{"android":"levelo://app?vid=24e6347d-30fc-429d-a054-000bdfd80c76","ios":"levelo://app?vid=24e6347d-30fc-429d-a054-000bdfd80c76"},"vehicle_type_id":"4","last_reported":1739023631,"current_range_meters":7200,"station_id":"ce4bhbp2rcd13ifvqerg","pricing_plan_id":"cebpf4jnsgd1na2vs0mg"},{"bike_id":"766888b5-c4fc-4a52-8519-b9f91c1746e2","system_id":"levelo_inurba_marseille","lat":43.29003,"lon":5.35591,"is_reserved":false,"is_disabled":false,"rental_uris":{"android":"levelo://app?vid=766888b5-c4fc-4a52-8519-b9f91c1746e2","ios":"levelo://app?vid=766888b5-c4fc-4a52-8519-b9f91c1746e2"},"vehicle_type_id":"4","last_reported":1739023631,"current_range_meters":39200,"station_id":"ce4bhb92rcd13ifvqen0","pricing_plan_id":"cebpf4jnsgd1na2vs0mg"},{"bike_id":"cfa7f1cc-5150-48ed-843c-f6960ddad1e1","system_id":"levelo_inurba_marseille","lat":43.26478,"lon":5.3956,"is_reserved":false,"is_disabled":true,"rental_uris":{"android":"levelo://app?vid=cfa7f1cc-5150-48ed-843c-f6960ddad1e1","ios":"levelo://app?vid=cfa7f1cc-5150-48ed-843c-f6960ddad1e1"},"vehicle_type_id":"4","last_reported":1739023631,"current_range_meters":14400,"station_id":"ce4bhi12rcd13ifvqfq0","pricing_plan_id":"cebpf4jnsgd1na2vs0mg"},{"bike_id":"5d50f36a-2424-4375-af80-536fab98e351","system_id":"levelo_inurba_marseille","lat":43.26564,"lon":5.38999,"is_reserved":false,"is_disabled":false,"rental_uris":{"android":"levelo://app?vid=5d50f36a-2424-4375-af80-536fab98e351","ios":"levelo://app?vid=5d50f36a-2424-4375-af80-536fab98e351"},"vehicle_type_id":"4","last_reported":1739023631,"current_range_meters":37600,"station_id":"ce4bhe12rcd13ifvqf30","pricing_plan_id":"cebpf4jnsgd1na2vs0mg"},{"bike_id":"e06bad01-5d50-47d2-96c7-a75ef9dc120d","system_id":"levelo_inurba_marseille","lat":43.31198,"lon":5.40398,"is_reserved":false,"is_disabled":false,"rental_uris":{"android":"levelo://app?vid=e06bad01-5d50-47d2-96c7-a75ef9dc120d","ios":"levelo://app?vid=e06bad01-5d50-47d2-96c7-a75ef9dc120d"},"vehicle_type_id":"4","last_reported":1739023631,"current_range_meters":25600,"station_id":"","pricing_plan_id":"cebpf4jnsgd1na2vs0mg"},{"bike_id":"0e654904-f0ad-4cf0-b498-16a7c6707d93","system_id":"levelo_inurba_marseille","lat":43.3064,"lon":5.40098,"is_reserved":false,"is_disabled":false,"rental_uris":{"android":"levelo://app?vid=0e654904-f0ad-4cf0-b498-16a7c6707d93","ios":"levelo://app?vid=0e654904-f0ad-4cf0-b498-16a7c6707d93"},"vehicle_type_id":"4","last_reported":1739023631,"current_range_meters":30800,"station_id":"ce4bh112rcd13ifvqda0","pricing_plan_id":"cebpf4jnsgd1na2vs0mg"},{"bike_id":"f30b4aef-94e2-484e-a1ee-e37de490b73b","system_id":"levelo_inurba_marseille","lat":43.30103,"lon":5.39066,"is_reserved":false,"is_disabled":false,"rental_uris":{"android":"levelo://app?vid=f30b4aef-94e2-484e-a1ee-e37de490b73b","ios":"levelo://app?vid=f30b4aef-94e2-484e-a1ee-e37de490b73b"},"vehicle_type_id":"4","last_reported":1739023631,"current_range_meters":38800,"station_id":"ce4bh192rcd13ifvqdb0","pricing_plan_id":"cebpf4jnsgd1na2vs0mg"},{"bike_id":"7d76beb3-3577-4e70-b961-5c1ce14ac0c3","system_id":"levelo_inurba_marseille","lat":43.27891,"lon":5.38,"is_reserved":false,"is_disabled":false,"rental_uris":{"android":"levelo://app?vid=7d76beb3-3577-4e70-b961-5c1ce14ac0c3","ios":"levelo://app?vid=7d76beb3-3577-4e70-b961-5c1ce14ac0c3"},"vehicle_type_id":"4","last_reported":1739023631,"current_range_meters":38800,"station_id":"ce4bhf92rcd13ifvqf50","pricing_plan_id":"cebpf4jnsgd1na2vs0mg"},{"bike_id":"952ab6ee-c71f-431a-a116-28c771dc3a24","system_id":"levelo_inurba_marseille","lat":43.27945,"lon":5.41056,"is_reserved":false,"is_disabled":true,"rental_uris":{"android":"levelo://app?vid=952ab6ee-c71f-431a-a116-28c771dc3a24","ios":"levelo://app?vid=952ab6ee-c71f-431a-a116-28c771dc3a24"},"vehicle_type_id":"4","last_reported":1739023631,"current_range_meters":400,"station_id":"ce4bhnp2rcd13ifvqh0g","pricing_plan_id":"cebpf4jnsgd1na2vs0mg"},{"bike_id":"5259bd01-faa2-4a2b-9bea-b672a411b048","system_id":"levelo_inurba_marseille","lat":43.26564,"lon":5.39022,"is_reserved":false,"is_disabled":false,"rental_uris":{"android":"levelo://app?vid=5259bd01-faa2-4a2b-9bea-b672a411b048","ios":"levelo://app?vid=5259bd01-faa2-4a2b-9bea-b672a411b048"},"vehicle_type_id":"4","last_reported":1739023631,"current_range_meters":25600,"station_id":"ce4bhe12rcd13ifvqf30","pricing_plan_id":"cebpf4jnsgd1na2vs0mg"},{"bike_id":"bba7d9da-ad21-4bc2-9775-8c2331b73be1","system_id":"levelo_inurba_marseille","lat":43.28706,"lon":5.39994,"is_reserved":false,"is_disabled":false,"rental_uris":{"android":"levelo://app?vid=bba7d9da-ad21-4bc2-9775-8c2331b73be1","ios":"levelo://app?vid=bba7d9da-ad21-4bc2-9775-8c2331b73be1"},"vehicle_type_id":"4","last_reported":1739023631,"current_range_meters":32000,"station_id":"ce4bho92rcd13ifvqh3g","pricing_plan_id":"cebpf4jnsgd1na2vs0mg"},{"bike_id":"b6d48149-17e0-40ef-8e68-c604ce775f96","system_id":"levelo_inurba_marseille","lat":43.29568,"lon":5.37504,"is_reserved":false,"is_disabled":false,"rental_uris":{"android":"levelo://app?vid=b6d48149-17e0-40ef-8e68-c604ce775f96","ios":"levelo://app?vid=b6d48149-17e0-40ef-8e68-c604ce775f96"},"vehicle_type_id":"4","last_reported":1739023631,"current_range_meters":36000,"station_id":"ce4bgh92rcd13ifvqb50","pricing_plan_id":"cebpf4jnsgd1na2vs0mg"},{"bike_id":"241d47f0-a66a-4b87-b14c-766fc86e684a","system_id":"levelo_inurba_marseille","lat":43.28709,"lon":5.3794,"is_reserved":false,"is_disabled":false,"rental_uris":{"android":"levelo://app?vid=241d47f0-a66a-4b87-b14c-766fc86e684a","ios":"levelo://app?vid=241d47f0-a66a-4b87-b14c-766fc86e684a"},"vehicle_type_id":"4","last_reported":1739023631,"current_range_meters":38000,"station_id":"ce4bh9p2rcd13ifvqec0","pricing_plan_id":"cebpf4jnsgd1na2vs0mg"},{"bike_id":"0cc52d5a-7b24-4e9f-a03c-147a7413195a","system_id":"levelo_inurba_marseille","lat":43.2827,"lon":5.35075,"is_reserved":false,"is_disabled":false,"rental_uris":{"android":"levelo://app?vid=0cc52d5a-7b24-4e9f-a03c-147a7413195a","ios":"levelo://app?vid=0cc52d5a-7b24-4e9f-a03c-147a7413195a"},"vehicle_type_id":"4","last_reported":1739023631,"current_range_meters":31200,"station_id":"ce4bhbp2rcd13ifvqerg","pricing_plan_id":"cebpf4jnsgd1na2vs0mg"},{"bike_id":"6d9d58c5-1d9c-4fb1-919b-040768244141","system_id":"levelo_inurba_marseille","lat":43.29059,"lon":5.38152,"is_reserved":false,"is_disabled":false,"rental_uris":{"android":"levelo://app?vid=6d9d58c5-1d9c-4fb1-919b-040768244141","ios":"levelo://app?vid=6d9d58c5-1d9c-4fb1-919b-040768244141"},"vehicle_type_id":"4","last_reported":1739023631,"current_range_meters":19600,"station_id":"ce4bh4p2rcd13ifvqe1g","pricing_plan_id":"cebpf4jnsgd1na2vs0mg"},{"bike_id":"6a3bf5dc-6406-4053-977a-019d33b4193c","system_id":"levelo_inurba_marseille","lat":43.28415,"lon":5.37531,"is_reserved":false,"is_disabled":false,"rental_uris":{"android":"levelo://app?vid=6a3bf5dc-6406-4053-977a-019d33b4193c","ios":"levelo://app?vid=6a3bf5dc-6406-4053-977a-019d33b4193c"},"vehicle_type_id":"4","last_reported":1739023631,"current_range_meters":28400,"station_id":"ce4bh412rcd13ifvqds0","pricing_plan_id":"cebpf4jnsgd1na2vs0mg"},{"bike_id":"3ec97547-e3a5-4275-886a-6884e7909298","system_id":"levelo_inurba_marseille","lat":43.29782,"lon":5.37091,"is_reserved":false,"is_disabled":false,"rental_uris":{"android":"levelo://app?vid=3ec97547-e3a5-4275-886a-6884e7909298","ios":"levelo://app?vid=3ec97547-e3a5-4275-886a-6884e7909298"},"vehicle_type_id":"4","last_reported":1739023631,"current_range_meters":35600,"station_id":"ce4bgop2rcd13ifvqc1g","pricing_plan_id":"cebpf4jnsgd1na2vs0mg"},{"bike_id":"a92bc0c3-079a-47f0-99e6-d552134d15f5","system_id":"levelo_inurba_marseille","lat":43.27568,"lon":5.38424,"is_reserved":false,"is_disabled":false,"rental_uris":{"android":"levelo://app?vid=a92bc0c3-079a-47f0-99e6-d552134d15f5","ios":"levelo://app?vid=a92bc0c3-079a-47f0-99e6-d552134d15f5"},"vehicle_type_id":"4","last_reported":1739023631,"current_range_meters":36000,"station_id":"ce4bhh92rcd13ifvqfi0","pricing_plan_id":"cebpf4jnsgd1na2vs0mg"},{"bike_id":"f81a7597-c5b1-4862-b666-5fb8509293ef","system_id":"levelo_inurba_marseille","lat":43.30599,"lon":5.37232,"is_reserved":false,"is_disabled":false,"rental_uris":{"android":"levelo://app?vid=f81a7597-c5b1-4862-b666-5fb8509293ef","ios":"levelo://app?vid=f81a7597-c5b1-4862-b666-5fb8509293ef"},"vehicle_type_id":"4","last_reported":1739023631,"current_range_meters":29600,"station_id":"ce4bgqh2rcd13ifvqc4g","pricing_plan_id":"cebpf4jnsgd1na2vs0mg"},{"bike_id":"af3b94d5-ac48-4a4f-9581-92e0687b680b","system_id":"levelo_inurba_marseille","lat":43.28723,"lon":5.37444,"is_reserved":false,"is_disabled":false,"rental_uris":{"android":"levelo://app?vid=af3b94d5-ac48-4a4f-9581-92e0687b680b","ios":"levelo://app?vid=af3b94d5-ac48-4a4f-9581-92e0687b680b"},"vehicle_type_id":"4","last_reported":1739023631,"current_range_meters":17200,"station_id":"ce4bh3p2rcd13ifvqdq0","pricing_plan_id":"cebpf4jnsgd1na2vs0mg"},{"bike_id":"cc5be222-f5b9-4564-8357-792e36ef3901","system_id":"levelo_inurba_marseille","lat":43.28028,"lon":5.36943,"is_reserved":false,"is_disabled":false,"rental_uris":{"android":"levelo://app?vid=cc5be222-f5b9-4564-8357-792e36ef3901","ios":"levelo://app?vid=cc5be222-f5b9-4564-8357-792e36ef3901"},"vehicle_type_id":"4","last_reported":1739023631,"current_range_meters":39200,"station_id":"ce4bha12rcd13ifvqef0","pricing_plan_id":"cebpf4jnsgd1na2vs0mg"},{"bike_id":"d55a3b55-5c79-41ea-ba17-f2ec198ffec7","system_id":"levelo_inurba_marseille","lat":43.3053,"lon":5.36723,"is_reserved":false,"is_disabled":false,"rental_uris":{"android":"levelo://app?vid=d55a3b55-5c79-41ea-ba17-f2ec198ffec7","ios":"levelo://app?vid=d55a3b55-5c79-41ea-ba17-f2ec198ffec7"},"vehicle_type_id":"4","last_reported":1739023631,"current_range_meters":6000,"station_id":"ce4bgrp2rcd13ifvqc9g","pricing_plan_id":"cebpf4jnsgd1na2vs0mg"},{"bike_id":"bf813e32-200d-4348-b823-9390acab13fa","system_id":"levelo_inurba_marseille","lat":43.261884,"lon":5.374625,"is_reserved":false,"is_disabled":false,"rental_uris":{"android":"levelo://app?vid=bf813e32-200d-4348-b823-9390acab13fa","ios":"levelo://app?vid=bf813e32-200d-4348-b823-9390acab13fa"},"vehicle_type_id":"4","last_reported":1739023631,"current_range_meters":32000,"station_id":"ce4bhgp2rcd13ifvqfc0","pricing_plan_id":"cebpf4jnsgd1na2vs0mg"},{"bike_id":"c4bfcb5d-3c9a-4f3b-8f58-b692fe227a09","system_id":"levelo_inurba_marseille","lat":43.2998,"lon":5.38492,"is_reserved":false,"is_disabled":false,"rental_uris":{"android":"levelo://app?vid=c4bfcb5d-3c9a-4f3b-8f58-b692fe227a09","ios":"levelo://app?vid=c4bfcb5d-3c9a-4f3b-8f58-b692fe227a09"},"vehicle_type_id":"4","last_reported":1739023631,"current_range_meters":38800,"station_id":"ce4bgj92rcd13ifvqbd0","pricing_plan_id":"cebpf4jnsgd1na2vs0mg"},{"bike_id":"c7214087-f338-4aa0-87d4-4c782ee32a35","system_id":"levelo_inurba_marseille","lat":43.23965,"lon":5.36628,"is_reserved":false,"is_disabled":false,"rental_uris":{"android":"levelo://app?vid=c7214087-f338-4aa0-87d4-4c782ee32a35","ios":"levelo://app?vid=c7214087-f338-4aa0-87d4-4c782ee32a35"},"vehicle_type_id":"4","last_reported":1739023631,"current_range_meters":17200,"station_id":"ce4bhi12rcd13ifvqfp0","pricing_plan_id":"cebpf4jnsgd1na2vs0mg"},{"bike_id":"d25eec51-bb4e-43cd-9e78-510d5472253f","system_id":"levelo_inurba_marseille","lat":43.26212,"lon":5.3744,"is_reserved":false,"is_disabled":true,"rental_uris":{"android":"levelo://app?vid=d25eec51-bb4e-43cd-9e78-510d5472253f","ios":"levelo://app?vid=d25eec51-bb4e-43cd-9e78-510d5472253f"},"vehicle_type_id":"4","last_reported":1739023631,"current_range_meters":0,"station_id":"ce4bhgp2rcd13ifvqfc0","pricing_plan_id":"cebpf4jnsgd1na2vs0mg"},{"bike_id":"783fc2ff-dfa2-4105-91ef-df3343ad21e8","system_id":"levelo_inurba_marseille","lat":43.26939,"lon":5.40262,"is_reserved":false,"is_disabled":false,"rental_uris":{"android":"levelo://app?vid=783fc2ff-dfa2-4105-91ef-df3343ad21e8","ios":"levelo://app?vid=783fc2ff-dfa2-4105-91ef-df3343ad21e8"},"vehicle_type_id":"4","last_reported":1739023631,"current_range_meters":30000,"station_id":"cjm6bp8fraef2m0cb0m0","pricing_plan_id":"cebpf4jnsgd1na2vs0mg"},{"bike_id":"d25bc6a0-30b5-4aa4-922b-fcf83a985386","system_id":"levelo_inurba_marseille","lat":43.23956,"lon":5.36631,"is_reserved":false,"is_disabled":false,"rental_uris":{"android":"levelo://app?vid=d25bc6a0-30b5-4aa4-922b-fcf83a985386","ios":"levelo://app?vid=d25bc6a0-30b5-4aa4-922b-fcf83a985386"},"vehicle_type_id":"4","last_reported":1739023631,"current_range_meters":35200,"station_id":"ce4bhi12rcd13ifvqfp0","pricing_plan_id":"cebpf4jnsgd1na2vs0mg"},{"bike_id":"9c9e59cf-9215-4639-b90b-20c8a5b38757","system_id":"levelo_inurba_marseille","lat":43.28454,"lon":5.35874,"is_reserved":false,"is_disabled":false,"rental_uris":{"android":"levelo://app?vid=9c9e59cf-9215-4639-b90b-20c8a5b38757","ios":"levelo://app?vid=9c9e59cf-9215-4639-b90b-20c8a5b38757"},"vehicle_type_id":"4","last_reported":1739023631,"current_range_meters":28400,"station_id":"ce4bhah2rcd13ifvqei0","pricing_plan_id":"cebpf4jnsgd1na2vs0mg"},{"bike_id":"9b0bc290-2f37-4c56-a9e2-d36f4831b8cf","system_id":"levelo_inurba_marseille","lat":43.29296,"lon":5.37448,"is_reserved":false,"is_disabled":false,"rental_uris":{"android":"levelo://app?vid=9b0bc290-2f37-4c56-a9e2-d36f4831b8cf","ios":"levelo://app?vid=9b0bc290-2f37-4c56-a9e2-d36f4831b8cf"},"vehicle_type_id":"4","last_reported":1739023631,"current_range_meters":33600,"station_id":"ce4bgi12rcd13ifvqb70","pricing_plan_id":"cebpf4jnsgd1na2vs0mg"},{"bike_id":"f6cfcedf-4f75-4647-883d-241833cb05c5","system_id":"levelo_inurba_marseille","lat":43.28354,"lon":5.38109,"is_reserved":false,"is_disabled":false,"rental_uris":{"android":"levelo://app?vid=f6cfcedf-4f75-4647-883d-241833cb05c5","ios":"levelo://app?vid=f6cfcedf-4f75-4647-883d-241833cb05c5"},"vehicle_type_id":"4","last_reported":1739023631,"current_range_meters":38800,"station_id":"ce4bh412rcd13ifvqdr0","pricing_plan_id":"cebpf4jnsgd1na2vs0mg"},{"bike_id":"2d6a2e4c-47bb-4bf8-8e22-1e9c987f8b16","system_id":"levelo_inurba_marseille","lat":43.23962,"lon":5.36636,"is_reserved":false,"is_disabled":false,"rental_uris":{"android":"levelo://app?vid=2d6a2e4c-47bb-4bf8-8e22-1e9c987f8b16","ios":"levelo://app?vid=2d6a2e4c-47bb-4bf8-8e22-1e9c987f8b16"},"vehicle_type_id":"4","last_reported":1739023631,"current_range_meters":11600,"station_id":"ce4bhi12rcd13ifvqfp0","pricing_plan_id":"cebpf4jnsgd1na2vs0mg"},{"bike_id":"d978ca76-598a-4f0f-bc66-3241224ef997","system_id":"levelo_inurba_marseille","lat":43.25867,"lon":5.39902,"is_reserved":false,"is_disabled":false,"rental_uris":{"android":"levelo://app?vid=d978ca76-598a-4f0f-bc66-3241224ef997","ios":"levelo://app?vid=d978ca76-598a-4f0f-bc66-3241224ef997"},"vehicle_type_id":"4","last_reported":1739023631,"current_range_meters":30400,"station_id":"ce4bhl92rcd13ifvqghg","pricing_plan_id":"cebpf4jnsgd1na2vs0mg"},{"bike_id":"7a3cc5cc-9b23-4210-b559-e38fce17dfb2","system_id":"levelo_inurba_marseille","lat":43.25765,"lon":5.41059,"is_reserved":false,"is_disabled":false,"rental_uris":{"android":"levelo://app?vid=7a3cc5cc-9b23-4210-b559-e38fce17dfb2","ios":"levelo://app?vid=7a3cc5cc-9b23-4210-b559-e38fce17dfb2"},"vehicle_type_id":"4","last_reported":1739023631,"current_range_meters":38800,"station_id":"","pricing_plan_id":"cebpf4jnsgd1na2vs0mg"},{"bike_id":"c30965ef-938e-4e04-b1bf-ec639e5d1dc0","system_id":"levelo_inurba_marseille","lat":43.30166,"lon":5.38074,"is_reserved":false,"is_disabled":false,"rental_uris":{"android":"levelo://app?vid=c30965ef-938e-4e04-b1bf-ec639e5d1dc0","ios":"levelo://app?vid=c30965ef-938e-4e04-b1bf-ec639e5d1dc0"},"vehicle_type_id":"4","last_reported":1739023631,"current_range_meters":38800,"station_id":"ce4bgjp2rcd13ifvqbh0","pricing_plan_id":"cebpf4jnsgd1na2vs0mg"},{"bike_id":"098d220b-e449-43ea-8d6d-9fc78e0abad9","system_id":"levelo_inurba_marseille","lat":43.22926,"lon":5.35381,"is_reserved":false,"is_disabled":false,"rental_uris":{"android":"levelo://app?vid=098d220b-e449-43ea-8d6d-9fc78e0abad9","ios":"levelo://app?vid=098d220b-e449-43ea-8d6d-9fc78e0abad9"},"vehicle_type_id":"4","last_reported":1739023631,"current_range_meters":38800,"station_id":"cpo3532slgdg3j2ikp40","pricing_plan_id":"cebpf4jnsgd1na2vs0mg"},{"bike_id":"e7c43878-bcda-4adb-90bd-9b6a610eeed4","system_id":"levelo_inurba_marseille","lat":43.29358,"lon":5.3787,"is_reserved":false,"is_disabled":false,"rental_uris":{"android":"levelo://app?vid=e7c43878-bcda-4adb-90bd-9b6a610eeed4","ios":"levelo://app?vid=e7c43878-bcda-4adb-90bd-9b6a610eeed4"},"vehicle_type_id":"4","last_reported":1739023631,"current_range_meters":38800,"station_id":"ce4bgjh2rcd13ifvqbf0","pricing_plan_id":"cebpf4jnsgd1na2vs0mg"},{"bike_id":"ec6a5c72-7b3e-46b3-8c1c-c21a4b9cec28","system_id":"levelo_inurba_marseille","lat":43.298447,"lon":5.362671,"is_reserved":false,"is_disabled":false,"rental_uris":{"android":"levelo://app?vid=ec6a5c72-7b3e-46b3-8c1c-c21a4b9cec28","ios":"levelo://app?vid=ec6a5c72-7b3e-46b3-8c1c-c21a4b9cec28"},"vehicle_type_id":"4","last_reported":1739023631,"current_range_meters":38800,"station_id":"ce4bgpp2rcd13ifvqc3g","pricing_plan_id":"cebpf4jnsgd1na2vs0mg"},{"bike_id":"25265f47-6177-48e9-b4ee-d5d5e25bf867","system_id":"levelo_inurba_marseille","lat":43.257144,"lon":5.411236,"is_reserved":false,"is_disabled":false,"rental_uris":{"android":"levelo://app?vid=25265f47-6177-48e9-b4ee-d5d5e25bf867","ios":"levelo://app?vid=25265f47-6177-48e9-b4ee-d5d5e25bf867"},"vehicle_type_id":"4","last_reported":1739023631,"current_range_meters":12400,"station_id":"ce4bhkp2rcd13ifvqgd0","pricing_plan_id":"cebpf4jnsgd1na2vs0mg"},{"bike_id":"6a296def-113f-4546-adf9-22a4f31622f6","system_id":"levelo_inurba_marseille","lat":43.29842,"lon":5.36267,"is_reserved":false,"is_disabled":false,"rental_uris":{"android":"levelo://app?vid=6a296def-113f-4546-adf9-22a4f31622f6","ios":"levelo://app?vid=6a296def-113f-4546-adf9-22a4f31622f6"},"vehicle_type_id":"4","last_reported":1739023631,"current_range_meters":7200,"station_id":"ce4bgpp2rcd13ifvqc3g","pricing_plan_id":"cebpf4jnsgd1na2vs0mg"},{"bike_id":"e9b04e32-2b79-42c1-912b-dc8df729c670","system_id":"levelo_inurba_marseille","lat":43.25864,"lon":5.39914,"is_reserved":false,"is_disabled":false,"rental_uris":{"android":"levelo://app?vid=e9b04e32-2b79-42c1-912b-dc8df729c670","ios":"levelo://app?vid=e9b04e32-2b79-42c1-912b-dc8df729c670"},"vehicle_type_id":"4","last_reported":1739023631,"current_range_meters":36400,"station_id":"ce4bhl92rcd13ifvqghg","pricing_plan_id":"cebpf4jnsgd1na2vs0mg"},{"bike_id":"109d8d07-d605-45c4-912d-3e7b38f9a9ae","system_id":"levelo_inurba_marseille","lat":43.24166,"lon":5.36392,"is_reserved":false,"is_disabled":false,"rental_uris":{"android":"levelo://app?vid=109d8d07-d605-45c4-912d-3e7b38f9a9ae","ios":"levelo://app?vid=109d8d07-d605-45c4-912d-3e7b38f9a9ae"},"vehicle_type_id":"4","last_reported":1739023631,"current_range_meters":13600,"station_id":"cpo36qri1sfpv3e86is0","pricing_plan_id":"cebpf4jnsgd1na2vs0mg"},{"bike_id":"25942210-cb49-4e7b-986a-27edd939ad3b","system_id":"levelo_inurba_marseille","lat":43.29003,"lon":5.35613,"is_reserved":false,"is_disabled":false,"rental_uris":{"android":"levelo://app?vid=25942210-cb49-4e7b-986a-27edd939ad3b","ios":"levelo://app?vid=25942210-cb49-4e7b-986a-27edd939ad3b"},"vehicle_type_id":"4","last_reported":1739023631,"current_range_meters":16400,"station_id":"ce4bhb92rcd13ifvqen0","pricing_plan_id":"cebpf4jnsgd1na2vs0mg"},{"bike_id":"988be2bc-e50d-43f8-86ec-b3624e831588","system_id":"levelo_inurba_marseille","lat":43.25822,"lon":5.39418,"is_reserved":false,"is_disabled":false,"rental_uris":{"android":"levelo://app?vid=988be2bc-e50d-43f8-86ec-b3624e831588","ios":"levelo://app?vid=988be2bc-e50d-43f8-86ec-b3624e831588"},"vehicle_type_id":"4","last_reported":1739023631,"current_range_meters":22000,"station_id":"ce4bhip2rcd13ifvqft0","pricing_plan_id":"cebpf4jnsgd1na2vs0mg"},{"bike_id":"2ebd233c-fd15-4f13-9700-c155c053523f","system_id":"levelo_inurba_marseille","lat":43.2593,"lon":5.40873,"is_reserved":false,"is_disabled":true,"rental_uris":{"android":"levelo://app?vid=2ebd233c-fd15-4f13-9700-c155c053523f","ios":"levelo://app?vid=2ebd233c-fd15-4f13-9700-c155c053523f"},"vehicle_type_id":"4","last_reported":1739023631,"current_range_meters":24000,"station_id":"ce4bhm92rcd13ifvqglg","pricing_plan_id":"cebpf4jnsgd1na2vs0mg"},{"bike_id":"df25d083-dc3d-4d26-a527-08faa5c7650e","system_id":"levelo_inurba_marseille","lat":43.28729,"lon":5.36081,"is_reserved":false,"is_disabled":false,"rental_uris":{"android":"levelo://app?vid=df25d083-dc3d-4d26-a527-08faa5c7650e","ios":"levelo://app?vid=df25d083-dc3d-4d26-a527-08faa5c7650e"},"vehicle_type_id":"4","last_reported":1739023631,"current_range_meters":22800,"station_id":"cki0cbj6b192h4jlfktg","pricing_plan_id":"cebpf4jnsgd1na2vs0mg"},{"bike_id":"ef98c295-b824-4629-9494-b8a323d6a153","system_id":"levelo_inurba_marseille","lat":43.29009,"lon":5.38631,"is_reserved":false,"is_disabled":false,"rental_uris":{"android":"levelo://app?vid=ef98c295-b824-4629-9494-b8a323d6a153","ios":"levelo://app?vid=ef98c295-b824-4629-9494-b8a323d6a153"},"vehicle_type_id":"4","last_reported":1739023631,"current_range_meters":37600,"station_id":"ce4bh4p2rcd13ifvqe0g","pricing_plan_id":"cebpf4jnsgd1na2vs0mg"},{"bike_id":"45b52cc0-ea7c-4be6-9e7d-342bbbf518bf","system_id":"levelo_inurba_marseille","lat":43.29802,"lon":5.38102,"is_reserved":false,"is_disabled":false,"rental_uris":{"android":"levelo://app?vid=45b52cc0-ea7c-4be6-9e7d-342bbbf518bf","ios":"levelo://app?vid=45b52cc0-ea7c-4be6-9e7d-342bbbf518bf"},"vehicle_type_id":"4","last_reported":1739023631,"current_range_meters":38800,"station_id":"ce4bgip2rcd13ifvqbb0","pricing_plan_id":"cebpf4jnsgd1na2vs0mg"},{"bike_id":"a2c33e7f-2dc6-432a-b99c-1f7d10c317b1","system_id":"levelo_inurba_marseille","lat":43.24064,"lon":5.37773,"is_reserved":false,"is_disabled":false,"rental_uris":{"android":"levelo://app?vid=a2c33e7f-2dc6-432a-b99c-1f7d10c317b1","ios":"levelo://app?vid=a2c33e7f-2dc6-432a-b99c-1f7d10c317b1"},"vehicle_type_id":"4","last_reported":1739023631,"current_range_meters":26800,"station_id":"ce4bhnp2rcd13ifvqgvg","pricing_plan_id":"cebpf4jnsgd1na2vs0mg"},{"bike_id":"c13ae62e-d5d6-4d3f-b979-0be4fe4644ed","system_id":"levelo_inurba_marseille","lat":43.24661,"lon":5.38158,"is_reserved":false,"is_disabled":false,"rental_uris":{"android":"levelo://app?vid=c13ae62e-d5d6-4d3f-b979-0be4fe4644ed","ios":"levelo://app?vid=c13ae62e-d5d6-4d3f-b979-0be4fe4644ed"},"vehicle_type_id":"4","last_reported":1739023631,"current_range_meters":20000,"station_id":"ce4bhih2rcd13ifvqfr0","pricing_plan_id":"cebpf4jnsgd1na2vs0mg"},{"bike_id":"9c9ab02d-2001-4272-9f35-6fdac2e1b521","system_id":"levelo_inurba_marseille","lat":43.2902,"lon":5.3862,"is_reserved":false,"is_disabled":false,"rental_uris":{"android":"levelo://app?vid=9c9ab02d-2001-4272-9f35-6fdac2e1b521","ios":"levelo://app?vid=9c9ab02d-2001-4272-9f35-6fdac2e1b521"},"vehicle_type_id":"4","last_reported":1739023631,"current_range_meters":36800,"station_id":"ce4bh4p2rcd13ifvqe0g","pricing_plan_id":"cebpf4jnsgd1na2vs0mg"},{"bike_id":"64de7f83-fbc3-416e-9225-22cbc907aa13","system_id":"levelo_inurba_marseille","lat":43.28932,"lon":5.38399,"is_reserved":false,"is_disabled":false,"rental_uris":{"android":"levelo://app?vid=64de7f83-fbc3-416e-9225-22cbc907aa13","ios":"levelo://app?vid=64de7f83-fbc3-416e-9225-22cbc907aa13"},"vehicle_type_id":"4","last_reported":1739023631,"current_range_meters":34800,"station_id":"ce4bh612rcd13ifvqe6g","pricing_plan_id":"cebpf4jnsgd1na2vs0mg"},{"bike_id":"b705f561-dbe8-4485-90d5-75b92e94f765","system_id":"levelo_inurba_marseille","lat":43.27574,"lon":5.38437,"is_reserved":false,"is_disabled":false,"rental_uris":{"android":"levelo://app?vid=b705f561-dbe8-4485-90d5-75b92e94f765","ios":"levelo://app?vid=b705f561-dbe8-4485-90d5-75b92e94f765"},"vehicle_type_id":"4","last_reported":1739023631,"current_range_meters":27600,"station_id":"ce4bhh92rcd13ifvqfi0","pricing_plan_id":"cebpf4jnsgd1na2vs0mg"},{"bike_id":"083915e7-540d-4b10-a92b-cf84ad1b7557","system_id":"levelo_inurba_marseille","lat":43.26195,"lon":5.37914,"is_reserved":false,"is_disabled":false,"rental_uris":{"android":"levelo://app?vid=083915e7-540d-4b10-a92b-cf84ad1b7557","ios":"levelo://app?vid=083915e7-540d-4b10-a92b-cf84ad1b7557"},"vehicle_type_id":"4","last_reported":1739023631,"current_range_meters":5600,"station_id":"ce4bhjp2rcd13ifvqg90","pricing_plan_id":"cebpf4jnsgd1na2vs0mg"},{"bike_id":"dd0ef353-f4d0-4343-891f-decfdefa5c22","system_id":"levelo_inurba_marseille","lat":43.276158,"lon":5.36111,"is_reserved":false,"is_disabled":false,"rental_uris":{"android":"levelo://app?vid=dd0ef353-f4d0-4343-891f-decfdefa5c22","ios":"levelo://app?vid=dd0ef353-f4d0-4343-891f-decfdefa5c22"},"vehicle_type_id":"4","last_reported":1739023631,"current_range_meters":39200,"station_id":"ce4bgj92rcd13ifvqbe0","pricing_plan_id":"cebpf4jnsgd1na2vs0mg"},{"bike_id":"6986b042-d67b-490d-a174-01e67df97cbc","system_id":"levelo_inurba_marseille","lat":43.28415,"lon":5.34985,"is_reserved":false,"is_disabled":false,"rental_uris":{"android":"levelo://app?vid=6986b042-d67b-490d-a174-01e67df97cbc","ios":"levelo://app?vid=6986b042-d67b-490d-a174-01e67df97cbc"},"vehicle_type_id":"4","last_reported":1739023631,"current_range_meters":34800,"station_id":"ce4bhbh2rcd13ifvqepg","pricing_plan_id":"cebpf4jnsgd1na2vs0mg"},{"bike_id":"1026c232-bfb4-4162-9f47-6800f4a5b03a","system_id":"levelo_inurba_marseille","lat":43.31552,"lon":5.37312,"is_reserved":false,"is_disabled":false,"rental_uris":{"android":"levelo://app?vid=1026c232-bfb4-4162-9f47-6800f4a5b03a","ios":"levelo://app?vid=1026c232-bfb4-4162-9f47-6800f4a5b03a"},"vehicle_type_id":"4","last_reported":1739023631,"current_range_meters":35600,"station_id":"","pricing_plan_id":"cebpf4jnsgd1na2vs0mg"},{"bike_id":"89912e32-c5f0-448f-82d2-e236e4d6d653","system_id":"levelo_inurba_marseille","lat":43.27794,"lon":5.39876,"is_reserved":false,"is_disabled":true,"rental_uris":{"android":"levelo://app?vid=89912e32-c5f0-448f-82d2-e236e4d6d653","ios":"levelo://app?vid=89912e32-c5f0-448f-82d2-e236e4d6d653"},"vehicle_type_id":"4","last_reported":1739023631,"current_range_meters":800,"station_id":"","pricing_plan_id":"cebpf4jnsgd1na2vs0mg"},{"bike_id":"207b304f-67de-4b11-9d08-12afa050d2fc","system_id":"levelo_inurba_marseille","lat":43.30546,"lon":5.36553,"is_reserved":false,"is_disabled":false,"rental_uris":{"android":"levelo://app?vid=207b304f-67de-4b11-9d08-12afa050d2fc","ios":"levelo://app?vid=207b304f-67de-4b11-9d08-12afa050d2fc"},"vehicle_type_id":"4","last_reported":1739023631,"current_range_meters":39200,"station_id":"ce4bgs12rcd13ifvqcag","pricing_plan_id":"cebpf4jnsgd1na2vs0mg"},{"bike_id":"4b3b235c-2c73-46c0-b0da-f686e35dfaea","system_id":"levelo_inurba_marseille","lat":43.24394,"lon":5.37052,"is_reserved":false,"is_disabled":false,"rental_uris":{"android":"levelo://app?vid=4b3b235c-2c73-46c0-b0da-f686e35dfaea","ios":"levelo://app?vid=4b3b235c-2c73-46c0-b0da-f686e35dfaea"},"vehicle_type_id":"4","last_reported":1739023631,"current_range_meters":38000,"station_id":"ce4bhhh2rcd13ifvqfk0","pricing_plan_id":"cebpf4jnsgd1na2vs0mg"},{"bike_id":"07b0c9c7-9389-4511-bb38-b45465fdc042","system_id":"levelo_inurba_marseille","lat":43.28461,"lon":5.3589,"is_reserved":false,"is_disabled":false,"rental_uris":{"android":"levelo://app?vid=07b0c9c7-9389-4511-bb38-b45465fdc042","ios":"levelo://app?vid=07b0c9c7-9389-4511-bb38-b45465fdc042"},"vehicle_type_id":"4","last_reported":1739023631,"current_range_meters":39200,"station_id":"ce4bhah2rcd13ifvqei0","pricing_plan_id":"cebpf4jnsgd1na2vs0mg"},{"bike_id":"4a28fe68-2b9c-4f7d-8aa4-735558347ef5","system_id":"levelo_inurba_marseille","lat":43.29881,"lon":5.39734,"is_reserved":false,"is_disabled":false,"rental_uris":{"android":"levelo://app?vid=4a28fe68-2b9c-4f7d-8aa4-735558347ef5","ios":"levelo://app?vid=4a28fe68-2b9c-4f7d-8aa4-735558347ef5"},"vehicle_type_id":"4","last_reported":1739023631,"current_range_meters":24400,"station_id":"ce4bh0h2rcd13ifvqd50","pricing_plan_id":"cebpf4jnsgd1na2vs0mg"},{"bike_id":"25651862-076f-495c-9f56-5b5d71587433","system_id":"levelo_inurba_marseille","lat":43.25461,"lon":5.37699,"is_reserved":false,"is_disabled":false,"rental_uris":{"android":"levelo://app?vid=25651862-076f-495c-9f56-5b5d71587433","ios":"levelo://app?vid=25651862-076f-495c-9f56-5b5d71587433"},"vehicle_type_id":"4","last_reported":1739023631,"current_range_meters":38000,"station_id":"ce4bhh12rcd13ifvqff0","pricing_plan_id":"cebpf4jnsgd1na2vs0mg"},{"bike_id":"fb5a704f-a51b-458c-a6e9-f5586a789b94","system_id":"levelo_inurba_marseille","lat":43.24178,"lon":5.36386,"is_reserved":false,"is_disabled":false,"rental_uris":{"android":"levelo://app?vid=fb5a704f-a51b-458c-a6e9-f5586a789b94","ios":"levelo://app?vid=fb5a704f-a51b-458c-a6e9-f5586a789b94"},"vehicle_type_id":"4","last_reported":1739023631,"current_range_meters":37600,"station_id":"cpo36qri1sfpv3e86is0","pricing_plan_id":"cebpf4jnsgd1na2vs0mg"},{"bike_id":"8cd28fc3-ba41-4cbb-ba83-fa8468de8c62","system_id":"levelo_inurba_marseille","lat":43.30702,"lon":5.40155,"is_reserved":false,"is_disabled":false,"rental_uris":{"android":"levelo://app?vid=8cd28fc3-ba41-4cbb-ba83-fa8468de8c62","ios":"levelo://app?vid=8cd28fc3-ba41-4cbb-ba83-fa8468de8c62"},"vehicle_type_id":"4","last_reported":1739023631,"current_range_meters":6400,"station_id":"","pricing_plan_id":"cebpf4jnsgd1na2vs0mg"},{"bike_id":"59d8fd88-1c5a-4706-9af2-19af4e045626","system_id":"levelo_inurba_marseille","lat":43.27497,"lon":5.42472,"is_reserved":false,"is_disabled":false,"rental_uris":{"android":"levelo://app?vid=59d8fd88-1c5a-4706-9af2-19af4e045626","ios":"levelo://app?vid=59d8fd88-1c5a-4706-9af2-19af4e045626"},"vehicle_type_id":"4","last_reported":1739023631,"current_range_meters":14000,"station_id":"ce4bhn92rcd13ifvqgrg","pricing_plan_id":"cebpf4jnsgd1na2vs0mg"},{"bike_id":"7513da28-59f4-4fdc-b096-bd46e467fd22","system_id":"levelo_inurba_marseille","lat":43.29042,"lon":5.35916,"is_reserved":false,"is_disabled":false,"rental_uris":{"android":"levelo://app?vid=7513da28-59f4-4fdc-b096-bd46e467fd22","ios":"levelo://app?vid=7513da28-59f4-4fdc-b096-bd46e467fd22"},"vehicle_type_id":"4","last_reported":1739023631,"current_range_meters":36800,"station_id":"ce4bha92rcd13ifvqeg0","pricing_plan_id":"cebpf4jnsgd1na2vs0mg"},{"bike_id":"ad1f7fd5-972c-4b3a-8dcd-ba65025a2237","system_id":"levelo_inurba_marseille","lat":43.28372,"lon":5.38628,"is_reserved":false,"is_disabled":false,"rental_uris":{"android":"levelo://app?vid=ad1f7fd5-972c-4b3a-8dcd-ba65025a2237","ios":"levelo://app?vid=ad1f7fd5-972c-4b3a-8dcd-ba65025a2237"},"vehicle_type_id":"4","last_reported":1739023631,"current_range_meters":36800,"station_id":"ce4bh492rcd13ifvqdvg","pricing_plan_id":"cebpf4jnsgd1na2vs0mg"},{"bike_id":"ab54e2d0-4c2c-486a-84c7-811ed9008ddc","system_id":"levelo_inurba_marseille","lat":43.27953,"lon":5.42377,"is_reserved":false,"is_disabled":true,"rental_uris":{"android":"levelo://app?vid=ab54e2d0-4c2c-486a-84c7-811ed9008ddc","ios":"levelo://app?vid=ab54e2d0-4c2c-486a-84c7-811ed9008ddc"},"vehicle_type_id":"4","last_reported":1739023631,"current_range_meters":0,"station_id":"","pricing_plan_id":"cebpf4jnsgd1na2vs0mg"},{"bike_id":"9aaca00a-19bd-4d6a-a162-6cfcbd02fe68","system_id":"levelo_inurba_marseille","lat":43.29244,"lon":5.37505,"is_reserved":false,"is_disabled":false,"rental_uris":{"android":"levelo://app?vid=9aaca00a-19bd-4d6a-a162-6cfcbd02fe68","ios":"levelo://app?vid=9aaca00a-19bd-4d6a-a162-6cfcbd02fe68"},"vehicle_type_id":"4","last_reported":1739023631,"current_range_meters":28000,"station_id":"ce4bha92rcd13ifvqeh0","pricing_plan_id":"cebpf4jnsgd1na2vs0mg"},{"bike_id":"953eee94-0f8b-4e85-a300-87b1bcf0b454","system_id":"levelo_inurba_marseille","lat":43.29708,"lon":5.37685,"is_reserved":false,"is_disabled":false,"rental_uris":{"android":"levelo://app?vid=953eee94-0f8b-4e85-a300-87b1bcf0b454","ios":"levelo://app?vid=953eee94-0f8b-4e85-a300-87b1bcf0b454"},"vehicle_type_id":"4","last_reported":1739023631,"current_range_meters":38000,"station_id":"ce4bgkh2rcd13ifvqbl0","pricing_plan_id":"cebpf4jnsgd1na2vs0mg"},{"bike_id":"63329326-8b90-4338-ba62-2b89bfe9b99b","system_id":"levelo_inurba_marseille","lat":43.29524,"lon":5.39401,"is_reserved":false,"is_disabled":false,"rental_uris":{"android":"levelo://app?vid=63329326-8b90-4338-ba62-2b89bfe9b99b","ios":"levelo://app?vid=63329326-8b90-4338-ba62-2b89bfe9b99b"},"vehicle_type_id":"4","last_reported":1739023631,"current_range_meters":26800,"station_id":"ce4bh292rcd13ifvqdf0","pricing_plan_id":"cebpf4jnsgd1na2vs0mg"},{"bike_id":"ea3c45d5-300b-4422-954e-d1a4ff0ceaaa","system_id":"levelo_inurba_marseille","lat":43.29625,"lon":5.37161,"is_reserved":false,"is_disabled":false,"rental_uris":{"android":"levelo://app?vid=ea3c45d5-300b-4422-954e-d1a4ff0ceaaa","ios":"levelo://app?vid=ea3c45d5-300b-4422-954e-d1a4ff0ceaaa"},"vehicle_type_id":"4","last_reported":1739023631,"current_range_meters":20800,"station_id":"ce4bgnh2rcd13ifvqc0g","pricing_plan_id":"cebpf4jnsgd1na2vs0mg"},{"bike_id":"6835673f-f138-4499-8bdd-83c3f3bccf33","system_id":"levelo_inurba_marseille","lat":43.28001,"lon":5.39989,"is_reserved":false,"is_disabled":false,"rental_uris":{"android":"levelo://app?vid=6835673f-f138-4499-8bdd-83c3f3bccf33","ios":"levelo://app?vid=6835673f-f138-4499-8bdd-83c3f3bccf33"},"vehicle_type_id":"4","last_reported":1739023631,"current_range_meters":34800,"station_id":"ce4bho92rcd13ifvqh4g","pricing_plan_id":"cebpf4jnsgd1na2vs0mg"},{"bike_id":"bb1bab95-412e-41ba-879a-c483b6ec0924","system_id":"levelo_inurba_marseille","lat":43.27822,"lon":5.40717,"is_reserved":false,"is_disabled":false,"rental_uris":{"android":"levelo://app?vid=bb1bab95-412e-41ba-879a-c483b6ec0924","ios":"levelo://app?vid=bb1bab95-412e-41ba-879a-c483b6ec0924"},"vehicle_type_id":"4","last_reported":1739023631,"current_range_meters":12800,"station_id":"ce4bhnh2rcd13ifvqgtg","pricing_plan_id":"cebpf4jnsgd1na2vs0mg"},{"bike_id":"6e358927-ff7d-49ba-8b74-937ec069bd4e","system_id":"levelo_inurba_marseille","lat":43.28622,"lon":5.35103,"is_reserved":false,"is_disabled":false,"rental_uris":{"android":"levelo://app?vid=6e358927-ff7d-49ba-8b74-937ec069bd4e","ios":"levelo://app?vid=6e358927-ff7d-49ba-8b74-937ec069bd4e"},"vehicle_type_id":"4","last_reported":1739023631,"current_range_meters":22000,"station_id":"ce4bhch2rcd13ifvqeug","pricing_plan_id":"cebpf4jnsgd1na2vs0mg"},{"bike_id":"363f89dc-7a31-4716-bf7c-5e8b960f961f","system_id":"levelo_inurba_marseille","lat":43.31079,"lon":5.42408,"is_reserved":false,"is_disabled":false,"rental_uris":{"android":"levelo://app?vid=363f89dc-7a31-4716-bf7c-5e8b960f961f","ios":"levelo://app?vid=363f89dc-7a31-4716-bf7c-5e8b960f961f"},"vehicle_type_id":"4","last_reported":1739023631,"current_range_meters":38400,"station_id":"ce4bhp92rcd13ifvqhag","pricing_plan_id":"cebpf4jnsgd1na2vs0mg"},{"bike_id":"84b6fdf1-d155-429e-a395-0183435176b8","system_id":"levelo_inurba_marseille","lat":43.29192,"lon":5.39331,"is_reserved":false,"is_disabled":false,"rental_uris":{"android":"levelo://app?vid=84b6fdf1-d155-429e-a395-0183435176b8","ios":"levelo://app?vid=84b6fdf1-d155-429e-a395-0183435176b8"},"vehicle_type_id":"4","last_reported":1739023631,"current_range_meters":28400,"station_id":"ce4bh192rcd13ifvqdd0","pricing_plan_id":"cebpf4jnsgd1na2vs0mg"},{"bike_id":"2f5f6acd-38d4-4ce8-bfaf-50d01c7e8e2f","system_id":"levelo_inurba_marseille","lat":43.28704,"lon":5.37404,"is_reserved":false,"is_disabled":false,"rental_uris":{"android":"levelo://app?vid=2f5f6acd-38d4-4ce8-bfaf-50d01c7e8e2f","ios":"levelo://app?vid=2f5f6acd-38d4-4ce8-bfaf-50d01c7e8e2f"},"vehicle_type_id":"4","last_reported":1739023631,"current_range_meters":12400,"station_id":"ce4bh3p2rcd13ifvqdq0","pricing_plan_id":"cebpf4jnsgd1na2vs0mg"},{"bike_id":"a9faae4d-75a6-46b9-b2bf-bee95ee027d1","system_id":"levelo_inurba_marseille","lat":43.29081,"lon":5.38214,"is_reserved":false,"is_disabled":true,"rental_uris":{"android":"levelo://app?vid=a9faae4d-75a6-46b9-b2bf-bee95ee027d1","ios":"levelo://app?vid=a9faae4d-75a6-46b9-b2bf-bee95ee027d1"},"vehicle_type_id":"4","last_reported":1739023631,"current_range_meters":0,"station_id":"ce4bh512rcd13ifvqe2g","pricing_plan_id":"cebpf4jnsgd1na2vs0mg"},{"bike_id":"9b7a8c62-e473-4d07-971b-e94975d6428e","system_id":"levelo_inurba_marseille","lat":43.32367,"lon":5.38873,"is_reserved":false,"is_disabled":false,"rental_uris":{"android":"levelo://app?vid=9b7a8c62-e473-4d07-971b-e94975d6428e","ios":"levelo://app?vid=9b7a8c62-e473-4d07-971b-e94975d6428e"},"vehicle_type_id":"4","last_reported":1739023631,"current_range_meters":14800,"station_id":"ce4bhqp2rcd13ifvqhog","pricing_plan_id":"cebpf4jnsgd1na2vs0mg"},{"bike_id":"70ac1a4f-6f86-42ba-b8c6-93e2a4c4f9f8","system_id":"levelo_inurba_marseille","lat":43.25493,"lon":5.37648,"is_reserved":false,"is_disabled":false,"rental_uris":{"android":"levelo://app?vid=70ac1a4f-6f86-42ba-b8c6-93e2a4c4f9f8","ios":"levelo://app?vid=70ac1a4f-6f86-42ba-b8c6-93e2a4c4f9f8"},"vehicle_type_id":"4","last_reported":1739023631,"current_range_meters":5600,"station_id":"ce4bhh12rcd13ifvqff0","pricing_plan_id":"cebpf4jnsgd1na2vs0mg"},{"bike_id":"1c64ef4e-96fd-4a2a-9d9a-e546fcc323e0","system_id":"levelo_inurba_marseille","lat":43.28729,"lon":5.36096,"is_reserved":false,"is_disabled":false,"rental_uris":{"android":"levelo://app?vid=1c64ef4e-96fd-4a2a-9d9a-e546fcc323e0","ios":"levelo://app?vid=1c64ef4e-96fd-4a2a-9d9a-e546fcc323e0"},"vehicle_type_id":"4","last_reported":1739023631,"current_range_meters":33600,"station_id":"cki0cbj6b192h4jlfktg","pricing_plan_id":"cebpf4jnsgd1na2vs0mg"},{"bike_id":"57e7b8ec-e7c4-4f32-9338-42ae5989dd7c","system_id":"levelo_inurba_marseille","lat":43.31362,"lon":5.38497,"is_reserved":false,"is_disabled":false,"rental_uris":{"android":"levelo://app?vid=57e7b8ec-e7c4-4f32-9338-42ae5989dd7c","ios":"levelo://app?vid=57e7b8ec-e7c4-4f32-9338-42ae5989dd7c"},"vehicle_type_id":"4","last_reported":1739023631,"current_range_meters":38800,"station_id":"ce4bgt92rcd13ifvqcf0","pricing_plan_id":"cebpf4jnsgd1na2vs0mg"},{"bike_id":"b8592e76-a51f-490c-9e3b-ff63d3a6602e","system_id":"levelo_inurba_marseille","lat":43.273093,"lon":5.390915,"is_reserved":false,"is_disabled":false,"rental_uris":{"android":"levelo://app?vid=b8592e76-a51f-490c-9e3b-ff63d3a6602e","ios":"levelo://app?vid=b8592e76-a51f-490c-9e3b-ff63d3a6602e"},"vehicle_type_id":"4","last_reported":1739023631,"current_range_meters":16000,"station_id":"ce4bhgp2rcd13ifvqfe0","pricing_plan_id":"cebpf4jnsgd1na2vs0mg"},{"bike_id":"c315153f-203c-42c6-b08a-7816825b11ba","system_id":"levelo_inurba_marseille","lat":43.29578,"lon":5.37508,"is_reserved":false,"is_disabled":false,"rental_uris":{"android":"levelo://app?vid=c315153f-203c-42c6-b08a-7816825b11ba","ios":"levelo://app?vid=c315153f-203c-42c6-b08a-7816825b11ba"},"vehicle_type_id":"4","last_reported":1739023631,"current_range_meters":31200,"station_id":"ce4bgh92rcd13ifvqb50","pricing_plan_id":"cebpf4jnsgd1na2vs0mg"},{"bike_id":"187375a2-49e4-46d1-b02c-429ac3db4d24","system_id":"levelo_inurba_marseille","lat":43.28623,"lon":5.35084,"is_reserved":false,"is_disabled":false,"rental_uris":{"android":"levelo://app?vid=187375a2-49e4-46d1-b02c-429ac3db4d24","ios":"levelo://app?vid=187375a2-49e4-46d1-b02c-429ac3db4d24"},"vehicle_type_id":"4","last_reported":1739023631,"current_range_meters":27200,"station_id":"ce4bhch2rcd13ifvqeug","pricing_plan_id":"cebpf4jnsgd1na2vs0mg"},{"bike_id":"cfbeed78-28f4-41ec-826b-ee5f5ae8c7cd","system_id":"levelo_inurba_marseille","lat":43.29183,"lon":5.358,"is_reserved":false,"is_disabled":false,"rental_uris":{"android":"levelo://app?vid=cfbeed78-28f4-41ec-826b-ee5f5ae8c7cd","ios":"levelo://app?vid=cfbeed78-28f4-41ec-826b-ee5f5ae8c7cd"},"vehicle_type_id":"4","last_reported":1739023631,"current_range_meters":37600,"station_id":"ce4bhb12rcd13ifvqel0","pricing_plan_id":"cebpf4jnsgd1na2vs0mg"},{"bike_id":"0ccae692-16fa-48e3-88e0-236b5491d838","system_id":"levelo_inurba_marseille","lat":43.33721,"lon":5.39182,"is_reserved":false,"is_disabled":false,"rental_uris":{"android":"levelo://app?vid=0ccae692-16fa-48e3-88e0-236b5491d838","ios":"levelo://app?vid=0ccae692-16fa-48e3-88e0-236b5491d838"},"vehicle_type_id":"4","last_reported":1739023631,"current_range_meters":38800,"station_id":"ce4bhr92rcd13ifvqhsg","pricing_plan_id":"cebpf4jnsgd1na2vs0mg"},{"bike_id":"4e53624a-1341-4269-a631-c3beec6255ac","system_id":"levelo_inurba_marseille","lat":43.31324,"lon":5.39693,"is_reserved":false,"is_disabled":false,"rental_uris":{"android":"levelo://app?vid=4e53624a-1341-4269-a631-c3beec6255ac","ios":"levelo://app?vid=4e53624a-1341-4269-a631-c3beec6255ac"},"vehicle_type_id":"4","last_reported":1739023631,"current_range_meters":29600,"station_id":"ce4bgvp2rcd13ifvqcu0","pricing_plan_id":"cebpf4jnsgd1na2vs0mg"},{"bike_id":"1cfe21f7-6157-4ffb-a163-41af87f64a95","system_id":"levelo_inurba_marseille","lat":43.28449,"lon":5.35893,"is_reserved":false,"is_disabled":false,"rental_uris":{"android":"levelo://app?vid=1cfe21f7-6157-4ffb-a163-41af87f64a95","ios":"levelo://app?vid=1cfe21f7-6157-4ffb-a163-41af87f64a95"},"vehicle_type_id":"4","last_reported":1739023631,"current_range_meters":39200,"station_id":"ce4bhah2rcd13ifvqei0","pricing_plan_id":"cebpf4jnsgd1na2vs0mg"},{"bike_id":"564bbd0d-36a4-4512-9b9b-36e30acf9dde","system_id":"levelo_inurba_marseille","lat":43.29626,"lon":5.40601,"is_reserved":false,"is_disabled":false,"rental_uris":{"android":"levelo://app?vid=564bbd0d-36a4-4512-9b9b-36e30acf9dde","ios":"levelo://app?vid=564bbd0d-36a4-4512-9b9b-36e30acf9dde"},"vehicle_type_id":"4","last_reported":1739023631,"current_range_meters":35600,"station_id":"ce4bh0h2rcd13ifvqd60","pricing_plan_id":"cebpf4jnsgd1na2vs0mg"},{"bike_id":"808e5e5d-6893-4a55-bcaf-3f65d5dc8266","system_id":"levelo_inurba_marseille","lat":43.303,"lon":5.39211,"is_reserved":false,"is_disabled":false,"rental_uris":{"android":"levelo://app?vid=808e5e5d-6893-4a55-bcaf-3f65d5dc8266","ios":"levelo://app?vid=808e5e5d-6893-4a55-bcaf-3f65d5dc8266"},"vehicle_type_id":"4","last_reported":1739023631,"current_range_meters":32800,"station_id":"ce4bgkh2rcd13ifvqbk0","pricing_plan_id":"cebpf4jnsgd1na2vs0mg"},{"bike_id":"699022b6-d5a1-4463-a97b-9e5ccef66594","system_id":"levelo_inurba_marseille","lat":43.25097,"lon":5.40346,"is_reserved":false,"is_disabled":false,"rental_uris":{"android":"levelo://app?vid=699022b6-d5a1-4463-a97b-9e5ccef66594","ios":"levelo://app?vid=699022b6-d5a1-4463-a97b-9e5ccef66594"},"vehicle_type_id":"4","last_reported":1739023631,"current_range_meters":10800,"station_id":"ce4bhlh2rcd13ifvqgig","pricing_plan_id":"cebpf4jnsgd1na2vs0mg"},{"bike_id":"c1306b40-4db6-459f-9d01-c8d070fdde97","system_id":"levelo_inurba_marseille","lat":43.28456,"lon":5.359,"is_reserved":false,"is_disabled":false,"rental_uris":{"android":"levelo://app?vid=c1306b40-4db6-459f-9d01-c8d070fdde97","ios":"levelo://app?vid=c1306b40-4db6-459f-9d01-c8d070fdde97"},"vehicle_type_id":"4","last_reported":1739023631,"current_range_meters":19200,"station_id":"ce4bhah2rcd13ifvqei0","pricing_plan_id":"cebpf4jnsgd1na2vs0mg"},{"bike_id":"38fdb758-c3be-4256-aad6-df19b41d8d0a","system_id":"levelo_inurba_marseille","lat":43.31748,"lon":5.39023,"is_reserved":false,"is_disabled":false,"rental_uris":{"android":"levelo://app?vid=38fdb758-c3be-4256-aad6-df19b41d8d0a","ios":"levelo://app?vid=38fdb758-c3be-4256-aad6-df19b41d8d0a"},"vehicle_type_id":"4","last_reported":1739023631,"current_range_meters":37600,"station_id":"ce4bhqp2rcd13ifvqhng","pricing_plan_id":"cebpf4jnsgd1na2vs0mg"},{"bike_id":"dbdc7e82-b039-4b7c-8f2b-8ec3f7141799","system_id":"levelo_inurba_marseille","lat":43.308,"lon":5.38154,"is_reserved":false,"is_disabled":false,"rental_uris":{"android":"levelo://app?vid=dbdc7e82-b039-4b7c-8f2b-8ec3f7141799","ios":"levelo://app?vid=dbdc7e82-b039-4b7c-8f2b-8ec3f7141799"},"vehicle_type_id":"4","last_reported":1739023631,"current_range_meters":14000,"station_id":"ce4bgt12rcd13ifvqce0","pricing_plan_id":"cebpf4jnsgd1na2vs0mg"},{"bike_id":"2f8eef04-cad5-4822-8fcb-54d7b3ee01f7","system_id":"levelo_inurba_marseille","lat":43.29604,"lon":5.381,"is_reserved":false,"is_disabled":false,"rental_uris":{"android":"levelo://app?vid=2f8eef04-cad5-4822-8fcb-54d7b3ee01f7","ios":"levelo://app?vid=2f8eef04-cad5-4822-8fcb-54d7b3ee01f7"},"vehicle_type_id":"4","last_reported":1739023631,"current_range_meters":32400,"station_id":"ce4bgl12rcd13ifvqbo0","pricing_plan_id":"cebpf4jnsgd1na2vs0mg"},{"bike_id":"ad59738c-11cb-4c5a-95ec-7f655f67358d","system_id":"levelo_inurba_marseille","lat":43.29373,"lon":5.37849,"is_reserved":false,"is_disabled":false,"rental_uris":{"android":"levelo://app?vid=ad59738c-11cb-4c5a-95ec-7f655f67358d","ios":"levelo://app?vid=ad59738c-11cb-4c5a-95ec-7f655f67358d"},"vehicle_type_id":"4","last_reported":1739023631,"current_range_meters":38000,"station_id":"ce4bgjh2rcd13ifvqbf0","pricing_plan_id":"cebpf4jnsgd1na2vs0mg"},{"bike_id":"4a4bc646-87ff-4b69-b549-9851f3bf84ae","system_id":"levelo_inurba_marseille","lat":43.28419,"lon":5.37513,"is_reserved":false,"is_disabled":false,"rental_uris":{"android":"levelo://app?vid=4a4bc646-87ff-4b69-b549-9851f3bf84ae","ios":"levelo://app?vid=4a4bc646-87ff-4b69-b549-9851f3bf84ae"},"vehicle_type_id":"4","last_reported":1739023631,"current_range_meters":26000,"station_id":"ce4bh412rcd13ifvqds0","pricing_plan_id":"cebpf4jnsgd1na2vs0mg"},{"bike_id":"f67b7531-6c63-4f46-a9d4-4fdf588facb0","system_id":"levelo_inurba_marseille","lat":43.27874,"lon":5.40617,"is_reserved":false,"is_disabled":true,"rental_uris":{"android":"levelo://app?vid=f67b7531-6c63-4f46-a9d4-4fdf588facb0","ios":"levelo://app?vid=f67b7531-6c63-4f46-a9d4-4fdf588facb0"},"vehicle_type_id":"4","last_reported":1739023631,"current_range_meters":0,"station_id":"","pricing_plan_id":"cebpf4jnsgd1na2vs0mg"},{"bike_id":"ccc0d99a-4f06-4847-88ea-bfbf26a9a708","system_id":"levelo_inurba_marseille","lat":43.27374,"lon":5.36257,"is_reserved":false,"is_disabled":false,"rental_uris":{"android":"levelo://app?vid=ccc0d99a-4f06-4847-88ea-bfbf26a9a708","ios":"levelo://app?vid=ccc0d99a-4f06-4847-88ea-bfbf26a9a708"},"vehicle_type_id":"4","last_reported":1739023631,"current_range_meters":38800,"station_id":"ce4bhbh2rcd13ifvqeo0","pricing_plan_id":"cebpf4jnsgd1na2vs0mg"},{"bike_id":"ee488e03-078b-4eea-b900-057f5682d581","system_id":"levelo_inurba_marseille","lat":43.28865,"lon":5.39319,"is_reserved":false,"is_disabled":false,"rental_uris":{"android":"levelo://app?vid=ee488e03-078b-4eea-b900-057f5682d581","ios":"levelo://app?vid=ee488e03-078b-4eea-b900-057f5682d581"},"vehicle_type_id":"4","last_reported":1739023631,"current_range_meters":2800,"station_id":"ce4bh2p2rcd13ifvqdi0","pricing_plan_id":"cebpf4jnsgd1na2vs0mg"},{"bike_id":"a1ff6a73-36b2-4a61-a88f-8f0cc16371c7","system_id":"levelo_inurba_marseille","lat":43.262169,"lon":5.404321,"is_reserved":false,"is_disabled":false,"rental_uris":{"android":"levelo://app?vid=a1ff6a73-36b2-4a61-a88f-8f0cc16371c7","ios":"levelo://app?vid=a1ff6a73-36b2-4a61-a88f-8f0cc16371c7"},"vehicle_type_id":"4","last_reported":1739023631,"current_range_meters":33200,"station_id":"ce4bhmh2rcd13ifvqgmg","pricing_plan_id":"cebpf4jnsgd1na2vs0mg"},{"bike_id":"5a2d5dfd-03ec-4fe4-9110-6cf9df6cb751","system_id":"levelo_inurba_marseille","lat":43.28712,"lon":5.37958,"is_reserved":false,"is_disabled":false,"rental_uris":{"android":"levelo://app?vid=5a2d5dfd-03ec-4fe4-9110-6cf9df6cb751","ios":"levelo://app?vid=5a2d5dfd-03ec-4fe4-9110-6cf9df6cb751"},"vehicle_type_id":"4","last_reported":1739023631,"current_range_meters":22800,"station_id":"ce4bh9p2rcd13ifvqec0","pricing_plan_id":"cebpf4jnsgd1na2vs0mg"},{"bike_id":"359b6247-0c56-4066-9203-ed98a21ba5b2","system_id":"levelo_inurba_marseille","lat":43.27572,"lon":5.38437,"is_reserved":false,"is_disabled":false,"rental_uris":{"android":"levelo://app?vid=359b6247-0c56-4066-9203-ed98a21ba5b2","ios":"levelo://app?vid=359b6247-0c56-4066-9203-ed98a21ba5b2"},"vehicle_type_id":"4","last_reported":1739023631,"current_range_meters":38800,"station_id":"ce4bhh92rcd13ifvqfi0","pricing_plan_id":"cebpf4jnsgd1na2vs0mg"},{"bike_id":"114998f0-dfb0-494f-8117-273cb0fabd56","system_id":"levelo_inurba_marseille","lat":43.23174,"lon":5.39987,"is_reserved":false,"is_disabled":false,"rental_uris":{"android":"levelo://app?vid=114998f0-dfb0-494f-8117-273cb0fabd56","ios":"levelo://app?vid=114998f0-dfb0-494f-8117-273cb0fabd56"},"vehicle_type_id":"4","last_reported":1739023631,"current_range_meters":38000,"station_id":"ce4bhn12rcd13ifvqgqg","pricing_plan_id":"cebpf4jnsgd1na2vs0mg"},{"bike_id":"93ca9129-1d81-456f-957f-74e903ca60ff","system_id":"levelo_inurba_marseille","lat":43.2847,"lon":5.38447,"is_reserved":false,"is_disabled":false,"rental_uris":{"android":"levelo://app?vid=93ca9129-1d81-456f-957f-74e903ca60ff","ios":"levelo://app?vid=93ca9129-1d81-456f-957f-74e903ca60ff"},"vehicle_type_id":"4","last_reported":1739023631,"current_range_meters":20000,"station_id":"ce4bh512rcd13ifvqe3g","pricing_plan_id":"cebpf4jnsgd1na2vs0mg"},{"bike_id":"f82744c2-2c37-4002-8e02-ee92382c8f25","system_id":"levelo_inurba_marseille","lat":43.29185,"lon":5.35805,"is_reserved":false,"is_disabled":false,"rental_uris":{"android":"levelo://app?vid=f82744c2-2c37-4002-8e02-ee92382c8f25","ios":"levelo://app?vid=f82744c2-2c37-4002-8e02-ee92382c8f25"},"vehicle_type_id":"4","last_reported":1739023631,"current_range_meters":37600,"station_id":"ce4bhb12rcd13ifvqel0","pricing_plan_id":"cebpf4jnsgd1na2vs0mg"},{"bike_id":"42b8cda4-9970-4d32-a35e-ed81c8048864","system_id":"levelo_inurba_marseille","lat":43.29264,"lon":5.38447,"is_reserved":false,"is_disabled":false,"rental_uris":{"android":"levelo://app?vid=42b8cda4-9970-4d32-a35e-ed81c8048864","ios":"levelo://app?vid=42b8cda4-9970-4d32-a35e-ed81c8048864"},"vehicle_type_id":"4","last_reported":1739023631,"current_range_meters":33600,"station_id":"ce4bh692rcd13ifvqea0","pricing_plan_id":"cebpf4jnsgd1na2vs0mg"},{"bike_id":"eeb1626b-d9a7-4181-8530-ac28fa96e047","system_id":"levelo_inurba_marseille","lat":43.29032,"lon":5.35924,"is_reserved":false,"is_disabled":false,"rental_uris":{"android":"levelo://app?vid=eeb1626b-d9a7-4181-8530-ac28fa96e047","ios":"levelo://app?vid=eeb1626b-d9a7-4181-8530-ac28fa96e047"},"vehicle_type_id":"4","last_reported":1739023631,"current_range_meters":36000,"station_id":"ce4bha92rcd13ifvqeg0","pricing_plan_id":"cebpf4jnsgd1na2vs0mg"},{"bike_id":"8a90b910-99fc-4752-b47c-719169678a0f","system_id":"levelo_inurba_marseille","lat":43.279993,"lon":5.416637,"is_reserved":false,"is_disabled":false,"rental_uris":{"android":"levelo://app?vid=8a90b910-99fc-4752-b47c-719169678a0f","ios":"levelo://app?vid=8a90b910-99fc-4752-b47c-719169678a0f"},"vehicle_type_id":"4","last_reported":1739023631,"current_range_meters":27200,"station_id":"ce4bho12rcd13ifvqh1g","pricing_plan_id":"cebpf4jnsgd1na2vs0mg"},{"bike_id":"9b91a59d-6795-4db9-91b1-d43b50693a9d","system_id":"levelo_inurba_marseille","lat":43.30555,"lon":5.36541,"is_reserved":false,"is_disabled":false,"rental_uris":{"android":"levelo://app?vid=9b91a59d-6795-4db9-91b1-d43b50693a9d","ios":"levelo://app?vid=9b91a59d-6795-4db9-91b1-d43b50693a9d"},"vehicle_type_id":"4","last_reported":1739023631,"current_range_meters":26000,"station_id":"ce4bgs12rcd13ifvqcag","pricing_plan_id":"cebpf4jnsgd1na2vs0mg"},{"bike_id":"e2e72ce7-66d9-4b45-bc1f-3b645701a43b","system_id":"levelo_inurba_marseille","lat":43.23193,"lon":5.35551,"is_reserved":false,"is_disabled":false,"rental_uris":{"android":"levelo://app?vid=e2e72ce7-66d9-4b45-bc1f-3b645701a43b","ios":"levelo://app?vid=e2e72ce7-66d9-4b45-bc1f-3b645701a43b"},"vehicle_type_id":"4","last_reported":1739023631,"current_range_meters":15200,"station_id":"ce4bhu92rcd13ifvqi70","pricing_plan_id":"cebpf4jnsgd1na2vs0mg"},{"bike_id":"d7fb528f-e248-4c17-9c2b-690d31c1c60a","system_id":"levelo_inurba_marseille","lat":43.30524,"lon":5.3843,"is_reserved":false,"is_disabled":false,"rental_uris":{"android":"levelo://app?vid=d7fb528f-e248-4c17-9c2b-690d31c1c60a","ios":"levelo://app?vid=d7fb528f-e248-4c17-9c2b-690d31c1c60a"},"vehicle_type_id":"4","last_reported":1739023631,"current_range_meters":37600,"station_id":"ce4bgg92rcd13ifvqb30","pricing_plan_id":"cebpf4jnsgd1na2vs0mg"},{"bike_id":"f1bbac45-5b32-4b97-b4ef-d7ee065546b1","system_id":"levelo_inurba_marseille","lat":43.26039,"lon":5.37559,"is_reserved":false,"is_disabled":false,"rental_uris":{"android":"levelo://app?vid=f1bbac45-5b32-4b97-b4ef-d7ee065546b1","ios":"levelo://app?vid=f1bbac45-5b32-4b97-b4ef-d7ee065546b1"},"vehicle_type_id":"4","last_reported":1739023631,"current_range_meters":39200,"station_id":"ce4bhgh2rcd13ifvqfa0","pricing_plan_id":"cebpf4jnsgd1na2vs0mg"},{"bike_id":"143b7b4c-f164-483d-abd1-61267ecf2d4d","system_id":"levelo_inurba_marseille","lat":43.28508,"lon":5.38416,"is_reserved":false,"is_disabled":false,"rental_uris":{"android":"levelo://app?vid=143b7b4c-f164-483d-abd1-61267ecf2d4d","ios":"levelo://app?vid=143b7b4c-f164-483d-abd1-61267ecf2d4d"},"vehicle_type_id":"4","last_reported":1739023631,"current_range_meters":38800,"station_id":"ce4bh512rcd13ifvqe3g","pricing_plan_id":"cebpf4jnsgd1na2vs0mg"},{"bike_id":"97956118-a7cf-48b3-809d-13e23d102e43","system_id":"levelo_inurba_marseille","lat":43.29907,"lon":5.37477,"is_reserved":false,"is_disabled":false,"rental_uris":{"android":"levelo://app?vid=97956118-a7cf-48b3-809d-13e23d102e43","ios":"levelo://app?vid=97956118-a7cf-48b3-809d-13e23d102e43"},"vehicle_type_id":"4","last_reported":1739023631,"current_range_meters":38400,"station_id":"ce4bgjh2rcd13ifvqbg0","pricing_plan_id":"cebpf4jnsgd1na2vs0mg"},{"bike_id":"22219a69-ff6e-4128-9c66-6e0ba4f7f3c6","system_id":"levelo_inurba_marseille","lat":43.26204,"lon":5.37927,"is_reserved":false,"is_disabled":true,"rental_uris":{"android":"levelo://app?vid=22219a69-ff6e-4128-9c66-6e0ba4f7f3c6","ios":"levelo://app?vid=22219a69-ff6e-4128-9c66-6e0ba4f7f3c6"},"vehicle_type_id":"4","last_reported":1739023631,"current_range_meters":0,"station_id":"ce4bhjp2rcd13ifvqg90","pricing_plan_id":"cebpf4jnsgd1na2vs0mg"},{"bike_id":"0210ef2b-3c42-48a3-9f62-3093e02a303a","system_id":"levelo_inurba_marseille","lat":43.29044,"lon":5.39973,"is_reserved":false,"is_disabled":false,"rental_uris":{"android":"levelo://app?vid=0210ef2b-3c42-48a3-9f62-3093e02a303a","ios":"levelo://app?vid=0210ef2b-3c42-48a3-9f62-3093e02a303a"},"vehicle_type_id":"4","last_reported":1739023631,"current_range_meters":38400,"station_id":"ce4bh392rcd13ifvqdm0","pricing_plan_id":"cebpf4jnsgd1na2vs0mg"},{"bike_id":"3c434100-0ec7-4174-be49-81df709efba1","system_id":"levelo_inurba_marseille","lat":43.26516,"lon":5.39535,"is_reserved":false,"is_disabled":false,"rental_uris":{"android":"levelo://app?vid=3c434100-0ec7-4174-be49-81df709efba1","ios":"levelo://app?vid=3c434100-0ec7-4174-be49-81df709efba1"},"vehicle_type_id":"4","last_reported":1739023631,"current_range_meters":24400,"station_id":"ce4bhi12rcd13ifvqfq0","pricing_plan_id":"cebpf4jnsgd1na2vs0mg"},{"bike_id":"c6fc4b4a-5347-4905-8d96-67ea4d004656","system_id":"levelo_inurba_marseille","lat":43.231993,"lon":5.355574,"is_reserved":false,"is_disabled":false,"rental_uris":{"android":"levelo://app?vid=c6fc4b4a-5347-4905-8d96-67ea4d004656","ios":"levelo://app?vid=c6fc4b4a-5347-4905-8d96-67ea4d004656"},"vehicle_type_id":"4","last_reported":1739023631,"current_range_meters":7200,"station_id":"ce4bhu92rcd13ifvqi70","pricing_plan_id":"cebpf4jnsgd1na2vs0mg"},{"bike_id":"1da8b17b-ad28-4780-a711-431647c244ed","system_id":"levelo_inurba_marseille","lat":43.23956,"lon":5.36626,"is_reserved":false,"is_disabled":false,"rental_uris":{"android":"levelo://app?vid=1da8b17b-ad28-4780-a711-431647c244ed","ios":"levelo://app?vid=1da8b17b-ad28-4780-a711-431647c244ed"},"vehicle_type_id":"4","last_reported":1739023631,"current_range_meters":24800,"station_id":"ce4bhi12rcd13ifvqfp0","pricing_plan_id":"cebpf4jnsgd1na2vs0mg"},{"bike_id":"b1db3003-a515-433c-b006-a61b3558f325","system_id":"levelo_inurba_marseille","lat":43.30206,"lon":5.39469,"is_reserved":false,"is_disabled":false,"rental_uris":{"android":"levelo://app?vid=b1db3003-a515-433c-b006-a61b3558f325","ios":"levelo://app?vid=b1db3003-a515-433c-b006-a61b3558f325"},"vehicle_type_id":"4","last_reported":1739023631,"current_range_meters":36800,"station_id":"ce4bh0p2rcd13ifvqd70","pricing_plan_id":"cebpf4jnsgd1na2vs0mg"},{"bike_id":"c4b6b001-41c8-4913-af78-1a819f1de8c3","system_id":"levelo_inurba_marseille","lat":43.29624,"lon":5.37173,"is_reserved":false,"is_disabled":false,"rental_uris":{"android":"levelo://app?vid=c4b6b001-41c8-4913-af78-1a819f1de8c3","ios":"levelo://app?vid=c4b6b001-41c8-4913-af78-1a819f1de8c3"},"vehicle_type_id":"4","last_reported":1739023631,"current_range_meters":22000,"station_id":"ce4bgnh2rcd13ifvqc0g","pricing_plan_id":"cebpf4jnsgd1na2vs0mg"},{"bike_id":"f78952aa-a1e4-42f8-b5d2-31338580d315","system_id":"levelo_inurba_marseille","lat":43.23964,"lon":5.36624,"is_reserved":false,"is_disabled":false,"rental_uris":{"android":"levelo://app?vid=f78952aa-a1e4-42f8-b5d2-31338580d315","ios":"levelo://app?vid=f78952aa-a1e4-42f8-b5d2-31338580d315"},"vehicle_type_id":"4","last_reported":1739023631,"current_range_meters":17600,"station_id":"ce4bhi12rcd13ifvqfp0","pricing_plan_id":"cebpf4jnsgd1na2vs0mg"},{"bike_id":"58b427e9-4552-4f44-a645-076d6709fbf3","system_id":"levelo_inurba_marseille","lat":43.294342,"lon":5.397495,"is_reserved":false,"is_disabled":false,"rental_uris":{"android":"levelo://app?vid=58b427e9-4552-4f44-a645-076d6709fbf3","ios":"levelo://app?vid=58b427e9-4552-4f44-a645-076d6709fbf3"},"vehicle_type_id":"4","last_reported":1739023631,"current_range_meters":35200,"station_id":"","pricing_plan_id":"cebpf4jnsgd1na2vs0mg"},{"bike_id":"985ea620-1838-4cc4-9f45-6622855b2de9","system_id":"levelo_inurba_marseille","lat":43.27998,"lon":5.40018,"is_reserved":false,"is_disabled":false,"rental_uris":{"android":"levelo://app?vid=985ea620-1838-4cc4-9f45-6622855b2de9","ios":"levelo://app?vid=985ea620-1838-4cc4-9f45-6622855b2de9"},"vehicle_type_id":"4","last_reported":1739023631,"current_range_meters":38800,"station_id":"ce4bho92rcd13ifvqh4g","pricing_plan_id":"cebpf4jnsgd1na2vs0mg"},{"bike_id":"e94abe13-d844-415c-b9f7-1e84c45b8719","system_id":"levelo_inurba_marseille","lat":43.25587,"lon":5.38274,"is_reserved":false,"is_disabled":false,"rental_uris":{"android":"levelo://app?vid=e94abe13-d844-415c-b9f7-1e84c45b8719","ios":"levelo://app?vid=e94abe13-d844-415c-b9f7-1e84c45b8719"},"vehicle_type_id":"4","last_reported":1739023631,"current_range_meters":38800,"station_id":"ce4bhih2rcd13ifvqfs0","pricing_plan_id":"cebpf4jnsgd1na2vs0mg"},{"bike_id":"e408d721-1719-4f3b-bfb2-ee76b97560c7","system_id":"levelo_inurba_marseille","lat":43.2465,"lon":5.38888,"is_reserved":false,"is_disabled":false,"rental_uris":{"android":"levelo://app?vid=e408d721-1719-4f3b-bfb2-ee76b97560c7","ios":"levelo://app?vid=e408d721-1719-4f3b-bfb2-ee76b97560c7"},"vehicle_type_id":"4","last_reported":1739023631,"current_range_meters":38800,"station_id":"ce4bhg12rcd13ifvqf60","pricing_plan_id":"cebpf4jnsgd1na2vs0mg"},{"bike_id":"3d2ab797-450f-467e-be0a-4dffbf93b767","system_id":"levelo_inurba_marseille","lat":43.30894,"lon":5.3719,"is_reserved":false,"is_disabled":false,"rental_uris":{"android":"levelo://app?vid=3d2ab797-450f-467e-be0a-4dffbf93b767","ios":"levelo://app?vid=3d2ab797-450f-467e-be0a-4dffbf93b767"},"vehicle_type_id":"4","last_reported":1739023631,"current_range_meters":39200,"station_id":"ce4bguh2rcd13ifvqckg","pricing_plan_id":"cebpf4jnsgd1na2vs0mg"},{"bike_id":"114867e5-ea62-4c7a-99c5-428a54a2a62a","system_id":"levelo_inurba_marseille","lat":43.29303,"lon":5.37457,"is_reserved":false,"is_disabled":false,"rental_uris":{"android":"levelo://app?vid=114867e5-ea62-4c7a-99c5-428a54a2a62a","ios":"levelo://app?vid=114867e5-ea62-4c7a-99c5-428a54a2a62a"},"vehicle_type_id":"4","last_reported":1739023631,"current_range_meters":34800,"station_id":"ce4bgi12rcd13ifvqb70","pricing_plan_id":"cebpf4jnsgd1na2vs0mg"},{"bike_id":"eeb21e45-272c-4178-a608-91b3d9aa82e5","system_id":"levelo_inurba_marseille","lat":43.2988,"lon":5.39734,"is_reserved":false,"is_disabled":false,"rental_uris":{"android":"levelo://app?vid=eeb21e45-272c-4178-a608-91b3d9aa82e5","ios":"levelo://app?vid=eeb21e45-272c-4178-a608-91b3d9aa82e5"},"vehicle_type_id":"4","last_reported":1739023631,"current_range_meters":27200,"station_id":"ce4bh0h2rcd13ifvqd50","pricing_plan_id":"cebpf4jnsgd1na2vs0mg"},{"bike_id":"c8467e20-c52a-4fa4-90f2-f69c646cb59f","system_id":"levelo_inurba_marseille","lat":43.30798,"lon":5.43519,"is_reserved":false,"is_disabled":false,"rental_uris":{"android":"levelo://app?vid=c8467e20-c52a-4fa4-90f2-f69c646cb59f","ios":"levelo://app?vid=c8467e20-c52a-4fa4-90f2-f69c646cb59f"},"vehicle_type_id":"4","last_reported":1739023631,"current_range_meters":28400,"station_id":"ce4bhph2rcd13ifvqheg","pricing_plan_id":"cebpf4jnsgd1na2vs0mg"},{"bike_id":"f6f72a0e-24e6-46ea-b63b-f05a4d4bafd2","system_id":"levelo_inurba_marseille","lat":43.28728,"lon":5.36098,"is_reserved":false,"is_disabled":false,"rental_uris":{"android":"levelo://app?vid=f6f72a0e-24e6-46ea-b63b-f05a4d4bafd2","ios":"levelo://app?vid=f6f72a0e-24e6-46ea-b63b-f05a4d4bafd2"},"vehicle_type_id":"4","last_reported":1739023631,"current_range_meters":22800,"station_id":"cki0cbj6b192h4jlfktg","pricing_plan_id":"cebpf4jnsgd1na2vs0mg"},{"bike_id":"32abce49-8efd-4d90-8854-8a7cbb5f2829","system_id":"levelo_inurba_marseille","lat":43.29737,"lon":5.37695,"is_reserved":false,"is_disabled":false,"rental_uris":{"android":"levelo://app?vid=32abce49-8efd-4d90-8854-8a7cbb5f2829","ios":"levelo://app?vid=32abce49-8efd-4d90-8854-8a7cbb5f2829"},"vehicle_type_id":"4","last_reported":1739023631,"current_range_meters":39200,"station_id":"ce4bgkh2rcd13ifvqbl0","pricing_plan_id":"cebpf4jnsgd1na2vs0mg"},{"bike_id":"5824d046-fe3c-4876-b7e4-e795e4f8f5ee","system_id":"levelo_inurba_marseille","lat":43.29726,"lon":5.37687,"is_reserved":false,"is_disabled":false,"rental_uris":{"android":"levelo://app?vid=5824d046-fe3c-4876-b7e4-e795e4f8f5ee","ios":"levelo://app?vid=5824d046-fe3c-4876-b7e4-e795e4f8f5ee"},"vehicle_type_id":"4","last_reported":1739023631,"current_range_meters":38800,"station_id":"ce4bgkh2rcd13ifvqbl0","pricing_plan_id":"cebpf4jnsgd1na2vs0mg"},{"bike_id":"88d55e63-8299-4315-9bbb-9bf0942f4012","system_id":"levelo_inurba_marseille","lat":43.30146,"lon":5.37411,"is_reserved":false,"is_disabled":false,"rental_uris":{"android":"levelo://app?vid=88d55e63-8299-4315-9bbb-9bf0942f4012","ios":"levelo://app?vid=88d55e63-8299-4315-9bbb-9bf0942f4012"},"vehicle_type_id":"4","last_reported":1739023631,"current_range_meters":38400,"station_id":"ce4bgs92rcd13ifvqcc0","pricing_plan_id":"cebpf4jnsgd1na2vs0mg"},{"bike_id":"afd073ab-b7d7-4d06-a610-4d1b18b5fb42","system_id":"levelo_inurba_marseille","lat":43.27681,"lon":5.38907,"is_reserved":false,"is_disabled":false,"rental_uris":{"android":"levelo://app?vid=afd073ab-b7d7-4d06-a610-4d1b18b5fb42","ios":"levelo://app?vid=afd073ab-b7d7-4d06-a610-4d1b18b5fb42"},"vehicle_type_id":"4","last_reported":1739023631,"current_range_meters":38800,"station_id":"ce4bhi12rcd13ifvqfo0","pricing_plan_id":"cebpf4jnsgd1na2vs0mg"},{"bike_id":"fd7f60dd-1b52-46f9-9b6b-de4b0fe7477f","system_id":"levelo_inurba_marseille","lat":43.27066,"lon":5.42275,"is_reserved":false,"is_disabled":true,"rental_uris":{"android":"levelo://app?vid=fd7f60dd-1b52-46f9-9b6b-de4b0fe7477f","ios":"levelo://app?vid=fd7f60dd-1b52-46f9-9b6b-de4b0fe7477f"},"vehicle_type_id":"4","last_reported":1739023631,"current_range_meters":37600,"station_id":"ce4bhk92rcd13ifvqgb0","pricing_plan_id":"cebpf4jnsgd1na2vs0mg"},{"bike_id":"5a55bcfd-1ac3-4a46-8391-3b61dd5af07a","system_id":"levelo_inurba_marseille","lat":43.29963,"lon":5.38491,"is_reserved":false,"is_disabled":false,"rental_uris":{"android":"levelo://app?vid=5a55bcfd-1ac3-4a46-8391-3b61dd5af07a","ios":"levelo://app?vid=5a55bcfd-1ac3-4a46-8391-3b61dd5af07a"},"vehicle_type_id":"4","last_reported":1739023631,"current_range_meters":28800,"station_id":"ce4bgj92rcd13ifvqbd0","pricing_plan_id":"cebpf4jnsgd1na2vs0mg"},{"bike_id":"06faf9ce-7c9b-4da1-8bb2-d0c614da4e56","system_id":"levelo_inurba_marseille","lat":43.2981,"lon":5.38105,"is_reserved":false,"is_disabled":false,"rental_uris":{"android":"levelo://app?vid=06faf9ce-7c9b-4da1-8bb2-d0c614da4e56","ios":"levelo://app?vid=06faf9ce-7c9b-4da1-8bb2-d0c614da4e56"},"vehicle_type_id":"4","last_reported":1739023631,"current_range_meters":38800,"station_id":"ce4bgip2rcd13ifvqbb0","pricing_plan_id":"cebpf4jnsgd1na2vs0mg"},{"bike_id":"31a39200-a1b7-4856-ae44-b726a141503b","system_id":"levelo_inurba_marseille","lat":43.26208,"lon":5.37442,"is_reserved":false,"is_disabled":false,"rental_uris":{"android":"levelo://app?vid=31a39200-a1b7-4856-ae44-b726a141503b","ios":"levelo://app?vid=31a39200-a1b7-4856-ae44-b726a141503b"},"vehicle_type_id":"4","last_reported":1739023631,"current_range_meters":13600,"station_id":"ce4bhgp2rcd13ifvqfc0","pricing_plan_id":"cebpf4jnsgd1na2vs0mg"},{"bike_id":"322c26d9-30ec-49b2-a807-678bf8b45e29","system_id":"levelo_inurba_marseille","lat":43.29725,"lon":5.37663,"is_reserved":false,"is_disabled":false,"rental_uris":{"android":"levelo://app?vid=322c26d9-30ec-49b2-a807-678bf8b45e29","ios":"levelo://app?vid=322c26d9-30ec-49b2-a807-678bf8b45e29"},"vehicle_type_id":"4","last_reported":1739023631,"current_range_meters":38400,"station_id":"ce4bgkh2rcd13ifvqbl0","pricing_plan_id":"cebpf4jnsgd1na2vs0mg"},{"bike_id":"9231faa6-f65a-4809-b28c-8c57f32febf2","system_id":"levelo_inurba_marseille","lat":43.25081,"lon":5.39512,"is_reserved":false,"is_disabled":false,"rental_uris":{"android":"levelo://app?vid=9231faa6-f65a-4809-b28c-8c57f32febf2","ios":"levelo://app?vid=9231faa6-f65a-4809-b28c-8c57f32febf2"},"vehicle_type_id":"4","last_reported":1739023631,"current_range_meters":30400,"station_id":"ce4bhm12rcd13ifvqgkg","pricing_plan_id":"cebpf4jnsgd1na2vs0mg"},{"bike_id":"86e7fe57-f8b6-4306-adb2-c48a1d6d6515","system_id":"levelo_inurba_marseille","lat":43.25723,"lon":5.41119,"is_reserved":false,"is_disabled":false,"rental_uris":{"android":"levelo://app?vid=86e7fe57-f8b6-4306-adb2-c48a1d6d6515","ios":"levelo://app?vid=86e7fe57-f8b6-4306-adb2-c48a1d6d6515"},"vehicle_type_id":"4","last_reported":1739023631,"current_range_meters":38800,"station_id":"ce4bhkp2rcd13ifvqgd0","pricing_plan_id":"cebpf4jnsgd1na2vs0mg"},{"bike_id":"244783fc-e553-4b13-97c4-77dee0149449","system_id":"levelo_inurba_marseille","lat":43.313271,"lon":5.396932,"is_reserved":false,"is_disabled":false,"rental_uris":{"android":"levelo://app?vid=244783fc-e553-4b13-97c4-77dee0149449","ios":"levelo://app?vid=244783fc-e553-4b13-97c4-77dee0149449"},"vehicle_type_id":"4","last_reported":1739023631,"current_range_meters":28400,"station_id":"ce4bgvp2rcd13ifvqcu0","pricing_plan_id":"cebpf4jnsgd1na2vs0mg"},{"bike_id":"38f3c25b-9bd7-4cdf-8b4e-d85b3fed6da4","system_id":"levelo_inurba_marseille","lat":43.30195,"lon":5.39438,"is_reserved":false,"is_disabled":false,"rental_uris":{"android":"levelo://app?vid=38f3c25b-9bd7-4cdf-8b4e-d85b3fed6da4","ios":"levelo://app?vid=38f3c25b-9bd7-4cdf-8b4e-d85b3fed6da4"},"vehicle_type_id":"4","last_reported":1739023631,"current_range_meters":38400,"station_id":"ce4bh0p2rcd13ifvqd70","pricing_plan_id":"cebpf4jnsgd1na2vs0mg"},{"bike_id":"be35251f-4751-4b83-ba07-54792e248e34","system_id":"levelo_inurba_marseille","lat":43.29569,"lon":5.3755,"is_reserved":false,"is_disabled":false,"rental_uris":{"android":"levelo://app?vid=be35251f-4751-4b83-ba07-54792e248e34","ios":"levelo://app?vid=be35251f-4751-4b83-ba07-54792e248e34"},"vehicle_type_id":"4","last_reported":1739023631,"current_range_meters":20800,"station_id":"ce4bgh92rcd13ifvqb50","pricing_plan_id":"cebpf4jnsgd1na2vs0mg"},{"bike_id":"be03eb0a-4597-4fef-8e89-e0a6de105fab","system_id":"levelo_inurba_marseille","lat":43.32334,"lon":5.40619,"is_reserved":false,"is_disabled":false,"rental_uris":{"android":"levelo://app?vid=be03eb0a-4597-4fef-8e89-e0a6de105fab","ios":"levelo://app?vid=be03eb0a-4597-4fef-8e89-e0a6de105fab"},"vehicle_type_id":"4","last_reported":1739023631,"current_range_meters":38800,"station_id":"ce4bhq92rcd13ifvqhjg","pricing_plan_id":"cebpf4jnsgd1na2vs0mg"},{"bike_id":"d154105c-1b61-449f-9853-42ec699c49e7","system_id":"levelo_inurba_marseille","lat":43.2903,"lon":5.38646,"is_reserved":false,"is_disabled":false,"rental_uris":{"android":"levelo://app?vid=d154105c-1b61-449f-9853-42ec699c49e7","ios":"levelo://app?vid=d154105c-1b61-449f-9853-42ec699c49e7"},"vehicle_type_id":"4","last_reported":1739023631,"current_range_meters":38800,"station_id":"ce4bh4p2rcd13ifvqe0g","pricing_plan_id":"cebpf4jnsgd1na2vs0mg"},{"bike_id":"d5fd2a14-8ff1-4b6e-a72e-8f7d6ba6ec2f","system_id":"levelo_inurba_marseille","lat":43.2828,"lon":5.35057,"is_reserved":false,"is_disabled":false,"rental_uris":{"android":"levelo://app?vid=d5fd2a14-8ff1-4b6e-a72e-8f7d6ba6ec2f","ios":"levelo://app?vid=d5fd2a14-8ff1-4b6e-a72e-8f7d6ba6ec2f"},"vehicle_type_id":"4","last_reported":1739023631,"current_range_meters":26800,"station_id":"ce4bhbp2rcd13ifvqerg","pricing_plan_id":"cebpf4jnsgd1na2vs0mg"},{"bike_id":"e7e21c1e-dbe2-402d-9581-ec29bed00df3","system_id":"levelo_inurba_marseille","lat":43.2962,"lon":5.37713,"is_reserved":false,"is_disabled":false,"rental_uris":{"android":"levelo://app?vid=e7e21c1e-dbe2-402d-9581-ec29bed00df3","ios":"levelo://app?vid=e7e21c1e-dbe2-402d-9581-ec29bed00df3"},"vehicle_type_id":"4","last_reported":1739023631,"current_range_meters":39200,"station_id":"ce4bgi92rcd13ifvqb90","pricing_plan_id":"cebpf4jnsgd1na2vs0mg"},{"bike_id":"f121b4f3-9ce7-4c6a-b725-2596a1176eb8","system_id":"levelo_inurba_marseille","lat":43.26484,"lon":5.39562,"is_reserved":false,"is_disabled":false,"rental_uris":{"android":"levelo://app?vid=f121b4f3-9ce7-4c6a-b725-2596a1176eb8","ios":"levelo://app?vid=f121b4f3-9ce7-4c6a-b725-2596a1176eb8"},"vehicle_type_id":"4","last_reported":1739023631,"current_range_meters":16800,"station_id":"ce4bhi12rcd13ifvqfq0","pricing_plan_id":"cebpf4jnsgd1na2vs0mg"},{"bike_id":"c6f92ca4-91f7-4b27-a97d-0ada5b4e29ae","system_id":"levelo_inurba_marseille","lat":43.24672,"lon":5.38169,"is_reserved":false,"is_disabled":false,"rental_uris":{"android":"levelo://app?vid=c6f92ca4-91f7-4b27-a97d-0ada5b4e29ae","ios":"levelo://app?vid=c6f92ca4-91f7-4b27-a97d-0ada5b4e29ae"},"vehicle_type_id":"4","last_reported":1739023631,"current_range_meters":27600,"station_id":"ce4bhih2rcd13ifvqfr0","pricing_plan_id":"cebpf4jnsgd1na2vs0mg"},{"bike_id":"d4ee20fe-7173-4b0f-b302-1ab0dcc39a2d","system_id":"levelo_inurba_marseille","lat":43.305386,"lon":5.367074,"is_reserved":false,"is_disabled":false,"rental_uris":{"android":"levelo://app?vid=d4ee20fe-7173-4b0f-b302-1ab0dcc39a2d","ios":"levelo://app?vid=d4ee20fe-7173-4b0f-b302-1ab0dcc39a2d"},"vehicle_type_id":"4","last_reported":1739023631,"current_range_meters":38800,"station_id":"ce4bgrp2rcd13ifvqc9g","pricing_plan_id":"cebpf4jnsgd1na2vs0mg"},{"bike_id":"9648e231-be85-43d2-8e2c-d09d9134f0c9","system_id":"levelo_inurba_marseille","lat":43.28066,"lon":5.39644,"is_reserved":false,"is_disabled":false,"rental_uris":{"android":"levelo://app?vid=9648e231-be85-43d2-8e2c-d09d9134f0c9","ios":"levelo://app?vid=9648e231-be85-43d2-8e2c-d09d9134f0c9"},"vehicle_type_id":"4","last_reported":1739023631,"current_range_meters":36400,"station_id":"ce4bho12rcd13ifvqh2g","pricing_plan_id":"cebpf4jnsgd1na2vs0mg"},{"bike_id":"f335f4ea-f372-4b4d-97e9-cf4e01ad5b70","system_id":"levelo_inurba_marseille","lat":43.31329,"lon":5.39701,"is_reserved":false,"is_disabled":false,"rental_uris":{"android":"levelo://app?vid=f335f4ea-f372-4b4d-97e9-cf4e01ad5b70","ios":"levelo://app?vid=f335f4ea-f372-4b4d-97e9-cf4e01ad5b70"},"vehicle_type_id":"4","last_reported":1739023631,"current_range_meters":22400,"station_id":"ce4bgvp2rcd13ifvqcu0","pricing_plan_id":"cebpf4jnsgd1na2vs0mg"},{"bike_id":"34c578ab-a882-45d4-a471-a482d1e60a50","system_id":"levelo_inurba_marseille","lat":43.2971,"lon":5.37677,"is_reserved":false,"is_disabled":false,"rental_uris":{"android":"levelo://app?vid=34c578ab-a882-45d4-a471-a482d1e60a50","ios":"levelo://app?vid=34c578ab-a882-45d4-a471-a482d1e60a50"},"vehicle_type_id":"4","last_reported":1739023631,"current_range_meters":12800,"station_id":"ce4bgkh2rcd13ifvqbl0","pricing_plan_id":"cebpf4jnsgd1na2vs0mg"},{"bike_id":"7a7dbffa-0b96-4469-bdfa-632e1ba9424a","system_id":"levelo_inurba_marseille","lat":43.31528,"lon":5.38038,"is_reserved":false,"is_disabled":false,"rental_uris":{"android":"levelo://app?vid=7a7dbffa-0b96-4469-bdfa-632e1ba9424a","ios":"levelo://app?vid=7a7dbffa-0b96-4469-bdfa-632e1ba9424a"},"vehicle_type_id":"4","last_reported":1739023631,"current_range_meters":38400,"station_id":"ce4bhsp2rcd13ifvqi50","pricing_plan_id":"cebpf4jnsgd1na2vs0mg"},{"bike_id":"7e333763-d5b8-4410-90cc-891a6789c5eb","system_id":"levelo_inurba_marseille","lat":43.29585,"lon":5.3753,"is_reserved":false,"is_disabled":false,"rental_uris":{"android":"levelo://app?vid=7e333763-d5b8-4410-90cc-891a6789c5eb","ios":"levelo://app?vid=7e333763-d5b8-4410-90cc-891a6789c5eb"},"vehicle_type_id":"4","last_reported":1739023631,"current_range_meters":38800,"station_id":"ce4bgh92rcd13ifvqb50","pricing_plan_id":"cebpf4jnsgd1na2vs0mg"},{"bike_id":"7d0a6a67-3078-4373-b55e-62596f62cbc5","system_id":"levelo_inurba_marseille","lat":43.29006,"lon":5.35601,"is_reserved":false,"is_disabled":false,"rental_uris":{"android":"levelo://app?vid=7d0a6a67-3078-4373-b55e-62596f62cbc5","ios":"levelo://app?vid=7d0a6a67-3078-4373-b55e-62596f62cbc5"},"vehicle_type_id":"4","last_reported":1739023631,"current_range_meters":38800,"station_id":"ce4bhb92rcd13ifvqen0","pricing_plan_id":"cebpf4jnsgd1na2vs0mg"},{"bike_id":"00acf672-47c1-42d5-ae81-0c2dd5fc2c7a","system_id":"levelo_inurba_marseille","lat":43.279254,"lon":5.410635,"is_reserved":false,"is_disabled":false,"rental_uris":{"android":"levelo://app?vid=00acf672-47c1-42d5-ae81-0c2dd5fc2c7a","ios":"levelo://app?vid=00acf672-47c1-42d5-ae81-0c2dd5fc2c7a"},"vehicle_type_id":"4","last_reported":1739023631,"current_range_meters":30400,"station_id":"ce4bhih2rcd13ifvqfs0","pricing_plan_id":"cebpf4jnsgd1na2vs0mg"},{"bike_id":"c5789181-d252-4c46-b75d-908f3a6a38fe","system_id":"levelo_inurba_marseille","lat":43.33697,"lon":5.39192,"is_reserved":false,"is_disabled":false,"rental_uris":{"android":"levelo://app?vid=c5789181-d252-4c46-b75d-908f3a6a38fe","ios":"levelo://app?vid=c5789181-d252-4c46-b75d-908f3a6a38fe"},"vehicle_type_id":"4","last_reported":1739023631,"current_range_meters":38800,"station_id":"ce4bhr92rcd13ifvqhsg","pricing_plan_id":"cebpf4jnsgd1na2vs0mg"},{"bike_id":"808b5cbe-d199-42eb-9731-d542ca8947dd","system_id":"levelo_inurba_marseille","lat":43.31482,"lon":5.37302,"is_reserved":false,"is_disabled":false,"rental_uris":{"android":"levelo://app?vid=808b5cbe-d199-42eb-9731-d542ca8947dd","ios":"levelo://app?vid=808b5cbe-d199-42eb-9731-d542ca8947dd"},"vehicle_type_id":"4","last_reported":1739023631,"current_range_meters":18800,"station_id":"ce4bgt12rcd13ifvqcd0","pricing_plan_id":"cebpf4jnsgd1na2vs0mg"},{"bike_id":"37875bcb-f3e2-494a-830a-57c5b75f45a8","system_id":"levelo_inurba_marseille","lat":43.29373,"lon":5.3785,"is_reserved":false,"is_disabled":false,"rental_uris":{"android":"levelo://app?vid=37875bcb-f3e2-494a-830a-57c5b75f45a8","ios":"levelo://app?vid=37875bcb-f3e2-494a-830a-57c5b75f45a8"},"vehicle_type_id":"4","last_reported":1739023631,"current_range_meters":38400,"station_id":"ce4bgjh2rcd13ifvqbf0","pricing_plan_id":"cebpf4jnsgd1na2vs0mg"},{"bike_id":"a58707da-c3ea-4b27-b792-fd25e6c5b485","system_id":"levelo_inurba_marseille","lat":43.30803,"lon":5.38142,"is_reserved":false,"is_disabled":false,"rental_uris":{"android":"levelo://app?vid=a58707da-c3ea-4b27-b792-fd25e6c5b485","ios":"levelo://app?vid=a58707da-c3ea-4b27-b792-fd25e6c5b485"},"vehicle_type_id":"4","last_reported":1739023631,"current_range_meters":10800,"station_id":"ce4bgt12rcd13ifvqce0","pricing_plan_id":"cebpf4jnsgd1na2vs0mg"},{"bike_id":"b8a288ef-4349-437d-a22a-753084f41b03","system_id":"levelo_inurba_marseille","lat":43.34145,"lon":5.40917,"is_reserved":false,"is_disabled":false,"rental_uris":{"android":"levelo://app?vid=b8a288ef-4349-437d-a22a-753084f41b03","ios":"levelo://app?vid=b8a288ef-4349-437d-a22a-753084f41b03"},"vehicle_type_id":"4","last_reported":1739023631,"current_range_meters":36000,"station_id":"ce4bhqh2rcd13ifvqhlg","pricing_plan_id":"cebpf4jnsgd1na2vs0mg"},{"bike_id":"4b346763-af4b-47bb-8f20-016bb4fee202","system_id":"levelo_inurba_marseille","lat":43.27815,"lon":5.40708,"is_reserved":false,"is_disabled":false,"rental_uris":{"android":"levelo://app?vid=4b346763-af4b-47bb-8f20-016bb4fee202","ios":"levelo://app?vid=4b346763-af4b-47bb-8f20-016bb4fee202"},"vehicle_type_id":"4","last_reported":1739023631,"current_range_meters":38800,"station_id":"ce4bhnh2rcd13ifvqgtg","pricing_plan_id":"cebpf4jnsgd1na2vs0mg"},{"bike_id":"b2542839-70e9-4035-8581-0da82c4e947f","system_id":"levelo_inurba_marseille","lat":43.28447,"lon":5.3589,"is_reserved":false,"is_disabled":false,"rental_uris":{"android":"levelo://app?vid=b2542839-70e9-4035-8581-0da82c4e947f","ios":"levelo://app?vid=b2542839-70e9-4035-8581-0da82c4e947f"},"vehicle_type_id":"4","last_reported":1739023631,"current_range_meters":17600,"station_id":"ce4bhah2rcd13ifvqei0","pricing_plan_id":"cebpf4jnsgd1na2vs0mg"},{"bike_id":"157be572-9a60-49cc-b866-5babd43cb65c","system_id":"levelo_inurba_marseille","lat":43.2918,"lon":5.39325,"is_reserved":false,"is_disabled":false,"rental_uris":{"android":"levelo://app?vid=157be572-9a60-49cc-b866-5babd43cb65c","ios":"levelo://app?vid=157be572-9a60-49cc-b866-5babd43cb65c"},"vehicle_type_id":"4","last_reported":1739023631,"current_range_meters":39200,"station_id":"ce4bh192rcd13ifvqdd0","pricing_plan_id":"cebpf4jnsgd1na2vs0mg"},{"bike_id":"09710415-4dac-4e4c-a5b2-403eafa59e89","system_id":"levelo_inurba_marseille","lat":43.23969,"lon":5.36626,"is_reserved":false,"is_disabled":false,"rental_uris":{"android":"levelo://app?vid=09710415-4dac-4e4c-a5b2-403eafa59e89","ios":"levelo://app?vid=09710415-4dac-4e4c-a5b2-403eafa59e89"},"vehicle_type_id":"4","last_reported":1739023631,"current_range_meters":38400,"station_id":"ce4bhi12rcd13ifvqfp0","pricing_plan_id":"cebpf4jnsgd1na2vs0mg"},{"bike_id":"5facc43d-9cd5-48f7-a8dc-3d76ab44e903","system_id":"levelo_inurba_marseille","lat":43.24995,"lon":5.38933,"is_reserved":false,"is_disabled":false,"rental_uris":{"android":"levelo://app?vid=5facc43d-9cd5-48f7-a8dc-3d76ab44e903","ios":"levelo://app?vid=5facc43d-9cd5-48f7-a8dc-3d76ab44e903"},"vehicle_type_id":"4","last_reported":1739023631,"current_range_meters":39200,"station_id":"ce4bhgp2rcd13ifvqfd0","pricing_plan_id":"cebpf4jnsgd1na2vs0mg"},{"bike_id":"6a944320-59aa-47a3-8f2e-f0dc50bfab57","system_id":"levelo_inurba_marseille","lat":43.28492,"lon":5.38573,"is_reserved":false,"is_disabled":false,"rental_uris":{"android":"levelo://app?vid=6a944320-59aa-47a3-8f2e-f0dc50bfab57","ios":"levelo://app?vid=6a944320-59aa-47a3-8f2e-f0dc50bfab57"},"vehicle_type_id":"4","last_reported":1739023631,"current_range_meters":38800,"station_id":"ce4bh8p2rcd13ifvqeb0","pricing_plan_id":"cebpf4jnsgd1na2vs0mg"},{"bike_id":"d127a229-8836-4c0f-a071-964ec5978504","system_id":"levelo_inurba_marseille","lat":43.2717,"lon":5.40998,"is_reserved":false,"is_disabled":true,"rental_uris":{"android":"levelo://app?vid=d127a229-8836-4c0f-a071-964ec5978504","ios":"levelo://app?vid=d127a229-8836-4c0f-a071-964ec5978504"},"vehicle_type_id":"4","last_reported":1739023631,"current_range_meters":0,"station_id":"ce4bhl12rcd13ifvqgf0","pricing_plan_id":"cebpf4jnsgd1na2vs0mg"},{"bike_id":"118b1d9a-bc00-428d-ac60-6949e2e1ff6b","system_id":"levelo_inurba_marseille","lat":43.24804,"lon":5.37458,"is_reserved":false,"is_disabled":false,"rental_uris":{"android":"levelo://app?vid=118b1d9a-bc00-428d-ac60-6949e2e1ff6b","ios":"levelo://app?vid=118b1d9a-bc00-428d-ac60-6949e2e1ff6b"},"vehicle_type_id":"4","last_reported":1739023631,"current_range_meters":32800,"station_id":"ce4bhgh2rcd13ifvqfb0","pricing_plan_id":"cebpf4jnsgd1na2vs0mg"},{"bike_id":"d38473ea-6d29-4f21-b12d-5903863cf058","system_id":"levelo_inurba_marseille","lat":43.30138,"lon":5.398615,"is_reserved":false,"is_disabled":false,"rental_uris":{"android":"levelo://app?vid=d38473ea-6d29-4f21-b12d-5903863cf058","ios":"levelo://app?vid=d38473ea-6d29-4f21-b12d-5903863cf058"},"vehicle_type_id":"4","last_reported":1739023631,"current_range_meters":38800,"station_id":"ce4bh0h2rcd13ifvqd40","pricing_plan_id":"cebpf4jnsgd1na2vs0mg"},{"bike_id":"cd00da68-5c62-4884-ab7b-e988fccf17b6","system_id":"levelo_inurba_marseille","lat":43.30254,"lon":5.40062,"is_reserved":false,"is_disabled":true,"rental_uris":{"android":"levelo://app?vid=cd00da68-5c62-4884-ab7b-e988fccf17b6","ios":"levelo://app?vid=cd00da68-5c62-4884-ab7b-e988fccf17b6"},"vehicle_type_id":"4","last_reported":1739023631,"current_range_meters":38800,"station_id":"ce4bgvh2rcd13ifvqcs0","pricing_plan_id":"cebpf4jnsgd1na2vs0mg"},{"bike_id":"af62d40d-43f5-4ce3-a384-9e3b7f747689","system_id":"levelo_inurba_marseille","lat":43.26203,"lon":5.37444,"is_reserved":false,"is_disabled":false,"rental_uris":{"android":"levelo://app?vid=af62d40d-43f5-4ce3-a384-9e3b7f747689","ios":"levelo://app?vid=af62d40d-43f5-4ce3-a384-9e3b7f747689"},"vehicle_type_id":"4","last_reported":1739023631,"current_range_meters":14800,"station_id":"ce4bhgp2rcd13ifvqfc0","pricing_plan_id":"cebpf4jnsgd1na2vs0mg"},{"bike_id":"3a090f50-5c67-49d3-837b-50245e313c35","system_id":"levelo_inurba_marseille","lat":43.28146,"lon":5.42638,"is_reserved":false,"is_disabled":false,"rental_uris":{"android":"levelo://app?vid=3a090f50-5c67-49d3-837b-50245e313c35","ios":"levelo://app?vid=3a090f50-5c67-49d3-837b-50245e313c35"},"vehicle_type_id":"4","last_reported":1739023631,"current_range_meters":26000,"station_id":"ce4bhnh2rcd13ifvqgug","pricing_plan_id":"cebpf4jnsgd1na2vs0mg"},{"bike_id":"f3da6782-40ea-44bc-869c-3824fe9ea492","system_id":"levelo_inurba_marseille","lat":43.28692,"lon":5.38641,"is_reserved":false,"is_disabled":false,"rental_uris":{"android":"levelo://app?vid=f3da6782-40ea-44bc-869c-3824fe9ea492","ios":"levelo://app?vid=f3da6782-40ea-44bc-869c-3824fe9ea492"},"vehicle_type_id":"4","last_reported":1739023631,"current_range_meters":20400,"station_id":"ce4bh492rcd13ifvqdug","pricing_plan_id":"cebpf4jnsgd1na2vs0mg"},{"bike_id":"901fa8c3-b084-4dd3-a547-9f411d0eca02","system_id":"levelo_inurba_marseille","lat":43.29575,"lon":5.36748,"is_reserved":false,"is_disabled":false,"rental_uris":{"android":"levelo://app?vid=901fa8c3-b084-4dd3-a547-9f411d0eca02","ios":"levelo://app?vid=901fa8c3-b084-4dd3-a547-9f411d0eca02"},"vehicle_type_id":"4","last_reported":1739023631,"current_range_meters":38800,"station_id":"ce4bgph2rcd13ifvqc2g","pricing_plan_id":"cebpf4jnsgd1na2vs0mg"},{"bike_id":"892e7721-6cee-437b-a658-e5d72e3e2e4d","system_id":"levelo_inurba_marseille","lat":43.2668,"lon":5.38258,"is_reserved":false,"is_disabled":false,"rental_uris":{"android":"levelo://app?vid=892e7721-6cee-437b-a658-e5d72e3e2e4d","ios":"levelo://app?vid=892e7721-6cee-437b-a658-e5d72e3e2e4d"},"vehicle_type_id":"4","last_reported":1739023631,"current_range_meters":36800,"station_id":"ce4bhg92rcd13ifvqf90","pricing_plan_id":"cebpf4jnsgd1na2vs0mg"},{"bike_id":"889ef476-f99b-42ff-95f8-28ea11857507","system_id":"levelo_inurba_marseille","lat":43.23963,"lon":5.36631,"is_reserved":false,"is_disabled":false,"rental_uris":{"android":"levelo://app?vid=889ef476-f99b-42ff-95f8-28ea11857507","ios":"levelo://app?vid=889ef476-f99b-42ff-95f8-28ea11857507"},"vehicle_type_id":"4","last_reported":1739023631,"current_range_meters":31200,"station_id":"ce4bhi12rcd13ifvqfp0","pricing_plan_id":"cebpf4jnsgd1na2vs0mg"},{"bike_id":"7f2deb56-183c-436c-981c-cfbcfece13e6","system_id":"levelo_inurba_marseille","lat":43.23955,"lon":5.36626,"is_reserved":false,"is_disabled":false,"rental_uris":{"android":"levelo://app?vid=7f2deb56-183c-436c-981c-cfbcfece13e6","ios":"levelo://app?vid=7f2deb56-183c-436c-981c-cfbcfece13e6"},"vehicle_type_id":"4","last_reported":1739023631,"current_range_meters":38000,"station_id":"ce4bhi12rcd13ifvqfp0","pricing_plan_id":"cebpf4jnsgd1na2vs0mg"},{"bike_id":"e343ef99-5997-4c64-80fc-79ef8cbb50b8","system_id":"levelo_inurba_marseille","lat":43.29853,"lon":5.36289,"is_reserved":false,"is_disabled":false,"rental_uris":{"android":"levelo://app?vid=e343ef99-5997-4c64-80fc-79ef8cbb50b8","ios":"levelo://app?vid=e343ef99-5997-4c64-80fc-79ef8cbb50b8"},"vehicle_type_id":"4","last_reported":1739023631,"current_range_meters":38800,"station_id":"ce4bgpp2rcd13ifvqc3g","pricing_plan_id":"cebpf4jnsgd1na2vs0mg"},{"bike_id":"dfb5ce39-1c6f-400c-b199-25897540f16d","system_id":"levelo_inurba_marseille","lat":43.27056,"lon":5.40257,"is_reserved":false,"is_disabled":false,"rental_uris":{"android":"levelo://app?vid=dfb5ce39-1c6f-400c-b199-25897540f16d","ios":"levelo://app?vid=dfb5ce39-1c6f-400c-b199-25897540f16d"},"vehicle_type_id":"4","last_reported":1739023631,"current_range_meters":32000,"station_id":"ce4bhk92rcd13ifvqgc0","pricing_plan_id":"cebpf4jnsgd1na2vs0mg"},{"bike_id":"6186afb6-fd6f-42d8-8215-07291eb97707","system_id":"levelo_inurba_marseille","lat":43.2418,"lon":5.39722,"is_reserved":false,"is_disabled":false,"rental_uris":{"android":"levelo://app?vid=6186afb6-fd6f-42d8-8215-07291eb97707","ios":"levelo://app?vid=6186afb6-fd6f-42d8-8215-07291eb97707"},"vehicle_type_id":"4","last_reported":1739023631,"current_range_meters":25600,"station_id":"ce4bhn12rcd13ifvqgpg","pricing_plan_id":"cebpf4jnsgd1na2vs0mg"},{"bike_id":"2f37c01b-9dbf-4f25-a6c6-88a6b88e248f","system_id":"levelo_inurba_marseille","lat":43.29259,"lon":5.36863,"is_reserved":false,"is_disabled":false,"rental_uris":{"android":"levelo://app?vid=2f37c01b-9dbf-4f25-a6c6-88a6b88e248f","ios":"levelo://app?vid=2f37c01b-9dbf-4f25-a6c6-88a6b88e248f"},"vehicle_type_id":"4","last_reported":1739023631,"current_range_meters":38800,"station_id":"ce4bhbp2rcd13ifvqesg","pricing_plan_id":"cebpf4jnsgd1na2vs0mg"},{"bike_id":"4d9ad168-46b6-4462-9f8f-33b3c0f14c50","system_id":"levelo_inurba_marseille","lat":43.27924,"lon":5.41001,"is_reserved":false,"is_disabled":false,"rental_uris":{"android":"levelo://app?vid=4d9ad168-46b6-4462-9f8f-33b3c0f14c50","ios":"levelo://app?vid=4d9ad168-46b6-4462-9f8f-33b3c0f14c50"},"vehicle_type_id":"4","last_reported":1739023631,"current_range_meters":32000,"station_id":"ce4bhnp2rcd13ifvqh0g","pricing_plan_id":"cebpf4jnsgd1na2vs0mg"},{"bike_id":"f2df57fd-48fb-42b4-9b53-5e639c9b06ad","system_id":"levelo_inurba_marseille","lat":43.32368,"lon":5.38885,"is_reserved":false,"is_disabled":false,"rental_uris":{"android":"levelo://app?vid=f2df57fd-48fb-42b4-9b53-5e639c9b06ad","ios":"levelo://app?vid=f2df57fd-48fb-42b4-9b53-5e639c9b06ad"},"vehicle_type_id":"4","last_reported":1739023631,"current_range_meters":34000,"station_id":"ce4bhqp2rcd13ifvqhog","pricing_plan_id":"cebpf4jnsgd1na2vs0mg"},{"bike_id":"ebc061ed-36d6-4b6b-b216-4bfbc1c9498f","system_id":"levelo_inurba_marseille","lat":43.30544,"lon":5.36555,"is_reserved":false,"is_disabled":false,"rental_uris":{"android":"levelo://app?vid=ebc061ed-36d6-4b6b-b216-4bfbc1c9498f","ios":"levelo://app?vid=ebc061ed-36d6-4b6b-b216-4bfbc1c9498f"},"vehicle_type_id":"4","last_reported":1739023631,"current_range_meters":18000,"station_id":"ce4bgs12rcd13ifvqcag","pricing_plan_id":"cebpf4jnsgd1na2vs0mg"},{"bike_id":"dfe15062-ebd3-4cc1-8a6b-be02f88bd49f","system_id":"levelo_inurba_marseille","lat":43.30145,"lon":5.37417,"is_reserved":false,"is_disabled":false,"rental_uris":{"android":"levelo://app?vid=dfe15062-ebd3-4cc1-8a6b-be02f88bd49f","ios":"levelo://app?vid=dfe15062-ebd3-4cc1-8a6b-be02f88bd49f"},"vehicle_type_id":"4","last_reported":1739023631,"current_range_meters":8000,"station_id":"ce4bgs92rcd13ifvqcc0","pricing_plan_id":"cebpf4jnsgd1na2vs0mg"},{"bike_id":"6b2e303e-a384-44f8-873d-98254bba019a","system_id":"levelo_inurba_marseille","lat":43.28022,"lon":5.39994,"is_reserved":false,"is_disabled":false,"rental_uris":{"android":"levelo://app?vid=6b2e303e-a384-44f8-873d-98254bba019a","ios":"levelo://app?vid=6b2e303e-a384-44f8-873d-98254bba019a"},"vehicle_type_id":"4","last_reported":1739023631,"current_range_meters":20400,"station_id":"ce4bho92rcd13ifvqh4g","pricing_plan_id":"cebpf4jnsgd1na2vs0mg"},{"bike_id":"59db9156-837c-4bef-bdf0-6cb05d00fb23","system_id":"levelo_inurba_marseille","lat":43.24169,"lon":5.36396,"is_reserved":false,"is_disabled":false,"rental_uris":{"android":"levelo://app?vid=59db9156-837c-4bef-bdf0-6cb05d00fb23","ios":"levelo://app?vid=59db9156-837c-4bef-bdf0-6cb05d00fb23"},"vehicle_type_id":"4","last_reported":1739023631,"current_range_meters":27600,"station_id":"cpo36qri1sfpv3e86is0","pricing_plan_id":"cebpf4jnsgd1na2vs0mg"},{"bike_id":"da2d8c01-630b-457d-a9b4-7854372e8eba","system_id":"levelo_inurba_marseille","lat":43.2983,"lon":5.36267,"is_reserved":false,"is_disabled":false,"rental_uris":{"android":"levelo://app?vid=da2d8c01-630b-457d-a9b4-7854372e8eba","ios":"levelo://app?vid=da2d8c01-630b-457d-a9b4-7854372e8eba"},"vehicle_type_id":"4","last_reported":1739023631,"current_range_meters":37600,"station_id":"ce4bgpp2rcd13ifvqc3g","pricing_plan_id":"cebpf4jnsgd1na2vs0mg"},{"bike_id":"0ed84333-b932-4d64-b2f5-6fbac997e6bb","system_id":"levelo_inurba_marseille","lat":43.28036,"lon":5.36946,"is_reserved":false,"is_disabled":false,"rental_uris":{"android":"levelo://app?vid=0ed84333-b932-4d64-b2f5-6fbac997e6bb","ios":"levelo://app?vid=0ed84333-b932-4d64-b2f5-6fbac997e6bb"},"vehicle_type_id":"4","last_reported":1739023631,"current_range_meters":35200,"station_id":"ce4bha12rcd13ifvqef0","pricing_plan_id":"cebpf4jnsgd1na2vs0mg"},{"bike_id":"53bafbfb-e357-4ec1-bf20-fb90dd25ed46","system_id":"levelo_inurba_marseille","lat":43.29221,"lon":5.36063,"is_reserved":false,"is_disabled":false,"rental_uris":{"android":"levelo://app?vid=53bafbfb-e357-4ec1-bf20-fb90dd25ed46","ios":"levelo://app?vid=53bafbfb-e357-4ec1-bf20-fb90dd25ed46"},"vehicle_type_id":"4","last_reported":1739023631,"current_range_meters":22400,"station_id":"ce4bhbh2rcd13ifvqeqg","pricing_plan_id":"cebpf4jnsgd1na2vs0mg"},{"bike_id":"a35cf4c9-a6f6-463f-bf92-4d0b3dfcb4a9","system_id":"levelo_inurba_marseille","lat":43.24666,"lon":5.38161,"is_reserved":false,"is_disabled":false,"rental_uris":{"android":"levelo://app?vid=a35cf4c9-a6f6-463f-bf92-4d0b3dfcb4a9","ios":"levelo://app?vid=a35cf4c9-a6f6-463f-bf92-4d0b3dfcb4a9"},"vehicle_type_id":"4","last_reported":1739023631,"current_range_meters":8400,"station_id":"ce4bhih2rcd13ifvqfr0","pricing_plan_id":"cebpf4jnsgd1na2vs0mg"},{"bike_id":"25779db4-1979-4bf8-9051-93f244d3242a","system_id":"levelo_inurba_marseille","lat":43.31669,"lon":5.39488,"is_reserved":false,"is_disabled":false,"rental_uris":{"android":"levelo://app?vid=25779db4-1979-4bf8-9051-93f244d3242a","ios":"levelo://app?vid=25779db4-1979-4bf8-9051-93f244d3242a"},"vehicle_type_id":"4","last_reported":1739023631,"current_range_meters":25600,"station_id":"","pricing_plan_id":"cebpf4jnsgd1na2vs0mg"},{"bike_id":"d3ccc336-bf7a-4574-adec-fe10400120aa","system_id":"levelo_inurba_marseille","lat":43.25108,"lon":5.4033,"is_reserved":false,"is_disabled":false,"rental_uris":{"android":"levelo://app?vid=d3ccc336-bf7a-4574-adec-fe10400120aa","ios":"levelo://app?vid=d3ccc336-bf7a-4574-adec-fe10400120aa"},"vehicle_type_id":"4","last_reported":1739023631,"current_range_meters":24800,"station_id":"ce4bhlh2rcd13ifvqgig","pricing_plan_id":"cebpf4jnsgd1na2vs0mg"},{"bike_id":"7e424a35-8cf7-4c71-b98f-4231461d22a0","system_id":"levelo_inurba_marseille","lat":43.2751,"lon":5.38973,"is_reserved":false,"is_disabled":false,"rental_uris":{"android":"levelo://app?vid=7e424a35-8cf7-4c71-b98f-4231461d22a0","ios":"levelo://app?vid=7e424a35-8cf7-4c71-b98f-4231461d22a0"},"vehicle_type_id":"4","last_reported":1739023631,"current_range_meters":36400,"station_id":"","pricing_plan_id":"cebpf4jnsgd1na2vs0mg"},{"bike_id":"27fb3b8e-7876-4475-aac5-6b30fa1d28f9","system_id":"levelo_inurba_marseille","lat":43.26194,"lon":5.3745,"is_reserved":false,"is_disabled":false,"rental_uris":{"android":"levelo://app?vid=27fb3b8e-7876-4475-aac5-6b30fa1d28f9","ios":"levelo://app?vid=27fb3b8e-7876-4475-aac5-6b30fa1d28f9"},"vehicle_type_id":"4","last_reported":1739023631,"current_range_meters":12800,"station_id":"ce4bhgp2rcd13ifvqfc0","pricing_plan_id":"cebpf4jnsgd1na2vs0mg"},{"bike_id":"6692a8c8-8f06-4943-b1a8-b6befa5914d6","system_id":"levelo_inurba_marseille","lat":43.29881,"lon":5.39735,"is_reserved":false,"is_disabled":false,"rental_uris":{"android":"levelo://app?vid=6692a8c8-8f06-4943-b1a8-b6befa5914d6","ios":"levelo://app?vid=6692a8c8-8f06-4943-b1a8-b6befa5914d6"},"vehicle_type_id":"4","last_reported":1739023631,"current_range_meters":33200,"station_id":"ce4bh0h2rcd13ifvqd50","pricing_plan_id":"cebpf4jnsgd1na2vs0mg"},{"bike_id":"3b238840-8a24-4ce8-868e-201f349633f5","system_id":"levelo_inurba_marseille","lat":43.27617,"lon":5.36107,"is_reserved":false,"is_disabled":false,"rental_uris":{"android":"levelo://app?vid=3b238840-8a24-4ce8-868e-201f349633f5","ios":"levelo://app?vid=3b238840-8a24-4ce8-868e-201f349633f5"},"vehicle_type_id":"4","last_reported":1739023631,"current_range_meters":38800,"station_id":"ce4bgj92rcd13ifvqbe0","pricing_plan_id":"cebpf4jnsgd1na2vs0mg"},{"bike_id":"66e9e8fd-0966-44a6-893f-a4b1107d39c6","system_id":"levelo_inurba_marseille","lat":43.28454,"lon":5.3589,"is_reserved":false,"is_disabled":false,"rental_uris":{"android":"levelo://app?vid=66e9e8fd-0966-44a6-893f-a4b1107d39c6","ios":"levelo://app?vid=66e9e8fd-0966-44a6-893f-a4b1107d39c6"},"vehicle_type_id":"4","last_reported":1739023631,"current_range_meters":28800,"station_id":"ce4bhah2rcd13ifvqei0","pricing_plan_id":"cebpf4jnsgd1na2vs0mg"},{"bike_id":"90431abe-bdde-4234-a395-af498fe41c2f","system_id":"levelo_inurba_marseille","lat":43.2719,"lon":5.3919,"is_reserved":false,"is_disabled":false,"rental_uris":{"android":"levelo://app?vid=90431abe-bdde-4234-a395-af498fe41c2f","ios":"levelo://app?vid=90431abe-bdde-4234-a395-af498fe41c2f"},"vehicle_type_id":"4","last_reported":1739023631,"current_range_meters":38800,"station_id":"ce4bhhp2rcd13ifvqfm0","pricing_plan_id":"cebpf4jnsgd1na2vs0mg"},{"bike_id":"5d1dacf3-3fa1-40ba-8373-ce163dd2d283","system_id":"levelo_inurba_marseille","lat":43.26187,"lon":5.37919,"is_reserved":false,"is_disabled":false,"rental_uris":{"android":"levelo://app?vid=5d1dacf3-3fa1-40ba-8373-ce163dd2d283","ios":"levelo://app?vid=5d1dacf3-3fa1-40ba-8373-ce163dd2d283"},"vehicle_type_id":"4","last_reported":1739023631,"current_range_meters":38400,"station_id":"ce4bhjp2rcd13ifvqg90","pricing_plan_id":"cebpf4jnsgd1na2vs0mg"},{"bike_id":"3e0f7d59-321e-4e79-a75e-aa4f3500b14f","system_id":"levelo_inurba_marseille","lat":43.28703,"lon":5.37393,"is_reserved":false,"is_disabled":false,"rental_uris":{"android":"levelo://app?vid=3e0f7d59-321e-4e79-a75e-aa4f3500b14f","ios":"levelo://app?vid=3e0f7d59-321e-4e79-a75e-aa4f3500b14f"},"vehicle_type_id":"4","last_reported":1739023631,"current_range_meters":21600,"station_id":"ce4bh3p2rcd13ifvqdq0","pricing_plan_id":"cebpf4jnsgd1na2vs0mg"},{"bike_id":"6ff781d1-2621-44d1-b299-83b571f09432","system_id":"levelo_inurba_marseille","lat":43.34065,"lon":5.38513,"is_reserved":false,"is_disabled":false,"rental_uris":{"android":"levelo://app?vid=6ff781d1-2621-44d1-b299-83b571f09432","ios":"levelo://app?vid=6ff781d1-2621-44d1-b299-83b571f09432"},"vehicle_type_id":"4","last_reported":1739023631,"current_range_meters":3200,"station_id":"","pricing_plan_id":"cebpf4jnsgd1na2vs0mg"},{"bike_id":"c6afa432-e46b-4d6e-80c4-7b56e513574b","system_id":"levelo_inurba_marseille","lat":43.28357,"lon":5.38118,"is_reserved":false,"is_disabled":false,"rental_uris":{"android":"levelo://app?vid=c6afa432-e46b-4d6e-80c4-7b56e513574b","ios":"levelo://app?vid=c6afa432-e46b-4d6e-80c4-7b56e513574b"},"vehicle_type_id":"4","last_reported":1739023631,"current_range_meters":6800,"station_id":"ce4bh412rcd13ifvqdr0","pricing_plan_id":"cebpf4jnsgd1na2vs0mg"},{"bike_id":"0b6c8969-9641-4279-b954-b02e30ea93c0","system_id":"levelo_inurba_marseille","lat":43.31173,"lon":5.38704,"is_reserved":false,"is_disabled":false,"rental_uris":{"android":"levelo://app?vid=0b6c8969-9641-4279-b954-b02e30ea93c0","ios":"levelo://app?vid=0b6c8969-9641-4279-b954-b02e30ea93c0"},"vehicle_type_id":"4","last_reported":1739023631,"current_range_meters":38800,"station_id":"ce4bgv12rcd13ifvqcp0","pricing_plan_id":"cebpf4jnsgd1na2vs0mg"},{"bike_id":"c91642a8-1c0a-45db-a6ea-e24265fbecc7","system_id":"levelo_inurba_marseille","lat":43.23197,"lon":5.35554,"is_reserved":false,"is_disabled":false,"rental_uris":{"android":"levelo://app?vid=c91642a8-1c0a-45db-a6ea-e24265fbecc7","ios":"levelo://app?vid=c91642a8-1c0a-45db-a6ea-e24265fbecc7"},"vehicle_type_id":"4","last_reported":1739023631,"current_range_meters":16000,"station_id":"ce4bhu92rcd13ifvqi70","pricing_plan_id":"cebpf4jnsgd1na2vs0mg"},{"bike_id":"81c178fa-6760-4d32-94ce-61c662236661","system_id":"levelo_inurba_marseille","lat":43.31538,"lon":5.38017,"is_reserved":false,"is_disabled":false,"rental_uris":{"android":"levelo://app?vid=81c178fa-6760-4d32-94ce-61c662236661","ios":"levelo://app?vid=81c178fa-6760-4d32-94ce-61c662236661"},"vehicle_type_id":"4","last_reported":1739023631,"current_range_meters":32400,"station_id":"ce4bhsp2rcd13ifvqi50","pricing_plan_id":"cebpf4jnsgd1na2vs0mg"},{"bike_id":"8bec6f5e-e450-4c2b-8557-aced9db82d7a","system_id":"levelo_inurba_marseille","lat":43.25702,"lon":5.41076,"is_reserved":false,"is_disabled":false,"rental_uris":{"android":"levelo://app?vid=8bec6f5e-e450-4c2b-8557-aced9db82d7a","ios":"levelo://app?vid=8bec6f5e-e450-4c2b-8557-aced9db82d7a"},"vehicle_type_id":"4","last_reported":1739023631,"current_range_meters":36400,"station_id":"ce4bhkp2rcd13ifvqgd0","pricing_plan_id":"cebpf4jnsgd1na2vs0mg"},{"bike_id":"cdaac512-f520-43df-bf60-391206c67645","system_id":"levelo_inurba_marseille","lat":43.2848,"lon":5.38427,"is_reserved":false,"is_disabled":false,"rental_uris":{"android":"levelo://app?vid=cdaac512-f520-43df-bf60-391206c67645","ios":"levelo://app?vid=cdaac512-f520-43df-bf60-391206c67645"},"vehicle_type_id":"4","last_reported":1739023631,"current_range_meters":38800,"station_id":"ce4bh512rcd13ifvqe3g","pricing_plan_id":"cebpf4jnsgd1na2vs0mg"},{"bike_id":"368de829-0485-4b36-83c2-183445f0607b","system_id":"levelo_inurba_marseille","lat":43.29632,"lon":5.40599,"is_reserved":false,"is_disabled":false,"rental_uris":{"android":"levelo://app?vid=368de829-0485-4b36-83c2-183445f0607b","ios":"levelo://app?vid=368de829-0485-4b36-83c2-183445f0607b"},"vehicle_type_id":"4","last_reported":1739023631,"current_range_meters":38800,"station_id":"ce4bh0h2rcd13ifvqd60","pricing_plan_id":"cebpf4jnsgd1na2vs0mg"},