{"last_updated":1687885595,"ttl":30,"version":"2.2","data":{"bikes":[{"bike_id":"87d6c055-29ac-4ff7-b1f8-4e702c33f1b9","system_id":"levelo_inurba_marseille","lat":43.30904,"lon":5.36862,"is_reserved":false,"is_disabled":false,"rental_uris":{"android":"levelo://app?vid=87d6c055-29ac-4ff7-b1f8-4e702c33f1b9","ios":"levelo://app?vid=87d6c055-29ac-4ff7-b1f8-4e702c33f1b9"},"vehicle_type_id":"4","last_reported":1687885595,"current_range_meters":4400,"station_id":"ce4bgn92rcd13ifvqbvg","pricing_plan_id":"free"},{"bike_id":"953bc70b-cf31-4f4a-a32f-fb5c4f6d82fe","system_id":"levelo_inurba_marseille","lat":43.31574,"lon":5.37196,"is_reserved":false,"is_disabled":false,"rental_uris":{"android":"levelo://app?vid=953bc70b-cf31-4f4a-a32f-fb5c4f6d82fe","ios":"levelo://app?vid=953bc70b-cf31-4f4a-a32f-fb5c4f6d82fe"},"vehicle_type_id":"4","last_reported":1687885595,"current_range_meters":20000,"station_id":"","pricing_plan_id":"free"},{"bike_id":"92c70db8-c601-4749-9414-9114431798ea","system_id":"levelo_inurba_marseille","lat":43.314811,"lon":5.373103,"is_reserved":false,"is_disabled":false,"rental_uris":{"android":"levelo://app?vid=92c70db8-c601-4749-9414-9114431798ea","ios":"levelo://app?vid=92c70db8-c601-4749-9414-9114431798ea"},"vehicle_type_id":"4","last_reported":1687885595,"current_range_meters":10800,"station_id":"ce4bgt12rcd13ifvqcd0","pricing_plan_id":"free"},{"bike_id":"947fcf84-c636-4007-8607-690fa191dc37","system_id":"levelo_inurba_marseille","lat":43.31418,"lon":5.3736,"is_reserved":false,"is_disabled":false,"rental_uris":{"android":"levelo://app?vid=947fcf84-c636-4007-8607-690fa191dc37","ios":"levelo://app?vid=947fcf84-c636-4007-8607-690fa191dc37"},"vehicle_type_id":"4","last_reported":1687885595,"current_range_meters":26400,"station_id":"","pricing_plan_id":"free"},{"bike_id":"bd7a813e-5871-4c58-a74d-f6a00cc9bae9","system_id":"levelo_inurba_marseille","lat":43.305989,"lon":5.37225,"is_reserved":false,"is_disabled":false,"rental_uris":{"android":"levelo://app?vid=bd7a813e-5871-4c58-a74d-f6a00cc9bae9","ios":"levelo://app?vid=bd7a813e-5871-4c58-a74d-f6a00cc9bae9"},"vehicle_type_id":"4","last_reported":1687885595,"current_range_meters":12400,"station_id":"ce4bgqh2rcd13ifvqc4g","pricing_plan_id":"free"},{"bike_id":"890edd71-cb5c-4c30-8e92-7ee556edbd26","system_id":"levelo_inurba_marseille","lat":43.311125,"lon":5.377624,"is_reserved":false,"is_disabled":false,"rental_uris":{"android":"levelo://app?vid=890edd71-cb5c-4c30-8e92-7ee556edbd26","ios":"levelo://app?vid=890edd71-cb5c-4c30-8e92-7ee556edbd26"},"vehicle_type_id":"4","last_reported":1687885595,"current_range_meters":400,"station_id":"ce4bgt92rcd13ifvqcg0","pricing_plan_id":"free"},{"bike_id":"0a5a1e3d-7804-41b6-906b-efcebb6a3e23","system_id":"levelo_inurba_marseille","lat":43.31709,"lon":5.37729,"is_reserved":false,"is_disabled":false,"rental_uris":{"android":"levelo://app?vid=0a5a1e3d-7804-41b6-906b-efcebb6a3e23","ios":"levelo://app?vid=0a5a1e3d-7804-41b6-906b-efcebb6a3e23"},"vehicle_type_id":"4","last_reported":1687885595,"current_range_meters":6800,"station_id":"ce4bgth2rcd13ifvqch0","pricing_plan_id":"free"},{"bike_id":"417a2d52-d210-4c91-9e49-7834b2e9884e","system_id":"levelo_inurba_marseille","lat":43.30313,"lon":5.36905,"is_reserved":false,"is_disabled":false,"rental_uris":{"android":"levelo://app?vid=417a2d52-d210-4c91-9e49-7834b2e9884e","ios":"levelo://app?vid=417a2d52-d210-4c91-9e49-7834b2e9884e"},"vehicle_type_id":"4","last_reported":1687885595,"current_range_meters":13600,"station_id":"ce4bgqh2rcd13ifvqc5g","pricing_plan_id":"free"},{"bike_id":"dc8af2b8-572c-4e7c-bdc1-07ffcd5ce55f","system_id":"levelo_inurba_marseille","lat":43.315293,"lon":5.380349,"is_reserved":false,"is_disabled":false,"rental_uris":{"android":"levelo://app?vid=dc8af2b8-572c-4e7c-bdc1-07ffcd5ce55f","ios":"levelo://app?vid=dc8af2b8-572c-4e7c-bdc1-07ffcd5ce55f"},"vehicle_type_id":"4","last_reported":1687885595,"current_range_meters":4000,"station_id":"ce4bhsp2rcd13ifvqi50","pricing_plan_id":"free"},{"bike_id":"92f3c17c-dbb1-4557-bfa5-6ce4be63b723","system_id":"levelo_inurba_marseille","lat":43.308012,"lon":5.381511,"is_reserved":false,"is_disabled":false,"rental_uris":{"android":"levelo://app?vid=92f3c17c-dbb1-4557-bfa5-6ce4be63b723","ios":"levelo://app?vid=92f3c17c-dbb1-4557-bfa5-6ce4be63b723"},"vehicle_type_id":"4","last_reported":1687885595,"current_range_meters":0,"station_id":"ce4bgt12rcd13ifvqce0","pricing_plan_id":"free"},{"bike_id":"9e1eec31-5b7a-469c-bb52-e57103a1418e","system_id":"levelo_inurba_marseille","lat":43.304606,"lon":5.379026,"is_reserved":false,"is_disabled":false,"rental_uris":{"android":"levelo://app?vid=9e1eec31-5b7a-469c-bb52-e57103a1418e","ios":"levelo://app?vid=9e1eec31-5b7a-469c-bb52-e57103a1418e"},"vehicle_type_id":"4","last_reported":1687885595,"current_range_meters":12000,"station_id":"ce4bgup2rcd13ifvqcn0","pricing_plan_id":"free"},{"bike_id":"f829721c-93bd-4d70-ac26-c5f4a9b3ebf1","system_id":"levelo_inurba_marseille","lat":43.304606,"lon":5.379026,"is_reserved":false,"is_disabled":false,"rental_uris":{"android":"levelo://app?vid=f829721c-93bd-4d70-ac26-c5f4a9b3ebf1","ios":"levelo://app?vid=f829721c-93bd-4d70-ac26-c5f4a9b3ebf1"},"vehicle_type_id":"4","last_reported":1687885595,"current_range_meters":0,"station_id":"ce4bgup2rcd13ifvqcn0","pricing_plan_id":"free"},{"bike_id":"37854c9a-46fd-4bab-91ae-710bd3d0bb6d","system_id":"levelo_inurba_marseille","lat":43.30143,"lon":5.37416,"is_reserved":false,"is_disabled":false,"rental_uris":{"android":"levelo://app?vid=37854c9a-46fd-4bab-91ae-710bd3d0bb6d","ios":"levelo://app?vid=37854c9a-46fd-4bab-91ae-710bd3d0bb6d"},"vehicle_type_id":"4","last_reported":1687885595,"current_range_meters":28800,"station_id":"ce4bgs92rcd13ifvqcc0","pricing_plan_id":"free"},{"bike_id":"6ace3f1d-d4fc-42f8-9de7-535915dde704","system_id":"levelo_inurba_marseille","lat":43.30135,"lon":5.3741,"is_reserved":false,"is_disabled":false,"rental_uris":{"android":"levelo://app?vid=6ace3f1d-d4fc-42f8-9de7-535915dde704","ios":"levelo://app?vid=6ace3f1d-d4fc-42f8-9de7-535915dde704"},"vehicle_type_id":"4","last_reported":1687885595,"current_range_meters":29200,"station_id":"ce4bgs92rcd13ifvqcc0","pricing_plan_id":"free"},{"bike_id":"ff2674b5-8725-4878-b5d3-488c50f2698c","system_id":"levelo_inurba_marseille","lat":43.319935,"lon":5.381699,"is_reserved":false,"is_disabled":false,"rental_uris":{"android":"levelo://app?vid=ff2674b5-8725-4878-b5d3-488c50f2698c","ios":"levelo://app?vid=ff2674b5-8725-4878-b5d3-488c50f2698c"},"vehicle_type_id":"4","last_reported":1687885595,"current_range_meters":18000,"station_id":"ce4bhr12rcd13ifvqhpg","pricing_plan_id":"free"},{"bike_id":"f2b650ac-cbe5-40c7-8e27-7454b27164ab","system_id":"levelo_inurba_marseille","lat":43.319935,"lon":5.381699,"is_reserved":false,"is_disabled":false,"rental_uris":{"android":"levelo://app?vid=f2b650ac-cbe5-40c7-8e27-7454b27164ab","ios":"levelo://app?vid=f2b650ac-cbe5-40c7-8e27-7454b27164ab"},"vehicle_type_id":"4","last_reported":1687885595,"current_range_meters":17600,"station_id":"ce4bhr12rcd13ifvqhpg","pricing_plan_id":"free"},{"bike_id":"05d3f632-a39c-4633-9488-47750bffc80c","system_id":"levelo_inurba_marseille","lat":43.313571,"lon":5.384829,"is_reserved":false,"is_disabled":false,"rental_uris":{"android":"levelo://app?vid=05d3f632-a39c-4633-9488-47750bffc80c","ios":"levelo://app?vid=05d3f632-a39c-4633-9488-47750bffc80c"},"vehicle_type_id":"4","last_reported":1687885595,"current_range_meters":29200,"station_id":"ce4bgt92rcd13ifvqcf0","pricing_plan_id":"free"},{"bike_id":"d3adc6d4-e3f6-4851-8000-2355b12147a6","system_id":"levelo_inurba_marseille","lat":43.29856,"lon":5.36288,"is_reserved":false,"is_disabled":false,"rental_uris":{"android":"levelo://app?vid=d3adc6d4-e3f6-4851-8000-2355b12147a6","ios":"levelo://app?vid=d3adc6d4-e3f6-4851-8000-2355b12147a6"},"vehicle_type_id":"4","last_reported":1687885595,"current_range_meters":27600,"station_id":"ce4bgpp2rcd13ifvqc3g","pricing_plan_id":"free"},{"bike_id":"65ccc38d-8cad-4743-9a48-6ebd369b3197","system_id":"levelo_inurba_marseille","lat":43.29854,"lon":5.36293,"is_reserved":false,"is_disabled":false,"rental_uris":{"android":"levelo://app?vid=65ccc38d-8cad-4743-9a48-6ebd369b3197","ios":"levelo://app?vid=65ccc38d-8cad-4743-9a48-6ebd369b3197"},"vehicle_type_id":"4","last_reported":1687885595,"current_range_meters":7200,"station_id":"ce4bgpp2rcd13ifvqc3g","pricing_plan_id":"free"},{"bike_id":"eb8aa32a-63a2-4033-a015-47ebabcdf5a3","system_id":"levelo_inurba_marseille","lat":43.29849,"lon":5.36277,"is_reserved":false,"is_disabled":false,"rental_uris":{"android":"levelo://app?vid=eb8aa32a-63a2-4033-a015-47ebabcdf5a3","ios":"levelo://app?vid=eb8aa32a-63a2-4033-a015-47ebabcdf5a3"},"vehicle_type_id":"4","last_reported":1687885595,"current_range_meters":31200,"station_id":"ce4bgpp2rcd13ifvqc3g","pricing_plan_id":"free"},{"bike_id":"9d38bfee-3a6d-4b27-ad7b-0c51aaa214c8","system_id":"levelo_inurba_marseille","lat":43.298433,"lon":5.362774,"is_reserved":false,"is_disabled":false,"rental_uris":{"android":"levelo://app?vid=9d38bfee-3a6d-4b27-ad7b-0c51aaa214c8","ios":"levelo://app?vid=9d38bfee-3a6d-4b27-ad7b-0c51aaa214c8"},"vehicle_type_id":"4","last_reported":1687885595,"current_range_meters":2400,"station_id":"ce4bgpp2rcd13ifvqc3g","pricing_plan_id":"free"},{"bike_id":"68b76d3d-8fa5-4600-8136-2b0bb8bef278","system_id":"levelo_inurba_marseille","lat":43.29844,"lon":5.36269,"is_reserved":false,"is_disabled":false,"rental_uris":{"android":"levelo://app?vid=68b76d3d-8fa5-4600-8136-2b0bb8bef278","ios":"levelo://app?vid=68b76d3d-8fa5-4600-8136-2b0bb8bef278"},"vehicle_type_id":"4","last_reported":1687885595,"current_range_meters":31200,"station_id":"ce4bgpp2rcd13ifvqc3g","pricing_plan_id":"free"},{"bike_id":"65eb1ef8-fb5f-40aa-909d-0ee50484bf02","system_id":"levelo_inurba_marseille","lat":43.2984,"lon":5.36268,"is_reserved":false,"is_disabled":false,"rental_uris":{"android":"levelo://app?vid=65eb1ef8-fb5f-40aa-909d-0ee50484bf02","ios":"levelo://app?vid=65eb1ef8-fb5f-40aa-909d-0ee50484bf02"},"vehicle_type_id":"4","last_reported":1687885595,"current_range_meters":31200,"station_id":"ce4bgpp2rcd13ifvqc3g","pricing_plan_id":"free"},{"bike_id":"6d77277b-9213-4ae0-9be5-aeb44c0154b7","system_id":"levelo_inurba_marseille","lat":43.298433,"lon":5.362774,"is_reserved":false,"is_disabled":false,"rental_uris":{"android":"levelo://app?vid=6d77277b-9213-4ae0-9be5-aeb44c0154b7","ios":"levelo://app?vid=6d77277b-9213-4ae0-9be5-aeb44c0154b7"},"vehicle_type_id":"4","last_reported":1687885595,"current_range_meters":2400,"station_id":"ce4bgpp2rcd13ifvqc3g","pricing_plan_id":"free"},{"bike_id":"c754090d-39d5-4bc8-91d1-44e5006127cd","system_id":"levelo_inurba_marseille","lat":43.299243,"lon":5.37481,"is_reserved":false,"is_disabled":false,"rental_uris":{"android":"levelo://app?vid=c754090d-39d5-4bc8-91d1-44e5006127cd","ios":"levelo://app?vid=c754090d-39d5-4bc8-91d1-44e5006127cd"},"vehicle_type_id":"4","last_reported":1687885595,"current_range_meters":4000,"station_id":"ce4bgjh2rcd13ifvqbg0","pricing_plan_id":"free"},{"bike_id":"00f03eec-496c-4a4b-81d5-91141cc0ca51","system_id":"levelo_inurba_marseille","lat":43.297794,"lon":5.370888,"is_reserved":false,"is_disabled":false,"rental_uris":{"android":"levelo://app?vid=00f03eec-496c-4a4b-81d5-91141cc0ca51","ios":"levelo://app?vid=00f03eec-496c-4a4b-81d5-91141cc0ca51"},"vehicle_type_id":"4","last_reported":1687885595,"current_range_meters":22800,"station_id":"ce4bgop2rcd13ifvqc1g","pricing_plan_id":"free"},{"bike_id":"a2148320-3161-4796-a2cc-382aac6652dc","system_id":"levelo_inurba_marseille","lat":43.297774,"lon":5.370875,"is_reserved":false,"is_disabled":false,"rental_uris":{"android":"levelo://app?vid=a2148320-3161-4796-a2cc-382aac6652dc","ios":"levelo://app?vid=a2148320-3161-4796-a2cc-382aac6652dc"},"vehicle_type_id":"4","last_reported":1687885595,"current_range_meters":4800,"station_id":"ce4bgop2rcd13ifvqc1g","pricing_plan_id":"free"},{"bike_id":"c0ba4054-03d2-4233-93b4-0461723bc0b5","system_id":"levelo_inurba_marseille","lat":43.328371,"lon":5.366909,"is_reserved":false,"is_disabled":false,"rental_uris":{"android":"levelo://app?vid=c0ba4054-03d2-4233-93b4-0461723bc0b5","ios":"levelo://app?vid=c0ba4054-03d2-4233-93b4-0461723bc0b5"},"vehicle_type_id":"4","last_reported":1687885595,"current_range_meters":23600,"station_id":"ce4bhs92rcd13ifvqi0g","pricing_plan_id":"free"},{"bike_id":"5108659d-1431-4d89-a11a-e27336cba391","system_id":"levelo_inurba_marseille","lat":43.328371,"lon":5.366909,"is_reserved":false,"is_disabled":false,"rental_uris":{"android":"levelo://app?vid=5108659d-1431-4d89-a11a-e27336cba391","ios":"levelo://app?vid=5108659d-1431-4d89-a11a-e27336cba391"},"vehicle_type_id":"4","last_reported":1687885595,"current_range_meters":21200,"station_id":"ce4bhs92rcd13ifvqi0g","pricing_plan_id":"free"},{"bike_id":"a8537d49-534e-49b1-8ad8-f46da1b5ef6b","system_id":"levelo_inurba_marseille","lat":43.328371,"lon":5.366909,"is_reserved":false,"is_disabled":false,"rental_uris":{"android":"levelo://app?vid=a8537d49-534e-49b1-8ad8-f46da1b5ef6b","ios":"levelo://app?vid=a8537d49-534e-49b1-8ad8-f46da1b5ef6b"},"vehicle_type_id":"4","last_reported":1687885595,"current_range_meters":20400,"station_id":"ce4bhs92rcd13ifvqi0g","pricing_plan_id":"free"},{"bike_id":"4ad0820a-b4f0-4687-9297-85e68595ea74","system_id":"levelo_inurba_marseille","lat":43.3283,"lon":5.36673,"is_reserved":false,"is_disabled":false,"rental_uris":{"android":"levelo://app?vid=4ad0820a-b4f0-4687-9297-85e68595ea74","ios":"levelo://app?vid=4ad0820a-b4f0-4687-9297-85e68595ea74"},"vehicle_type_id":"4","last_reported":1687885595,"current_range_meters":20400,"station_id":"ce4bhs92rcd13ifvqi0g","pricing_plan_id":"free"},{"bike_id":"8d98417a-cbe4-4269-8bc9-598373a7d5de","system_id":"levelo_inurba_marseille","lat":43.32869,"lon":5.363,"is_reserved":false,"is_disabled":false,"rental_uris":{"android":"levelo://app?vid=8d98417a-cbe4-4269-8bc9-598373a7d5de","ios":"levelo://app?vid=8d98417a-cbe4-4269-8bc9-598373a7d5de"},"vehicle_type_id":"4","last_reported":1687885595,"current_range_meters":7200,"station_id":"","pricing_plan_id":"free"},{"bike_id":"4efe423c-155e-4709-baf0-f71dca3e54bb","system_id":"levelo_inurba_marseille","lat":43.296131,"lon":5.370773,"is_reserved":false,"is_disabled":false,"rental_uris":{"android":"levelo://app?vid=4efe423c-155e-4709-baf0-f71dca3e54bb","ios":"levelo://app?vid=4efe423c-155e-4709-baf0-f71dca3e54bb"},"vehicle_type_id":"4","last_reported":1687885595,"current_range_meters":17600,"station_id":"ce4bgnh2rcd13ifvqc0g","pricing_plan_id":"free"},{"bike_id":"705df119-07fb-4b60-8973-ee0aca98faf9","system_id":"levelo_inurba_marseille","lat":43.296131,"lon":5.370773,"is_reserved":false,"is_disabled":false,"rental_uris":{"android":"levelo://app?vid=705df119-07fb-4b60-8973-ee0aca98faf9","ios":"levelo://app?vid=705df119-07fb-4b60-8973-ee0aca98faf9"},"vehicle_type_id":"4","last_reported":1687885595,"current_range_meters":16800,"station_id":"ce4bgnh2rcd13ifvqc0g","pricing_plan_id":"free"},{"bike_id":"e2322d34-9732-439f-ab85-7b64e2cdf4cd","system_id":"levelo_inurba_marseille","lat":43.29892,"lon":5.38032,"is_reserved":false,"is_disabled":false,"rental_uris":{"android":"levelo://app?vid=e2322d34-9732-439f-ab85-7b64e2cdf4cd","ios":"levelo://app?vid=e2322d34-9732-439f-ab85-7b64e2cdf4cd"},"vehicle_type_id":"4","last_reported":1687885595,"current_range_meters":6000,"station_id":"","pricing_plan_id":"free"},{"bike_id":"4d63ee10-3bfa-4aa0-aed3-a6b7d3537a8a","system_id":"levelo_inurba_marseille","lat":43.29669,"lon":5.37454,"is_reserved":false,"is_disabled":false,"rental_uris":{"android":"levelo://app?vid=4d63ee10-3bfa-4aa0-aed3-a6b7d3537a8a","ios":"levelo://app?vid=4d63ee10-3bfa-4aa0-aed3-a6b7d3537a8a"},"vehicle_type_id":"4","last_reported":1687885595,"current_range_meters":31200,"station_id":"","pricing_plan_id":"free"},{"bike_id":"2968c1a9-7807-4e55-8eeb-b4dd789e2a9b","system_id":"levelo_inurba_marseille","lat":43.29573,"lon":5.367355,"is_reserved":false,"is_disabled":false,"rental_uris":{"android":"levelo://app?vid=2968c1a9-7807-4e55-8eeb-b4dd789e2a9b","ios":"levelo://app?vid=2968c1a9-7807-4e55-8eeb-b4dd789e2a9b"},"vehicle_type_id":"4","last_reported":1687885595,"current_range_meters":4400,"station_id":"ce4bgph2rcd13ifvqc2g","pricing_plan_id":"free"},{"bike_id":"7db5c952-33c6-4a87-99b5-871bda7e1952","system_id":"levelo_inurba_marseille","lat":43.299028,"lon":5.381509,"is_reserved":false,"is_disabled":false,"rental_uris":{"android":"levelo://app?vid=7db5c952-33c6-4a87-99b5-871bda7e1952","ios":"levelo://app?vid=7db5c952-33c6-4a87-99b5-871bda7e1952"},"vehicle_type_id":"4","last_reported":1687885595,"current_range_meters":8400,"station_id":"ce4bgj12rcd13ifvqbc0","pricing_plan_id":"free"},{"bike_id":"262bd3d6-7741-42cb-b3f9-bb9cf2265f4d","system_id":"levelo_inurba_marseille","lat":43.296921,"lon":5.376579,"is_reserved":false,"is_disabled":false,"rental_uris":{"android":"levelo://app?vid=262bd3d6-7741-42cb-b3f9-bb9cf2265f4d","ios":"levelo://app?vid=262bd3d6-7741-42cb-b3f9-bb9cf2265f4d"},"vehicle_type_id":"4","last_reported":1687885595,"current_range_meters":1600,"station_id":"ce4bgkh2rcd13ifvqbl0","pricing_plan_id":"free"},{"bike_id":"75ace0bf-a64e-4a4f-8b75-485835fe2cee","system_id":"levelo_inurba_marseille","lat":43.309589,"lon":5.390258,"is_reserved":false,"is_disabled":false,"rental_uris":{"android":"levelo://app?vid=75ace0bf-a64e-4a4f-8b75-485835fe2cee","ios":"levelo://app?vid=75ace0bf-a64e-4a4f-8b75-485835fe2cee"},"vehicle_type_id":"4","last_reported":1687885595,"current_range_meters":2800,"station_id":"ce4bgup2rcd13ifvqco0","pricing_plan_id":"free"},{"bike_id":"75a1d9e9-a77a-4e49-8f68-3e08192d087c","system_id":"levelo_inurba_marseille","lat":43.309589,"lon":5.390258,"is_reserved":false,"is_disabled":false,"rental_uris":{"android":"levelo://app?vid=75a1d9e9-a77a-4e49-8f68-3e08192d087c","ios":"levelo://app?vid=75a1d9e9-a77a-4e49-8f68-3e08192d087c"},"vehicle_type_id":"4","last_reported":1687885595,"current_range_meters":22000,"station_id":"ce4bgup2rcd13ifvqco0","pricing_plan_id":"free"},{"bike_id":"922e3ac6-961a-4377-9b0d-fb5f41070e6e","system_id":"levelo_inurba_marseille","lat":43.309589,"lon":5.390258,"is_reserved":false,"is_disabled":false,"rental_uris":{"android":"levelo://app?vid=922e3ac6-961a-4377-9b0d-fb5f41070e6e","ios":"levelo://app?vid=922e3ac6-961a-4377-9b0d-fb5f41070e6e"},"vehicle_type_id":"4","last_reported":1687885595,"current_range_meters":13200,"station_id":"ce4bgup2rcd13ifvqco0","pricing_plan_id":"free"},{"bike_id":"2baffbfe-7d26-4109-b9f8-025868f5bf57","system_id":"levelo_inurba_marseille","lat":43.3174,"lon":5.39022,"is_reserved":false,"is_disabled":false,"rental_uris":{"android":"levelo://app?vid=2baffbfe-7d26-4109-b9f8-025868f5bf57","ios":"levelo://app?vid=2baffbfe-7d26-4109-b9f8-025868f5bf57"},"vehicle_type_id":"4","last_reported":1687885595,"current_range_meters":14800,"station_id":"ce4bhqp2rcd13ifvqhng","pricing_plan_id":"free"},{"bike_id":"7813a6d8-fb21-467b-82f3-814ade40895a","system_id":"levelo_inurba_marseille","lat":43.29926,"lon":5.38338,"is_reserved":false,"is_disabled":false,"rental_uris":{"android":"levelo://app?vid=7813a6d8-fb21-467b-82f3-814ade40895a","ios":"levelo://app?vid=7813a6d8-fb21-467b-82f3-814ade40895a"},"vehicle_type_id":"4","last_reported":1687885595,"current_range_meters":18400,"station_id":"","pricing_plan_id":"free"},{"bike_id":"bab41398-884c-4a09-ad7c-290dd7a1b1ce","system_id":"levelo_inurba_marseille","lat":43.30433,"lon":5.38896,"is_reserved":false,"is_disabled":false,"rental_uris":{"android":"levelo://app?vid=bab41398-884c-4a09-ad7c-290dd7a1b1ce","ios":"levelo://app?vid=bab41398-884c-4a09-ad7c-290dd7a1b1ce"},"vehicle_type_id":"4","last_reported":1687885595,"current_range_meters":2400,"station_id":"ce4bgk12rcd13ifvqbi0","pricing_plan_id":"free"},{"bike_id":"58fbbf16-43e1-48d7-a819-16327dee955b","system_id":"levelo_inurba_marseille","lat":43.304274,"lon":5.388873,"is_reserved":false,"is_disabled":false,"rental_uris":{"android":"levelo://app?vid=58fbbf16-43e1-48d7-a819-16327dee955b","ios":"levelo://app?vid=58fbbf16-43e1-48d7-a819-16327dee955b"},"vehicle_type_id":"4","last_reported":1687885595,"current_range_meters":20400,"station_id":"ce4bgk12rcd13ifvqbi0","pricing_plan_id":"free"},{"bike_id":"cb92070a-d1f7-443b-b834-09461a9214a7","system_id":"levelo_inurba_marseille","lat":43.304274,"lon":5.388873,"is_reserved":false,"is_disabled":false,"rental_uris":{"android":"levelo://app?vid=cb92070a-d1f7-443b-b834-09461a9214a7","ios":"levelo://app?vid=cb92070a-d1f7-443b-b834-09461a9214a7"},"vehicle_type_id":"4","last_reported":1687885595,"current_range_meters":0,"station_id":"ce4bgk12rcd13ifvqbi0","pricing_plan_id":"free"},{"bike_id":"643a5c0e-3c68-4708-8554-fecf80861096","system_id":"levelo_inurba_marseille","lat":43.29573,"lon":5.367355,"is_reserved":false,"is_disabled":false,"rental_uris":{"android":"levelo://app?vid=643a5c0e-3c68-4708-8554-fecf80861096","ios":"levelo://app?vid=643a5c0e-3c68-4708-8554-fecf80861096"},"vehicle_type_id":"4","last_reported":1687885595,"current_range_meters":23600,"station_id":"ce4bgph2rcd13ifvqc2g","pricing_plan_id":"free"},{"bike_id":"8bc05d9c-64a9-42a7-b375-dd82b089d867","system_id":"levelo_inurba_marseille","lat":43.32367,"lon":5.388836,"is_reserved":false,"is_disabled":false,"rental_uris":{"android":"levelo://app?vid=8bc05d9c-64a9-42a7-b375-dd82b089d867","ios":"levelo://app?vid=8bc05d9c-64a9-42a7-b375-dd82b089d867"},"vehicle_type_id":"4","last_reported":1687885595,"current_range_meters":22000,"station_id":"ce4bhqp2rcd13ifvqhog","pricing_plan_id":"free"},{"bike_id":"800f3d47-66bf-488d-a165-a5a88406d6e7","system_id":"levelo_inurba_marseille","lat":43.32366,"lon":5.38879,"is_reserved":false,"is_disabled":false,"rental_uris":{"android":"levelo://app?vid=800f3d47-66bf-488d-a165-a5a88406d6e7","ios":"levelo://app?vid=800f3d47-66bf-488d-a165-a5a88406d6e7"},"vehicle_type_id":"4","last_reported":1687885595,"current_range_meters":13600,"station_id":"","pricing_plan_id":"free"},{"bike_id":"6f640b87-aed1-4f77-bc78-e551d97ce290","system_id":"levelo_inurba_marseille","lat":43.32367,"lon":5.388836,"is_reserved":false,"is_disabled":false,"rental_uris":{"android":"levelo://app?vid=6f640b87-aed1-4f77-bc78-e551d97ce290","ios":"levelo://app?vid=6f640b87-aed1-4f77-bc78-e551d97ce290"},"vehicle_type_id":"4","last_reported":1687885595,"current_range_meters":6400,"station_id":"ce4bhqp2rcd13ifvqhog","pricing_plan_id":"free"},{"bike_id":"19e429c9-007a-48c0-8735-3cdb36c29b5f","system_id":"levelo_inurba_marseille","lat":43.32367,"lon":5.388836,"is_reserved":false,"is_disabled":false,"rental_uris":{"android":"levelo://app?vid=19e429c9-007a-48c0-8735-3cdb36c29b5f","ios":"levelo://app?vid=19e429c9-007a-48c0-8735-3cdb36c29b5f"},"vehicle_type_id":"4","last_reported":1687885595,"current_range_meters":23200,"station_id":"ce4bhqp2rcd13ifvqhog","pricing_plan_id":"free"},{"bike_id":"17e2fe43-0bfd-49bd-8635-8b3dbcfcc720","system_id":"levelo_inurba_marseille","lat":43.29601,"lon":5.381084,"is_reserved":false,"is_disabled":false,"rental_uris":{"android":"levelo://app?vid=17e2fe43-0bfd-49bd-8635-8b3dbcfcc720","ios":"levelo://app?vid=17e2fe43-0bfd-49bd-8635-8b3dbcfcc720"},"vehicle_type_id":"4","last_reported":1687885595,"current_range_meters":30000,"station_id":"ce4bgl12rcd13ifvqbo0","pricing_plan_id":"free"},{"bike_id":"bed8fa1d-e223-4340-9e90-0f86d7673532","system_id":"levelo_inurba_marseille","lat":43.29303,"lon":5.37182,"is_reserved":false,"is_disabled":false,"rental_uris":{"android":"levelo://app?vid=bed8fa1d-e223-4340-9e90-0f86d7673532","ios":"levelo://app?vid=bed8fa1d-e223-4340-9e90-0f86d7673532"},"vehicle_type_id":"4","last_reported":1687885595,"current_range_meters":9200,"station_id":"ce4bgh92rcd13ifvqb40","pricing_plan_id":"free"},{"bike_id":"75bd825f-eea0-4e55-968c-150e49e907ba","system_id":"levelo_inurba_marseille","lat":43.29253,"lon":5.36741,"is_reserved":false,"is_disabled":false,"rental_uris":{"android":"levelo://app?vid=75bd825f-eea0-4e55-968c-150e49e907ba","ios":"levelo://app?vid=75bd825f-eea0-4e55-968c-150e49e907ba"},"vehicle_type_id":"4","last_reported":1687885595,"current_range_meters":16800,"station_id":"","pricing_plan_id":"free"},{"bike_id":"150a5b1a-7824-4dec-a17f-97ca6e2755ba","system_id":"levelo_inurba_marseille","lat":43.32313,"lon":5.39091,"is_reserved":false,"is_disabled":false,"rental_uris":{"android":"levelo://app?vid=150a5b1a-7824-4dec-a17f-97ca6e2755ba","ios":"levelo://app?vid=150a5b1a-7824-4dec-a17f-97ca6e2755ba"},"vehicle_type_id":"4","last_reported":1687885595,"current_range_meters":7200,"station_id":"","pricing_plan_id":"free"},{"bike_id":"e6fb5672-1e00-4dc9-a218-0153bbb8c9b5","system_id":"levelo_inurba_marseille","lat":43.29296,"lon":5.37444,"is_reserved":false,"is_disabled":false,"rental_uris":{"android":"levelo://app?vid=e6fb5672-1e00-4dc9-a218-0153bbb8c9b5","ios":"levelo://app?vid=e6fb5672-1e00-4dc9-a218-0153bbb8c9b5"},"vehicle_type_id":"4","last_reported":1687885595,"current_range_meters":0,"station_id":"ce4bgi12rcd13ifvqb70","pricing_plan_id":"free"},{"bike_id":"9508feae-f093-40ed-9af0-3ee2f20367aa","system_id":"levelo_inurba_marseille","lat":43.29297,"lon":5.37461,"is_reserved":false,"is_disabled":false,"rental_uris":{"android":"levelo://app?vid=9508feae-f093-40ed-9af0-3ee2f20367aa","ios":"levelo://app?vid=9508feae-f093-40ed-9af0-3ee2f20367aa"},"vehicle_type_id":"4","last_reported":1687885595,"current_range_meters":0,"station_id":"ce4bgi12rcd13ifvqb70","pricing_plan_id":"free"},{"bike_id":"9bffea72-dc62-498b-9cca-61b14af708ac","system_id":"levelo_inurba_marseille","lat":43.29296,"lon":5.37458,"is_reserved":false,"is_disabled":false,"rental_uris":{"android":"levelo://app?vid=9bffea72-dc62-498b-9cca-61b14af708ac","ios":"levelo://app?vid=9bffea72-dc62-498b-9cca-61b14af708ac"},"vehicle_type_id":"4","last_reported":1687885595,"current_range_meters":15600,"station_id":"ce4bgi12rcd13ifvqb70","pricing_plan_id":"free"},{"bike_id":"ada5bde7-54e6-4422-9bbd-cca2d54b14ed","system_id":"levelo_inurba_marseille","lat":43.2936,"lon":5.37835,"is_reserved":false,"is_disabled":false,"rental_uris":{"android":"levelo://app?vid=ada5bde7-54e6-4422-9bbd-cca2d54b14ed","ios":"levelo://app?vid=ada5bde7-54e6-4422-9bbd-cca2d54b14ed"},"vehicle_type_id":"4","last_reported":1687885595,"current_range_meters":5200,"station_id":"ce4bgjh2rcd13ifvqbf0","pricing_plan_id":"free"},{"bike_id":"49d45ea2-5072-467e-990c-e290a1190dae","system_id":"levelo_inurba_marseille","lat":43.2936,"lon":5.37835,"is_reserved":false,"is_disabled":false,"rental_uris":{"android":"levelo://app?vid=49d45ea2-5072-467e-990c-e290a1190dae","ios":"levelo://app?vid=49d45ea2-5072-467e-990c-e290a1190dae"},"vehicle_type_id":"4","last_reported":1687885595,"current_range_meters":18800,"station_id":"ce4bgjh2rcd13ifvqbf0","pricing_plan_id":"free"},{"bike_id":"a4dda460-8605-4892-9751-fb2640e268b6","system_id":"levelo_inurba_marseille","lat":43.29228,"lon":5.36041,"is_reserved":false,"is_disabled":false,"rental_uris":{"android":"levelo://app?vid=a4dda460-8605-4892-9751-fb2640e268b6","ios":"levelo://app?vid=a4dda460-8605-4892-9751-fb2640e268b6"},"vehicle_type_id":"4","last_reported":1687885595,"current_range_meters":22000,"station_id":"","pricing_plan_id":"free"},{"bike_id":"ddd849ab-6950-446d-9a40-2f293c05083f","system_id":"levelo_inurba_marseille","lat":43.291671,"lon":5.371575,"is_reserved":false,"is_disabled":false,"rental_uris":{"android":"levelo://app?vid=ddd849ab-6950-446d-9a40-2f293c05083f","ios":"levelo://app?vid=ddd849ab-6950-446d-9a40-2f293c05083f"},"vehicle_type_id":"4","last_reported":1687885595,"current_range_meters":14400,"station_id":"ce4bha92rcd13ifvqeh0","pricing_plan_id":"free"},{"bike_id":"3793bff1-0488-48cb-bd83-a94a74b44810","system_id":"levelo_inurba_marseille","lat":43.298764,"lon":5.388973,"is_reserved":false,"is_disabled":false,"rental_uris":{"android":"levelo://app?vid=3793bff1-0488-48cb-bd83-a94a74b44810","ios":"levelo://app?vid=3793bff1-0488-48cb-bd83-a94a74b44810"},"vehicle_type_id":"4","last_reported":1687885595,"current_range_meters":3200,"station_id":"ce4bh392rcd13ifvqdl0","pricing_plan_id":"free"},{"bike_id":"a0a2c5e1-c3fb-49b0-b85d-05144e7d9539","system_id":"levelo_inurba_marseille","lat":43.313291,"lon":5.396838,"is_reserved":false,"is_disabled":false,"rental_uris":{"android":"levelo://app?vid=a0a2c5e1-c3fb-49b0-b85d-05144e7d9539","ios":"levelo://app?vid=a0a2c5e1-c3fb-49b0-b85d-05144e7d9539"},"vehicle_type_id":"4","last_reported":1687885595,"current_range_meters":12400,"station_id":"ce4bgvp2rcd13ifvqcu0","pricing_plan_id":"free"},{"bike_id":"9bbba0d2-66cb-4d91-aaf6-5954e9a8be7f","system_id":"levelo_inurba_marseille","lat":43.313291,"lon":5.396838,"is_reserved":false,"is_disabled":false,"rental_uris":{"android":"levelo://app?vid=9bbba0d2-66cb-4d91-aaf6-5954e9a8be7f","ios":"levelo://app?vid=9bbba0d2-66cb-4d91-aaf6-5954e9a8be7f"},"vehicle_type_id":"4","last_reported":1687885595,"current_range_meters":8800,"station_id":"ce4bgvp2rcd13ifvqcu0","pricing_plan_id":"free"},{"bike_id":"e1cbe66b-7c75-4a1c-a76b-93d51d177679","system_id":"levelo_inurba_marseille","lat":43.298764,"lon":5.388973,"is_reserved":false,"is_disabled":false,"rental_uris":{"android":"levelo://app?vid=e1cbe66b-7c75-4a1c-a76b-93d51d177679","ios":"levelo://app?vid=e1cbe66b-7c75-4a1c-a76b-93d51d177679"},"vehicle_type_id":"4","last_reported":1687885595,"current_range_meters":8800,"station_id":"ce4bh392rcd13ifvqdl0","pricing_plan_id":"free"},{"bike_id":"58261e07-dabf-4dfb-816b-f9f8458dff18","system_id":"levelo_inurba_marseille","lat":43.2895,"lon":5.36635,"is_reserved":false,"is_disabled":false,"rental_uris":{"android":"levelo://app?vid=58261e07-dabf-4dfb-816b-f9f8458dff18","ios":"levelo://app?vid=58261e07-dabf-4dfb-816b-f9f8458dff18"},"vehicle_type_id":"4","last_reported":1687885595,"current_range_meters":12800,"station_id":"","pricing_plan_id":"free"},{"bike_id":"6867df42-30dd-4825-b7fe-404564247748","system_id":"levelo_inurba_marseille","lat":43.294174,"lon":5.386231,"is_reserved":false,"is_disabled":false,"rental_uris":{"android":"levelo://app?vid=6867df42-30dd-4825-b7fe-404564247748","ios":"levelo://app?vid=6867df42-30dd-4825-b7fe-404564247748"},"vehicle_type_id":"4","last_reported":1687885595,"current_range_meters":14000,"station_id":"","pricing_plan_id":"free"},{"bike_id":"399ef6b6-bd49-40a3-a085-0dfa050cfb9f","system_id":"levelo_inurba_marseille","lat":43.29411,"lon":5.38614,"is_reserved":false,"is_disabled":false,"rental_uris":{"android":"levelo://app?vid=399ef6b6-bd49-40a3-a085-0dfa050cfb9f","ios":"levelo://app?vid=399ef6b6-bd49-40a3-a085-0dfa050cfb9f"},"vehicle_type_id":"4","last_reported":1687885595,"current_range_meters":7200,"station_id":"","pricing_plan_id":"free"},{"bike_id":"41b37d03-20e1-4b59-9554-eda617d53ad1","system_id":"levelo_inurba_marseille","lat":43.28932,"lon":5.36397,"is_reserved":false,"is_disabled":false,"rental_uris":{"android":"levelo://app?vid=41b37d03-20e1-4b59-9554-eda617d53ad1","ios":"levelo://app?vid=41b37d03-20e1-4b59-9554-eda617d53ad1"},"vehicle_type_id":"4","last_reported":1687885595,"current_range_meters":19600,"station_id":"ce4bhc92rcd13ifvqetg","pricing_plan_id":"free"},{"bike_id":"c71e7bdd-1b32-4f7d-a21e-e3ca28a191fe","system_id":"levelo_inurba_marseille","lat":43.28916,"lon":5.36681,"is_reserved":false,"is_disabled":false,"rental_uris":{"android":"levelo://app?vid=c71e7bdd-1b32-4f7d-a21e-e3ca28a191fe","ios":"levelo://app?vid=c71e7bdd-1b32-4f7d-a21e-e3ca28a191fe"},"vehicle_type_id":"4","last_reported":1687885595,"current_range_meters":9600,"station_id":"","pricing_plan_id":"free"},{"bike_id":"0f68a93c-6137-4079-8d40-77196a607f8a","system_id":"levelo_inurba_marseille","lat":43.29263,"lon":5.38441,"is_reserved":false,"is_disabled":false,"rental_uris":{"android":"levelo://app?vid=0f68a93c-6137-4079-8d40-77196a607f8a","ios":"levelo://app?vid=0f68a93c-6137-4079-8d40-77196a607f8a"},"vehicle_type_id":"4","last_reported":1687885595,"current_range_meters":17200,"station_id":"ce4bh692rcd13ifvqea0","pricing_plan_id":"free"},{"bike_id":"f5322964-bef0-4e42-bd98-60d8a3c35c8d","system_id":"levelo_inurba_marseille","lat":43.29259,"lon":5.38436,"is_reserved":false,"is_disabled":false,"rental_uris":{"android":"levelo://app?vid=f5322964-bef0-4e42-bd98-60d8a3c35c8d","ios":"levelo://app?vid=f5322964-bef0-4e42-bd98-60d8a3c35c8d"},"vehicle_type_id":"4","last_reported":1687885595,"current_range_meters":800,"station_id":"ce4bh692rcd13ifvqea0","pricing_plan_id":"free"},{"bike_id":"ca665771-d112-4d9a-b33f-bc62db9542d2","system_id":"levelo_inurba_marseille","lat":43.30276,"lon":5.3968,"is_reserved":false,"is_disabled":false,"rental_uris":{"android":"levelo://app?vid=ca665771-d112-4d9a-b33f-bc62db9542d2","ios":"levelo://app?vid=ca665771-d112-4d9a-b33f-bc62db9542d2"},"vehicle_type_id":"4","last_reported":1687885595,"current_range_meters":14000,"station_id":"ce4bhnp2rcd13ifvqgvg","pricing_plan_id":"free"},{"bike_id":"575f2ce6-b8ef-48be-8fb6-f4590334874a","system_id":"levelo_inurba_marseille","lat":43.290103,"lon":5.356114,"is_reserved":false,"is_disabled":false,"rental_uris":{"android":"levelo://app?vid=575f2ce6-b8ef-48be-8fb6-f4590334874a","ios":"levelo://app?vid=575f2ce6-b8ef-48be-8fb6-f4590334874a"},"vehicle_type_id":"4","last_reported":1687885595,"current_range_meters":24800,"station_id":"ce4bhb92rcd13ifvqen0","pricing_plan_id":"free"},{"bike_id":"4214d56d-9d6c-4b0b-aced-bf51aaa23489","system_id":"levelo_inurba_marseille","lat":43.3305,"lon":5.3891,"is_reserved":false,"is_disabled":false,"rental_uris":{"android":"levelo://app?vid=4214d56d-9d6c-4b0b-aced-bf51aaa23489","ios":"levelo://app?vid=4214d56d-9d6c-4b0b-aced-bf51aaa23489"},"vehicle_type_id":"4","last_reported":1687885595,"current_range_meters":25600,"station_id":"ce4bhr92rcd13ifvqhrg","pricing_plan_id":"free"},{"bike_id":"2c6eed03-73eb-4674-84d9-cdbbd3b77da4","system_id":"levelo_inurba_marseille","lat":43.28999,"lon":5.35614,"is_reserved":false,"is_disabled":false,"rental_uris":{"android":"levelo://app?vid=2c6eed03-73eb-4674-84d9-cdbbd3b77da4","ios":"levelo://app?vid=2c6eed03-73eb-4674-84d9-cdbbd3b77da4"},"vehicle_type_id":"4","last_reported":1687885595,"current_range_meters":15200,"station_id":"ce4bhb92rcd13ifvqen0","pricing_plan_id":"free"},{"bike_id":"5ffa1d89-f72e-448e-892f-4b89e21e1484","system_id":"levelo_inurba_marseille","lat":43.290103,"lon":5.356114,"is_reserved":false,"is_disabled":false,"rental_uris":{"android":"levelo://app?vid=5ffa1d89-f72e-448e-892f-4b89e21e1484","ios":"levelo://app?vid=5ffa1d89-f72e-448e-892f-4b89e21e1484"},"vehicle_type_id":"4","last_reported":1687885595,"current_range_meters":6000,"station_id":"ce4bhb92rcd13ifvqen0","pricing_plan_id":"free"},{"bike_id":"7e604a9e-c6e0-4b17-94a5-0b1aa4860100","system_id":"levelo_inurba_marseille","lat":43.28997,"lon":5.35617,"is_reserved":false,"is_disabled":false,"rental_uris":{"android":"levelo://app?vid=7e604a9e-c6e0-4b17-94a5-0b1aa4860100","ios":"levelo://app?vid=7e604a9e-c6e0-4b17-94a5-0b1aa4860100"},"vehicle_type_id":"4","last_reported":1687885595,"current_range_meters":19600,"station_id":"ce4bhb92rcd13ifvqen0","pricing_plan_id":"free"},{"bike_id":"59c25d15-64ec-44ab-b616-0a293cbb4e67","system_id":"levelo_inurba_marseille","lat":43.28856,"lon":5.358371,"is_reserved":false,"is_disabled":false,"rental_uris":{"android":"levelo://app?vid=59c25d15-64ec-44ab-b616-0a293cbb4e67","ios":"levelo://app?vid=59c25d15-64ec-44ab-b616-0a293cbb4e67"},"vehicle_type_id":"4","last_reported":1687885595,"current_range_meters":22800,"station_id":"ce4bhb12rcd13ifvqem0","pricing_plan_id":"free"},{"bike_id":"9fb54403-0fb4-45e8-8292-7eceaed71df0","system_id":"levelo_inurba_marseille","lat":43.28856,"lon":5.358371,"is_reserved":false,"is_disabled":false,"rental_uris":{"android":"levelo://app?vid=9fb54403-0fb4-45e8-8292-7eceaed71df0","ios":"levelo://app?vid=9fb54403-0fb4-45e8-8292-7eceaed71df0"},"vehicle_type_id":"4","last_reported":1687885595,"current_range_meters":0,"station_id":"ce4bhb12rcd13ifvqem0","pricing_plan_id":"free"},{"bike_id":"5b3af88b-6c68-4131-9928-67755709b417","system_id":"levelo_inurba_marseille","lat":43.28856,"lon":5.358371,"is_reserved":false,"is_disabled":false,"rental_uris":{"android":"levelo://app?vid=5b3af88b-6c68-4131-9928-67755709b417","ios":"levelo://app?vid=5b3af88b-6c68-4131-9928-67755709b417"},"vehicle_type_id":"4","last_reported":1687885595,"current_range_meters":14400,"station_id":"ce4bhb12rcd13ifvqem0","pricing_plan_id":"free"},{"bike_id":"88dc17bd-d98c-4ee0-afca-e601bb4fec4e","system_id":"levelo_inurba_marseille","lat":43.28856,"lon":5.358371,"is_reserved":false,"is_disabled":false,"rental_uris":{"android":"levelo://app?vid=88dc17bd-d98c-4ee0-afca-e601bb4fec4e","ios":"levelo://app?vid=88dc17bd-d98c-4ee0-afca-e601bb4fec4e"},"vehicle_type_id":"4","last_reported":1687885595,"current_range_meters":9200,"station_id":"ce4bhb12rcd13ifvqem0","pricing_plan_id":"free"},{"bike_id":"bb6b6474-df86-409f-898f-0aee19d81afe","system_id":"levelo_inurba_marseille","lat":43.28856,"lon":5.358371,"is_reserved":false,"is_disabled":false,"rental_uris":{"android":"levelo://app?vid=bb6b6474-df86-409f-898f-0aee19d81afe","ios":"levelo://app?vid=bb6b6474-df86-409f-898f-0aee19d81afe"},"vehicle_type_id":"4","last_reported":1687885595,"current_range_meters":11200,"station_id":"ce4bhb12rcd13ifvqem0","pricing_plan_id":"free"},{"bike_id":"5d070e78-6e52-4933-9046-887f42c80f2d","system_id":"levelo_inurba_marseille","lat":43.28856,"lon":5.358371,"is_reserved":false,"is_disabled":false,"rental_uris":{"android":"levelo://app?vid=5d070e78-6e52-4933-9046-887f42c80f2d","ios":"levelo://app?vid=5d070e78-6e52-4933-9046-887f42c80f2d"},"vehicle_type_id":"4","last_reported":1687885595,"current_range_meters":16400,"station_id":"ce4bhb12rcd13ifvqem0","pricing_plan_id":"free"},{"bike_id":"4dfaaa00-fdb5-494f-a8a6-2391f5545654","system_id":"levelo_inurba_marseille","lat":43.309371,"lon":5.401449,"is_reserved":false,"is_disabled":false,"rental_uris":{"android":"levelo://app?vid=4dfaaa00-fdb5-494f-a8a6-2391f5545654","ios":"levelo://app?vid=4dfaaa00-fdb5-494f-a8a6-2391f5545654"},"vehicle_type_id":"4","last_reported":1687885595,"current_range_meters":22800,"station_id":"ce4bgvp2rcd13ifvqct0","pricing_plan_id":"free"},{"bike_id":"b152602a-aaa7-4eed-93ba-89050d9c58ba","system_id":"levelo_inurba_marseille","lat":43.3067,"lon":5.40078,"is_reserved":false,"is_disabled":false,"rental_uris":{"android":"levelo://app?vid=b152602a-aaa7-4eed-93ba-89050d9c58ba","ios":"levelo://app?vid=b152602a-aaa7-4eed-93ba-89050d9c58ba"},"vehicle_type_id":"4","last_reported":1687885595,"current_range_meters":26400,"station_id":"","pricing_plan_id":"free"},{"bike_id":"d03db99b-45d1-485b-af6f-a9464ba74a03","system_id":"levelo_inurba_marseille","lat":43.3064,"lon":5.40096,"is_reserved":false,"is_disabled":false,"rental_uris":{"android":"levelo://app?vid=d03db99b-45d1-485b-af6f-a9464ba74a03","ios":"levelo://app?vid=d03db99b-45d1-485b-af6f-a9464ba74a03"},"vehicle_type_id":"4","last_reported":1687885595,"current_range_meters":16000,"station_id":"ce4bh112rcd13ifvqda0","pricing_plan_id":"free"},{"bike_id":"2276c433-1580-41e2-aa54-2ec77a14f405","system_id":"levelo_inurba_marseille","lat":43.30137,"lon":5.39859,"is_reserved":false,"is_disabled":false,"rental_uris":{"android":"levelo://app?vid=2276c433-1580-41e2-aa54-2ec77a14f405","ios":"levelo://app?vid=2276c433-1580-41e2-aa54-2ec77a14f405"},"vehicle_type_id":"4","last_reported":1687885595,"current_range_meters":22400,"station_id":"","pricing_plan_id":"free"},{"bike_id":"b0bf9d3d-cadc-4d48-8b80-c4e806b7e35f","system_id":"levelo_inurba_marseille","lat":43.298681,"lon":5.397225,"is_reserved":false,"is_disabled":false,"rental_uris":{"android":"levelo://app?vid=b0bf9d3d-cadc-4d48-8b80-c4e806b7e35f","ios":"levelo://app?vid=b0bf9d3d-cadc-4d48-8b80-c4e806b7e35f"},"vehicle_type_id":"4","last_reported":1687885595,"current_range_meters":24400,"station_id":"ce4bh0h2rcd13ifvqd50","pricing_plan_id":"free"},{"bike_id":"99f49bbb-2fe7-4f97-b870-3bf8eba1bee0","system_id":"levelo_inurba_marseille","lat":43.286593,"lon":5.363346,"is_reserved":false,"is_disabled":false,"rental_uris":{"android":"levelo://app?vid=99f49bbb-2fe7-4f97-b870-3bf8eba1bee0","ios":"levelo://app?vid=99f49bbb-2fe7-4f97-b870-3bf8eba1bee0"},"vehicle_type_id":"4","last_reported":1687885595,"current_range_meters":21200,"station_id":"ce4bhah2rcd13ifvqej0","pricing_plan_id":"free"},{"bike_id":"7b38e5ad-7ede-44a5-a432-ba597f14dd4d","system_id":"levelo_inurba_marseille","lat":43.298681,"lon":5.397225,"is_reserved":false,"is_disabled":false,"rental_uris":{"android":"levelo://app?vid=7b38e5ad-7ede-44a5-a432-ba597f14dd4d","ios":"levelo://app?vid=7b38e5ad-7ede-44a5-a432-ba597f14dd4d"},"vehicle_type_id":"4","last_reported":1687885595,"current_range_meters":0,"station_id":"ce4bh0h2rcd13ifvqd50","pricing_plan_id":"free"},{"bike_id":"20b4e1ab-3b91-4fea-b4f7-280c312541e5","system_id":"levelo_inurba_marseille","lat":43.298681,"lon":5.397225,"is_reserved":false,"is_disabled":false,"rental_uris":{"android":"levelo://app?vid=20b4e1ab-3b91-4fea-b4f7-280c312541e5","ios":"levelo://app?vid=20b4e1ab-3b91-4fea-b4f7-280c312541e5"},"vehicle_type_id":"4","last_reported":1687885595,"current_range_meters":6400,"station_id":"ce4bh0h2rcd13ifvqd50","pricing_plan_id":"free"},{"bike_id":"02db9236-cc5c-4cc8-be33-c30cca5d50a6","system_id":"levelo_inurba_marseille","lat":43.286961,"lon":5.373785,"is_reserved":false,"is_disabled":false,"rental_uris":{"android":"levelo://app?vid=02db9236-cc5c-4cc8-be33-c30cca5d50a6","ios":"levelo://app?vid=02db9236-cc5c-4cc8-be33-c30cca5d50a6"},"vehicle_type_id":"4","last_reported":1687885595,"current_range_meters":18000,"station_id":"ce4bh3p2rcd13ifvqdq0","pricing_plan_id":"free"},{"bike_id":"3e187bf2-b407-4268-9edc-fd54c4feb809","system_id":"levelo_inurba_marseille","lat":43.29518,"lon":5.39398,"is_reserved":false,"is_disabled":false,"rental_uris":{"android":"levelo://app?vid=3e187bf2-b407-4268-9edc-fd54c4feb809","ios":"levelo://app?vid=3e187bf2-b407-4268-9edc-fd54c4feb809"},"vehicle_type_id":"4","last_reported":1687885595,"current_range_meters":1200,"station_id":"ce4bh292rcd13ifvqdf0","pricing_plan_id":"free"},{"bike_id":"2772da58-5983-44c6-ac79-7c1c5f10d173","system_id":"levelo_inurba_marseille","lat":43.295196,"lon":5.39397,"is_reserved":false,"is_disabled":false,"rental_uris":{"android":"levelo://app?vid=2772da58-5983-44c6-ac79-7c1c5f10d173","ios":"levelo://app?vid=2772da58-5983-44c6-ac79-7c1c5f10d173"},"vehicle_type_id":"4","last_reported":1687885595,"current_range_meters":1200,"station_id":"ce4bh292rcd13ifvqdf0","pricing_plan_id":"free"},{"bike_id":"e7481bf3-5395-4583-be87-468303b4bff6","system_id":"levelo_inurba_marseille","lat":43.295194,"lon":5.39397,"is_reserved":false,"is_disabled":false,"rental_uris":{"android":"levelo://app?vid=e7481bf3-5395-4583-be87-468303b4bff6","ios":"levelo://app?vid=e7481bf3-5395-4583-be87-468303b4bff6"},"vehicle_type_id":"4","last_reported":1687885595,"current_range_meters":0,"station_id":"ce4bh292rcd13ifvqdf0","pricing_plan_id":"free"},{"bike_id":"ffc3531a-21f2-410a-9ebb-25166ff10e80","system_id":"levelo_inurba_marseille","lat":43.302759,"lon":5.400793,"is_reserved":false,"is_disabled":false,"rental_uris":{"android":"levelo://app?vid=ffc3531a-21f2-410a-9ebb-25166ff10e80","ios":"levelo://app?vid=ffc3531a-21f2-410a-9ebb-25166ff10e80"},"vehicle_type_id":"4","last_reported":1687885595,"current_range_meters":12800,"station_id":"ce4bgvh2rcd13ifvqcs0","pricing_plan_id":"free"},{"bike_id":"00380fb0-411d-459e-9035-9f7590cdf578","system_id":"levelo_inurba_marseille","lat":43.29017,"lon":5.38653,"is_reserved":false,"is_disabled":false,"rental_uris":{"android":"levelo://app?vid=00380fb0-411d-459e-9035-9f7590cdf578","ios":"levelo://app?vid=00380fb0-411d-459e-9035-9f7590cdf578"},"vehicle_type_id":"4","last_reported":1687885595,"current_range_meters":28000,"station_id":"ce4bh4p2rcd13ifvqe0g","pricing_plan_id":"free"},{"bike_id":"efa8d892-c15e-4fda-8426-489254cabd9e","system_id":"levelo_inurba_marseille","lat":43.28613,"lon":5.37057,"is_reserved":false,"is_disabled":false,"rental_uris":{"android":"levelo://app?vid=efa8d892-c15e-4fda-8426-489254cabd9e","ios":"levelo://app?vid=efa8d892-c15e-4fda-8426-489254cabd9e"},"vehicle_type_id":"4","last_reported":1687885595,"current_range_meters":28000,"station_id":"ce4bht12rcd13ifvqi60","pricing_plan_id":"free"},{"bike_id":"a923f3c7-29d2-46e7-b33a-af42f3910463","system_id":"levelo_inurba_marseille","lat":43.28612,"lon":5.3707,"is_reserved":false,"is_disabled":false,"rental_uris":{"android":"levelo://app?vid=a923f3c7-29d2-46e7-b33a-af42f3910463","ios":"levelo://app?vid=a923f3c7-29d2-46e7-b33a-af42f3910463"},"vehicle_type_id":"4","last_reported":1687885595,"current_range_meters":6000,"station_id":"ce4bht12rcd13ifvqi60","pricing_plan_id":"free"},{"bike_id":"f40a6c82-a37d-4a74-8009-8a15c47a52f0","system_id":"levelo_inurba_marseille","lat":43.28611,"lon":5.3706,"is_reserved":false,"is_disabled":false,"rental_uris":{"android":"levelo://app?vid=f40a6c82-a37d-4a74-8009-8a15c47a52f0","ios":"levelo://app?vid=f40a6c82-a37d-4a74-8009-8a15c47a52f0"},"vehicle_type_id":"4","last_reported":1687885595,"current_range_meters":1200,"station_id":"ce4bht12rcd13ifvqi60","pricing_plan_id":"free"},{"bike_id":"524fe432-f480-4a5d-917e-957ca87f6043","system_id":"levelo_inurba_marseille","lat":43.2861,"lon":5.3707,"is_reserved":false,"is_disabled":false,"rental_uris":{"android":"levelo://app?vid=524fe432-f480-4a5d-917e-957ca87f6043","ios":"levelo://app?vid=524fe432-f480-4a5d-917e-957ca87f6043"},"vehicle_type_id":"4","last_reported":1687885595,"current_range_meters":3600,"station_id":"ce4bht12rcd13ifvqi60","pricing_plan_id":"free"},{"bike_id":"58bf6b23-2505-4b35-bd86-8324a86a09fe","system_id":"levelo_inurba_marseille","lat":43.286039,"lon":5.370681,"is_reserved":false,"is_disabled":false,"rental_uris":{"android":"levelo://app?vid=58bf6b23-2505-4b35-bd86-8324a86a09fe","ios":"levelo://app?vid=58bf6b23-2505-4b35-bd86-8324a86a09fe"},"vehicle_type_id":"4","last_reported":1687885595,"current_range_meters":30000,"station_id":"ce4bht12rcd13ifvqi60","pricing_plan_id":"free"},{"bike_id":"48aedac5-bf9a-4543-ac0e-e873a6dd5c7d","system_id":"levelo_inurba_marseille","lat":43.287185,"lon":5.379373,"is_reserved":false,"is_disabled":false,"rental_uris":{"android":"levelo://app?vid=48aedac5-bf9a-4543-ac0e-e873a6dd5c7d","ios":"levelo://app?vid=48aedac5-bf9a-4543-ac0e-e873a6dd5c7d"},"vehicle_type_id":"4","last_reported":1687885595,"current_range_meters":5600,"station_id":"ce4bh9p2rcd13ifvqec0","pricing_plan_id":"free"},{"bike_id":"d69fed3a-efe9-46fb-b1dc-1240b8978d3e","system_id":"levelo_inurba_marseille","lat":43.31642,"lon":5.40445,"is_reserved":false,"is_disabled":false,"rental_uris":{"android":"levelo://app?vid=d69fed3a-efe9-46fb-b1dc-1240b8978d3e","ios":"levelo://app?vid=d69fed3a-efe9-46fb-b1dc-1240b8978d3e"},"vehicle_type_id":"4","last_reported":1687885595,"current_range_meters":30000,"station_id":"ce4bh012rcd13ifvqd00","pricing_plan_id":"free"},{"bike_id":"e52b68fc-bfdd-460b-ae91-884f64be3fc0","system_id":"levelo_inurba_marseille","lat":43.2919,"lon":5.39316,"is_reserved":false,"is_disabled":false,"rental_uris":{"android":"levelo://app?vid=e52b68fc-bfdd-460b-ae91-884f64be3fc0","ios":"levelo://app?vid=e52b68fc-bfdd-460b-ae91-884f64be3fc0"},"vehicle_type_id":"4","last_reported":1687885595,"current_range_meters":23600,"station_id":"ce4bh192rcd13ifvqdd0","pricing_plan_id":"free"},{"bike_id":"3eea8d72-95cf-4bde-b788-e7ea163a3363","system_id":"levelo_inurba_marseille","lat":43.285848,"lon":5.350787,"is_reserved":false,"is_disabled":false,"rental_uris":{"android":"levelo://app?vid=3eea8d72-95cf-4bde-b788-e7ea163a3363","ios":"levelo://app?vid=3eea8d72-95cf-4bde-b788-e7ea163a3363"},"vehicle_type_id":"4","last_reported":1687885595,"current_range_meters":12000,"station_id":"ce4bhch2rcd13ifvqeug","pricing_plan_id":"free"},{"bike_id":"2afc3d31-f081-4528-b0c2-730d142c1bed","system_id":"levelo_inurba_marseille","lat":43.28612,"lon":5.35108,"is_reserved":false,"is_disabled":false,"rental_uris":{"android":"levelo://app?vid=2afc3d31-f081-4528-b0c2-730d142c1bed","ios":"levelo://app?vid=2afc3d31-f081-4528-b0c2-730d142c1bed"},"vehicle_type_id":"4","last_reported":1687885595,"current_range_meters":28800,"station_id":"ce4bhch2rcd13ifvqeug","pricing_plan_id":"free"},{"bike_id":"bd82db9e-754e-422a-b897-bbd434a889e2","system_id":"levelo_inurba_marseille","lat":43.28615,"lon":5.35097,"is_reserved":false,"is_disabled":false,"rental_uris":{"android":"levelo://app?vid=bd82db9e-754e-422a-b897-bbd434a889e2","ios":"levelo://app?vid=bd82db9e-754e-422a-b897-bbd434a889e2"},"vehicle_type_id":"4","last_reported":1687885595,"current_range_meters":22800,"station_id":"ce4bhch2rcd13ifvqeug","pricing_plan_id":"free"},{"bike_id":"b3caa462-fdbc-463d-a7a5-f0b3d7ae8cf3","system_id":"levelo_inurba_marseille","lat":43.283998,"lon":5.375062,"is_reserved":false,"is_disabled":false,"rental_uris":{"android":"levelo://app?vid=b3caa462-fdbc-463d-a7a5-f0b3d7ae8cf3","ios":"levelo://app?vid=b3caa462-fdbc-463d-a7a5-f0b3d7ae8cf3"},"vehicle_type_id":"4","last_reported":1687885595,"current_range_meters":29600,"station_id":"ce4bh412rcd13ifvqds0","pricing_plan_id":"free"},{"bike_id":"a7cddd53-4965-4136-9137-e30101531fc4","system_id":"levelo_inurba_marseille","lat":43.28404,"lon":5.37521,"is_reserved":false,"is_disabled":false,"rental_uris":{"android":"levelo://app?vid=a7cddd53-4965-4136-9137-e30101531fc4","ios":"levelo://app?vid=a7cddd53-4965-4136-9137-e30101531fc4"},"vehicle_type_id":"4","last_reported":1687885595,"current_range_meters":19200,"station_id":"ce4bh412rcd13ifvqds0","pricing_plan_id":"free"},{"bike_id":"5dc9296d-2309-460e-a404-05591d4ce59a","system_id":"levelo_inurba_marseille","lat":43.283998,"lon":5.375062,"is_reserved":false,"is_disabled":false,"rental_uris":{"android":"levelo://app?vid=5dc9296d-2309-460e-a404-05591d4ce59a","ios":"levelo://app?vid=5dc9296d-2309-460e-a404-05591d4ce59a"},"vehicle_type_id":"4","last_reported":1687885595,"current_range_meters":11600,"station_id":"ce4bh412rcd13ifvqds0","pricing_plan_id":"free"},{"bike_id":"41489e72-8a61-48d5-a6ba-4c0d4e80c9c4","system_id":"levelo_inurba_marseille","lat":43.295713,"lon":5.399639,"is_reserved":false,"is_disabled":false,"rental_uris":{"android":"levelo://app?vid=41489e72-8a61-48d5-a6ba-4c0d4e80c9c4","ios":"levelo://app?vid=41489e72-8a61-48d5-a6ba-4c0d4e80c9c4"},"vehicle_type_id":"4","last_reported":1687885595,"current_range_meters":11600,"station_id":"ce4bh312rcd13ifvqdj0","pricing_plan_id":"free"},{"bike_id":"dda9ac33-2ad2-420b-99d6-409dbe7a806c","system_id":"levelo_inurba_marseille","lat":43.2957,"lon":5.39995,"is_reserved":false,"is_disabled":false,"rental_uris":{"android":"levelo://app?vid=dda9ac33-2ad2-420b-99d6-409dbe7a806c","ios":"levelo://app?vid=dda9ac33-2ad2-420b-99d6-409dbe7a806c"},"vehicle_type_id":"4","last_reported":1687885595,"current_range_meters":20800,"station_id":"ce4bh312rcd13ifvqdj0","pricing_plan_id":"free"},{"bike_id":"bffa6c90-25f7-40f2-b0cd-45090f1c6678","system_id":"levelo_inurba_marseille","lat":43.286595,"lon":5.386795,"is_reserved":false,"is_disabled":false,"rental_uris":{"android":"levelo://app?vid=bffa6c90-25f7-40f2-b0cd-45090f1c6678","ios":"levelo://app?vid=bffa6c90-25f7-40f2-b0cd-45090f1c6678"},"vehicle_type_id":"4","last_reported":1687885595,"current_range_meters":31200,"station_id":"ce4bh492rcd13ifvqdug","pricing_plan_id":"free"},{"bike_id":"713d21bc-8c22-4918-b8c9-fe9d563a6b1e","system_id":"levelo_inurba_marseille","lat":43.286595,"lon":5.386795,"is_reserved":false,"is_disabled":false,"rental_uris":{"android":"levelo://app?vid=713d21bc-8c22-4918-b8c9-fe9d563a6b1e","ios":"levelo://app?vid=713d21bc-8c22-4918-b8c9-fe9d563a6b1e"},"vehicle_type_id":"4","last_reported":1687885595,"current_range_meters":26400,"station_id":"ce4bh492rcd13ifvqdug","pricing_plan_id":"free"},{"bike_id":"cafafa26-9e3c-4d03-b7c4-b54479058124","system_id":"levelo_inurba_marseille","lat":43.286631,"lon":5.386697,"is_reserved":false,"is_disabled":false,"rental_uris":{"android":"levelo://app?vid=cafafa26-9e3c-4d03-b7c4-b54479058124","ios":"levelo://app?vid=cafafa26-9e3c-4d03-b7c4-b54479058124"},"vehicle_type_id":"4","last_reported":1687885595,"current_range_meters":17200,"station_id":"ce4bh492rcd13ifvqdug","pricing_plan_id":"free"},{"bike_id":"a7e3f9a8-db1e-4faf-978c-a92d5e1744a6","system_id":"levelo_inurba_marseille","lat":43.322986,"lon":5.406198,"is_reserved":false,"is_disabled":false,"rental_uris":{"android":"levelo://app?vid=a7e3f9a8-db1e-4faf-978c-a92d5e1744a6","ios":"levelo://app?vid=a7e3f9a8-db1e-4faf-978c-a92d5e1744a6"},"vehicle_type_id":"4","last_reported":1687885595,"current_range_meters":17200,"station_id":"ce4bhq92rcd13ifvqhjg","pricing_plan_id":"free"},{"bike_id":"a478ce53-e457-401e-94b7-35a6500ccf67","system_id":"levelo_inurba_marseille","lat":43.32337,"lon":5.40627,"is_reserved":false,"is_disabled":false,"rental_uris":{"android":"levelo://app?vid=a478ce53-e457-401e-94b7-35a6500ccf67","ios":"levelo://app?vid=a478ce53-e457-401e-94b7-35a6500ccf67"},"vehicle_type_id":"4","last_reported":1687885595,"current_range_meters":15200,"station_id":"ce4bhq92rcd13ifvqhjg","pricing_plan_id":"free"},{"bike_id":"f2988b82-daec-4b0e-9d7c-376293e5d54f","system_id":"levelo_inurba_marseille","lat":43.33728,"lon":5.39193,"is_reserved":false,"is_disabled":false,"rental_uris":{"android":"levelo://app?vid=f2988b82-daec-4b0e-9d7c-376293e5d54f","ios":"levelo://app?vid=f2988b82-daec-4b0e-9d7c-376293e5d54f"},"vehicle_type_id":"4","last_reported":1687885595,"current_range_meters":22000,"station_id":"","pricing_plan_id":"free"},{"bike_id":"b4c950db-352f-4a1a-8e3c-c05101a6dad0","system_id":"levelo_inurba_marseille","lat":43.288501,"lon":5.393087,"is_reserved":false,"is_disabled":false,"rental_uris":{"android":"levelo://app?vid=b4c950db-352f-4a1a-8e3c-c05101a6dad0","ios":"levelo://app?vid=b4c950db-352f-4a1a-8e3c-c05101a6dad0"},"vehicle_type_id":"4","last_reported":1687885595,"current_range_meters":31200,"station_id":"ce4bh2p2rcd13ifvqdi0","pricing_plan_id":"free"},{"bike_id":"ada5f0ac-c7e2-467a-a5e3-ec2a1806444a","system_id":"levelo_inurba_marseille","lat":43.28421,"lon":5.3498,"is_reserved":false,"is_disabled":false,"rental_uris":{"android":"levelo://app?vid=ada5f0ac-c7e2-467a-a5e3-ec2a1806444a","ios":"levelo://app?vid=ada5f0ac-c7e2-467a-a5e3-ec2a1806444a"},"vehicle_type_id":"4","last_reported":1687885595,"current_range_meters":26000,"station_id":"ce4bhbh2rcd13ifvqepg","pricing_plan_id":"free"},{"bike_id":"3f757d75-cb72-459a-a114-d17ffd429949","system_id":"levelo_inurba_marseille","lat":43.284217,"lon":5.349697,"is_reserved":false,"is_disabled":false,"rental_uris":{"android":"levelo://app?vid=3f757d75-cb72-459a-a114-d17ffd429949","ios":"levelo://app?vid=3f757d75-cb72-459a-a114-d17ffd429949"},"vehicle_type_id":"4","last_reported":1687885595,"current_range_meters":0,"station_id":"ce4bhbh2rcd13ifvqepg","pricing_plan_id":"free"},{"bike_id":"741cba00-4e7c-4a04-b57a-df5229680428","system_id":"levelo_inurba_marseille","lat":43.28411,"lon":5.34991,"is_reserved":false,"is_disabled":false,"rental_uris":{"android":"levelo://app?vid=741cba00-4e7c-4a04-b57a-df5229680428","ios":"levelo://app?vid=741cba00-4e7c-4a04-b57a-df5229680428"},"vehicle_type_id":"4","last_reported":1687885595,"current_range_meters":0,"station_id":"ce4bhbh2rcd13ifvqepg","pricing_plan_id":"free"},{"bike_id":"04f66c51-9811-4100-9d5c-38affe76250e","system_id":"levelo_inurba_marseille","lat":43.3208,"lon":5.40878,"is_reserved":false,"is_disabled":false,"rental_uris":{"android":"levelo://app?vid=04f66c51-9811-4100-9d5c-38affe76250e","ios":"levelo://app?vid=04f66c51-9811-4100-9d5c-38affe76250e"},"vehicle_type_id":"4","last_reported":1687885595,"current_range_meters":30000,"station_id":"","pricing_plan_id":"free"},{"bike_id":"7719c722-0467-46bd-9533-f12be52213bc","system_id":"levelo_inurba_marseille","lat":43.336134,"lon":5.410341,"is_reserved":false,"is_disabled":false,"rental_uris":{"android":"levelo://app?vid=7719c722-0467-46bd-9533-f12be52213bc","ios":"levelo://app?vid=7719c722-0467-46bd-9533-f12be52213bc"},"vehicle_type_id":"4","last_reported":1687885595,"current_range_meters":31200,"station_id":"ce4bhqh2rcd13ifvqhmg","pricing_plan_id":"free"},{"bike_id":"5238049f-775c-4302-b5dd-a00fae433e2d","system_id":"levelo_inurba_marseille","lat":43.29276,"lon":5.40115,"is_reserved":false,"is_disabled":false,"rental_uris":{"android":"levelo://app?vid=5238049f-775c-4302-b5dd-a00fae433e2d","ios":"levelo://app?vid=5238049f-775c-4302-b5dd-a00fae433e2d"},"vehicle_type_id":"4","last_reported":1687885595,"current_range_meters":2000,"station_id":"ce4bh312rcd13ifvqdk0","pricing_plan_id":"free"},{"bike_id":"d1426047-ae48-4b6d-acfd-25e7a76f4666","system_id":"levelo_inurba_marseille","lat":43.28269,"lon":5.35074,"is_reserved":false,"is_disabled":false,"rental_uris":{"android":"levelo://app?vid=d1426047-ae48-4b6d-acfd-25e7a76f4666","ios":"levelo://app?vid=d1426047-ae48-4b6d-acfd-25e7a76f4666"},"vehicle_type_id":"4","last_reported":1687885595,"current_range_meters":22000,"station_id":"ce4bhbp2rcd13ifvqerg","pricing_plan_id":"free"},{"bike_id":"5dc9eb38-defa-469e-8ccf-cd8145b9019d","system_id":"levelo_inurba_marseille","lat":43.282744,"lon":5.350533,"is_reserved":false,"is_disabled":false,"rental_uris":{"android":"levelo://app?vid=5dc9eb38-defa-469e-8ccf-cd8145b9019d","ios":"levelo://app?vid=5dc9eb38-defa-469e-8ccf-cd8145b9019d"},"vehicle_type_id":"4","last_reported":1687885595,"current_range_meters":6400,"station_id":"ce4bhbp2rcd13ifvqerg","pricing_plan_id":"free"},{"bike_id":"b89bb0fa-66b1-4350-b6b7-2914ee467c95","system_id":"levelo_inurba_marseille","lat":43.28265,"lon":5.35071,"is_reserved":false,"is_disabled":false,"rental_uris":{"android":"levelo://app?vid=b89bb0fa-66b1-4350-b6b7-2914ee467c95","ios":"levelo://app?vid=b89bb0fa-66b1-4350-b6b7-2914ee467c95"},"vehicle_type_id":"4","last_reported":1687885595,"current_range_meters":28400,"station_id":"ce4bhbp2rcd13ifvqerg","pricing_plan_id":"free"},{"bike_id":"61681041-071c-4813-bd65-a951bd016d12","system_id":"levelo_inurba_marseille","lat":43.28039,"lon":5.369297,"is_reserved":false,"is_disabled":false,"rental_uris":{"android":"levelo://app?vid=61681041-071c-4813-bd65-a951bd016d12","ios":"levelo://app?vid=61681041-071c-4813-bd65-a951bd016d12"},"vehicle_type_id":"4","last_reported":1687885595,"current_range_meters":31200,"station_id":"ce4bha12rcd13ifvqef0","pricing_plan_id":"free"},{"bike_id":"a61e59a0-4b77-4f7b-96d2-ab219719f7ee","system_id":"levelo_inurba_marseille","lat":43.28039,"lon":5.369297,"is_reserved":false,"is_disabled":false,"rental_uris":{"android":"levelo://app?vid=a61e59a0-4b77-4f7b-96d2-ab219719f7ee","ios":"levelo://app?vid=a61e59a0-4b77-4f7b-96d2-ab219719f7ee"},"vehicle_type_id":"4","last_reported":1687885595,"current_range_meters":27200,"station_id":"ce4bha12rcd13ifvqef0","pricing_plan_id":"free"},{"bike_id":"c3b3d8c1-fc98-4fd0-a573-c51c8ffa3d84","system_id":"levelo_inurba_marseille","lat":43.28039,"lon":5.369297,"is_reserved":false,"is_disabled":false,"rental_uris":{"android":"levelo://app?vid=c3b3d8c1-fc98-4fd0-a573-c51c8ffa3d84","ios":"levelo://app?vid=c3b3d8c1-fc98-4fd0-a573-c51c8ffa3d84"},"vehicle_type_id":"4","last_reported":1687885595,"current_range_meters":28400,"station_id":"ce4bha12rcd13ifvqef0","pricing_plan_id":"free"},{"bike_id":"df020405-673b-4e44-94e5-21a12baaf6e4","system_id":"levelo_inurba_marseille","lat":43.280363,"lon":5.369473,"is_reserved":false,"is_disabled":false,"rental_uris":{"android":"levelo://app?vid=df020405-673b-4e44-94e5-21a12baaf6e4","ios":"levelo://app?vid=df020405-673b-4e44-94e5-21a12baaf6e4"},"vehicle_type_id":"4","last_reported":1687885595,"current_range_meters":12800,"station_id":"ce4bha12rcd13ifvqef0","pricing_plan_id":"free"},{"bike_id":"83ee026b-1c42-445b-8b95-87ef586ed8e5","system_id":"levelo_inurba_marseille","lat":43.28039,"lon":5.369297,"is_reserved":false,"is_disabled":false,"rental_uris":{"android":"levelo://app?vid=83ee026b-1c42-445b-8b95-87ef586ed8e5","ios":"levelo://app?vid=83ee026b-1c42-445b-8b95-87ef586ed8e5"},"vehicle_type_id":"4","last_reported":1687885595,"current_range_meters":16000,"station_id":"ce4bha12rcd13ifvqef0","pricing_plan_id":"free"},{"bike_id":"295b3071-9794-4e0c-89d6-109897fd38a8","system_id":"levelo_inurba_marseille","lat":43.28039,"lon":5.369297,"is_reserved":false,"is_disabled":false,"rental_uris":{"android":"levelo://app?vid=295b3071-9794-4e0c-89d6-109897fd38a8","ios":"levelo://app?vid=295b3071-9794-4e0c-89d6-109897fd38a8"},"vehicle_type_id":"4","last_reported":1687885595,"current_range_meters":31200,"station_id":"ce4bha12rcd13ifvqef0","pricing_plan_id":"free"},{"bike_id":"afc9f29d-a4a0-4e70-a425-f530a7806e7c","system_id":"levelo_inurba_marseille","lat":43.28039,"lon":5.369297,"is_reserved":false,"is_disabled":false,"rental_uris":{"android":"levelo://app?vid=afc9f29d-a4a0-4e70-a425-f530a7806e7c","ios":"levelo://app?vid=afc9f29d-a4a0-4e70-a425-f530a7806e7c"},"vehicle_type_id":"4","last_reported":1687885595,"current_range_meters":31200,"station_id":"ce4bha12rcd13ifvqef0","pricing_plan_id":"free"},{"bike_id":"ce2fb21d-278e-4a03-9ce1-91a9aad562d8","system_id":"levelo_inurba_marseille","lat":43.29634,"lon":5.40591,"is_reserved":false,"is_disabled":false,"rental_uris":{"android":"levelo://app?vid=ce2fb21d-278e-4a03-9ce1-91a9aad562d8","ios":"levelo://app?vid=ce2fb21d-278e-4a03-9ce1-91a9aad562d8"},"vehicle_type_id":"4","last_reported":1687885595,"current_range_meters":400,"station_id":"ce4bh0h2rcd13ifvqd60","pricing_plan_id":"free"},{"bike_id":"61b79366-981a-417e-aad1-59b9bdb8c9a6","system_id":"levelo_inurba_marseille","lat":43.33053,"lon":5.40591,"is_reserved":false,"is_disabled":false,"rental_uris":{"android":"levelo://app?vid=61b79366-981a-417e-aad1-59b9bdb8c9a6","ios":"levelo://app?vid=61b79366-981a-417e-aad1-59b9bdb8c9a6"},"vehicle_type_id":"4","last_reported":1687885595,"current_range_meters":29200,"station_id":"","pricing_plan_id":"free"},{"bike_id":"c8e6ce45-f2b5-4772-a564-3c2039eea91a","system_id":"levelo_inurba_marseille","lat":43.33059,"lon":5.406,"is_reserved":false,"is_disabled":false,"rental_uris":{"android":"levelo://app?vid=c8e6ce45-f2b5-4772-a564-3c2039eea91a","ios":"levelo://app?vid=c8e6ce45-f2b5-4772-a564-3c2039eea91a"},"vehicle_type_id":"4","last_reported":1687885595,"current_range_meters":3200,"station_id":"","pricing_plan_id":"free"},{"bike_id":"48a7def0-6613-4233-8e55-f645442b1083","system_id":"levelo_inurba_marseille","lat":43.28573,"lon":5.394992,"is_reserved":false,"is_disabled":false,"rental_uris":{"android":"levelo://app?vid=48a7def0-6613-4233-8e55-f645442b1083","ios":"levelo://app?vid=48a7def0-6613-4233-8e55-f645442b1083"},"vehicle_type_id":"4","last_reported":1687885595,"current_range_meters":13600,"station_id":"ce4bh292rcd13ifvqdg0","pricing_plan_id":"free"},{"bike_id":"57a8a150-a061-4c8b-ae07-ca22dafb499e","system_id":"levelo_inurba_marseille","lat":43.326605,"lon":5.409903,"is_reserved":false,"is_disabled":false,"rental_uris":{"android":"levelo://app?vid=57a8a150-a061-4c8b-ae07-ca22dafb499e","ios":"levelo://app?vid=57a8a150-a061-4c8b-ae07-ca22dafb499e"},"vehicle_type_id":"4","last_reported":1687885595,"current_range_meters":14000,"station_id":"ce4bhpp2rcd13ifvqhgg","pricing_plan_id":"free"},{"bike_id":"06105a99-1d21-47eb-8660-4f643f9a8808","system_id":"levelo_inurba_marseille","lat":43.326605,"lon":5.409903,"is_reserved":false,"is_disabled":false,"rental_uris":{"android":"levelo://app?vid=06105a99-1d21-47eb-8660-4f643f9a8808","ios":"levelo://app?vid=06105a99-1d21-47eb-8660-4f643f9a8808"},"vehicle_type_id":"4","last_reported":1687885595,"current_range_meters":25200,"station_id":"ce4bhpp2rcd13ifvqhgg","pricing_plan_id":"free"},{"bike_id":"8ad282b2-dd8c-4fcc-8cb6-10459ee8de85","system_id":"levelo_inurba_marseille","lat":43.326605,"lon":5.409903,"is_reserved":false,"is_disabled":false,"rental_uris":{"android":"levelo://app?vid=8ad282b2-dd8c-4fcc-8cb6-10459ee8de85","ios":"levelo://app?vid=8ad282b2-dd8c-4fcc-8cb6-10459ee8de85"},"vehicle_type_id":"4","last_reported":1687885595,"current_range_meters":7200,"station_id":"ce4bhpp2rcd13ifvqhgg","pricing_plan_id":"free"},{"bike_id":"7d361c06-fb4a-4a9b-8922-80b6027be7d5","system_id":"levelo_inurba_marseille","lat":43.326605,"lon":5.409903,"is_reserved":false,"is_disabled":false,"rental_uris":{"android":"levelo://app?vid=7d361c06-fb4a-4a9b-8922-80b6027be7d5","ios":"levelo://app?vid=7d361c06-fb4a-4a9b-8922-80b6027be7d5"},"vehicle_type_id":"4","last_reported":1687885595,"current_range_meters":9600,"station_id":"ce4bhpp2rcd13ifvqhgg","pricing_plan_id":"free"},{"bike_id":"104e4be4-777a-4d59-9e16-90f98aef09f7","system_id":"levelo_inurba_marseille","lat":43.326605,"lon":5.409903,"is_reserved":false,"is_disabled":false,"rental_uris":{"android":"levelo://app?vid=104e4be4-777a-4d59-9e16-90f98aef09f7","ios":"levelo://app?vid=104e4be4-777a-4d59-9e16-90f98aef09f7"},"vehicle_type_id":"4","last_reported":1687885595,"current_range_meters":3200,"station_id":"ce4bhpp2rcd13ifvqhgg","pricing_plan_id":"free"},{"bike_id":"0c9eee73-532e-4f1f-8b23-5a0693e22298","system_id":"levelo_inurba_marseille","lat":43.326605,"lon":5.409903,"is_reserved":false,"is_disabled":false,"rental_uris":{"android":"levelo://app?vid=0c9eee73-532e-4f1f-8b23-5a0693e22298","ios":"levelo://app?vid=0c9eee73-532e-4f1f-8b23-5a0693e22298"},"vehicle_type_id":"4","last_reported":1687885595,"current_range_meters":31200,"station_id":"ce4bhpp2rcd13ifvqhgg","pricing_plan_id":"free"},{"bike_id":"715f37f3-b133-40bf-9c46-a06ebe977e48","system_id":"levelo_inurba_marseille","lat":43.304188,"lon":5.412904,"is_reserved":false,"is_disabled":false,"rental_uris":{"android":"levelo://app?vid=715f37f3-b133-40bf-9c46-a06ebe977e48","ios":"levelo://app?vid=715f37f3-b133-40bf-9c46-a06ebe977e48"},"vehicle_type_id":"4","last_reported":1687885595,"current_range_meters":17600,"station_id":"ce4bhop2rcd13ifvqh8g","pricing_plan_id":"free"},{"bike_id":"4b4539fc-e45d-4864-a8b2-da9a074f309a","system_id":"levelo_inurba_marseille","lat":43.279087,"lon":5.380114,"is_reserved":false,"is_disabled":false,"rental_uris":{"android":"levelo://app?vid=4b4539fc-e45d-4864-a8b2-da9a074f309a","ios":"levelo://app?vid=4b4539fc-e45d-4864-a8b2-da9a074f309a"},"vehicle_type_id":"4","last_reported":1687885595,"current_range_meters":3200,"station_id":"ce4bhf92rcd13ifvqf50","pricing_plan_id":"free"},{"bike_id":"e22a2e61-a097-4e6a-a9c1-28917af09be3","system_id":"levelo_inurba_marseille","lat":43.27911,"lon":5.35334,"is_reserved":false,"is_disabled":false,"rental_uris":{"android":"levelo://app?vid=e22a2e61-a097-4e6a-a9c1-28917af09be3","ios":"levelo://app?vid=e22a2e61-a097-4e6a-a9c1-28917af09be3"},"vehicle_type_id":"4","last_reported":1687885595,"current_range_meters":5600,"station_id":"","pricing_plan_id":"free"},{"bike_id":"50fd953c-9754-45f4-aec7-ae52bb9eb6fe","system_id":"levelo_inurba_marseille","lat":43.287154,"lon":5.399979,"is_reserved":false,"is_disabled":false,"rental_uris":{"android":"levelo://app?vid=50fd953c-9754-45f4-aec7-ae52bb9eb6fe","ios":"levelo://app?vid=50fd953c-9754-45f4-aec7-ae52bb9eb6fe"},"vehicle_type_id":"4","last_reported":1687885595,"current_range_meters":31200,"station_id":"ce4bho92rcd13ifvqh3g","pricing_plan_id":"free"},{"bike_id":"d121dca8-2596-4f85-a2a1-3d6410e5eda4","system_id":"levelo_inurba_marseille","lat":43.33109,"lon":5.40827,"is_reserved":false,"is_disabled":false,"rental_uris":{"android":"levelo://app?vid=d121dca8-2596-4f85-a2a1-3d6410e5eda4","ios":"levelo://app?vid=d121dca8-2596-4f85-a2a1-3d6410e5eda4"},"vehicle_type_id":"4","last_reported":1687885595,"current_range_meters":29600,"station_id":"","pricing_plan_id":"free"},{"bike_id":"010303de-9f53-47c9-8014-4eeafc88e3fa","system_id":"levelo_inurba_marseille","lat":43.320045,"lon":5.415048,"is_reserved":false,"is_disabled":false,"rental_uris":{"android":"levelo://app?vid=010303de-9f53-47c9-8014-4eeafc88e3fa","ios":"levelo://app?vid=010303de-9f53-47c9-8014-4eeafc88e3fa"},"vehicle_type_id":"4","last_reported":1687885595,"current_range_meters":27200,"station_id":"ce4bhq92rcd13ifvqhkg","pricing_plan_id":"free"},{"bike_id":"705ddf8b-7589-4186-a052-fe7f24e9e4dc","system_id":"levelo_inurba_marseille","lat":43.299579,"lon":5.413255,"is_reserved":false,"is_disabled":false,"rental_uris":{"android":"levelo://app?vid=705ddf8b-7589-4186-a052-fe7f24e9e4dc","ios":"levelo://app?vid=705ddf8b-7589-4186-a052-fe7f24e9e4dc"},"vehicle_type_id":"4","last_reported":1687885595,"current_range_meters":15200,"station_id":"ce4bhp12rcd13ifvqh9g","pricing_plan_id":"free"},{"bike_id":"2ac3c6d0-d638-4e44-9e0b-83376b2c736b","system_id":"levelo_inurba_marseille","lat":43.279742,"lon":5.38744,"is_reserved":false,"is_disabled":false,"rental_uris":{"android":"levelo://app?vid=2ac3c6d0-d638-4e44-9e0b-83376b2c736b","ios":"levelo://app?vid=2ac3c6d0-d638-4e44-9e0b-83376b2c736b"},"vehicle_type_id":"4","last_reported":1687885595,"current_range_meters":10000,"station_id":"ce4bhg12rcd13ifvqf80","pricing_plan_id":"free"},{"bike_id":"bfd33cf3-29d9-402b-8705-00321e7fde9c","system_id":"levelo_inurba_marseille","lat":43.279742,"lon":5.38744,"is_reserved":false,"is_disabled":false,"rental_uris":{"android":"levelo://app?vid=bfd33cf3-29d9-402b-8705-00321e7fde9c","ios":"levelo://app?vid=bfd33cf3-29d9-402b-8705-00321e7fde9c"},"vehicle_type_id":"4","last_reported":1687885595,"current_range_meters":0,"station_id":"ce4bhg12rcd13ifvqf80","pricing_plan_id":"free"},{"bike_id":"413fb8b1-efbf-4e98-a72c-beb6b02108b9","system_id":"levelo_inurba_marseille","lat":43.325233,"lon":5.414318,"is_reserved":false,"is_disabled":false,"rental_uris":{"android":"levelo://app?vid=413fb8b1-efbf-4e98-a72c-beb6b02108b9","ios":"levelo://app?vid=413fb8b1-efbf-4e98-a72c-beb6b02108b9"},"vehicle_type_id":"4","last_reported":1687885595,"current_range_meters":2000,"station_id":"ce4bhq12rcd13ifvqhhg","pricing_plan_id":"free"},{"bike_id":"209094ca-c5b8-4c6b-a594-9fb49e938de9","system_id":"levelo_inurba_marseille","lat":43.292571,"lon":5.409107,"is_reserved":false,"is_disabled":false,"rental_uris":{"android":"levelo://app?vid=209094ca-c5b8-4c6b-a594-9fb49e938de9","ios":"levelo://app?vid=209094ca-c5b8-4c6b-a594-9fb49e938de9"},"vehicle_type_id":"4","last_reported":1687885595,"current_range_meters":18800,"station_id":"ce4bh192rcd13ifvqdc0","pricing_plan_id":"free"},{"bike_id":"1ea61b5a-a6a2-4dca-bbc3-8f76914c7f73","system_id":"levelo_inurba_marseille","lat":43.292571,"lon":5.409107,"is_reserved":false,"is_disabled":false,"rental_uris":{"android":"levelo://app?vid=1ea61b5a-a6a2-4dca-bbc3-8f76914c7f73","ios":"levelo://app?vid=1ea61b5a-a6a2-4dca-bbc3-8f76914c7f73"},"vehicle_type_id":"4","last_reported":1687885595,"current_range_meters":14400,"station_id":"ce4bh192rcd13ifvqdc0","pricing_plan_id":"free"},{"bike_id":"fc96668a-4c43-4b12-b456-47bdb2174719","system_id":"levelo_inurba_marseille","lat":43.32535,"lon":5.41434,"is_reserved":false,"is_disabled":false,"rental_uris":{"android":"levelo://app?vid=fc96668a-4c43-4b12-b456-47bdb2174719","ios":"levelo://app?vid=fc96668a-4c43-4b12-b456-47bdb2174719"},"vehicle_type_id":"4","last_reported":1687885595,"current_range_meters":31200,"station_id":"ce4bhq12rcd13ifvqhhg","pricing_plan_id":"free"},{"bike_id":"77c05030-ac6b-40af-b95e-4a6296c28206","system_id":"levelo_inurba_marseille","lat":43.27618,"lon":5.361009,"is_reserved":false,"is_disabled":false,"rental_uris":{"android":"levelo://app?vid=77c05030-ac6b-40af-b95e-4a6296c28206","ios":"levelo://app?vid=77c05030-ac6b-40af-b95e-4a6296c28206"},"vehicle_type_id":"4","last_reported":1687885595,"current_range_meters":16800,"station_id":"ce4bgj92rcd13ifvqbe0","pricing_plan_id":"free"},{"bike_id":"98fa1e3e-0527-4c11-a769-69feac1c6a84","system_id":"levelo_inurba_marseille","lat":43.325233,"lon":5.414318,"is_reserved":false,"is_disabled":false,"rental_uris":{"android":"levelo://app?vid=98fa1e3e-0527-4c11-a769-69feac1c6a84","ios":"levelo://app?vid=98fa1e3e-0527-4c11-a769-69feac1c6a84"},"vehicle_type_id":"4","last_reported":1687885595,"current_range_meters":24000,"station_id":"ce4bhq12rcd13ifvqhhg","pricing_plan_id":"free"},{"bike_id":"ae232cec-acbf-40e2-ba91-275e3712db8d","system_id":"levelo_inurba_marseille","lat":43.27618,"lon":5.361009,"is_reserved":false,"is_disabled":false,"rental_uris":{"android":"levelo://app?vid=ae232cec-acbf-40e2-ba91-275e3712db8d","ios":"levelo://app?vid=ae232cec-acbf-40e2-ba91-275e3712db8d"},"vehicle_type_id":"4","last_reported":1687885595,"current_range_meters":31200,"station_id":"ce4bgj92rcd13ifvqbe0","pricing_plan_id":"free"},{"bike_id":"9acf99e3-5bc2-495a-b05e-8250295b3873","system_id":"levelo_inurba_marseille","lat":43.27618,"lon":5.361009,"is_reserved":false,"is_disabled":false,"rental_uris":{"android":"levelo://app?vid=9acf99e3-5bc2-495a-b05e-8250295b3873","ios":"levelo://app?vid=9acf99e3-5bc2-495a-b05e-8250295b3873"},"vehicle_type_id":"4","last_reported":1687885595,"current_range_meters":29600,"station_id":"ce4bgj92rcd13ifvqbe0","pricing_plan_id":"free"},{"bike_id":"5c0181c7-3bca-435b-92e2-1f8b83953c32","system_id":"levelo_inurba_marseille","lat":43.276155,"lon":5.361041,"is_reserved":false,"is_disabled":false,"rental_uris":{"android":"levelo://app?vid=5c0181c7-3bca-435b-92e2-1f8b83953c32","ios":"levelo://app?vid=5c0181c7-3bca-435b-92e2-1f8b83953c32"},"vehicle_type_id":"4","last_reported":1687885595,"current_range_meters":17600,"station_id":"ce4bgj92rcd13ifvqbe0","pricing_plan_id":"free"},{"bike_id":"b77b0a24-30c4-4b25-9bf9-1ad48182a38a","system_id":"levelo_inurba_marseille","lat":43.276179,"lon":5.361009,"is_reserved":false,"is_disabled":false,"rental_uris":{"android":"levelo://app?vid=b77b0a24-30c4-4b25-9bf9-1ad48182a38a","ios":"levelo://app?vid=b77b0a24-30c4-4b25-9bf9-1ad48182a38a"},"vehicle_type_id":"4","last_reported":1687885595,"current_range_meters":18000,"station_id":"ce4bgj92rcd13ifvqbe0","pricing_plan_id":"free"},{"bike_id":"d7016f0e-49f1-4c80-b3af-737560373c72","system_id":"levelo_inurba_marseille","lat":43.276179,"lon":5.361009,"is_reserved":false,"is_disabled":false,"rental_uris":{"android":"levelo://app?vid=d7016f0e-49f1-4c80-b3af-737560373c72","ios":"levelo://app?vid=d7016f0e-49f1-4c80-b3af-737560373c72"},"vehicle_type_id":"4","last_reported":1687885595,"current_range_meters":5600,"station_id":"ce4bgj92rcd13ifvqbe0","pricing_plan_id":"free"},{"bike_id":"6b4fea4e-f238-4b5a-a2d3-c2d6b767f627","system_id":"levelo_inurba_marseille","lat":43.276179,"lon":5.361009,"is_reserved":false,"is_disabled":false,"rental_uris":{"android":"levelo://app?vid=6b4fea4e-f238-4b5a-a2d3-c2d6b767f627","ios":"levelo://app?vid=6b4fea4e-f238-4b5a-a2d3-c2d6b767f627"},"vehicle_type_id":"4","last_reported":1687885595,"current_range_meters":31200,"station_id":"ce4bgj92rcd13ifvqbe0","pricing_plan_id":"free"},{"bike_id":"841dcea2-6955-4006-836c-1bb8e82923e4","system_id":"levelo_inurba_marseille","lat":43.325233,"lon":5.414318,"is_reserved":false,"is_disabled":false,"rental_uris":{"android":"levelo://app?vid=841dcea2-6955-4006-836c-1bb8e82923e4","ios":"levelo://app?vid=841dcea2-6955-4006-836c-1bb8e82923e4"},"vehicle_type_id":"4","last_reported":1687885595,"current_range_meters":31200,"station_id":"ce4bhq12rcd13ifvqhhg","pricing_plan_id":"free"},{"bike_id":"f065fa8b-1590-4551-9344-a945ebce0505","system_id":"levelo_inurba_marseille","lat":43.325233,"lon":5.414318,"is_reserved":false,"is_disabled":false,"rental_uris":{"android":"levelo://app?vid=f065fa8b-1590-4551-9344-a945ebce0505","ios":"levelo://app?vid=f065fa8b-1590-4551-9344-a945ebce0505"},"vehicle_type_id":"4","last_reported":1687885595,"current_range_meters":28400,"station_id":"ce4bhq12rcd13ifvqhhg","pricing_plan_id":"free"},{"bike_id":"159186b8-9afa-4652-ae68-b1c11c4d085f","system_id":"levelo_inurba_marseille","lat":43.276179,"lon":5.361009,"is_reserved":false,"is_disabled":false,"rental_uris":{"android":"levelo://app?vid=159186b8-9afa-4652-ae68-b1c11c4d085f","ios":"levelo://app?vid=159186b8-9afa-4652-ae68-b1c11c4d085f"},"vehicle_type_id":"4","last_reported":1687885595,"current_range_meters":26800,"station_id":"ce4bgj92rcd13ifvqbe0","pricing_plan_id":"free"},{"bike_id":"5c3f2bb4-eb8b-4619-80d7-a3619fe55d8e","system_id":"levelo_inurba_marseille","lat":43.27382,"lon":5.36256,"is_reserved":false,"is_disabled":false,"rental_uris":{"android":"levelo://app?vid=5c3f2bb4-eb8b-4619-80d7-a3619fe55d8e","ios":"levelo://app?vid=5c3f2bb4-eb8b-4619-80d7-a3619fe55d8e"},"vehicle_type_id":"4","last_reported":1687885595,"current_range_meters":29600,"station_id":"ce4bhbh2rcd13ifvqeo0","pricing_plan_id":"free"},{"bike_id":"48d3c149-4a5a-4986-b714-0432a254b5b2","system_id":"levelo_inurba_marseille","lat":43.27382,"lon":5.36255,"is_reserved":false,"is_disabled":false,"rental_uris":{"android":"levelo://app?vid=48d3c149-4a5a-4986-b714-0432a254b5b2","ios":"levelo://app?vid=48d3c149-4a5a-4986-b714-0432a254b5b2"},"vehicle_type_id":"4","last_reported":1687885595,"current_range_meters":14400,"station_id":"","pricing_plan_id":"free"},{"bike_id":"a648aabc-6ae8-4fab-a4a4-609e880b13fe","system_id":"levelo_inurba_marseille","lat":43.27378,"lon":5.36248,"is_reserved":false,"is_disabled":false,"rental_uris":{"android":"levelo://app?vid=a648aabc-6ae8-4fab-a4a4-609e880b13fe","ios":"levelo://app?vid=a648aabc-6ae8-4fab-a4a4-609e880b13fe"},"vehicle_type_id":"4","last_reported":1687885595,"current_range_meters":11200,"station_id":"ce4bhbh2rcd13ifvqeo0","pricing_plan_id":"free"},{"bike_id":"e27c7a81-2e91-40bb-92b6-73bc5c0f09f1","system_id":"levelo_inurba_marseille","lat":43.273609,"lon":5.362708,"is_reserved":false,"is_disabled":false,"rental_uris":{"android":"levelo://app?vid=e27c7a81-2e91-40bb-92b6-73bc5c0f09f1","ios":"levelo://app?vid=e27c7a81-2e91-40bb-92b6-73bc5c0f09f1"},"vehicle_type_id":"4","last_reported":1687885595,"current_range_meters":18000,"station_id":"ce4bhbh2rcd13ifvqeo0","pricing_plan_id":"free"},{"bike_id":"ba53f29d-1f86-42aa-92c5-f7bb29efd800","system_id":"levelo_inurba_marseille","lat":43.273609,"lon":5.362708,"is_reserved":false,"is_disabled":false,"rental_uris":{"android":"levelo://app?vid=ba53f29d-1f86-42aa-92c5-f7bb29efd800","ios":"levelo://app?vid=ba53f29d-1f86-42aa-92c5-f7bb29efd800"},"vehicle_type_id":"4","last_reported":1687885595,"current_range_meters":23200,"station_id":"ce4bhbh2rcd13ifvqeo0","pricing_plan_id":"free"},{"bike_id":"2484db24-8c6e-4f24-832e-5f2910396ed6","system_id":"levelo_inurba_marseille","lat":43.273609,"lon":5.362708,"is_reserved":false,"is_disabled":false,"rental_uris":{"android":"levelo://app?vid=2484db24-8c6e-4f24-832e-5f2910396ed6","ios":"levelo://app?vid=2484db24-8c6e-4f24-832e-5f2910396ed6"},"vehicle_type_id":"4","last_reported":1687885595,"current_range_meters":14400,"station_id":"ce4bhbh2rcd13ifvqeo0","pricing_plan_id":"free"},{"bike_id":"f4a85512-5090-42e1-b0b4-0de1836c8a80","system_id":"levelo_inurba_marseille","lat":43.273609,"lon":5.362708,"is_reserved":false,"is_disabled":false,"rental_uris":{"android":"levelo://app?vid=f4a85512-5090-42e1-b0b4-0de1836c8a80","ios":"levelo://app?vid=f4a85512-5090-42e1-b0b4-0de1836c8a80"},"vehicle_type_id":"4","last_reported":1687885595,"current_range_meters":21600,"station_id":"ce4bhbh2rcd13ifvqeo0","pricing_plan_id":"free"},{"bike_id":"d03646bb-cf0b-4dfd-aa4b-ac9b2db6333d","system_id":"levelo_inurba_marseille","lat":43.273609,"lon":5.362708,"is_reserved":false,"is_disabled":false,"rental_uris":{"android":"levelo://app?vid=d03646bb-cf0b-4dfd-aa4b-ac9b2db6333d","ios":"levelo://app?vid=d03646bb-cf0b-4dfd-aa4b-ac9b2db6333d"},"vehicle_type_id":"4","last_reported":1687885595,"current_range_meters":31200,"station_id":"ce4bhbh2rcd13ifvqeo0","pricing_plan_id":"free"},{"bike_id":"56a37311-7fd7-4e2a-8422-766012608c44","system_id":"levelo_inurba_marseille","lat":43.27373,"lon":5.36256,"is_reserved":false,"is_disabled":false,"rental_uris":{"android":"levelo://app?vid=56a37311-7fd7-4e2a-8422-766012608c44","ios":"levelo://app?vid=56a37311-7fd7-4e2a-8422-766012608c44"},"vehicle_type_id":"4","last_reported":1687885595,"current_range_meters":31200,"station_id":"ce4bhbh2rcd13ifvqeo0","pricing_plan_id":"free"},{"bike_id":"9865d19d-96ca-48db-bbaa-dcc53937afd5","system_id":"levelo_inurba_marseille","lat":43.27373,"lon":5.36246,"is_reserved":false,"is_disabled":false,"rental_uris":{"android":"levelo://app?vid=9865d19d-96ca-48db-bbaa-dcc53937afd5","ios":"levelo://app?vid=9865d19d-96ca-48db-bbaa-dcc53937afd5"},"vehicle_type_id":"4","last_reported":1687885595,"current_range_meters":31200,"station_id":"ce4bhbh2rcd13ifvqeo0","pricing_plan_id":"free"},{"bike_id":"9b10a5d8-dd5a-4a19-83ca-0e1deafa7bf6","system_id":"levelo_inurba_marseille","lat":43.27372,"lon":5.36255,"is_reserved":false,"is_disabled":false,"rental_uris":{"android":"levelo://app?vid=9b10a5d8-dd5a-4a19-83ca-0e1deafa7bf6","ios":"levelo://app?vid=9b10a5d8-dd5a-4a19-83ca-0e1deafa7bf6"},"vehicle_type_id":"4","last_reported":1687885595,"current_range_meters":31200,"station_id":"ce4bhbh2rcd13ifvqeo0","pricing_plan_id":"free"},{"bike_id":"9f7fb674-30e2-4295-acd3-6508e153023b","system_id":"levelo_inurba_marseille","lat":43.273613,"lon":5.362705,"is_reserved":false,"is_disabled":false,"rental_uris":{"android":"levelo://app?vid=9f7fb674-30e2-4295-acd3-6508e153023b","ios":"levelo://app?vid=9f7fb674-30e2-4295-acd3-6508e153023b"},"vehicle_type_id":"4","last_reported":1687885595,"current_range_meters":2800,"station_id":"ce4bhbh2rcd13ifvqeo0","pricing_plan_id":"free"},{"bike_id":"7c33da0f-b065-4e86-ae11-5e2ef8a4dcc2","system_id":"levelo_inurba_marseille","lat":43.275625,"lon":5.384392,"is_reserved":false,"is_disabled":false,"rental_uris":{"android":"levelo://app?vid=7c33da0f-b065-4e86-ae11-5e2ef8a4dcc2","ios":"levelo://app?vid=7c33da0f-b065-4e86-ae11-5e2ef8a4dcc2"},"vehicle_type_id":"4","last_reported":1687885595,"current_range_meters":26400,"station_id":"ce4bhh92rcd13ifvqfi0","pricing_plan_id":"free"},{"bike_id":"1fba073c-9544-40b3-81d4-87f60324ef14","system_id":"levelo_inurba_marseille","lat":43.273609,"lon":5.362708,"is_reserved":false,"is_disabled":false,"rental_uris":{"android":"levelo://app?vid=1fba073c-9544-40b3-81d4-87f60324ef14","ios":"levelo://app?vid=1fba073c-9544-40b3-81d4-87f60324ef14"},"vehicle_type_id":"4","last_reported":1687885595,"current_range_meters":21600,"station_id":"ce4bhbh2rcd13ifvqeo0","pricing_plan_id":"free"},{"bike_id":"f8a2dc2b-0039-48e7-87fb-da8349f326ac","system_id":"levelo_inurba_marseille","lat":43.273609,"lon":5.362708,"is_reserved":false,"is_disabled":false,"rental_uris":{"android":"levelo://app?vid=f8a2dc2b-0039-48e7-87fb-da8349f326ac","ios":"levelo://app?vid=f8a2dc2b-0039-48e7-87fb-da8349f326ac"},"vehicle_type_id":"4","last_reported":1687885595,"current_range_meters":19600,"station_id":"ce4bhbh2rcd13ifvqeo0","pricing_plan_id":"free"},{"bike_id":"3456f5ba-d2db-459b-afb0-ec13670edd9e","system_id":"levelo_inurba_marseille","lat":43.273609,"lon":5.362708,"is_reserved":false,"is_disabled":false,"rental_uris":{"android":"levelo://app?vid=3456f5ba-d2db-459b-afb0-ec13670edd9e","ios":"levelo://app?vid=3456f5ba-d2db-459b-afb0-ec13670edd9e"},"vehicle_type_id":"4","last_reported":1687885595,"current_range_meters":15600,"station_id":"ce4bhbh2rcd13ifvqeo0","pricing_plan_id":"free"},{"bike_id":"6c3464d6-5222-4fcc-b279-8d3c3155e51f","system_id":"levelo_inurba_marseille","lat":43.273609,"lon":5.362708,"is_reserved":false,"is_disabled":false,"rental_uris":{"android":"levelo://app?vid=6c3464d6-5222-4fcc-b279-8d3c3155e51f","ios":"levelo://app?vid=6c3464d6-5222-4fcc-b279-8d3c3155e51f"},"vehicle_type_id":"4","last_reported":1687885595,"current_range_meters":24000,"station_id":"ce4bhbh2rcd13ifvqeo0","pricing_plan_id":"free"},{"bike_id":"027ea06f-7870-47ea-864e-d967b6032f25","system_id":"levelo_inurba_marseille","lat":43.273609,"lon":5.362708,"is_reserved":false,"is_disabled":false,"rental_uris":{"android":"levelo://app?vid=027ea06f-7870-47ea-864e-d967b6032f25","ios":"levelo://app?vid=027ea06f-7870-47ea-864e-d967b6032f25"},"vehicle_type_id":"4","last_reported":1687885595,"current_range_meters":22800,"station_id":"ce4bhbh2rcd13ifvqeo0","pricing_plan_id":"free"},{"bike_id":"aeea64e1-956a-4732-843e-3ada9a510c26","system_id":"levelo_inurba_marseille","lat":43.275625,"lon":5.384392,"is_reserved":false,"is_disabled":false,"rental_uris":{"android":"levelo://app?vid=aeea64e1-956a-4732-843e-3ada9a510c26","ios":"levelo://app?vid=aeea64e1-956a-4732-843e-3ada9a510c26"},"vehicle_type_id":"4","last_reported":1687885595,"current_range_meters":0,"station_id":"ce4bhh92rcd13ifvqfi0","pricing_plan_id":"free"},{"bike_id":"c8d6d7c6-b87a-4593-99a2-281c099f69c2","system_id":"levelo_inurba_marseille","lat":43.27365,"lon":5.36247,"is_reserved":false,"is_disabled":false,"rental_uris":{"android":"levelo://app?vid=c8d6d7c6-b87a-4593-99a2-281c099f69c2","ios":"levelo://app?vid=c8d6d7c6-b87a-4593-99a2-281c099f69c2"},"vehicle_type_id":"4","last_reported":1687885595,"current_range_meters":31200,"station_id":"ce4bhbh2rcd13ifvqeo0","pricing_plan_id":"free"},{"bike_id":"f75d19d6-b688-48f3-ad09-c6c384c142b7","system_id":"levelo_inurba_marseille","lat":43.336134,"lon":5.410341,"is_reserved":false,"is_disabled":false,"rental_uris":{"android":"levelo://app?vid=f75d19d6-b688-48f3-ad09-c6c384c142b7","ios":"levelo://app?vid=f75d19d6-b688-48f3-ad09-c6c384c142b7"},"vehicle_type_id":"4","last_reported":1687885595,"current_range_meters":5200,"station_id":"ce4bhqh2rcd13ifvqhmg","pricing_plan_id":"free"},{"bike_id":"4a3ccd30-4cd8-42c6-afd8-2b78c1f931a5","system_id":"levelo_inurba_marseille","lat":43.310785,"lon":5.424305,"is_reserved":false,"is_disabled":false,"rental_uris":{"android":"levelo://app?vid=4a3ccd30-4cd8-42c6-afd8-2b78c1f931a5","ios":"levelo://app?vid=4a3ccd30-4cd8-42c6-afd8-2b78c1f931a5"},"vehicle_type_id":"4","last_reported":1687885595,"current_range_meters":20000,"station_id":"ce4bhp92rcd13ifvqhag","pricing_plan_id":"free"},{"bike_id":"cec630dd-cdf3-47f7-9cc3-53cbea3c8b2a","system_id":"levelo_inurba_marseille","lat":43.310785,"lon":5.424305,"is_reserved":false,"is_disabled":false,"rental_uris":{"android":"levelo://app?vid=cec630dd-cdf3-47f7-9cc3-53cbea3c8b2a","ios":"levelo://app?vid=cec630dd-cdf3-47f7-9cc3-53cbea3c8b2a"},"vehicle_type_id":"4","last_reported":1687885595,"current_range_meters":25600,"station_id":"ce4bhp92rcd13ifvqhag","pricing_plan_id":"free"},{"bike_id":"a769fc32-66bb-4cca-96e3-a886bb792d19","system_id":"levelo_inurba_marseille","lat":43.310785,"lon":5.424305,"is_reserved":false,"is_disabled":false,"rental_uris":{"android":"levelo://app?vid=a769fc32-66bb-4cca-96e3-a886bb792d19","ios":"levelo://app?vid=a769fc32-66bb-4cca-96e3-a886bb792d19"},"vehicle_type_id":"4","last_reported":1687885595,"current_range_meters":25200,"station_id":"ce4bhp92rcd13ifvqhag","pricing_plan_id":"free"},{"bike_id":"bd849308-d1e9-4f15-8afc-0348d2e75385","system_id":"levelo_inurba_marseille","lat":43.310785,"lon":5.424305,"is_reserved":false,"is_disabled":false,"rental_uris":{"android":"levelo://app?vid=bd849308-d1e9-4f15-8afc-0348d2e75385","ios":"levelo://app?vid=bd849308-d1e9-4f15-8afc-0348d2e75385"},"vehicle_type_id":"4","last_reported":1687885595,"current_range_meters":24000,"station_id":"ce4bhp92rcd13ifvqhag","pricing_plan_id":"free"},{"bike_id":"4fa21102-9c5c-4785-8da0-3d7f957b0c31","system_id":"levelo_inurba_marseille","lat":43.272124,"lon":5.391768,"is_reserved":false,"is_disabled":false,"rental_uris":{"android":"levelo://app?vid=4fa21102-9c5c-4785-8da0-3d7f957b0c31","ios":"levelo://app?vid=4fa21102-9c5c-4785-8da0-3d7f957b0c31"},"vehicle_type_id":"4","last_reported":1687885595,"current_range_meters":31200,"station_id":"ce4bhhp2rcd13ifvqfm0","pricing_plan_id":"free"},{"bike_id":"820e4909-d590-443d-b786-bedc1dc98a6e","system_id":"levelo_inurba_marseille","lat":43.278128,"lon":5.407195,"is_reserved":false,"is_disabled":false,"rental_uris":{"android":"levelo://app?vid=820e4909-d590-443d-b786-bedc1dc98a6e","ios":"levelo://app?vid=820e4909-d590-443d-b786-bedc1dc98a6e"},"vehicle_type_id":"4","last_reported":1687885595,"current_range_meters":3600,"station_id":"ce4bhnh2rcd13ifvqgtg","pricing_plan_id":"free"},{"bike_id":"0d02941a-f219-4c40-8449-bb4a58cf128d","system_id":"levelo_inurba_marseille","lat":43.27815,"lon":5.40719,"is_reserved":false,"is_disabled":false,"rental_uris":{"android":"levelo://app?vid=0d02941a-f219-4c40-8449-bb4a58cf128d","ios":"levelo://app?vid=0d02941a-f219-4c40-8449-bb4a58cf128d"},"vehicle_type_id":"4","last_reported":1687885595,"current_range_meters":5600,"station_id":"ce4bhnh2rcd13ifvqgtg","pricing_plan_id":"free"},{"bike_id":"ce072d27-19e4-4872-9392-bff6e613b8db","system_id":"levelo_inurba_marseille","lat":43.278128,"lon":5.407195,"is_reserved":false,"is_disabled":false,"rental_uris":{"android":"levelo://app?vid=ce072d27-19e4-4872-9392-bff6e613b8db","ios":"levelo://app?vid=ce072d27-19e4-4872-9392-bff6e613b8db"},"vehicle_type_id":"4","last_reported":1687885595,"current_range_meters":27600,"station_id":"ce4bhnh2rcd13ifvqgtg","pricing_plan_id":"free"},{"bike_id":"106475b4-8f1f-4b7f-8742-5ca9197bc92a","system_id":"levelo_inurba_marseille","lat":43.278128,"lon":5.407195,"is_reserved":false,"is_disabled":false,"rental_uris":{"android":"levelo://app?vid=106475b4-8f1f-4b7f-8742-5ca9197bc92a","ios":"levelo://app?vid=106475b4-8f1f-4b7f-8742-5ca9197bc92a"},"vehicle_type_id":"4","last_reported":1687885595,"current_range_meters":17200,"station_id":"ce4bhnh2rcd13ifvqgtg","pricing_plan_id":"free"},{"bike_id":"b38bc434-7236-4389-a990-2d50912d1410","system_id":"levelo_inurba_marseille","lat":43.269319,"lon":5.389397,"is_reserved":false,"is_disabled":false,"rental_uris":{"android":"levelo://app?vid=b38bc434-7236-4389-a990-2d50912d1410","ios":"levelo://app?vid=b38bc434-7236-4389-a990-2d50912d1410"},"vehicle_type_id":"4","last_reported":1687885595,"current_range_meters":5200,"station_id":"ce4bhhh2rcd13ifvqfl0","pricing_plan_id":"free"},{"bike_id":"a44ab089-3065-4a01-8590-35e1f73b8a1f","system_id":"levelo_inurba_marseille","lat":43.26727,"lon":5.38339,"is_reserved":false,"is_disabled":false,"rental_uris":{"android":"levelo://app?vid=a44ab089-3065-4a01-8590-35e1f73b8a1f","ios":"levelo://app?vid=a44ab089-3065-4a01-8590-35e1f73b8a1f"},"vehicle_type_id":"4","last_reported":1687885595,"current_range_meters":6000,"station_id":"","pricing_plan_id":"free"},{"bike_id":"3ca631d0-0499-4d91-8b31-db4171b0f4ba","system_id":"levelo_inurba_marseille","lat":43.26682,"lon":5.38275,"is_reserved":false,"is_disabled":false,"rental_uris":{"android":"levelo://app?vid=3ca631d0-0499-4d91-8b31-db4171b0f4ba","ios":"levelo://app?vid=3ca631d0-0499-4d91-8b31-db4171b0f4ba"},"vehicle_type_id":"4","last_reported":1687885595,"current_range_meters":9600,"station_id":"ce4bhg92rcd13ifvqf90","pricing_plan_id":"free"},{"bike_id":"355bf94c-0cda-41e7-8ca2-92b51dd3c83a","system_id":"levelo_inurba_marseille","lat":43.26681,"lon":5.38272,"is_reserved":false,"is_disabled":false,"rental_uris":{"android":"levelo://app?vid=355bf94c-0cda-41e7-8ca2-92b51dd3c83a","ios":"levelo://app?vid=355bf94c-0cda-41e7-8ca2-92b51dd3c83a"},"vehicle_type_id":"4","last_reported":1687885595,"current_range_meters":12800,"station_id":"ce4bhg92rcd13ifvqf90","pricing_plan_id":"free"},{"bike_id":"0d837acf-b349-4dfb-8dbc-00e84a454132","system_id":"levelo_inurba_marseille","lat":43.26666,"lon":5.38251,"is_reserved":false,"is_disabled":false,"rental_uris":{"android":"levelo://app?vid=0d837acf-b349-4dfb-8dbc-00e84a454132","ios":"levelo://app?vid=0d837acf-b349-4dfb-8dbc-00e84a454132"},"vehicle_type_id":"4","last_reported":1687885595,"current_range_meters":12400,"station_id":"ce4bhg92rcd13ifvqf90","pricing_plan_id":"free"},{"bike_id":"ada7c59a-1b90-46ef-a48c-2e35082e7975","system_id":"levelo_inurba_marseille","lat":43.27996,"lon":5.416624,"is_reserved":false,"is_disabled":false,"rental_uris":{"android":"levelo://app?vid=ada7c59a-1b90-46ef-a48c-2e35082e7975","ios":"levelo://app?vid=ada7c59a-1b90-46ef-a48c-2e35082e7975"},"vehicle_type_id":"4","last_reported":1687885595,"current_range_meters":6400,"station_id":"ce4bho12rcd13ifvqh1g","pricing_plan_id":"free"},{"bike_id":"0e76d060-95d6-4c9c-b2cc-92fa8a0e8833","system_id":"levelo_inurba_marseille","lat":43.27988,"lon":5.41657,"is_reserved":false,"is_disabled":false,"rental_uris":{"android":"levelo://app?vid=0e76d060-95d6-4c9c-b2cc-92fa8a0e8833","ios":"levelo://app?vid=0e76d060-95d6-4c9c-b2cc-92fa8a0e8833"},"vehicle_type_id":"4","last_reported":1687885595,"current_range_meters":30000,"station_id":"ce4bho12rcd13ifvqh1g","pricing_plan_id":"free"},{"bike_id":"42a92609-f4c8-46df-9ec7-e1dfec0be89b","system_id":"levelo_inurba_marseille","lat":43.2799,"lon":5.41661,"is_reserved":false,"is_disabled":false,"rental_uris":{"android":"levelo://app?vid=42a92609-f4c8-46df-9ec7-e1dfec0be89b","ios":"levelo://app?vid=42a92609-f4c8-46df-9ec7-e1dfec0be89b"},"vehicle_type_id":"4","last_reported":1687885595,"current_range_meters":30400,"station_id":"ce4bho12rcd13ifvqh1g","pricing_plan_id":"free"},{"bike_id":"8d87f65e-c4f5-441b-b600-63a45e7a4b9a","system_id":"levelo_inurba_marseille","lat":43.27987,"lon":5.41659,"is_reserved":false,"is_disabled":false,"rental_uris":{"android":"levelo://app?vid=8d87f65e-c4f5-441b-b600-63a45e7a4b9a","ios":"levelo://app?vid=8d87f65e-c4f5-441b-b600-63a45e7a4b9a"},"vehicle_type_id":"4","last_reported":1687885595,"current_range_meters":23600,"station_id":"ce4bho12rcd13ifvqh1g","pricing_plan_id":"free"},{"bike_id":"4410f569-838a-4b85-98cf-b98ac32194f1","system_id":"levelo_inurba_marseille","lat":43.27986,"lon":5.41662,"is_reserved":false,"is_disabled":false,"rental_uris":{"android":"levelo://app?vid=4410f569-838a-4b85-98cf-b98ac32194f1","ios":"levelo://app?vid=4410f569-838a-4b85-98cf-b98ac32194f1"},"vehicle_type_id":"4","last_reported":1687885595,"current_range_meters":19600,"station_id":"ce4bho12rcd13ifvqh1g","pricing_plan_id":"free"},{"bike_id":"60e84be0-1dce-4e88-a35f-eb9d2a473aed","system_id":"levelo_inurba_marseille","lat":43.27987,"lon":5.41664,"is_reserved":false,"is_disabled":false,"rental_uris":{"android":"levelo://app?vid=60e84be0-1dce-4e88-a35f-eb9d2a473aed","ios":"levelo://app?vid=60e84be0-1dce-4e88-a35f-eb9d2a473aed"},"vehicle_type_id":"4","last_reported":1687885595,"current_range_meters":30000,"station_id":"ce4bho12rcd13ifvqh1g","pricing_plan_id":"free"},{"bike_id":"92a1f827-7fd6-47c0-9b23-75eb8203b205","system_id":"levelo_inurba_marseille","lat":43.27996,"lon":5.41679,"is_reserved":false,"is_disabled":false,"rental_uris":{"android":"levelo://app?vid=92a1f827-7fd6-47c0-9b23-75eb8203b205","ios":"levelo://app?vid=92a1f827-7fd6-47c0-9b23-75eb8203b205"},"vehicle_type_id":"4","last_reported":1687885595,"current_range_meters":18000,"station_id":"ce4bho12rcd13ifvqh1g","pricing_plan_id":"free"},{"bike_id":"c8906f20-9889-42ef-bb91-b7f67f4b43b0","system_id":"levelo_inurba_marseille","lat":43.265569,"lon":5.390047,"is_reserved":false,"is_disabled":false,"rental_uris":{"android":"levelo://app?vid=c8906f20-9889-42ef-bb91-b7f67f4b43b0","ios":"levelo://app?vid=c8906f20-9889-42ef-bb91-b7f67f4b43b0"},"vehicle_type_id":"4","last_reported":1687885595,"current_range_meters":26000,"station_id":"ce4bhe12rcd13ifvqf30","pricing_plan_id":"free"},{"bike_id":"5c4de842-4eae-4bfe-8d25-614375d9cfea","system_id":"levelo_inurba_marseille","lat":43.261782,"lon":5.374515,"is_reserved":false,"is_disabled":false,"rental_uris":{"android":"levelo://app?vid=5c4de842-4eae-4bfe-8d25-614375d9cfea","ios":"levelo://app?vid=5c4de842-4eae-4bfe-8d25-614375d9cfea"},"vehicle_type_id":"4","last_reported":1687885595,"current_range_meters":19600,"station_id":"ce4bhgp2rcd13ifvqfc0","pricing_plan_id":"free"},{"bike_id":"a9a58b88-1ec9-4248-8a17-3e854e62dcb2","system_id":"levelo_inurba_marseille","lat":43.26188,"lon":5.37443,"is_reserved":false,"is_disabled":false,"rental_uris":{"android":"levelo://app?vid=a9a58b88-1ec9-4248-8a17-3e854e62dcb2","ios":"levelo://app?vid=a9a58b88-1ec9-4248-8a17-3e854e62dcb2"},"vehicle_type_id":"4","last_reported":1687885595,"current_range_meters":31200,"station_id":"ce4bhgp2rcd13ifvqfc0","pricing_plan_id":"free"},{"bike_id":"89ded25b-afb0-4b60-ade0-fa562df133a2","system_id":"levelo_inurba_marseille","lat":43.261782,"lon":5.374515,"is_reserved":false,"is_disabled":false,"rental_uris":{"android":"levelo://app?vid=89ded25b-afb0-4b60-ade0-fa562df133a2","ios":"levelo://app?vid=89ded25b-afb0-4b60-ade0-fa562df133a2"},"vehicle_type_id":"4","last_reported":1687885595,"current_range_meters":21600,"station_id":"ce4bhgp2rcd13ifvqfc0","pricing_plan_id":"free"},{"bike_id":"dd70ba07-8301-4fe9-94c2-53b2d8f3b206","system_id":"levelo_inurba_marseille","lat":43.261782,"lon":5.374515,"is_reserved":false,"is_disabled":false,"rental_uris":{"android":"levelo://app?vid=dd70ba07-8301-4fe9-94c2-53b2d8f3b206","ios":"levelo://app?vid=dd70ba07-8301-4fe9-94c2-53b2d8f3b206"},"vehicle_type_id":"4","last_reported":1687885595,"current_range_meters":22000,"station_id":"ce4bhgp2rcd13ifvqfc0","pricing_plan_id":"free"},{"bike_id":"d9b709e5-52de-48e1-8919-cbe28a6e23eb","system_id":"levelo_inurba_marseille","lat":43.261782,"lon":5.374515,"is_reserved":false,"is_disabled":false,"rental_uris":{"android":"levelo://app?vid=d9b709e5-52de-48e1-8919-cbe28a6e23eb","ios":"levelo://app?vid=d9b709e5-52de-48e1-8919-cbe28a6e23eb"},"vehicle_type_id":"4","last_reported":1687885595,"current_range_meters":0,"station_id":"ce4bhgp2rcd13ifvqfc0","pricing_plan_id":"free"},{"bike_id":"3706e7db-59e4-4ab4-82c2-64f591b73ebd","system_id":"levelo_inurba_marseille","lat":43.2719,"lon":5.40986,"is_reserved":false,"is_disabled":false,"rental_uris":{"android":"levelo://app?vid=3706e7db-59e4-4ab4-82c2-64f591b73ebd","ios":"levelo://app?vid=3706e7db-59e4-4ab4-82c2-64f591b73ebd"},"vehicle_type_id":"4","last_reported":1687885595,"current_range_meters":9600,"station_id":"","pricing_plan_id":"free"},{"bike_id":"a1cc9e26-dfa6-4a2a-841e-15f382e2bd54","system_id":"levelo_inurba_marseille","lat":43.262012,"lon":5.379307,"is_reserved":false,"is_disabled":false,"rental_uris":{"android":"levelo://app?vid=a1cc9e26-dfa6-4a2a-841e-15f382e2bd54","ios":"levelo://app?vid=a1cc9e26-dfa6-4a2a-841e-15f382e2bd54"},"vehicle_type_id":"4","last_reported":1687885595,"current_range_meters":31200,"station_id":"ce4bhjp2rcd13ifvqg90","pricing_plan_id":"free"},{"bike_id":"ef722cc6-0b6f-42bf-beb1-8ee9f8296b8c","system_id":"levelo_inurba_marseille","lat":43.27167,"lon":5.40975,"is_reserved":false,"is_disabled":false,"rental_uris":{"android":"levelo://app?vid=ef722cc6-0b6f-42bf-beb1-8ee9f8296b8c","ios":"levelo://app?vid=ef722cc6-0b6f-42bf-beb1-8ee9f8296b8c"},"vehicle_type_id":"4","last_reported":1687885595,"current_range_meters":31200,"station_id":"","pricing_plan_id":"free"},{"bike_id":"bb3ca521-2d22-4917-850d-bcd6a1b493dc","system_id":"levelo_inurba_marseille","lat":43.271368,"lon":5.40928,"is_reserved":false,"is_disabled":false,"rental_uris":{"android":"levelo://app?vid=bb3ca521-2d22-4917-850d-bcd6a1b493dc","ios":"levelo://app?vid=bb3ca521-2d22-4917-850d-bcd6a1b493dc"},"vehicle_type_id":"4","last_reported":1687885595,"current_range_meters":2400,"station_id":"ce4bhl12rcd13ifvqgf0","pricing_plan_id":"free"},{"bike_id":"5920944e-f087-4b55-8914-03c97e070dbf","system_id":"levelo_inurba_marseille","lat":43.271368,"lon":5.40928,"is_reserved":false,"is_disabled":false,"rental_uris":{"android":"levelo://app?vid=5920944e-f087-4b55-8914-03c97e070dbf","ios":"levelo://app?vid=5920944e-f087-4b55-8914-03c97e070dbf"},"vehicle_type_id":"4","last_reported":1687885595,"current_range_meters":30000,"station_id":"ce4bhl12rcd13ifvqgf0","pricing_plan_id":"free"},{"bike_id":"ab5f13ad-435d-473d-87e4-f76b885cc655","system_id":"levelo_inurba_marseille","lat":43.271368,"lon":5.40928,"is_reserved":false,"is_disabled":false,"rental_uris":{"android":"levelo://app?vid=ab5f13ad-435d-473d-87e4-f76b885cc655","ios":"levelo://app?vid=ab5f13ad-435d-473d-87e4-f76b885cc655"},"vehicle_type_id":"4","last_reported":1687885595,"current_range_meters":22800,"station_id":"ce4bhl12rcd13ifvqgf0","pricing_plan_id":"free"},