{"last_updated":1693508670,"ttl":30,"version":"2.2","data":{"bikes":[{"bike_id":"1ae4f2be-e61a-4f99-bb04-0f3e4b11b99b","system_id":"levelo_inurba_marseille","lat":43.31341,"lon":5.367098,"is_reserved":false,"is_disabled":false,"rental_uris":{"android":"levelo://app?vid=1ae4f2be-e61a-4f99-bb04-0f3e4b11b99b","ios":"levelo://app?vid=1ae4f2be-e61a-4f99-bb04-0f3e4b11b99b"},"vehicle_type_id":"4","last_reported":1693508670,"current_range_meters":0,"station_id":"ce4bgr92rcd13ifvqc6g","pricing_plan_id":"free"},{"bike_id":"bd0a7954-5201-460d-acdd-81fa40f4d92c","system_id":"levelo_inurba_marseille","lat":43.31341,"lon":5.367098,"is_reserved":false,"is_disabled":false,"rental_uris":{"android":"levelo://app?vid=bd0a7954-5201-460d-acdd-81fa40f4d92c","ios":"levelo://app?vid=bd0a7954-5201-460d-acdd-81fa40f4d92c"},"vehicle_type_id":"4","last_reported":1693508670,"current_range_meters":2800,"station_id":"ce4bgr92rcd13ifvqc6g","pricing_plan_id":"free"},{"bike_id":"62789b38-bb62-4102-a70e-5f3003218213","system_id":"levelo_inurba_marseille","lat":43.31341,"lon":5.367098,"is_reserved":false,"is_disabled":false,"rental_uris":{"android":"levelo://app?vid=62789b38-bb62-4102-a70e-5f3003218213","ios":"levelo://app?vid=62789b38-bb62-4102-a70e-5f3003218213"},"vehicle_type_id":"4","last_reported":1693508670,"current_range_meters":2000,"station_id":"ce4bgr92rcd13ifvqc6g","pricing_plan_id":"free"},{"bike_id":"e534aa54-a541-447e-b21a-818ffaacb1b3","system_id":"levelo_inurba_marseille","lat":43.3124,"lon":5.36857,"is_reserved":false,"is_disabled":false,"rental_uris":{"android":"levelo://app?vid=e534aa54-a541-447e-b21a-818ffaacb1b3","ios":"levelo://app?vid=e534aa54-a541-447e-b21a-818ffaacb1b3"},"vehicle_type_id":"4","last_reported":1693508670,"current_range_meters":29600,"station_id":"ce4bgl92rcd13ifvqbq0","pricing_plan_id":"free"},{"bike_id":"d75929ed-2b53-411f-a637-20eaae9bf0b5","system_id":"levelo_inurba_marseille","lat":43.31364,"lon":5.36826,"is_reserved":false,"is_disabled":false,"rental_uris":{"android":"levelo://app?vid=d75929ed-2b53-411f-a637-20eaae9bf0b5","ios":"levelo://app?vid=d75929ed-2b53-411f-a637-20eaae9bf0b5"},"vehicle_type_id":"4","last_reported":1693508670,"current_range_meters":0,"station_id":"","pricing_plan_id":"free"},{"bike_id":"2e732f08-54d8-4343-84f9-849a5c609df2","system_id":"levelo_inurba_marseille","lat":43.31203,"lon":5.36904,"is_reserved":false,"is_disabled":false,"rental_uris":{"android":"levelo://app?vid=2e732f08-54d8-4343-84f9-849a5c609df2","ios":"levelo://app?vid=2e732f08-54d8-4343-84f9-849a5c609df2"},"vehicle_type_id":"4","last_reported":1693508670,"current_range_meters":21200,"station_id":"ce4bgl92rcd13ifvqbq0","pricing_plan_id":"free"},{"bike_id":"d2be997d-44d2-40a5-bb20-02aeaaf65fa5","system_id":"levelo_inurba_marseille","lat":43.314811,"lon":5.373104,"is_reserved":false,"is_disabled":false,"rental_uris":{"android":"levelo://app?vid=d2be997d-44d2-40a5-bb20-02aeaaf65fa5","ios":"levelo://app?vid=d2be997d-44d2-40a5-bb20-02aeaaf65fa5"},"vehicle_type_id":"4","last_reported":1693508670,"current_range_meters":31200,"station_id":"ce4bgt12rcd13ifvqcd0","pricing_plan_id":"free"},{"bike_id":"48b6ddc8-a4d4-4e88-a7d2-81bede47171f","system_id":"levelo_inurba_marseille","lat":43.314811,"lon":5.373103,"is_reserved":false,"is_disabled":false,"rental_uris":{"android":"levelo://app?vid=48b6ddc8-a4d4-4e88-a7d2-81bede47171f","ios":"levelo://app?vid=48b6ddc8-a4d4-4e88-a7d2-81bede47171f"},"vehicle_type_id":"4","last_reported":1693508670,"current_range_meters":16400,"station_id":"ce4bgt12rcd13ifvqcd0","pricing_plan_id":"free"},{"bike_id":"53e22d60-5a0d-45f8-955e-9c1c15c8c7aa","system_id":"levelo_inurba_marseille","lat":43.314811,"lon":5.373103,"is_reserved":false,"is_disabled":false,"rental_uris":{"android":"levelo://app?vid=53e22d60-5a0d-45f8-955e-9c1c15c8c7aa","ios":"levelo://app?vid=53e22d60-5a0d-45f8-955e-9c1c15c8c7aa"},"vehicle_type_id":"4","last_reported":1693508670,"current_range_meters":6400,"station_id":"ce4bgt12rcd13ifvqcd0","pricing_plan_id":"free"},{"bike_id":"c7bd7880-0779-4acc-b908-aafd4923f36a","system_id":"levelo_inurba_marseille","lat":43.309039,"lon":5.371797,"is_reserved":false,"is_disabled":false,"rental_uris":{"android":"levelo://app?vid=c7bd7880-0779-4acc-b908-aafd4923f36a","ios":"levelo://app?vid=c7bd7880-0779-4acc-b908-aafd4923f36a"},"vehicle_type_id":"4","last_reported":1693508670,"current_range_meters":16400,"station_id":"ce4bguh2rcd13ifvqckg","pricing_plan_id":"free"},{"bike_id":"45894cdb-0358-41ac-8b8e-e34b15459e03","system_id":"levelo_inurba_marseille","lat":43.30544,"lon":5.36536,"is_reserved":false,"is_disabled":false,"rental_uris":{"android":"levelo://app?vid=45894cdb-0358-41ac-8b8e-e34b15459e03","ios":"levelo://app?vid=45894cdb-0358-41ac-8b8e-e34b15459e03"},"vehicle_type_id":"4","last_reported":1693508670,"current_range_meters":12800,"station_id":"ce4bgs12rcd13ifvqcag","pricing_plan_id":"free"},{"bike_id":"0fdda3ea-88c9-4915-b936-91fa4ea94fc6","system_id":"levelo_inurba_marseille","lat":43.305368,"lon":5.367343,"is_reserved":false,"is_disabled":false,"rental_uris":{"android":"levelo://app?vid=0fdda3ea-88c9-4915-b936-91fa4ea94fc6","ios":"levelo://app?vid=0fdda3ea-88c9-4915-b936-91fa4ea94fc6"},"vehicle_type_id":"4","last_reported":1693508670,"current_range_meters":20400,"station_id":"ce4bgrp2rcd13ifvqc9g","pricing_plan_id":"free"},{"bike_id":"2db74f37-649f-4e80-8e37-158ae4097c7d","system_id":"levelo_inurba_marseille","lat":43.305989,"lon":5.37225,"is_reserved":false,"is_disabled":false,"rental_uris":{"android":"levelo://app?vid=2db74f37-649f-4e80-8e37-158ae4097c7d","ios":"levelo://app?vid=2db74f37-649f-4e80-8e37-158ae4097c7d"},"vehicle_type_id":"4","last_reported":1693508670,"current_range_meters":27200,"station_id":"ce4bgqh2rcd13ifvqc4g","pricing_plan_id":"free"},{"bike_id":"3397e42e-f319-420e-b617-9b90458aae5a","system_id":"levelo_inurba_marseille","lat":43.305989,"lon":5.37225,"is_reserved":false,"is_disabled":false,"rental_uris":{"android":"levelo://app?vid=3397e42e-f319-420e-b617-9b90458aae5a","ios":"levelo://app?vid=3397e42e-f319-420e-b617-9b90458aae5a"},"vehicle_type_id":"4","last_reported":1693508670,"current_range_meters":12400,"station_id":"ce4bgqh2rcd13ifvqc4g","pricing_plan_id":"free"},{"bike_id":"6c3e2963-c6aa-4760-8659-c161e20e2aab","system_id":"levelo_inurba_marseille","lat":43.305989,"lon":5.37225,"is_reserved":false,"is_disabled":false,"rental_uris":{"android":"levelo://app?vid=6c3e2963-c6aa-4760-8659-c161e20e2aab","ios":"levelo://app?vid=6c3e2963-c6aa-4760-8659-c161e20e2aab"},"vehicle_type_id":"4","last_reported":1693508670,"current_range_meters":18400,"station_id":"ce4bgqh2rcd13ifvqc4g","pricing_plan_id":"free"},{"bike_id":"4ea654ca-7011-47f8-8e50-fb739d0dde64","system_id":"levelo_inurba_marseille","lat":43.305989,"lon":5.37225,"is_reserved":false,"is_disabled":false,"rental_uris":{"android":"levelo://app?vid=4ea654ca-7011-47f8-8e50-fb739d0dde64","ios":"levelo://app?vid=4ea654ca-7011-47f8-8e50-fb739d0dde64"},"vehicle_type_id":"4","last_reported":1693508670,"current_range_meters":29200,"station_id":"ce4bgqh2rcd13ifvqc4g","pricing_plan_id":"free"},{"bike_id":"e6a717ae-effc-4c3a-b47d-9246dcfe8521","system_id":"levelo_inurba_marseille","lat":43.311131,"lon":5.377651,"is_reserved":false,"is_disabled":false,"rental_uris":{"android":"levelo://app?vid=e6a717ae-effc-4c3a-b47d-9246dcfe8521","ios":"levelo://app?vid=e6a717ae-effc-4c3a-b47d-9246dcfe8521"},"vehicle_type_id":"4","last_reported":1693508670,"current_range_meters":7200,"station_id":"ce4bgt92rcd13ifvqcg0","pricing_plan_id":"free"},{"bike_id":"cd3d548f-bd59-45ea-a76c-bcaa7c22f274","system_id":"levelo_inurba_marseille","lat":43.317075,"lon":5.377367,"is_reserved":false,"is_disabled":false,"rental_uris":{"android":"levelo://app?vid=cd3d548f-bd59-45ea-a76c-bcaa7c22f274","ios":"levelo://app?vid=cd3d548f-bd59-45ea-a76c-bcaa7c22f274"},"vehicle_type_id":"4","last_reported":1693508670,"current_range_meters":31200,"station_id":"ce4bgth2rcd13ifvqch0","pricing_plan_id":"free"},{"bike_id":"537a927d-8a1c-43e0-871b-ee68f3239d6e","system_id":"levelo_inurba_marseille","lat":43.317075,"lon":5.377367,"is_reserved":false,"is_disabled":false,"rental_uris":{"android":"levelo://app?vid=537a927d-8a1c-43e0-871b-ee68f3239d6e","ios":"levelo://app?vid=537a927d-8a1c-43e0-871b-ee68f3239d6e"},"vehicle_type_id":"4","last_reported":1693508670,"current_range_meters":31200,"station_id":"ce4bgth2rcd13ifvqch0","pricing_plan_id":"free"},{"bike_id":"536c548e-f26a-4f2c-8478-2c31233ebf18","system_id":"levelo_inurba_marseille","lat":43.317075,"lon":5.377367,"is_reserved":false,"is_disabled":false,"rental_uris":{"android":"levelo://app?vid=536c548e-f26a-4f2c-8478-2c31233ebf18","ios":"levelo://app?vid=536c548e-f26a-4f2c-8478-2c31233ebf18"},"vehicle_type_id":"4","last_reported":1693508670,"current_range_meters":25600,"station_id":"ce4bgth2rcd13ifvqch0","pricing_plan_id":"free"},{"bike_id":"62084ac3-3bb8-4c38-afd0-a8a1be138bb3","system_id":"levelo_inurba_marseille","lat":43.30312,"lon":5.36892,"is_reserved":false,"is_disabled":false,"rental_uris":{"android":"levelo://app?vid=62084ac3-3bb8-4c38-afd0-a8a1be138bb3","ios":"levelo://app?vid=62084ac3-3bb8-4c38-afd0-a8a1be138bb3"},"vehicle_type_id":"4","last_reported":1693508670,"current_range_meters":0,"station_id":"ce4bgqh2rcd13ifvqc5g","pricing_plan_id":"free"},{"bike_id":"e2f9764a-7a45-4f7c-87e1-a583bc7334cb","system_id":"levelo_inurba_marseille","lat":43.30288,"lon":5.36874,"is_reserved":false,"is_disabled":false,"rental_uris":{"android":"levelo://app?vid=e2f9764a-7a45-4f7c-87e1-a583bc7334cb","ios":"levelo://app?vid=e2f9764a-7a45-4f7c-87e1-a583bc7334cb"},"vehicle_type_id":"4","last_reported":1693508670,"current_range_meters":21200,"station_id":"ce4bgqh2rcd13ifvqc5g","pricing_plan_id":"free"},{"bike_id":"4abf28c8-542d-4caa-ab46-9f81497b0977","system_id":"levelo_inurba_marseille","lat":43.315289,"lon":5.380349,"is_reserved":false,"is_disabled":false,"rental_uris":{"android":"levelo://app?vid=4abf28c8-542d-4caa-ab46-9f81497b0977","ios":"levelo://app?vid=4abf28c8-542d-4caa-ab46-9f81497b0977"},"vehicle_type_id":"4","last_reported":1693508670,"current_range_meters":1200,"station_id":"ce4bhsp2rcd13ifvqi50","pricing_plan_id":"free"},{"bike_id":"f72b7f77-06ae-40ea-b296-9089da9e4c45","system_id":"levelo_inurba_marseille","lat":43.315289,"lon":5.380349,"is_reserved":false,"is_disabled":false,"rental_uris":{"android":"levelo://app?vid=f72b7f77-06ae-40ea-b296-9089da9e4c45","ios":"levelo://app?vid=f72b7f77-06ae-40ea-b296-9089da9e4c45"},"vehicle_type_id":"4","last_reported":1693508670,"current_range_meters":400,"station_id":"ce4bhsp2rcd13ifvqi50","pricing_plan_id":"free"},{"bike_id":"e0f89844-991e-4503-a437-a2c7576c25c2","system_id":"levelo_inurba_marseille","lat":43.301939,"lon":5.366286,"is_reserved":false,"is_disabled":false,"rental_uris":{"android":"levelo://app?vid=e0f89844-991e-4503-a437-a2c7576c25c2","ios":"levelo://app?vid=e0f89844-991e-4503-a437-a2c7576c25c2"},"vehicle_type_id":"4","last_reported":1693508670,"current_range_meters":6000,"station_id":"ce4bgrh2rcd13ifvqc8g","pricing_plan_id":"free"},{"bike_id":"09c0d6dc-936e-46af-b388-c46183bf241b","system_id":"levelo_inurba_marseille","lat":43.30802,"lon":5.38151,"is_reserved":false,"is_disabled":false,"rental_uris":{"android":"levelo://app?vid=09c0d6dc-936e-46af-b388-c46183bf241b","ios":"levelo://app?vid=09c0d6dc-936e-46af-b388-c46183bf241b"},"vehicle_type_id":"4","last_reported":1693508670,"current_range_meters":18000,"station_id":"ce4bgt12rcd13ifvqce0","pricing_plan_id":"free"},{"bike_id":"e284c9a9-f93a-448f-b6ab-3ac8a60fd18d","system_id":"levelo_inurba_marseille","lat":43.30287,"lon":5.37699,"is_reserved":false,"is_disabled":false,"rental_uris":{"android":"levelo://app?vid=e284c9a9-f93a-448f-b6ab-3ac8a60fd18d","ios":"levelo://app?vid=e284c9a9-f93a-448f-b6ab-3ac8a60fd18d"},"vehicle_type_id":"4","last_reported":1693508670,"current_range_meters":28400,"station_id":"ce4bguh2rcd13ifvqcj0","pricing_plan_id":"free"},{"bike_id":"c236b85c-2b47-4fa5-b5ee-3abe3e3416ca","system_id":"levelo_inurba_marseille","lat":43.30135,"lon":5.3742,"is_reserved":false,"is_disabled":false,"rental_uris":{"android":"levelo://app?vid=c236b85c-2b47-4fa5-b5ee-3abe3e3416ca","ios":"levelo://app?vid=c236b85c-2b47-4fa5-b5ee-3abe3e3416ca"},"vehicle_type_id":"4","last_reported":1693508670,"current_range_meters":12000,"station_id":"ce4bgs92rcd13ifvqcc0","pricing_plan_id":"free"},{"bike_id":"ab2a71b1-cf45-4170-b2e5-464b1779fc70","system_id":"levelo_inurba_marseille","lat":43.319935,"lon":5.381699,"is_reserved":false,"is_disabled":false,"rental_uris":{"android":"levelo://app?vid=ab2a71b1-cf45-4170-b2e5-464b1779fc70","ios":"levelo://app?vid=ab2a71b1-cf45-4170-b2e5-464b1779fc70"},"vehicle_type_id":"4","last_reported":1693508670,"current_range_meters":2000,"station_id":"ce4bhr12rcd13ifvqhpg","pricing_plan_id":"free"},{"bike_id":"d61157e6-461c-4b74-8f4d-1284af120b9c","system_id":"levelo_inurba_marseille","lat":43.299222,"lon":5.365554,"is_reserved":false,"is_disabled":false,"rental_uris":{"android":"levelo://app?vid=d61157e6-461c-4b74-8f4d-1284af120b9c","ios":"levelo://app?vid=d61157e6-461c-4b74-8f4d-1284af120b9c"},"vehicle_type_id":"4","last_reported":1693508670,"current_range_meters":18000,"station_id":"ce4bgm92rcd13ifvqbr0","pricing_plan_id":"free"},{"bike_id":"13f35256-0127-4aaa-a477-54af04235e01","system_id":"levelo_inurba_marseille","lat":43.29929,"lon":5.36552,"is_reserved":false,"is_disabled":false,"rental_uris":{"android":"levelo://app?vid=13f35256-0127-4aaa-a477-54af04235e01","ios":"levelo://app?vid=13f35256-0127-4aaa-a477-54af04235e01"},"vehicle_type_id":"4","last_reported":1693508670,"current_range_meters":17600,"station_id":"ce4bgm92rcd13ifvqbr0","pricing_plan_id":"free"},{"bike_id":"f720a373-6ca4-4583-85c8-3a1e16bb8838","system_id":"levelo_inurba_marseille","lat":43.29924,"lon":5.36541,"is_reserved":false,"is_disabled":false,"rental_uris":{"android":"levelo://app?vid=f720a373-6ca4-4583-85c8-3a1e16bb8838","ios":"levelo://app?vid=f720a373-6ca4-4583-85c8-3a1e16bb8838"},"vehicle_type_id":"4","last_reported":1693508670,"current_range_meters":25200,"station_id":"ce4bgm92rcd13ifvqbr0","pricing_plan_id":"free"},{"bike_id":"b94a9714-d8e4-4141-84e7-5b862a4e6cae","system_id":"levelo_inurba_marseille","lat":43.29935,"lon":5.37465,"is_reserved":false,"is_disabled":false,"rental_uris":{"android":"levelo://app?vid=b94a9714-d8e4-4141-84e7-5b862a4e6cae","ios":"levelo://app?vid=b94a9714-d8e4-4141-84e7-5b862a4e6cae"},"vehicle_type_id":"4","last_reported":1693508670,"current_range_meters":0,"station_id":"ce4bhr12rcd13ifvqhpg","pricing_plan_id":"free"},{"bike_id":"a6a09b1d-1d82-496b-9e3e-aa90bc897510","system_id":"levelo_inurba_marseille","lat":43.29851,"lon":5.36281,"is_reserved":false,"is_disabled":false,"rental_uris":{"android":"levelo://app?vid=a6a09b1d-1d82-496b-9e3e-aa90bc897510","ios":"levelo://app?vid=a6a09b1d-1d82-496b-9e3e-aa90bc897510"},"vehicle_type_id":"4","last_reported":1693508670,"current_range_meters":8000,"station_id":"ce4bgpp2rcd13ifvqc3g","pricing_plan_id":"free"},{"bike_id":"0e5eac26-996a-42b4-9ff9-f42b6e255e59","system_id":"levelo_inurba_marseille","lat":43.29849,"lon":5.36284,"is_reserved":false,"is_disabled":false,"rental_uris":{"android":"levelo://app?vid=0e5eac26-996a-42b4-9ff9-f42b6e255e59","ios":"levelo://app?vid=0e5eac26-996a-42b4-9ff9-f42b6e255e59"},"vehicle_type_id":"4","last_reported":1693508670,"current_range_meters":6800,"station_id":"ce4bgpp2rcd13ifvqc3g","pricing_plan_id":"free"},{"bike_id":"d5f0f75f-d2b0-4fef-b05b-126d6c71f7ab","system_id":"levelo_inurba_marseille","lat":43.298433,"lon":5.362774,"is_reserved":false,"is_disabled":false,"rental_uris":{"android":"levelo://app?vid=d5f0f75f-d2b0-4fef-b05b-126d6c71f7ab","ios":"levelo://app?vid=d5f0f75f-d2b0-4fef-b05b-126d6c71f7ab"},"vehicle_type_id":"4","last_reported":1693508670,"current_range_meters":25200,"station_id":"ce4bgpp2rcd13ifvqc3g","pricing_plan_id":"free"},{"bike_id":"efa6cfb5-9240-4e6e-b550-6ae87d68e975","system_id":"levelo_inurba_marseille","lat":43.311722,"lon":5.387247,"is_reserved":false,"is_disabled":false,"rental_uris":{"android":"levelo://app?vid=efa6cfb5-9240-4e6e-b550-6ae87d68e975","ios":"levelo://app?vid=efa6cfb5-9240-4e6e-b550-6ae87d68e975"},"vehicle_type_id":"4","last_reported":1693508670,"current_range_meters":10000,"station_id":"ce4bgv12rcd13ifvqcp0","pricing_plan_id":"free"},{"bike_id":"2f9e2def-2173-4eb4-a460-9a385f59debe","system_id":"levelo_inurba_marseille","lat":43.299243,"lon":5.37481,"is_reserved":false,"is_disabled":false,"rental_uris":{"android":"levelo://app?vid=2f9e2def-2173-4eb4-a460-9a385f59debe","ios":"levelo://app?vid=2f9e2def-2173-4eb4-a460-9a385f59debe"},"vehicle_type_id":"4","last_reported":1693508670,"current_range_meters":31200,"station_id":"ce4bgjh2rcd13ifvqbg0","pricing_plan_id":"free"},{"bike_id":"5d87c11d-8c46-4f07-b383-149754ffeb7f","system_id":"levelo_inurba_marseille","lat":43.311722,"lon":5.387247,"is_reserved":false,"is_disabled":false,"rental_uris":{"android":"levelo://app?vid=5d87c11d-8c46-4f07-b383-149754ffeb7f","ios":"levelo://app?vid=5d87c11d-8c46-4f07-b383-149754ffeb7f"},"vehicle_type_id":"4","last_reported":1693508670,"current_range_meters":19600,"station_id":"ce4bgv12rcd13ifvqcp0","pricing_plan_id":"free"},{"bike_id":"01fad5b5-38ed-44fc-bb52-ced93dd1c275","system_id":"levelo_inurba_marseille","lat":43.311722,"lon":5.387247,"is_reserved":false,"is_disabled":false,"rental_uris":{"android":"levelo://app?vid=01fad5b5-38ed-44fc-bb52-ced93dd1c275","ios":"levelo://app?vid=01fad5b5-38ed-44fc-bb52-ced93dd1c275"},"vehicle_type_id":"4","last_reported":1693508670,"current_range_meters":28800,"station_id":"ce4bgv12rcd13ifvqcp0","pricing_plan_id":"free"},{"bike_id":"a65e51a4-df05-47a3-bf01-d47e6807db74","system_id":"levelo_inurba_marseille","lat":43.311722,"lon":5.387247,"is_reserved":false,"is_disabled":false,"rental_uris":{"android":"levelo://app?vid=a65e51a4-df05-47a3-bf01-d47e6807db74","ios":"levelo://app?vid=a65e51a4-df05-47a3-bf01-d47e6807db74"},"vehicle_type_id":"4","last_reported":1693508670,"current_range_meters":19600,"station_id":"ce4bgv12rcd13ifvqcp0","pricing_plan_id":"free"},{"bike_id":"5d284cda-7bf0-4974-abcc-c415aab32572","system_id":"levelo_inurba_marseille","lat":43.311722,"lon":5.387247,"is_reserved":false,"is_disabled":false,"rental_uris":{"android":"levelo://app?vid=5d284cda-7bf0-4974-abcc-c415aab32572","ios":"levelo://app?vid=5d284cda-7bf0-4974-abcc-c415aab32572"},"vehicle_type_id":"4","last_reported":1693508670,"current_range_meters":1200,"station_id":"ce4bgv12rcd13ifvqcp0","pricing_plan_id":"free"},{"bike_id":"e382927a-7162-40a5-976e-79434f08ea52","system_id":"levelo_inurba_marseille","lat":43.311722,"lon":5.387247,"is_reserved":false,"is_disabled":false,"rental_uris":{"android":"levelo://app?vid=e382927a-7162-40a5-976e-79434f08ea52","ios":"levelo://app?vid=e382927a-7162-40a5-976e-79434f08ea52"},"vehicle_type_id":"4","last_reported":1693508670,"current_range_meters":19600,"station_id":"ce4bgv12rcd13ifvqcp0","pricing_plan_id":"free"},{"bike_id":"ecf6932a-6836-4c80-9c90-87914c1c0b9c","system_id":"levelo_inurba_marseille","lat":43.311722,"lon":5.387247,"is_reserved":false,"is_disabled":false,"rental_uris":{"android":"levelo://app?vid=ecf6932a-6836-4c80-9c90-87914c1c0b9c","ios":"levelo://app?vid=ecf6932a-6836-4c80-9c90-87914c1c0b9c"},"vehicle_type_id":"4","last_reported":1693508670,"current_range_meters":6800,"station_id":"ce4bgv12rcd13ifvqcp0","pricing_plan_id":"free"},{"bike_id":"924d6452-f7f7-4baa-af9a-49926af70474","system_id":"levelo_inurba_marseille","lat":43.297794,"lon":5.370888,"is_reserved":false,"is_disabled":false,"rental_uris":{"android":"levelo://app?vid=924d6452-f7f7-4baa-af9a-49926af70474","ios":"levelo://app?vid=924d6452-f7f7-4baa-af9a-49926af70474"},"vehicle_type_id":"4","last_reported":1693508670,"current_range_meters":28000,"station_id":"ce4bgop2rcd13ifvqc1g","pricing_plan_id":"free"},{"bike_id":"8143ebd5-c5c5-467f-a353-1c0066f90341","system_id":"levelo_inurba_marseille","lat":43.297774,"lon":5.370875,"is_reserved":false,"is_disabled":false,"rental_uris":{"android":"levelo://app?vid=8143ebd5-c5c5-467f-a353-1c0066f90341","ios":"levelo://app?vid=8143ebd5-c5c5-467f-a353-1c0066f90341"},"vehicle_type_id":"4","last_reported":1693508670,"current_range_meters":31200,"station_id":"ce4bgop2rcd13ifvqc1g","pricing_plan_id":"free"},{"bike_id":"36dc30cc-8707-401f-a548-16d5de607dc5","system_id":"levelo_inurba_marseille","lat":43.32287,"lon":5.38269,"is_reserved":false,"is_disabled":false,"rental_uris":{"android":"levelo://app?vid=36dc30cc-8707-401f-a548-16d5de607dc5","ios":"levelo://app?vid=36dc30cc-8707-401f-a548-16d5de607dc5"},"vehicle_type_id":"4","last_reported":1693508670,"current_range_meters":23600,"station_id":"ce4bhr12rcd13ifvqhqg","pricing_plan_id":"free"},{"bike_id":"c29114e8-dc25-4be3-832f-1611beb9061c","system_id":"levelo_inurba_marseille","lat":43.322903,"lon":5.382703,"is_reserved":false,"is_disabled":false,"rental_uris":{"android":"levelo://app?vid=c29114e8-dc25-4be3-832f-1611beb9061c","ios":"levelo://app?vid=c29114e8-dc25-4be3-832f-1611beb9061c"},"vehicle_type_id":"4","last_reported":1693508670,"current_range_meters":7600,"station_id":"ce4bhr12rcd13ifvqhqg","pricing_plan_id":"free"},{"bike_id":"0c82e1c5-ebfe-4237-a423-2fb94d8f8ae7","system_id":"levelo_inurba_marseille","lat":43.32826,"lon":5.36693,"is_reserved":false,"is_disabled":false,"rental_uris":{"android":"levelo://app?vid=0c82e1c5-ebfe-4237-a423-2fb94d8f8ae7","ios":"levelo://app?vid=0c82e1c5-ebfe-4237-a423-2fb94d8f8ae7"},"vehicle_type_id":"4","last_reported":1693508670,"current_range_meters":20800,"station_id":"ce4bhs92rcd13ifvqi0g","pricing_plan_id":"free"},{"bike_id":"243ad62e-9964-4e2f-afc3-82031035ad31","system_id":"levelo_inurba_marseille","lat":43.32832,"lon":5.36683,"is_reserved":false,"is_disabled":false,"rental_uris":{"android":"levelo://app?vid=243ad62e-9964-4e2f-afc3-82031035ad31","ios":"levelo://app?vid=243ad62e-9964-4e2f-afc3-82031035ad31"},"vehicle_type_id":"4","last_reported":1693508670,"current_range_meters":28400,"station_id":"ce4bhs92rcd13ifvqi0g","pricing_plan_id":"free"},{"bike_id":"dd789220-e7b5-42c1-b9dc-dc4243148021","system_id":"levelo_inurba_marseille","lat":43.29715,"lon":5.36601,"is_reserved":false,"is_disabled":false,"rental_uris":{"android":"levelo://app?vid=dd789220-e7b5-42c1-b9dc-dc4243148021","ios":"levelo://app?vid=dd789220-e7b5-42c1-b9dc-dc4243148021"},"vehicle_type_id":"4","last_reported":1693508670,"current_range_meters":29600,"station_id":"ce4bgn12rcd13ifvqbt0","pricing_plan_id":"free"},{"bike_id":"bd0bd295-6ecc-40c4-a4d0-89f645593756","system_id":"levelo_inurba_marseille","lat":43.297163,"lon":5.365866,"is_reserved":false,"is_disabled":false,"rental_uris":{"android":"levelo://app?vid=bd0bd295-6ecc-40c4-a4d0-89f645593756","ios":"levelo://app?vid=bd0bd295-6ecc-40c4-a4d0-89f645593756"},"vehicle_type_id":"4","last_reported":1693508670,"current_range_meters":22000,"station_id":"ce4bgn12rcd13ifvqbt0","pricing_plan_id":"free"},{"bike_id":"9e802b46-700a-4614-8fbd-b7448cdd7d6b","system_id":"levelo_inurba_marseille","lat":43.29703,"lon":5.36618,"is_reserved":false,"is_disabled":false,"rental_uris":{"android":"levelo://app?vid=9e802b46-700a-4614-8fbd-b7448cdd7d6b","ios":"levelo://app?vid=9e802b46-700a-4614-8fbd-b7448cdd7d6b"},"vehicle_type_id":"4","last_reported":1693508670,"current_range_meters":13600,"station_id":"ce4bgn12rcd13ifvqbt0","pricing_plan_id":"free"},{"bike_id":"2d38d843-9501-4a8b-8d1e-e53e054245cc","system_id":"levelo_inurba_marseille","lat":43.32164,"lon":5.38573,"is_reserved":false,"is_disabled":false,"rental_uris":{"android":"levelo://app?vid=2d38d843-9501-4a8b-8d1e-e53e054245cc","ios":"levelo://app?vid=2d38d843-9501-4a8b-8d1e-e53e054245cc"},"vehicle_type_id":"4","last_reported":1693508670,"current_range_meters":28400,"station_id":"","pricing_plan_id":"free"},{"bike_id":"10d32cd1-8307-45ca-ad3e-2653e5514234","system_id":"levelo_inurba_marseille","lat":43.2964,"lon":5.37123,"is_reserved":false,"is_disabled":false,"rental_uris":{"android":"levelo://app?vid=10d32cd1-8307-45ca-ad3e-2653e5514234","ios":"levelo://app?vid=10d32cd1-8307-45ca-ad3e-2653e5514234"},"vehicle_type_id":"4","last_reported":1693508670,"current_range_meters":0,"station_id":"","pricing_plan_id":"free"},{"bike_id":"65d934c8-ea94-404c-b991-a012f59c0b64","system_id":"levelo_inurba_marseille","lat":43.29621,"lon":5.37166,"is_reserved":false,"is_disabled":false,"rental_uris":{"android":"levelo://app?vid=65d934c8-ea94-404c-b991-a012f59c0b64","ios":"levelo://app?vid=65d934c8-ea94-404c-b991-a012f59c0b64"},"vehicle_type_id":"4","last_reported":1693508670,"current_range_meters":26800,"station_id":"","pricing_plan_id":"free"},{"bike_id":"d3139180-8ba9-4c91-b6e4-8baae3c22113","system_id":"levelo_inurba_marseille","lat":43.296131,"lon":5.370773,"is_reserved":false,"is_disabled":false,"rental_uris":{"android":"levelo://app?vid=d3139180-8ba9-4c91-b6e4-8baae3c22113","ios":"levelo://app?vid=d3139180-8ba9-4c91-b6e4-8baae3c22113"},"vehicle_type_id":"4","last_reported":1693508670,"current_range_meters":31200,"station_id":"ce4bgnh2rcd13ifvqc0g","pricing_plan_id":"free"},{"bike_id":"3b682195-4e35-4108-a34d-08a3f697466c","system_id":"levelo_inurba_marseille","lat":43.29578,"lon":5.36738,"is_reserved":false,"is_disabled":false,"rental_uris":{"android":"levelo://app?vid=3b682195-4e35-4108-a34d-08a3f697466c","ios":"levelo://app?vid=3b682195-4e35-4108-a34d-08a3f697466c"},"vehicle_type_id":"4","last_reported":1693508670,"current_range_meters":0,"station_id":"ce4bgph2rcd13ifvqc2g","pricing_plan_id":"free"},{"bike_id":"1e1e7151-5e81-4b66-9b39-a0932b93ada8","system_id":"levelo_inurba_marseille","lat":43.30949,"lon":5.39018,"is_reserved":false,"is_disabled":false,"rental_uris":{"android":"levelo://app?vid=1e1e7151-5e81-4b66-9b39-a0932b93ada8","ios":"levelo://app?vid=1e1e7151-5e81-4b66-9b39-a0932b93ada8"},"vehicle_type_id":"4","last_reported":1693508670,"current_range_meters":30800,"station_id":"ce4bgup2rcd13ifvqco0","pricing_plan_id":"free"},{"bike_id":"d6f5d451-1978-4003-9920-72bcb7bff21e","system_id":"levelo_inurba_marseille","lat":43.299028,"lon":5.381509,"is_reserved":false,"is_disabled":false,"rental_uris":{"android":"levelo://app?vid=d6f5d451-1978-4003-9920-72bcb7bff21e","ios":"levelo://app?vid=d6f5d451-1978-4003-9920-72bcb7bff21e"},"vehicle_type_id":"4","last_reported":1693508670,"current_range_meters":3200,"station_id":"ce4bgj12rcd13ifvqbc0","pricing_plan_id":"free"},{"bike_id":"9e15b726-b1c0-458e-aab9-e4fee3f5101c","system_id":"levelo_inurba_marseille","lat":43.296921,"lon":5.376579,"is_reserved":false,"is_disabled":false,"rental_uris":{"android":"levelo://app?vid=9e15b726-b1c0-458e-aab9-e4fee3f5101c","ios":"levelo://app?vid=9e15b726-b1c0-458e-aab9-e4fee3f5101c"},"vehicle_type_id":"4","last_reported":1693508670,"current_range_meters":1600,"station_id":"ce4bgkh2rcd13ifvqbl0","pricing_plan_id":"free"},{"bike_id":"7f6468f7-e215-4f09-8a3a-a4931de7ae85","system_id":"levelo_inurba_marseille","lat":43.299028,"lon":5.381509,"is_reserved":false,"is_disabled":false,"rental_uris":{"android":"levelo://app?vid=7f6468f7-e215-4f09-8a3a-a4931de7ae85","ios":"levelo://app?vid=7f6468f7-e215-4f09-8a3a-a4931de7ae85"},"vehicle_type_id":"4","last_reported":1693508670,"current_range_meters":13600,"station_id":"ce4bgj12rcd13ifvqbc0","pricing_plan_id":"free"},{"bike_id":"5b44def6-9969-4cd2-9ea9-b457346871dd","system_id":"levelo_inurba_marseille","lat":43.30952,"lon":5.39023,"is_reserved":false,"is_disabled":false,"rental_uris":{"android":"levelo://app?vid=5b44def6-9969-4cd2-9ea9-b457346871dd","ios":"levelo://app?vid=5b44def6-9969-4cd2-9ea9-b457346871dd"},"vehicle_type_id":"4","last_reported":1693508670,"current_range_meters":28800,"station_id":"ce4bgup2rcd13ifvqco0","pricing_plan_id":"free"},{"bike_id":"96c166b1-10b6-48dd-bf8e-69f974f92e33","system_id":"levelo_inurba_marseille","lat":43.30941,"lon":5.39023,"is_reserved":false,"is_disabled":false,"rental_uris":{"android":"levelo://app?vid=96c166b1-10b6-48dd-bf8e-69f974f92e33","ios":"levelo://app?vid=96c166b1-10b6-48dd-bf8e-69f974f92e33"},"vehicle_type_id":"4","last_reported":1693508670,"current_range_meters":400,"station_id":"ce4bgup2rcd13ifvqco0","pricing_plan_id":"free"},{"bike_id":"21959f72-28de-462d-9661-2e2c693c722d","system_id":"levelo_inurba_marseille","lat":43.3095,"lon":5.39026,"is_reserved":false,"is_disabled":false,"rental_uris":{"android":"levelo://app?vid=21959f72-28de-462d-9661-2e2c693c722d","ios":"levelo://app?vid=21959f72-28de-462d-9661-2e2c693c722d"},"vehicle_type_id":"4","last_reported":1693508670,"current_range_meters":16400,"station_id":"ce4bgup2rcd13ifvqco0","pricing_plan_id":"free"},{"bike_id":"f6c58af5-61be-4355-9108-7f4ddd4a6911","system_id":"levelo_inurba_marseille","lat":43.30949,"lon":5.39026,"is_reserved":false,"is_disabled":false,"rental_uris":{"android":"levelo://app?vid=f6c58af5-61be-4355-9108-7f4ddd4a6911","ios":"levelo://app?vid=f6c58af5-61be-4355-9108-7f4ddd4a6911"},"vehicle_type_id":"4","last_reported":1693508670,"current_range_meters":11600,"station_id":"ce4bgup2rcd13ifvqco0","pricing_plan_id":"free"},{"bike_id":"d07287b9-1ecb-4fe3-966e-1dabd462cee1","system_id":"levelo_inurba_marseille","lat":43.309589,"lon":5.390258,"is_reserved":false,"is_disabled":false,"rental_uris":{"android":"levelo://app?vid=d07287b9-1ecb-4fe3-966e-1dabd462cee1","ios":"levelo://app?vid=d07287b9-1ecb-4fe3-966e-1dabd462cee1"},"vehicle_type_id":"4","last_reported":1693508670,"current_range_meters":21600,"station_id":"ce4bgup2rcd13ifvqco0","pricing_plan_id":"free"},{"bike_id":"238a92e5-52aa-483e-a78b-2d9a191f31f8","system_id":"levelo_inurba_marseille","lat":43.30949,"lon":5.39027,"is_reserved":false,"is_disabled":false,"rental_uris":{"android":"levelo://app?vid=238a92e5-52aa-483e-a78b-2d9a191f31f8","ios":"levelo://app?vid=238a92e5-52aa-483e-a78b-2d9a191f31f8"},"vehicle_type_id":"4","last_reported":1693508670,"current_range_meters":26000,"station_id":"ce4bgup2rcd13ifvqco0","pricing_plan_id":"free"},{"bike_id":"32e24c52-47ba-41de-88a0-f945aa977ec3","system_id":"levelo_inurba_marseille","lat":43.30955,"lon":5.39029,"is_reserved":false,"is_disabled":false,"rental_uris":{"android":"levelo://app?vid=32e24c52-47ba-41de-88a0-f945aa977ec3","ios":"levelo://app?vid=32e24c52-47ba-41de-88a0-f945aa977ec3"},"vehicle_type_id":"4","last_reported":1693508670,"current_range_meters":31200,"station_id":"ce4bgup2rcd13ifvqco0","pricing_plan_id":"free"},{"bike_id":"50586637-bcb7-4063-a26e-9e28ba7b475e","system_id":"levelo_inurba_marseille","lat":43.30946,"lon":5.39028,"is_reserved":false,"is_disabled":false,"rental_uris":{"android":"levelo://app?vid=50586637-bcb7-4063-a26e-9e28ba7b475e","ios":"levelo://app?vid=50586637-bcb7-4063-a26e-9e28ba7b475e"},"vehicle_type_id":"4","last_reported":1693508670,"current_range_meters":16800,"station_id":"ce4bgup2rcd13ifvqco0","pricing_plan_id":"free"},{"bike_id":"1c3ad8db-7937-4d92-bcd8-11098753ddd4","system_id":"levelo_inurba_marseille","lat":43.30949,"lon":5.39029,"is_reserved":false,"is_disabled":false,"rental_uris":{"android":"levelo://app?vid=1c3ad8db-7937-4d92-bcd8-11098753ddd4","ios":"levelo://app?vid=1c3ad8db-7937-4d92-bcd8-11098753ddd4"},"vehicle_type_id":"4","last_reported":1693508670,"current_range_meters":15600,"station_id":"ce4bgup2rcd13ifvqco0","pricing_plan_id":"free"},{"bike_id":"c8627097-c57f-459b-ab47-e818dca7c2ec","system_id":"levelo_inurba_marseille","lat":43.30947,"lon":5.39029,"is_reserved":false,"is_disabled":false,"rental_uris":{"android":"levelo://app?vid=c8627097-c57f-459b-ab47-e818dca7c2ec","ios":"levelo://app?vid=c8627097-c57f-459b-ab47-e818dca7c2ec"},"vehicle_type_id":"4","last_reported":1693508670,"current_range_meters":0,"station_id":"ce4bgup2rcd13ifvqco0","pricing_plan_id":"free"},{"bike_id":"5438da09-8d87-4797-bed1-3198905ca05b","system_id":"levelo_inurba_marseille","lat":43.30946,"lon":5.39029,"is_reserved":false,"is_disabled":false,"rental_uris":{"android":"levelo://app?vid=5438da09-8d87-4797-bed1-3198905ca05b","ios":"levelo://app?vid=5438da09-8d87-4797-bed1-3198905ca05b"},"vehicle_type_id":"4","last_reported":1693508670,"current_range_meters":16800,"station_id":"ce4bgup2rcd13ifvqco0","pricing_plan_id":"free"},{"bike_id":"12f22488-6f6e-4cd4-b630-1e676724e02a","system_id":"levelo_inurba_marseille","lat":43.30949,"lon":5.3903,"is_reserved":false,"is_disabled":false,"rental_uris":{"android":"levelo://app?vid=12f22488-6f6e-4cd4-b630-1e676724e02a","ios":"levelo://app?vid=12f22488-6f6e-4cd4-b630-1e676724e02a"},"vehicle_type_id":"4","last_reported":1693508670,"current_range_meters":11200,"station_id":"ce4bgup2rcd13ifvqco0","pricing_plan_id":"free"},{"bike_id":"74603b1d-5a06-445b-bae1-cbfb427aa90e","system_id":"levelo_inurba_marseille","lat":43.309589,"lon":5.390258,"is_reserved":false,"is_disabled":false,"rental_uris":{"android":"levelo://app?vid=74603b1d-5a06-445b-bae1-cbfb427aa90e","ios":"levelo://app?vid=74603b1d-5a06-445b-bae1-cbfb427aa90e"},"vehicle_type_id":"4","last_reported":1693508670,"current_range_meters":22800,"station_id":"ce4bgup2rcd13ifvqco0","pricing_plan_id":"free"},{"bike_id":"c99303d9-4df5-41cc-afdf-903cb25a04f3","system_id":"levelo_inurba_marseille","lat":43.309589,"lon":5.390258,"is_reserved":false,"is_disabled":false,"rental_uris":{"android":"levelo://app?vid=c99303d9-4df5-41cc-afdf-903cb25a04f3","ios":"levelo://app?vid=c99303d9-4df5-41cc-afdf-903cb25a04f3"},"vehicle_type_id":"4","last_reported":1693508670,"current_range_meters":31200,"station_id":"ce4bgup2rcd13ifvqco0","pricing_plan_id":"free"},{"bike_id":"6cfe2eef-dba9-45e3-9419-0aa5b64d2de8","system_id":"levelo_inurba_marseille","lat":43.30956,"lon":5.39033,"is_reserved":false,"is_disabled":false,"rental_uris":{"android":"levelo://app?vid=6cfe2eef-dba9-45e3-9419-0aa5b64d2de8","ios":"levelo://app?vid=6cfe2eef-dba9-45e3-9419-0aa5b64d2de8"},"vehicle_type_id":"4","last_reported":1693508670,"current_range_meters":5600,"station_id":"ce4bgup2rcd13ifvqco0","pricing_plan_id":"free"},{"bike_id":"a7d79f3e-1070-4363-bcf0-5b0820d63736","system_id":"levelo_inurba_marseille","lat":43.30947,"lon":5.39032,"is_reserved":false,"is_disabled":false,"rental_uris":{"android":"levelo://app?vid=a7d79f3e-1070-4363-bcf0-5b0820d63736","ios":"levelo://app?vid=a7d79f3e-1070-4363-bcf0-5b0820d63736"},"vehicle_type_id":"4","last_reported":1693508670,"current_range_meters":20400,"station_id":"ce4bgup2rcd13ifvqco0","pricing_plan_id":"free"},{"bike_id":"f9e02c4b-43eb-4e3b-be6d-18a9b94a52c7","system_id":"levelo_inurba_marseille","lat":43.30953,"lon":5.39035,"is_reserved":false,"is_disabled":false,"rental_uris":{"android":"levelo://app?vid=f9e02c4b-43eb-4e3b-be6d-18a9b94a52c7","ios":"levelo://app?vid=f9e02c4b-43eb-4e3b-be6d-18a9b94a52c7"},"vehicle_type_id":"4","last_reported":1693508670,"current_range_meters":13600,"station_id":"ce4bgup2rcd13ifvqco0","pricing_plan_id":"free"},{"bike_id":"9a73c226-6703-4894-b3aa-83c140d6348a","system_id":"levelo_inurba_marseille","lat":43.30957,"lon":5.39037,"is_reserved":false,"is_disabled":false,"rental_uris":{"android":"levelo://app?vid=9a73c226-6703-4894-b3aa-83c140d6348a","ios":"levelo://app?vid=9a73c226-6703-4894-b3aa-83c140d6348a"},"vehicle_type_id":"4","last_reported":1693508670,"current_range_meters":31200,"station_id":"ce4bgup2rcd13ifvqco0","pricing_plan_id":"free"},{"bike_id":"fa534ce7-2975-4a1e-87f8-fbfe36816c73","system_id":"levelo_inurba_marseille","lat":43.30948,"lon":5.39035,"is_reserved":false,"is_disabled":false,"rental_uris":{"android":"levelo://app?vid=fa534ce7-2975-4a1e-87f8-fbfe36816c73","ios":"levelo://app?vid=fa534ce7-2975-4a1e-87f8-fbfe36816c73"},"vehicle_type_id":"4","last_reported":1693508670,"current_range_meters":31200,"station_id":"ce4bgup2rcd13ifvqco0","pricing_plan_id":"free"},{"bike_id":"a4eacdac-bc2d-4c47-bade-06a498c09fcf","system_id":"levelo_inurba_marseille","lat":43.309589,"lon":5.390258,"is_reserved":false,"is_disabled":false,"rental_uris":{"android":"levelo://app?vid=a4eacdac-bc2d-4c47-bade-06a498c09fcf","ios":"levelo://app?vid=a4eacdac-bc2d-4c47-bade-06a498c09fcf"},"vehicle_type_id":"4","last_reported":1693508670,"current_range_meters":28400,"station_id":"ce4bgup2rcd13ifvqco0","pricing_plan_id":"free"},{"bike_id":"6c56e94d-9d3c-40d0-b49d-61a12f27d1b1","system_id":"levelo_inurba_marseille","lat":43.30947,"lon":5.39038,"is_reserved":false,"is_disabled":false,"rental_uris":{"android":"levelo://app?vid=6c56e94d-9d3c-40d0-b49d-61a12f27d1b1","ios":"levelo://app?vid=6c56e94d-9d3c-40d0-b49d-61a12f27d1b1"},"vehicle_type_id":"4","last_reported":1693508670,"current_range_meters":31200,"station_id":"ce4bgup2rcd13ifvqco0","pricing_plan_id":"free"},{"bike_id":"191422ed-5c4e-432c-8fd6-194320450885","system_id":"levelo_inurba_marseille","lat":43.30949,"lon":5.39039,"is_reserved":false,"is_disabled":false,"rental_uris":{"android":"levelo://app?vid=191422ed-5c4e-432c-8fd6-194320450885","ios":"levelo://app?vid=191422ed-5c4e-432c-8fd6-194320450885"},"vehicle_type_id":"4","last_reported":1693508670,"current_range_meters":10400,"station_id":"ce4bgup2rcd13ifvqco0","pricing_plan_id":"free"},{"bike_id":"0046abe6-a34d-44bf-a2b3-24d148e40c21","system_id":"levelo_inurba_marseille","lat":43.309589,"lon":5.390258,"is_reserved":false,"is_disabled":false,"rental_uris":{"android":"levelo://app?vid=0046abe6-a34d-44bf-a2b3-24d148e40c21","ios":"levelo://app?vid=0046abe6-a34d-44bf-a2b3-24d148e40c21"},"vehicle_type_id":"4","last_reported":1693508670,"current_range_meters":31200,"station_id":"ce4bgup2rcd13ifvqco0","pricing_plan_id":"free"},{"bike_id":"08b7b77a-2c3d-4c62-99ef-a06a8b45b27d","system_id":"levelo_inurba_marseille","lat":43.30954,"lon":5.39043,"is_reserved":false,"is_disabled":false,"rental_uris":{"android":"levelo://app?vid=08b7b77a-2c3d-4c62-99ef-a06a8b45b27d","ios":"levelo://app?vid=08b7b77a-2c3d-4c62-99ef-a06a8b45b27d"},"vehicle_type_id":"4","last_reported":1693508670,"current_range_meters":31200,"station_id":"ce4bgup2rcd13ifvqco0","pricing_plan_id":"free"},{"bike_id":"b8d822f0-4ada-42ba-9acf-b95159eaf6f6","system_id":"levelo_inurba_marseille","lat":43.309589,"lon":5.390258,"is_reserved":false,"is_disabled":false,"rental_uris":{"android":"levelo://app?vid=b8d822f0-4ada-42ba-9acf-b95159eaf6f6","ios":"levelo://app?vid=b8d822f0-4ada-42ba-9acf-b95159eaf6f6"},"vehicle_type_id":"4","last_reported":1693508670,"current_range_meters":29600,"station_id":"ce4bgup2rcd13ifvqco0","pricing_plan_id":"free"},{"bike_id":"22d66ec0-26ee-458d-a7a0-54043685ad69","system_id":"levelo_inurba_marseille","lat":43.309589,"lon":5.390258,"is_reserved":false,"is_disabled":false,"rental_uris":{"android":"levelo://app?vid=22d66ec0-26ee-458d-a7a0-54043685ad69","ios":"levelo://app?vid=22d66ec0-26ee-458d-a7a0-54043685ad69"},"vehicle_type_id":"4","last_reported":1693508670,"current_range_meters":20800,"station_id":"ce4bgup2rcd13ifvqco0","pricing_plan_id":"free"},{"bike_id":"52d86e5e-42e0-462f-97c6-8acc7986acd3","system_id":"levelo_inurba_marseille","lat":43.3095,"lon":5.39043,"is_reserved":false,"is_disabled":false,"rental_uris":{"android":"levelo://app?vid=52d86e5e-42e0-462f-97c6-8acc7986acd3","ios":"levelo://app?vid=52d86e5e-42e0-462f-97c6-8acc7986acd3"},"vehicle_type_id":"4","last_reported":1693508670,"current_range_meters":23200,"station_id":"ce4bgup2rcd13ifvqco0","pricing_plan_id":"free"},{"bike_id":"21dd71d4-6fd1-4975-aec8-d0df6d84c4b1","system_id":"levelo_inurba_marseille","lat":43.3095,"lon":5.39044,"is_reserved":false,"is_disabled":false,"rental_uris":{"android":"levelo://app?vid=21dd71d4-6fd1-4975-aec8-d0df6d84c4b1","ios":"levelo://app?vid=21dd71d4-6fd1-4975-aec8-d0df6d84c4b1"},"vehicle_type_id":"4","last_reported":1693508670,"current_range_meters":8800,"station_id":"ce4bgup2rcd13ifvqco0","pricing_plan_id":"free"},{"bike_id":"775efdbc-b8c1-473f-8174-2a7e8c8cd126","system_id":"levelo_inurba_marseille","lat":43.3096,"lon":5.39047,"is_reserved":false,"is_disabled":false,"rental_uris":{"android":"levelo://app?vid=775efdbc-b8c1-473f-8174-2a7e8c8cd126","ios":"levelo://app?vid=775efdbc-b8c1-473f-8174-2a7e8c8cd126"},"vehicle_type_id":"4","last_reported":1693508670,"current_range_meters":31200,"station_id":"ce4bgup2rcd13ifvqco0","pricing_plan_id":"free"},{"bike_id":"62c85173-d5c2-4911-85ca-13fe89bdca64","system_id":"levelo_inurba_marseille","lat":43.317557,"lon":5.390173,"is_reserved":false,"is_disabled":false,"rental_uris":{"android":"levelo://app?vid=62c85173-d5c2-4911-85ca-13fe89bdca64","ios":"levelo://app?vid=62c85173-d5c2-4911-85ca-13fe89bdca64"},"vehicle_type_id":"4","last_reported":1693508670,"current_range_meters":0,"station_id":"ce4bhqp2rcd13ifvqhng","pricing_plan_id":"free"},{"bike_id":"2c93ce6f-c5e1-4ec9-9941-ebb7469bb8f2","system_id":"levelo_inurba_marseille","lat":43.31763,"lon":5.39005,"is_reserved":false,"is_disabled":false,"rental_uris":{"android":"levelo://app?vid=2c93ce6f-c5e1-4ec9-9941-ebb7469bb8f2","ios":"levelo://app?vid=2c93ce6f-c5e1-4ec9-9941-ebb7469bb8f2"},"vehicle_type_id":"4","last_reported":1693508670,"current_range_meters":22800,"station_id":"ce4bhqp2rcd13ifvqhng","pricing_plan_id":"free"},{"bike_id":"adb38ba4-d665-422a-bdf5-d7fc895ac5a8","system_id":"levelo_inurba_marseille","lat":43.317557,"lon":5.390173,"is_reserved":false,"is_disabled":false,"rental_uris":{"android":"levelo://app?vid=adb38ba4-d665-422a-bdf5-d7fc895ac5a8","ios":"levelo://app?vid=adb38ba4-d665-422a-bdf5-d7fc895ac5a8"},"vehicle_type_id":"4","last_reported":1693508670,"current_range_meters":30400,"station_id":"ce4bhqp2rcd13ifvqhng","pricing_plan_id":"free"},{"bike_id":"88d9d596-f438-4684-ae9f-d2d3fa8d2d69","system_id":"levelo_inurba_marseille","lat":43.317557,"lon":5.390173,"is_reserved":false,"is_disabled":false,"rental_uris":{"android":"levelo://app?vid=88d9d596-f438-4684-ae9f-d2d3fa8d2d69","ios":"levelo://app?vid=88d9d596-f438-4684-ae9f-d2d3fa8d2d69"},"vehicle_type_id":"4","last_reported":1693508670,"current_range_meters":13200,"station_id":"ce4bhqp2rcd13ifvqhng","pricing_plan_id":"free"},{"bike_id":"720dd94e-a706-4e3a-afd3-a1f49ede6b8a","system_id":"levelo_inurba_marseille","lat":43.31759,"lon":5.39013,"is_reserved":false,"is_disabled":false,"rental_uris":{"android":"levelo://app?vid=720dd94e-a706-4e3a-afd3-a1f49ede6b8a","ios":"levelo://app?vid=720dd94e-a706-4e3a-afd3-a1f49ede6b8a"},"vehicle_type_id":"4","last_reported":1693508670,"current_range_meters":12400,"station_id":"","pricing_plan_id":"free"},{"bike_id":"86d37462-6f2c-4ee1-b5e1-16f3e9285866","system_id":"levelo_inurba_marseille","lat":43.31755,"lon":5.39023,"is_reserved":false,"is_disabled":false,"rental_uris":{"android":"levelo://app?vid=86d37462-6f2c-4ee1-b5e1-16f3e9285866","ios":"levelo://app?vid=86d37462-6f2c-4ee1-b5e1-16f3e9285866"},"vehicle_type_id":"4","last_reported":1693508670,"current_range_meters":23200,"station_id":"ce4bhqp2rcd13ifvqhng","pricing_plan_id":"free"},{"bike_id":"4a1a0aad-9845-45a2-85ab-808a817e1b09","system_id":"levelo_inurba_marseille","lat":43.298037,"lon":5.381066,"is_reserved":false,"is_disabled":false,"rental_uris":{"android":"levelo://app?vid=4a1a0aad-9845-45a2-85ab-808a817e1b09","ios":"levelo://app?vid=4a1a0aad-9845-45a2-85ab-808a817e1b09"},"vehicle_type_id":"4","last_reported":1693508670,"current_range_meters":16400,"station_id":"ce4bgip2rcd13ifvqbb0","pricing_plan_id":"free"},{"bike_id":"6e9f5303-9584-467b-95f0-856e2cd239ee","system_id":"levelo_inurba_marseille","lat":43.30434,"lon":5.38875,"is_reserved":false,"is_disabled":false,"rental_uris":{"android":"levelo://app?vid=6e9f5303-9584-467b-95f0-856e2cd239ee","ios":"levelo://app?vid=6e9f5303-9584-467b-95f0-856e2cd239ee"},"vehicle_type_id":"4","last_reported":1693508670,"current_range_meters":15200,"station_id":"ce4bgk12rcd13ifvqbi0","pricing_plan_id":"free"},{"bike_id":"69c2c721-09de-4982-b710-1b21c6ab1d4c","system_id":"levelo_inurba_marseille","lat":43.298037,"lon":5.381066,"is_reserved":false,"is_disabled":false,"rental_uris":{"android":"levelo://app?vid=69c2c721-09de-4982-b710-1b21c6ab1d4c","ios":"levelo://app?vid=69c2c721-09de-4982-b710-1b21c6ab1d4c"},"vehicle_type_id":"4","last_reported":1693508670,"current_range_meters":8800,"station_id":"ce4bgip2rcd13ifvqbb0","pricing_plan_id":"free"},{"bike_id":"aeb244ad-c33a-4286-8a27-68c2d00695f1","system_id":"levelo_inurba_marseille","lat":43.2963,"lon":5.37702,"is_reserved":false,"is_disabled":false,"rental_uris":{"android":"levelo://app?vid=aeb244ad-c33a-4286-8a27-68c2d00695f1","ios":"levelo://app?vid=aeb244ad-c33a-4286-8a27-68c2d00695f1"},"vehicle_type_id":"4","last_reported":1693508670,"current_range_meters":0,"station_id":"ce4bgi92rcd13ifvqb90","pricing_plan_id":"free"},{"bike_id":"19890313-b604-4395-a5b6-b6f30cc8c0fa","system_id":"levelo_inurba_marseille","lat":43.298037,"lon":5.381066,"is_reserved":false,"is_disabled":false,"rental_uris":{"android":"levelo://app?vid=19890313-b604-4395-a5b6-b6f30cc8c0fa","ios":"levelo://app?vid=19890313-b604-4395-a5b6-b6f30cc8c0fa"},"vehicle_type_id":"4","last_reported":1693508670,"current_range_meters":21200,"station_id":"ce4bgip2rcd13ifvqbb0","pricing_plan_id":"free"},{"bike_id":"73854366-ba00-4eda-9290-66de3211f487","system_id":"levelo_inurba_marseille","lat":43.2997,"lon":5.38484,"is_reserved":false,"is_disabled":false,"rental_uris":{"android":"levelo://app?vid=73854366-ba00-4eda-9290-66de3211f487","ios":"levelo://app?vid=73854366-ba00-4eda-9290-66de3211f487"},"vehicle_type_id":"4","last_reported":1693508670,"current_range_meters":5200,"station_id":"ce4bgj92rcd13ifvqbd0","pricing_plan_id":"free"},{"bike_id":"32431900-e5b2-4351-92b6-d8ed3ec60164","system_id":"levelo_inurba_marseille","lat":43.32364,"lon":5.3888,"is_reserved":false,"is_disabled":false,"rental_uris":{"android":"levelo://app?vid=32431900-e5b2-4351-92b6-d8ed3ec60164","ios":"levelo://app?vid=32431900-e5b2-4351-92b6-d8ed3ec60164"},"vehicle_type_id":"4","last_reported":1693508670,"current_range_meters":12800,"station_id":"ce4bhqp2rcd13ifvqhog","pricing_plan_id":"free"},{"bike_id":"75dd2d9b-e11c-4209-90bf-8c81a9698c47","system_id":"levelo_inurba_marseille","lat":43.32363,"lon":5.38882,"is_reserved":false,"is_disabled":false,"rental_uris":{"android":"levelo://app?vid=75dd2d9b-e11c-4209-90bf-8c81a9698c47","ios":"levelo://app?vid=75dd2d9b-e11c-4209-90bf-8c81a9698c47"},"vehicle_type_id":"4","last_reported":1693508670,"current_range_meters":13600,"station_id":"ce4bhqp2rcd13ifvqhog","pricing_plan_id":"free"},{"bike_id":"065bcbbf-4978-40a8-9cc4-a0cbd2ceb2cb","system_id":"levelo_inurba_marseille","lat":43.32359,"lon":5.38887,"is_reserved":false,"is_disabled":false,"rental_uris":{"android":"levelo://app?vid=065bcbbf-4978-40a8-9cc4-a0cbd2ceb2cb","ios":"levelo://app?vid=065bcbbf-4978-40a8-9cc4-a0cbd2ceb2cb"},"vehicle_type_id":"4","last_reported":1693508670,"current_range_meters":12800,"station_id":"ce4bhqp2rcd13ifvqhog","pricing_plan_id":"free"},{"bike_id":"441b4bf0-2f81-424d-80e6-f67d81a2e87f","system_id":"levelo_inurba_marseille","lat":43.32365,"lon":5.38883,"is_reserved":false,"is_disabled":false,"rental_uris":{"android":"levelo://app?vid=441b4bf0-2f81-424d-80e6-f67d81a2e87f","ios":"levelo://app?vid=441b4bf0-2f81-424d-80e6-f67d81a2e87f"},"vehicle_type_id":"4","last_reported":1693508670,"current_range_meters":14000,"station_id":"ce4bhqp2rcd13ifvqhog","pricing_plan_id":"free"},{"bike_id":"2b97dc1d-285c-4b1c-a64a-1cdad8afbc16","system_id":"levelo_inurba_marseille","lat":43.32366,"lon":5.38883,"is_reserved":false,"is_disabled":false,"rental_uris":{"android":"levelo://app?vid=2b97dc1d-285c-4b1c-a64a-1cdad8afbc16","ios":"levelo://app?vid=2b97dc1d-285c-4b1c-a64a-1cdad8afbc16"},"vehicle_type_id":"4","last_reported":1693508670,"current_range_meters":16000,"station_id":"ce4bhqp2rcd13ifvqhog","pricing_plan_id":"free"},{"bike_id":"e94897eb-2f51-4c52-922b-c289aeeca2b2","system_id":"levelo_inurba_marseille","lat":43.29601,"lon":5.381084,"is_reserved":false,"is_disabled":false,"rental_uris":{"android":"levelo://app?vid=e94897eb-2f51-4c52-922b-c289aeeca2b2","ios":"levelo://app?vid=e94897eb-2f51-4c52-922b-c289aeeca2b2"},"vehicle_type_id":"4","last_reported":1693508670,"current_range_meters":400,"station_id":"ce4bgl12rcd13ifvqbo0","pricing_plan_id":"free"},{"bike_id":"15b1d443-9ac4-4b7d-bb53-66525137caa7","system_id":"levelo_inurba_marseille","lat":43.29601,"lon":5.381084,"is_reserved":false,"is_disabled":false,"rental_uris":{"android":"levelo://app?vid=15b1d443-9ac4-4b7d-bb53-66525137caa7","ios":"levelo://app?vid=15b1d443-9ac4-4b7d-bb53-66525137caa7"},"vehicle_type_id":"4","last_reported":1693508670,"current_range_meters":8000,"station_id":"ce4bgl12rcd13ifvqbo0","pricing_plan_id":"free"},{"bike_id":"5a3a50cc-32e2-455f-b26b-345f0fc0c89d","system_id":"levelo_inurba_marseille","lat":43.29602,"lon":5.381084,"is_reserved":false,"is_disabled":false,"rental_uris":{"android":"levelo://app?vid=5a3a50cc-32e2-455f-b26b-345f0fc0c89d","ios":"levelo://app?vid=5a3a50cc-32e2-455f-b26b-345f0fc0c89d"},"vehicle_type_id":"4","last_reported":1693508670,"current_range_meters":5600,"station_id":"ce4bgl12rcd13ifvqbo0","pricing_plan_id":"free"},{"bike_id":"240be7c0-d564-4cd2-a586-33fce645c7ca","system_id":"levelo_inurba_marseille","lat":43.304168,"lon":5.391413,"is_reserved":false,"is_disabled":false,"rental_uris":{"android":"levelo://app?vid=240be7c0-d564-4cd2-a586-33fce645c7ca","ios":"levelo://app?vid=240be7c0-d564-4cd2-a586-33fce645c7ca"},"vehicle_type_id":"4","last_reported":1693508670,"current_range_meters":6400,"station_id":"ce4bgk12rcd13ifvqbi0","pricing_plan_id":"free"},{"bike_id":"1394391b-76a4-47b5-b055-d176f7a452cb","system_id":"levelo_inurba_marseille","lat":43.292749,"lon":5.368402,"is_reserved":false,"is_disabled":false,"rental_uris":{"android":"levelo://app?vid=1394391b-76a4-47b5-b055-d176f7a452cb","ios":"levelo://app?vid=1394391b-76a4-47b5-b055-d176f7a452cb"},"vehicle_type_id":"4","last_reported":1693508670,"current_range_meters":14400,"station_id":"ce4bhbp2rcd13ifvqesg","pricing_plan_id":"free"},{"bike_id":"5fb22c69-e4a2-4d9f-8e1d-29119795c5dd","system_id":"levelo_inurba_marseille","lat":43.29271,"lon":5.36839,"is_reserved":false,"is_disabled":false,"rental_uris":{"android":"levelo://app?vid=5fb22c69-e4a2-4d9f-8e1d-29119795c5dd","ios":"levelo://app?vid=5fb22c69-e4a2-4d9f-8e1d-29119795c5dd"},"vehicle_type_id":"4","last_reported":1693508670,"current_range_meters":3600,"station_id":"ce4bhbp2rcd13ifvqesg","pricing_plan_id":"free"},{"bike_id":"f6dd50f7-afad-46f0-a59b-a6e45efe0321","system_id":"levelo_inurba_marseille","lat":43.292705,"lon":5.36842,"is_reserved":false,"is_disabled":false,"rental_uris":{"android":"levelo://app?vid=f6dd50f7-afad-46f0-a59b-a6e45efe0321","ios":"levelo://app?vid=f6dd50f7-afad-46f0-a59b-a6e45efe0321"},"vehicle_type_id":"4","last_reported":1693508670,"current_range_meters":4800,"station_id":"ce4bhbp2rcd13ifvqesg","pricing_plan_id":"free"},{"bike_id":"af378848-4ab5-4a0c-a75c-c290cd6c3483","system_id":"levelo_inurba_marseille","lat":43.32459,"lon":5.38946,"is_reserved":false,"is_disabled":false,"rental_uris":{"android":"levelo://app?vid=af378848-4ab5-4a0c-a75c-c290cd6c3483","ios":"levelo://app?vid=af378848-4ab5-4a0c-a75c-c290cd6c3483"},"vehicle_type_id":"4","last_reported":1693508670,"current_range_meters":6400,"station_id":"","pricing_plan_id":"free"},{"bike_id":"cddddfb0-4a61-4f2c-8cd8-d2e8bb96d8bc","system_id":"levelo_inurba_marseille","lat":43.29248,"lon":5.36702,"is_reserved":false,"is_disabled":false,"rental_uris":{"android":"levelo://app?vid=cddddfb0-4a61-4f2c-8cd8-d2e8bb96d8bc","ios":"levelo://app?vid=cddddfb0-4a61-4f2c-8cd8-d2e8bb96d8bc"},"vehicle_type_id":"4","last_reported":1693508670,"current_range_meters":31200,"station_id":"","pricing_plan_id":"free"},{"bike_id":"e224433f-1ed1-4d21-b4a6-0aa3da7bcb63","system_id":"levelo_inurba_marseille","lat":43.30593,"lon":5.393173,"is_reserved":false,"is_disabled":false,"rental_uris":{"android":"levelo://app?vid=e224433f-1ed1-4d21-b4a6-0aa3da7bcb63","ios":"levelo://app?vid=e224433f-1ed1-4d21-b4a6-0aa3da7bcb63"},"vehicle_type_id":"4","last_reported":1693508670,"current_range_meters":31200,"station_id":"ce4bh0p2rcd13ifvqd80","pricing_plan_id":"free"},{"bike_id":"5cd65098-a4e9-416b-af31-3ee8c6b38b7e","system_id":"levelo_inurba_marseille","lat":43.293009,"lon":5.374584,"is_reserved":false,"is_disabled":false,"rental_uris":{"android":"levelo://app?vid=5cd65098-a4e9-416b-af31-3ee8c6b38b7e","ios":"levelo://app?vid=5cd65098-a4e9-416b-af31-3ee8c6b38b7e"},"vehicle_type_id":"4","last_reported":1693508670,"current_range_meters":2800,"station_id":"ce4bgi12rcd13ifvqb70","pricing_plan_id":"free"},{"bike_id":"8eb5ce62-722e-47b2-903e-7fa67556f84d","system_id":"levelo_inurba_marseille","lat":43.293009,"lon":5.374584,"is_reserved":false,"is_disabled":false,"rental_uris":{"android":"levelo://app?vid=8eb5ce62-722e-47b2-903e-7fa67556f84d","ios":"levelo://app?vid=8eb5ce62-722e-47b2-903e-7fa67556f84d"},"vehicle_type_id":"4","last_reported":1693508670,"current_range_meters":14400,"station_id":"ce4bgi12rcd13ifvqb70","pricing_plan_id":"free"},{"bike_id":"e3dab4f7-70b2-4a5c-9108-0198ae1cc9b1","system_id":"levelo_inurba_marseille","lat":43.293017,"lon":5.374539,"is_reserved":false,"is_disabled":false,"rental_uris":{"android":"levelo://app?vid=e3dab4f7-70b2-4a5c-9108-0198ae1cc9b1","ios":"levelo://app?vid=e3dab4f7-70b2-4a5c-9108-0198ae1cc9b1"},"vehicle_type_id":"4","last_reported":1693508670,"current_range_meters":28400,"station_id":"ce4bgi12rcd13ifvqb70","pricing_plan_id":"free"},{"bike_id":"e60a4904-6dbc-4123-b541-257bb08f0c9f","system_id":"levelo_inurba_marseille","lat":43.293,"lon":5.37446,"is_reserved":false,"is_disabled":false,"rental_uris":{"android":"levelo://app?vid=e60a4904-6dbc-4123-b541-257bb08f0c9f","ios":"levelo://app?vid=e60a4904-6dbc-4123-b541-257bb08f0c9f"},"vehicle_type_id":"4","last_reported":1693508670,"current_range_meters":12800,"station_id":"ce4bgi12rcd13ifvqb70","pricing_plan_id":"free"},{"bike_id":"ec8835dc-85f0-43fc-9080-bb7279f08f84","system_id":"levelo_inurba_marseille","lat":43.293009,"lon":5.374584,"is_reserved":false,"is_disabled":false,"rental_uris":{"android":"levelo://app?vid=ec8835dc-85f0-43fc-9080-bb7279f08f84","ios":"levelo://app?vid=ec8835dc-85f0-43fc-9080-bb7279f08f84"},"vehicle_type_id":"4","last_reported":1693508670,"current_range_meters":14800,"station_id":"ce4bgi12rcd13ifvqb70","pricing_plan_id":"free"},{"bike_id":"0fd4d05d-b327-401a-a62a-731e62e640ad","system_id":"levelo_inurba_marseille","lat":43.29301,"lon":5.3746,"is_reserved":false,"is_disabled":false,"rental_uris":{"android":"levelo://app?vid=0fd4d05d-b327-401a-a62a-731e62e640ad","ios":"levelo://app?vid=0fd4d05d-b327-401a-a62a-731e62e640ad"},"vehicle_type_id":"4","last_reported":1693508670,"current_range_meters":0,"station_id":"ce4bgi12rcd13ifvqb70","pricing_plan_id":"free"},{"bike_id":"91b07490-0746-4f4f-97a8-1509c16b29bd","system_id":"levelo_inurba_marseille","lat":43.293009,"lon":5.374584,"is_reserved":false,"is_disabled":false,"rental_uris":{"android":"levelo://app?vid=91b07490-0746-4f4f-97a8-1509c16b29bd","ios":"levelo://app?vid=91b07490-0746-4f4f-97a8-1509c16b29bd"},"vehicle_type_id":"4","last_reported":1693508670,"current_range_meters":17600,"station_id":"ce4bgi12rcd13ifvqb70","pricing_plan_id":"free"},{"bike_id":"59e9aff6-939e-4028-97f1-d09b8bd94765","system_id":"levelo_inurba_marseille","lat":43.293009,"lon":5.374584,"is_reserved":false,"is_disabled":false,"rental_uris":{"android":"levelo://app?vid=59e9aff6-939e-4028-97f1-d09b8bd94765","ios":"levelo://app?vid=59e9aff6-939e-4028-97f1-d09b8bd94765"},"vehicle_type_id":"4","last_reported":1693508670,"current_range_meters":2800,"station_id":"ce4bgi12rcd13ifvqb70","pricing_plan_id":"free"},{"bike_id":"b46eb9ae-df76-4bca-b194-be3b14d0237b","system_id":"levelo_inurba_marseille","lat":43.30595,"lon":5.39356,"is_reserved":false,"is_disabled":false,"rental_uris":{"android":"levelo://app?vid=b46eb9ae-df76-4bca-b194-be3b14d0237b","ios":"levelo://app?vid=b46eb9ae-df76-4bca-b194-be3b14d0237b"},"vehicle_type_id":"4","last_reported":1693508670,"current_range_meters":17200,"station_id":"ce4bh0p2rcd13ifvqd80","pricing_plan_id":"free"},{"bike_id":"73b74f50-e844-4b72-8dec-88f5246b10c4","system_id":"levelo_inurba_marseille","lat":43.293009,"lon":5.374584,"is_reserved":false,"is_disabled":false,"rental_uris":{"android":"levelo://app?vid=73b74f50-e844-4b72-8dec-88f5246b10c4","ios":"levelo://app?vid=73b74f50-e844-4b72-8dec-88f5246b10c4"},"vehicle_type_id":"4","last_reported":1693508670,"current_range_meters":3600,"station_id":"ce4bgi12rcd13ifvqb70","pricing_plan_id":"free"},{"bike_id":"38fef587-7cc5-4800-b069-87b8f296a10a","system_id":"levelo_inurba_marseille","lat":43.302992,"lon":5.392136,"is_reserved":false,"is_disabled":false,"rental_uris":{"android":"levelo://app?vid=38fef587-7cc5-4800-b069-87b8f296a10a","ios":"levelo://app?vid=38fef587-7cc5-4800-b069-87b8f296a10a"},"vehicle_type_id":"4","last_reported":1693508670,"current_range_meters":28000,"station_id":"ce4bgkh2rcd13ifvqbk0","pricing_plan_id":"free"},{"bike_id":"0724f352-a262-45b7-9b71-9a09ff17d945","system_id":"levelo_inurba_marseille","lat":43.302992,"lon":5.392136,"is_reserved":false,"is_disabled":false,"rental_uris":{"android":"levelo://app?vid=0724f352-a262-45b7-9b71-9a09ff17d945","ios":"levelo://app?vid=0724f352-a262-45b7-9b71-9a09ff17d945"},"vehicle_type_id":"4","last_reported":1693508670,"current_range_meters":2800,"station_id":"ce4bgkh2rcd13ifvqbk0","pricing_plan_id":"free"},{"bike_id":"59d4a7cc-c4d8-47e1-a63f-2e26b5d209c3","system_id":"levelo_inurba_marseille","lat":43.2936,"lon":5.37835,"is_reserved":false,"is_disabled":false,"rental_uris":{"android":"levelo://app?vid=59d4a7cc-c4d8-47e1-a63f-2e26b5d209c3","ios":"levelo://app?vid=59d4a7cc-c4d8-47e1-a63f-2e26b5d209c3"},"vehicle_type_id":"4","last_reported":1693508670,"current_range_meters":31200,"station_id":"ce4bgjh2rcd13ifvqbf0","pricing_plan_id":"free"},{"bike_id":"ff5fe735-cbe7-4a3d-8dd8-3b408ba44da9","system_id":"levelo_inurba_marseille","lat":43.292311,"lon":5.360731,"is_reserved":false,"is_disabled":false,"rental_uris":{"android":"levelo://app?vid=ff5fe735-cbe7-4a3d-8dd8-3b408ba44da9","ios":"levelo://app?vid=ff5fe735-cbe7-4a3d-8dd8-3b408ba44da9"},"vehicle_type_id":"4","last_reported":1693508670,"current_range_meters":1600,"station_id":"ce4bhbh2rcd13ifvqeqg","pricing_plan_id":"free"},{"bike_id":"dfa7b616-e606-440c-806f-6df9e59eeeb2","system_id":"levelo_inurba_marseille","lat":43.30085,"lon":5.390856,"is_reserved":false,"is_disabled":false,"rental_uris":{"android":"levelo://app?vid=dfa7b616-e606-440c-806f-6df9e59eeeb2","ios":"levelo://app?vid=dfa7b616-e606-440c-806f-6df9e59eeeb2"},"vehicle_type_id":"4","last_reported":1693508670,"current_range_meters":400,"station_id":"ce4bh192rcd13ifvqdb0","pricing_plan_id":"free"},{"bike_id":"9560b292-ebb8-446e-9691-8c8191491121","system_id":"levelo_inurba_marseille","lat":43.29258,"lon":5.37622,"is_reserved":false,"is_disabled":false,"rental_uris":{"android":"levelo://app?vid=9560b292-ebb8-446e-9691-8c8191491121","ios":"levelo://app?vid=9560b292-ebb8-446e-9691-8c8191491121"},"vehicle_type_id":"4","last_reported":1693508670,"current_range_meters":400,"station_id":"ce4bgi12rcd13ifvqb80","pricing_plan_id":"free"},{"bike_id":"b127cb02-a67f-4944-955b-2653cb69db42","system_id":"levelo_inurba_marseille","lat":43.29147,"lon":5.36681,"is_reserved":false,"is_disabled":false,"rental_uris":{"android":"levelo://app?vid=b127cb02-a67f-4944-955b-2653cb69db42","ios":"levelo://app?vid=b127cb02-a67f-4944-955b-2653cb69db42"},"vehicle_type_id":"4","last_reported":1693508670,"current_range_meters":26000,"station_id":"ce4bhc92rcd13ifvqetg","pricing_plan_id":"free"},{"bike_id":"14aa6106-4d4a-4077-b1a4-2da8e27a34e4","system_id":"levelo_inurba_marseille","lat":43.298764,"lon":5.388973,"is_reserved":false,"is_disabled":false,"rental_uris":{"android":"levelo://app?vid=14aa6106-4d4a-4077-b1a4-2da8e27a34e4","ios":"levelo://app?vid=14aa6106-4d4a-4077-b1a4-2da8e27a34e4"},"vehicle_type_id":"4","last_reported":1693508670,"current_range_meters":1200,"station_id":"ce4bh392rcd13ifvqdl0","pricing_plan_id":"free"},{"bike_id":"fcd02c6b-f52b-4153-8dac-7ff733c0c0e5","system_id":"levelo_inurba_marseille","lat":43.29252,"lon":5.37619,"is_reserved":false,"is_disabled":false,"rental_uris":{"android":"levelo://app?vid=fcd02c6b-f52b-4153-8dac-7ff733c0c0e5","ios":"levelo://app?vid=fcd02c6b-f52b-4153-8dac-7ff733c0c0e5"},"vehicle_type_id":"4","last_reported":1693508670,"current_range_meters":14000,"station_id":"ce4bgi12rcd13ifvqb80","pricing_plan_id":"free"},{"bike_id":"a9128be2-dfa0-4d88-a090-b2640de53f9a","system_id":"levelo_inurba_marseille","lat":43.291675,"lon":5.371583,"is_reserved":false,"is_disabled":false,"rental_uris":{"android":"levelo://app?vid=a9128be2-dfa0-4d88-a090-b2640de53f9a","ios":"levelo://app?vid=a9128be2-dfa0-4d88-a090-b2640de53f9a"},"vehicle_type_id":"4","last_reported":1693508670,"current_range_meters":400,"station_id":"ce4bha92rcd13ifvqeh0","pricing_plan_id":"free"},{"bike_id":"80afc2a9-0811-40fc-9500-cbfa005a909f","system_id":"levelo_inurba_marseille","lat":43.29868,"lon":5.38905,"is_reserved":false,"is_disabled":false,"rental_uris":{"android":"levelo://app?vid=80afc2a9-0811-40fc-9500-cbfa005a909f","ios":"levelo://app?vid=80afc2a9-0811-40fc-9500-cbfa005a909f"},"vehicle_type_id":"4","last_reported":1693508670,"current_range_meters":12000,"station_id":"ce4bh392rcd13ifvqdl0","pricing_plan_id":"free"},{"bike_id":"b48edd66-b45b-4df5-913e-4183323d1e5e","system_id":"levelo_inurba_marseille","lat":43.292311,"lon":5.360731,"is_reserved":false,"is_disabled":false,"rental_uris":{"android":"levelo://app?vid=b48edd66-b45b-4df5-913e-4183323d1e5e","ios":"levelo://app?vid=b48edd66-b45b-4df5-913e-4183323d1e5e"},"vehicle_type_id":"4","last_reported":1693508670,"current_range_meters":10000,"station_id":"ce4bhbh2rcd13ifvqeqg","pricing_plan_id":"free"},{"bike_id":"73c2e0c0-a939-4bc3-943a-e52094180bff","system_id":"levelo_inurba_marseille","lat":43.29198,"lon":5.35794,"is_reserved":false,"is_disabled":false,"rental_uris":{"android":"levelo://app?vid=73c2e0c0-a939-4bc3-943a-e52094180bff","ios":"levelo://app?vid=73c2e0c0-a939-4bc3-943a-e52094180bff"},"vehicle_type_id":"4","last_reported":1693508670,"current_range_meters":27200,"station_id":"ce4bhb12rcd13ifvqel0","pricing_plan_id":"free"},{"bike_id":"5bb50458-ce48-4c00-a9a6-172a3f0bb3a1","system_id":"levelo_inurba_marseille","lat":43.313291,"lon":5.396838,"is_reserved":false,"is_disabled":false,"rental_uris":{"android":"levelo://app?vid=5bb50458-ce48-4c00-a9a6-172a3f0bb3a1","ios":"levelo://app?vid=5bb50458-ce48-4c00-a9a6-172a3f0bb3a1"},"vehicle_type_id":"4","last_reported":1693508670,"current_range_meters":31200,"station_id":"ce4bgvp2rcd13ifvqcu0","pricing_plan_id":"free"},{"bike_id":"e0b2f192-f373-4c48-a309-3bc1ba23c795","system_id":"levelo_inurba_marseille","lat":43.3133,"lon":5.39689,"is_reserved":false,"is_disabled":false,"rental_uris":{"android":"levelo://app?vid=e0b2f192-f373-4c48-a309-3bc1ba23c795","ios":"levelo://app?vid=e0b2f192-f373-4c48-a309-3bc1ba23c795"},"vehicle_type_id":"4","last_reported":1693508670,"current_range_meters":26000,"station_id":"ce4bgvp2rcd13ifvqcu0","pricing_plan_id":"free"},{"bike_id":"411aecea-7042-42e2-9e4b-b0e27cbcc21a","system_id":"levelo_inurba_marseille","lat":43.3133,"lon":5.39689,"is_reserved":false,"is_disabled":false,"rental_uris":{"android":"levelo://app?vid=411aecea-7042-42e2-9e4b-b0e27cbcc21a","ios":"levelo://app?vid=411aecea-7042-42e2-9e4b-b0e27cbcc21a"},"vehicle_type_id":"4","last_reported":1693508670,"current_range_meters":23200,"station_id":"ce4bgvp2rcd13ifvqcu0","pricing_plan_id":"free"},{"bike_id":"478e5943-5bdf-46ce-b102-8c9dcf2b43b7","system_id":"levelo_inurba_marseille","lat":43.3133,"lon":5.396902,"is_reserved":false,"is_disabled":false,"rental_uris":{"android":"levelo://app?vid=478e5943-5bdf-46ce-b102-8c9dcf2b43b7","ios":"levelo://app?vid=478e5943-5bdf-46ce-b102-8c9dcf2b43b7"},"vehicle_type_id":"4","last_reported":1693508670,"current_range_meters":16400,"station_id":"ce4bgvp2rcd13ifvqcu0","pricing_plan_id":"free"},{"bike_id":"43a8e9b2-011c-4001-9552-4aa717c36055","system_id":"levelo_inurba_marseille","lat":43.313291,"lon":5.396838,"is_reserved":false,"is_disabled":false,"rental_uris":{"android":"levelo://app?vid=43a8e9b2-011c-4001-9552-4aa717c36055","ios":"levelo://app?vid=43a8e9b2-011c-4001-9552-4aa717c36055"},"vehicle_type_id":"4","last_reported":1693508670,"current_range_meters":31200,"station_id":"ce4bgvp2rcd13ifvqcu0","pricing_plan_id":"free"},{"bike_id":"07e27ff4-77b5-4fd0-93a8-f24b799c166c","system_id":"levelo_inurba_marseille","lat":43.31325,"lon":5.39692,"is_reserved":false,"is_disabled":false,"rental_uris":{"android":"levelo://app?vid=07e27ff4-77b5-4fd0-93a8-f24b799c166c","ios":"levelo://app?vid=07e27ff4-77b5-4fd0-93a8-f24b799c166c"},"vehicle_type_id":"4","last_reported":1693508670,"current_range_meters":22400,"station_id":"ce4bgvp2rcd13ifvqcu0","pricing_plan_id":"free"},{"bike_id":"441129ab-fc72-4bb8-8fd1-e66a234a525a","system_id":"levelo_inurba_marseille","lat":43.3133,"lon":5.396919,"is_reserved":false,"is_disabled":false,"rental_uris":{"android":"levelo://app?vid=441129ab-fc72-4bb8-8fd1-e66a234a525a","ios":"levelo://app?vid=441129ab-fc72-4bb8-8fd1-e66a234a525a"},"vehicle_type_id":"4","last_reported":1693508670,"current_range_meters":31200,"station_id":"ce4bgvp2rcd13ifvqcu0","pricing_plan_id":"free"},{"bike_id":"0d962e12-b732-4464-bc89-f40845207671","system_id":"levelo_inurba_marseille","lat":43.33235,"lon":5.38036,"is_reserved":false,"is_disabled":false,"rental_uris":{"android":"levelo://app?vid=0d962e12-b732-4464-bc89-f40845207671","ios":"levelo://app?vid=0d962e12-b732-4464-bc89-f40845207671"},"vehicle_type_id":"4","last_reported":1693508670,"current_range_meters":14400,"station_id":"","pricing_plan_id":"free"},{"bike_id":"899f6402-e923-4b7b-bdd3-de7ce3c949b2","system_id":"levelo_inurba_marseille","lat":43.309038,"lon":5.396546,"is_reserved":false,"is_disabled":false,"rental_uris":{"android":"levelo://app?vid=899f6402-e923-4b7b-bdd3-de7ce3c949b2","ios":"levelo://app?vid=899f6402-e923-4b7b-bdd3-de7ce3c949b2"},"vehicle_type_id":"4","last_reported":1693508670,"current_range_meters":19200,"station_id":"ce4bh012rcd13ifvqcv0","pricing_plan_id":"free"},{"bike_id":"0f8222cc-ccbc-46f3-83f0-e8dfa7cc4061","system_id":"levelo_inurba_marseille","lat":43.309038,"lon":5.396546,"is_reserved":false,"is_disabled":false,"rental_uris":{"android":"levelo://app?vid=0f8222cc-ccbc-46f3-83f0-e8dfa7cc4061","ios":"levelo://app?vid=0f8222cc-ccbc-46f3-83f0-e8dfa7cc4061"},"vehicle_type_id":"4","last_reported":1693508670,"current_range_meters":31200,"station_id":"ce4bh012rcd13ifvqcv0","pricing_plan_id":"free"},{"bike_id":"993095fb-39d8-46b1-9b0a-a9bb86b4f7d3","system_id":"levelo_inurba_marseille","lat":43.29529,"lon":5.385581,"is_reserved":false,"is_disabled":false,"rental_uris":{"android":"levelo://app?vid=993095fb-39d8-46b1-9b0a-a9bb86b4f7d3","ios":"levelo://app?vid=993095fb-39d8-46b1-9b0a-a9bb86b4f7d3"},"vehicle_type_id":"4","last_reported":1693508670,"current_range_meters":7200,"station_id":"ce4bgih2rcd13ifvqba0","pricing_plan_id":"free"},{"bike_id":"8c4c685a-bb80-4f7d-a3d1-c1370af037cd","system_id":"levelo_inurba_marseille","lat":43.29529,"lon":5.385581,"is_reserved":false,"is_disabled":false,"rental_uris":{"android":"levelo://app?vid=8c4c685a-bb80-4f7d-a3d1-c1370af037cd","ios":"levelo://app?vid=8c4c685a-bb80-4f7d-a3d1-c1370af037cd"},"vehicle_type_id":"4","last_reported":1693508670,"current_range_meters":15600,"station_id":"ce4bgih2rcd13ifvqba0","pricing_plan_id":"free"},{"bike_id":"9f6afa8c-d7b3-4190-8ff7-9b1c3cd547e6","system_id":"levelo_inurba_marseille","lat":43.290779,"lon":5.371482,"is_reserved":false,"is_disabled":false,"rental_uris":{"android":"levelo://app?vid=9f6afa8c-d7b3-4190-8ff7-9b1c3cd547e6","ios":"levelo://app?vid=9f6afa8c-d7b3-4190-8ff7-9b1c3cd547e6"},"vehicle_type_id":"4","last_reported":1693508670,"current_range_meters":16000,"station_id":"ce4bh5p2rcd13ifvqe4g","pricing_plan_id":"free"},{"bike_id":"ef005a6e-9b6f-4b8a-be07-9a461573d442","system_id":"levelo_inurba_marseille","lat":43.290779,"lon":5.371482,"is_reserved":false,"is_disabled":false,"rental_uris":{"android":"levelo://app?vid=ef005a6e-9b6f-4b8a-be07-9a461573d442","ios":"levelo://app?vid=ef005a6e-9b6f-4b8a-be07-9a461573d442"},"vehicle_type_id":"4","last_reported":1693508670,"current_range_meters":2800,"station_id":"ce4bh5p2rcd13ifvqe4g","pricing_plan_id":"free"},{"bike_id":"228293a4-204f-47bf-82e7-0dd35644b08d","system_id":"levelo_inurba_marseille","lat":43.290779,"lon":5.371482,"is_reserved":false,"is_disabled":false,"rental_uris":{"android":"levelo://app?vid=228293a4-204f-47bf-82e7-0dd35644b08d","ios":"levelo://app?vid=228293a4-204f-47bf-82e7-0dd35644b08d"},"vehicle_type_id":"4","last_reported":1693508670,"current_range_meters":12000,"station_id":"ce4bh5p2rcd13ifvqe4g","pricing_plan_id":"free"},{"bike_id":"8ece6798-fe07-4f2c-a897-242837d4a521","system_id":"levelo_inurba_marseille","lat":43.29388,"lon":5.38342,"is_reserved":false,"is_disabled":false,"rental_uris":{"android":"levelo://app?vid=8ece6798-fe07-4f2c-a897-242837d4a521","ios":"levelo://app?vid=8ece6798-fe07-4f2c-a897-242837d4a521"},"vehicle_type_id":"4","last_reported":1693508670,"current_range_meters":400,"station_id":"","pricing_plan_id":"free"},{"bike_id":"0d977c80-91ef-413c-ae4c-a5331d39ffc4","system_id":"levelo_inurba_marseille","lat":43.302008,"lon":5.394694,"is_reserved":false,"is_disabled":false,"rental_uris":{"android":"levelo://app?vid=0d977c80-91ef-413c-ae4c-a5331d39ffc4","ios":"levelo://app?vid=0d977c80-91ef-413c-ae4c-a5331d39ffc4"},"vehicle_type_id":"4","last_reported":1693508670,"current_range_meters":12000,"station_id":"ce4bh0p2rcd13ifvqd70","pricing_plan_id":"free"},{"bike_id":"83afe9ac-9932-4042-9891-64cad7272b7c","system_id":"levelo_inurba_marseille","lat":43.302008,"lon":5.394694,"is_reserved":false,"is_disabled":false,"rental_uris":{"android":"levelo://app?vid=83afe9ac-9932-4042-9891-64cad7272b7c","ios":"levelo://app?vid=83afe9ac-9932-4042-9891-64cad7272b7c"},"vehicle_type_id":"4","last_reported":1693508670,"current_range_meters":31600,"station_id":"ce4bh0p2rcd13ifvqd70","pricing_plan_id":"free"},{"bike_id":"bd4c5834-556b-4fac-bdb8-0427fd31e76e","system_id":"levelo_inurba_marseille","lat":43.302181,"lon":5.39463,"is_reserved":false,"is_disabled":false,"rental_uris":{"android":"levelo://app?vid=bd4c5834-556b-4fac-bdb8-0427fd31e76e","ios":"levelo://app?vid=bd4c5834-556b-4fac-bdb8-0427fd31e76e"},"vehicle_type_id":"4","last_reported":1693508670,"current_range_meters":31200,"station_id":"ce4bh0p2rcd13ifvqd70","pricing_plan_id":"free"},{"bike_id":"6275b2d4-2680-42a8-8bde-b232c294b894","system_id":"levelo_inurba_marseille","lat":43.302008,"lon":5.394694,"is_reserved":false,"is_disabled":false,"rental_uris":{"android":"levelo://app?vid=6275b2d4-2680-42a8-8bde-b232c294b894","ios":"levelo://app?vid=6275b2d4-2680-42a8-8bde-b232c294b894"},"vehicle_type_id":"4","last_reported":1693508670,"current_range_meters":31200,"station_id":"ce4bh0p2rcd13ifvqd70","pricing_plan_id":"free"},{"bike_id":"d6ce378a-9447-4fb4-8877-236d2cdce81f","system_id":"levelo_inurba_marseille","lat":43.302008,"lon":5.394694,"is_reserved":false,"is_disabled":false,"rental_uris":{"android":"levelo://app?vid=d6ce378a-9447-4fb4-8877-236d2cdce81f","ios":"levelo://app?vid=d6ce378a-9447-4fb4-8877-236d2cdce81f"},"vehicle_type_id":"4","last_reported":1693508670,"current_range_meters":14000,"station_id":"ce4bh0p2rcd13ifvqd70","pricing_plan_id":"free"},{"bike_id":"ed0a953f-ed5e-4b7f-a33f-73a1be435a59","system_id":"levelo_inurba_marseille","lat":43.302008,"lon":5.394694,"is_reserved":false,"is_disabled":false,"rental_uris":{"android":"levelo://app?vid=ed0a953f-ed5e-4b7f-a33f-73a1be435a59","ios":"levelo://app?vid=ed0a953f-ed5e-4b7f-a33f-73a1be435a59"},"vehicle_type_id":"4","last_reported":1693508670,"current_range_meters":30400,"station_id":"ce4bh0p2rcd13ifvqd70","pricing_plan_id":"free"},{"bike_id":"44fecaec-e77c-4783-8b49-8716160efa72","system_id":"levelo_inurba_marseille","lat":43.294153,"lon":5.386305,"is_reserved":false,"is_disabled":false,"rental_uris":{"android":"levelo://app?vid=44fecaec-e77c-4783-8b49-8716160efa72","ios":"levelo://app?vid=44fecaec-e77c-4783-8b49-8716160efa72"},"vehicle_type_id":"4","last_reported":1693508670,"current_range_meters":1200,"station_id":"ce4bh2h2rcd13ifvqdh0","pricing_plan_id":"free"},{"bike_id":"dbc743b2-38fc-43cc-a0c0-61ec12e8a9de","system_id":"levelo_inurba_marseille","lat":43.294162,"lon":5.386292,"is_reserved":false,"is_disabled":false,"rental_uris":{"android":"levelo://app?vid=dbc743b2-38fc-43cc-a0c0-61ec12e8a9de","ios":"levelo://app?vid=dbc743b2-38fc-43cc-a0c0-61ec12e8a9de"},"vehicle_type_id":"4","last_reported":1693508670,"current_range_meters":9600,"station_id":"ce4bh2h2rcd13ifvqdh0","pricing_plan_id":"free"},{"bike_id":"22eb874c-8e11-4c0e-abcf-45c34ca7d4c1","system_id":"levelo_inurba_marseille","lat":43.289184,"lon":5.366408,"is_reserved":false,"is_disabled":false,"rental_uris":{"android":"levelo://app?vid=22eb874c-8e11-4c0e-abcf-45c34ca7d4c1","ios":"levelo://app?vid=22eb874c-8e11-4c0e-abcf-45c34ca7d4c1"},"vehicle_type_id":"4","last_reported":1693508670,"current_range_meters":23200,"station_id":"ce4bhap2rcd13ifvqek0","pricing_plan_id":"free"},{"bike_id":"49f52cb3-fe76-49f6-9a24-a37e86064e93","system_id":"levelo_inurba_marseille","lat":43.294153,"lon":5.386305,"is_reserved":false,"is_disabled":false,"rental_uris":{"android":"levelo://app?vid=49f52cb3-fe76-49f6-9a24-a37e86064e93","ios":"levelo://app?vid=49f52cb3-fe76-49f6-9a24-a37e86064e93"},"vehicle_type_id":"4","last_reported":1693508670,"current_range_meters":2000,"station_id":"ce4bh2h2rcd13ifvqdh0","pricing_plan_id":"free"},{"bike_id":"2f93318d-a393-4e93-88c9-60d3ec241b0e","system_id":"levelo_inurba_marseille","lat":43.28941,"lon":5.36627,"is_reserved":false,"is_disabled":false,"rental_uris":{"android":"levelo://app?vid=2f93318d-a393-4e93-88c9-60d3ec241b0e","ios":"levelo://app?vid=2f93318d-a393-4e93-88c9-60d3ec241b0e"},"vehicle_type_id":"4","last_reported":1693508670,"current_range_meters":30800,"station_id":"ce4bhap2rcd13ifvqek0","pricing_plan_id":"free"},{"bike_id":"aa46e842-e311-4425-a09a-e0a7cb64b811","system_id":"levelo_inurba_marseille","lat":43.289184,"lon":5.366408,"is_reserved":false,"is_disabled":false,"rental_uris":{"android":"levelo://app?vid=aa46e842-e311-4425-a09a-e0a7cb64b811","ios":"levelo://app?vid=aa46e842-e311-4425-a09a-e0a7cb64b811"},"vehicle_type_id":"4","last_reported":1693508670,"current_range_meters":2000,"station_id":"ce4bhap2rcd13ifvqek0","pricing_plan_id":"free"},{"bike_id":"39db3d38-3db8-4295-bc9b-966df4da2e4d","system_id":"levelo_inurba_marseille","lat":43.289184,"lon":5.366408,"is_reserved":false,"is_disabled":false,"rental_uris":{"android":"levelo://app?vid=39db3d38-3db8-4295-bc9b-966df4da2e4d","ios":"levelo://app?vid=39db3d38-3db8-4295-bc9b-966df4da2e4d"},"vehicle_type_id":"4","last_reported":1693508670,"current_range_meters":6800,"station_id":"ce4bhap2rcd13ifvqek0","pricing_plan_id":"free"},{"bike_id":"66a20593-dfa8-4485-8fa7-cc5c5229f1ff","system_id":"levelo_inurba_marseille","lat":43.292642,"lon":5.384254,"is_reserved":false,"is_disabled":false,"rental_uris":{"android":"levelo://app?vid=66a20593-dfa8-4485-8fa7-cc5c5229f1ff","ios":"levelo://app?vid=66a20593-dfa8-4485-8fa7-cc5c5229f1ff"},"vehicle_type_id":"4","last_reported":1693508670,"current_range_meters":23200,"station_id":"ce4bh692rcd13ifvqea0","pricing_plan_id":"free"},{"bike_id":"d306cafc-d7ff-4411-af54-f62105789b2a","system_id":"levelo_inurba_marseille","lat":43.30421,"lon":5.39742,"is_reserved":false,"is_disabled":false,"rental_uris":{"android":"levelo://app?vid=d306cafc-d7ff-4411-af54-f62105789b2a","ios":"levelo://app?vid=d306cafc-d7ff-4411-af54-f62105789b2a"},"vehicle_type_id":"4","last_reported":1693508670,"current_range_meters":0,"station_id":"ce4bh092rcd13ifvqd20","pricing_plan_id":"free"},{"bike_id":"9d429502-11f0-40b9-acc6-ef679b727cb9","system_id":"levelo_inurba_marseille","lat":43.292644,"lon":5.384257,"is_reserved":false,"is_disabled":false,"rental_uris":{"android":"levelo://app?vid=9d429502-11f0-40b9-acc6-ef679b727cb9","ios":"levelo://app?vid=9d429502-11f0-40b9-acc6-ef679b727cb9"},"vehicle_type_id":"4","last_reported":1693508670,"current_range_meters":11600,"station_id":"ce4bh692rcd13ifvqea0","pricing_plan_id":"free"},{"bike_id":"00fc8514-75cd-41c9-b48d-72676bcc95e8","system_id":"levelo_inurba_marseille","lat":43.304296,"lon":5.397513,"is_reserved":false,"is_disabled":false,"rental_uris":{"android":"levelo://app?vid=00fc8514-75cd-41c9-b48d-72676bcc95e8","ios":"levelo://app?vid=00fc8514-75cd-41c9-b48d-72676bcc95e8"},"vehicle_type_id":"4","last_reported":1693508670,"current_range_meters":14000,"station_id":"ce4bh092rcd13ifvqd20","pricing_plan_id":"free"},{"bike_id":"b008a4f9-3a07-4a81-85ea-d529c52264f5","system_id":"levelo_inurba_marseille","lat":43.30417,"lon":5.39749,"is_reserved":false,"is_disabled":false,"rental_uris":{"android":"levelo://app?vid=b008a4f9-3a07-4a81-85ea-d529c52264f5","ios":"levelo://app?vid=b008a4f9-3a07-4a81-85ea-d529c52264f5"},"vehicle_type_id":"4","last_reported":1693508670,"current_range_meters":20400,"station_id":"ce4bh092rcd13ifvqd20","pricing_plan_id":"free"},{"bike_id":"3fe2d987-cba5-4bfe-be45-37bfe16b769f","system_id":"levelo_inurba_marseille","lat":43.292642,"lon":5.384254,"is_reserved":false,"is_disabled":false,"rental_uris":{"android":"levelo://app?vid=3fe2d987-cba5-4bfe-be45-37bfe16b769f","ios":"levelo://app?vid=3fe2d987-cba5-4bfe-be45-37bfe16b769f"},"vehicle_type_id":"4","last_reported":1693508670,"current_range_meters":6400,"station_id":"ce4bh692rcd13ifvqea0","pricing_plan_id":"free"},{"bike_id":"d11b89ea-03d9-4bd1-8d94-225f53817def","system_id":"levelo_inurba_marseille","lat":43.3304,"lon":5.38913,"is_reserved":false,"is_disabled":false,"rental_uris":{"android":"levelo://app?vid=d11b89ea-03d9-4bd1-8d94-225f53817def","ios":"levelo://app?vid=d11b89ea-03d9-4bd1-8d94-225f53817def"},"vehicle_type_id":"4","last_reported":1693508670,"current_range_meters":17600,"station_id":"ce4bhr92rcd13ifvqhrg","pricing_plan_id":"free"},{"bike_id":"ceccc87a-bc09-4f17-aa5a-b5e90f29210e","system_id":"levelo_inurba_marseille","lat":43.33046,"lon":5.38908,"is_reserved":false,"is_disabled":false,"rental_uris":{"android":"levelo://app?vid=ceccc87a-bc09-4f17-aa5a-b5e90f29210e","ios":"levelo://app?vid=ceccc87a-bc09-4f17-aa5a-b5e90f29210e"},"vehicle_type_id":"4","last_reported":1693508670,"current_range_meters":0,"station_id":"ce4bhr92rcd13ifvqhrg","pricing_plan_id":"free"},{"bike_id":"eed6fdbf-9470-49dd-b5db-5589c61979b7","system_id":"levelo_inurba_marseille","lat":43.33043,"lon":5.38913,"is_reserved":false,"is_disabled":false,"rental_uris":{"android":"levelo://app?vid=eed6fdbf-9470-49dd-b5db-5589c61979b7","ios":"levelo://app?vid=eed6fdbf-9470-49dd-b5db-5589c61979b7"},"vehicle_type_id":"4","last_reported":1693508670,"current_range_meters":14400,"station_id":"ce4bhr92rcd13ifvqhrg","pricing_plan_id":"free"},{"bike_id":"60c294a9-fa43-4fa1-b176-ddd6748e879e","system_id":"levelo_inurba_marseille","lat":43.33043,"lon":5.3892,"is_reserved":false,"is_disabled":false,"rental_uris":{"android":"levelo://app?vid=60c294a9-fa43-4fa1-b176-ddd6748e879e","ios":"levelo://app?vid=60c294a9-fa43-4fa1-b176-ddd6748e879e"},"vehicle_type_id":"4","last_reported":1693508670,"current_range_meters":10000,"station_id":"ce4bhr92rcd13ifvqhrg","pricing_plan_id":"free"},{"bike_id":"1895038e-acdb-4d35-aa35-e1291f23a30a","system_id":"levelo_inurba_marseille","lat":43.290103,"lon":5.356114,"is_reserved":false,"is_disabled":false,"rental_uris":{"android":"levelo://app?vid=1895038e-acdb-4d35-aa35-e1291f23a30a","ios":"levelo://app?vid=1895038e-acdb-4d35-aa35-e1291f23a30a"},"vehicle_type_id":"4","last_reported":1693508670,"current_range_meters":31200,"station_id":"ce4bhb92rcd13ifvqen0","pricing_plan_id":"free"},{"bike_id":"028b16b4-c861-455c-93e2-214442c48086","system_id":"levelo_inurba_marseille","lat":43.290104,"lon":5.356111,"is_reserved":false,"is_disabled":false,"rental_uris":{"android":"levelo://app?vid=028b16b4-c861-455c-93e2-214442c48086","ios":"levelo://app?vid=028b16b4-c861-455c-93e2-214442c48086"},"vehicle_type_id":"4","last_reported":1693508670,"current_range_meters":30800,"station_id":"ce4bhb92rcd13ifvqen0","pricing_plan_id":"free"},{"bike_id":"d731274d-bc4a-4308-92ed-2fb51d48ebab","system_id":"levelo_inurba_marseille","lat":43.29098,"lon":5.38126,"is_reserved":false,"is_disabled":false,"rental_uris":{"android":"levelo://app?vid=d731274d-bc4a-4308-92ed-2fb51d48ebab","ios":"levelo://app?vid=d731274d-bc4a-4308-92ed-2fb51d48ebab"},"vehicle_type_id":"4","last_reported":1693508670,"current_range_meters":8000,"station_id":"","pricing_plan_id":"free"},{"bike_id":"2d4f246c-b24f-4781-b28f-50e1232d63cc","system_id":"levelo_inurba_marseille","lat":43.290995,"lon":5.381361,"is_reserved":false,"is_disabled":false,"rental_uris":{"android":"levelo://app?vid=2d4f246c-b24f-4781-b28f-50e1232d63cc","ios":"levelo://app?vid=2d4f246c-b24f-4781-b28f-50e1232d63cc"},"vehicle_type_id":"4","last_reported":1693508670,"current_range_meters":20400,"station_id":"ce4bh512rcd13ifvqe2g","pricing_plan_id":"free"},{"bike_id":"bad57603-ca71-498a-9f96-bdf2ea26e614","system_id":"levelo_inurba_marseille","lat":43.297815,"lon":5.393548,"is_reserved":false,"is_disabled":false,"rental_uris":{"android":"levelo://app?vid=bad57603-ca71-498a-9f96-bdf2ea26e614","ios":"levelo://app?vid=bad57603-ca71-498a-9f96-bdf2ea26e614"},"vehicle_type_id":"4","last_reported":1693508670,"current_range_meters":19600,"station_id":"chh1huq6cuj3fo74tm60","pricing_plan_id":"free"},{"bike_id":"35442bb6-0710-4c5c-a6ef-f3199d5ede28","system_id":"levelo_inurba_marseille","lat":43.295169,"lon":5.390426,"is_reserved":false,"is_disabled":false,"rental_uris":{"android":"levelo://app?vid=35442bb6-0710-4c5c-a6ef-f3199d5ede28","ios":"levelo://app?vid=35442bb6-0710-4c5c-a6ef-f3199d5ede28"},"vehicle_type_id":"4","last_reported":1693508670,"current_range_meters":19200,"station_id":"ce4bh3p2rcd13ifvqdp0","pricing_plan_id":"free"},{"bike_id":"07bd3956-c06d-4398-95e9-50b70eeafa28","system_id":"levelo_inurba_marseille","lat":43.29012,"lon":5.38127,"is_reserved":false,"is_disabled":false,"rental_uris":{"android":"levelo://app?vid=07bd3956-c06d-4398-95e9-50b70eeafa28","ios":"levelo://app?vid=07bd3956-c06d-4398-95e9-50b70eeafa28"},"vehicle_type_id":"4","last_reported":1693508670,"current_range_meters":14800,"station_id":"ce4bh4p2rcd13ifvqe1g","pricing_plan_id":"free"},{"bike_id":"758ec487-1560-4af4-ace4-d7cddbc4e5bd","system_id":"levelo_inurba_marseille","lat":43.29017,"lon":5.38142,"is_reserved":false,"is_disabled":false,"rental_uris":{"android":"levelo://app?vid=758ec487-1560-4af4-ace4-d7cddbc4e5bd","ios":"levelo://app?vid=758ec487-1560-4af4-ace4-d7cddbc4e5bd"},"vehicle_type_id":"4","last_reported":1693508670,"current_range_meters":5200,"station_id":"ce4bh4p2rcd13ifvqe1g","pricing_plan_id":"free"},{"bike_id":"8affe3bd-078b-42ea-99e2-5c0e6b036425","system_id":"levelo_inurba_marseille","lat":43.30642,"lon":5.401031,"is_reserved":false,"is_disabled":false,"rental_uris":{"android":"levelo://app?vid=8affe3bd-078b-42ea-99e2-5c0e6b036425","ios":"levelo://app?vid=8affe3bd-078b-42ea-99e2-5c0e6b036425"},"vehicle_type_id":"4","last_reported":1693508670,"current_range_meters":11200,"station_id":"ce4bh112rcd13ifvqda0","pricing_plan_id":"free"},{"bike_id":"204a6be5-e021-424f-b7a2-005ff49440bb","system_id":"levelo_inurba_marseille","lat":43.309371,"lon":5.401449,"is_reserved":false,"is_disabled":false,"rental_uris":{"android":"levelo://app?vid=204a6be5-e021-424f-b7a2-005ff49440bb","ios":"levelo://app?vid=204a6be5-e021-424f-b7a2-005ff49440bb"},"vehicle_type_id":"4","last_reported":1693508670,"current_range_meters":6400,"station_id":"ce4bgvp2rcd13ifvqct0","pricing_plan_id":"free"},{"bike_id":"1a245a12-247c-4310-8227-d60ec709bd70","system_id":"levelo_inurba_marseille","lat":43.30642,"lon":5.401031,"is_reserved":false,"is_disabled":false,"rental_uris":{"android":"levelo://app?vid=1a245a12-247c-4310-8227-d60ec709bd70","ios":"levelo://app?vid=1a245a12-247c-4310-8227-d60ec709bd70"},"vehicle_type_id":"4","last_reported":1693508670,"current_range_meters":17600,"station_id":"ce4bh112rcd13ifvqda0","pricing_plan_id":"free"},{"bike_id":"94f9e37f-4a0f-40ad-bb49-85ea3433508a","system_id":"levelo_inurba_marseille","lat":43.28711,"lon":5.37392,"is_reserved":false,"is_disabled":false,"rental_uris":{"android":"levelo://app?vid=94f9e37f-4a0f-40ad-bb49-85ea3433508a","ios":"levelo://app?vid=94f9e37f-4a0f-40ad-bb49-85ea3433508a"},"vehicle_type_id":"4","last_reported":1693508670,"current_range_meters":12400,"station_id":"ce4bh3p2rcd13ifvqdq0","pricing_plan_id":"free"},{"bike_id":"5a39156c-451b-4e5d-a71d-2790462ce92e","system_id":"levelo_inurba_marseille","lat":43.298681,"lon":5.397225,"is_reserved":false,"is_disabled":false,"rental_uris":{"android":"levelo://app?vid=5a39156c-451b-4e5d-a71d-2790462ce92e","ios":"levelo://app?vid=5a39156c-451b-4e5d-a71d-2790462ce92e"},"vehicle_type_id":"4","last_reported":1693508670,"current_range_meters":31200,"station_id":"ce4bh0h2rcd13ifvqd50","pricing_plan_id":"free"},{"bike_id":"66cbc6fb-bef2-4faf-bad6-ebf4ad4ad785","system_id":"levelo_inurba_marseille","lat":43.298681,"lon":5.397225,"is_reserved":false,"is_disabled":false,"rental_uris":{"android":"levelo://app?vid=66cbc6fb-bef2-4faf-bad6-ebf4ad4ad785","ios":"levelo://app?vid=66cbc6fb-bef2-4faf-bad6-ebf4ad4ad785"},"vehicle_type_id":"4","last_reported":1693508670,"current_range_meters":2000,"station_id":"ce4bh0h2rcd13ifvqd50","pricing_plan_id":"free"},{"bike_id":"0646bf50-7879-4759-91ce-4ee40224d87e","system_id":"levelo_inurba_marseille","lat":43.28703,"lon":5.37387,"is_reserved":false,"is_disabled":false,"rental_uris":{"android":"levelo://app?vid=0646bf50-7879-4759-91ce-4ee40224d87e","ios":"levelo://app?vid=0646bf50-7879-4759-91ce-4ee40224d87e"},"vehicle_type_id":"4","last_reported":1693508670,"current_range_meters":0,"station_id":"ce4bh3p2rcd13ifvqdq0","pricing_plan_id":"free"},{"bike_id":"23f49fa6-2b18-47b3-bee5-ea97d3a2aa40","system_id":"levelo_inurba_marseille","lat":43.287019,"lon":5.373818,"is_reserved":false,"is_disabled":false,"rental_uris":{"android":"levelo://app?vid=23f49fa6-2b18-47b3-bee5-ea97d3a2aa40","ios":"levelo://app?vid=23f49fa6-2b18-47b3-bee5-ea97d3a2aa40"},"vehicle_type_id":"4","last_reported":1693508670,"current_range_meters":0,"station_id":"ce4bh3p2rcd13ifvqdq0","pricing_plan_id":"free"},{"bike_id":"29a4878c-1162-454f-b0e6-7f92c6f9d093","system_id":"levelo_inurba_marseille","lat":43.286591,"lon":5.363346,"is_reserved":false,"is_disabled":false,"rental_uris":{"android":"levelo://app?vid=29a4878c-1162-454f-b0e6-7f92c6f9d093","ios":"levelo://app?vid=29a4878c-1162-454f-b0e6-7f92c6f9d093"},"vehicle_type_id":"4","last_reported":1693508670,"current_range_meters":7200,"station_id":"ce4bhah2rcd13ifvqej0","pricing_plan_id":"free"},{"bike_id":"e4ed5ca1-06d4-4d71-b01f-e9ba7a506887","system_id":"levelo_inurba_marseille","lat":43.286593,"lon":5.363346,"is_reserved":false,"is_disabled":false,"rental_uris":{"android":"levelo://app?vid=e4ed5ca1-06d4-4d71-b01f-e9ba7a506887","ios":"levelo://app?vid=e4ed5ca1-06d4-4d71-b01f-e9ba7a506887"},"vehicle_type_id":"4","last_reported":1693508670,"current_range_meters":14400,"station_id":"ce4bhah2rcd13ifvqej0","pricing_plan_id":"free"},{"bike_id":"2a042cc8-2b6f-46bb-95a7-5c1dd9329e47","system_id":"levelo_inurba_marseille","lat":43.298681,"lon":5.397225,"is_reserved":false,"is_disabled":false,"rental_uris":{"android":"levelo://app?vid=2a042cc8-2b6f-46bb-95a7-5c1dd9329e47","ios":"levelo://app?vid=2a042cc8-2b6f-46bb-95a7-5c1dd9329e47"},"vehicle_type_id":"4","last_reported":1693508670,"current_range_meters":26000,"station_id":"ce4bh0h2rcd13ifvqd50","pricing_plan_id":"free"},{"bike_id":"75199276-b705-4ad7-b6a9-49aeaa84628a","system_id":"levelo_inurba_marseille","lat":43.286591,"lon":5.363346,"is_reserved":false,"is_disabled":false,"rental_uris":{"android":"levelo://app?vid=75199276-b705-4ad7-b6a9-49aeaa84628a","ios":"levelo://app?vid=75199276-b705-4ad7-b6a9-49aeaa84628a"},"vehicle_type_id":"4","last_reported":1693508670,"current_range_meters":29600,"station_id":"ce4bhah2rcd13ifvqej0","pricing_plan_id":"free"},{"bike_id":"8875f371-d43c-4e91-b3ae-dfdf0fe34d46","system_id":"levelo_inurba_marseille","lat":43.286961,"lon":5.373785,"is_reserved":false,"is_disabled":false,"rental_uris":{"android":"levelo://app?vid=8875f371-d43c-4e91-b3ae-dfdf0fe34d46","ios":"levelo://app?vid=8875f371-d43c-4e91-b3ae-dfdf0fe34d46"},"vehicle_type_id":"4","last_reported":1693508670,"current_range_meters":12800,"station_id":"ce4bh3p2rcd13ifvqdq0","pricing_plan_id":"free"},{"bike_id":"2365150f-73ab-4507-aea4-76016e6109c8","system_id":"levelo_inurba_marseille","lat":43.286593,"lon":5.363346,"is_reserved":false,"is_disabled":false,"rental_uris":{"android":"levelo://app?vid=2365150f-73ab-4507-aea4-76016e6109c8","ios":"levelo://app?vid=2365150f-73ab-4507-aea4-76016e6109c8"},"vehicle_type_id":"4","last_reported":1693508670,"current_range_meters":31600,"station_id":"ce4bhah2rcd13ifvqej0","pricing_plan_id":"free"},{"bike_id":"7997bea1-175f-4f0f-924c-d8aa95719bbc","system_id":"levelo_inurba_marseille","lat":43.286593,"lon":5.363346,"is_reserved":false,"is_disabled":false,"rental_uris":{"android":"levelo://app?vid=7997bea1-175f-4f0f-924c-d8aa95719bbc","ios":"levelo://app?vid=7997bea1-175f-4f0f-924c-d8aa95719bbc"},"vehicle_type_id":"4","last_reported":1693508670,"current_range_meters":24000,"station_id":"ce4bhah2rcd13ifvqej0","pricing_plan_id":"free"},{"bike_id":"64d4d48a-9f87-4b48-984b-0b3cf1d9c0a9","system_id":"levelo_inurba_marseille","lat":43.286961,"lon":5.373785,"is_reserved":false,"is_disabled":false,"rental_uris":{"android":"levelo://app?vid=64d4d48a-9f87-4b48-984b-0b3cf1d9c0a9","ios":"levelo://app?vid=64d4d48a-9f87-4b48-984b-0b3cf1d9c0a9"},"vehicle_type_id":"4","last_reported":1693508670,"current_range_meters":18800,"station_id":"ce4bh3p2rcd13ifvqdq0","pricing_plan_id":"free"},{"bike_id":"32ca0286-c3ad-4617-a680-4d06b07b1a4c","system_id":"levelo_inurba_marseille","lat":43.286961,"lon":5.373785,"is_reserved":false,"is_disabled":false,"rental_uris":{"android":"levelo://app?vid=32ca0286-c3ad-4617-a680-4d06b07b1a4c","ios":"levelo://app?vid=32ca0286-c3ad-4617-a680-4d06b07b1a4c"},"vehicle_type_id":"4","last_reported":1693508670,"current_range_meters":14400,"station_id":"ce4bh3p2rcd13ifvqdq0","pricing_plan_id":"free"},{"bike_id":"824dba16-0f5f-4265-8e04-35a4240b6a3d","system_id":"levelo_inurba_marseille","lat":43.286949,"lon":5.373802,"is_reserved":false,"is_disabled":false,"rental_uris":{"android":"levelo://app?vid=824dba16-0f5f-4265-8e04-35a4240b6a3d","ios":"levelo://app?vid=824dba16-0f5f-4265-8e04-35a4240b6a3d"},"vehicle_type_id":"4","last_reported":1693508670,"current_range_meters":400,"station_id":"ce4bh3p2rcd13ifvqdq0","pricing_plan_id":"free"},{"bike_id":"c4c8fdf1-a8b8-416a-8c14-c5b5dbcb91de","system_id":"levelo_inurba_marseille","lat":43.286593,"lon":5.363346,"is_reserved":false,"is_disabled":false,"rental_uris":{"android":"levelo://app?vid=c4c8fdf1-a8b8-416a-8c14-c5b5dbcb91de","ios":"levelo://app?vid=c4c8fdf1-a8b8-416a-8c14-c5b5dbcb91de"},"vehicle_type_id":"4","last_reported":1693508670,"current_range_meters":6000,"station_id":"ce4bhah2rcd13ifvqej0","pricing_plan_id":"free"},{"bike_id":"1b11fea1-12e0-40e8-9272-7a0fb730eca9","system_id":"levelo_inurba_marseille","lat":43.29516,"lon":5.39406,"is_reserved":false,"is_disabled":false,"rental_uris":{"android":"levelo://app?vid=1b11fea1-12e0-40e8-9272-7a0fb730eca9","ios":"levelo://app?vid=1b11fea1-12e0-40e8-9272-7a0fb730eca9"},"vehicle_type_id":"4","last_reported":1693508670,"current_range_meters":0,"station_id":"ce4bh292rcd13ifvqdf0","pricing_plan_id":"free"},{"bike_id":"f1473a9c-f420-4a08-a504-40b32877f827","system_id":"levelo_inurba_marseille","lat":43.302759,"lon":5.400793,"is_reserved":false,"is_disabled":false,"rental_uris":{"android":"levelo://app?vid=f1473a9c-f420-4a08-a504-40b32877f827","ios":"levelo://app?vid=f1473a9c-f420-4a08-a504-40b32877f827"},"vehicle_type_id":"4","last_reported":1693508670,"current_range_meters":0,"station_id":"ce4bgvh2rcd13ifvqcs0","pricing_plan_id":"free"},{"bike_id":"1ccc4168-6204-434d-beae-8fb3e824e524","system_id":"levelo_inurba_marseille","lat":43.290345,"lon":5.38646,"is_reserved":false,"is_disabled":false,"rental_uris":{"android":"levelo://app?vid=1ccc4168-6204-434d-beae-8fb3e824e524","ios":"levelo://app?vid=1ccc4168-6204-434d-beae-8fb3e824e524"},"vehicle_type_id":"4","last_reported":1693508670,"current_range_meters":0,"station_id":"ce4bh4p2rcd13ifvqe0g","pricing_plan_id":"free"},{"bike_id":"004da156-bece-4302-9f81-487b0efa669d","system_id":"levelo_inurba_marseille","lat":43.302759,"lon":5.400793,"is_reserved":false,"is_disabled":false,"rental_uris":{"android":"levelo://app?vid=004da156-bece-4302-9f81-487b0efa669d","ios":"levelo://app?vid=004da156-bece-4302-9f81-487b0efa669d"},"vehicle_type_id":"4","last_reported":1693508670,"current_range_meters":18000,"station_id":"ce4bgvh2rcd13ifvqcs0","pricing_plan_id":"free"},{"bike_id":"06e8110f-a3dd-4a75-bbcb-c9b48e330528","system_id":"levelo_inurba_marseille","lat":43.286039,"lon":5.370679,"is_reserved":false,"is_disabled":false,"rental_uris":{"android":"levelo://app?vid=06e8110f-a3dd-4a75-bbcb-c9b48e330528","ios":"levelo://app?vid=06e8110f-a3dd-4a75-bbcb-c9b48e330528"},"vehicle_type_id":"4","last_reported":1693508670,"current_range_meters":29200,"station_id":"ce4bht12rcd13ifvqi60","pricing_plan_id":"free"},{"bike_id":"c25cf05c-2b54-4cd8-bc38-5438bcaf9cce","system_id":"levelo_inurba_marseille","lat":43.286039,"lon":5.370681,"is_reserved":false,"is_disabled":false,"rental_uris":{"android":"levelo://app?vid=c25cf05c-2b54-4cd8-bc38-5438bcaf9cce","ios":"levelo://app?vid=c25cf05c-2b54-4cd8-bc38-5438bcaf9cce"},"vehicle_type_id":"4","last_reported":1693508670,"current_range_meters":8400,"station_id":"ce4bht12rcd13ifvqi60","pricing_plan_id":"free"},{"bike_id":"6b3e56e8-6fff-4d4d-826c-6f5621ba6ec6","system_id":"levelo_inurba_marseille","lat":43.286039,"lon":5.370679,"is_reserved":false,"is_disabled":false,"rental_uris":{"android":"levelo://app?vid=6b3e56e8-6fff-4d4d-826c-6f5621ba6ec6","ios":"levelo://app?vid=6b3e56e8-6fff-4d4d-826c-6f5621ba6ec6"},"vehicle_type_id":"4","last_reported":1693508670,"current_range_meters":22400,"station_id":"ce4bht12rcd13ifvqi60","pricing_plan_id":"free"},{"bike_id":"72775d61-7295-4dba-982b-915c07bdcd4d","system_id":"levelo_inurba_marseille","lat":43.291994,"lon":5.392907,"is_reserved":false,"is_disabled":false,"rental_uris":{"android":"levelo://app?vid=72775d61-7295-4dba-982b-915c07bdcd4d","ios":"levelo://app?vid=72775d61-7295-4dba-982b-915c07bdcd4d"},"vehicle_type_id":"4","last_reported":1693508670,"current_range_meters":21200,"station_id":"ce4bh192rcd13ifvqdd0","pricing_plan_id":"free"},{"bike_id":"d62b2ca5-d3ea-4109-9b4f-1c777f66b098","system_id":"levelo_inurba_marseille","lat":43.284538,"lon":5.358657,"is_reserved":false,"is_disabled":false,"rental_uris":{"android":"levelo://app?vid=d62b2ca5-d3ea-4109-9b4f-1c777f66b098","ios":"levelo://app?vid=d62b2ca5-d3ea-4109-9b4f-1c777f66b098"},"vehicle_type_id":"4","last_reported":1693508670,"current_range_meters":6800,"station_id":"ce4bhah2rcd13ifvqei0","pricing_plan_id":"free"},{"bike_id":"c2df6584-17cf-4c13-b23e-779e9df97a22","system_id":"levelo_inurba_marseille","lat":43.284534,"lon":5.358662,"is_reserved":false,"is_disabled":false,"rental_uris":{"android":"levelo://app?vid=c2df6584-17cf-4c13-b23e-779e9df97a22","ios":"levelo://app?vid=c2df6584-17cf-4c13-b23e-779e9df97a22"},"vehicle_type_id":"4","last_reported":1693508670,"current_range_meters":25200,"station_id":"ce4bhah2rcd13ifvqei0","pricing_plan_id":"free"},{"bike_id":"c52af409-f309-4d2d-83ea-5ed934d88fdd","system_id":"levelo_inurba_marseille","lat":43.284534,"lon":5.358662,"is_reserved":false,"is_disabled":false,"rental_uris":{"android":"levelo://app?vid=c52af409-f309-4d2d-83ea-5ed934d88fdd","ios":"levelo://app?vid=c52af409-f309-4d2d-83ea-5ed934d88fdd"},"vehicle_type_id":"4","last_reported":1693508670,"current_range_meters":31600,"station_id":"ce4bhah2rcd13ifvqei0","pricing_plan_id":"free"},{"bike_id":"f74331e3-eb48-4d17-b024-989d719bd070","system_id":"levelo_inurba_marseille","lat":43.284538,"lon":5.358657,"is_reserved":false,"is_disabled":false,"rental_uris":{"android":"levelo://app?vid=f74331e3-eb48-4d17-b024-989d719bd070","ios":"levelo://app?vid=f74331e3-eb48-4d17-b024-989d719bd070"},"vehicle_type_id":"4","last_reported":1693508670,"current_range_meters":23200,"station_id":"ce4bhah2rcd13ifvqei0","pricing_plan_id":"free"},{"bike_id":"06e032b1-85cb-4c74-a178-3b23b9713367","system_id":"levelo_inurba_marseille","lat":43.284534,"lon":5.358662,"is_reserved":false,"is_disabled":false,"rental_uris":{"android":"levelo://app?vid=06e032b1-85cb-4c74-a178-3b23b9713367","ios":"levelo://app?vid=06e032b1-85cb-4c74-a178-3b23b9713367"},"vehicle_type_id":"4","last_reported":1693508670,"current_range_meters":30800,"station_id":"ce4bhah2rcd13ifvqei0","pricing_plan_id":"free"},{"bike_id":"25c921c8-d82d-4282-b45c-4872647cbe15","system_id":"levelo_inurba_marseille","lat":43.284538,"lon":5.358657,"is_reserved":false,"is_disabled":false,"rental_uris":{"android":"levelo://app?vid=25c921c8-d82d-4282-b45c-4872647cbe15","ios":"levelo://app?vid=25c921c8-d82d-4282-b45c-4872647cbe15"},"vehicle_type_id":"4","last_reported":1693508670,"current_range_meters":0,"station_id":"ce4bhah2rcd13ifvqei0","pricing_plan_id":"free"},{"bike_id":"fca61ddf-5086-4b84-bcda-2b5628d11dd0","system_id":"levelo_inurba_marseille","lat":43.284538,"lon":5.358657,"is_reserved":false,"is_disabled":false,"rental_uris":{"android":"levelo://app?vid=fca61ddf-5086-4b84-bcda-2b5628d11dd0","ios":"levelo://app?vid=fca61ddf-5086-4b84-bcda-2b5628d11dd0"},"vehicle_type_id":"4","last_reported":1693508670,"current_range_meters":23200,"station_id":"ce4bhah2rcd13ifvqei0","pricing_plan_id":"free"},{"bike_id":"bc87bbec-560b-4fbb-a282-0d1cc3c0392f","system_id":"levelo_inurba_marseille","lat":43.28454,"lon":5.35887,"is_reserved":false,"is_disabled":false,"rental_uris":{"android":"levelo://app?vid=bc87bbec-560b-4fbb-a282-0d1cc3c0392f","ios":"levelo://app?vid=bc87bbec-560b-4fbb-a282-0d1cc3c0392f"},"vehicle_type_id":"4","last_reported":1693508670,"current_range_meters":3600,"station_id":"","pricing_plan_id":"free"},{"bike_id":"3a6ee219-e896-40a2-968d-bb2ce37bb460","system_id":"levelo_inurba_marseille","lat":43.285856,"lon":5.350771,"is_reserved":false,"is_disabled":false,"rental_uris":{"android":"levelo://app?vid=3a6ee219-e896-40a2-968d-bb2ce37bb460","ios":"levelo://app?vid=3a6ee219-e896-40a2-968d-bb2ce37bb460"},"vehicle_type_id":"4","last_reported":1693508670,"current_range_meters":10400,"station_id":"ce4bhch2rcd13ifvqeug","pricing_plan_id":"free"},{"bike_id":"698dc8be-1d65-412c-beff-bcef69b28325","system_id":"levelo_inurba_marseille","lat":43.28418,"lon":5.37498,"is_reserved":false,"is_disabled":false,"rental_uris":{"android":"levelo://app?vid=698dc8be-1d65-412c-beff-bcef69b28325","ios":"levelo://app?vid=698dc8be-1d65-412c-beff-bcef69b28325"},"vehicle_type_id":"4","last_reported":1693508670,"current_range_meters":9600,"station_id":"ce4bh412rcd13ifvqds0","pricing_plan_id":"free"},{"bike_id":"846cd186-e2c3-4654-a8b1-af8187713e66","system_id":"levelo_inurba_marseille","lat":43.28415,"lon":5.37512,"is_reserved":false,"is_disabled":false,"rental_uris":{"android":"levelo://app?vid=846cd186-e2c3-4654-a8b1-af8187713e66","ios":"levelo://app?vid=846cd186-e2c3-4654-a8b1-af8187713e66"},"vehicle_type_id":"4","last_reported":1693508670,"current_range_meters":0,"station_id":"ce4bh412rcd13ifvqds0","pricing_plan_id":"free"},{"bike_id":"c0700f22-f4b9-4dbe-b46a-b88d0ab2ddce","system_id":"levelo_inurba_marseille","lat":43.283998,"lon":5.375062,"is_reserved":false,"is_disabled":false,"rental_uris":{"android":"levelo://app?vid=c0700f22-f4b9-4dbe-b46a-b88d0ab2ddce","ios":"levelo://app?vid=c0700f22-f4b9-4dbe-b46a-b88d0ab2ddce"},