{"last_updated":1699722332,"ttl":30,"version":"2.2","data":{"bikes":[{"bike_id":"c4f4985a-0e70-401e-b130-7f762e68248c","system_id":"levelo_inurba_marseille","lat":43.312239,"lon":5.368562,"is_reserved":false,"is_disabled":false,"rental_uris":{"android":"levelo://app?vid=c4f4985a-0e70-401e-b130-7f762e68248c","ios":"levelo://app?vid=c4f4985a-0e70-401e-b130-7f762e68248c"},"vehicle_type_id":"4","last_reported":1699722333,"current_range_meters":3200,"station_id":"ce4bgl92rcd13ifvqbq0","pricing_plan_id":"free"},{"bike_id":"dbe499ef-f613-4ad8-b7e8-15582b5b7be9","system_id":"levelo_inurba_marseille","lat":43.312239,"lon":5.368562,"is_reserved":false,"is_disabled":false,"rental_uris":{"android":"levelo://app?vid=dbe499ef-f613-4ad8-b7e8-15582b5b7be9","ios":"levelo://app?vid=dbe499ef-f613-4ad8-b7e8-15582b5b7be9"},"vehicle_type_id":"4","last_reported":1699722333,"current_range_meters":0,"station_id":"ce4bgl92rcd13ifvqbq0","pricing_plan_id":"free"},{"bike_id":"a303c1eb-c1f9-4f91-8e86-71c806c20ac5","system_id":"levelo_inurba_marseille","lat":43.314385,"lon":5.375516,"is_reserved":false,"is_disabled":false,"rental_uris":{"android":"levelo://app?vid=a303c1eb-c1f9-4f91-8e86-71c806c20ac5","ios":"levelo://app?vid=a303c1eb-c1f9-4f91-8e86-71c806c20ac5"},"vehicle_type_id":"4","last_reported":1699722333,"current_range_meters":27600,"station_id":"","pricing_plan_id":"free"},{"bike_id":"a3e55553-31f7-4753-9826-d4970914ade5","system_id":"levelo_inurba_marseille","lat":43.30538,"lon":5.36735,"is_reserved":false,"is_disabled":false,"rental_uris":{"android":"levelo://app?vid=a3e55553-31f7-4753-9826-d4970914ade5","ios":"levelo://app?vid=a3e55553-31f7-4753-9826-d4970914ade5"},"vehicle_type_id":"4","last_reported":1699722333,"current_range_meters":31200,"station_id":"ce4bgrp2rcd13ifvqc9g","pricing_plan_id":"free"},{"bike_id":"76b359af-c20b-45d0-a1df-78f4c9a6553a","system_id":"levelo_inurba_marseille","lat":43.30533,"lon":5.36547,"is_reserved":false,"is_disabled":false,"rental_uris":{"android":"levelo://app?vid=76b359af-c20b-45d0-a1df-78f4c9a6553a","ios":"levelo://app?vid=76b359af-c20b-45d0-a1df-78f4c9a6553a"},"vehicle_type_id":"4","last_reported":1699722333,"current_range_meters":18400,"station_id":"ce4bgs12rcd13ifvqcag","pricing_plan_id":"free"},{"bike_id":"697fee07-62df-44e5-861b-24bcc599bc59","system_id":"levelo_inurba_marseille","lat":43.311131,"lon":5.377651,"is_reserved":false,"is_disabled":false,"rental_uris":{"android":"levelo://app?vid=697fee07-62df-44e5-861b-24bcc599bc59","ios":"levelo://app?vid=697fee07-62df-44e5-861b-24bcc599bc59"},"vehicle_type_id":"4","last_reported":1699722333,"current_range_meters":20400,"station_id":"ce4bgt92rcd13ifvqcg0","pricing_plan_id":"free"},{"bike_id":"57053367-5328-4d78-8951-737f56b37ed9","system_id":"levelo_inurba_marseille","lat":43.319924,"lon":5.373389,"is_reserved":false,"is_disabled":false,"rental_uris":{"android":"levelo://app?vid=57053367-5328-4d78-8951-737f56b37ed9","ios":"levelo://app?vid=57053367-5328-4d78-8951-737f56b37ed9"},"vehicle_type_id":"4","last_reported":1699722333,"current_range_meters":18000,"station_id":"","pricing_plan_id":"free"},{"bike_id":"c14418a4-812c-4b1a-ab7b-f77c4ec69709","system_id":"levelo_inurba_marseille","lat":43.30776,"lon":5.37661,"is_reserved":false,"is_disabled":false,"rental_uris":{"android":"levelo://app?vid=c14418a4-812c-4b1a-ab7b-f77c4ec69709","ios":"levelo://app?vid=c14418a4-812c-4b1a-ab7b-f77c4ec69709"},"vehicle_type_id":"4","last_reported":1699722333,"current_range_meters":19600,"station_id":"ce4bgv92rcd13ifvqcq0","pricing_plan_id":"free"},{"bike_id":"e28276e2-043a-446a-b0ee-9b62d6ba4969","system_id":"levelo_inurba_marseille","lat":43.311131,"lon":5.377651,"is_reserved":false,"is_disabled":false,"rental_uris":{"android":"levelo://app?vid=e28276e2-043a-446a-b0ee-9b62d6ba4969","ios":"levelo://app?vid=e28276e2-043a-446a-b0ee-9b62d6ba4969"},"vehicle_type_id":"4","last_reported":1699722333,"current_range_meters":400,"station_id":"ce4bgt92rcd13ifvqcg0","pricing_plan_id":"free"},{"bike_id":"12491acf-db73-45e6-bc5a-accecb46cf62","system_id":"levelo_inurba_marseille","lat":43.317075,"lon":5.377367,"is_reserved":false,"is_disabled":false,"rental_uris":{"android":"levelo://app?vid=12491acf-db73-45e6-bc5a-accecb46cf62","ios":"levelo://app?vid=12491acf-db73-45e6-bc5a-accecb46cf62"},"vehicle_type_id":"4","last_reported":1699722333,"current_range_meters":15600,"station_id":"ce4bgth2rcd13ifvqch0","pricing_plan_id":"free"},{"bike_id":"a26a672c-8f86-40f5-9e8e-9856cf399a24","system_id":"levelo_inurba_marseille","lat":43.30799,"lon":5.38155,"is_reserved":false,"is_disabled":false,"rental_uris":{"android":"levelo://app?vid=a26a672c-8f86-40f5-9e8e-9856cf399a24","ios":"levelo://app?vid=a26a672c-8f86-40f5-9e8e-9856cf399a24"},"vehicle_type_id":"4","last_reported":1699722333,"current_range_meters":26400,"station_id":"ce4bgt12rcd13ifvqce0","pricing_plan_id":"free"},{"bike_id":"5611e1e7-ddda-4a1e-9e13-3b5cc88a4ca3","system_id":"levelo_inurba_marseille","lat":43.308012,"lon":5.381511,"is_reserved":false,"is_disabled":false,"rental_uris":{"android":"levelo://app?vid=5611e1e7-ddda-4a1e-9e13-3b5cc88a4ca3","ios":"levelo://app?vid=5611e1e7-ddda-4a1e-9e13-3b5cc88a4ca3"},"vehicle_type_id":"4","last_reported":1699722333,"current_range_meters":1200,"station_id":"ce4bgt12rcd13ifvqce0","pricing_plan_id":"free"},{"bike_id":"8ef52193-4a3c-4256-8c92-d02dc1148f05","system_id":"levelo_inurba_marseille","lat":43.3248,"lon":5.36558,"is_reserved":false,"is_disabled":false,"rental_uris":{"android":"levelo://app?vid=8ef52193-4a3c-4256-8c92-d02dc1148f05","ios":"levelo://app?vid=8ef52193-4a3c-4256-8c92-d02dc1148f05"},"vehicle_type_id":"4","last_reported":1699722333,"current_range_meters":11600,"station_id":"ce4bhs12rcd13ifvqhvg","pricing_plan_id":"free"},{"bike_id":"3819deec-fe3d-41c7-8346-2b107cb07054","system_id":"levelo_inurba_marseille","lat":43.315237,"lon":5.383797,"is_reserved":false,"is_disabled":false,"rental_uris":{"android":"levelo://app?vid=3819deec-fe3d-41c7-8346-2b107cb07054","ios":"levelo://app?vid=3819deec-fe3d-41c7-8346-2b107cb07054"},"vehicle_type_id":"4","last_reported":1699722333,"current_range_meters":0,"station_id":"","pricing_plan_id":"free"},{"bike_id":"d77686bd-d946-45ab-93d8-ee8e91a94486","system_id":"levelo_inurba_marseille","lat":43.30136,"lon":5.37427,"is_reserved":false,"is_disabled":false,"rental_uris":{"android":"levelo://app?vid=d77686bd-d946-45ab-93d8-ee8e91a94486","ios":"levelo://app?vid=d77686bd-d946-45ab-93d8-ee8e91a94486"},"vehicle_type_id":"4","last_reported":1699722333,"current_range_meters":0,"station_id":"ce4bgs92rcd13ifvqcc0","pricing_plan_id":"free"},{"bike_id":"69166d53-ec8e-4a0a-864c-7a29f7650dd8","system_id":"levelo_inurba_marseille","lat":43.321143,"lon":5.380023,"is_reserved":false,"is_disabled":false,"rental_uris":{"android":"levelo://app?vid=69166d53-ec8e-4a0a-864c-7a29f7650dd8","ios":"levelo://app?vid=69166d53-ec8e-4a0a-864c-7a29f7650dd8"},"vehicle_type_id":"4","last_reported":1699722333,"current_range_meters":18000,"station_id":"","pricing_plan_id":"free"},{"bike_id":"13d78257-2559-4a10-97b8-aaa7032179bc","system_id":"levelo_inurba_marseille","lat":43.319975,"lon":5.381519,"is_reserved":false,"is_disabled":false,"rental_uris":{"android":"levelo://app?vid=13d78257-2559-4a10-97b8-aaa7032179bc","ios":"levelo://app?vid=13d78257-2559-4a10-97b8-aaa7032179bc"},"vehicle_type_id":"4","last_reported":1699722333,"current_range_meters":3600,"station_id":"","pricing_plan_id":"free"},{"bike_id":"7921b415-fb37-4081-a0b0-c31e3b78c94a","system_id":"levelo_inurba_marseille","lat":43.31367,"lon":5.38489,"is_reserved":false,"is_disabled":false,"rental_uris":{"android":"levelo://app?vid=7921b415-fb37-4081-a0b0-c31e3b78c94a","ios":"levelo://app?vid=7921b415-fb37-4081-a0b0-c31e3b78c94a"},"vehicle_type_id":"4","last_reported":1699722333,"current_range_meters":18000,"station_id":"ce4bgt92rcd13ifvqcf0","pricing_plan_id":"free"},{"bike_id":"27620941-1221-48e2-97f9-de9f7d3c62dc","system_id":"levelo_inurba_marseille","lat":43.31366,"lon":5.38492,"is_reserved":false,"is_disabled":false,"rental_uris":{"android":"levelo://app?vid=27620941-1221-48e2-97f9-de9f7d3c62dc","ios":"levelo://app?vid=27620941-1221-48e2-97f9-de9f7d3c62dc"},"vehicle_type_id":"4","last_reported":1699722333,"current_range_meters":0,"station_id":"ce4bgt92rcd13ifvqcf0","pricing_plan_id":"free"},{"bike_id":"f9d726ad-b732-4a53-b423-c82044f42d54","system_id":"levelo_inurba_marseille","lat":43.31373,"lon":5.38494,"is_reserved":false,"is_disabled":false,"rental_uris":{"android":"levelo://app?vid=f9d726ad-b732-4a53-b423-c82044f42d54","ios":"levelo://app?vid=f9d726ad-b732-4a53-b423-c82044f42d54"},"vehicle_type_id":"4","last_reported":1699722333,"current_range_meters":6400,"station_id":"ce4bgt92rcd13ifvqcf0","pricing_plan_id":"free"},{"bike_id":"7205a8cc-289e-4022-a11a-ba92f0696437","system_id":"levelo_inurba_marseille","lat":43.31357,"lon":5.38499,"is_reserved":false,"is_disabled":false,"rental_uris":{"android":"levelo://app?vid=7205a8cc-289e-4022-a11a-ba92f0696437","ios":"levelo://app?vid=7205a8cc-289e-4022-a11a-ba92f0696437"},"vehicle_type_id":"4","last_reported":1699722333,"current_range_meters":0,"station_id":"ce4bgt92rcd13ifvqcf0","pricing_plan_id":"free"},{"bike_id":"1a9f9d93-efb4-4f33-9c80-2b090cece448","system_id":"levelo_inurba_marseille","lat":43.313627,"lon":5.38499,"is_reserved":false,"is_disabled":false,"rental_uris":{"android":"levelo://app?vid=1a9f9d93-efb4-4f33-9c80-2b090cece448","ios":"levelo://app?vid=1a9f9d93-efb4-4f33-9c80-2b090cece448"},"vehicle_type_id":"4","last_reported":1699722333,"current_range_meters":5200,"station_id":"ce4bgt92rcd13ifvqcf0","pricing_plan_id":"free"},{"bike_id":"a9805820-e884-43dd-9982-f6a632a612bb","system_id":"levelo_inurba_marseille","lat":43.31365,"lon":5.38502,"is_reserved":false,"is_disabled":false,"rental_uris":{"android":"levelo://app?vid=a9805820-e884-43dd-9982-f6a632a612bb","ios":"levelo://app?vid=a9805820-e884-43dd-9982-f6a632a612bb"},"vehicle_type_id":"4","last_reported":1699722333,"current_range_meters":17200,"station_id":"ce4bgt92rcd13ifvqcf0","pricing_plan_id":"free"},{"bike_id":"42742173-5ae2-4ec3-9932-162a5f82840c","system_id":"levelo_inurba_marseille","lat":43.31357,"lon":5.38505,"is_reserved":false,"is_disabled":false,"rental_uris":{"android":"levelo://app?vid=42742173-5ae2-4ec3-9932-162a5f82840c","ios":"levelo://app?vid=42742173-5ae2-4ec3-9932-162a5f82840c"},"vehicle_type_id":"4","last_reported":1699722333,"current_range_meters":8000,"station_id":"ce4bgt92rcd13ifvqcf0","pricing_plan_id":"free"},{"bike_id":"f0cd0e99-99df-428b-bcc4-5dfc1403c621","system_id":"levelo_inurba_marseille","lat":43.29917,"lon":5.36776,"is_reserved":false,"is_disabled":false,"rental_uris":{"android":"levelo://app?vid=f0cd0e99-99df-428b-bcc4-5dfc1403c621","ios":"levelo://app?vid=f0cd0e99-99df-428b-bcc4-5dfc1403c621"},"vehicle_type_id":"4","last_reported":1699722333,"current_range_meters":18000,"station_id":"","pricing_plan_id":"free"},{"bike_id":"2aa07dbd-abc3-43b6-a1fa-b3b25d3cf066","system_id":"levelo_inurba_marseille","lat":43.32148,"lon":5.38202,"is_reserved":false,"is_disabled":false,"rental_uris":{"android":"levelo://app?vid=2aa07dbd-abc3-43b6-a1fa-b3b25d3cf066","ios":"levelo://app?vid=2aa07dbd-abc3-43b6-a1fa-b3b25d3cf066"},"vehicle_type_id":"4","last_reported":1699722333,"current_range_meters":0,"station_id":"","pricing_plan_id":"free"},{"bike_id":"8950f55a-e75d-4fac-9a7c-f529bc0580a5","system_id":"levelo_inurba_marseille","lat":43.320464,"lon":5.384144,"is_reserved":false,"is_disabled":false,"rental_uris":{"android":"levelo://app?vid=8950f55a-e75d-4fac-9a7c-f529bc0580a5","ios":"levelo://app?vid=8950f55a-e75d-4fac-9a7c-f529bc0580a5"},"vehicle_type_id":"4","last_reported":1699722333,"current_range_meters":12400,"station_id":"","pricing_plan_id":"free"},{"bike_id":"463830ae-d416-4156-82aa-8ae18a061d0a","system_id":"levelo_inurba_marseille","lat":43.297774,"lon":5.370875,"is_reserved":false,"is_disabled":false,"rental_uris":{"android":"levelo://app?vid=463830ae-d416-4156-82aa-8ae18a061d0a","ios":"levelo://app?vid=463830ae-d416-4156-82aa-8ae18a061d0a"},"vehicle_type_id":"4","last_reported":1699722333,"current_range_meters":30000,"station_id":"ce4bgop2rcd13ifvqc1g","pricing_plan_id":"free"},{"bike_id":"3fc29c95-14f8-466b-984e-30e97660fd5f","system_id":"levelo_inurba_marseille","lat":43.32831,"lon":5.36676,"is_reserved":false,"is_disabled":false,"rental_uris":{"android":"levelo://app?vid=3fc29c95-14f8-466b-984e-30e97660fd5f","ios":"levelo://app?vid=3fc29c95-14f8-466b-984e-30e97660fd5f"},"vehicle_type_id":"4","last_reported":1699722333,"current_range_meters":0,"station_id":"ce4bhs92rcd13ifvqi0g","pricing_plan_id":"free"},{"bike_id":"7069b79f-edf9-40bb-a574-5d61cf4e38e9","system_id":"levelo_inurba_marseille","lat":43.297163,"lon":5.365866,"is_reserved":false,"is_disabled":false,"rental_uris":{"android":"levelo://app?vid=7069b79f-edf9-40bb-a574-5d61cf4e38e9","ios":"levelo://app?vid=7069b79f-edf9-40bb-a574-5d61cf4e38e9"},"vehicle_type_id":"4","last_reported":1699722333,"current_range_meters":4800,"station_id":"ce4bgn12rcd13ifvqbt0","pricing_plan_id":"free"},{"bike_id":"d447991a-59b4-4778-a190-7d2b0920a414","system_id":"levelo_inurba_marseille","lat":43.32215,"lon":5.38613,"is_reserved":false,"is_disabled":false,"rental_uris":{"android":"levelo://app?vid=d447991a-59b4-4778-a190-7d2b0920a414","ios":"levelo://app?vid=d447991a-59b4-4778-a190-7d2b0920a414"},"vehicle_type_id":"4","last_reported":1699722333,"current_range_meters":20000,"station_id":"","pricing_plan_id":"free"},{"bike_id":"408e1bba-ac1b-479c-ad30-32026784c873","system_id":"levelo_inurba_marseille","lat":43.2966,"lon":5.37463,"is_reserved":false,"is_disabled":false,"rental_uris":{"android":"levelo://app?vid=408e1bba-ac1b-479c-ad30-32026784c873","ios":"levelo://app?vid=408e1bba-ac1b-479c-ad30-32026784c873"},"vehicle_type_id":"4","last_reported":1699722333,"current_range_meters":15600,"station_id":"","pricing_plan_id":"free"},{"bike_id":"81eaba7f-a320-47a3-be19-8b4216d9ae86","system_id":"levelo_inurba_marseille","lat":43.309589,"lon":5.390258,"is_reserved":false,"is_disabled":false,"rental_uris":{"android":"levelo://app?vid=81eaba7f-a320-47a3-be19-8b4216d9ae86","ios":"levelo://app?vid=81eaba7f-a320-47a3-be19-8b4216d9ae86"},"vehicle_type_id":"4","last_reported":1699722333,"current_range_meters":13600,"station_id":"ce4bgup2rcd13ifvqco0","pricing_plan_id":"free"},{"bike_id":"108a9c0a-bfd7-4e53-ba0b-ac635f4945e1","system_id":"levelo_inurba_marseille","lat":43.296935,"lon":5.376544,"is_reserved":false,"is_disabled":false,"rental_uris":{"android":"levelo://app?vid=108a9c0a-bfd7-4e53-ba0b-ac635f4945e1","ios":"levelo://app?vid=108a9c0a-bfd7-4e53-ba0b-ac635f4945e1"},"vehicle_type_id":"4","last_reported":1699722333,"current_range_meters":1600,"station_id":"ce4bgkh2rcd13ifvqbl0","pricing_plan_id":"free"},{"bike_id":"db16910d-7a21-49a5-8bd4-90cb48473ecc","system_id":"levelo_inurba_marseille","lat":43.309589,"lon":5.390258,"is_reserved":false,"is_disabled":false,"rental_uris":{"android":"levelo://app?vid=db16910d-7a21-49a5-8bd4-90cb48473ecc","ios":"levelo://app?vid=db16910d-7a21-49a5-8bd4-90cb48473ecc"},"vehicle_type_id":"4","last_reported":1699722333,"current_range_meters":13200,"station_id":"ce4bgup2rcd13ifvqco0","pricing_plan_id":"free"},{"bike_id":"ad45762f-564b-4a6c-abe5-93cd08772331","system_id":"levelo_inurba_marseille","lat":43.309484,"lon":5.390321,"is_reserved":false,"is_disabled":false,"rental_uris":{"android":"levelo://app?vid=ad45762f-564b-4a6c-abe5-93cd08772331","ios":"levelo://app?vid=ad45762f-564b-4a6c-abe5-93cd08772331"},"vehicle_type_id":"4","last_reported":1699722333,"current_range_meters":18000,"station_id":"","pricing_plan_id":"free"},{"bike_id":"7cde62f9-9fc1-4ca0-be13-b99425151f63","system_id":"levelo_inurba_marseille","lat":43.309589,"lon":5.390258,"is_reserved":false,"is_disabled":false,"rental_uris":{"android":"levelo://app?vid=7cde62f9-9fc1-4ca0-be13-b99425151f63","ios":"levelo://app?vid=7cde62f9-9fc1-4ca0-be13-b99425151f63"},"vehicle_type_id":"4","last_reported":1699722333,"current_range_meters":10400,"station_id":"ce4bgup2rcd13ifvqco0","pricing_plan_id":"free"},{"bike_id":"049edb88-2ae0-4d32-a46f-290a9c88b11e","system_id":"levelo_inurba_marseille","lat":43.309589,"lon":5.390258,"is_reserved":false,"is_disabled":false,"rental_uris":{"android":"levelo://app?vid=049edb88-2ae0-4d32-a46f-290a9c88b11e","ios":"levelo://app?vid=049edb88-2ae0-4d32-a46f-290a9c88b11e"},"vehicle_type_id":"4","last_reported":1699722333,"current_range_meters":400,"station_id":"ce4bgup2rcd13ifvqco0","pricing_plan_id":"free"},{"bike_id":"1168b699-79bc-4fca-a3ab-546f505174a0","system_id":"levelo_inurba_marseille","lat":43.309589,"lon":5.390258,"is_reserved":false,"is_disabled":false,"rental_uris":{"android":"levelo://app?vid=1168b699-79bc-4fca-a3ab-546f505174a0","ios":"levelo://app?vid=1168b699-79bc-4fca-a3ab-546f505174a0"},"vehicle_type_id":"4","last_reported":1699722333,"current_range_meters":14400,"station_id":"ce4bgup2rcd13ifvqco0","pricing_plan_id":"free"},{"bike_id":"feff7d8e-9456-4b4b-b917-4f91bb23e023","system_id":"levelo_inurba_marseille","lat":43.3175,"lon":5.39022,"is_reserved":false,"is_disabled":false,"rental_uris":{"android":"levelo://app?vid=feff7d8e-9456-4b4b-b917-4f91bb23e023","ios":"levelo://app?vid=feff7d8e-9456-4b4b-b917-4f91bb23e023"},"vehicle_type_id":"4","last_reported":1699722333,"current_range_meters":18000,"station_id":"","pricing_plan_id":"free"},{"bike_id":"658fc487-9c55-44a1-a80d-c39e5b5f4d2a","system_id":"levelo_inurba_marseille","lat":43.317557,"lon":5.390173,"is_reserved":false,"is_disabled":false,"rental_uris":{"android":"levelo://app?vid=658fc487-9c55-44a1-a80d-c39e5b5f4d2a","ios":"levelo://app?vid=658fc487-9c55-44a1-a80d-c39e5b5f4d2a"},"vehicle_type_id":"4","last_reported":1699722333,"current_range_meters":25200,"station_id":"ce4bhqp2rcd13ifvqhng","pricing_plan_id":"free"},{"bike_id":"9e588716-b81f-44d8-b071-857cbb7449e1","system_id":"levelo_inurba_marseille","lat":43.300193,"lon":5.384309,"is_reserved":false,"is_disabled":false,"rental_uris":{"android":"levelo://app?vid=9e588716-b81f-44d8-b071-857cbb7449e1","ios":"levelo://app?vid=9e588716-b81f-44d8-b071-857cbb7449e1"},"vehicle_type_id":"4","last_reported":1699722333,"current_range_meters":0,"station_id":"","pricing_plan_id":"free"},{"bike_id":"377e24a1-00a5-4523-8d66-8ed9dbb584e6","system_id":"levelo_inurba_marseille","lat":43.304274,"lon":5.388873,"is_reserved":false,"is_disabled":false,"rental_uris":{"android":"levelo://app?vid=377e24a1-00a5-4523-8d66-8ed9dbb584e6","ios":"levelo://app?vid=377e24a1-00a5-4523-8d66-8ed9dbb584e6"},"vehicle_type_id":"4","last_reported":1699722333,"current_range_meters":10800,"station_id":"ce4bgk12rcd13ifvqbi0","pricing_plan_id":"free"},{"bike_id":"4112fa8a-3158-4f0c-84df-b0bb2a9e49b5","system_id":"levelo_inurba_marseille","lat":43.304278,"lon":5.388868,"is_reserved":false,"is_disabled":false,"rental_uris":{"android":"levelo://app?vid=4112fa8a-3158-4f0c-84df-b0bb2a9e49b5","ios":"levelo://app?vid=4112fa8a-3158-4f0c-84df-b0bb2a9e49b5"},"vehicle_type_id":"4","last_reported":1699722333,"current_range_meters":28800,"station_id":"ce4bgk12rcd13ifvqbi0","pricing_plan_id":"free"},{"bike_id":"6eec213a-034a-42d4-a2fb-052fadf40364","system_id":"levelo_inurba_marseille","lat":43.295748,"lon":5.37522,"is_reserved":false,"is_disabled":false,"rental_uris":{"android":"levelo://app?vid=6eec213a-034a-42d4-a2fb-052fadf40364","ios":"levelo://app?vid=6eec213a-034a-42d4-a2fb-052fadf40364"},"vehicle_type_id":"4","last_reported":1699722333,"current_range_meters":0,"station_id":"ce4bgh92rcd13ifvqb50","pricing_plan_id":"free"},{"bike_id":"f1aec75e-4fb8-4d92-aa0c-e0c40b9537ea","system_id":"levelo_inurba_marseille","lat":43.296263,"lon":5.377094,"is_reserved":false,"is_disabled":false,"rental_uris":{"android":"levelo://app?vid=f1aec75e-4fb8-4d92-aa0c-e0c40b9537ea","ios":"levelo://app?vid=f1aec75e-4fb8-4d92-aa0c-e0c40b9537ea"},"vehicle_type_id":"4","last_reported":1699722333,"current_range_meters":15200,"station_id":"ce4bgi92rcd13ifvqb90","pricing_plan_id":"free"},{"bike_id":"562d9160-906d-4f11-b808-063ab985ce76","system_id":"levelo_inurba_marseille","lat":43.299035,"lon":5.384805,"is_reserved":false,"is_disabled":false,"rental_uris":{"android":"levelo://app?vid=562d9160-906d-4f11-b808-063ab985ce76","ios":"levelo://app?vid=562d9160-906d-4f11-b808-063ab985ce76"},"vehicle_type_id":"4","last_reported":1699722333,"current_range_meters":0,"station_id":"","pricing_plan_id":"free"},{"bike_id":"3a7d4bc6-dae4-439b-af47-b7412a570c5b","system_id":"levelo_inurba_marseille","lat":43.292311,"lon":5.360731,"is_reserved":false,"is_disabled":false,"rental_uris":{"android":"levelo://app?vid=3a7d4bc6-dae4-439b-af47-b7412a570c5b","ios":"levelo://app?vid=3a7d4bc6-dae4-439b-af47-b7412a570c5b"},"vehicle_type_id":"4","last_reported":1699722333,"current_range_meters":16800,"station_id":"ce4bhbh2rcd13ifvqeqg","pricing_plan_id":"free"},{"bike_id":"19f01547-a204-4ee3-b350-1ff54c9790c0","system_id":"levelo_inurba_marseille","lat":43.29602,"lon":5.381084,"is_reserved":false,"is_disabled":false,"rental_uris":{"android":"levelo://app?vid=19f01547-a204-4ee3-b350-1ff54c9790c0","ios":"levelo://app?vid=19f01547-a204-4ee3-b350-1ff54c9790c0"},"vehicle_type_id":"4","last_reported":1699722333,"current_range_meters":28800,"station_id":"ce4bgl12rcd13ifvqbo0","pricing_plan_id":"free"},{"bike_id":"4adc4b6b-c958-4627-84d5-5bc26711dce6","system_id":"levelo_inurba_marseille","lat":43.29602,"lon":5.381084,"is_reserved":false,"is_disabled":false,"rental_uris":{"android":"levelo://app?vid=4adc4b6b-c958-4627-84d5-5bc26711dce6","ios":"levelo://app?vid=4adc4b6b-c958-4627-84d5-5bc26711dce6"},"vehicle_type_id":"4","last_reported":1699722333,"current_range_meters":2800,"station_id":"ce4bgl12rcd13ifvqbo0","pricing_plan_id":"free"},{"bike_id":"27ced98f-a1b7-4448-a714-74a2f3e3b170","system_id":"levelo_inurba_marseille","lat":43.293249,"lon":5.371578,"is_reserved":false,"is_disabled":false,"rental_uris":{"android":"levelo://app?vid=27ced98f-a1b7-4448-a714-74a2f3e3b170","ios":"levelo://app?vid=27ced98f-a1b7-4448-a714-74a2f3e3b170"},"vehicle_type_id":"4","last_reported":1699722333,"current_range_meters":14800,"station_id":"ce4bgh92rcd13ifvqb40","pricing_plan_id":"free"},{"bike_id":"1f2edeec-835f-4188-b75a-b19c37bb1dac","system_id":"levelo_inurba_marseille","lat":43.30109,"lon":5.3894,"is_reserved":false,"is_disabled":false,"rental_uris":{"android":"levelo://app?vid=1f2edeec-835f-4188-b75a-b19c37bb1dac","ios":"levelo://app?vid=1f2edeec-835f-4188-b75a-b19c37bb1dac"},"vehicle_type_id":"4","last_reported":1699722333,"current_range_meters":5200,"station_id":"","pricing_plan_id":"free"},{"bike_id":"50d3dbd9-8eae-47f2-8c36-506a1a5f8a22","system_id":"levelo_inurba_marseille","lat":43.293009,"lon":5.374584,"is_reserved":false,"is_disabled":false,"rental_uris":{"android":"levelo://app?vid=50d3dbd9-8eae-47f2-8c36-506a1a5f8a22","ios":"levelo://app?vid=50d3dbd9-8eae-47f2-8c36-506a1a5f8a22"},"vehicle_type_id":"4","last_reported":1699722333,"current_range_meters":0,"station_id":"ce4bgi12rcd13ifvqb70","pricing_plan_id":"free"},{"bike_id":"3b07f32a-d69f-4278-937b-2367e40fa8d3","system_id":"levelo_inurba_marseille","lat":43.30596,"lon":5.39366,"is_reserved":false,"is_disabled":false,"rental_uris":{"android":"levelo://app?vid=3b07f32a-d69f-4278-937b-2367e40fa8d3","ios":"levelo://app?vid=3b07f32a-d69f-4278-937b-2367e40fa8d3"},"vehicle_type_id":"4","last_reported":1699722333,"current_range_meters":0,"station_id":"ce4bh0p2rcd13ifvqd80","pricing_plan_id":"free"},{"bike_id":"d5c5e9a6-5b26-44cc-b113-745fff819aec","system_id":"levelo_inurba_marseille","lat":43.302992,"lon":5.392136,"is_reserved":false,"is_disabled":false,"rental_uris":{"android":"levelo://app?vid=d5c5e9a6-5b26-44cc-b113-745fff819aec","ios":"levelo://app?vid=d5c5e9a6-5b26-44cc-b113-745fff819aec"},"vehicle_type_id":"4","last_reported":1699722333,"current_range_meters":0,"station_id":"ce4bgkh2rcd13ifvqbk0","pricing_plan_id":"free"},{"bike_id":"641a7639-8755-44b5-9cbc-b1d2d32dae85","system_id":"levelo_inurba_marseille","lat":43.2936,"lon":5.37835,"is_reserved":false,"is_disabled":false,"rental_uris":{"android":"levelo://app?vid=641a7639-8755-44b5-9cbc-b1d2d32dae85","ios":"levelo://app?vid=641a7639-8755-44b5-9cbc-b1d2d32dae85"},"vehicle_type_id":"4","last_reported":1699722333,"current_range_meters":3600,"station_id":"ce4bgjh2rcd13ifvqbf0","pricing_plan_id":"free"},{"bike_id":"803ca8a4-f7a2-4d5e-8989-4b5cc79e2b63","system_id":"levelo_inurba_marseille","lat":43.300852,"lon":5.390859,"is_reserved":false,"is_disabled":false,"rental_uris":{"android":"levelo://app?vid=803ca8a4-f7a2-4d5e-8989-4b5cc79e2b63","ios":"levelo://app?vid=803ca8a4-f7a2-4d5e-8989-4b5cc79e2b63"},"vehicle_type_id":"4","last_reported":1699722333,"current_range_meters":26000,"station_id":"ce4bh192rcd13ifvqdb0","pricing_plan_id":"free"},{"bike_id":"788f6890-e3b9-4db4-b6f5-614d12c79b66","system_id":"levelo_inurba_marseille","lat":43.29257,"lon":5.37628,"is_reserved":false,"is_disabled":false,"rental_uris":{"android":"levelo://app?vid=788f6890-e3b9-4db4-b6f5-614d12c79b66","ios":"levelo://app?vid=788f6890-e3b9-4db4-b6f5-614d12c79b66"},"vehicle_type_id":"4","last_reported":1699722333,"current_range_meters":0,"station_id":"ce4bgi12rcd13ifvqb80","pricing_plan_id":"free"},{"bike_id":"9199db8b-033a-411f-8d4b-d80d3e95c649","system_id":"levelo_inurba_marseille","lat":43.31327,"lon":5.39687,"is_reserved":false,"is_disabled":false,"rental_uris":{"android":"levelo://app?vid=9199db8b-033a-411f-8d4b-d80d3e95c649","ios":"levelo://app?vid=9199db8b-033a-411f-8d4b-d80d3e95c649"},"vehicle_type_id":"4","last_reported":1699722333,"current_range_meters":11200,"station_id":"ce4bgvp2rcd13ifvqcu0","pricing_plan_id":"free"},{"bike_id":"0810a0b1-d434-4e94-8b49-a9a54e26fed8","system_id":"levelo_inurba_marseille","lat":43.291994,"lon":5.357886,"is_reserved":false,"is_disabled":false,"rental_uris":{"android":"levelo://app?vid=0810a0b1-d434-4e94-8b49-a9a54e26fed8","ios":"levelo://app?vid=0810a0b1-d434-4e94-8b49-a9a54e26fed8"},"vehicle_type_id":"4","last_reported":1699722333,"current_range_meters":25600,"station_id":"ce4bhb12rcd13ifvqel0","pricing_plan_id":"free"},{"bike_id":"34260cad-2221-4303-a74d-5e1e6100b0ea","system_id":"levelo_inurba_marseille","lat":43.31327,"lon":5.39692,"is_reserved":false,"is_disabled":false,"rental_uris":{"android":"levelo://app?vid=34260cad-2221-4303-a74d-5e1e6100b0ea","ios":"levelo://app?vid=34260cad-2221-4303-a74d-5e1e6100b0ea"},"vehicle_type_id":"4","last_reported":1699722333,"current_range_meters":25200,"station_id":"ce4bgvp2rcd13ifvqcu0","pricing_plan_id":"free"},{"bike_id":"9b5f4d51-de63-4f73-af6f-520b452c24b7","system_id":"levelo_inurba_marseille","lat":43.3132,"lon":5.39693,"is_reserved":false,"is_disabled":false,"rental_uris":{"android":"levelo://app?vid=9b5f4d51-de63-4f73-af6f-520b452c24b7","ios":"levelo://app?vid=9b5f4d51-de63-4f73-af6f-520b452c24b7"},"vehicle_type_id":"4","last_reported":1699722333,"current_range_meters":14000,"station_id":"ce4bgvp2rcd13ifvqcu0","pricing_plan_id":"free"},{"bike_id":"10a5f0b5-3809-486f-a87b-77aeb2d23531","system_id":"levelo_inurba_marseille","lat":43.3133,"lon":5.39695,"is_reserved":false,"is_disabled":false,"rental_uris":{"android":"levelo://app?vid=10a5f0b5-3809-486f-a87b-77aeb2d23531","ios":"levelo://app?vid=10a5f0b5-3809-486f-a87b-77aeb2d23531"},"vehicle_type_id":"4","last_reported":1699722333,"current_range_meters":3600,"station_id":"ce4bgvp2rcd13ifvqcu0","pricing_plan_id":"free"},{"bike_id":"e733ecc2-1c75-483c-a6ae-bd8e28f19c53","system_id":"levelo_inurba_marseille","lat":43.313291,"lon":5.396838,"is_reserved":false,"is_disabled":false,"rental_uris":{"android":"levelo://app?vid=e733ecc2-1c75-483c-a6ae-bd8e28f19c53","ios":"levelo://app?vid=e733ecc2-1c75-483c-a6ae-bd8e28f19c53"},"vehicle_type_id":"4","last_reported":1699722333,"current_range_meters":19200,"station_id":"ce4bgvp2rcd13ifvqcu0","pricing_plan_id":"free"},{"bike_id":"22c06db4-9cd0-450d-85a3-5401c650344c","system_id":"levelo_inurba_marseille","lat":43.29529,"lon":5.38547,"is_reserved":false,"is_disabled":false,"rental_uris":{"android":"levelo://app?vid=22c06db4-9cd0-450d-85a3-5401c650344c","ios":"levelo://app?vid=22c06db4-9cd0-450d-85a3-5401c650344c"},"vehicle_type_id":"4","last_reported":1699722333,"current_range_meters":0,"station_id":"ce4bgih2rcd13ifvqba0","pricing_plan_id":"free"},{"bike_id":"44c5cf81-e7f9-4680-99b0-161c6389849c","system_id":"levelo_inurba_marseille","lat":43.290779,"lon":5.371482,"is_reserved":false,"is_disabled":false,"rental_uris":{"android":"levelo://app?vid=44c5cf81-e7f9-4680-99b0-161c6389849c","ios":"levelo://app?vid=44c5cf81-e7f9-4680-99b0-161c6389849c"},"vehicle_type_id":"4","last_reported":1699722333,"current_range_meters":13200,"station_id":"ce4bh5p2rcd13ifvqe4g","pricing_plan_id":"free"},{"bike_id":"756ff95d-ebab-4ac8-8364-28b4033e78f3","system_id":"levelo_inurba_marseille","lat":43.290537,"lon":5.359259,"is_reserved":false,"is_disabled":false,"rental_uris":{"android":"levelo://app?vid=756ff95d-ebab-4ac8-8364-28b4033e78f3","ios":"levelo://app?vid=756ff95d-ebab-4ac8-8364-28b4033e78f3"},"vehicle_type_id":"4","last_reported":1699722333,"current_range_meters":15200,"station_id":"","pricing_plan_id":"free"},{"bike_id":"196aee20-87e1-4c89-825c-95e49b227b19","system_id":"levelo_inurba_marseille","lat":43.290327,"lon":5.375711,"is_reserved":false,"is_disabled":false,"rental_uris":{"android":"levelo://app?vid=196aee20-87e1-4c89-825c-95e49b227b19","ios":"levelo://app?vid=196aee20-87e1-4c89-825c-95e49b227b19"},"vehicle_type_id":"4","last_reported":1699722333,"current_range_meters":0,"station_id":"ce4bh692rcd13ifvqe90","pricing_plan_id":"free"},{"bike_id":"9f46039a-97ee-4d32-86cc-76c6b8f4bc17","system_id":"levelo_inurba_marseille","lat":43.289184,"lon":5.366408,"is_reserved":false,"is_disabled":false,"rental_uris":{"android":"levelo://app?vid=9f46039a-97ee-4d32-86cc-76c6b8f4bc17","ios":"levelo://app?vid=9f46039a-97ee-4d32-86cc-76c6b8f4bc17"},"vehicle_type_id":"4","last_reported":1699722333,"current_range_meters":800,"station_id":"ce4bhap2rcd13ifvqek0","pricing_plan_id":"free"},{"bike_id":"a64ed15c-4abc-45e9-b718-565a421bed86","system_id":"levelo_inurba_marseille","lat":43.29251,"lon":5.3845,"is_reserved":false,"is_disabled":false,"rental_uris":{"android":"levelo://app?vid=a64ed15c-4abc-45e9-b718-565a421bed86","ios":"levelo://app?vid=a64ed15c-4abc-45e9-b718-565a421bed86"},"vehicle_type_id":"4","last_reported":1699722333,"current_range_meters":0,"station_id":"ce4bh692rcd13ifvqea0","pricing_plan_id":"free"},{"bike_id":"4eb04479-5a44-46bd-9d4c-119c89471038","system_id":"levelo_inurba_marseille","lat":43.290112,"lon":5.35608,"is_reserved":false,"is_disabled":false,"rental_uris":{"android":"levelo://app?vid=4eb04479-5a44-46bd-9d4c-119c89471038","ios":"levelo://app?vid=4eb04479-5a44-46bd-9d4c-119c89471038"},"vehicle_type_id":"4","last_reported":1699722333,"current_range_meters":0,"station_id":"ce4bhb92rcd13ifvqen0","pricing_plan_id":"free"},{"bike_id":"407a38c4-f4ed-4202-910a-729a6dcb8b0f","system_id":"levelo_inurba_marseille","lat":43.29004,"lon":5.35622,"is_reserved":false,"is_disabled":false,"rental_uris":{"android":"levelo://app?vid=407a38c4-f4ed-4202-910a-729a6dcb8b0f","ios":"levelo://app?vid=407a38c4-f4ed-4202-910a-729a6dcb8b0f"},"vehicle_type_id":"4","last_reported":1699722333,"current_range_meters":0,"station_id":"ce4bhb92rcd13ifvqen0","pricing_plan_id":"free"},{"bike_id":"6a0d507f-8593-48fc-9105-0de142650eab","system_id":"levelo_inurba_marseille","lat":43.29002,"lon":5.35613,"is_reserved":false,"is_disabled":false,"rental_uris":{"android":"levelo://app?vid=6a0d507f-8593-48fc-9105-0de142650eab","ios":"levelo://app?vid=6a0d507f-8593-48fc-9105-0de142650eab"},"vehicle_type_id":"4","last_reported":1699722333,"current_range_meters":22400,"station_id":"ce4bhb92rcd13ifvqen0","pricing_plan_id":"free"},{"bike_id":"b629e02c-3f16-414b-ab03-30db5c333aeb","system_id":"levelo_inurba_marseille","lat":43.30244,"lon":5.39685,"is_reserved":false,"is_disabled":false,"rental_uris":{"android":"levelo://app?vid=b629e02c-3f16-414b-ab03-30db5c333aeb","ios":"levelo://app?vid=b629e02c-3f16-414b-ab03-30db5c333aeb"},"vehicle_type_id":"4","last_reported":1699722333,"current_range_meters":24400,"station_id":"","pricing_plan_id":"free"},{"bike_id":"50961492-1045-4f36-9ffc-151460acf60c","system_id":"levelo_inurba_marseille","lat":43.29786,"lon":5.39339,"is_reserved":false,"is_disabled":false,"rental_uris":{"android":"levelo://app?vid=50961492-1045-4f36-9ffc-151460acf60c","ios":"levelo://app?vid=50961492-1045-4f36-9ffc-151460acf60c"},"vehicle_type_id":"4","last_reported":1699722333,"current_range_meters":18800,"station_id":"chh1huq6cuj3fo74tm60","pricing_plan_id":"free"},{"bike_id":"83862952-1376-4c12-9b74-3e20e4d6da1e","system_id":"levelo_inurba_marseille","lat":43.297895,"lon":5.3935,"is_reserved":false,"is_disabled":false,"rental_uris":{"android":"levelo://app?vid=83862952-1376-4c12-9b74-3e20e4d6da1e","ios":"levelo://app?vid=83862952-1376-4c12-9b74-3e20e4d6da1e"},"vehicle_type_id":"4","last_reported":1699722333,"current_range_meters":0,"station_id":"chh1huq6cuj3fo74tm60","pricing_plan_id":"free"},{"bike_id":"e483f966-bac7-4803-82c7-7142b8ef300a","system_id":"levelo_inurba_marseille","lat":43.29513,"lon":5.39024,"is_reserved":false,"is_disabled":false,"rental_uris":{"android":"levelo://app?vid=e483f966-bac7-4803-82c7-7142b8ef300a","ios":"levelo://app?vid=e483f966-bac7-4803-82c7-7142b8ef300a"},"vehicle_type_id":"4","last_reported":1699722333,"current_range_meters":0,"station_id":"ce4bh3p2rcd13ifvqdp0","pricing_plan_id":"free"},{"bike_id":"2929b139-0705-48d0-806d-3a1f891e7369","system_id":"levelo_inurba_marseille","lat":43.289741,"lon":5.378306,"is_reserved":false,"is_disabled":false,"rental_uris":{"android":"levelo://app?vid=2929b139-0705-48d0-806d-3a1f891e7369","ios":"levelo://app?vid=2929b139-0705-48d0-806d-3a1f891e7369"},"vehicle_type_id":"4","last_reported":1699722333,"current_range_meters":24000,"station_id":"ce4bh9p2rcd13ifvqed0","pricing_plan_id":"free"},{"bike_id":"847c3015-b5ab-4f42-86d8-5512dd085107","system_id":"levelo_inurba_marseille","lat":43.29109,"lon":5.38278,"is_reserved":false,"is_disabled":false,"rental_uris":{"android":"levelo://app?vid=847c3015-b5ab-4f42-86d8-5512dd085107","ios":"levelo://app?vid=847c3015-b5ab-4f42-86d8-5512dd085107"},"vehicle_type_id":"4","last_reported":1699722333,"current_range_meters":14800,"station_id":"","pricing_plan_id":"free"},{"bike_id":"2f124dc2-6df8-43f6-b9f2-6f8f2f3b9643","system_id":"levelo_inurba_marseille","lat":43.295169,"lon":5.390426,"is_reserved":false,"is_disabled":false,"rental_uris":{"android":"levelo://app?vid=2f124dc2-6df8-43f6-b9f2-6f8f2f3b9643","ios":"levelo://app?vid=2f124dc2-6df8-43f6-b9f2-6f8f2f3b9643"},"vehicle_type_id":"4","last_reported":1699722333,"current_range_meters":800,"station_id":"ce4bh3p2rcd13ifvqdp0","pricing_plan_id":"free"},{"bike_id":"08554dc7-d1ec-40e1-9834-6e7f493dcbef","system_id":"levelo_inurba_marseille","lat":43.2901,"lon":5.381269,"is_reserved":false,"is_disabled":false,"rental_uris":{"android":"levelo://app?vid=08554dc7-d1ec-40e1-9834-6e7f493dcbef","ios":"levelo://app?vid=08554dc7-d1ec-40e1-9834-6e7f493dcbef"},"vehicle_type_id":"4","last_reported":1699722333,"current_range_meters":0,"station_id":"ce4bh4p2rcd13ifvqe1g","pricing_plan_id":"free"},{"bike_id":"9b22f81f-9101-486b-b7e7-9b112eaba3fe","system_id":"levelo_inurba_marseille","lat":43.30931,"lon":5.40148,"is_reserved":false,"is_disabled":false,"rental_uris":{"android":"levelo://app?vid=9b22f81f-9101-486b-b7e7-9b112eaba3fe","ios":"levelo://app?vid=9b22f81f-9101-486b-b7e7-9b112eaba3fe"},"vehicle_type_id":"4","last_reported":1699722333,"current_range_meters":20000,"station_id":"ce4bgvp2rcd13ifvqct0","pricing_plan_id":"free"},{"bike_id":"859493dc-af9c-47b1-a58d-348dcfd771dd","system_id":"levelo_inurba_marseille","lat":43.309371,"lon":5.401449,"is_reserved":false,"is_disabled":false,"rental_uris":{"android":"levelo://app?vid=859493dc-af9c-47b1-a58d-348dcfd771dd","ios":"levelo://app?vid=859493dc-af9c-47b1-a58d-348dcfd771dd"},"vehicle_type_id":"4","last_reported":1699722333,"current_range_meters":0,"station_id":"ce4bgvp2rcd13ifvqct0","pricing_plan_id":"free"},{"bike_id":"1eaf1a60-81cd-4bf5-995e-3383f3a71a6b","system_id":"levelo_inurba_marseille","lat":43.31272,"lon":5.40182,"is_reserved":false,"is_disabled":false,"rental_uris":{"android":"levelo://app?vid=1eaf1a60-81cd-4bf5-995e-3383f3a71a6b","ios":"levelo://app?vid=1eaf1a60-81cd-4bf5-995e-3383f3a71a6b"},"vehicle_type_id":"4","last_reported":1699722333,"current_range_meters":400,"station_id":"ce4bh092rcd13ifvqd30","pricing_plan_id":"free"},{"bike_id":"61c9606b-5e0c-419f-a3b5-4fe4d535e889","system_id":"levelo_inurba_marseille","lat":43.33037,"lon":5.392367,"is_reserved":false,"is_disabled":false,"rental_uris":{"android":"levelo://app?vid=61c9606b-5e0c-419f-a3b5-4fe4d535e889","ios":"levelo://app?vid=61c9606b-5e0c-419f-a3b5-4fe4d535e889"},"vehicle_type_id":"4","last_reported":1699722333,"current_range_meters":9600,"station_id":"","pricing_plan_id":"free"},{"bike_id":"3e3494ee-1a45-4bb2-ae44-7c335c9537f5","system_id":"levelo_inurba_marseille","lat":43.301117,"lon":5.398795,"is_reserved":false,"is_disabled":false,"rental_uris":{"android":"levelo://app?vid=3e3494ee-1a45-4bb2-ae44-7c335c9537f5","ios":"levelo://app?vid=3e3494ee-1a45-4bb2-ae44-7c335c9537f5"},"vehicle_type_id":"4","last_reported":1699722333,"current_range_meters":0,"station_id":"ce4bh0h2rcd13ifvqd40","pricing_plan_id":"free"},{"bike_id":"b2942d85-ea6e-468e-a8a3-244f53ad20f5","system_id":"levelo_inurba_marseille","lat":43.286593,"lon":5.363346,"is_reserved":false,"is_disabled":false,"rental_uris":{"android":"levelo://app?vid=b2942d85-ea6e-468e-a8a3-244f53ad20f5","ios":"levelo://app?vid=b2942d85-ea6e-468e-a8a3-244f53ad20f5"},"vehicle_type_id":"4","last_reported":1699722333,"current_range_meters":27600,"station_id":"ce4bhah2rcd13ifvqej0","pricing_plan_id":"free"},{"bike_id":"53327980-8079-4cd0-8759-d086417193d8","system_id":"levelo_inurba_marseille","lat":43.239588,"lon":5.366238,"is_reserved":false,"is_disabled":false,"rental_uris":{"android":"levelo://app?vid=53327980-8079-4cd0-8759-d086417193d8","ios":"levelo://app?vid=53327980-8079-4cd0-8759-d086417193d8"},"vehicle_type_id":"4","last_reported":1699722333,"current_range_meters":10000,"station_id":"ce4bhi12rcd13ifvqfp0","pricing_plan_id":"free"},{"bike_id":"552b8724-9116-4b8c-beae-25dd2c508309","system_id":"levelo_inurba_marseille","lat":43.286961,"lon":5.373785,"is_reserved":false,"is_disabled":false,"rental_uris":{"android":"levelo://app?vid=552b8724-9116-4b8c-beae-25dd2c508309","ios":"levelo://app?vid=552b8724-9116-4b8c-beae-25dd2c508309"},"vehicle_type_id":"4","last_reported":1699722333,"current_range_meters":19200,"station_id":"ce4bh3p2rcd13ifvqdq0","pricing_plan_id":"free"},{"bike_id":"164ab26e-45f9-49a6-b013-191113737d63","system_id":"levelo_inurba_marseille","lat":43.295196,"lon":5.39397,"is_reserved":false,"is_disabled":false,"rental_uris":{"android":"levelo://app?vid=164ab26e-45f9-49a6-b013-191113737d63","ios":"levelo://app?vid=164ab26e-45f9-49a6-b013-191113737d63"},"vehicle_type_id":"4","last_reported":1699722333,"current_range_meters":2000,"station_id":"ce4bh292rcd13ifvqdf0","pricing_plan_id":"free"},{"bike_id":"17d653ca-ba4f-4a2d-8756-996fb37e6ea3","system_id":"levelo_inurba_marseille","lat":43.289287,"lon":5.383968,"is_reserved":false,"is_disabled":false,"rental_uris":{"android":"levelo://app?vid=17d653ca-ba4f-4a2d-8756-996fb37e6ea3","ios":"levelo://app?vid=17d653ca-ba4f-4a2d-8756-996fb37e6ea3"},"vehicle_type_id":"4","last_reported":1699722333,"current_range_meters":0,"station_id":"ce4bh612rcd13ifvqe6g","pricing_plan_id":"free"},{"bike_id":"7e9725d4-0c91-4d3b-b169-d4d523e359f4","system_id":"levelo_inurba_marseille","lat":43.302759,"lon":5.400793,"is_reserved":false,"is_disabled":false,"rental_uris":{"android":"levelo://app?vid=7e9725d4-0c91-4d3b-b169-d4d523e359f4","ios":"levelo://app?vid=7e9725d4-0c91-4d3b-b169-d4d523e359f4"},"vehicle_type_id":"4","last_reported":1699722333,"current_range_meters":12400,"station_id":"ce4bgvh2rcd13ifvqcs0","pricing_plan_id":"free"},{"bike_id":"0118ec99-b129-4b95-86c8-2c23457b1e33","system_id":"levelo_inurba_marseille","lat":43.286039,"lon":5.370681,"is_reserved":false,"is_disabled":false,"rental_uris":{"android":"levelo://app?vid=0118ec99-b129-4b95-86c8-2c23457b1e33","ios":"levelo://app?vid=0118ec99-b129-4b95-86c8-2c23457b1e33"},"vehicle_type_id":"4","last_reported":1699722333,"current_range_meters":0,"station_id":"ce4bht12rcd13ifvqi60","pricing_plan_id":"free"},{"bike_id":"85870e50-ac99-435c-af97-971ce12c2b93","system_id":"levelo_inurba_marseille","lat":43.28606,"lon":5.37068,"is_reserved":false,"is_disabled":false,"rental_uris":{"android":"levelo://app?vid=85870e50-ac99-435c-af97-971ce12c2b93","ios":"levelo://app?vid=85870e50-ac99-435c-af97-971ce12c2b93"},"vehicle_type_id":"4","last_reported":1699722333,"current_range_meters":31200,"station_id":"ce4bht12rcd13ifvqi60","pricing_plan_id":"free"},{"bike_id":"e57449c2-d088-47cf-8bf2-271593713c89","system_id":"levelo_inurba_marseille","lat":43.328576,"lon":5.398841,"is_reserved":false,"is_disabled":false,"rental_uris":{"android":"levelo://app?vid=e57449c2-d088-47cf-8bf2-271593713c89","ios":"levelo://app?vid=e57449c2-d088-47cf-8bf2-271593713c89"},"vehicle_type_id":"4","last_reported":1699722333,"current_range_meters":7600,"station_id":"","pricing_plan_id":"free"},{"bike_id":"ab3d1f34-44e1-4c7b-aa21-5d9a98591807","system_id":"levelo_inurba_marseille","lat":43.330773,"lon":5.396607,"is_reserved":false,"is_disabled":false,"rental_uris":{"android":"levelo://app?vid=ab3d1f34-44e1-4c7b-aa21-5d9a98591807","ios":"levelo://app?vid=ab3d1f34-44e1-4c7b-aa21-5d9a98591807"},"vehicle_type_id":"4","last_reported":1699722333,"current_range_meters":4400,"station_id":"","pricing_plan_id":"free"},{"bike_id":"18cf74af-270c-4048-bcb3-b3a16044b832","system_id":"levelo_inurba_marseille","lat":43.291994,"lon":5.392907,"is_reserved":false,"is_disabled":false,"rental_uris":{"android":"levelo://app?vid=18cf74af-270c-4048-bcb3-b3a16044b832","ios":"levelo://app?vid=18cf74af-270c-4048-bcb3-b3a16044b832"},"vehicle_type_id":"4","last_reported":1699722333,"current_range_meters":1200,"station_id":"ce4bh192rcd13ifvqdd0","pricing_plan_id":"free"},{"bike_id":"9f3cc0cc-d7a2-49fd-b834-176b54d9323a","system_id":"levelo_inurba_marseille","lat":43.31667,"lon":5.40526,"is_reserved":false,"is_disabled":false,"rental_uris":{"android":"levelo://app?vid=9f3cc0cc-d7a2-49fd-b834-176b54d9323a","ios":"levelo://app?vid=9f3cc0cc-d7a2-49fd-b834-176b54d9323a"},"vehicle_type_id":"4","last_reported":1699722333,"current_range_meters":0,"station_id":"","pricing_plan_id":"free"},{"bike_id":"369117ff-8f75-49a8-8254-e07bcf653a65","system_id":"levelo_inurba_marseille","lat":43.291994,"lon":5.392907,"is_reserved":false,"is_disabled":false,"rental_uris":{"android":"levelo://app?vid=369117ff-8f75-49a8-8254-e07bcf653a65","ios":"levelo://app?vid=369117ff-8f75-49a8-8254-e07bcf653a65"},"vehicle_type_id":"4","last_reported":1699722333,"current_range_meters":18800,"station_id":"ce4bh192rcd13ifvqdd0","pricing_plan_id":"free"},{"bike_id":"509e97fe-435f-4ed5-961f-a7574058935f","system_id":"levelo_inurba_marseille","lat":43.286595,"lon":5.386795,"is_reserved":false,"is_disabled":false,"rental_uris":{"android":"levelo://app?vid=509e97fe-435f-4ed5-961f-a7574058935f","ios":"levelo://app?vid=509e97fe-435f-4ed5-961f-a7574058935f"},"vehicle_type_id":"4","last_reported":1699722333,"current_range_meters":15600,"station_id":"ce4bh492rcd13ifvqdug","pricing_plan_id":"free"},{"bike_id":"4b4a81eb-c50c-4b6b-9a7d-567a5a24ae43","system_id":"levelo_inurba_marseille","lat":43.286595,"lon":5.386795,"is_reserved":false,"is_disabled":false,"rental_uris":{"android":"levelo://app?vid=4b4a81eb-c50c-4b6b-9a7d-567a5a24ae43","ios":"levelo://app?vid=4b4a81eb-c50c-4b6b-9a7d-567a5a24ae43"},"vehicle_type_id":"4","last_reported":1699722333,"current_range_meters":2000,"station_id":"ce4bh492rcd13ifvqdug","pricing_plan_id":"free"},{"bike_id":"030625bd-f8ba-4389-9944-df2973894a22","system_id":"levelo_inurba_marseille","lat":43.325731,"lon":5.404186,"is_reserved":false,"is_disabled":false,"rental_uris":{"android":"levelo://app?vid=030625bd-f8ba-4389-9944-df2973894a22","ios":"levelo://app?vid=030625bd-f8ba-4389-9944-df2973894a22"},"vehicle_type_id":"4","last_reported":1699722333,"current_range_meters":3200,"station_id":"","pricing_plan_id":"free"},{"bike_id":"0b083c6d-d1d4-4abb-84f8-baa4bad07eff","system_id":"levelo_inurba_marseille","lat":43.28732,"lon":5.38916,"is_reserved":false,"is_disabled":false,"rental_uris":{"android":"levelo://app?vid=0b083c6d-d1d4-4abb-84f8-baa4bad07eff","ios":"levelo://app?vid=0b083c6d-d1d4-4abb-84f8-baa4bad07eff"},"vehicle_type_id":"4","last_reported":1699722333,"current_range_meters":2800,"station_id":"","pricing_plan_id":"free"},{"bike_id":"8f73f349-a272-4ad6-b8fd-7b017ee1ab31","system_id":"levelo_inurba_marseille","lat":43.337168,"lon":5.391825,"is_reserved":false,"is_disabled":false,"rental_uris":{"android":"levelo://app?vid=8f73f349-a272-4ad6-b8fd-7b017ee1ab31","ios":"levelo://app?vid=8f73f349-a272-4ad6-b8fd-7b017ee1ab31"},"vehicle_type_id":"4","last_reported":1699722333,"current_range_meters":29200,"station_id":"ce4bhr92rcd13ifvqhsg","pricing_plan_id":"free"},{"bike_id":"f24f9aba-50ce-4bb5-9797-5f2b3b96eff3","system_id":"levelo_inurba_marseille","lat":43.284793,"lon":5.384113,"is_reserved":false,"is_disabled":false,"rental_uris":{"android":"levelo://app?vid=f24f9aba-50ce-4bb5-9797-5f2b3b96eff3","ios":"levelo://app?vid=f24f9aba-50ce-4bb5-9797-5f2b3b96eff3"},"vehicle_type_id":"4","last_reported":1699722333,"current_range_meters":6800,"station_id":"ce4bh512rcd13ifvqe3g","pricing_plan_id":"free"},{"bike_id":"1899b082-4495-4a18-ae34-18b4745ba448","system_id":"levelo_inurba_marseille","lat":43.323464,"lon":5.406297,"is_reserved":false,"is_disabled":false,"rental_uris":{"android":"levelo://app?vid=1899b082-4495-4a18-ae34-18b4745ba448","ios":"levelo://app?vid=1899b082-4495-4a18-ae34-18b4745ba448"},"vehicle_type_id":"4","last_reported":1699722333,"current_range_meters":13200,"station_id":"ce4bhq92rcd13ifvqhjg","pricing_plan_id":"free"},{"bike_id":"b07a2e29-ef9f-4964-920c-b38e79ecf01b","system_id":"levelo_inurba_marseille","lat":43.284793,"lon":5.384113,"is_reserved":false,"is_disabled":false,"rental_uris":{"android":"levelo://app?vid=b07a2e29-ef9f-4964-920c-b38e79ecf01b","ios":"levelo://app?vid=b07a2e29-ef9f-4964-920c-b38e79ecf01b"},"vehicle_type_id":"4","last_reported":1699722333,"current_range_meters":20000,"station_id":"ce4bh512rcd13ifvqe3g","pricing_plan_id":"free"},{"bike_id":"03ccdbae-38be-4f31-a2a6-a059337c36e4","system_id":"levelo_inurba_marseille","lat":43.284787,"lon":5.384116,"is_reserved":false,"is_disabled":false,"rental_uris":{"android":"levelo://app?vid=03ccdbae-38be-4f31-a2a6-a059337c36e4","ios":"levelo://app?vid=03ccdbae-38be-4f31-a2a6-a059337c36e4"},"vehicle_type_id":"4","last_reported":1699722333,"current_range_meters":5200,"station_id":"ce4bh512rcd13ifvqe3g","pricing_plan_id":"free"},{"bike_id":"70993335-d00c-4d86-967f-8f8cb6d8d3f8","system_id":"levelo_inurba_marseille","lat":43.284793,"lon":5.384113,"is_reserved":false,"is_disabled":false,"rental_uris":{"android":"levelo://app?vid=70993335-d00c-4d86-967f-8f8cb6d8d3f8","ios":"levelo://app?vid=70993335-d00c-4d86-967f-8f8cb6d8d3f8"},"vehicle_type_id":"4","last_reported":1699722333,"current_range_meters":0,"station_id":"ce4bh512rcd13ifvqe3g","pricing_plan_id":"free"},{"bike_id":"59f6a3a1-8814-484f-8dcc-e68f492e4bd1","system_id":"levelo_inurba_marseille","lat":43.283494,"lon":5.380945,"is_reserved":false,"is_disabled":false,"rental_uris":{"android":"levelo://app?vid=59f6a3a1-8814-484f-8dcc-e68f492e4bd1","ios":"levelo://app?vid=59f6a3a1-8814-484f-8dcc-e68f492e4bd1"},"vehicle_type_id":"4","last_reported":1699722333,"current_range_meters":25200,"station_id":"ce4bh412rcd13ifvqdr0","pricing_plan_id":"free"},{"bike_id":"4679713e-45f7-4b7c-bddc-571fd5aaf457","system_id":"levelo_inurba_marseille","lat":43.29795,"lon":5.404086,"is_reserved":false,"is_disabled":false,"rental_uris":{"android":"levelo://app?vid=4679713e-45f7-4b7c-bddc-571fd5aaf457","ios":"levelo://app?vid=4679713e-45f7-4b7c-bddc-571fd5aaf457"},"vehicle_type_id":"4","last_reported":1699722333,"current_range_meters":18400,"station_id":"ce4bh112rcd13ifvqd90","pricing_plan_id":"free"},{"bike_id":"694cc18d-6823-481a-9d09-67d990c2d197","system_id":"levelo_inurba_marseille","lat":43.324289,"lon":5.407562,"is_reserved":false,"is_disabled":false,"rental_uris":{"android":"levelo://app?vid=694cc18d-6823-481a-9d09-67d990c2d197","ios":"levelo://app?vid=694cc18d-6823-481a-9d09-67d990c2d197"},"vehicle_type_id":"4","last_reported":1699722333,"current_range_meters":0,"station_id":"","pricing_plan_id":"free"},{"bike_id":"ff079b59-a67a-4842-85de-57fb86f0a090","system_id":"levelo_inurba_marseille","lat":43.28269,"lon":5.3507,"is_reserved":false,"is_disabled":false,"rental_uris":{"android":"levelo://app?vid=ff079b59-a67a-4842-85de-57fb86f0a090","ios":"levelo://app?vid=ff079b59-a67a-4842-85de-57fb86f0a090"},"vehicle_type_id":"4","last_reported":1699722333,"current_range_meters":0,"station_id":"ce4bhbp2rcd13ifvqerg","pricing_plan_id":"free"},{"bike_id":"de1e30d9-e7c1-451e-b3e5-5a408fc30c1e","system_id":"levelo_inurba_marseille","lat":43.283502,"lon":5.386471,"is_reserved":false,"is_disabled":false,"rental_uris":{"android":"levelo://app?vid=de1e30d9-e7c1-451e-b3e5-5a408fc30c1e","ios":"levelo://app?vid=de1e30d9-e7c1-451e-b3e5-5a408fc30c1e"},"vehicle_type_id":"4","last_reported":1699722333,"current_range_meters":14400,"station_id":"ce4bh492rcd13ifvqdvg","pricing_plan_id":"free"},{"bike_id":"57f9ef9c-16b4-4e74-a7f8-61ddcfcb32f9","system_id":"levelo_inurba_marseille","lat":43.280382,"lon":5.369291,"is_reserved":false,"is_disabled":false,"rental_uris":{"android":"levelo://app?vid=57f9ef9c-16b4-4e74-a7f8-61ddcfcb32f9","ios":"levelo://app?vid=57f9ef9c-16b4-4e74-a7f8-61ddcfcb32f9"},"vehicle_type_id":"4","last_reported":1699722333,"current_range_meters":800,"station_id":"ce4bha12rcd13ifvqef0","pricing_plan_id":"free"},{"bike_id":"3c9c78e9-149a-4836-b379-4609d575068d","system_id":"levelo_inurba_marseille","lat":43.280382,"lon":5.369291,"is_reserved":false,"is_disabled":false,"rental_uris":{"android":"levelo://app?vid=3c9c78e9-149a-4836-b379-4609d575068d","ios":"levelo://app?vid=3c9c78e9-149a-4836-b379-4609d575068d"},"vehicle_type_id":"4","last_reported":1699722333,"current_range_meters":0,"station_id":"ce4bha12rcd13ifvqef0","pricing_plan_id":"free"},{"bike_id":"111dedea-5615-46f2-8432-3328dc87d192","system_id":"levelo_inurba_marseille","lat":43.283502,"lon":5.386471,"is_reserved":false,"is_disabled":false,"rental_uris":{"android":"levelo://app?vid=111dedea-5615-46f2-8432-3328dc87d192","ios":"levelo://app?vid=111dedea-5615-46f2-8432-3328dc87d192"},"vehicle_type_id":"4","last_reported":1699722333,"current_range_meters":2800,"station_id":"ce4bh492rcd13ifvqdvg","pricing_plan_id":"free"},{"bike_id":"c5269fde-c094-4163-a2ac-a6350e774e3c","system_id":"levelo_inurba_marseille","lat":43.323447,"lon":5.41003,"is_reserved":false,"is_disabled":false,"rental_uris":{"android":"levelo://app?vid=c5269fde-c094-4163-a2ac-a6350e774e3c","ios":"levelo://app?vid=c5269fde-c094-4163-a2ac-a6350e774e3c"},"vehicle_type_id":"4","last_reported":1699722333,"current_range_meters":4800,"station_id":"","pricing_plan_id":"free"},{"bike_id":"3f12c52a-aa81-40f3-bd4a-b9c589a69648","system_id":"levelo_inurba_marseille","lat":43.285742,"lon":5.395004,"is_reserved":false,"is_disabled":false,"rental_uris":{"android":"levelo://app?vid=3f12c52a-aa81-40f3-bd4a-b9c589a69648","ios":"levelo://app?vid=3f12c52a-aa81-40f3-bd4a-b9c589a69648"},"vehicle_type_id":"4","last_reported":1699722333,"current_range_meters":7600,"station_id":"ce4bh292rcd13ifvqdg0","pricing_plan_id":"free"},{"bike_id":"eb15d903-15a8-4fea-8441-83d212ba7444","system_id":"levelo_inurba_marseille","lat":43.285742,"lon":5.395004,"is_reserved":false,"is_disabled":false,"rental_uris":{"android":"levelo://app?vid=eb15d903-15a8-4fea-8441-83d212ba7444","ios":"levelo://app?vid=eb15d903-15a8-4fea-8441-83d212ba7444"},"vehicle_type_id":"4","last_reported":1699722333,"current_range_meters":5200,"station_id":"ce4bh292rcd13ifvqdg0","pricing_plan_id":"free"},{"bike_id":"463ca5a1-3c4d-469f-b418-7ea2c2351cbb","system_id":"levelo_inurba_marseille","lat":43.28573,"lon":5.394992,"is_reserved":false,"is_disabled":false,"rental_uris":{"android":"levelo://app?vid=463ca5a1-3c4d-469f-b418-7ea2c2351cbb","ios":"levelo://app?vid=463ca5a1-3c4d-469f-b418-7ea2c2351cbb"},"vehicle_type_id":"4","last_reported":1699722333,"current_range_meters":22400,"station_id":"ce4bh292rcd13ifvqdg0","pricing_plan_id":"free"},{"bike_id":"a010dc03-3e1d-4133-974d-b62eb63fbb55","system_id":"levelo_inurba_marseille","lat":43.326605,"lon":5.409903,"is_reserved":false,"is_disabled":false,"rental_uris":{"android":"levelo://app?vid=a010dc03-3e1d-4133-974d-b62eb63fbb55","ios":"levelo://app?vid=a010dc03-3e1d-4133-974d-b62eb63fbb55"},"vehicle_type_id":"4","last_reported":1699722333,"current_range_meters":25600,"station_id":"ce4bhpp2rcd13ifvqhgg","pricing_plan_id":"free"},{"bike_id":"62c4109e-1522-4847-b8e9-9152e22a65a3","system_id":"levelo_inurba_marseille","lat":43.279087,"lon":5.380114,"is_reserved":false,"is_disabled":false,"rental_uris":{"android":"levelo://app?vid=62c4109e-1522-4847-b8e9-9152e22a65a3","ios":"levelo://app?vid=62c4109e-1522-4847-b8e9-9152e22a65a3"},"vehicle_type_id":"4","last_reported":1699722333,"current_range_meters":18000,"station_id":"ce4bhf92rcd13ifvqf50","pricing_plan_id":"free"},{"bike_id":"e028a1b9-a14a-4988-b515-b95b00795aec","system_id":"levelo_inurba_marseille","lat":43.287154,"lon":5.399979,"is_reserved":false,"is_disabled":false,"rental_uris":{"android":"levelo://app?vid=e028a1b9-a14a-4988-b515-b95b00795aec","ios":"levelo://app?vid=e028a1b9-a14a-4988-b515-b95b00795aec"},"vehicle_type_id":"4","last_reported":1699722333,"current_range_meters":16800,"station_id":"ce4bho92rcd13ifvqh3g","pricing_plan_id":"free"},{"bike_id":"feca28d2-7019-4e39-96be-d7938cc29597","system_id":"levelo_inurba_marseille","lat":43.32435,"lon":5.4137,"is_reserved":false,"is_disabled":false,"rental_uris":{"android":"levelo://app?vid=feca28d2-7019-4e39-96be-d7938cc29597","ios":"levelo://app?vid=feca28d2-7019-4e39-96be-d7938cc29597"},"vehicle_type_id":"4","last_reported":1699722333,"current_range_meters":20800,"station_id":"","pricing_plan_id":"free"},{"bike_id":"58b38dc1-8b07-401a-9d15-1c426ccf3b5a","system_id":"levelo_inurba_marseille","lat":43.320045,"lon":5.415046,"is_reserved":false,"is_disabled":false,"rental_uris":{"android":"levelo://app?vid=58b38dc1-8b07-401a-9d15-1c426ccf3b5a","ios":"levelo://app?vid=58b38dc1-8b07-401a-9d15-1c426ccf3b5a"},"vehicle_type_id":"4","last_reported":1699722333,"current_range_meters":0,"station_id":"ce4bhq92rcd13ifvqhkg","pricing_plan_id":"free"},{"bike_id":"c33b150a-daed-41af-ba25-09f87787d4cd","system_id":"levelo_inurba_marseille","lat":43.320045,"lon":5.415048,"is_reserved":false,"is_disabled":false,"rental_uris":{"android":"levelo://app?vid=c33b150a-daed-41af-ba25-09f87787d4cd","ios":"levelo://app?vid=c33b150a-daed-41af-ba25-09f87787d4cd"},"vehicle_type_id":"4","last_reported":1699722333,"current_range_meters":27200,"station_id":"ce4bhq92rcd13ifvqhkg","pricing_plan_id":"free"},{"bike_id":"a93a9668-e041-446a-962f-6f6f1b2e9d4c","system_id":"levelo_inurba_marseille","lat":43.279742,"lon":5.38744,"is_reserved":false,"is_disabled":false,"rental_uris":{"android":"levelo://app?vid=a93a9668-e041-446a-962f-6f6f1b2e9d4c","ios":"levelo://app?vid=a93a9668-e041-446a-962f-6f6f1b2e9d4c"},"vehicle_type_id":"4","last_reported":1699722333,"current_range_meters":3200,"station_id":"ce4bhg12rcd13ifvqf80","pricing_plan_id":"free"},{"bike_id":"ff1d36f2-94a1-4cf2-9aa0-202365e5981d","system_id":"levelo_inurba_marseille","lat":43.280784,"lon":5.396622,"is_reserved":false,"is_disabled":false,"rental_uris":{"android":"levelo://app?vid=ff1d36f2-94a1-4cf2-9aa0-202365e5981d","ios":"levelo://app?vid=ff1d36f2-94a1-4cf2-9aa0-202365e5981d"},"vehicle_type_id":"4","last_reported":1699722333,"current_range_meters":800,"station_id":"ce4bho12rcd13ifvqh2g","pricing_plan_id":"free"},{"bike_id":"9dbe2033-6288-411c-b9f1-bd08dcc8b534","system_id":"levelo_inurba_marseille","lat":43.28072,"lon":5.39663,"is_reserved":false,"is_disabled":false,"rental_uris":{"android":"levelo://app?vid=9dbe2033-6288-411c-b9f1-bd08dcc8b534","ios":"levelo://app?vid=9dbe2033-6288-411c-b9f1-bd08dcc8b534"},"vehicle_type_id":"4","last_reported":1699722333,"current_range_meters":22000,"station_id":"","pricing_plan_id":"free"},{"bike_id":"0ab52c44-46c6-4d6a-95fe-c91e76a1a611","system_id":"levelo_inurba_marseille","lat":43.303837,"lon":5.418724,"is_reserved":false,"is_disabled":false,"rental_uris":{"android":"levelo://app?vid=0ab52c44-46c6-4d6a-95fe-c91e76a1a611","ios":"levelo://app?vid=0ab52c44-46c6-4d6a-95fe-c91e76a1a611"},"vehicle_type_id":"4","last_reported":1699722333,"current_range_meters":27600,"station_id":"ce4bhop2rcd13ifvqh7g","pricing_plan_id":"free"},{"bike_id":"0d049f36-dba3-4942-8f10-d0bcbc339d33","system_id":"levelo_inurba_marseille","lat":43.278401,"lon":5.392152,"is_reserved":false,"is_disabled":false,"rental_uris":{"android":"levelo://app?vid=0d049f36-dba3-4942-8f10-d0bcbc339d33","ios":"levelo://app?vid=0d049f36-dba3-4942-8f10-d0bcbc339d33"},"vehicle_type_id":"4","last_reported":1699722333,"current_range_meters":5600,"station_id":"ce4bhjp2rcd13ifvqga0","pricing_plan_id":"free"},{"bike_id":"0ab63087-976f-4d1a-b40d-5378ea80b07f","system_id":"levelo_inurba_marseille","lat":43.273793,"lon":5.362537,"is_reserved":false,"is_disabled":false,"rental_uris":{"android":"levelo://app?vid=0ab63087-976f-4d1a-b40d-5378ea80b07f","ios":"levelo://app?vid=0ab63087-976f-4d1a-b40d-5378ea80b07f"},"vehicle_type_id":"4","last_reported":1699722333,"current_range_meters":31200,"station_id":"ce4bhbh2rcd13ifvqeo0","pricing_plan_id":"free"},{"bike_id":"7d1e0573-70ae-4ac2-9c10-953e4fc9841f","system_id":"levelo_inurba_marseille","lat":43.27378,"lon":5.36257,"is_reserved":false,"is_disabled":false,"rental_uris":{"android":"levelo://app?vid=7d1e0573-70ae-4ac2-9c10-953e4fc9841f","ios":"levelo://app?vid=7d1e0573-70ae-4ac2-9c10-953e4fc9841f"},"vehicle_type_id":"4","last_reported":1699722333,"current_range_meters":2800,"station_id":"ce4bhbh2rcd13ifvqeo0","pricing_plan_id":"free"},{"bike_id":"ca31a34b-569b-452b-a081-c0617898af8a","system_id":"levelo_inurba_marseille","lat":43.33612,"lon":5.410321,"is_reserved":false,"is_disabled":false,"rental_uris":{"android":"levelo://app?vid=ca31a34b-569b-452b-a081-c0617898af8a","ios":"levelo://app?vid=ca31a34b-569b-452b-a081-c0617898af8a"},"vehicle_type_id":"4","last_reported":1699722333,"current_range_meters":7600,"station_id":"ce4bhqh2rcd13ifvqhmg","pricing_plan_id":"free"},{"bike_id":"68ffca5c-f92e-4d2b-b812-3edfa190d5ea","system_id":"levelo_inurba_marseille","lat":43.278275,"lon":5.396505,"is_reserved":false,"is_disabled":false,"rental_uris":{"android":"levelo://app?vid=68ffca5c-f92e-4d2b-b812-3edfa190d5ea","ios":"levelo://app?vid=68ffca5c-f92e-4d2b-b812-3edfa190d5ea"},"vehicle_type_id":"4","last_reported":1699722333,"current_range_meters":8000,"station_id":"","pricing_plan_id":"free"},{"bike_id":"7f4c3c4d-b6e2-4b7c-be0d-d02bfa9e673c","system_id":"levelo_inurba_marseille","lat":43.317121,"lon":5.423936,"is_reserved":false,"is_disabled":false,"rental_uris":{"android":"levelo://app?vid=7f4c3c4d-b6e2-4b7c-be0d-d02bfa9e673c","ios":"levelo://app?vid=7f4c3c4d-b6e2-4b7c-be0d-d02bfa9e673c"},"vehicle_type_id":"4","last_reported":1699722333,"current_range_meters":27600,"station_id":"ce4bhp92rcd13ifvqhbg","pricing_plan_id":"free"},{"bike_id":"707c1a3d-2820-4e2b-b348-1774451ad512","system_id":"levelo_inurba_marseille","lat":43.317121,"lon":5.423936,"is_reserved":false,"is_disabled":false,"rental_uris":{"android":"levelo://app?vid=707c1a3d-2820-4e2b-b348-1774451ad512","ios":"levelo://app?vid=707c1a3d-2820-4e2b-b348-1774451ad512"},"vehicle_type_id":"4","last_reported":1699722333,"current_range_meters":30000,"station_id":"ce4bhp92rcd13ifvqhbg","pricing_plan_id":"free"},{"bike_id":"53784bb8-0856-41c9-b923-76a6469f3e6d","system_id":"levelo_inurba_marseille","lat":43.274103,"lon":5.394016,"is_reserved":false,"is_disabled":false,"rental_uris":{"android":"levelo://app?vid=53784bb8-0856-41c9-b923-76a6469f3e6d","ios":"levelo://app?vid=53784bb8-0856-41c9-b923-76a6469f3e6d"},"vehicle_type_id":"4","last_reported":1699722333,"current_range_meters":30000,"station_id":"ce4bhdp2rcd13ifvqf20","pricing_plan_id":"free"},{"bike_id":"7f7029a1-fbb1-49c4-a3b6-097f36482fc1","system_id":"levelo_inurba_marseille","lat":43.295523,"lon":5.422926,"is_reserved":false,"is_disabled":false,"rental_uris":{"android":"levelo://app?vid=7f7029a1-fbb1-49c4-a3b6-097f36482fc1","ios":"levelo://app?vid=7f7029a1-fbb1-49c4-a3b6-097f36482fc1"},"vehicle_type_id":"4","last_reported":1699722333,"current_range_meters":31200,"station_id":"ce4bhph2rcd13ifvqhdg","pricing_plan_id":"free"},{"bike_id":"9a1b98ed-6216-4039-8a45-b55c6c77db7a","system_id":"levelo_inurba_marseille","lat":43.295523,"lon":5.422926,"is_reserved":false,"is_disabled":false,"rental_uris":{"android":"levelo://app?vid=9a1b98ed-6216-4039-8a45-b55c6c77db7a","ios":"levelo://app?vid=9a1b98ed-6216-4039-8a45-b55c6c77db7a"},"vehicle_type_id":"4","last_reported":1699722333,"current_range_meters":13600,"station_id":"ce4bhph2rcd13ifvqhdg","pricing_plan_id":"free"},{"bike_id":"fea03e83-2672-4901-b739-2fbff174dd7e","system_id":"levelo_inurba_marseille","lat":43.27216,"lon":5.39252,"is_reserved":false,"is_disabled":false,"rental_uris":{"android":"levelo://app?vid=fea03e83-2672-4901-b739-2fbff174dd7e","ios":"levelo://app?vid=fea03e83-2672-4901-b739-2fbff174dd7e"},"vehicle_type_id":"4","last_reported":1699722333,"current_range_meters":4800,"station_id":"","pricing_plan_id":"free"},{"bike_id":"71e768a2-9b49-49d8-bb9b-827044bbb7f7","system_id":"levelo_inurba_marseille","lat":43.27203,"lon":5.39295,"is_reserved":false,"is_disabled":false,"rental_uris":{"android":"levelo://app?vid=71e768a2-9b49-49d8-bb9b-827044bbb7f7","ios":"levelo://app?vid=71e768a2-9b49-49d8-bb9b-827044bbb7f7"},"vehicle_type_id":"4","last_reported":1699722333,"current_range_meters":18400,"station_id":"","pricing_plan_id":"free"},{"bike_id":"3c3ea3b3-81d6-4fcd-9bb1-0e6f5e5d9c00","system_id":"levelo_inurba_marseille","lat":43.278128,"lon":5.407195,"is_reserved":false,"is_disabled":false,"rental_uris":{"android":"levelo://app?vid=3c3ea3b3-81d6-4fcd-9bb1-0e6f5e5d9c00","ios":"levelo://app?vid=3c3ea3b3-81d6-4fcd-9bb1-0e6f5e5d9c00"},"vehicle_type_id":"4","last_reported":1699722333,"current_range_meters":23600,"station_id":"ce4bhnh2rcd13ifvqgtg","pricing_plan_id":"free"},{"bike_id":"6f9593cc-2cf3-49df-a2aa-dcc05e58411f","system_id":"levelo_inurba_marseille","lat":43.278128,"lon":5.407195,"is_reserved":false,"is_disabled":false,"rental_uris":{"android":"levelo://app?vid=6f9593cc-2cf3-49df-a2aa-dcc05e58411f","ios":"levelo://app?vid=6f9593cc-2cf3-49df-a2aa-dcc05e58411f"},"vehicle_type_id":"4","last_reported":1699722333,"current_range_meters":17200,"station_id":"ce4bhnh2rcd13ifvqgtg","pricing_plan_id":"free"},{"bike_id":"a5a6a2dd-3f00-4dac-aeae-8fdce3628759","system_id":"levelo_inurba_marseille","lat":43.278128,"lon":5.407195,"is_reserved":false,"is_disabled":false,"rental_uris":{"android":"levelo://app?vid=a5a6a2dd-3f00-4dac-aeae-8fdce3628759","ios":"levelo://app?vid=a5a6a2dd-3f00-4dac-aeae-8fdce3628759"},"vehicle_type_id":"4","last_reported":1699722333,"current_range_meters":24800,"station_id":"ce4bhnh2rcd13ifvqgtg","pricing_plan_id":"free"},{"bike_id":"94960eb6-734d-4c16-83f8-bc518fd4a811","system_id":"levelo_inurba_marseille","lat":43.278128,"lon":5.407195,"is_reserved":false,"is_disabled":false,"rental_uris":{"android":"levelo://app?vid=94960eb6-734d-4c16-83f8-bc518fd4a811","ios":"levelo://app?vid=94960eb6-734d-4c16-83f8-bc518fd4a811"},"vehicle_type_id":"4","last_reported":1699722333,"current_range_meters":24800,"station_id":"ce4bhnh2rcd13ifvqgtg","pricing_plan_id":"free"},{"bike_id":"3d16b8a5-448e-4d23-b7f7-e5ed3839b6bf","system_id":"levelo_inurba_marseille","lat":43.278128,"lon":5.407195,"is_reserved":false,"is_disabled":false,"rental_uris":{"android":"levelo://app?vid=3d16b8a5-448e-4d23-b7f7-e5ed3839b6bf","ios":"levelo://app?vid=3d16b8a5-448e-4d23-b7f7-e5ed3839b6bf"},"vehicle_type_id":"4","last_reported":1699722333,"current_range_meters":0,"station_id":"ce4bhnh2rcd13ifvqgtg","pricing_plan_id":"free"},{"bike_id":"a795fa4f-056d-4ad9-a419-37f50ae9e62c","system_id":"levelo_inurba_marseille","lat":43.278128,"lon":5.407195,"is_reserved":false,"is_disabled":false,"rental_uris":{"android":"levelo://app?vid=a795fa4f-056d-4ad9-a419-37f50ae9e62c","ios":"levelo://app?vid=a795fa4f-056d-4ad9-a419-37f50ae9e62c"},"vehicle_type_id":"4","last_reported":1699722333,"current_range_meters":1200,"station_id":"ce4bhnh2rcd13ifvqgtg","pricing_plan_id":"free"},{"bike_id":"e788455d-1263-442d-9422-5cc7599814a0","system_id":"levelo_inurba_marseille","lat":43.269467,"lon":5.386439,"is_reserved":false,"is_disabled":false,"rental_uris":{"android":"levelo://app?vid=e788455d-1263-442d-9422-5cc7599814a0","ios":"levelo://app?vid=e788455d-1263-442d-9422-5cc7599814a0"},"vehicle_type_id":"4","last_reported":1699722333,"current_range_meters":0,"station_id":"ce4bhh92rcd13ifvqfh0","pricing_plan_id":"free"},{"bike_id":"ebf20631-172b-4b50-9aec-1e77840f87c9","system_id":"levelo_inurba_marseille","lat":43.27947,"lon":5.41046,"is_reserved":false,"is_disabled":false,"rental_uris":{"android":"levelo://app?vid=ebf20631-172b-4b50-9aec-1e77840f87c9","ios":"levelo://app?vid=ebf20631-172b-4b50-9aec-1e77840f87c9"},"vehicle_type_id":"4","last_reported":1699722333,"current_range_meters":4400,"station_id":"ce4bhnp2rcd13ifvqh0g","pricing_plan_id":"free"},{"bike_id":"abaa513b-2f0c-4345-9297-d309a191cb28","system_id":"levelo_inurba_marseille","lat":43.26566,"lon":5.390025,"is_reserved":false,"is_disabled":false,"rental_uris":{"android":"levelo://app?vid=abaa513b-2f0c-4345-9297-d309a191cb28","ios":"levelo://app?vid=abaa513b-2f0c-4345-9297-d309a191cb28"},"vehicle_type_id":"4","last_reported":1699722333,"current_range_meters":31200,"station_id":"ce4bhe12rcd13ifvqf30","pricing_plan_id":"free"},{"bike_id":"1e21099f-abf7-44ff-9dda-247fa0a8cc66","system_id":"levelo_inurba_marseille","lat":43.26562,"lon":5.39004,"is_reserved":false,"is_disabled":false,"rental_uris":{"android":"levelo://app?vid=1e21099f-abf7-44ff-9dda-247fa0a8cc66","ios":"levelo://app?vid=1e21099f-abf7-44ff-9dda-247fa0a8cc66"},"vehicle_type_id":"4","last_reported":1699722333,"current_range_meters":0,"station_id":"ce4bhe12rcd13ifvqf30","pricing_plan_id":"free"},{"bike_id":"99d1910d-a84d-4eaf-bf7a-e5a15d325b53","system_id":"levelo_inurba_marseille","lat":43.331823,"lon":5.431664,"is_reserved":false,"is_disabled":false,"rental_uris":{"android":"levelo://app?vid=99d1910d-a84d-4eaf-bf7a-e5a15d325b53","ios":"levelo://app?vid=99d1910d-a84d-4eaf-bf7a-e5a15d325b53"},"vehicle_type_id":"4","last_reported":1699722333,"current_range_meters":0,"station_id":"","pricing_plan_id":"free"},{"bike_id":"95731d1b-1325-456a-8700-83d72dbaf979","system_id":"levelo_inurba_marseille","lat":43.31722,"lon":5.4369,"is_reserved":false,"is_disabled":false,"rental_uris":{"android":"levelo://app?vid=95731d1b-1325-456a-8700-83d72dbaf979","ios":"levelo://app?vid=95731d1b-1325-456a-8700-83d72dbaf979"},"vehicle_type_id":"4","last_reported":1699722333,"current_range_meters":24400,"station_id":"ce4bhp92rcd13ifvqhcg","pricing_plan_id":"free"},{"bike_id":"50cc2701-b5a3-48fd-807d-d3b1e9807b18","system_id":"levelo_inurba_marseille","lat":43.317104,"lon":5.436818,"is_reserved":false,"is_disabled":false,"rental_uris":{"android":"levelo://app?vid=50cc2701-b5a3-48fd-807d-d3b1e9807b18","ios":"levelo://app?vid=50cc2701-b5a3-48fd-807d-d3b1e9807b18"},"vehicle_type_id":"4","last_reported":1699722333,"current_range_meters":29200,"station_id":"ce4bhp92rcd13ifvqhcg","pricing_plan_id":"free"},{"bike_id":"16f17151-fe60-4a21-be1c-c787ed957961","system_id":"levelo_inurba_marseille","lat":43.317189,"lon":5.437087,"is_reserved":false,"is_disabled":false,"rental_uris":{"android":"levelo://app?vid=16f17151-fe60-4a21-be1c-c787ed957961","ios":"levelo://app?vid=16f17151-fe60-4a21-be1c-c787ed957961"},"vehicle_type_id":"4","last_reported":1699722333,"current_range_meters":0,"station_id":"ce4bhp92rcd13ifvqhcg","pricing_plan_id":"free"},{"bike_id":"a0e84f43-9cf3-4a4d-af9d-abe660feb021","system_id":"levelo_inurba_marseille","lat":43.317104,"lon":5.436818,"is_reserved":false,"is_disabled":false,"rental_uris":{"android":"levelo://app?vid=a0e84f43-9cf3-4a4d-af9d-abe660feb021","ios":"levelo://app?vid=a0e84f43-9cf3-4a4d-af9d-abe660feb021"},"vehicle_type_id":"4","last_reported":1699722333,"current_range_meters":21200,"station_id":"ce4bhp92rcd13ifvqhcg","pricing_plan_id":"free"},{"bike_id":"ce448ed7-2906-4fbc-b6ea-f397b9d1a00e","system_id":"levelo_inurba_marseille","lat":43.267959,"lon":5.402687,"is_reserved":false,"is_disabled":false,"rental_uris":{"android":"levelo://app?vid=ce448ed7-2906-4fbc-b6ea-f397b9d1a00e","ios":"levelo://app?vid=ce448ed7-2906-4fbc-b6ea-f397b9d1a00e"},"vehicle_type_id":"4","last_reported":1699722333,"current_range_meters":23600,"station_id":"ce501612rcd8frsf0b60","pricing_plan_id":"free"},{"bike_id":"8a4087ee-eb27-456c-aa78-99b81d1568ae","system_id":"levelo_inurba_marseille","lat":43.298961,"lon":5.436687,"is_reserved":false,"is_disabled":false,"rental_uris":{"android":"levelo://app?vid=8a4087ee-eb27-456c-aa78-99b81d1568ae","ios":"levelo://app?vid=8a4087ee-eb27-456c-aa78-99b81d1568ae"},"vehicle_type_id":"4","last_reported":1699722333,"current_range_meters":0,"station_id":"ce4bhpp2rcd13ifvqhfg","pricing_plan_id":"free"},{"bike_id":"c48c9371-7c30-4897-8647-06790164a180","system_id":"levelo_inurba_marseille","lat":43.26501,"lon":5.39732,"is_reserved":false,"is_disabled":false,"rental_uris":{"android":"levelo://app?vid=c48c9371-7c30-4897-8647-06790164a180","ios":"levelo://app?vid=c48c9371-7c30-4897-8647-06790164a180"},"vehicle_type_id":"4","last_reported":1699722333,"current_range_meters":0,"station_id":"","pricing_plan_id":"free"},{"bike_id":"3b5bfcfe-b7e3-4624-abf7-d21c0c861046","system_id":"levelo_inurba_marseille","lat":43.281816,"lon":5.425593,"is_reserved":false,"is_disabled":false,"rental_uris":{"android":"levelo://app?vid=3b5bfcfe-b7e3-4624-abf7-d21c0c861046","ios":"levelo://app?vid=3b5bfcfe-b7e3-4624-abf7-d21c0c861046"},"vehicle_type_id":"4","last_reported":1699722333,"current_range_meters":3200,"station_id":"","pricing_plan_id":"free"},{"bike_id":"24901c1e-6e9c-483d-bc65-583e5e509287","system_id":"levelo_inurba_marseille","lat":43.260219,"lon":5.37546,"is_reserved":false,"is_disabled":false,"rental_uris":{"android":"levelo://app?vid=24901c1e-6e9c-483d-bc65-583e5e509287","ios":"levelo://app?vid=24901c1e-6e9c-483d-bc65-583e5e509287"},"vehicle_type_id":"4","last_reported":1699722333,"current_range_meters":22400,"station_id":"ce4bhgh2rcd13ifvqfa0","pricing_plan_id":"free"},{"bike_id":"4f6880f4-3164-4fc2-9cf7-3c1358040f10","system_id":"levelo_inurba_marseille","lat":43.290501,"lon":5.433305,"is_reserved":false,"is_disabled":false,"rental_uris":{"android":"levelo://app?vid=4f6880f4-3164-4fc2-9cf7-3c1358040f10","ios":"levelo://app?vid=4f6880f4-3164-4fc2-9cf7-3c1358040f10"},"vehicle_type_id":"4","last_reported":1699722333,"current_range_meters":18800,"station_id":"","pricing_plan_id":"free"},{"bike_id":"1ed73a19-67b5-4669-8526-685c80708e99","system_id":"levelo_inurba_marseille","lat":43.281548,"lon":5.42643,"is_reserved":false,"is_disabled":false,"rental_uris":{"android":"levelo://app?vid=1ed73a19-67b5-4669-8526-685c80708e99","ios":"levelo://app?vid=1ed73a19-67b5-4669-8526-685c80708e99"},"vehicle_type_id":"4","last_reported":1699722333,"current_range_meters":29200,"station_id":"ce4bhnh2rcd13ifvqgug","pricing_plan_id":"free"},{"bike_id":"7929fe62-478b-45ed-a32f-4cee63794674","system_id":"levelo_inurba_marseille","lat":43.275005,"lon":5.424511,"is_reserved":false,"is_disabled":false,"rental_uris":{"android":"levelo://app?vid=7929fe62-478b-45ed-a32f-4cee63794674","ios":"levelo://app?vid=7929fe62-478b-45ed-a32f-4cee63794674"},"vehicle_type_id":"4","last_reported":1699722333,"current_range_meters":16800,"station_id":"","pricing_plan_id":"free"},{"bike_id":"6048a6cc-2b05-49b4-b5e0-e3efde3bc3fd","system_id":"levelo_inurba_marseille","lat":43.275028,"lon":5.424534,"is_reserved":false,"is_disabled":false,"rental_uris":{"android":"levelo://app?vid=6048a6cc-2b05-49b4-b5e0-e3efde3bc3fd","ios":"levelo://app?vid=6048a6cc-2b05-49b4-b5e0-e3efde3bc3fd"},"vehicle_type_id":"4","last_reported":1699722333,"current_range_meters":5200,"station_id":"ce4bhn92rcd13ifvqgrg","pricing_plan_id":"free"},{"bike_id":"99643de4-b6c4-46a9-b360-53c9126ba491","system_id":"levelo_inurba_marseille","lat":43.27492,"lon":5.4245,"is_reserved":false,"is_disabled":false,"rental_uris":{"android":"levelo://app?vid=99643de4-b6c4-46a9-b360-53c9126ba491","ios":"levelo://app?vid=99643de4-b6c4-46a9-b360-53c9126ba491"},"vehicle_type_id":"4","last_reported":1699722333,"current_range_meters":21200,"station_id":"ce4bhn92rcd13ifvqgrg","pricing_plan_id":"free"},{"bike_id":"2aa6c4b1-a67d-43b7-9eb1-fe5b5bec91bf","system_id":"levelo_inurba_marseille","lat":43.333244,"lon":5.441446,"is_reserved":false,"is_disabled":false,"rental_uris":{"android":"levelo://app?vid=2aa6c4b1-a67d-43b7-9eb1-fe5b5bec91bf","ios":"levelo://app?vid=2aa6c4b1-a67d-43b7-9eb1-fe5b5bec91bf"},"vehicle_type_id":"4","last_reported":1699722333,"current_range_meters":9600,"station_id":"","pricing_plan_id":"free"},{"bike_id":"a9821d7f-727f-467f-a638-009c3c4bd990","system_id":"levelo_inurba_marseille","lat":43.258224,"lon":5.394389,"is_reserved":false,"is_disabled":false,"rental_uris":{"android":"levelo://app?vid=a9821d7f-727f-467f-a638-009c3c4bd990","ios":"levelo://app?vid=a9821d7f-727f-467f-a638-009c3c4bd990"},"vehicle_type_id":"4","last_reported":1699722333,"current_range_meters":27600,"station_id":"","pricing_plan_id":"free"},{"bike_id":"f8468fb4-9c8a-4f8f-b1f2-e03df4bc5d46","system_id":"levelo_inurba_marseille","lat":43.258224,"lon":5.394369,"is_reserved":false,"is_disabled":false,"rental_uris":{"android":"levelo://app?vid=f8468fb4-9c8a-4f8f-b1f2-e03df4bc5d46","ios":"levelo://app?vid=f8468fb4-9c8a-4f8f-b1f2-e03df4bc5d46"},"vehicle_type_id":"4","last_reported":1699722333,"current_range_meters":4400,"station_id":"ce4bhip2rcd13ifvqft0","pricing_plan_id":"free"},{"bike_id":"d7cb0f58-88dc-40d8-a1b3-b5a76e113da5","system_id":"levelo_inurba_marseille","lat":43.255756,"lon":5.382303,"is_reserved":false,"is_disabled":false,"rental_uris":{"android":"levelo://app?vid=d7cb0f58-88dc-40d8-a1b3-b5a76e113da5","ios":"levelo://app?vid=d7cb0f58-88dc-40d8-a1b3-b5a76e113da5"},"vehicle_type_id":"4","last_reported":1699722333,"current_range_meters":27200,"station_id":"ce4bhih2rcd13ifvqfs0","pricing_plan_id":"free"},{"bike_id":"d1be4948-3db8-46c6-a0e9-4eb9877553a6","system_id":"levelo_inurba_marseille","lat":43.25497,"lon":5.3765,"is_reserved":false,"is_disabled":false,"rental_uris":{"android":"levelo://app?vid=d1be4948-3db8-46c6-a0e9-4eb9877553a6","ios":"levelo://app?vid=d1be4948-3db8-46c6-a0e9-4eb9877553a6"},"vehicle_type_id":"4","last_reported":1699722333,"current_range_meters":23200,"station_id":"ce4bhh12rcd13ifvqff0","pricing_plan_id":"free"},{"bike_id":"276e7ac7-f88a-4751-ac8c-abfa96c25152","system_id":"levelo_inurba_marseille","lat":43.254947,"lon":5.376454,"is_reserved":false,"is_disabled":false,"rental_uris":{"android":"levelo://app?vid=276e7ac7-f88a-4751-ac8c-abfa96c25152","ios":"levelo://app?vid=276e7ac7-f88a-4751-ac8c-abfa96c25152"},"vehicle_type_id":"4","last_reported":1699722333,"current_range_meters":0,"station_id":"ce4bhh12rcd13ifvqff0","pricing_plan_id":"free"},{"bike_id":"838b2e45-f1f6-465f-851e-6f782c77fb78","system_id":"levelo_inurba_marseille","lat":43.254947,"lon":5.376454,"is_reserved":false,"is_disabled":false,"rental_uris":{"android":"levelo://app?vid=838b2e45-f1f6-465f-851e-6f782c77fb78","ios":"levelo://app?vid=838b2e45-f1f6-465f-851e-6f782c77fb78"},"vehicle_type_id":"4","last_reported":1699722333,"current_range_meters":28400,"station_id":"ce4bhh12rcd13ifvqff0","pricing_plan_id":"free"},{"bike_id":"d8599002-1e4e-4a9f-9e22-da9f812e154c","system_id":"levelo_inurba_marseille","lat":43.25489,"lon":5.37646,"is_reserved":false,"is_disabled":false,"rental_uris":{"android":"levelo://app?vid=d8599002-1e4e-4a9f-9e22-da9f812e154c","ios":"levelo://app?vid=d8599002-1e4e-4a9f-9e22-da9f812e154c"},"vehicle_type_id":"4","last_reported":1699722333,"current_range_meters":15200,"station_id":"ce4bhh12rcd13ifvqff0","pricing_plan_id":"free"},{"bike_id":"2a6f3c9e-b692-4802-96ba-f3ca1911582f","system_id":"levelo_inurba_marseille","lat":43.25933,"lon":5.4092,"is_reserved":false,"is_disabled":false,"rental_uris":{"android":"levelo://app?vid=2a6f3c9e-b692-4802-96ba-f3ca1911582f","ios":"levelo://app?vid=2a6f3c9e-b692-4802-96ba-f3ca1911582f"},"vehicle_type_id":"4","last_reported":1699722333,"current_range_meters":17600,"station_id":"ce4bhm92rcd13ifvqglg","pricing_plan_id":"free"},{"bike_id":"4e40d249-8a36-4ef3-89ba-123d51976098","system_id":"levelo_inurba_marseille","lat":43.25927,"lon":5.4091,"is_reserved":false,"is_disabled":false,"rental_uris":{"android":"levelo://app?vid=4e40d249-8a36-4ef3-89ba-123d51976098","ios":"levelo://app?vid=4e40d249-8a36-4ef3-89ba-123d51976098"},"vehicle_type_id":"4","last_reported":1699722333,"current_range_meters":0,"station_id":"ce4bhm92rcd13ifvqglg","pricing_plan_id":"free"},{"bike_id":"32f164ca-0f8d-47b4-b141-3b01d043da1d","system_id":"levelo_inurba_marseille","lat":43.257079,"lon":5.411051,"is_reserved":false,"is_disabled":false,"rental_uris":{"android":"levelo://app?vid=32f164ca-0f8d-47b4-b141-3b01d043da1d","ios":"levelo://app?vid=32f164ca-0f8d-47b4-b141-3b01d043da1d"},"vehicle_type_id":"4","last_reported":1699722333,"current_range_meters":26800,"station_id":"ce4bhkp2rcd13ifvqgd0","pricing_plan_id":"free"},{"bike_id":"578120ca-f347-4a1c-929c-752a3f9ca913","system_id":"levelo_inurba_marseille","lat":43.24999,"lon":5.38932,"is_reserved":false,"is_disabled":false,"rental_uris":{"android":"levelo://app?vid=578120ca-f347-4a1c-929c-752a3f9ca913","ios":"levelo://app?vid=578120ca-f347-4a1c-929c-752a3f9ca913"},"vehicle_type_id":"4","last_reported":1699722333,"current_range_meters":10400,"station_id":"ce4bhgp2rcd13ifvqfd0","pricing_plan_id":"free"},{"bike_id":"c70b55b3-86c9-4446-83d0-302c2ea2e52b","system_id":"levelo_inurba_marseille","lat":43.2479,"lon":5.374457,"is_reserved":false,"is_disabled":false,"rental_uris":{"android":"levelo://app?vid=c70b55b3-86c9-4446-83d0-302c2ea2e52b","ios":"levelo://app?vid=c70b55b3-86c9-4446-83d0-302c2ea2e52b"},"vehicle_type_id":"4","last_reported":1699722333,"current_range_meters":31200,"station_id":"ce4bhgh2rcd13ifvqfb0","pricing_plan_id":"free"},{"bike_id":"84439e3d-4e75-4119-8a53-e76e66bc1ba9","system_id":"levelo_inurba_marseille","lat":43.24813,"lon":5.37462,"is_reserved":false,"is_disabled":false,"rental_uris":{"android":"levelo://app?vid=84439e3d-4e75-4119-8a53-e76e66bc1ba9","ios":"levelo://app?vid=84439e3d-4e75-4119-8a53-e76e66bc1ba9"},"vehicle_type_id":"4","last_reported":1699722333,"current_range_meters":15600,"station_id":"ce4bhgh2rcd13ifvqfb0","pricing_plan_id":"free"},{"bike_id":"117f8247-c7a1-4bdc-82ec-a6885bad1e28","system_id":"levelo_inurba_marseille","lat":43.24812,"lon":5.37457,"is_reserved":false,"is_disabled":false,"rental_uris":{"android":"levelo://app?vid=117f8247-c7a1-4bdc-82ec-a6885bad1e28","ios":"levelo://app?vid=117f8247-c7a1-4bdc-82ec-a6885bad1e28"},"vehicle_type_id":"4","last_reported":1699722333,"current_range_meters":24800,"station_id":"ce4bhgh2rcd13ifvqfb0","pricing_plan_id":"free"},{"bike_id":"e87d01a5-bec1-417e-b6d0-0b9a60de459e","system_id":"levelo_inurba_marseille","lat":43.24812,"lon":5.37459,"is_reserved":false,"is_disabled":false,"rental_uris":{"android":"levelo://app?vid=e87d01a5-bec1-417e-b6d0-0b9a60de459e","ios":"levelo://app?vid=e87d01a5-bec1-417e-b6d0-0b9a60de459e"},"vehicle_type_id":"4","last_reported":1699722333,"current_range_meters":16800,"station_id":"ce4bhgh2rcd13ifvqfb0","pricing_plan_id":"free"},{"bike_id":"d1d46be3-9325-42dd-9908-fa0bc6426549","system_id":"levelo_inurba_marseille","lat":43.2479,"lon":5.374457,"is_reserved":false,"is_disabled":false,"rental_uris":{"android":"levelo://app?vid=d1d46be3-9325-42dd-9908-fa0bc6426549","ios":"levelo://app?vid=d1d46be3-9325-42dd-9908-fa0bc6426549"},"vehicle_type_id":"4","last_reported":1699722333,"current_range_meters":25200,"station_id":"ce4bhgh2rcd13ifvqfb0","pricing_plan_id":"free"},{"bike_id":"62d4341c-34a5-4bb0-aee3-932623e6f429","system_id":"levelo_inurba_marseille","lat":43.2499,"lon":5.38936,"is_reserved":false,"is_disabled":false,"rental_uris":{"android":"levelo://app?vid=62d4341c-34a5-4bb0-aee3-932623e6f429","ios":"levelo://app?vid=62d4341c-34a5-4bb0-aee3-932623e6f429"},"vehicle_type_id":"4","last_reported":1699722333,"current_range_meters":400,"station_id":"ce4bhgp2rcd13ifvqfd0","pricing_plan_id":"free"},{"bike_id":"af348cf9-3ad0-4470-adff-f5ea37268b10","system_id":"levelo_inurba_marseille","lat":43.24805,"lon":5.3746,"is_reserved":false,"is_disabled":false,"rental_uris":{"android":"levelo://app?vid=af348cf9-3ad0-4470-adff-f5ea37268b10","ios":"levelo://app?vid=af348cf9-3ad0-4470-adff-f5ea37268b10"},"vehicle_type_id":"4","last_reported":1699722333,"current_range_meters":20400,"station_id":"ce4bhgh2rcd13ifvqfb0","pricing_plan_id":"free"},{"bike_id":"bc7fc931-ed5d-44d8-832c-2cffc9edf698","system_id":"levelo_inurba_marseille","lat":43.2479,"lon":5.374457,"is_reserved":false,"is_disabled":false,"rental_uris":{"android":"levelo://app?vid=bc7fc931-ed5d-44d8-832c-2cffc9edf698","ios":"levelo://app?vid=bc7fc931-ed5d-44d8-832c-2cffc9edf698"},"vehicle_type_id":"4","last_reported":1699722333,"current_range_meters":31200,"station_id":"ce4bhgh2rcd13ifvqfb0","pricing_plan_id":"free"},{"bike_id":"6a12b271-90a9-4636-a36f-f6d347e0536f","system_id":"levelo_inurba_marseille","lat":43.2479,"lon":5.374457,"is_reserved":false,"is_disabled":false,"rental_uris":{"android":"levelo://app?vid=6a12b271-90a9-4636-a36f-f6d347e0536f","ios":"levelo://app?vid=6a12b271-90a9-4636-a36f-f6d347e0536f"},"vehicle_type_id":"4","last_reported":1699722333,"current_range_meters":20000,"station_id":"ce4bhgh2rcd13ifvqfb0","pricing_plan_id":"free"},{"bike_id":"3f8dbe60-19b3-4b6c-819b-561d1485db5e","system_id":"levelo_inurba_marseille","lat":43.24663,"lon":5.38158,"is_reserved":false,"is_disabled":false,"rental_uris":{"android":"levelo://app?vid=3f8dbe60-19b3-4b6c-819b-561d1485db5e","ios":"levelo://app?vid=3f8dbe60-19b3-4b6c-819b-561d1485db5e"},"vehicle_type_id":"4","last_reported":1699722333,"current_range_meters":28400,"station_id":"ce4bhih2rcd13ifvqfr0","pricing_plan_id":"free"},{"bike_id":"849a21ac-14e3-401d-b39c-35ce0567711a","system_id":"levelo_inurba_marseille","lat":43.24693,"lon":5.382096,"is_reserved":false,"is_disabled":false,"rental_uris":{"android":"levelo://app?vid=849a21ac-14e3-401d-b39c-35ce0567711a","ios":"levelo://app?vid=849a21ac-14e3-401d-b39c-35ce0567711a"},"vehicle_type_id":"4","last_reported":1699722333,"current_range_meters":26800,"station_id":"ce4bhih2rcd13ifvqfr0","pricing_plan_id":"free"},{"bike_id":"23d6ecb7-8468-4f47-bcdb-c6327c8ceddc","system_id":"levelo_inurba_marseille","lat":43.24693,"lon":5.382096,"is_reserved":false,"is_disabled":false,"rental_uris":{"android":"levelo://app?vid=23d6ecb7-8468-4f47-bcdb-c6327c8ceddc","ios":"levelo://app?vid=23d6ecb7-8468-4f47-bcdb-c6327c8ceddc"},"vehicle_type_id":"4","last_reported":1699722333,"current_range_meters":30800,"station_id":"ce4bhih2rcd13ifvqfr0","pricing_plan_id":"free"},{"bike_id":"45626594-e462-425f-8606-10a982a2b84c","system_id":"levelo_inurba_marseille","lat":43.243884,"lon":5.370736,"is_reserved":false,"is_disabled":false,"rental_uris":{"android":"levelo://app?vid=45626594-e462-425f-8606-10a982a2b84c","ios":"levelo://app?vid=45626594-e462-425f-8606-10a982a2b84c"},"vehicle_type_id":"4","last_reported":1699722333,"current_range_meters":24000,"station_id":"ce4bhhh2rcd13ifvqfk0","pricing_plan_id":"free"},{"bike_id":"c2e0cf5c-b515-4a2c-ac06-1f8fe671561c","system_id":"levelo_inurba_marseille","lat":43.24549,"lon":5.3952,"is_reserved":false,"is_disabled":false,"rental_uris":{"android":"levelo://app?vid=c2e0cf5c-b515-4a2c-ac06-1f8fe671561c","ios":"levelo://app?vid=c2e0cf5c-b515-4a2c-ac06-1f8fe671561c"},"vehicle_type_id":"4","last_reported":1699722333,"current_range_meters":13200,"station_id":"ce4bhlp2rcd13ifvqgjg","pricing_plan_id":"free"},{"bike_id":"58489653-0d75-4bcc-9fe8-3336f4adde22","system_id":"levelo_inurba_marseille","lat":43.24545,"lon":5.39522,"is_reserved":false,"is_disabled":false,"rental_uris":{"android":"levelo://app?vid=58489653-0d75-4bcc-9fe8-3336f4adde22","ios":"levelo://app?vid=58489653-0d75-4bcc-9fe8-3336f4adde22"},"vehicle_type_id":"4","last_reported":1699722333,"current_range_meters":12400,"station_id":"ce4bhlp2rcd13ifvqgjg","pricing_plan_id":"free"},{"bike_id":"42a92fd4-a595-46ac-8683-395aa407caf3","system_id":"levelo_inurba_marseille","lat":43.245581,"lon":5.395069,"is_reserved":false,"is_disabled":false,"rental_uris":{"android":"levelo://app?vid=42a92fd4-a595-46ac-8683-395aa407caf3","ios":"levelo://app?vid=42a92fd4-a595-46ac-8683-395aa407caf3"},"vehicle_type_id":"4","last_reported":1699722333,"current_range_meters":14400,"station_id":"ce4bhlp2rcd13ifvqgjg","pricing_plan_id":"free"},{"bike_id":"ff92a715-5fbb-4ac9-a157-23ea22833ee2","system_id":"levelo_inurba_marseille","lat":43.245581,"lon":5.395069,"is_reserved":false,"is_disabled":false,"rental_uris":{"android":"levelo://app?vid=ff92a715-5fbb-4ac9-a157-23ea22833ee2","ios":"levelo://app?vid=ff92a715-5fbb-4ac9-a157-23ea22833ee2"},"vehicle_type_id":"4","last_reported":1699722333,"current_range_meters":31200,"station_id":"ce4bhlp2rcd13ifvqgjg","pricing_plan_id":"free"},{"bike_id":"0003af97-66f2-4f36-8f6f-d03f3c4092ef","system_id":"levelo_inurba_marseille","lat":43.24075,"lon":5.37761,"is_reserved":false,"is_disabled":false,"rental_uris":{"android":"levelo://app?vid=0003af97-66f2-4f36-8f6f-d03f3c4092ef","ios":"levelo://app?vid=0003af97-66f2-4f36-8f6f-d03f3c4092ef"},"vehicle_type_id":"4","last_reported":1699722333,"current_range_meters":28800,"station_id":"ce4bhnp2rcd13ifvqgvg","pricing_plan_id":"free"},{"bike_id":"73cd3810-1d6b-44fc-9859-d98fb7672254","system_id":"levelo_inurba_marseille","lat":43.240623,"lon":5.377642,"is_reserved":false,"is_disabled":false,"rental_uris":{"android":"levelo://app?vid=73cd3810-1d6b-44fc-9859-d98fb7672254","ios":"levelo://app?vid=73cd3810-1d6b-44fc-9859-d98fb7672254"},"vehicle_type_id":"4","last_reported":1699722333,"current_range_meters":8400,"station_id":"ce4bhnp2rcd13ifvqgvg","pricing_plan_id":"free"},{"bike_id":"0aec5895-8593-40bd-9d39-8fe52c4b74ec","system_id":"levelo_inurba_marseille","lat":43.24072,"lon":5.37764,"is_reserved":false,"is_disabled":false,"rental_uris":{"android":"levelo://app?vid=0aec5895-8593-40bd-9d39-8fe52c4b74ec","ios":"levelo://app?vid=0aec5895-8593-40bd-9d39-8fe52c4b74ec"},"vehicle_type_id":"4","last_reported":1699722333,"current_range_meters":24800,"station_id":"ce4bhnp2rcd13ifvqgvg","pricing_plan_id":"free"},{"bike_id":"b05a8ece-3033-422a-8788-897daada9393","system_id":"levelo_inurba_marseille","lat":43.240623,"lon":5.377642,"is_reserved":false,"is_disabled":false,"rental_uris":{"android":"levelo://app?vid=b05a8ece-3033-422a-8788-897daada9393","ios":"levelo://app?vid=b05a8ece-3033-422a-8788-897daada9393"},"vehicle_type_id":"4","last_reported":1699722333,"current_range_meters":3200,"station_id":"ce4bhnp2rcd13ifvqgvg","pricing_plan_id":"free"},{"bike_id":"7cf03cd3-e480-404c-9bab-6f3755431d7f","system_id":"levelo_inurba_marseille","lat":43.240623,"lon":5.377642,"is_reserved":false,"is_disabled":false,"rental_uris":{"android":"levelo://app?vid=7cf03cd3-e480-404c-9bab-6f3755431d7f","ios":"levelo://app?vid=7cf03cd3-e480-404c-9bab-6f3755431d7f"},"vehicle_type_id":"4","last_reported":1699722333,"current_range_meters":18800,"station_id":"ce4bhnp2rcd13ifvqgvg","pricing_plan_id":"free"},{"bike_id":"17ea6122-60a9-4a1d-8308-4a4378114bc2","system_id":"levelo_inurba_marseille","lat":43.24069,"lon":5.37762,"is_reserved":false,"is_disabled":false,"rental_uris":{"android":"levelo://app?vid=17ea6122-60a9-4a1d-8308-4a4378114bc2","ios":"levelo://app?vid=17ea6122-60a9-4a1d-8308-4a4378114bc2"},"vehicle_type_id":"4","last_reported":1699722333,"current_range_meters":31200,"station_id":"ce4bhnp2rcd13ifvqgvg","pricing_plan_id":"free"},{"bike_id":"8ed1c9e6-7e84-4d45-b255-69f3431f5dc2","system_id":"levelo_inurba_marseille","lat":43.240623,"lon":5.377642,"is_reserved":false,"is_disabled":false,"rental_uris":{"android":"levelo://app?vid=8ed1c9e6-7e84-4d45-b255-69f3431f5dc2","ios":"levelo://app?vid=8ed1c9e6-7e84-4d45-b255-69f3431f5dc2"},"vehicle_type_id":"4","last_reported":1699722333,"current_range_meters":24800,"station_id":"ce4bhnp2rcd13ifvqgvg","pricing_plan_id":"free"},{"bike_id":"fbc64308-656b-4095-a621-c2a4691b3bf5","system_id":"levelo_inurba_marseille","lat":43.240623,"lon":5.377642,"is_reserved":false,"is_disabled":false,"rental_uris":{"android":"levelo://app?vid=fbc64308-656b-4095-a621-c2a4691b3bf5","ios":"levelo://app?vid=fbc64308-656b-4095-a621-c2a4691b3bf5"},"vehicle_type_id":"4","last_reported":1699722333,"current_range_meters":10800,"station_id":"ce4bhnp2rcd13ifvqgvg","pricing_plan_id":"free"},{"bike_id":"ad549fee-834a-41f0-afb4-06023c5ef704","system_id":"levelo_inurba_marseille","lat":43.242,"lon":5.39012,"is_reserved":false,"is_disabled":false,"rental_uris":{"android":"levelo://app?vid=ad549fee-834a-41f0-afb4-06023c5ef704","ios":"levelo://app?vid=ad549fee-834a-41f0-afb4-06023c5ef704"},"vehicle_type_id":"4","last_reported":1699722333,"current_range_meters":19600,"station_id":"","pricing_plan_id":"free"},{"bike_id":"1cd3e561-6dcd-4cb2-ac3e-b30a4b454baf","system_id":"levelo_inurba_marseille","lat":43.245244,"lon":5.404712,"is_reserved":false,"is_disabled":false,"rental_uris":{"android":"levelo://app?vid=1cd3e561-6dcd-4cb2-ac3e-b30a4b454baf","ios":"levelo://app?vid=1cd3e561-6dcd-4cb2-ac3e-b30a4b454baf"},"vehicle_type_id":"4","last_reported":1699722333,"current_range_meters":16400,"station_id":"","pricing_plan_id":"free"},{"bike_id":"a3eecc29-51c8-4773-913d-285faa722db5","system_id":"levelo_inurba_marseille","lat":43.239588,"lon":5.366238,"is_reserved":false,"is_disabled":false,"rental_uris":{"android":"levelo://app?vid=a3eecc29-51c8-4773-913d-285faa722db5","ios":"levelo://app?vid=a3eecc29-51c8-4773-913d-285faa722db5"},"vehicle_type_id":"4","last_reported":1699722333,"current_range_meters":20800,"station_id":"ce4bhi12rcd13ifvqfp0","pricing_plan_id":"free"},{"bike_id":"75513f44-6376-41b7-b8e5-4dcd559e4eb5","system_id":"levelo_inurba_marseille","lat":43.239588,"lon":5.366238,"is_reserved":false,"is_disabled":false,"rental_uris":{"android":"levelo://app?vid=75513f44-6376-41b7-b8e5-4dcd559e4eb5","ios":"levelo://app?vid=75513f44-6376-41b7-b8e5-4dcd559e4eb5"},"vehicle_type_id":"4","last_reported":1699722333,"current_range_meters":10000,"station_id":"ce4bhi12rcd13ifvqfp0","pricing_plan_id":"free"},{"bike_id":"1a027392-7bb8-44d6-9b88-6b0910df8204","system_id":"levelo_inurba_marseille","lat":43.2418,"lon":5.397217,"is_reserved":false,"is_disabled":false,"rental_uris":{"android":"levelo://app?vid=1a027392-7bb8-44d6-9b88-6b0910df8204","ios":"levelo://app?vid=1a027392-7bb8-44d6-9b88-6b0910df8204"},"vehicle_type_id":"4","last_reported":1699722333,"current_range_meters":3200,"station_id":"ce4bhn12rcd13ifvqgpg","pricing_plan_id":"free"},{"bike_id":"320a2f19-f07f-468c-aac4-43cb151c22a7","system_id":"levelo_inurba_marseille","lat":43.241782,"lon":5.397264,"is_reserved":false,"is_disabled":false,"rental_uris":{"android":"levelo://app?vid=320a2f19-f07f-468c-aac4-43cb151c22a7","ios":"levelo://app?vid=320a2f19-f07f-468c-aac4-43cb151c22a7"},"vehicle_type_id":"4","last_reported":1699722333,"current_range_meters":18800,"station_id":"ce4bhn12rcd13ifvqgpg","pricing_plan_id":"free"},{"bike_id":"160b920b-7d61-4adc-a6bf-5bb49b108205","system_id":"levelo_inurba_marseille","lat":43.231975,"lon":5.355448,"is_reserved":false,"is_disabled":false,"rental_uris":{"android":"levelo://app?vid=160b920b-7d61-4adc-a6bf-5bb49b108205","ios":"levelo://app?vid=160b920b-7d61-4adc-a6bf-5bb49b108205"},"vehicle_type_id":"4","last_reported":1699722333,"current_range_meters":30000,"station_id":"ce4bhu92rcd13ifvqi70","pricing_plan_id":"free"},{"bike_id":"1c42f9d6-706e-4644-97a6-06954e7f340b","system_id":"levelo_inurba_marseille","lat":43.23194,"lon":5.35563,"is_reserved":false,"is_disabled":false,"rental_uris":{"android":"levelo://app?vid=1c42f9d6-706e-4644-97a6-06954e7f340b","ios":"levelo://app?vid=1c42f9d6-706e-4644-97a6-06954e7f340b"},"vehicle_type_id":"4","last_reported":1699722333,"current_range_meters":31200,"station_id":"ce4bhu92rcd13ifvqi70","pricing_plan_id":"free"},{"bike_id":"4055e37d-a899-4b9e-8152-e2c8fa7513a8","system_id":"levelo_inurba_marseille","lat":43.23194,"lon":5.35561,"is_reserved":false,"is_disabled":false,"rental_uris":{"android":"levelo://app?vid=4055e37d-a899-4b9e-8152-e2c8fa7513a8","ios":"levelo://app?vid=4055e37d-a899-4b9e-8152-e2c8fa7513a8"},"vehicle_type_id":"4","last_reported":1699722333,"current_range_meters":22800,"station_id":"ce4bhu92rcd13ifvqi70","pricing_plan_id":"free"},{"bike_id":"7613eb3a-79b1-407e-9b12-a6b139bae462","system_id":"levelo_inurba_marseille","lat":43.23194,"lon":5.35557,"is_reserved":false,"is_disabled":false,"rental_uris":{"android":"levelo://app?vid=7613eb3a-79b1-407e-9b12-a6b139bae462","ios":"levelo://app?vid=7613eb3a-79b1-407e-9b12-a6b139bae462"},"vehicle_type_id":"4","last_reported":1699722333,"current_range_meters":17600,"station_id":"ce4bhu92rcd13ifvqi70","pricing_plan_id":"free"},{"bike_id":"8666064d-11cc-4c98-9d40-49bb5fdf91f6","system_id":"levelo_inurba_marseille","lat":43.23194,"lon":5.35554,"is_reserved":false,"is_disabled":false,"rental_uris":{"android":"levelo://app?vid=8666064d-11cc-4c98-9d40-49bb5fdf91f6","ios":"levelo://app?vid=8666064d-11cc-4c98-9d40-49bb5fdf91f6"},"vehicle_type_id":"4","last_reported":1699722333,"current_range_meters":31200,"station_id":"ce4bhu92rcd13ifvqi70","pricing_plan_id":"free"},{"bike_id":"0859de7a-4e96-4994-915d-d196bedc1906","system_id":"levelo_inurba_marseille","lat":43.23194,"lon":5.35549,"is_reserved":false,"is_disabled":false,"rental_uris":{"android":"levelo://app?vid=0859de7a-4e96-4994-915d-d196bedc1906","ios":"levelo://app?vid=0859de7a-4e96-4994-915d-d196bedc1906"},"vehicle_type_id":"4","last_reported":1699722333,"current_range_meters":15600,"station_id":"ce4bhu92rcd13ifvqi70","pricing_plan_id":"free"},{"bike_id":"4e116bed-fac4-4a4f-9500-0a5b0e267303","system_id":"levelo_inurba_marseille","lat":43.23193,"lon":5.3556,"is_reserved":false,"is_disabled":false,"rental_uris":{"android":"levelo://app?vid=4e116bed-fac4-4a4f-9500-0a5b0e267303","ios":"levelo://app?vid=4e116bed-fac4-4a4f-9500-0a5b0e267303"},"vehicle_type_id":"4","last_reported":1699722333,"current_range_meters":31200,"station_id":"ce4bhu92rcd13ifvqi70","pricing_plan_id":"free"},{"bike_id":"d57044a3-c38e-4499-9ff8-25f15b364b09","system_id":"levelo_inurba_marseille","lat":43.23193,"lon":5.3556,"is_reserved":false,"is_disabled":false,"rental_uris":{"android":"levelo://app?vid=d57044a3-c38e-4499-9ff8-25f15b364b09","ios":"levelo://app?vid=d57044a3-c38e-4499-9ff8-25f15b364b09"},"vehicle_type_id":"4","last_reported":1699722333,"current_range_meters":22000,"station_id":"ce4bhu92rcd13ifvqi70","pricing_plan_id":"free"},{"bike_id":"b1463a7a-6510-486b-af90-6267ebe947b9","system_id":"levelo_inurba_marseille","lat":43.23193,"lon":5.35557,"is_reserved":false,"is_disabled":false,"rental_uris":{"android":"levelo://app?vid=b1463a7a-6510-486b-af90-6267ebe947b9","ios":"levelo://app?vid=b1463a7a-6510-486b-af90-6267ebe947b9"},"vehicle_type_id":"4","last_reported":1699722333,"current_range_meters":18800,"station_id":"ce4bhu92rcd13ifvqi70","pricing_plan_id":"free"},{"bike_id":"300f3710-53ba-439f-b541-b64789ace034","system_id":"levelo_inurba_marseille","lat":43.23192,"lon":5.35558,"is_reserved":false,"is_disabled":false,"rental_uris":{"android":"levelo://app?vid=300f3710-53ba-439f-b541-b64789ace034","ios":"levelo://app?vid=300f3710-53ba-439f-b541-b64789ace034"},"vehicle_type_id":"4","last_reported":1699722333,"current_range_meters":19200,"station_id":"ce4bhu92rcd13ifvqi70","pricing_plan_id":"free"},{"bike_id":"06776b6c-8f76-4720-8df9-e2bc776ee4e5","system_id":"levelo_inurba_marseille","lat":43.23192,"lon":5.35554,"is_reserved":false,"is_disabled":false,"rental_uris":{"android":"levelo://app?vid=06776b6c-8f76-4720-8df9-e2bc776ee4e5","ios":"levelo://app?vid=06776b6c-8f76-4720-8df9-e2bc776ee4e5"},"vehicle_type_id":"4","last_reported":1699722333,"current_range_meters":16800,"station_id":"ce4bhu92rcd13ifvqi70","pricing_plan_id":"free"},{"bike_id":"60b018bb-9fb6-477d-85ff-c69397fb0192","system_id":"levelo_inurba_marseille","lat":43.23191,"lon":5.35552,"is_reserved":false,"is_disabled":false,"rental_uris":{"android":"levelo://app?vid=60b018bb-9fb6-477d-85ff-c69397fb0192","ios":"levelo://app?vid=60b018bb-9fb6-477d-85ff-c69397fb0192"},"vehicle_type_id":"4","last_reported":1699722333,"current_range_meters":28400,"station_id":"ce4bhu92rcd13ifvqi70","pricing_plan_id":"free"},{"bike_id":"74688429-8164-4112-a0a2-461e493a62ad","system_id":"levelo_inurba_marseille","lat":43.23189,"lon":5.3556,"is_reserved":false,"is_disabled":false,"rental_uris":{"android":"levelo://app?vid=74688429-8164-4112-a0a2-461e493a62ad","ios":"levelo://app?vid=74688429-8164-4112-a0a2-461e493a62ad"},"vehicle_type_id":"4","last_reported":1699722333,"current_range_meters":17600,"station_id":"ce4bhu92rcd13ifvqi70","pricing_plan_id":"free"},{"bike_id":"46e7c9a7-c3c2-42c8-9755-0d8a7c75c7df","system_id":"levelo_inurba_marseille","lat":43.23189,"lon":5.35556,"is_reserved":false,"is_disabled":false,"rental_uris":{"android":"levelo://app?vid=46e7c9a7-c3c2-42c8-9755-0d8a7c75c7df","ios":"levelo://app?vid=46e7c9a7-c3c2-42c8-9755-0d8a7c75c7df"},"vehicle_type_id":"4","last_reported":1699722333,"current_range_meters":18400,"station_id":"ce4bhu92rcd13ifvqi70","pricing_plan_id":"free"},{"bike_id":"97811de2-1b6c-404b-91df-214af67b3b34","system_id":"levelo_inurba_marseille","lat":43.231923,"lon":5.355545,"is_reserved":false,"is_disabled":false,"rental_uris":{"android":"levelo://app?vid=97811de2-1b6c-404b-91df-214af67b3b34","ios":"levelo://app?vid=97811de2-1b6c-404b-91df-214af67b3b34"},"vehicle_type_id":"4","last_reported":1699722333,"current_range_meters":26000,"station_id":"ce4bhu92rcd13ifvqi70","pricing_plan_id":"free"},{"bike_id":"222329d3-007e-481d-87c0-2b82cad14cca","system_id":"levelo_inurba_marseille","lat":43.231794,"lon":5.400052,"is_reserved":false,"is_disabled":false,"rental_uris":{"android":"levelo://app?vid=222329d3-007e-481d-87c0-2b82cad14cca","ios":"levelo://app?vid=222329d3-007e-481d-87c0-2b82cad14cca"},"vehicle_type_id":"4","last_reported":1699722333,"current_range_meters":22800,"station_id":"ce4bhn12rcd13ifvqgqg","pricing_plan_id":"free"},{"bike_id":"c73ac301-ac1d-4a09-9f36-1294d82ed020","system_id":"levelo_inurba_marseille","lat":43.23184,"lon":5.39991,"is_reserved":false,"is_disabled":false,"rental_uris":{"android":"levelo://app?vid=c73ac301-ac1d-4a09-9f36-1294d82ed020","ios":"levelo://app?vid=c73ac301-ac1d-4a09-9f36-1294d82ed020"},"vehicle_type_id":"4","last_reported":1699722333,"current_range_meters":17600,"station_id":"ce4bhn12rcd13ifvqgqg","pricing_plan_id":"free"},