{"last_updated":1745587263,"ttl":60,"version":"2.2","data":{"bikes":[{"bike_id":"2fa7e56d-0a02-4b6b-acfc-57b4d7510dcc","system_id":"levelo_inurba_marseille","lat":43.28615,"lon":5.35104,"is_reserved":false,"is_disabled":false,"rental_uris":{"android":"levelo://app?vid=2fa7e56d-0a02-4b6b-acfc-57b4d7510dcc","ios":"levelo://app?vid=2fa7e56d-0a02-4b6b-acfc-57b4d7510dcc"},"vehicle_type_id":"4","last_reported":1745587263,"current_range_meters":2800,"station_id":"ce4bhch2rcd13ifvqeug","pricing_plan_id":"cebpf4jnsgd1na2vs0mg"},{"bike_id":"1291c428-506a-43ad-b76b-8723adc97379","system_id":"levelo_inurba_marseille","lat":43.31567,"lon":5.36974,"is_reserved":false,"is_disabled":false,"rental_uris":{"android":"levelo://app?vid=1291c428-506a-43ad-b76b-8723adc97379","ios":"levelo://app?vid=1291c428-506a-43ad-b76b-8723adc97379"},"vehicle_type_id":"4","last_reported":1745587263,"current_range_meters":2800,"station_id":"","pricing_plan_id":"cebpf4jnsgd1na2vs0mg"},{"bike_id":"f03634cb-e980-4909-b7f9-e0886b53d917","system_id":"levelo_inurba_marseille","lat":43.27375,"lon":5.36239,"is_reserved":false,"is_disabled":false,"rental_uris":{"android":"levelo://app?vid=f03634cb-e980-4909-b7f9-e0886b53d917","ios":"levelo://app?vid=f03634cb-e980-4909-b7f9-e0886b53d917"},"vehicle_type_id":"4","last_reported":1745587263,"current_range_meters":3200,"station_id":"ce4bhbh2rcd13ifvqeo0","pricing_plan_id":"cebpf4jnsgd1na2vs0mg"},{"bike_id":"bc5f7c07-4c09-4219-8fc0-bf1a12fe4f23","system_id":"levelo_inurba_marseille","lat":43.27049,"lon":5.40256,"is_reserved":false,"is_disabled":false,"rental_uris":{"android":"levelo://app?vid=bc5f7c07-4c09-4219-8fc0-bf1a12fe4f23","ios":"levelo://app?vid=bc5f7c07-4c09-4219-8fc0-bf1a12fe4f23"},"vehicle_type_id":"4","last_reported":1745587263,"current_range_meters":3200,"station_id":"ce4bhk92rcd13ifvqgc0","pricing_plan_id":"cebpf4jnsgd1na2vs0mg"},{"bike_id":"6262037e-9f57-43de-ab03-ad8ec57b4a63","system_id":"levelo_inurba_marseille","lat":43.26928,"lon":5.38928,"is_reserved":false,"is_disabled":false,"rental_uris":{"android":"levelo://app?vid=6262037e-9f57-43de-ab03-ad8ec57b4a63","ios":"levelo://app?vid=6262037e-9f57-43de-ab03-ad8ec57b4a63"},"vehicle_type_id":"4","last_reported":1745587263,"current_range_meters":3200,"station_id":"ce4bhhh2rcd13ifvqfl0","pricing_plan_id":"cebpf4jnsgd1na2vs0mg"},{"bike_id":"4b5f0f52-b6ca-4034-97b4-75a915b90bb0","system_id":"levelo_inurba_marseille","lat":43.29207,"lon":5.37624,"is_reserved":false,"is_disabled":false,"rental_uris":{"android":"levelo://app?vid=4b5f0f52-b6ca-4034-97b4-75a915b90bb0","ios":"levelo://app?vid=4b5f0f52-b6ca-4034-97b4-75a915b90bb0"},"vehicle_type_id":"4","last_reported":1745587263,"current_range_meters":3200,"station_id":"","pricing_plan_id":"cebpf4jnsgd1na2vs0mg"},{"bike_id":"8367019d-5bcc-4ce9-9c11-4795eaa4f71a","system_id":"levelo_inurba_marseille","lat":43.21194,"lon":5.35077,"is_reserved":false,"is_disabled":false,"rental_uris":{"android":"levelo://app?vid=8367019d-5bcc-4ce9-9c11-4795eaa4f71a","ios":"levelo://app?vid=8367019d-5bcc-4ce9-9c11-4795eaa4f71a"},"vehicle_type_id":"4","last_reported":1745587263,"current_range_meters":3200,"station_id":"st_cvj6sg6p6f1abm77japg","pricing_plan_id":"cebpf4jnsgd1na2vs0mg"},{"bike_id":"edcb5616-651a-479b-8c9d-7988ee3d78b8","system_id":"levelo_inurba_marseille","lat":43.2669,"lon":5.38272,"is_reserved":false,"is_disabled":false,"rental_uris":{"android":"levelo://app?vid=edcb5616-651a-479b-8c9d-7988ee3d78b8","ios":"levelo://app?vid=edcb5616-651a-479b-8c9d-7988ee3d78b8"},"vehicle_type_id":"4","last_reported":1745587263,"current_range_meters":3200,"station_id":"ce4bhg92rcd13ifvqf90","pricing_plan_id":"cebpf4jnsgd1na2vs0mg"},{"bike_id":"ce54d01c-87fc-4d2d-b9c0-863eba06c77d","system_id":"levelo_inurba_marseille","lat":43.25576,"lon":5.38232,"is_reserved":false,"is_disabled":false,"rental_uris":{"android":"levelo://app?vid=ce54d01c-87fc-4d2d-b9c0-863eba06c77d","ios":"levelo://app?vid=ce54d01c-87fc-4d2d-b9c0-863eba06c77d"},"vehicle_type_id":"4","last_reported":1745587263,"current_range_meters":3200,"station_id":"ce4bhih2rcd13ifvqfs0","pricing_plan_id":"cebpf4jnsgd1na2vs0mg"},{"bike_id":"2eb8aa51-3754-4a0f-a17d-f7e55c7b6ad0","system_id":"levelo_inurba_marseille","lat":43.2175,"lon":5.34602,"is_reserved":false,"is_disabled":false,"rental_uris":{"android":"levelo://app?vid=2eb8aa51-3754-4a0f-a17d-f7e55c7b6ad0","ios":"levelo://app?vid=2eb8aa51-3754-4a0f-a17d-f7e55c7b6ad0"},"vehicle_type_id":"4","last_reported":1745587263,"current_range_meters":3200,"station_id":"st_cvj6r9ubvosntc0bgbag","pricing_plan_id":"cebpf4jnsgd1na2vs0mg"},{"bike_id":"8cf8da14-e1fd-4fcc-b81a-bf72a0e4400c","system_id":"levelo_inurba_marseille","lat":43.26696,"lon":5.38259,"is_reserved":false,"is_disabled":true,"rental_uris":{"android":"levelo://app?vid=8cf8da14-e1fd-4fcc-b81a-bf72a0e4400c","ios":"levelo://app?vid=8cf8da14-e1fd-4fcc-b81a-bf72a0e4400c"},"vehicle_type_id":"4","last_reported":1745587263,"current_range_meters":3200,"station_id":"ce4bhg92rcd13ifvqf90","pricing_plan_id":"cebpf4jnsgd1na2vs0mg"},{"bike_id":"d68c2903-d1d4-4fde-a802-5dc98ebb2c30","system_id":"levelo_inurba_marseille","lat":43.26218,"lon":5.40444,"is_reserved":false,"is_disabled":false,"rental_uris":{"android":"levelo://app?vid=d68c2903-d1d4-4fde-a802-5dc98ebb2c30","ios":"levelo://app?vid=d68c2903-d1d4-4fde-a802-5dc98ebb2c30"},"vehicle_type_id":"4","last_reported":1745587263,"current_range_meters":3200,"station_id":"","pricing_plan_id":"cebpf4jnsgd1na2vs0mg"},{"bike_id":"fe60dc40-21f5-48db-af74-e65967e76991","system_id":"levelo_inurba_marseille","lat":43.27371,"lon":5.36254,"is_reserved":false,"is_disabled":false,"rental_uris":{"android":"levelo://app?vid=fe60dc40-21f5-48db-af74-e65967e76991","ios":"levelo://app?vid=fe60dc40-21f5-48db-af74-e65967e76991"},"vehicle_type_id":"4","last_reported":1745587263,"current_range_meters":3200,"station_id":"ce4bhbh2rcd13ifvqeo0","pricing_plan_id":"cebpf4jnsgd1na2vs0mg"},{"bike_id":"a2c7668e-5b2f-49e7-ac42-4521e25f64cd","system_id":"levelo_inurba_marseille","lat":43.28267,"lon":5.35069,"is_reserved":false,"is_disabled":false,"rental_uris":{"android":"levelo://app?vid=a2c7668e-5b2f-49e7-ac42-4521e25f64cd","ios":"levelo://app?vid=a2c7668e-5b2f-49e7-ac42-4521e25f64cd"},"vehicle_type_id":"4","last_reported":1745587263,"current_range_meters":3200,"station_id":"ce4bhbp2rcd13ifvqerg","pricing_plan_id":"cebpf4jnsgd1na2vs0mg"},{"bike_id":"b8db6014-3d67-4801-94fb-f0ba18d98e9e","system_id":"levelo_inurba_marseille","lat":43.26194,"lon":5.37446,"is_reserved":false,"is_disabled":false,"rental_uris":{"android":"levelo://app?vid=b8db6014-3d67-4801-94fb-f0ba18d98e9e","ios":"levelo://app?vid=b8db6014-3d67-4801-94fb-f0ba18d98e9e"},"vehicle_type_id":"4","last_reported":1745587263,"current_range_meters":3600,"station_id":"ce4bhgp2rcd13ifvqfc0","pricing_plan_id":"cebpf4jnsgd1na2vs0mg"},{"bike_id":"f26314fc-a558-464b-bad6-d9beb98fd06e","system_id":"levelo_inurba_marseille","lat":43.23156,"lon":5.43699,"is_reserved":false,"is_disabled":false,"rental_uris":{"android":"levelo://app?vid=f26314fc-a558-464b-bad6-d9beb98fd06e","ios":"levelo://app?vid=f26314fc-a558-464b-bad6-d9beb98fd06e"},"vehicle_type_id":"4","last_reported":1745587263,"current_range_meters":3600,"station_id":"ce4bhmp2rcd13ifvqgog","pricing_plan_id":"cebpf4jnsgd1na2vs0mg"},{"bike_id":"09101896-e0fb-454c-858b-d6cc3252770e","system_id":"levelo_inurba_marseille","lat":43.291718,"lon":5.371511,"is_reserved":false,"is_disabled":false,"rental_uris":{"android":"levelo://app?vid=09101896-e0fb-454c-858b-d6cc3252770e","ios":"levelo://app?vid=09101896-e0fb-454c-858b-d6cc3252770e"},"vehicle_type_id":"4","last_reported":1745587263,"current_range_meters":3600,"station_id":"ce4bha92rcd13ifvqeh0","pricing_plan_id":"cebpf4jnsgd1na2vs0mg"},{"bike_id":"04de76c4-a1ad-45bf-9e28-7c78bfcbb5c0","system_id":"levelo_inurba_marseille","lat":43.25193,"lon":5.37419,"is_reserved":false,"is_disabled":false,"rental_uris":{"android":"levelo://app?vid=04de76c4-a1ad-45bf-9e28-7c78bfcbb5c0","ios":"levelo://app?vid=04de76c4-a1ad-45bf-9e28-7c78bfcbb5c0"},"vehicle_type_id":"4","last_reported":1745587263,"current_range_meters":3600,"station_id":"","pricing_plan_id":"cebpf4jnsgd1na2vs0mg"},{"bike_id":"4f749393-01c0-42d5-a228-582333dab8d3","system_id":"levelo_inurba_marseille","lat":43.2508,"lon":5.39515,"is_reserved":false,"is_disabled":false,"rental_uris":{"android":"levelo://app?vid=4f749393-01c0-42d5-a228-582333dab8d3","ios":"levelo://app?vid=4f749393-01c0-42d5-a228-582333dab8d3"},"vehicle_type_id":"4","last_reported":1745587263,"current_range_meters":3600,"station_id":"ce4bhm12rcd13ifvqgkg","pricing_plan_id":"cebpf4jnsgd1na2vs0mg"},{"bike_id":"a4acedc4-5188-4b2a-befd-9fbf971c21de","system_id":"levelo_inurba_marseille","lat":43.22928,"lon":5.35372,"is_reserved":false,"is_disabled":false,"rental_uris":{"android":"levelo://app?vid=a4acedc4-5188-4b2a-befd-9fbf971c21de","ios":"levelo://app?vid=a4acedc4-5188-4b2a-befd-9fbf971c21de"},"vehicle_type_id":"4","last_reported":1745587263,"current_range_meters":4000,"station_id":"cpo3532slgdg3j2ikp40","pricing_plan_id":"cebpf4jnsgd1na2vs0mg"},{"bike_id":"4cacca39-59a3-46c3-86c3-7c580c2438d4","system_id":"levelo_inurba_marseille","lat":43.26212,"lon":5.37439,"is_reserved":false,"is_disabled":false,"rental_uris":{"android":"levelo://app?vid=4cacca39-59a3-46c3-86c3-7c580c2438d4","ios":"levelo://app?vid=4cacca39-59a3-46c3-86c3-7c580c2438d4"},"vehicle_type_id":"4","last_reported":1745587263,"current_range_meters":4000,"station_id":"ce4bhgp2rcd13ifvqfc0","pricing_plan_id":"cebpf4jnsgd1na2vs0mg"},{"bike_id":"67226af1-8b95-4a0f-8a7a-2610a7929764","system_id":"levelo_inurba_marseille","lat":43.23158,"lon":5.43712,"is_reserved":false,"is_disabled":false,"rental_uris":{"android":"levelo://app?vid=67226af1-8b95-4a0f-8a7a-2610a7929764","ios":"levelo://app?vid=67226af1-8b95-4a0f-8a7a-2610a7929764"},"vehicle_type_id":"4","last_reported":1745587263,"current_range_meters":4000,"station_id":"ce4bhmp2rcd13ifvqgog","pricing_plan_id":"cebpf4jnsgd1na2vs0mg"},{"bike_id":"e481adcb-bc71-4598-b873-6ef3f3f870da","system_id":"levelo_inurba_marseille","lat":43.29218,"lon":5.37376,"is_reserved":false,"is_disabled":false,"rental_uris":{"android":"levelo://app?vid=e481adcb-bc71-4598-b873-6ef3f3f870da","ios":"levelo://app?vid=e481adcb-bc71-4598-b873-6ef3f3f870da"},"vehicle_type_id":"4","last_reported":1745587263,"current_range_meters":4000,"station_id":"","pricing_plan_id":"cebpf4jnsgd1na2vs0mg"},{"bike_id":"4d474e16-16d5-46bb-9b98-b5af8ab1d5f4","system_id":"levelo_inurba_marseille","lat":43.26199,"lon":5.37451,"is_reserved":false,"is_disabled":false,"rental_uris":{"android":"levelo://app?vid=4d474e16-16d5-46bb-9b98-b5af8ab1d5f4","ios":"levelo://app?vid=4d474e16-16d5-46bb-9b98-b5af8ab1d5f4"},"vehicle_type_id":"4","last_reported":1745587263,"current_range_meters":4400,"station_id":"ce4bhgp2rcd13ifvqfc0","pricing_plan_id":"cebpf4jnsgd1na2vs0mg"},{"bike_id":"de84164d-1c5a-43bd-89d5-7d8a14ced7bf","system_id":"levelo_inurba_marseille","lat":43.27374,"lon":5.36254,"is_reserved":false,"is_disabled":false,"rental_uris":{"android":"levelo://app?vid=de84164d-1c5a-43bd-89d5-7d8a14ced7bf","ios":"levelo://app?vid=de84164d-1c5a-43bd-89d5-7d8a14ced7bf"},"vehicle_type_id":"4","last_reported":1745587263,"current_range_meters":4400,"station_id":"ce4bhbh2rcd13ifvqeo0","pricing_plan_id":"cebpf4jnsgd1na2vs0mg"},{"bike_id":"1b02d03c-b04b-4335-a3fb-1b34ad9dee9e","system_id":"levelo_inurba_marseille","lat":43.29003,"lon":5.35605,"is_reserved":false,"is_disabled":false,"rental_uris":{"android":"levelo://app?vid=1b02d03c-b04b-4335-a3fb-1b34ad9dee9e","ios":"levelo://app?vid=1b02d03c-b04b-4335-a3fb-1b34ad9dee9e"},"vehicle_type_id":"4","last_reported":1745587263,"current_range_meters":4400,"station_id":"ce4bhb92rcd13ifvqen0","pricing_plan_id":"cebpf4jnsgd1na2vs0mg"},{"bike_id":"1ad821f0-3398-42be-99e2-5422ff077661","system_id":"levelo_inurba_marseille","lat":43.309269,"lon":5.401346,"is_reserved":false,"is_disabled":true,"rental_uris":{"android":"levelo://app?vid=1ad821f0-3398-42be-99e2-5422ff077661","ios":"levelo://app?vid=1ad821f0-3398-42be-99e2-5422ff077661"},"vehicle_type_id":"4","last_reported":1745587263,"current_range_meters":4400,"station_id":"ce4bgvp2rcd13ifvqct0","pricing_plan_id":"cebpf4jnsgd1na2vs0mg"},{"bike_id":"68f5cf34-6787-4d95-b234-1ac82c72145b","system_id":"levelo_inurba_marseille","lat":43.26028,"lon":5.37549,"is_reserved":false,"is_disabled":false,"rental_uris":{"android":"levelo://app?vid=68f5cf34-6787-4d95-b234-1ac82c72145b","ios":"levelo://app?vid=68f5cf34-6787-4d95-b234-1ac82c72145b"},"vehicle_type_id":"4","last_reported":1745587263,"current_range_meters":4400,"station_id":"","pricing_plan_id":"cebpf4jnsgd1na2vs0mg"},{"bike_id":"fd265570-119b-4158-9264-8701f39090e6","system_id":"levelo_inurba_marseille","lat":43.29085,"lon":5.37145,"is_reserved":false,"is_disabled":true,"rental_uris":{"android":"levelo://app?vid=fd265570-119b-4158-9264-8701f39090e6","ios":"levelo://app?vid=fd265570-119b-4158-9264-8701f39090e6"},"vehicle_type_id":"4","last_reported":1745587263,"current_range_meters":4800,"station_id":"ce4bh5p2rcd13ifvqe4g","pricing_plan_id":"cebpf4jnsgd1na2vs0mg"},{"bike_id":"c2f023ff-582b-453c-a77f-7bcf99700453","system_id":"levelo_inurba_marseille","lat":43.24079,"lon":5.37747,"is_reserved":false,"is_disabled":false,"rental_uris":{"android":"levelo://app?vid=c2f023ff-582b-453c-a77f-7bcf99700453","ios":"levelo://app?vid=c2f023ff-582b-453c-a77f-7bcf99700453"},"vehicle_type_id":"4","last_reported":1745587263,"current_range_meters":4400,"station_id":"ce4bhnp2rcd13ifvqgvg","pricing_plan_id":"cebpf4jnsgd1na2vs0mg"},{"bike_id":"ef2dd97d-a1ad-4167-86f6-e4d7c9cab2e4","system_id":"levelo_inurba_marseille","lat":43.32737,"lon":5.39248,"is_reserved":false,"is_disabled":false,"rental_uris":{"android":"levelo://app?vid=ef2dd97d-a1ad-4167-86f6-e4d7c9cab2e4","ios":"levelo://app?vid=ef2dd97d-a1ad-4167-86f6-e4d7c9cab2e4"},"vehicle_type_id":"4","last_reported":1745587263,"current_range_meters":4800,"station_id":"","pricing_plan_id":"cebpf4jnsgd1na2vs0mg"},{"bike_id":"47c415eb-9c02-4094-bc4c-e5bc6add6cc6","system_id":"levelo_inurba_marseille","lat":43.21193,"lon":5.35063,"is_reserved":false,"is_disabled":false,"rental_uris":{"android":"levelo://app?vid=47c415eb-9c02-4094-bc4c-e5bc6add6cc6","ios":"levelo://app?vid=47c415eb-9c02-4094-bc4c-e5bc6add6cc6"},"vehicle_type_id":"4","last_reported":1745587263,"current_range_meters":4800,"station_id":"st_cvj6sg6p6f1abm77japg","pricing_plan_id":"cebpf4jnsgd1na2vs0mg"},{"bike_id":"77ef87d6-660a-4b36-b626-882b0d1adca0","system_id":"levelo_inurba_marseille","lat":43.26573,"lon":5.37282,"is_reserved":false,"is_disabled":false,"rental_uris":{"android":"levelo://app?vid=77ef87d6-660a-4b36-b626-882b0d1adca0","ios":"levelo://app?vid=77ef87d6-660a-4b36-b626-882b0d1adca0"},"vehicle_type_id":"4","last_reported":1745587263,"current_range_meters":4800,"station_id":"ce4bhg12rcd13ifvqf70","pricing_plan_id":"cebpf4jnsgd1na2vs0mg"},{"bike_id":"6f99535d-4291-4c4d-99f1-c22d0eb9e1f7","system_id":"levelo_inurba_marseille","lat":43.25931,"lon":5.40894,"is_reserved":false,"is_disabled":false,"rental_uris":{"android":"levelo://app?vid=6f99535d-4291-4c4d-99f1-c22d0eb9e1f7","ios":"levelo://app?vid=6f99535d-4291-4c4d-99f1-c22d0eb9e1f7"},"vehicle_type_id":"4","last_reported":1745587263,"current_range_meters":4800,"station_id":"ce4bhm92rcd13ifvqglg","pricing_plan_id":"cebpf4jnsgd1na2vs0mg"},{"bike_id":"1c442364-a3b8-40b6-9404-00cde11331d3","system_id":"levelo_inurba_marseille","lat":43.25926,"lon":5.40887,"is_reserved":false,"is_disabled":false,"rental_uris":{"android":"levelo://app?vid=1c442364-a3b8-40b6-9404-00cde11331d3","ios":"levelo://app?vid=1c442364-a3b8-40b6-9404-00cde11331d3"},"vehicle_type_id":"4","last_reported":1745587263,"current_range_meters":4800,"station_id":"ce4bhm92rcd13ifvqglg","pricing_plan_id":"cebpf4jnsgd1na2vs0mg"},{"bike_id":"9e59dc34-fbab-426d-afca-f4bcf2d8f64b","system_id":"levelo_inurba_marseille","lat":43.2886,"lon":5.35342,"is_reserved":false,"is_disabled":false,"rental_uris":{"android":"levelo://app?vid=9e59dc34-fbab-426d-afca-f4bcf2d8f64b","ios":"levelo://app?vid=9e59dc34-fbab-426d-afca-f4bcf2d8f64b"},"vehicle_type_id":"4","last_reported":1745587263,"current_range_meters":5600,"station_id":"","pricing_plan_id":"cebpf4jnsgd1na2vs0mg"},{"bike_id":"98635f2b-e15d-453d-a28b-b57fac4e7bb3","system_id":"levelo_inurba_marseille","lat":43.2843,"lon":5.34979,"is_reserved":false,"is_disabled":false,"rental_uris":{"android":"levelo://app?vid=98635f2b-e15d-453d-a28b-b57fac4e7bb3","ios":"levelo://app?vid=98635f2b-e15d-453d-a28b-b57fac4e7bb3"},"vehicle_type_id":"4","last_reported":1745587263,"current_range_meters":6000,"station_id":"ce4bhbh2rcd13ifvqepg","pricing_plan_id":"cebpf4jnsgd1na2vs0mg"},{"bike_id":"fb05f55e-9993-4058-8607-3e436aa41b49","system_id":"levelo_inurba_marseille","lat":43.28463,"lon":5.35884,"is_reserved":false,"is_disabled":false,"rental_uris":{"android":"levelo://app?vid=fb05f55e-9993-4058-8607-3e436aa41b49","ios":"levelo://app?vid=fb05f55e-9993-4058-8607-3e436aa41b49"},"vehicle_type_id":"4","last_reported":1745587263,"current_range_meters":6000,"station_id":"ce4bhah2rcd13ifvqei0","pricing_plan_id":"cebpf4jnsgd1na2vs0mg"},{"bike_id":"90c68caf-ab06-4de0-a5e7-58a6348a506d","system_id":"levelo_inurba_marseille","lat":43.29516,"lon":5.39397,"is_reserved":false,"is_disabled":false,"rental_uris":{"android":"levelo://app?vid=90c68caf-ab06-4de0-a5e7-58a6348a506d","ios":"levelo://app?vid=90c68caf-ab06-4de0-a5e7-58a6348a506d"},"vehicle_type_id":"4","last_reported":1745587263,"current_range_meters":6000,"station_id":"ce4bh292rcd13ifvqdf0","pricing_plan_id":"cebpf4jnsgd1na2vs0mg"},{"bike_id":"6c66f039-d14a-494e-a9cd-5a847cc10124","system_id":"levelo_inurba_marseille","lat":43.28008,"lon":5.40003,"is_reserved":false,"is_disabled":false,"rental_uris":{"android":"levelo://app?vid=6c66f039-d14a-494e-a9cd-5a847cc10124","ios":"levelo://app?vid=6c66f039-d14a-494e-a9cd-5a847cc10124"},"vehicle_type_id":"4","last_reported":1745587263,"current_range_meters":6000,"station_id":"ce4bho92rcd13ifvqh4g","pricing_plan_id":"cebpf4jnsgd1na2vs0mg"},{"bike_id":"3cce86e1-d252-4149-9337-ffb45f588c1b","system_id":"levelo_inurba_marseille","lat":43.3173,"lon":5.40425,"is_reserved":false,"is_disabled":false,"rental_uris":{"android":"levelo://app?vid=3cce86e1-d252-4149-9337-ffb45f588c1b","ios":"levelo://app?vid=3cce86e1-d252-4149-9337-ffb45f588c1b"},"vehicle_type_id":"4","last_reported":1745587263,"current_range_meters":6000,"station_id":"ce4bh012rcd13ifvqd00","pricing_plan_id":"cebpf4jnsgd1na2vs0mg"},{"bike_id":"afa10ca1-b787-4891-8a18-f9d395e25601","system_id":"levelo_inurba_marseille","lat":43.259265,"lon":5.40898,"is_reserved":false,"is_disabled":false,"rental_uris":{"android":"levelo://app?vid=afa10ca1-b787-4891-8a18-f9d395e25601","ios":"levelo://app?vid=afa10ca1-b787-4891-8a18-f9d395e25601"},"vehicle_type_id":"4","last_reported":1745587263,"current_range_meters":6000,"station_id":"ce4bhm92rcd13ifvqglg","pricing_plan_id":"cebpf4jnsgd1na2vs0mg"},{"bike_id":"5c6ae2ff-d6df-4ddc-bb74-e7b77c370c9b","system_id":"levelo_inurba_marseille","lat":43.28293,"lon":5.35055,"is_reserved":false,"is_disabled":false,"rental_uris":{"android":"levelo://app?vid=5c6ae2ff-d6df-4ddc-bb74-e7b77c370c9b","ios":"levelo://app?vid=5c6ae2ff-d6df-4ddc-bb74-e7b77c370c9b"},"vehicle_type_id":"4","last_reported":1745587263,"current_range_meters":6000,"station_id":"ce4bhbp2rcd13ifvqerg","pricing_plan_id":"cebpf4jnsgd1na2vs0mg"},{"bike_id":"ebd86740-c4a2-4d12-a9da-f8021c74921e","system_id":"levelo_inurba_marseille","lat":43.22505,"lon":5.34766,"is_reserved":false,"is_disabled":false,"rental_uris":{"android":"levelo://app?vid=ebd86740-c4a2-4d12-a9da-f8021c74921e","ios":"levelo://app?vid=ebd86740-c4a2-4d12-a9da-f8021c74921e"},"vehicle_type_id":"4","last_reported":1745587263,"current_range_meters":6000,"station_id":"st_cvj5dfep6f1abm77gieg","pricing_plan_id":"cebpf4jnsgd1na2vs0mg"},{"bike_id":"905d37ff-8522-4b8c-95d4-e932501759e3","system_id":"levelo_inurba_marseille","lat":43.28943,"lon":5.36407,"is_reserved":false,"is_disabled":false,"rental_uris":{"android":"levelo://app?vid=905d37ff-8522-4b8c-95d4-e932501759e3","ios":"levelo://app?vid=905d37ff-8522-4b8c-95d4-e932501759e3"},"vehicle_type_id":"4","last_reported":1745587263,"current_range_meters":6000,"station_id":"ce4bhc92rcd13ifvqetg","pricing_plan_id":"cebpf4jnsgd1na2vs0mg"},{"bike_id":"a717ebd8-9e67-42ca-9377-90b6733fcf62","system_id":"levelo_inurba_marseille","lat":43.211968,"lon":5.350669,"is_reserved":false,"is_disabled":false,"rental_uris":{"android":"levelo://app?vid=a717ebd8-9e67-42ca-9377-90b6733fcf62","ios":"levelo://app?vid=a717ebd8-9e67-42ca-9377-90b6733fcf62"},"vehicle_type_id":"4","last_reported":1745587263,"current_range_meters":6000,"station_id":"st_cvj6sg6p6f1abm77japg","pricing_plan_id":"cebpf4jnsgd1na2vs0mg"},{"bike_id":"ad3c94e1-8391-4efe-af05-1c04ab10781e","system_id":"levelo_inurba_marseille","lat":43.30887,"lon":5.39655,"is_reserved":false,"is_disabled":false,"rental_uris":{"android":"levelo://app?vid=ad3c94e1-8391-4efe-af05-1c04ab10781e","ios":"levelo://app?vid=ad3c94e1-8391-4efe-af05-1c04ab10781e"},"vehicle_type_id":"4","last_reported":1745587263,"current_range_meters":6400,"station_id":"ce4bh012rcd13ifvqcv0","pricing_plan_id":"cebpf4jnsgd1na2vs0mg"},{"bike_id":"0baf0519-4f74-4b8b-811a-d2c3bceba98e","system_id":"levelo_inurba_marseille","lat":43.26936,"lon":5.38932,"is_reserved":false,"is_disabled":false,"rental_uris":{"android":"levelo://app?vid=0baf0519-4f74-4b8b-811a-d2c3bceba98e","ios":"levelo://app?vid=0baf0519-4f74-4b8b-811a-d2c3bceba98e"},"vehicle_type_id":"4","last_reported":1745587263,"current_range_meters":6400,"station_id":"ce4bhhh2rcd13ifvqfl0","pricing_plan_id":"cebpf4jnsgd1na2vs0mg"},{"bike_id":"141535cf-fb3b-46b7-aef5-8d6d20a2c722","system_id":"levelo_inurba_marseille","lat":43.28104,"lon":5.37812,"is_reserved":false,"is_disabled":false,"rental_uris":{"android":"levelo://app?vid=141535cf-fb3b-46b7-aef5-8d6d20a2c722","ios":"levelo://app?vid=141535cf-fb3b-46b7-aef5-8d6d20a2c722"},"vehicle_type_id":"4","last_reported":1745587263,"current_range_meters":6400,"station_id":"ce4bha12rcd13ifvqee0","pricing_plan_id":"cebpf4jnsgd1na2vs0mg"},{"bike_id":"85c8d836-a68b-4365-ad32-9e06d4a4ef2a","system_id":"levelo_inurba_marseille","lat":43.29093,"lon":5.38121,"is_reserved":false,"is_disabled":false,"rental_uris":{"android":"levelo://app?vid=85c8d836-a68b-4365-ad32-9e06d4a4ef2a","ios":"levelo://app?vid=85c8d836-a68b-4365-ad32-9e06d4a4ef2a"},"vehicle_type_id":"4","last_reported":1745587263,"current_range_meters":6800,"station_id":"ce4bh512rcd13ifvqe2g","pricing_plan_id":"cebpf4jnsgd1na2vs0mg"},{"bike_id":"1a69caa3-ebfd-407e-9683-528788ef2d0c","system_id":"levelo_inurba_marseille","lat":43.2996,"lon":5.41319,"is_reserved":false,"is_disabled":false,"rental_uris":{"android":"levelo://app?vid=1a69caa3-ebfd-407e-9683-528788ef2d0c","ios":"levelo://app?vid=1a69caa3-ebfd-407e-9683-528788ef2d0c"},"vehicle_type_id":"4","last_reported":1745587263,"current_range_meters":6800,"station_id":"ce4bhp12rcd13ifvqh9g","pricing_plan_id":"cebpf4jnsgd1na2vs0mg"},{"bike_id":"88337da4-0cfd-402f-bd5f-d6baf873e3ca","system_id":"levelo_inurba_marseille","lat":43.27365,"lon":5.3625,"is_reserved":false,"is_disabled":false,"rental_uris":{"android":"levelo://app?vid=88337da4-0cfd-402f-bd5f-d6baf873e3ca","ios":"levelo://app?vid=88337da4-0cfd-402f-bd5f-d6baf873e3ca"},"vehicle_type_id":"4","last_reported":1745587263,"current_range_meters":6800,"station_id":"ce4bhbh2rcd13ifvqeo0","pricing_plan_id":"cebpf4jnsgd1na2vs0mg"},{"bike_id":"32771a64-5221-4494-8ef6-eb8da4a5d22b","system_id":"levelo_inurba_marseille","lat":43.28884,"lon":5.35355,"is_reserved":false,"is_disabled":false,"rental_uris":{"android":"levelo://app?vid=32771a64-5221-4494-8ef6-eb8da4a5d22b","ios":"levelo://app?vid=32771a64-5221-4494-8ef6-eb8da4a5d22b"},"vehicle_type_id":"4","last_reported":1745587263,"current_range_meters":6800,"station_id":"","pricing_plan_id":"cebpf4jnsgd1na2vs0mg"},{"bike_id":"9d16ad86-9ee6-430b-bde1-d7870d768403","system_id":"levelo_inurba_marseille","lat":43.2594,"lon":5.40898,"is_reserved":false,"is_disabled":false,"rental_uris":{"android":"levelo://app?vid=9d16ad86-9ee6-430b-bde1-d7870d768403","ios":"levelo://app?vid=9d16ad86-9ee6-430b-bde1-d7870d768403"},"vehicle_type_id":"4","last_reported":1745587263,"current_range_meters":6800,"station_id":"ce4bhm92rcd13ifvqglg","pricing_plan_id":"cebpf4jnsgd1na2vs0mg"},{"bike_id":"f587b1ad-8767-42fd-bb98-bdf1bb330f9a","system_id":"levelo_inurba_marseille","lat":43.32385,"lon":5.42079,"is_reserved":false,"is_disabled":false,"rental_uris":{"android":"levelo://app?vid=f587b1ad-8767-42fd-bb98-bdf1bb330f9a","ios":"levelo://app?vid=f587b1ad-8767-42fd-bb98-bdf1bb330f9a"},"vehicle_type_id":"4","last_reported":1745587263,"current_range_meters":6800,"station_id":"","pricing_plan_id":"cebpf4jnsgd1na2vs0mg"},{"bike_id":"17ba261c-0d4e-428a-8272-9057c651d980","system_id":"levelo_inurba_marseille","lat":43.27368,"lon":5.36245,"is_reserved":false,"is_disabled":false,"rental_uris":{"android":"levelo://app?vid=17ba261c-0d4e-428a-8272-9057c651d980","ios":"levelo://app?vid=17ba261c-0d4e-428a-8272-9057c651d980"},"vehicle_type_id":"4","last_reported":1745587263,"current_range_meters":6800,"station_id":"ce4bhbh2rcd13ifvqeo0","pricing_plan_id":"cebpf4jnsgd1na2vs0mg"},{"bike_id":"46374c49-3adc-4c5a-8966-e00f056c0d57","system_id":"levelo_inurba_marseille","lat":43.27846,"lon":5.35442,"is_reserved":false,"is_disabled":false,"rental_uris":{"android":"levelo://app?vid=46374c49-3adc-4c5a-8966-e00f056c0d57","ios":"levelo://app?vid=46374c49-3adc-4c5a-8966-e00f056c0d57"},"vehicle_type_id":"4","last_reported":1745587263,"current_range_meters":7200,"station_id":"","pricing_plan_id":"cebpf4jnsgd1na2vs0mg"},{"bike_id":"b0e1c58b-c95e-4430-92df-06546213bcda","system_id":"levelo_inurba_marseille","lat":43.3078,"lon":5.37642,"is_reserved":false,"is_disabled":false,"rental_uris":{"android":"levelo://app?vid=b0e1c58b-c95e-4430-92df-06546213bcda","ios":"levelo://app?vid=b0e1c58b-c95e-4430-92df-06546213bcda"},"vehicle_type_id":"4","last_reported":1745587263,"current_range_meters":7200,"station_id":"","pricing_plan_id":"cebpf4jnsgd1na2vs0mg"},{"bike_id":"60a983a0-3a77-4501-a833-b71ac54833d6","system_id":"levelo_inurba_marseille","lat":43.23188,"lon":5.39972,"is_reserved":false,"is_disabled":false,"rental_uris":{"android":"levelo://app?vid=60a983a0-3a77-4501-a833-b71ac54833d6","ios":"levelo://app?vid=60a983a0-3a77-4501-a833-b71ac54833d6"},"vehicle_type_id":"4","last_reported":1745587263,"current_range_meters":7200,"station_id":"ce4bhn12rcd13ifvqgqg","pricing_plan_id":"cebpf4jnsgd1na2vs0mg"},{"bike_id":"98182166-4fcb-4dc0-9c52-de1b349f298b","system_id":"levelo_inurba_marseille","lat":43.28713,"lon":5.39991,"is_reserved":false,"is_disabled":true,"rental_uris":{"android":"levelo://app?vid=98182166-4fcb-4dc0-9c52-de1b349f298b","ios":"levelo://app?vid=98182166-4fcb-4dc0-9c52-de1b349f298b"},"vehicle_type_id":"4","last_reported":1745587263,"current_range_meters":7200,"station_id":"ce4bho92rcd13ifvqh3g","pricing_plan_id":"cebpf4jnsgd1na2vs0mg"},{"bike_id":"acab637f-3c6c-433e-a24e-6c5a7a65f7a1","system_id":"levelo_inurba_marseille","lat":43.23192,"lon":5.35542,"is_reserved":false,"is_disabled":false,"rental_uris":{"android":"levelo://app?vid=acab637f-3c6c-433e-a24e-6c5a7a65f7a1","ios":"levelo://app?vid=acab637f-3c6c-433e-a24e-6c5a7a65f7a1"},"vehicle_type_id":"4","last_reported":1745587263,"current_range_meters":8000,"station_id":"ce4bhu92rcd13ifvqi70","pricing_plan_id":"cebpf4jnsgd1na2vs0mg"},{"bike_id":"cf346748-4d28-45cd-afc7-313a9634cfb9","system_id":"levelo_inurba_marseille","lat":43.28714,"lon":5.3794,"is_reserved":false,"is_disabled":false,"rental_uris":{"android":"levelo://app?vid=cf346748-4d28-45cd-afc7-313a9634cfb9","ios":"levelo://app?vid=cf346748-4d28-45cd-afc7-313a9634cfb9"},"vehicle_type_id":"4","last_reported":1745587263,"current_range_meters":8000,"station_id":"ce4bh9p2rcd13ifvqec0","pricing_plan_id":"cebpf4jnsgd1na2vs0mg"},{"bike_id":"18581b79-962f-43e4-a54b-3d0fb1dd5daf","system_id":"levelo_inurba_marseille","lat":43.23143,"lon":5.43719,"is_reserved":false,"is_disabled":false,"rental_uris":{"android":"levelo://app?vid=18581b79-962f-43e4-a54b-3d0fb1dd5daf","ios":"levelo://app?vid=18581b79-962f-43e4-a54b-3d0fb1dd5daf"},"vehicle_type_id":"4","last_reported":1745587263,"current_range_meters":8000,"station_id":"ce4bhmp2rcd13ifvqgog","pricing_plan_id":"cebpf4jnsgd1na2vs0mg"},{"bike_id":"fa08c917-15f0-46bf-9b4b-3ce0e752e62f","system_id":"levelo_inurba_marseille","lat":43.33444,"lon":5.40029,"is_reserved":false,"is_disabled":false,"rental_uris":{"android":"levelo://app?vid=fa08c917-15f0-46bf-9b4b-3ce0e752e62f","ios":"levelo://app?vid=fa08c917-15f0-46bf-9b4b-3ce0e752e62f"},"vehicle_type_id":"4","last_reported":1745587263,"current_range_meters":8000,"station_id":"","pricing_plan_id":"cebpf4jnsgd1na2vs0mg"},{"bike_id":"491b9db1-b36c-4511-81fd-9abc7a06a608","system_id":"levelo_inurba_marseille","lat":43.23193,"lon":5.35554,"is_reserved":false,"is_disabled":false,"rental_uris":{"android":"levelo://app?vid=491b9db1-b36c-4511-81fd-9abc7a06a608","ios":"levelo://app?vid=491b9db1-b36c-4511-81fd-9abc7a06a608"},"vehicle_type_id":"4","last_reported":1745587263,"current_range_meters":8000,"station_id":"ce4bhu92rcd13ifvqi70","pricing_plan_id":"cebpf4jnsgd1na2vs0mg"},{"bike_id":"d730a8c7-6426-4831-a0c3-4d3c533f699c","system_id":"levelo_inurba_marseille","lat":43.28663,"lon":5.38663,"is_reserved":false,"is_disabled":false,"rental_uris":{"android":"levelo://app?vid=d730a8c7-6426-4831-a0c3-4d3c533f699c","ios":"levelo://app?vid=d730a8c7-6426-4831-a0c3-4d3c533f699c"},"vehicle_type_id":"4","last_reported":1745587263,"current_range_meters":8000,"station_id":"ce4bh492rcd13ifvqdug","pricing_plan_id":"cebpf4jnsgd1na2vs0mg"},{"bike_id":"cecaf347-4e50-4112-93ee-a1d90ee67d47","system_id":"levelo_inurba_marseille","lat":43.28612,"lon":5.35099,"is_reserved":false,"is_disabled":false,"rental_uris":{"android":"levelo://app?vid=cecaf347-4e50-4112-93ee-a1d90ee67d47","ios":"levelo://app?vid=cecaf347-4e50-4112-93ee-a1d90ee67d47"},"vehicle_type_id":"4","last_reported":1745587263,"current_range_meters":8000,"station_id":"ce4bhch2rcd13ifvqeug","pricing_plan_id":"cebpf4jnsgd1na2vs0mg"},{"bike_id":"e37d2043-fda4-4ca9-82bb-acc41a83b731","system_id":"levelo_inurba_marseille","lat":43.2175,"lon":5.34589,"is_reserved":false,"is_disabled":false,"rental_uris":{"android":"levelo://app?vid=e37d2043-fda4-4ca9-82bb-acc41a83b731","ios":"levelo://app?vid=e37d2043-fda4-4ca9-82bb-acc41a83b731"},"vehicle_type_id":"4","last_reported":1745587263,"current_range_meters":8400,"station_id":"st_cvj6r9ubvosntc0bgbag","pricing_plan_id":"cebpf4jnsgd1na2vs0mg"},{"bike_id":"f61f9b03-e055-47b7-9cda-da22b923ec7e","system_id":"levelo_inurba_marseille","lat":43.25928,"lon":5.40884,"is_reserved":false,"is_disabled":false,"rental_uris":{"android":"levelo://app?vid=f61f9b03-e055-47b7-9cda-da22b923ec7e","ios":"levelo://app?vid=f61f9b03-e055-47b7-9cda-da22b923ec7e"},"vehicle_type_id":"4","last_reported":1745587263,"current_range_meters":8400,"station_id":"ce4bhm92rcd13ifvqglg","pricing_plan_id":"cebpf4jnsgd1na2vs0mg"},{"bike_id":"60ee52f6-3432-4a14-b3b4-c3acf981d864","system_id":"levelo_inurba_marseille","lat":43.21759,"lon":5.34591,"is_reserved":false,"is_disabled":false,"rental_uris":{"android":"levelo://app?vid=60ee52f6-3432-4a14-b3b4-c3acf981d864","ios":"levelo://app?vid=60ee52f6-3432-4a14-b3b4-c3acf981d864"},"vehicle_type_id":"4","last_reported":1745587263,"current_range_meters":8400,"station_id":"st_cvj6r9ubvosntc0bgbag","pricing_plan_id":"cebpf4jnsgd1na2vs0mg"},{"bike_id":"d54ef0f7-9ac7-4dc7-af22-0d437d9b8e0b","system_id":"levelo_inurba_marseille","lat":43.2119,"lon":5.35071,"is_reserved":false,"is_disabled":false,"rental_uris":{"android":"levelo://app?vid=d54ef0f7-9ac7-4dc7-af22-0d437d9b8e0b","ios":"levelo://app?vid=d54ef0f7-9ac7-4dc7-af22-0d437d9b8e0b"},"vehicle_type_id":"4","last_reported":1745587263,"current_range_meters":8400,"station_id":"st_cvj6sg6p6f1abm77japg","pricing_plan_id":"cebpf4jnsgd1na2vs0mg"},{"bike_id":"1af6009a-abf9-46df-a0fc-8ef0d9790a83","system_id":"levelo_inurba_marseille","lat":43.24169,"lon":5.3971,"is_reserved":false,"is_disabled":false,"rental_uris":{"android":"levelo://app?vid=1af6009a-abf9-46df-a0fc-8ef0d9790a83","ios":"levelo://app?vid=1af6009a-abf9-46df-a0fc-8ef0d9790a83"},"vehicle_type_id":"4","last_reported":1745587263,"current_range_meters":8400,"station_id":"ce4bhn12rcd13ifvqgpg","pricing_plan_id":"cebpf4jnsgd1na2vs0mg"},{"bike_id":"1fc916f1-3923-4347-bd04-e452e3b714dc","system_id":"levelo_inurba_marseille","lat":43.27377,"lon":5.36262,"is_reserved":false,"is_disabled":false,"rental_uris":{"android":"levelo://app?vid=1fc916f1-3923-4347-bd04-e452e3b714dc","ios":"levelo://app?vid=1fc916f1-3923-4347-bd04-e452e3b714dc"},"vehicle_type_id":"4","last_reported":1745587263,"current_range_meters":8400,"station_id":"ce4bhbh2rcd13ifvqeo0","pricing_plan_id":"cebpf4jnsgd1na2vs0mg"},{"bike_id":"ac89ab96-7aca-4245-a8f5-ef4e9abd7f93","system_id":"levelo_inurba_marseille","lat":43.23126,"lon":5.43733,"is_reserved":false,"is_disabled":false,"rental_uris":{"android":"levelo://app?vid=ac89ab96-7aca-4245-a8f5-ef4e9abd7f93","ios":"levelo://app?vid=ac89ab96-7aca-4245-a8f5-ef4e9abd7f93"},"vehicle_type_id":"4","last_reported":1745587263,"current_range_meters":8800,"station_id":"ce4bhmp2rcd13ifvqgog","pricing_plan_id":"cebpf4jnsgd1na2vs0mg"},{"bike_id":"ab49b0ae-90ee-4214-bbd8-e0867a6763e8","system_id":"levelo_inurba_marseille","lat":43.31255,"lon":5.37167,"is_reserved":false,"is_disabled":false,"rental_uris":{"android":"levelo://app?vid=ab49b0ae-90ee-4214-bbd8-e0867a6763e8","ios":"levelo://app?vid=ab49b0ae-90ee-4214-bbd8-e0867a6763e8"},"vehicle_type_id":"4","last_reported":1745587263,"current_range_meters":8800,"station_id":"","pricing_plan_id":"cebpf4jnsgd1na2vs0mg"},{"bike_id":"e52b8da7-98f9-4e55-a025-10dea4c1f453","system_id":"levelo_inurba_marseille","lat":43.25926,"lon":5.40931,"is_reserved":false,"is_disabled":false,"rental_uris":{"android":"levelo://app?vid=e52b8da7-98f9-4e55-a025-10dea4c1f453","ios":"levelo://app?vid=e52b8da7-98f9-4e55-a025-10dea4c1f453"},"vehicle_type_id":"4","last_reported":1745587263,"current_range_meters":8800,"station_id":"ce4bhm92rcd13ifvqglg","pricing_plan_id":"cebpf4jnsgd1na2vs0mg"},{"bike_id":"0dea2de9-ec8d-4972-8506-246d7692affb","system_id":"levelo_inurba_marseille","lat":43.27207,"lon":5.39178,"is_reserved":false,"is_disabled":false,"rental_uris":{"android":"levelo://app?vid=0dea2de9-ec8d-4972-8506-246d7692affb","ios":"levelo://app?vid=0dea2de9-ec8d-4972-8506-246d7692affb"},"vehicle_type_id":"4","last_reported":1745587263,"current_range_meters":8800,"station_id":"ce4bhhp2rcd13ifvqfm0","pricing_plan_id":"cebpf4jnsgd1na2vs0mg"},{"bike_id":"8a77ee29-81af-49a1-b6ad-1972af0a1f58","system_id":"levelo_inurba_marseille","lat":43.26033,"lon":5.37543,"is_reserved":false,"is_disabled":false,"rental_uris":{"android":"levelo://app?vid=8a77ee29-81af-49a1-b6ad-1972af0a1f58","ios":"levelo://app?vid=8a77ee29-81af-49a1-b6ad-1972af0a1f58"},"vehicle_type_id":"4","last_reported":1745587263,"current_range_meters":8800,"station_id":"ce4bhgh2rcd13ifvqfa0","pricing_plan_id":"cebpf4jnsgd1na2vs0mg"},{"bike_id":"1c762556-d1a5-47cf-8b55-79517f258d48","system_id":"levelo_inurba_marseille","lat":43.21187,"lon":5.35083,"is_reserved":false,"is_disabled":false,"rental_uris":{"android":"levelo://app?vid=1c762556-d1a5-47cf-8b55-79517f258d48","ios":"levelo://app?vid=1c762556-d1a5-47cf-8b55-79517f258d48"},"vehicle_type_id":"4","last_reported":1745587263,"current_range_meters":8800,"station_id":"st_cvj6sg6p6f1abm77japg","pricing_plan_id":"cebpf4jnsgd1na2vs0mg"},{"bike_id":"cfa34a75-efec-4eb8-a020-77feca0ad5e2","system_id":"levelo_inurba_marseille","lat":43.21191,"lon":5.35084,"is_reserved":false,"is_disabled":false,"rental_uris":{"android":"levelo://app?vid=cfa34a75-efec-4eb8-a020-77feca0ad5e2","ios":"levelo://app?vid=cfa34a75-efec-4eb8-a020-77feca0ad5e2"},"vehicle_type_id":"4","last_reported":1745587263,"current_range_meters":9200,"station_id":"st_cvj6sg6p6f1abm77japg","pricing_plan_id":"cebpf4jnsgd1na2vs0mg"},{"bike_id":"a6cfe6b2-f989-4428-aa39-c9365dd84f3f","system_id":"levelo_inurba_marseille","lat":43.27665,"lon":5.38872,"is_reserved":false,"is_disabled":false,"rental_uris":{"android":"levelo://app?vid=a6cfe6b2-f989-4428-aa39-c9365dd84f3f","ios":"levelo://app?vid=a6cfe6b2-f989-4428-aa39-c9365dd84f3f"},"vehicle_type_id":"4","last_reported":1745587263,"current_range_meters":9200,"station_id":"ce4bhi12rcd13ifvqfo0","pricing_plan_id":"cebpf4jnsgd1na2vs0mg"},{"bike_id":"ebde9bad-8a06-4c8c-ab7c-5b19ef9d32a6","system_id":"levelo_inurba_marseille","lat":43.289999,"lon":5.355782,"is_reserved":false,"is_disabled":false,"rental_uris":{"android":"levelo://app?vid=ebde9bad-8a06-4c8c-ab7c-5b19ef9d32a6","ios":"levelo://app?vid=ebde9bad-8a06-4c8c-ab7c-5b19ef9d32a6"},"vehicle_type_id":"4","last_reported":1745587263,"current_range_meters":8800,"station_id":"ce4bh0h2rcd13ifvqd50","pricing_plan_id":"cebpf4jnsgd1na2vs0mg"},{"bike_id":"d024718e-7ee5-4368-8955-4a2c9032ac75","system_id":"levelo_inurba_marseille","lat":43.21197,"lon":5.350557,"is_reserved":false,"is_disabled":false,"rental_uris":{"android":"levelo://app?vid=d024718e-7ee5-4368-8955-4a2c9032ac75","ios":"levelo://app?vid=d024718e-7ee5-4368-8955-4a2c9032ac75"},"vehicle_type_id":"4","last_reported":1745587263,"current_range_meters":9200,"station_id":"st_cvj6sg6p6f1abm77japg","pricing_plan_id":"cebpf4jnsgd1na2vs0mg"},{"bike_id":"c99b408f-791e-4c86-8d39-ff107f96efab","system_id":"levelo_inurba_marseille","lat":43.30948,"lon":5.36821,"is_reserved":false,"is_disabled":false,"rental_uris":{"android":"levelo://app?vid=c99b408f-791e-4c86-8d39-ff107f96efab","ios":"levelo://app?vid=c99b408f-791e-4c86-8d39-ff107f96efab"},"vehicle_type_id":"4","last_reported":1745587263,"current_range_meters":9200,"station_id":"ce4bgn92rcd13ifvqbvg","pricing_plan_id":"cebpf4jnsgd1na2vs0mg"},{"bike_id":"3467eafa-3bcd-4ef5-8ccd-2e7b7d57e159","system_id":"levelo_inurba_marseille","lat":43.28104,"lon":5.37851,"is_reserved":false,"is_disabled":false,"rental_uris":{"android":"levelo://app?vid=3467eafa-3bcd-4ef5-8ccd-2e7b7d57e159","ios":"levelo://app?vid=3467eafa-3bcd-4ef5-8ccd-2e7b7d57e159"},"vehicle_type_id":"4","last_reported":1745587263,"current_range_meters":8800,"station_id":"ce4bha12rcd13ifvqee0","pricing_plan_id":"cebpf4jnsgd1na2vs0mg"},{"bike_id":"217568d3-89ef-4d5c-bfd0-0237f556cf99","system_id":"levelo_inurba_marseille","lat":43.31236,"lon":5.36855,"is_reserved":false,"is_disabled":false,"rental_uris":{"android":"levelo://app?vid=217568d3-89ef-4d5c-bfd0-0237f556cf99","ios":"levelo://app?vid=217568d3-89ef-4d5c-bfd0-0237f556cf99"},"vehicle_type_id":"4","last_reported":1745587263,"current_range_meters":9200,"station_id":"ce4bgl92rcd13ifvqbq0","pricing_plan_id":"cebpf4jnsgd1na2vs0mg"},{"bike_id":"3fea2e24-70fa-4cae-849c-73acd09533f2","system_id":"levelo_inurba_marseille","lat":43.27497,"lon":5.42436,"is_reserved":false,"is_disabled":false,"rental_uris":{"android":"levelo://app?vid=3fea2e24-70fa-4cae-849c-73acd09533f2","ios":"levelo://app?vid=3fea2e24-70fa-4cae-849c-73acd09533f2"},"vehicle_type_id":"4","last_reported":1745587263,"current_range_meters":9200,"station_id":"ce4bhn92rcd13ifvqgrg","pricing_plan_id":"cebpf4jnsgd1na2vs0mg"},{"bike_id":"bcde3a77-f9c9-48b7-8b13-643a2426b61d","system_id":"levelo_inurba_marseille","lat":43.240417,"lon":5.377558,"is_reserved":false,"is_disabled":false,"rental_uris":{"android":"levelo://app?vid=bcde3a77-f9c9-48b7-8b13-643a2426b61d","ios":"levelo://app?vid=bcde3a77-f9c9-48b7-8b13-643a2426b61d"},"vehicle_type_id":"4","last_reported":1745587263,"current_range_meters":9600,"station_id":"ce4bhah2rcd13ifvqei0","pricing_plan_id":"cebpf4jnsgd1na2vs0mg"},{"bike_id":"1f84db26-9ab9-4587-9fe1-7eddd6ba7796","system_id":"levelo_inurba_marseille","lat":43.30435,"lon":5.380819,"is_reserved":false,"is_disabled":false,"rental_uris":{"android":"levelo://app?vid=1f84db26-9ab9-4587-9fe1-7eddd6ba7796","ios":"levelo://app?vid=1f84db26-9ab9-4587-9fe1-7eddd6ba7796"},"vehicle_type_id":"4","last_reported":1745587263,"current_range_meters":9600,"station_id":"ce4bhp92rcd13ifvqhbg","pricing_plan_id":"cebpf4jnsgd1na2vs0mg"},{"bike_id":"99d625bd-153a-466a-8599-2967def64b4c","system_id":"levelo_inurba_marseille","lat":43.306495,"lon":5.400989,"is_reserved":false,"is_disabled":false,"rental_uris":{"android":"levelo://app?vid=99d625bd-153a-466a-8599-2967def64b4c","ios":"levelo://app?vid=99d625bd-153a-466a-8599-2967def64b4c"},"vehicle_type_id":"4","last_reported":1745587263,"current_range_meters":9600,"station_id":"ce4bh112rcd13ifvqda0","pricing_plan_id":"cebpf4jnsgd1na2vs0mg"},{"bike_id":"1838670f-0291-4d3d-bd4e-da0afcb3ab89","system_id":"levelo_inurba_marseille","lat":43.23162,"lon":5.43691,"is_reserved":false,"is_disabled":false,"rental_uris":{"android":"levelo://app?vid=1838670f-0291-4d3d-bd4e-da0afcb3ab89","ios":"levelo://app?vid=1838670f-0291-4d3d-bd4e-da0afcb3ab89"},"vehicle_type_id":"4","last_reported":1745587263,"current_range_meters":9600,"station_id":"ce4bhmp2rcd13ifvqgog","pricing_plan_id":"cebpf4jnsgd1na2vs0mg"},{"bike_id":"0cf2246e-6e2d-4a40-9256-5ce12127940a","system_id":"levelo_inurba_marseille","lat":43.24179,"lon":5.36382,"is_reserved":false,"is_disabled":false,"rental_uris":{"android":"levelo://app?vid=0cf2246e-6e2d-4a40-9256-5ce12127940a","ios":"levelo://app?vid=0cf2246e-6e2d-4a40-9256-5ce12127940a"},"vehicle_type_id":"4","last_reported":1745587263,"current_range_meters":9600,"station_id":"cpo36qri1sfpv3e86is0","pricing_plan_id":"cebpf4jnsgd1na2vs0mg"},{"bike_id":"20f43bed-cd6c-4e3e-b47b-055df6184bb1","system_id":"levelo_inurba_marseille","lat":43.28255,"lon":5.35065,"is_reserved":false,"is_disabled":false,"rental_uris":{"android":"levelo://app?vid=20f43bed-cd6c-4e3e-b47b-055df6184bb1","ios":"levelo://app?vid=20f43bed-cd6c-4e3e-b47b-055df6184bb1"},"vehicle_type_id":"4","last_reported":1745587263,"current_range_meters":9600,"station_id":"ce4bhbp2rcd13ifvqerg","pricing_plan_id":"cebpf4jnsgd1na2vs0mg"},{"bike_id":"6c1bdcee-5a0c-45f1-b9ac-95f67c6df192","system_id":"levelo_inurba_marseille","lat":43.32289,"lon":5.38263,"is_reserved":false,"is_disabled":false,"rental_uris":{"android":"levelo://app?vid=6c1bdcee-5a0c-45f1-b9ac-95f67c6df192","ios":"levelo://app?vid=6c1bdcee-5a0c-45f1-b9ac-95f67c6df192"},"vehicle_type_id":"4","last_reported":1745587263,"current_range_meters":10000,"station_id":"ce4bhr12rcd13ifvqhqg","pricing_plan_id":"cebpf4jnsgd1na2vs0mg"},{"bike_id":"ed8f15c7-5245-4e77-81cd-42319ae7bdcc","system_id":"levelo_inurba_marseille","lat":43.26212,"lon":5.37443,"is_reserved":false,"is_disabled":false,"rental_uris":{"android":"levelo://app?vid=ed8f15c7-5245-4e77-81cd-42319ae7bdcc","ios":"levelo://app?vid=ed8f15c7-5245-4e77-81cd-42319ae7bdcc"},"vehicle_type_id":"4","last_reported":1745587263,"current_range_meters":10000,"station_id":"ce4bhgp2rcd13ifvqfc0","pricing_plan_id":"cebpf4jnsgd1na2vs0mg"},{"bike_id":"5155b214-8852-41cd-9338-874fb2bc45ae","system_id":"levelo_inurba_marseille","lat":43.28018,"lon":5.35631,"is_reserved":false,"is_disabled":false,"rental_uris":{"android":"levelo://app?vid=5155b214-8852-41cd-9338-874fb2bc45ae","ios":"levelo://app?vid=5155b214-8852-41cd-9338-874fb2bc45ae"},"vehicle_type_id":"4","last_reported":1745587263,"current_range_meters":10000,"station_id":"","pricing_plan_id":"cebpf4jnsgd1na2vs0mg"},{"bike_id":"a3388aa2-163e-4de8-ba10-07a60e91e484","system_id":"levelo_inurba_marseille","lat":43.31757,"lon":5.39009,"is_reserved":false,"is_disabled":false,"rental_uris":{"android":"levelo://app?vid=a3388aa2-163e-4de8-ba10-07a60e91e484","ios":"levelo://app?vid=a3388aa2-163e-4de8-ba10-07a60e91e484"},"vehicle_type_id":"4","last_reported":1745587263,"current_range_meters":10000,"station_id":"ce4bhqp2rcd13ifvqhng","pricing_plan_id":"cebpf4jnsgd1na2vs0mg"},{"bike_id":"8355c8aa-44a5-433b-9ca9-c755641aadf5","system_id":"levelo_inurba_marseille","lat":43.29008,"lon":5.35608,"is_reserved":false,"is_disabled":false,"rental_uris":{"android":"levelo://app?vid=8355c8aa-44a5-433b-9ca9-c755641aadf5","ios":"levelo://app?vid=8355c8aa-44a5-433b-9ca9-c755641aadf5"},"vehicle_type_id":"4","last_reported":1745587263,"current_range_meters":10000,"station_id":"ce4bhb92rcd13ifvqen0","pricing_plan_id":"cebpf4jnsgd1na2vs0mg"},{"bike_id":"2d0978c2-618b-40a0-bce3-92b8e862ef7b","system_id":"levelo_inurba_marseille","lat":43.23153,"lon":5.43702,"is_reserved":false,"is_disabled":false,"rental_uris":{"android":"levelo://app?vid=2d0978c2-618b-40a0-bce3-92b8e862ef7b","ios":"levelo://app?vid=2d0978c2-618b-40a0-bce3-92b8e862ef7b"},"vehicle_type_id":"4","last_reported":1745587263,"current_range_meters":10000,"station_id":"ce4bhmp2rcd13ifvqgog","pricing_plan_id":"cebpf4jnsgd1na2vs0mg"},{"bike_id":"4b81d817-609e-42bb-8f5a-a4da8735e598","system_id":"levelo_inurba_marseille","lat":43.273735,"lon":5.362525,"is_reserved":false,"is_disabled":false,"rental_uris":{"android":"levelo://app?vid=4b81d817-609e-42bb-8f5a-a4da8735e598","ios":"levelo://app?vid=4b81d817-609e-42bb-8f5a-a4da8735e598"},"vehicle_type_id":"4","last_reported":1745587263,"current_range_meters":10000,"station_id":"ce4bhbh2rcd13ifvqeo0","pricing_plan_id":"cebpf4jnsgd1na2vs0mg"},{"bike_id":"5263f69f-42d8-471a-80e0-56635bdbae11","system_id":"levelo_inurba_marseille","lat":43.29781,"lon":5.39326,"is_reserved":false,"is_disabled":false,"rental_uris":{"android":"levelo://app?vid=5263f69f-42d8-471a-80e0-56635bdbae11","ios":"levelo://app?vid=5263f69f-42d8-471a-80e0-56635bdbae11"},"vehicle_type_id":"4","last_reported":1745587263,"current_range_meters":10800,"station_id":"chh1huq6cuj3fo74tm60","pricing_plan_id":"cebpf4jnsgd1na2vs0mg"},{"bike_id":"b6250fea-78b8-4af3-8f5c-d0683bc109da","system_id":"levelo_inurba_marseille","lat":43.30785,"lon":5.37639,"is_reserved":false,"is_disabled":false,"rental_uris":{"android":"levelo://app?vid=b6250fea-78b8-4af3-8f5c-d0683bc109da","ios":"levelo://app?vid=b6250fea-78b8-4af3-8f5c-d0683bc109da"},"vehicle_type_id":"4","last_reported":1745587263,"current_range_meters":10800,"station_id":"ce4bgv92rcd13ifvqcq0","pricing_plan_id":"cebpf4jnsgd1na2vs0mg"},{"bike_id":"60933def-821b-42df-bab2-bd1c694a8a29","system_id":"levelo_inurba_marseille","lat":43.29895,"lon":5.43663,"is_reserved":false,"is_disabled":false,"rental_uris":{"android":"levelo://app?vid=60933def-821b-42df-bab2-bd1c694a8a29","ios":"levelo://app?vid=60933def-821b-42df-bab2-bd1c694a8a29"},"vehicle_type_id":"4","last_reported":1745587263,"current_range_meters":10800,"station_id":"ce4bhpp2rcd13ifvqhfg","pricing_plan_id":"cebpf4jnsgd1na2vs0mg"},{"bike_id":"3b7dae21-761c-4363-8432-cb4113721640","system_id":"levelo_inurba_marseille","lat":43.28843,"lon":5.35839,"is_reserved":false,"is_disabled":false,"rental_uris":{"android":"levelo://app?vid=3b7dae21-761c-4363-8432-cb4113721640","ios":"levelo://app?vid=3b7dae21-761c-4363-8432-cb4113721640"},"vehicle_type_id":"4","last_reported":1745587263,"current_range_meters":10800,"station_id":"ce4bhb12rcd13ifvqem0","pricing_plan_id":"cebpf4jnsgd1na2vs0mg"},{"bike_id":"e71b3f1c-b0fa-4315-8c3b-5c7acd77500c","system_id":"levelo_inurba_marseille","lat":43.26223,"lon":5.40454,"is_reserved":false,"is_disabled":false,"rental_uris":{"android":"levelo://app?vid=e71b3f1c-b0fa-4315-8c3b-5c7acd77500c","ios":"levelo://app?vid=e71b3f1c-b0fa-4315-8c3b-5c7acd77500c"},"vehicle_type_id":"4","last_reported":1745587263,"current_range_meters":10800,"station_id":"ce4bhmh2rcd13ifvqgmg","pricing_plan_id":"cebpf4jnsgd1na2vs0mg"},{"bike_id":"1e3d3a8f-837d-49e2-9662-f7f09f4541fa","system_id":"levelo_inurba_marseille","lat":43.23152,"lon":5.43713,"is_reserved":false,"is_disabled":false,"rental_uris":{"android":"levelo://app?vid=1e3d3a8f-837d-49e2-9662-f7f09f4541fa","ios":"levelo://app?vid=1e3d3a8f-837d-49e2-9662-f7f09f4541fa"},"vehicle_type_id":"4","last_reported":1745587263,"current_range_meters":10800,"station_id":"ce4bhmp2rcd13ifvqgog","pricing_plan_id":"cebpf4jnsgd1na2vs0mg"},{"bike_id":"1b4ee254-7030-402d-bd3f-e7ad505855be","system_id":"levelo_inurba_marseille","lat":43.29557,"lon":5.4228,"is_reserved":false,"is_disabled":false,"rental_uris":{"android":"levelo://app?vid=1b4ee254-7030-402d-bd3f-e7ad505855be","ios":"levelo://app?vid=1b4ee254-7030-402d-bd3f-e7ad505855be"},"vehicle_type_id":"4","last_reported":1745587263,"current_range_meters":10000,"station_id":"ce4bhph2rcd13ifvqhdg","pricing_plan_id":"cebpf4jnsgd1na2vs0mg"},{"bike_id":"baf71e85-fd07-4f53-8cb6-3bac82f791a1","system_id":"levelo_inurba_marseille","lat":43.23155,"lon":5.43703,"is_reserved":false,"is_disabled":false,"rental_uris":{"android":"levelo://app?vid=baf71e85-fd07-4f53-8cb6-3bac82f791a1","ios":"levelo://app?vid=baf71e85-fd07-4f53-8cb6-3bac82f791a1"},"vehicle_type_id":"4","last_reported":1745587263,"current_range_meters":11200,"station_id":"ce4bhmp2rcd13ifvqgog","pricing_plan_id":"cebpf4jnsgd1na2vs0mg"},{"bike_id":"bdac74d6-fa4b-438e-a9f6-078569b49bdb","system_id":"levelo_inurba_marseille","lat":43.23196,"lon":5.35531,"is_reserved":false,"is_disabled":false,"rental_uris":{"android":"levelo://app?vid=bdac74d6-fa4b-438e-a9f6-078569b49bdb","ios":"levelo://app?vid=bdac74d6-fa4b-438e-a9f6-078569b49bdb"},"vehicle_type_id":"4","last_reported":1745587263,"current_range_meters":11200,"station_id":"ce4bhu92rcd13ifvqi70","pricing_plan_id":"cebpf4jnsgd1na2vs0mg"},{"bike_id":"f80df130-90ca-4488-9e73-299ef9e56b4e","system_id":"levelo_inurba_marseille","lat":43.30315,"lon":5.36588,"is_reserved":false,"is_disabled":false,"rental_uris":{"android":"levelo://app?vid=f80df130-90ca-4488-9e73-299ef9e56b4e","ios":"levelo://app?vid=f80df130-90ca-4488-9e73-299ef9e56b4e"},"vehicle_type_id":"4","last_reported":1745587263,"current_range_meters":11200,"station_id":"ce4bh092rcd13ifvqd30","pricing_plan_id":"cebpf4jnsgd1na2vs0mg"},{"bike_id":"4ab5e76c-acd8-47e2-a153-cca9263d02f0","system_id":"levelo_inurba_marseille","lat":43.25113,"lon":5.40315,"is_reserved":false,"is_disabled":false,"rental_uris":{"android":"levelo://app?vid=4ab5e76c-acd8-47e2-a153-cca9263d02f0","ios":"levelo://app?vid=4ab5e76c-acd8-47e2-a153-cca9263d02f0"},"vehicle_type_id":"4","last_reported":1745587263,"current_range_meters":11200,"station_id":"ce4bhlh2rcd13ifvqgig","pricing_plan_id":"cebpf4jnsgd1na2vs0mg"},{"bike_id":"7eb2ec46-b5a6-42c4-a307-e636cc396bde","system_id":"levelo_inurba_marseille","lat":43.33612,"lon":5.41052,"is_reserved":false,"is_disabled":false,"rental_uris":{"android":"levelo://app?vid=7eb2ec46-b5a6-42c4-a307-e636cc396bde","ios":"levelo://app?vid=7eb2ec46-b5a6-42c4-a307-e636cc396bde"},"vehicle_type_id":"4","last_reported":1745587263,"current_range_meters":10800,"station_id":"ce4bhqh2rcd13ifvqhmg","pricing_plan_id":"cebpf4jnsgd1na2vs0mg"},{"bike_id":"5c8dde23-03af-4ec7-8c64-b6a7b95cfa5a","system_id":"levelo_inurba_marseille","lat":43.33728,"lon":5.39174,"is_reserved":false,"is_disabled":false,"rental_uris":{"android":"levelo://app?vid=5c8dde23-03af-4ec7-8c64-b6a7b95cfa5a","ios":"levelo://app?vid=5c8dde23-03af-4ec7-8c64-b6a7b95cfa5a"},"vehicle_type_id":"4","last_reported":1745587263,"current_range_meters":11200,"station_id":"ce4bhr92rcd13ifvqhsg","pricing_plan_id":"cebpf4jnsgd1na2vs0mg"},{"bike_id":"0c4077b4-cbda-4729-a3cf-4be66247bebe","system_id":"levelo_inurba_marseille","lat":43.28461,"lon":5.3583,"is_reserved":false,"is_disabled":false,"rental_uris":{"android":"levelo://app?vid=0c4077b4-cbda-4729-a3cf-4be66247bebe","ios":"levelo://app?vid=0c4077b4-cbda-4729-a3cf-4be66247bebe"},"vehicle_type_id":"4","last_reported":1745587263,"current_range_meters":11200,"station_id":"ce4bhah2rcd13ifvqei0","pricing_plan_id":"cebpf4jnsgd1na2vs0mg"},{"bike_id":"bd95f0bb-c5b1-4d5c-837c-b505e5069d47","system_id":"levelo_inurba_marseille","lat":43.3319,"lon":5.39766,"is_reserved":false,"is_disabled":false,"rental_uris":{"android":"levelo://app?vid=bd95f0bb-c5b1-4d5c-837c-b505e5069d47","ios":"levelo://app?vid=bd95f0bb-c5b1-4d5c-837c-b505e5069d47"},"vehicle_type_id":"4","last_reported":1745587263,"current_range_meters":11200,"station_id":"","pricing_plan_id":"cebpf4jnsgd1na2vs0mg"},{"bike_id":"ceee192f-39d3-49f6-85f3-6347067443eb","system_id":"levelo_inurba_marseille","lat":43.28005,"lon":5.40005,"is_reserved":false,"is_disabled":false,"rental_uris":{"android":"levelo://app?vid=ceee192f-39d3-49f6-85f3-6347067443eb","ios":"levelo://app?vid=ceee192f-39d3-49f6-85f3-6347067443eb"},"vehicle_type_id":"4","last_reported":1745587263,"current_range_meters":11600,"station_id":"ce4bho92rcd13ifvqh4g","pricing_plan_id":"cebpf4jnsgd1na2vs0mg"},{"bike_id":"235e9dcb-8ac6-4748-9560-128af44ee14f","system_id":"levelo_inurba_marseille","lat":43.28615,"lon":5.35102,"is_reserved":false,"is_disabled":false,"rental_uris":{"android":"levelo://app?vid=235e9dcb-8ac6-4748-9560-128af44ee14f","ios":"levelo://app?vid=235e9dcb-8ac6-4748-9560-128af44ee14f"},"vehicle_type_id":"4","last_reported":1745587263,"current_range_meters":11600,"station_id":"ce4bhch2rcd13ifvqeug","pricing_plan_id":"cebpf4jnsgd1na2vs0mg"},{"bike_id":"149eec49-8a76-4873-bc5b-a87f857a6566","system_id":"levelo_inurba_marseille","lat":43.29554,"lon":5.4229,"is_reserved":false,"is_disabled":false,"rental_uris":{"android":"levelo://app?vid=149eec49-8a76-4873-bc5b-a87f857a6566","ios":"levelo://app?vid=149eec49-8a76-4873-bc5b-a87f857a6566"},"vehicle_type_id":"4","last_reported":1745587263,"current_range_meters":11200,"station_id":"ce4bhph2rcd13ifvqhdg","pricing_plan_id":"cebpf4jnsgd1na2vs0mg"},{"bike_id":"4ab6bc02-32cf-4c5b-8e00-93978cd7dbda","system_id":"levelo_inurba_marseille","lat":43.341563,"lon":5.408979,"is_reserved":false,"is_disabled":false,"rental_uris":{"android":"levelo://app?vid=4ab6bc02-32cf-4c5b-8e00-93978cd7dbda","ios":"levelo://app?vid=4ab6bc02-32cf-4c5b-8e00-93978cd7dbda"},"vehicle_type_id":"4","last_reported":1745587263,"current_range_meters":11600,"station_id":"ce4bhqh2rcd13ifvqhlg","pricing_plan_id":"cebpf4jnsgd1na2vs0mg"},{"bike_id":"d3e3c085-2fa9-41da-9271-a5c732c87cf2","system_id":"levelo_inurba_marseille","lat":43.2874,"lon":5.37925,"is_reserved":false,"is_disabled":false,"rental_uris":{"android":"levelo://app?vid=d3e3c085-2fa9-41da-9271-a5c732c87cf2","ios":"levelo://app?vid=d3e3c085-2fa9-41da-9271-a5c732c87cf2"},"vehicle_type_id":"4","last_reported":1745587263,"current_range_meters":11600,"station_id":"ce4bh9p2rcd13ifvqec0","pricing_plan_id":"cebpf4jnsgd1na2vs0mg"},{"bike_id":"05478e01-3d9a-48a1-ba7c-fcc8b81dfe26","system_id":"levelo_inurba_marseille","lat":43.29552,"lon":5.42283,"is_reserved":false,"is_disabled":false,"rental_uris":{"android":"levelo://app?vid=05478e01-3d9a-48a1-ba7c-fcc8b81dfe26","ios":"levelo://app?vid=05478e01-3d9a-48a1-ba7c-fcc8b81dfe26"},"vehicle_type_id":"4","last_reported":1745587263,"current_range_meters":11600,"station_id":"ce4bhph2rcd13ifvqhdg","pricing_plan_id":"cebpf4jnsgd1na2vs0mg"},{"bike_id":"ffeff726-907f-4325-a30b-56a3ee3c3c3b","system_id":"levelo_inurba_marseille","lat":43.29007,"lon":5.35611,"is_reserved":false,"is_disabled":false,"rental_uris":{"android":"levelo://app?vid=ffeff726-907f-4325-a30b-56a3ee3c3c3b","ios":"levelo://app?vid=ffeff726-907f-4325-a30b-56a3ee3c3c3b"},"vehicle_type_id":"4","last_reported":1745587263,"current_range_meters":11600,"station_id":"","pricing_plan_id":"cebpf4jnsgd1na2vs0mg"},{"bike_id":"f1712a7d-5871-41e3-9b46-1f2f2ece89a0","system_id":"levelo_inurba_marseille","lat":43.23163,"lon":5.40039,"is_reserved":false,"is_disabled":false,"rental_uris":{"android":"levelo://app?vid=f1712a7d-5871-41e3-9b46-1f2f2ece89a0","ios":"levelo://app?vid=f1712a7d-5871-41e3-9b46-1f2f2ece89a0"},"vehicle_type_id":"4","last_reported":1745587263,"current_range_meters":11600,"station_id":"ce4bhn12rcd13ifvqgqg","pricing_plan_id":"cebpf4jnsgd1na2vs0mg"},{"bike_id":"dc01f0b5-b1ff-492a-9187-c2aa24895f43","system_id":"levelo_inurba_marseille","lat":43.23196,"lon":5.39957,"is_reserved":false,"is_disabled":false,"rental_uris":{"android":"levelo://app?vid=dc01f0b5-b1ff-492a-9187-c2aa24895f43","ios":"levelo://app?vid=dc01f0b5-b1ff-492a-9187-c2aa24895f43"},"vehicle_type_id":"4","last_reported":1745587263,"current_range_meters":11600,"station_id":"ce4bhn12rcd13ifvqgqg","pricing_plan_id":"cebpf4jnsgd1na2vs0mg"},{"bike_id":"d3037e49-46b4-4137-86f0-1ffb8ad9f0a8","system_id":"levelo_inurba_marseille","lat":43.31225,"lon":5.36849,"is_reserved":false,"is_disabled":false,"rental_uris":{"android":"levelo://app?vid=d3037e49-46b4-4137-86f0-1ffb8ad9f0a8","ios":"levelo://app?vid=d3037e49-46b4-4137-86f0-1ffb8ad9f0a8"},"vehicle_type_id":"4","last_reported":1745587263,"current_range_meters":11600,"station_id":"ce4bgl92rcd13ifvqbq0","pricing_plan_id":"cebpf4jnsgd1na2vs0mg"},{"bike_id":"2d238b07-fb79-48ef-b26e-08ec265e5270","system_id":"levelo_inurba_marseille","lat":43.28394,"lon":5.3559,"is_reserved":false,"is_disabled":false,"rental_uris":{"android":"levelo://app?vid=2d238b07-fb79-48ef-b26e-08ec265e5270","ios":"levelo://app?vid=2d238b07-fb79-48ef-b26e-08ec265e5270"},"vehicle_type_id":"4","last_reported":1745587263,"current_range_meters":12000,"station_id":"","pricing_plan_id":"cebpf4jnsgd1na2vs0mg"},{"bike_id":"51e93dd6-45e6-4fd0-a9cf-2fd16dc2b201","system_id":"levelo_inurba_marseille","lat":43.26935,"lon":5.38912,"is_reserved":false,"is_disabled":false,"rental_uris":{"android":"levelo://app?vid=51e93dd6-45e6-4fd0-a9cf-2fd16dc2b201","ios":"levelo://app?vid=51e93dd6-45e6-4fd0-a9cf-2fd16dc2b201"},"vehicle_type_id":"4","last_reported":1745587263,"current_range_meters":12000,"station_id":"ce4bhhh2rcd13ifvqfl0","pricing_plan_id":"cebpf4jnsgd1na2vs0mg"},{"bike_id":"fe5610f3-362d-4130-8a40-f72d4f1ce2bc","system_id":"levelo_inurba_marseille","lat":43.28088,"lon":5.39655,"is_reserved":false,"is_disabled":false,"rental_uris":{"android":"levelo://app?vid=fe5610f3-362d-4130-8a40-f72d4f1ce2bc","ios":"levelo://app?vid=fe5610f3-362d-4130-8a40-f72d4f1ce2bc"},"vehicle_type_id":"4","last_reported":1745587263,"current_range_meters":12000,"station_id":"ce4bho12rcd13ifvqh2g","pricing_plan_id":"cebpf4jnsgd1na2vs0mg"},{"bike_id":"40985d00-f6eb-41fe-9385-07e8e467d4ee","system_id":"levelo_inurba_marseille","lat":43.27382,"lon":5.36232,"is_reserved":false,"is_disabled":false,"rental_uris":{"android":"levelo://app?vid=40985d00-f6eb-41fe-9385-07e8e467d4ee","ios":"levelo://app?vid=40985d00-f6eb-41fe-9385-07e8e467d4ee"},"vehicle_type_id":"4","last_reported":1745587263,"current_range_meters":12400,"station_id":"ce4bhbh2rcd13ifvqeo0","pricing_plan_id":"cebpf4jnsgd1na2vs0mg"},{"bike_id":"ed9c5a6d-73ee-4dfd-9822-ec1b52ce4b1b","system_id":"levelo_inurba_marseille","lat":43.31489,"lon":5.37301,"is_reserved":false,"is_disabled":false,"rental_uris":{"android":"levelo://app?vid=ed9c5a6d-73ee-4dfd-9822-ec1b52ce4b1b","ios":"levelo://app?vid=ed9c5a6d-73ee-4dfd-9822-ec1b52ce4b1b"},"vehicle_type_id":"4","last_reported":1745587263,"current_range_meters":12800,"station_id":"ce4bgt12rcd13ifvqcd0","pricing_plan_id":"cebpf4jnsgd1na2vs0mg"},{"bike_id":"e9b40b8c-aa8b-493b-9704-ac204b4fdb74","system_id":"levelo_inurba_marseille","lat":43.22501,"lon":5.3478,"is_reserved":false,"is_disabled":false,"rental_uris":{"android":"levelo://app?vid=e9b40b8c-aa8b-493b-9704-ac204b4fdb74","ios":"levelo://app?vid=e9b40b8c-aa8b-493b-9704-ac204b4fdb74"},"vehicle_type_id":"4","last_reported":1745587263,"current_range_meters":12400,"station_id":"st_cvj5dfep6f1abm77gieg","pricing_plan_id":"cebpf4jnsgd1na2vs0mg"},{"bike_id":"db09287a-0ef4-4f88-8d76-6d7a6ddf5bf8","system_id":"levelo_inurba_marseille","lat":43.29371,"lon":5.37853,"is_reserved":false,"is_disabled":true,"rental_uris":{"android":"levelo://app?vid=db09287a-0ef4-4f88-8d76-6d7a6ddf5bf8","ios":"levelo://app?vid=db09287a-0ef4-4f88-8d76-6d7a6ddf5bf8"},"vehicle_type_id":"4","last_reported":1745587263,"current_range_meters":12400,"station_id":"ce4bgjh2rcd13ifvqbf0","pricing_plan_id":"cebpf4jnsgd1na2vs0mg"},{"bike_id":"f07b3c5b-fd4b-4f93-8a6b-c152845e8f8c","system_id":"levelo_inurba_marseille","lat":43.31992,"lon":5.38142,"is_reserved":false,"is_disabled":false,"rental_uris":{"android":"levelo://app?vid=f07b3c5b-fd4b-4f93-8a6b-c152845e8f8c","ios":"levelo://app?vid=f07b3c5b-fd4b-4f93-8a6b-c152845e8f8c"},"vehicle_type_id":"4","last_reported":1745587263,"current_range_meters":12400,"station_id":"ce4bhr12rcd13ifvqhpg","pricing_plan_id":"cebpf4jnsgd1na2vs0mg"},{"bike_id":"a47acf01-06a4-451d-aff2-f7fb13739f57","system_id":"levelo_inurba_marseille","lat":43.21749,"lon":5.34603,"is_reserved":false,"is_disabled":false,"rental_uris":{"android":"levelo://app?vid=a47acf01-06a4-451d-aff2-f7fb13739f57","ios":"levelo://app?vid=a47acf01-06a4-451d-aff2-f7fb13739f57"},"vehicle_type_id":"4","last_reported":1745587263,"current_range_meters":12400,"station_id":"st_cvj6r9ubvosntc0bgbag","pricing_plan_id":"cebpf4jnsgd1na2vs0mg"},{"bike_id":"cecd4331-0ac4-4e9a-bf42-31aa1b34efbb","system_id":"levelo_inurba_marseille","lat":43.25829,"lon":5.39433,"is_reserved":false,"is_disabled":false,"rental_uris":{"android":"levelo://app?vid=cecd4331-0ac4-4e9a-bf42-31aa1b34efbb","ios":"levelo://app?vid=cecd4331-0ac4-4e9a-bf42-31aa1b34efbb"},"vehicle_type_id":"4","last_reported":1745587263,"current_range_meters":12800,"station_id":"ce4bhip2rcd13ifvqft0","pricing_plan_id":"cebpf4jnsgd1na2vs0mg"},{"bike_id":"7ea04edb-8aa3-477e-a494-7cd226f38824","system_id":"levelo_inurba_marseille","lat":43.25125,"lon":5.4031,"is_reserved":false,"is_disabled":false,"rental_uris":{"android":"levelo://app?vid=7ea04edb-8aa3-477e-a494-7cd226f38824","ios":"levelo://app?vid=7ea04edb-8aa3-477e-a494-7cd226f38824"},"vehicle_type_id":"4","last_reported":1745587263,"current_range_meters":12800,"station_id":"ce4bhlh2rcd13ifvqgig","pricing_plan_id":"cebpf4jnsgd1na2vs0mg"},{"bike_id":"00dd4008-b8cd-459b-8f24-a4218f6e8179","system_id":"levelo_inurba_marseille","lat":43.23191,"lon":5.35552,"is_reserved":false,"is_disabled":false,"rental_uris":{"android":"levelo://app?vid=00dd4008-b8cd-459b-8f24-a4218f6e8179","ios":"levelo://app?vid=00dd4008-b8cd-459b-8f24-a4218f6e8179"},"vehicle_type_id":"4","last_reported":1745587263,"current_range_meters":12800,"station_id":"ce4bhu92rcd13ifvqi70","pricing_plan_id":"cebpf4jnsgd1na2vs0mg"},{"bike_id":"bd652ac9-2a54-4255-b723-7ed73dc9885f","system_id":"levelo_inurba_marseille","lat":43.28265,"lon":5.35066,"is_reserved":false,"is_disabled":false,"rental_uris":{"android":"levelo://app?vid=bd652ac9-2a54-4255-b723-7ed73dc9885f","ios":"levelo://app?vid=bd652ac9-2a54-4255-b723-7ed73dc9885f"},"vehicle_type_id":"4","last_reported":1745587263,"current_range_meters":12800,"station_id":"ce4bhbp2rcd13ifvqerg","pricing_plan_id":"cebpf4jnsgd1na2vs0mg"},{"bike_id":"5bd0fca7-0452-49a4-8e59-da676eb6fbb8","system_id":"levelo_inurba_marseille","lat":43.2795,"lon":5.41049,"is_reserved":false,"is_disabled":false,"rental_uris":{"android":"levelo://app?vid=5bd0fca7-0452-49a4-8e59-da676eb6fbb8","ios":"levelo://app?vid=5bd0fca7-0452-49a4-8e59-da676eb6fbb8"},"vehicle_type_id":"4","last_reported":1745587263,"current_range_meters":12800,"station_id":"ce4bhnp2rcd13ifvqh0g","pricing_plan_id":"cebpf4jnsgd1na2vs0mg"},{"bike_id":"fce76ae0-650e-43a6-9a45-240873ebdece","system_id":"levelo_inurba_marseille","lat":43.28264,"lon":5.3506,"is_reserved":false,"is_disabled":false,"rental_uris":{"android":"levelo://app?vid=fce76ae0-650e-43a6-9a45-240873ebdece","ios":"levelo://app?vid=fce76ae0-650e-43a6-9a45-240873ebdece"},"vehicle_type_id":"4","last_reported":1745587263,"current_range_meters":12800,"station_id":"ce4bhbp2rcd13ifvqerg","pricing_plan_id":"cebpf4jnsgd1na2vs0mg"},{"bike_id":"03ec5728-5a8d-475c-be69-d63e54c8d683","system_id":"levelo_inurba_marseille","lat":43.32487,"lon":5.367,"is_reserved":false,"is_disabled":false,"rental_uris":{"android":"levelo://app?vid=03ec5728-5a8d-475c-be69-d63e54c8d683","ios":"levelo://app?vid=03ec5728-5a8d-475c-be69-d63e54c8d683"},"vehicle_type_id":"4","last_reported":1745587263,"current_range_meters":13600,"station_id":"","pricing_plan_id":"cebpf4jnsgd1na2vs0mg"},{"bike_id":"e2dcabcf-64d8-4394-bb9a-ff877bee611a","system_id":"levelo_inurba_marseille","lat":43.32056,"lon":5.41506,"is_reserved":false,"is_disabled":false,"rental_uris":{"android":"levelo://app?vid=e2dcabcf-64d8-4394-bb9a-ff877bee611a","ios":"levelo://app?vid=e2dcabcf-64d8-4394-bb9a-ff877bee611a"},"vehicle_type_id":"4","last_reported":1745587263,"current_range_meters":13600,"station_id":"ce4bhq92rcd13ifvqhkg","pricing_plan_id":"cebpf4jnsgd1na2vs0mg"},{"bike_id":"bfb12fc9-cb3b-4432-b15e-172f755964a7","system_id":"levelo_inurba_marseille","lat":43.233296,"lon":5.399486,"is_reserved":false,"is_disabled":false,"rental_uris":{"android":"levelo://app?vid=bfb12fc9-cb3b-4432-b15e-172f755964a7","ios":"levelo://app?vid=bfb12fc9-cb3b-4432-b15e-172f755964a7"},"vehicle_type_id":"4","last_reported":1745587263,"current_range_meters":13600,"station_id":"ce4bhn12rcd13ifvqgqg","pricing_plan_id":"cebpf4jnsgd1na2vs0mg"},{"bike_id":"3e5a5bec-d3d4-45ee-9c95-7c9b8e7a4c49","system_id":"levelo_inurba_marseille","lat":43.32366,"lon":5.36752,"is_reserved":false,"is_disabled":false,"rental_uris":{"android":"levelo://app?vid=3e5a5bec-d3d4-45ee-9c95-7c9b8e7a4c49","ios":"levelo://app?vid=3e5a5bec-d3d4-45ee-9c95-7c9b8e7a4c49"},"vehicle_type_id":"4","last_reported":1745587263,"current_range_meters":13600,"station_id":"ce4bhsh2rcd13ifvqi2g","pricing_plan_id":"cebpf4jnsgd1na2vs0mg"},{"bike_id":"7fc5ed43-b2c3-4cf7-b081-488a7cbcc12f","system_id":"levelo_inurba_marseille","lat":43.33016,"lon":5.39023,"is_reserved":false,"is_disabled":false,"rental_uris":{"android":"levelo://app?vid=7fc5ed43-b2c3-4cf7-b081-488a7cbcc12f","ios":"levelo://app?vid=7fc5ed43-b2c3-4cf7-b081-488a7cbcc12f"},"vehicle_type_id":"4","last_reported":1745587263,"current_range_meters":13600,"station_id":"ce4bhr92rcd13ifvqhrg","pricing_plan_id":"cebpf4jnsgd1na2vs0mg"},{"bike_id":"2bcccb43-69dd-44e4-8a75-02e465a1f932","system_id":"levelo_inurba_marseille","lat":43.28281,"lon":5.35077,"is_reserved":false,"is_disabled":false,"rental_uris":{"android":"levelo://app?vid=2bcccb43-69dd-44e4-8a75-02e465a1f932","ios":"levelo://app?vid=2bcccb43-69dd-44e4-8a75-02e465a1f932"},"vehicle_type_id":"4","last_reported":1745587263,"current_range_meters":13600,"station_id":"","pricing_plan_id":"cebpf4jnsgd1na2vs0mg"},{"bike_id":"452f2c91-8a42-4b2e-b84b-b27753a7d0e7","system_id":"levelo_inurba_marseille","lat":43.33453,"lon":5.3612,"is_reserved":false,"is_disabled":false,"rental_uris":{"android":"levelo://app?vid=452f2c91-8a42-4b2e-b84b-b27753a7d0e7","ios":"levelo://app?vid=452f2c91-8a42-4b2e-b84b-b27753a7d0e7"},"vehicle_type_id":"4","last_reported":1745587263,"current_range_meters":14000,"station_id":"","pricing_plan_id":"cebpf4jnsgd1na2vs0mg"},{"bike_id":"bff532e1-58f7-4601-87b6-d6ae8925747c","system_id":"levelo_inurba_marseille","lat":43.259168,"lon":5.409037,"is_reserved":false,"is_disabled":false,"rental_uris":{"android":"levelo://app?vid=bff532e1-58f7-4601-87b6-d6ae8925747c","ios":"levelo://app?vid=bff532e1-58f7-4601-87b6-d6ae8925747c"},"vehicle_type_id":"4","last_reported":1745587263,"current_range_meters":14000,"station_id":"ce4bhm92rcd13ifvqglg","pricing_plan_id":"cebpf4jnsgd1na2vs0mg"},{"bike_id":"a5dd102c-29df-4586-ba4f-efced2cf91b2","system_id":"levelo_inurba_marseille","lat":43.24083,"lon":5.37727,"is_reserved":false,"is_disabled":false,"rental_uris":{"android":"levelo://app?vid=a5dd102c-29df-4586-ba4f-efced2cf91b2","ios":"levelo://app?vid=a5dd102c-29df-4586-ba4f-efced2cf91b2"},"vehicle_type_id":"4","last_reported":1745587263,"current_range_meters":14000,"station_id":"ce4bhnp2rcd13ifvqgvg","pricing_plan_id":"cebpf4jnsgd1na2vs0mg"},{"bike_id":"4c11ff0f-a579-4f78-9960-a443174b0bdd","system_id":"levelo_inurba_marseille","lat":43.21175,"lon":5.3507,"is_reserved":false,"is_disabled":false,"rental_uris":{"android":"levelo://app?vid=4c11ff0f-a579-4f78-9960-a443174b0bdd","ios":"levelo://app?vid=4c11ff0f-a579-4f78-9960-a443174b0bdd"},"vehicle_type_id":"4","last_reported":1745587263,"current_range_meters":14000,"station_id":"st_cvj6sg6p6f1abm77japg","pricing_plan_id":"cebpf4jnsgd1na2vs0mg"},{"bike_id":"0bfff189-ec6a-4439-b345-e9dd168ab867","system_id":"levelo_inurba_marseille","lat":43.33728,"lon":5.3919,"is_reserved":false,"is_disabled":false,"rental_uris":{"android":"levelo://app?vid=0bfff189-ec6a-4439-b345-e9dd168ab867","ios":"levelo://app?vid=0bfff189-ec6a-4439-b345-e9dd168ab867"},"vehicle_type_id":"4","last_reported":1745587263,"current_range_meters":14000,"station_id":"ce4bhr92rcd13ifvqhsg","pricing_plan_id":"cebpf4jnsgd1na2vs0mg"},{"bike_id":"990ec2da-8bdd-47a3-83c6-eda2a6c38af9","system_id":"levelo_inurba_marseille","lat":43.26786,"lon":5.39419,"is_reserved":false,"is_disabled":false,"rental_uris":{"android":"levelo://app?vid=990ec2da-8bdd-47a3-83c6-eda2a6c38af9","ios":"levelo://app?vid=990ec2da-8bdd-47a3-83c6-eda2a6c38af9"},"vehicle_type_id":"4","last_reported":1745587263,"current_range_meters":14400,"station_id":"ce4bhh12rcd13ifvqfg0","pricing_plan_id":"cebpf4jnsgd1na2vs0mg"},{"bike_id":"c8bde539-d21d-4fab-b3d7-740606778a10","system_id":"levelo_inurba_marseille","lat":43.30146,"lon":5.38089,"is_reserved":false,"is_disabled":false,"rental_uris":{"android":"levelo://app?vid=c8bde539-d21d-4fab-b3d7-740606778a10","ios":"levelo://app?vid=c8bde539-d21d-4fab-b3d7-740606778a10"},"vehicle_type_id":"4","last_reported":1745587263,"current_range_meters":14400,"station_id":"ce4bgjp2rcd13ifvqbh0","pricing_plan_id":"cebpf4jnsgd1na2vs0mg"},{"bike_id":"df5bab92-a8e4-4680-98fa-7859989c61da","system_id":"levelo_inurba_marseille","lat":43.30435,"lon":5.3889,"is_reserved":false,"is_disabled":false,"rental_uris":{"android":"levelo://app?vid=df5bab92-a8e4-4680-98fa-7859989c61da","ios":"levelo://app?vid=df5bab92-a8e4-4680-98fa-7859989c61da"},"vehicle_type_id":"4","last_reported":1745587263,"current_range_meters":14400,"station_id":"ce4bgk12rcd13ifvqbi0","pricing_plan_id":"cebpf4jnsgd1na2vs0mg"},{"bike_id":"7afca0a4-7687-4618-9068-288200807e9b","system_id":"levelo_inurba_marseille","lat":43.260345,"lon":5.375431,"is_reserved":false,"is_disabled":false,"rental_uris":{"android":"levelo://app?vid=7afca0a4-7687-4618-9068-288200807e9b","ios":"levelo://app?vid=7afca0a4-7687-4618-9068-288200807e9b"},"vehicle_type_id":"4","last_reported":1745587263,"current_range_meters":14400,"station_id":"ce4bhgh2rcd13ifvqfa0","pricing_plan_id":"cebpf4jnsgd1na2vs0mg"},{"bike_id":"73a593ff-9768-414b-b357-8ecb5e92dacd","system_id":"levelo_inurba_marseille","lat":43.23153,"lon":5.437016,"is_reserved":false,"is_disabled":false,"rental_uris":{"android":"levelo://app?vid=73a593ff-9768-414b-b357-8ecb5e92dacd","ios":"levelo://app?vid=73a593ff-9768-414b-b357-8ecb5e92dacd"},"vehicle_type_id":"4","last_reported":1745587263,"current_range_meters":14800,"station_id":"ce4bhmp2rcd13ifvqgog","pricing_plan_id":"cebpf4jnsgd1na2vs0mg"},{"bike_id":"9a1c0be7-bd1a-4081-ab84-3ef05258b407","system_id":"levelo_inurba_marseille","lat":43.229337,"lon":5.353764,"is_reserved":false,"is_disabled":false,"rental_uris":{"android":"levelo://app?vid=9a1c0be7-bd1a-4081-ab84-3ef05258b407","ios":"levelo://app?vid=9a1c0be7-bd1a-4081-ab84-3ef05258b407"},"vehicle_type_id":"4","last_reported":1745587263,"current_range_meters":14800,"station_id":"cpo3532slgdg3j2ikp40","pricing_plan_id":"cebpf4jnsgd1na2vs0mg"},{"bike_id":"ba1f0966-9807-4839-9bbd-b15d288bed55","system_id":"levelo_inurba_marseille","lat":43.2781,"lon":5.40699,"is_reserved":false,"is_disabled":false,"rental_uris":{"android":"levelo://app?vid=ba1f0966-9807-4839-9bbd-b15d288bed55","ios":"levelo://app?vid=ba1f0966-9807-4839-9bbd-b15d288bed55"},"vehicle_type_id":"4","last_reported":1745587263,"current_range_meters":15200,"station_id":"ce4bhnh2rcd13ifvqgtg","pricing_plan_id":"cebpf4jnsgd1na2vs0mg"},{"bike_id":"e7fe9764-590e-4357-858a-68d45cc00891","system_id":"levelo_inurba_marseille","lat":43.291465,"lon":5.366792,"is_reserved":false,"is_disabled":false,"rental_uris":{"android":"levelo://app?vid=e7fe9764-590e-4357-858a-68d45cc00891","ios":"levelo://app?vid=e7fe9764-590e-4357-858a-68d45cc00891"},"vehicle_type_id":"4","last_reported":1745587263,"current_range_meters":15200,"station_id":"ce4bhb12rcd13ifvqem0","pricing_plan_id":"cebpf4jnsgd1na2vs0mg"},{"bike_id":"2cc49b22-90ed-40b7-8f38-e015facc8413","system_id":"levelo_inurba_marseille","lat":43.29885,"lon":5.43673,"is_reserved":false,"is_disabled":false,"rental_uris":{"android":"levelo://app?vid=2cc49b22-90ed-40b7-8f38-e015facc8413","ios":"levelo://app?vid=2cc49b22-90ed-40b7-8f38-e015facc8413"},"vehicle_type_id":"4","last_reported":1745587263,"current_range_meters":15200,"station_id":"ce4bhpp2rcd13ifvqhfg","pricing_plan_id":"cebpf4jnsgd1na2vs0mg"},{"bike_id":"db019888-8474-4b24-bd86-a290e5b86519","system_id":"levelo_inurba_marseille","lat":43.23152,"lon":5.43713,"is_reserved":false,"is_disabled":false,"rental_uris":{"android":"levelo://app?vid=db019888-8474-4b24-bd86-a290e5b86519","ios":"levelo://app?vid=db019888-8474-4b24-bd86-a290e5b86519"},"vehicle_type_id":"4","last_reported":1745587263,"current_range_meters":15200,"station_id":"ce4bhmp2rcd13ifvqgog","pricing_plan_id":"cebpf4jnsgd1na2vs0mg"},{"bike_id":"7c04e35a-ca69-4f1e-a556-0f3540137a09","system_id":"levelo_inurba_marseille","lat":43.266802,"lon":5.382731,"is_reserved":false,"is_disabled":false,"rental_uris":{"android":"levelo://app?vid=7c04e35a-ca69-4f1e-a556-0f3540137a09","ios":"levelo://app?vid=7c04e35a-ca69-4f1e-a556-0f3540137a09"},"vehicle_type_id":"4","last_reported":1745587263,"current_range_meters":15200,"station_id":"ce4bhg92rcd13ifvqf90","pricing_plan_id":"cebpf4jnsgd1na2vs0mg"},{"bike_id":"64c83d33-82f8-4913-8852-a3e34555b3eb","system_id":"levelo_inurba_marseille","lat":43.27202,"lon":5.40973,"is_reserved":false,"is_disabled":false,"rental_uris":{"android":"levelo://app?vid=64c83d33-82f8-4913-8852-a3e34555b3eb","ios":"levelo://app?vid=64c83d33-82f8-4913-8852-a3e34555b3eb"},"vehicle_type_id":"4","last_reported":1745587263,"current_range_meters":15200,"station_id":"ce4bhl12rcd13ifvqgf0","pricing_plan_id":"cebpf4jnsgd1na2vs0mg"},{"bike_id":"146c870b-92e7-4655-b565-3cb052ff2b87","system_id":"levelo_inurba_marseille","lat":43.29673,"lon":5.38171,"is_reserved":false,"is_disabled":false,"rental_uris":{"android":"levelo://app?vid=146c870b-92e7-4655-b565-3cb052ff2b87","ios":"levelo://app?vid=146c870b-92e7-4655-b565-3cb052ff2b87"},"vehicle_type_id":"4","last_reported":1745587263,"current_range_meters":16400,"station_id":"","pricing_plan_id":"cebpf4jnsgd1na2vs0mg"},{"bike_id":"5453011b-6412-4978-a157-0b2ecd517873","system_id":"levelo_inurba_marseille","lat":43.23156,"lon":5.437,"is_reserved":false,"is_disabled":false,"rental_uris":{"android":"levelo://app?vid=5453011b-6412-4978-a157-0b2ecd517873","ios":"levelo://app?vid=5453011b-6412-4978-a157-0b2ecd517873"},"vehicle_type_id":"4","last_reported":1745587263,"current_range_meters":16000,"station_id":"ce4bhmp2rcd13ifvqgog","pricing_plan_id":"cebpf4jnsgd1na2vs0mg"},{"bike_id":"b370ec72-25aa-4e18-90be-0a23445d821b","system_id":"levelo_inurba_marseille","lat":43.21759,"lon":5.34607,"is_reserved":false,"is_disabled":false,"rental_uris":{"android":"levelo://app?vid=b370ec72-25aa-4e18-90be-0a23445d821b","ios":"levelo://app?vid=b370ec72-25aa-4e18-90be-0a23445d821b"},"vehicle_type_id":"4","last_reported":1745587263,"current_range_meters":16000,"station_id":"st_cvj6r9ubvosntc0bgbag","pricing_plan_id":"cebpf4jnsgd1na2vs0mg"},{"bike_id":"b99c3ed2-37c4-489b-a2c4-d846fb8fe83a","system_id":"levelo_inurba_marseille","lat":43.27369,"lon":5.36258,"is_reserved":false,"is_disabled":false,"rental_uris":{"android":"levelo://app?vid=b99c3ed2-37c4-489b-a2c4-d846fb8fe83a","ios":"levelo://app?vid=b99c3ed2-37c4-489b-a2c4-d846fb8fe83a"},"vehicle_type_id":"4","last_reported":1745587263,"current_range_meters":16000,"station_id":"ce4bhbh2rcd13ifvqeo0","pricing_plan_id":"cebpf4jnsgd1na2vs0mg"},{"bike_id":"cd40ddf1-54a2-4e96-903a-d683dc37811f","system_id":"levelo_inurba_marseille","lat":43.26265,"lon":5.37377,"is_reserved":false,"is_disabled":false,"rental_uris":{"android":"levelo://app?vid=cd40ddf1-54a2-4e96-903a-d683dc37811f","ios":"levelo://app?vid=cd40ddf1-54a2-4e96-903a-d683dc37811f"},"vehicle_type_id":"4","last_reported":1745587263,"current_range_meters":16000,"station_id":"ce4bhgp2rcd13ifvqfc0","pricing_plan_id":"cebpf4jnsgd1na2vs0mg"},{"bike_id":"071c1165-d0c3-4152-8608-afc3b64c18ee","system_id":"levelo_inurba_marseille","lat":43.21193,"lon":5.35063,"is_reserved":false,"is_disabled":false,"rental_uris":{"android":"levelo://app?vid=071c1165-d0c3-4152-8608-afc3b64c18ee","ios":"levelo://app?vid=071c1165-d0c3-4152-8608-afc3b64c18ee"},"vehicle_type_id":"4","last_reported":1745587263,"current_range_meters":16000,"station_id":"st_cvj6sg6p6f1abm77japg","pricing_plan_id":"cebpf4jnsgd1na2vs0mg"},{"bike_id":"568053e1-9183-4cee-acca-959027493876","system_id":"levelo_inurba_marseille","lat":43.30912,"lon":5.3684,"is_reserved":false,"is_disabled":true,"rental_uris":{"android":"levelo://app?vid=568053e1-9183-4cee-acca-959027493876","ios":"levelo://app?vid=568053e1-9183-4cee-acca-959027493876"},"vehicle_type_id":"4","last_reported":1745587263,"current_range_meters":16400,"station_id":"ce4bgn92rcd13ifvqbvg","pricing_plan_id":"cebpf4jnsgd1na2vs0mg"},{"bike_id":"24c99f47-f6d9-45a0-9bf4-2aa53a9f3b7a","system_id":"levelo_inurba_marseille","lat":43.27365,"lon":5.36252,"is_reserved":false,"is_disabled":false,"rental_uris":{"android":"levelo://app?vid=24c99f47-f6d9-45a0-9bf4-2aa53a9f3b7a","ios":"levelo://app?vid=24c99f47-f6d9-45a0-9bf4-2aa53a9f3b7a"},"vehicle_type_id":"4","last_reported":1745587263,"current_range_meters":16400,"station_id":"ce4bhbh2rcd13ifvqeo0","pricing_plan_id":"cebpf4jnsgd1na2vs0mg"},{"bike_id":"af6af1ea-83a0-4448-a6b9-d143557f7290","system_id":"levelo_inurba_marseille","lat":43.27041,"lon":5.40236,"is_reserved":false,"is_disabled":false,"rental_uris":{"android":"levelo://app?vid=af6af1ea-83a0-4448-a6b9-d143557f7290","ios":"levelo://app?vid=af6af1ea-83a0-4448-a6b9-d143557f7290"},"vehicle_type_id":"4","last_reported":1745587263,"current_range_meters":16400,"station_id":"ce4bhk92rcd13ifvqgc0","pricing_plan_id":"cebpf4jnsgd1na2vs0mg"},{"bike_id":"c6f9b08b-85d4-4ea1-a207-d942c5041c83","system_id":"levelo_inurba_marseille","lat":43.23964,"lon":5.36609,"is_reserved":false,"is_disabled":false,"rental_uris":{"android":"levelo://app?vid=c6f9b08b-85d4-4ea1-a207-d942c5041c83","ios":"levelo://app?vid=c6f9b08b-85d4-4ea1-a207-d942c5041c83"},"vehicle_type_id":"4","last_reported":1745587263,"current_range_meters":16400,"station_id":"ce4bhi12rcd13ifvqfp0","pricing_plan_id":"cebpf4jnsgd1na2vs0mg"},{"bike_id":"ebb33b48-8eec-4002-ba83-3606c9c5b55c","system_id":"levelo_inurba_marseille","lat":43.282654,"lon":5.350729,"is_reserved":false,"is_disabled":false,"rental_uris":{"android":"levelo://app?vid=ebb33b48-8eec-4002-ba83-3606c9c5b55c","ios":"levelo://app?vid=ebb33b48-8eec-4002-ba83-3606c9c5b55c"},"vehicle_type_id":"4","last_reported":1745587263,"current_range_meters":16400,"station_id":"ce4bhbp2rcd13ifvqerg","pricing_plan_id":"cebpf4jnsgd1na2vs0mg"},{"bike_id":"ef9fbcd2-de24-4ebe-9c3d-8e304a207f9f","system_id":"levelo_inurba_marseille","lat":43.2827,"lon":5.35067,"is_reserved":false,"is_disabled":false,"rental_uris":{"android":"levelo://app?vid=ef9fbcd2-de24-4ebe-9c3d-8e304a207f9f","ios":"levelo://app?vid=ef9fbcd2-de24-4ebe-9c3d-8e304a207f9f"},"vehicle_type_id":"4","last_reported":1745587263,"current_range_meters":16400,"station_id":"ce4bhbp2rcd13ifvqerg","pricing_plan_id":"cebpf4jnsgd1na2vs0mg"},{"bike_id":"9d833e47-1f44-4423-b483-c65dd1e4e1e9","system_id":"levelo_inurba_marseille","lat":43.31117,"lon":5.37767,"is_reserved":false,"is_disabled":false,"rental_uris":{"android":"levelo://app?vid=9d833e47-1f44-4423-b483-c65dd1e4e1e9","ios":"levelo://app?vid=9d833e47-1f44-4423-b483-c65dd1e4e1e9"},"vehicle_type_id":"4","last_reported":1745587263,"current_range_meters":16400,"station_id":"ce4bgt92rcd13ifvqcg0","pricing_plan_id":"cebpf4jnsgd1na2vs0mg"},{"bike_id":"f529147f-24ed-4ab2-8124-6ced4510a9ca","system_id":"levelo_inurba_marseille","lat":43.23958,"lon":5.3663,"is_reserved":false,"is_disabled":false,"rental_uris":{"android":"levelo://app?vid=f529147f-24ed-4ab2-8124-6ced4510a9ca","ios":"levelo://app?vid=f529147f-24ed-4ab2-8124-6ced4510a9ca"},"vehicle_type_id":"4","last_reported":1745587263,"current_range_meters":16400,"station_id":"ce4bhi12rcd13ifvqfp0","pricing_plan_id":"cebpf4jnsgd1na2vs0mg"},{"bike_id":"1bd28368-da6e-4567-a232-bfbd04e388f9","system_id":"levelo_inurba_marseille","lat":43.28347,"lon":5.35013,"is_reserved":false,"is_disabled":false,"rental_uris":{"android":"levelo://app?vid=1bd28368-da6e-4567-a232-bfbd04e388f9","ios":"levelo://app?vid=1bd28368-da6e-4567-a232-bfbd04e388f9"},"vehicle_type_id":"4","last_reported":1745587263,"current_range_meters":16800,"station_id":"","pricing_plan_id":"cebpf4jnsgd1na2vs0mg"},{"bike_id":"bde4f044-fd96-46b8-8d3b-97ced036ce27","system_id":"levelo_inurba_marseille","lat":43.31107,"lon":5.42425,"is_reserved":false,"is_disabled":false,"rental_uris":{"android":"levelo://app?vid=bde4f044-fd96-46b8-8d3b-97ced036ce27","ios":"levelo://app?vid=bde4f044-fd96-46b8-8d3b-97ced036ce27"},"vehicle_type_id":"4","last_reported":1745587263,"current_range_meters":16800,"station_id":"ce4bhp92rcd13ifvqhag","pricing_plan_id":"cebpf4jnsgd1na2vs0mg"},{"bike_id":"5d9c1574-7299-43ae-a032-cbfe0be61242","system_id":"levelo_inurba_marseille","lat":43.23059,"lon":5.35493,"is_reserved":false,"is_disabled":false,"rental_uris":{"android":"levelo://app?vid=5d9c1574-7299-43ae-a032-cbfe0be61242","ios":"levelo://app?vid=5d9c1574-7299-43ae-a032-cbfe0be61242"},"vehicle_type_id":"4","last_reported":1745587263,"current_range_meters":16800,"station_id":"cpo3342slgdg3j2ifvpg","pricing_plan_id":"cebpf4jnsgd1na2vs0mg"},{"bike_id":"47c6ce9d-d558-4eb5-865a-92aaeb61b1b1","system_id":"levelo_inurba_marseille","lat":43.23209,"lon":5.35558,"is_reserved":false,"is_disabled":false,"rental_uris":{"android":"levelo://app?vid=47c6ce9d-d558-4eb5-865a-92aaeb61b1b1","ios":"levelo://app?vid=47c6ce9d-d558-4eb5-865a-92aaeb61b1b1"},"vehicle_type_id":"4","last_reported":1745587263,"current_range_meters":16800,"station_id":"ce4bhu92rcd13ifvqi70","pricing_plan_id":"cebpf4jnsgd1na2vs0mg"},{"bike_id":"554af125-33a9-4bcb-8e60-dea66cbcb3bb","system_id":"levelo_inurba_marseille","lat":43.28662,"lon":5.36336,"is_reserved":false,"is_disabled":false,"rental_uris":{"android":"levelo://app?vid=554af125-33a9-4bcb-8e60-dea66cbcb3bb","ios":"levelo://app?vid=554af125-33a9-4bcb-8e60-dea66cbcb3bb"},"vehicle_type_id":"4","last_reported":1745587263,"current_range_meters":16400,"station_id":"ce4bhah2rcd13ifvqej0","pricing_plan_id":"cebpf4jnsgd1na2vs0mg"},{"bike_id":"4534d7e3-24a6-4022-8d6e-c87dbbcde225","system_id":"levelo_inurba_marseille","lat":43.225,"lon":5.34781,"is_reserved":false,"is_disabled":false,"rental_uris":{"android":"levelo://app?vid=4534d7e3-24a6-4022-8d6e-c87dbbcde225","ios":"levelo://app?vid=4534d7e3-24a6-4022-8d6e-c87dbbcde225"},"vehicle_type_id":"4","last_reported":1745587263,"current_range_meters":16800,"station_id":"st_cvj5dfep6f1abm77gieg","pricing_plan_id":"cebpf4jnsgd1na2vs0mg"},{"bike_id":"987d7900-bb2a-45cb-bed7-6d69f6fd4fa3","system_id":"levelo_inurba_marseille","lat":43.28496,"lon":5.38444,"is_reserved":false,"is_disabled":false,"rental_uris":{"android":"levelo://app?vid=987d7900-bb2a-45cb-bed7-6d69f6fd4fa3","ios":"levelo://app?vid=987d7900-bb2a-45cb-bed7-6d69f6fd4fa3"},"vehicle_type_id":"4","last_reported":1745587263,"current_range_meters":16800,"station_id":"ce4bh512rcd13ifvqe3g","pricing_plan_id":"cebpf4jnsgd1na2vs0mg"},{"bike_id":"5d90e8c4-88f9-42f1-bfd8-e31a43c95b58","system_id":"levelo_inurba_marseille","lat":43.324761,"lon":5.365598,"is_reserved":false,"is_disabled":false,"rental_uris":{"android":"levelo://app?vid=5d90e8c4-88f9-42f1-bfd8-e31a43c95b58","ios":"levelo://app?vid=5d90e8c4-88f9-42f1-bfd8-e31a43c95b58"},"vehicle_type_id":"4","last_reported":1745587263,"current_range_meters":16800,"station_id":"","pricing_plan_id":"cebpf4jnsgd1na2vs0mg"},{"bike_id":"b33022a6-d80a-41c2-9c51-ffea9767fc20","system_id":"levelo_inurba_marseille","lat":43.26583,"lon":5.39013,"is_reserved":false,"is_disabled":false,"rental_uris":{"android":"levelo://app?vid=b33022a6-d80a-41c2-9c51-ffea9767fc20","ios":"levelo://app?vid=b33022a6-d80a-41c2-9c51-ffea9767fc20"},"vehicle_type_id":"4","last_reported":1745587263,"current_range_meters":16800,"station_id":"ce4bhe12rcd13ifvqf30","pricing_plan_id":"cebpf4jnsgd1na2vs0mg"},{"bike_id":"3c8cef39-3236-4290-b4b8-5dc51646abd4","system_id":"levelo_inurba_marseille","lat":43.27496,"lon":5.42443,"is_reserved":false,"is_disabled":false,"rental_uris":{"android":"levelo://app?vid=3c8cef39-3236-4290-b4b8-5dc51646abd4","ios":"levelo://app?vid=3c8cef39-3236-4290-b4b8-5dc51646abd4"},"vehicle_type_id":"4","last_reported":1745587263,"current_range_meters":17200,"station_id":"ce4bhn92rcd13ifvqgrg","pricing_plan_id":"cebpf4jnsgd1na2vs0mg"},{"bike_id":"34172cb6-b4ad-4838-ab0f-4c4a5aa33abd","system_id":"levelo_inurba_marseille","lat":43.33724,"lon":5.39181,"is_reserved":false,"is_disabled":false,"rental_uris":{"android":"levelo://app?vid=34172cb6-b4ad-4838-ab0f-4c4a5aa33abd","ios":"levelo://app?vid=34172cb6-b4ad-4838-ab0f-4c4a5aa33abd"},"vehicle_type_id":"4","last_reported":1745587263,"current_range_meters":17200,"station_id":"ce4bhr92rcd13ifvqhsg","pricing_plan_id":"cebpf4jnsgd1na2vs0mg"},{"bike_id":"07123722-6e02-40c7-a90b-e57c54fa3c66","system_id":"levelo_inurba_marseille","lat":43.26026,"lon":5.37549,"is_reserved":false,"is_disabled":false,"rental_uris":{"android":"levelo://app?vid=07123722-6e02-40c7-a90b-e57c54fa3c66","ios":"levelo://app?vid=07123722-6e02-40c7-a90b-e57c54fa3c66"},"vehicle_type_id":"4","last_reported":1745587263,"current_range_meters":17200,"station_id":"ce4bhgh2rcd13ifvqfa0","pricing_plan_id":"cebpf4jnsgd1na2vs0mg"},{"bike_id":"ee61fe24-3052-476a-a28c-913cc78e6bf5","system_id":"levelo_inurba_marseille","lat":43.282669,"lon":5.350644,"is_reserved":false,"is_disabled":false,"rental_uris":{"android":"levelo://app?vid=ee61fe24-3052-476a-a28c-913cc78e6bf5","ios":"levelo://app?vid=ee61fe24-3052-476a-a28c-913cc78e6bf5"},"vehicle_type_id":"4","last_reported":1745587263,"current_range_meters":17200,"station_id":"ce4bhbp2rcd13ifvqerg","pricing_plan_id":"cebpf4jnsgd1na2vs0mg"},{"bike_id":"2c08c6a8-56f9-43cf-a860-86c93a001601","system_id":"levelo_inurba_marseille","lat":43.28441,"lon":5.35912,"is_reserved":false,"is_disabled":false,"rental_uris":{"android":"levelo://app?vid=2c08c6a8-56f9-43cf-a860-86c93a001601","ios":"levelo://app?vid=2c08c6a8-56f9-43cf-a860-86c93a001601"},"vehicle_type_id":"4","last_reported":1745587263,"current_range_meters":17600,"station_id":"ce4bhah2rcd13ifvqei0","pricing_plan_id":"cebpf4jnsgd1na2vs0mg"},{"bike_id":"7b9b2006-2f90-4420-b0a2-27cd55bc7402","system_id":"levelo_inurba_marseille","lat":43.29025,"lon":5.38125,"is_reserved":false,"is_disabled":false,"rental_uris":{"android":"levelo://app?vid=7b9b2006-2f90-4420-b0a2-27cd55bc7402","ios":"levelo://app?vid=7b9b2006-2f90-4420-b0a2-27cd55bc7402"},"vehicle_type_id":"4","last_reported":1745587263,"current_range_meters":17600,"station_id":"ce4bh4p2rcd13ifvqe1g","pricing_plan_id":"cebpf4jnsgd1na2vs0mg"},{"bike_id":"bdd0222f-8955-4090-86de-0be16c2ab322","system_id":"levelo_inurba_marseille","lat":43.298983,"lon":5.436687,"is_reserved":false,"is_disabled":false,"rental_uris":{"android":"levelo://app?vid=bdd0222f-8955-4090-86de-0be16c2ab322","ios":"levelo://app?vid=bdd0222f-8955-4090-86de-0be16c2ab322"},"vehicle_type_id":"4","last_reported":1745587263,"current_range_meters":17600,"station_id":"ce4bhpp2rcd13ifvqhfg","pricing_plan_id":"cebpf4jnsgd1na2vs0mg"},{"bike_id":"c6e47527-45ec-4abc-941c-002d34cbc310","system_id":"levelo_inurba_marseille","lat":43.27368,"lon":5.36251,"is_reserved":false,"is_disabled":false,"rental_uris":{"android":"levelo://app?vid=c6e47527-45ec-4abc-941c-002d34cbc310","ios":"levelo://app?vid=c6e47527-45ec-4abc-941c-002d34cbc310"},"vehicle_type_id":"4","last_reported":1745587263,"current_range_meters":17600,"station_id":"ce4bhbh2rcd13ifvqeo0","pricing_plan_id":"cebpf4jnsgd1na2vs0mg"},{"bike_id":"1aa914f7-2c3b-4465-b72b-0ffb93a42ae3","system_id":"levelo_inurba_marseille","lat":43.32286,"lon":5.38274,"is_reserved":false,"is_disabled":false,"rental_uris":{"android":"levelo://app?vid=1aa914f7-2c3b-4465-b72b-0ffb93a42ae3","ios":"levelo://app?vid=1aa914f7-2c3b-4465-b72b-0ffb93a42ae3"},"vehicle_type_id":"4","last_reported":1745587263,"current_range_meters":17200,"station_id":"ce4bhr12rcd13ifvqhqg","pricing_plan_id":"cebpf4jnsgd1na2vs0mg"},{"bike_id":"51a4b1f4-4cfb-4b9e-b7e6-50254ee4c796","system_id":"levelo_inurba_marseille","lat":43.28611,"lon":5.37061,"is_reserved":false,"is_disabled":true,"rental_uris":{"android":"levelo://app?vid=51a4b1f4-4cfb-4b9e-b7e6-50254ee4c796","ios":"levelo://app?vid=51a4b1f4-4cfb-4b9e-b7e6-50254ee4c796"},"vehicle_type_id":"4","last_reported":1745587263,"current_range_meters":17600,"station_id":"ce4bht12rcd13ifvqi60","pricing_plan_id":"cebpf4jnsgd1na2vs0mg"},{"bike_id":"547f6279-cbaa-423b-a621-31301de42ba1","system_id":"levelo_inurba_marseille","lat":43.26679,"lon":5.38255,"is_reserved":false,"is_disabled":false,"rental_uris":{"android":"levelo://app?vid=547f6279-cbaa-423b-a621-31301de42ba1","ios":"levelo://app?vid=547f6279-cbaa-423b-a621-31301de42ba1"},"vehicle_type_id":"4","last_reported":1745587263,"current_range_meters":18000,"station_id":"ce4bhg92rcd13ifvqf90","pricing_plan_id":"cebpf4jnsgd1na2vs0mg"},{"bike_id":"137b1a88-0dbd-47ad-8e1c-50c28f1ad968","system_id":"levelo_inurba_marseille","lat":43.29191,"lon":5.39305,"is_reserved":false,"is_disabled":false,"rental_uris":{"android":"levelo://app?vid=137b1a88-0dbd-47ad-8e1c-50c28f1ad968","ios":"levelo://app?vid=137b1a88-0dbd-47ad-8e1c-50c28f1ad968"},"vehicle_type_id":"4","last_reported":1745587263,"current_range_meters":18000,"station_id":"ce4bh192rcd13ifvqdd0","pricing_plan_id":"cebpf4jnsgd1na2vs0mg"},{"bike_id":"f19f3efa-be8e-4452-bcdc-5da507c7f2db","system_id":"levelo_inurba_marseille","lat":43.28863,"lon":5.35343,"is_reserved":false,"is_disabled":false,"rental_uris":{"android":"levelo://app?vid=f19f3efa-be8e-4452-bcdc-5da507c7f2db","ios":"levelo://app?vid=f19f3efa-be8e-4452-bcdc-5da507c7f2db"},"vehicle_type_id":"4","last_reported":1745587263,"current_range_meters":18000,"station_id":"","pricing_plan_id":"cebpf4jnsgd1na2vs0mg"},{"bike_id":"cd087707-fd41-43c5-9b15-a64d709b0196","system_id":"levelo_inurba_marseille","lat":43.305456,"lon":5.365337,"is_reserved":false,"is_disabled":false,"rental_uris":{"android":"levelo://app?vid=cd087707-fd41-43c5-9b15-a64d709b0196","ios":"levelo://app?vid=cd087707-fd41-43c5-9b15-a64d709b0196"},"vehicle_type_id":"4","last_reported":1745587263,"current_range_meters":18000,"station_id":"ce4bgs12rcd13ifvqcag","pricing_plan_id":"cebpf4jnsgd1na2vs0mg"},{"bike_id":"21978060-c5cd-4428-ac70-76cca77f5c21","system_id":"levelo_inurba_marseille","lat":43.21189,"lon":5.35068,"is_reserved":false,"is_disabled":false,"rental_uris":{"android":"levelo://app?vid=21978060-c5cd-4428-ac70-76cca77f5c21","ios":"levelo://app?vid=21978060-c5cd-4428-ac70-76cca77f5c21"},"vehicle_type_id":"4","last_reported":1745587263,"current_range_meters":18000,"station_id":"st_cvj6sg6p6f1abm77japg","pricing_plan_id":"cebpf4jnsgd1na2vs0mg"},{"bike_id":"13731016-9cf7-4d91-a42f-f54be16a7958","system_id":"levelo_inurba_marseille","lat":43.2119,"lon":5.35065,"is_reserved":false,"is_disabled":false,"rental_uris":{"android":"levelo://app?vid=13731016-9cf7-4d91-a42f-f54be16a7958","ios":"levelo://app?vid=13731016-9cf7-4d91-a42f-f54be16a7958"},"vehicle_type_id":"4","last_reported":1745587263,"current_range_meters":18000,"station_id":"st_cvj6sg6p6f1abm77japg","pricing_plan_id":"cebpf4jnsgd1na2vs0mg"},{"bike_id":"0c7ddb45-663a-4b2c-a9b0-e0681ed9bdf3","system_id":"levelo_inurba_marseille","lat":43.264908,"lon":5.395392,"is_reserved":false,"is_disabled":false,"rental_uris":{"android":"levelo://app?vid=0c7ddb45-663a-4b2c-a9b0-e0681ed9bdf3","ios":"levelo://app?vid=0c7ddb45-663a-4b2c-a9b0-e0681ed9bdf3"},"vehicle_type_id":"4","last_reported":1745587263,"current_range_meters":18800,"station_id":"ce4bhi12rcd13ifvqfq0","pricing_plan_id":"cebpf4jnsgd1na2vs0mg"},{"bike_id":"4f651b3b-33fa-47d0-877b-a71aacf62bd8","system_id":"levelo_inurba_marseille","lat":43.269334,"lon":5.388961,"is_reserved":false,"is_disabled":false,"rental_uris":{"android":"levelo://app?vid=4f651b3b-33fa-47d0-877b-a71aacf62bd8","ios":"levelo://app?vid=4f651b3b-33fa-47d0-877b-a71aacf62bd8"},"vehicle_type_id":"4","last_reported":1745587263,"current_range_meters":18000,"station_id":"ce4bhhh2rcd13ifvqfl0","pricing_plan_id":"cebpf4jnsgd1na2vs0mg"},{"bike_id":"1ad27793-6ff5-4a03-a013-161980a5f834","system_id":"levelo_inurba_marseille","lat":43.317527,"lon":5.390154,"is_reserved":false,"is_disabled":false,"rental_uris":{"android":"levelo://app?vid=1ad27793-6ff5-4a03-a013-161980a5f834","ios":"levelo://app?vid=1ad27793-6ff5-4a03-a013-161980a5f834"},"vehicle_type_id":"4","last_reported":1745587263,"current_range_meters":18800,"station_id":"","pricing_plan_id":"cebpf4jnsgd1na2vs0mg"},{"bike_id":"87d230e1-3701-4811-bc52-b6bcde5161e4","system_id":"levelo_inurba_marseille","lat":43.259288,"lon":5.409037,"is_reserved":false,"is_disabled":false,"rental_uris":{"android":"levelo://app?vid=87d230e1-3701-4811-bc52-b6bcde5161e4","ios":"levelo://app?vid=87d230e1-3701-4811-bc52-b6bcde5161e4"},"vehicle_type_id":"4","last_reported":1745587263,"current_range_meters":18800,"station_id":"ce4bhm92rcd13ifvqglg","pricing_plan_id":"cebpf4jnsgd1na2vs0mg"},{"bike_id":"002fd36d-32e4-48a4-937c-0f003f132280","system_id":"levelo_inurba_marseille","lat":43.30469,"lon":5.37892,"is_reserved":false,"is_disabled":false,"rental_uris":{"android":"levelo://app?vid=002fd36d-32e4-48a4-937c-0f003f132280","ios":"levelo://app?vid=002fd36d-32e4-48a4-937c-0f003f132280"},"vehicle_type_id":"4","last_reported":1745587263,"current_range_meters":18800,"station_id":"ce4bgup2rcd13ifvqcn0","pricing_plan_id":"cebpf4jnsgd1na2vs0mg"},{"bike_id":"ff7edc6b-64de-4307-a997-d8c714a0ffa5","system_id":"levelo_inurba_marseille","lat":43.30945,"lon":5.37499,"is_reserved":false,"is_disabled":false,"rental_uris":{"android":"levelo://app?vid=ff7edc6b-64de-4307-a997-d8c714a0ffa5","ios":"levelo://app?vid=ff7edc6b-64de-4307-a997-d8c714a0ffa5"},"vehicle_type_id":"4","last_reported":1745587263,"current_range_meters":18800,"station_id":"","pricing_plan_id":"cebpf4jnsgd1na2vs0mg"},{"bike_id":"79ffd577-c06f-4898-b813-2dd8142120d9","system_id":"levelo_inurba_marseille","lat":43.28616,"lon":5.35097,"is_reserved":false,"is_disabled":false,"rental_uris":{"android":"levelo://app?vid=79ffd577-c06f-4898-b813-2dd8142120d9","ios":"levelo://app?vid=79ffd577-c06f-4898-b813-2dd8142120d9"},"vehicle_type_id":"4","last_reported":1745587263,"current_range_meters":18800,"station_id":"ce4bhch2rcd13ifvqeug","pricing_plan_id":"cebpf4jnsgd1na2vs0mg"},{"bike_id":"93c94bf0-0989-42b8-9fdf-a02ea4794c81","system_id":"levelo_inurba_marseille","lat":43.28615,"lon":5.35105,"is_reserved":false,"is_disabled":false,"rental_uris":{"android":"levelo://app?vid=93c94bf0-0989-42b8-9fdf-a02ea4794c81","ios":"levelo://app?vid=93c94bf0-0989-42b8-9fdf-a02ea4794c81"},"vehicle_type_id":"4","last_reported":1745587263,"current_range_meters":19200,"station_id":"ce4bhch2rcd13ifvqeug","pricing_plan_id":"cebpf4jnsgd1na2vs0mg"},{"bike_id":"af158719-2b3d-43af-93a8-5807da5acfc8","system_id":"levelo_inurba_marseille","lat":43.281127,"lon":5.393125,"is_reserved":false,"is_disabled":false,"rental_uris":{"android":"levelo://app?vid=af158719-2b3d-43af-93a8-5807da5acfc8","ios":"levelo://app?vid=af158719-2b3d-43af-93a8-5807da5acfc8"},"vehicle_type_id":"4","last_reported":1745587263,"current_range_meters":19200,"station_id":"ce4bho12rcd13ifvqh2g","pricing_plan_id":"cebpf4jnsgd1na2vs0mg"},{"bike_id":"4046a82f-66e8-4b55-bd0a-356edea772d8","system_id":"levelo_inurba_marseille","lat":43.30818,"lon":5.37296,"is_reserved":false,"is_disabled":false,"rental_uris":{"android":"levelo://app?vid=4046a82f-66e8-4b55-bd0a-356edea772d8","ios":"levelo://app?vid=4046a82f-66e8-4b55-bd0a-356edea772d8"},"vehicle_type_id":"4","last_reported":1745587263,"current_range_meters":19200,"station_id":"","pricing_plan_id":"cebpf4jnsgd1na2vs0mg"},{"bike_id":"d28bf9af-5868-40cf-bc78-dd7cb5c022b5","system_id":"levelo_inurba_marseille","lat":43.2997,"lon":5.3849,"is_reserved":false,"is_disabled":true,"rental_uris":{"android":"levelo://app?vid=d28bf9af-5868-40cf-bc78-dd7cb5c022b5","ios":"levelo://app?vid=d28bf9af-5868-40cf-bc78-dd7cb5c022b5"},"vehicle_type_id":"4","last_reported":1745587263,"current_range_meters":19200,"station_id":"ce4bgj92rcd13ifvqbd0","pricing_plan_id":"cebpf4jnsgd1na2vs0mg"},{"bike_id":"94b7da04-5082-421d-aeef-f6f9b0ab2015","system_id":"levelo_inurba_marseille","lat":43.26546,"lon":5.37305,"is_reserved":false,"is_disabled":false,"rental_uris":{"android":"levelo://app?vid=94b7da04-5082-421d-aeef-f6f9b0ab2015","ios":"levelo://app?vid=94b7da04-5082-421d-aeef-f6f9b0ab2015"},"vehicle_type_id":"4","last_reported":1745587263,"current_range_meters":19200,"station_id":"ce4bhg12rcd13ifvqf70","pricing_plan_id":"cebpf4jnsgd1na2vs0mg"},{"bike_id":"b57f0b2b-13f5-4a53-835a-40ec0d56f9ae","system_id":"levelo_inurba_marseille","lat":43.28411,"lon":5.34986,"is_reserved":false,"is_disabled":false,"rental_uris":{"android":"levelo://app?vid=b57f0b2b-13f5-4a53-835a-40ec0d56f9ae","ios":"levelo://app?vid=b57f0b2b-13f5-4a53-835a-40ec0d56f9ae"},"vehicle_type_id":"4","last_reported":1745587263,"current_range_meters":19200,"station_id":"ce4bhbh2rcd13ifvqepg","pricing_plan_id":"cebpf4jnsgd1na2vs0mg"},{"bike_id":"fb81db3c-12e2-44b7-8142-2689708da6f1","system_id":"levelo_inurba_marseille","lat":43.30836,"lon":5.37242,"is_reserved":false,"is_disabled":false,"rental_uris":{"android":"levelo://app?vid=fb81db3c-12e2-44b7-8142-2689708da6f1","ios":"levelo://app?vid=fb81db3c-12e2-44b7-8142-2689708da6f1"},"vehicle_type_id":"4","last_reported":1745587263,"current_range_meters":19200,"station_id":"ce4bguh2rcd13ifvqckg","pricing_plan_id":"cebpf4jnsgd1na2vs0mg"},{"bike_id":"013c7431-5f2a-476f-b7e9-bc710f8a703b","system_id":"levelo_inurba_marseille","lat":43.284143,"lon":5.349855,"is_reserved":false,"is_disabled":false,"rental_uris":{"android":"levelo://app?vid=013c7431-5f2a-476f-b7e9-bc710f8a703b","ios":"levelo://app?vid=013c7431-5f2a-476f-b7e9-bc710f8a703b"},"vehicle_type_id":"4","last_reported":1745587263,"current_range_meters":19200,"station_id":"ce4bhbh2rcd13ifvqepg","pricing_plan_id":"cebpf4jnsgd1na2vs0mg"},{"bike_id":"23e93aa3-4c73-424f-aa88-df238cdd0728","system_id":"levelo_inurba_marseille","lat":43.28853,"lon":5.35335,"is_reserved":false,"is_disabled":false,"rental_uris":{"android":"levelo://app?vid=23e93aa3-4c73-424f-aa88-df238cdd0728","ios":"levelo://app?vid=23e93aa3-4c73-424f-aa88-df238cdd0728"},"vehicle_type_id":"4","last_reported":1745587263,"current_range_meters":19200,"station_id":"","pricing_plan_id":"cebpf4jnsgd1na2vs0mg"},{"bike_id":"9fac8949-580c-4814-ac69-31148581f4a2","system_id":"levelo_inurba_marseille","lat":43.32992,"lon":5.39118,"is_reserved":false,"is_disabled":false,"rental_uris":{"android":"levelo://app?vid=9fac8949-580c-4814-ac69-31148581f4a2","ios":"levelo://app?vid=9fac8949-580c-4814-ac69-31148581f4a2"},"vehicle_type_id":"4","last_reported":1745587263,"current_range_meters":19200,"station_id":"","pricing_plan_id":"cebpf4jnsgd1na2vs0mg"},{"bike_id":"7010b0dc-5272-435f-9453-e52c939ab5cf","system_id":"levelo_inurba_marseille","lat":43.28436,"lon":5.39207,"is_reserved":false,"is_disabled":false,"rental_uris":{"android":"levelo://app?vid=7010b0dc-5272-435f-9453-e52c939ab5cf","ios":"levelo://app?vid=7010b0dc-5272-435f-9453-e52c939ab5cf"},"vehicle_type_id":"4","last_reported":1745587263,"current_range_meters":19200,"station_id":"ce4bhoh2rcd13ifvqh5g","pricing_plan_id":"cebpf4jnsgd1na2vs0mg"},