{"last_updated":1720814923,"ttl":30,"version":"2.2","data":{"bikes":[{"bike_id":"72484578-c6f3-43a6-a1bf-adfbe5c13a22","system_id":"levelo_inurba_marseille","lat":43.313391,"lon":5.36706,"is_reserved":false,"is_disabled":false,"rental_uris":{"android":"levelo://app?vid=72484578-c6f3-43a6-a1bf-adfbe5c13a22","ios":"levelo://app?vid=72484578-c6f3-43a6-a1bf-adfbe5c13a22"},"vehicle_type_id":"4","last_reported":1720814923,"current_range_meters":10800,"station_id":"ce4bgr92rcd13ifvqc6g","pricing_plan_id":"cebpf4jnsgd1na2vs0mg"},{"bike_id":"737b4a9f-eca1-4f4f-9509-bd3ddc92a32a","system_id":"levelo_inurba_marseille","lat":43.31225,"lon":5.36823,"is_reserved":false,"is_disabled":false,"rental_uris":{"android":"levelo://app?vid=737b4a9f-eca1-4f4f-9509-bd3ddc92a32a","ios":"levelo://app?vid=737b4a9f-eca1-4f4f-9509-bd3ddc92a32a"},"vehicle_type_id":"4","last_reported":1720814923,"current_range_meters":14000,"station_id":"ce4bgl92rcd13ifvqbq0","pricing_plan_id":"cebpf4jnsgd1na2vs0mg"},{"bike_id":"c1159dc5-5565-4caa-a289-60847b313071","system_id":"levelo_inurba_marseille","lat":43.313611,"lon":5.3678,"is_reserved":false,"is_disabled":false,"rental_uris":{"android":"levelo://app?vid=c1159dc5-5565-4caa-a289-60847b313071","ios":"levelo://app?vid=c1159dc5-5565-4caa-a289-60847b313071"},"vehicle_type_id":"4","last_reported":1720814923,"current_range_meters":17600,"station_id":"","pricing_plan_id":"cebpf4jnsgd1na2vs0mg"},{"bike_id":"55ff910c-ad64-4ed3-b5f9-888fe97b2b6a","system_id":"levelo_inurba_marseille","lat":43.312239,"lon":5.368562,"is_reserved":false,"is_disabled":false,"rental_uris":{"android":"levelo://app?vid=55ff910c-ad64-4ed3-b5f9-888fe97b2b6a","ios":"levelo://app?vid=55ff910c-ad64-4ed3-b5f9-888fe97b2b6a"},"vehicle_type_id":"4","last_reported":1720814923,"current_range_meters":2400,"station_id":"ce4bgl92rcd13ifvqbq0","pricing_plan_id":"cebpf4jnsgd1na2vs0mg"},{"bike_id":"b6489af0-2aea-491d-a785-56786c4fa5fe","system_id":"levelo_inurba_marseille","lat":43.312239,"lon":5.368562,"is_reserved":false,"is_disabled":false,"rental_uris":{"android":"levelo://app?vid=b6489af0-2aea-491d-a785-56786c4fa5fe","ios":"levelo://app?vid=b6489af0-2aea-491d-a785-56786c4fa5fe"},"vehicle_type_id":"4","last_reported":1720814923,"current_range_meters":13200,"station_id":"ce4bgl92rcd13ifvqbq0","pricing_plan_id":"cebpf4jnsgd1na2vs0mg"},{"bike_id":"5aacbe83-8653-4324-9fe0-ea81f79bf389","system_id":"levelo_inurba_marseille","lat":43.312239,"lon":5.368562,"is_reserved":false,"is_disabled":false,"rental_uris":{"android":"levelo://app?vid=5aacbe83-8653-4324-9fe0-ea81f79bf389","ios":"levelo://app?vid=5aacbe83-8653-4324-9fe0-ea81f79bf389"},"vehicle_type_id":"4","last_reported":1720814923,"current_range_meters":4800,"station_id":"ce4bgl92rcd13ifvqbq0","pricing_plan_id":"cebpf4jnsgd1na2vs0mg"},{"bike_id":"94d2d45e-1ba9-4e71-afd0-358e1fd1925c","system_id":"levelo_inurba_marseille","lat":43.312239,"lon":5.368562,"is_reserved":false,"is_disabled":false,"rental_uris":{"android":"levelo://app?vid=94d2d45e-1ba9-4e71-afd0-358e1fd1925c","ios":"levelo://app?vid=94d2d45e-1ba9-4e71-afd0-358e1fd1925c"},"vehicle_type_id":"4","last_reported":1720814923,"current_range_meters":26800,"station_id":"ce4bgl92rcd13ifvqbq0","pricing_plan_id":"cebpf4jnsgd1na2vs0mg"},{"bike_id":"8e36275f-e332-4064-9b42-0cdce8578a41","system_id":"levelo_inurba_marseille","lat":43.309039,"lon":5.371797,"is_reserved":false,"is_disabled":false,"rental_uris":{"android":"levelo://app?vid=8e36275f-e332-4064-9b42-0cdce8578a41","ios":"levelo://app?vid=8e36275f-e332-4064-9b42-0cdce8578a41"},"vehicle_type_id":"4","last_reported":1720814923,"current_range_meters":16400,"station_id":"ce4bguh2rcd13ifvqckg","pricing_plan_id":"cebpf4jnsgd1na2vs0mg"},{"bike_id":"e7bc8485-f392-4b43-b1da-b6795f9d6695","system_id":"levelo_inurba_marseille","lat":43.305714,"lon":5.365633,"is_reserved":false,"is_disabled":false,"rental_uris":{"android":"levelo://app?vid=e7bc8485-f392-4b43-b1da-b6795f9d6695","ios":"levelo://app?vid=e7bc8485-f392-4b43-b1da-b6795f9d6695"},"vehicle_type_id":"4","last_reported":1720814923,"current_range_meters":0,"station_id":"ce4bgs12rcd13ifvqcag","pricing_plan_id":"cebpf4jnsgd1na2vs0mg"},{"bike_id":"9a966f2a-57cc-42e9-a580-0493a08d1a40","system_id":"levelo_inurba_marseille","lat":43.305714,"lon":5.365633,"is_reserved":false,"is_disabled":false,"rental_uris":{"android":"levelo://app?vid=9a966f2a-57cc-42e9-a580-0493a08d1a40","ios":"levelo://app?vid=9a966f2a-57cc-42e9-a580-0493a08d1a40"},"vehicle_type_id":"4","last_reported":1720814923,"current_range_meters":26800,"station_id":"ce4bgs12rcd13ifvqcag","pricing_plan_id":"cebpf4jnsgd1na2vs0mg"},{"bike_id":"0ed80767-9361-4832-9818-96218a138a51","system_id":"levelo_inurba_marseille","lat":43.30601,"lon":5.37232,"is_reserved":false,"is_disabled":false,"rental_uris":{"android":"levelo://app?vid=0ed80767-9361-4832-9818-96218a138a51","ios":"levelo://app?vid=0ed80767-9361-4832-9818-96218a138a51"},"vehicle_type_id":"4","last_reported":1720814923,"current_range_meters":0,"station_id":"ce4bgqh2rcd13ifvqc4g","pricing_plan_id":"cebpf4jnsgd1na2vs0mg"},{"bike_id":"cc08e58e-67ed-4a9a-8935-0c113b15436f","system_id":"levelo_inurba_marseille","lat":43.30779,"lon":5.37639,"is_reserved":false,"is_disabled":false,"rental_uris":{"android":"levelo://app?vid=cc08e58e-67ed-4a9a-8935-0c113b15436f","ios":"levelo://app?vid=cc08e58e-67ed-4a9a-8935-0c113b15436f"},"vehicle_type_id":"4","last_reported":1720814923,"current_range_meters":23600,"station_id":"ce4bgv92rcd13ifvqcq0","pricing_plan_id":"cebpf4jnsgd1na2vs0mg"},{"bike_id":"e0ee1c8f-d20d-4975-bcb1-ceb603e746f5","system_id":"levelo_inurba_marseille","lat":43.307945,"lon":5.376487,"is_reserved":false,"is_disabled":false,"rental_uris":{"android":"levelo://app?vid=e0ee1c8f-d20d-4975-bcb1-ceb603e746f5","ios":"levelo://app?vid=e0ee1c8f-d20d-4975-bcb1-ceb603e746f5"},"vehicle_type_id":"4","last_reported":1720814923,"current_range_meters":9200,"station_id":"ce4bgv92rcd13ifvqcq0","pricing_plan_id":"cebpf4jnsgd1na2vs0mg"},{"bike_id":"9e1963fb-a450-4d07-a11c-0efb6978d95c","system_id":"levelo_inurba_marseille","lat":43.307945,"lon":5.376487,"is_reserved":false,"is_disabled":false,"rental_uris":{"android":"levelo://app?vid=9e1963fb-a450-4d07-a11c-0efb6978d95c","ios":"levelo://app?vid=9e1963fb-a450-4d07-a11c-0efb6978d95c"},"vehicle_type_id":"4","last_reported":1720814923,"current_range_meters":30400,"station_id":"ce4bgv92rcd13ifvqcq0","pricing_plan_id":"cebpf4jnsgd1na2vs0mg"},{"bike_id":"2b4da476-2e26-40be-9aee-5dbf144bd864","system_id":"levelo_inurba_marseille","lat":43.310317,"lon":5.380607,"is_reserved":false,"is_disabled":false,"rental_uris":{"android":"levelo://app?vid=2b4da476-2e26-40be-9aee-5dbf144bd864","ios":"levelo://app?vid=2b4da476-2e26-40be-9aee-5dbf144bd864"},"vehicle_type_id":"4","last_reported":1720814923,"current_range_meters":11600,"station_id":"","pricing_plan_id":"cebpf4jnsgd1na2vs0mg"},{"bike_id":"bd1fe651-ba22-46dc-865e-c3959ac46372","system_id":"levelo_inurba_marseille","lat":43.31184,"lon":5.38124,"is_reserved":false,"is_disabled":false,"rental_uris":{"android":"levelo://app?vid=bd1fe651-ba22-46dc-865e-c3959ac46372","ios":"levelo://app?vid=bd1fe651-ba22-46dc-865e-c3959ac46372"},"vehicle_type_id":"4","last_reported":1720814923,"current_range_meters":25600,"station_id":"","pricing_plan_id":"cebpf4jnsgd1na2vs0mg"},{"bike_id":"5b528fce-ce64-4d6d-9168-c1d7d92cda4c","system_id":"levelo_inurba_marseille","lat":43.301939,"lon":5.366286,"is_reserved":false,"is_disabled":false,"rental_uris":{"android":"levelo://app?vid=5b528fce-ce64-4d6d-9168-c1d7d92cda4c","ios":"levelo://app?vid=5b528fce-ce64-4d6d-9168-c1d7d92cda4c"},"vehicle_type_id":"4","last_reported":1720814923,"current_range_meters":3200,"station_id":"ce4bgrh2rcd13ifvqc8g","pricing_plan_id":"cebpf4jnsgd1na2vs0mg"},{"bike_id":"a47285e7-2616-4dee-abb3-999bd832caf8","system_id":"levelo_inurba_marseille","lat":43.30174,"lon":5.36831,"is_reserved":false,"is_disabled":false,"rental_uris":{"android":"levelo://app?vid=a47285e7-2616-4dee-abb3-999bd832caf8","ios":"levelo://app?vid=a47285e7-2616-4dee-abb3-999bd832caf8"},"vehicle_type_id":"4","last_reported":1720814923,"current_range_meters":13200,"station_id":"","pricing_plan_id":"cebpf4jnsgd1na2vs0mg"},{"bike_id":"e3b50e1c-e045-476c-b7b6-0c071d9fd16b","system_id":"levelo_inurba_marseille","lat":43.308012,"lon":5.381511,"is_reserved":false,"is_disabled":false,"rental_uris":{"android":"levelo://app?vid=e3b50e1c-e045-476c-b7b6-0c071d9fd16b","ios":"levelo://app?vid=e3b50e1c-e045-476c-b7b6-0c071d9fd16b"},"vehicle_type_id":"4","last_reported":1720814923,"current_range_meters":29200,"station_id":"ce4bgt12rcd13ifvqce0","pricing_plan_id":"cebpf4jnsgd1na2vs0mg"},{"bike_id":"0b8b0b93-5412-4758-958e-76b96b83bad9","system_id":"levelo_inurba_marseille","lat":43.308012,"lon":5.381511,"is_reserved":false,"is_disabled":false,"rental_uris":{"android":"levelo://app?vid=0b8b0b93-5412-4758-958e-76b96b83bad9","ios":"levelo://app?vid=0b8b0b93-5412-4758-958e-76b96b83bad9"},"vehicle_type_id":"4","last_reported":1720814923,"current_range_meters":29200,"station_id":"ce4bgt12rcd13ifvqce0","pricing_plan_id":"cebpf4jnsgd1na2vs0mg"},{"bike_id":"74988a58-b2ea-4e3b-88d3-14778672a857","system_id":"levelo_inurba_marseille","lat":43.308012,"lon":5.381511,"is_reserved":false,"is_disabled":false,"rental_uris":{"android":"levelo://app?vid=74988a58-b2ea-4e3b-88d3-14778672a857","ios":"levelo://app?vid=74988a58-b2ea-4e3b-88d3-14778672a857"},"vehicle_type_id":"4","last_reported":1720814923,"current_range_meters":29200,"station_id":"ce4bgt12rcd13ifvqce0","pricing_plan_id":"cebpf4jnsgd1na2vs0mg"},{"bike_id":"3e94c0ee-be32-40d9-bba2-8433d1985d73","system_id":"levelo_inurba_marseille","lat":43.304606,"lon":5.379026,"is_reserved":false,"is_disabled":false,"rental_uris":{"android":"levelo://app?vid=3e94c0ee-be32-40d9-bba2-8433d1985d73","ios":"levelo://app?vid=3e94c0ee-be32-40d9-bba2-8433d1985d73"},"vehicle_type_id":"4","last_reported":1720814923,"current_range_meters":2800,"station_id":"ce4bgup2rcd13ifvqcn0","pricing_plan_id":"cebpf4jnsgd1na2vs0mg"},{"bike_id":"a708eeda-0c95-47c3-9130-5a325260f26b","system_id":"levelo_inurba_marseille","lat":43.324771,"lon":5.36557,"is_reserved":false,"is_disabled":false,"rental_uris":{"android":"levelo://app?vid=a708eeda-0c95-47c3-9130-5a325260f26b","ios":"levelo://app?vid=a708eeda-0c95-47c3-9130-5a325260f26b"},"vehicle_type_id":"4","last_reported":1720814923,"current_range_meters":17600,"station_id":"ce4bhs12rcd13ifvqhvg","pricing_plan_id":"cebpf4jnsgd1na2vs0mg"},{"bike_id":"2552e0d5-838e-4ff9-8772-70adc00a90a2","system_id":"levelo_inurba_marseille","lat":43.324771,"lon":5.36557,"is_reserved":false,"is_disabled":false,"rental_uris":{"android":"levelo://app?vid=2552e0d5-838e-4ff9-8772-70adc00a90a2","ios":"levelo://app?vid=2552e0d5-838e-4ff9-8772-70adc00a90a2"},"vehicle_type_id":"4","last_reported":1720814923,"current_range_meters":31200,"station_id":"ce4bhs12rcd13ifvqhvg","pricing_plan_id":"cebpf4jnsgd1na2vs0mg"},{"bike_id":"d0b0bde7-d52e-4c96-9ade-c2f22653268e","system_id":"levelo_inurba_marseille","lat":43.324771,"lon":5.36557,"is_reserved":false,"is_disabled":false,"rental_uris":{"android":"levelo://app?vid=d0b0bde7-d52e-4c96-9ade-c2f22653268e","ios":"levelo://app?vid=d0b0bde7-d52e-4c96-9ade-c2f22653268e"},"vehicle_type_id":"4","last_reported":1720814923,"current_range_meters":10400,"station_id":"ce4bhs12rcd13ifvqhvg","pricing_plan_id":"cebpf4jnsgd1na2vs0mg"},{"bike_id":"e08220b4-8d6c-4b95-901a-1c37f60540a4","system_id":"levelo_inurba_marseille","lat":43.324771,"lon":5.36557,"is_reserved":false,"is_disabled":false,"rental_uris":{"android":"levelo://app?vid=e08220b4-8d6c-4b95-901a-1c37f60540a4","ios":"levelo://app?vid=e08220b4-8d6c-4b95-901a-1c37f60540a4"},"vehicle_type_id":"4","last_reported":1720814923,"current_range_meters":20400,"station_id":"ce4bhs12rcd13ifvqhvg","pricing_plan_id":"cebpf4jnsgd1na2vs0mg"},{"bike_id":"b7075c7b-2c25-42ab-883a-e6ad095eb7ec","system_id":"levelo_inurba_marseille","lat":43.32481,"lon":5.36564,"is_reserved":false,"is_disabled":false,"rental_uris":{"android":"levelo://app?vid=b7075c7b-2c25-42ab-883a-e6ad095eb7ec","ios":"levelo://app?vid=b7075c7b-2c25-42ab-883a-e6ad095eb7ec"},"vehicle_type_id":"4","last_reported":1720814923,"current_range_meters":6800,"station_id":"ce4bhs12rcd13ifvqhvg","pricing_plan_id":"cebpf4jnsgd1na2vs0mg"},{"bike_id":"21252025-cf9c-4852-ab78-01d2cbced8b0","system_id":"levelo_inurba_marseille","lat":43.32483,"lon":5.36569,"is_reserved":false,"is_disabled":false,"rental_uris":{"android":"levelo://app?vid=21252025-cf9c-4852-ab78-01d2cbced8b0","ios":"levelo://app?vid=21252025-cf9c-4852-ab78-01d2cbced8b0"},"vehicle_type_id":"4","last_reported":1720814923,"current_range_meters":0,"station_id":"ce4bhs12rcd13ifvqhvg","pricing_plan_id":"cebpf4jnsgd1na2vs0mg"},{"bike_id":"8cef89db-5f5e-49ee-9ae1-a8cf17c4a2ad","system_id":"levelo_inurba_marseille","lat":43.32484,"lon":5.36569,"is_reserved":false,"is_disabled":false,"rental_uris":{"android":"levelo://app?vid=8cef89db-5f5e-49ee-9ae1-a8cf17c4a2ad","ios":"levelo://app?vid=8cef89db-5f5e-49ee-9ae1-a8cf17c4a2ad"},"vehicle_type_id":"4","last_reported":1720814923,"current_range_meters":4000,"station_id":"ce4bhs12rcd13ifvqhvg","pricing_plan_id":"cebpf4jnsgd1na2vs0mg"},{"bike_id":"dd9a1eb3-df9b-4b90-bc53-1ce853eeb3ca","system_id":"levelo_inurba_marseille","lat":43.310804,"lon":5.38359,"is_reserved":false,"is_disabled":false,"rental_uris":{"android":"levelo://app?vid=dd9a1eb3-df9b-4b90-bc53-1ce853eeb3ca","ios":"levelo://app?vid=dd9a1eb3-df9b-4b90-bc53-1ce853eeb3ca"},"vehicle_type_id":"4","last_reported":1720814923,"current_range_meters":29200,"station_id":"ce4bgv92rcd13ifvqcr0","pricing_plan_id":"cebpf4jnsgd1na2vs0mg"},{"bike_id":"424ca4d3-5a11-4656-acf1-342b1dd476dd","system_id":"levelo_inurba_marseille","lat":43.310804,"lon":5.38359,"is_reserved":false,"is_disabled":false,"rental_uris":{"android":"levelo://app?vid=424ca4d3-5a11-4656-acf1-342b1dd476dd","ios":"levelo://app?vid=424ca4d3-5a11-4656-acf1-342b1dd476dd"},"vehicle_type_id":"4","last_reported":1720814923,"current_range_meters":0,"station_id":"ce4bgv92rcd13ifvqcr0","pricing_plan_id":"cebpf4jnsgd1na2vs0mg"},{"bike_id":"d79663e1-2e50-4ae5-985a-b8a1ffad9aaf","system_id":"levelo_inurba_marseille","lat":43.30578,"lon":5.3818,"is_reserved":false,"is_disabled":false,"rental_uris":{"android":"levelo://app?vid=d79663e1-2e50-4ae5-985a-b8a1ffad9aaf","ios":"levelo://app?vid=d79663e1-2e50-4ae5-985a-b8a1ffad9aaf"},"vehicle_type_id":"4","last_reported":1720814923,"current_range_meters":17600,"station_id":"","pricing_plan_id":"cebpf4jnsgd1na2vs0mg"},{"bike_id":"6811fe15-1d4c-4b61-9425-2a55d54461f9","system_id":"levelo_inurba_marseille","lat":43.313571,"lon":5.384829,"is_reserved":false,"is_disabled":false,"rental_uris":{"android":"levelo://app?vid=6811fe15-1d4c-4b61-9425-2a55d54461f9","ios":"levelo://app?vid=6811fe15-1d4c-4b61-9425-2a55d54461f9"},"vehicle_type_id":"4","last_reported":1720814923,"current_range_meters":2400,"station_id":"ce4bgt92rcd13ifvqcf0","pricing_plan_id":"cebpf4jnsgd1na2vs0mg"},{"bike_id":"85eb078c-5255-4514-b114-3c3ce70cf338","system_id":"levelo_inurba_marseille","lat":43.313571,"lon":5.384829,"is_reserved":false,"is_disabled":false,"rental_uris":{"android":"levelo://app?vid=85eb078c-5255-4514-b114-3c3ce70cf338","ios":"levelo://app?vid=85eb078c-5255-4514-b114-3c3ce70cf338"},"vehicle_type_id":"4","last_reported":1720814923,"current_range_meters":31200,"station_id":"ce4bgt92rcd13ifvqcf0","pricing_plan_id":"cebpf4jnsgd1na2vs0mg"},{"bike_id":"41761f60-ae62-4bea-99e4-06d5a840916f","system_id":"levelo_inurba_marseille","lat":43.313571,"lon":5.384829,"is_reserved":false,"is_disabled":false,"rental_uris":{"android":"levelo://app?vid=41761f60-ae62-4bea-99e4-06d5a840916f","ios":"levelo://app?vid=41761f60-ae62-4bea-99e4-06d5a840916f"},"vehicle_type_id":"4","last_reported":1720814923,"current_range_meters":28800,"station_id":"ce4bgt92rcd13ifvqcf0","pricing_plan_id":"cebpf4jnsgd1na2vs0mg"},{"bike_id":"63c7920b-e038-4005-94d9-5b067ac564a6","system_id":"levelo_inurba_marseille","lat":43.313571,"lon":5.384829,"is_reserved":false,"is_disabled":false,"rental_uris":{"android":"levelo://app?vid=63c7920b-e038-4005-94d9-5b067ac564a6","ios":"levelo://app?vid=63c7920b-e038-4005-94d9-5b067ac564a6"},"vehicle_type_id":"4","last_reported":1720814923,"current_range_meters":1200,"station_id":"ce4bgt92rcd13ifvqcf0","pricing_plan_id":"cebpf4jnsgd1na2vs0mg"},{"bike_id":"8ee463d2-bb4c-4082-81cc-4607c8588c01","system_id":"levelo_inurba_marseille","lat":43.313571,"lon":5.384829,"is_reserved":false,"is_disabled":false,"rental_uris":{"android":"levelo://app?vid=8ee463d2-bb4c-4082-81cc-4607c8588c01","ios":"levelo://app?vid=8ee463d2-bb4c-4082-81cc-4607c8588c01"},"vehicle_type_id":"4","last_reported":1720814923,"current_range_meters":27200,"station_id":"ce4bgt92rcd13ifvqcf0","pricing_plan_id":"cebpf4jnsgd1na2vs0mg"},{"bike_id":"41d0499b-5f62-4526-bc29-ab58e7127057","system_id":"levelo_inurba_marseille","lat":43.31244,"lon":5.38498,"is_reserved":false,"is_disabled":false,"rental_uris":{"android":"levelo://app?vid=41d0499b-5f62-4526-bc29-ab58e7127057","ios":"levelo://app?vid=41d0499b-5f62-4526-bc29-ab58e7127057"},"vehicle_type_id":"4","last_reported":1720814923,"current_range_meters":2000,"station_id":"","pricing_plan_id":"cebpf4jnsgd1na2vs0mg"},{"bike_id":"c19ee612-0801-40e3-b957-60c9e96bdb38","system_id":"levelo_inurba_marseille","lat":43.313571,"lon":5.384829,"is_reserved":false,"is_disabled":false,"rental_uris":{"android":"levelo://app?vid=c19ee612-0801-40e3-b957-60c9e96bdb38","ios":"levelo://app?vid=c19ee612-0801-40e3-b957-60c9e96bdb38"},"vehicle_type_id":"4","last_reported":1720814923,"current_range_meters":0,"station_id":"ce4bgt92rcd13ifvqcf0","pricing_plan_id":"cebpf4jnsgd1na2vs0mg"},{"bike_id":"5f234477-2f21-49f8-ac29-a8f7fc1cdc8c","system_id":"levelo_inurba_marseille","lat":43.30056,"lon":5.37447,"is_reserved":false,"is_disabled":false,"rental_uris":{"android":"levelo://app?vid=5f234477-2f21-49f8-ac29-a8f7fc1cdc8c","ios":"levelo://app?vid=5f234477-2f21-49f8-ac29-a8f7fc1cdc8c"},"vehicle_type_id":"4","last_reported":1720814923,"current_range_meters":22000,"station_id":"","pricing_plan_id":"cebpf4jnsgd1na2vs0mg"},{"bike_id":"969ee7f0-ba7f-41c2-af9d-e2f2dd5a213b","system_id":"levelo_inurba_marseille","lat":43.299222,"lon":5.365554,"is_reserved":false,"is_disabled":false,"rental_uris":{"android":"levelo://app?vid=969ee7f0-ba7f-41c2-af9d-e2f2dd5a213b","ios":"levelo://app?vid=969ee7f0-ba7f-41c2-af9d-e2f2dd5a213b"},"vehicle_type_id":"4","last_reported":1720814923,"current_range_meters":24800,"station_id":"ce4bgm92rcd13ifvqbr0","pricing_plan_id":"cebpf4jnsgd1na2vs0mg"},{"bike_id":"cf27b25f-d0ed-4dfc-bc79-27439b355777","system_id":"levelo_inurba_marseille","lat":43.299222,"lon":5.365554,"is_reserved":false,"is_disabled":false,"rental_uris":{"android":"levelo://app?vid=cf27b25f-d0ed-4dfc-bc79-27439b355777","ios":"levelo://app?vid=cf27b25f-d0ed-4dfc-bc79-27439b355777"},"vehicle_type_id":"4","last_reported":1720814923,"current_range_meters":0,"station_id":"ce4bgm92rcd13ifvqbr0","pricing_plan_id":"cebpf4jnsgd1na2vs0mg"},{"bike_id":"5c969ed2-179f-4886-9d92-bc9257c0dd12","system_id":"levelo_inurba_marseille","lat":43.299222,"lon":5.365554,"is_reserved":false,"is_disabled":false,"rental_uris":{"android":"levelo://app?vid=5c969ed2-179f-4886-9d92-bc9257c0dd12","ios":"levelo://app?vid=5c969ed2-179f-4886-9d92-bc9257c0dd12"},"vehicle_type_id":"4","last_reported":1720814923,"current_range_meters":1200,"station_id":"ce4bgm92rcd13ifvqbr0","pricing_plan_id":"cebpf4jnsgd1na2vs0mg"},{"bike_id":"2db8a21a-ed63-45a9-9c7e-94ba7529f12e","system_id":"levelo_inurba_marseille","lat":43.299724,"lon":5.371829,"is_reserved":false,"is_disabled":false,"rental_uris":{"android":"levelo://app?vid=2db8a21a-ed63-45a9-9c7e-94ba7529f12e","ios":"levelo://app?vid=2db8a21a-ed63-45a9-9c7e-94ba7529f12e"},"vehicle_type_id":"4","last_reported":1720814923,"current_range_meters":27600,"station_id":"ce4bgr92rcd13ifvqc7g","pricing_plan_id":"cebpf4jnsgd1na2vs0mg"},{"bike_id":"69f914a8-0a57-4712-8023-c646e405eb3d","system_id":"levelo_inurba_marseille","lat":43.299222,"lon":5.365554,"is_reserved":false,"is_disabled":false,"rental_uris":{"android":"levelo://app?vid=69f914a8-0a57-4712-8023-c646e405eb3d","ios":"levelo://app?vid=69f914a8-0a57-4712-8023-c646e405eb3d"},"vehicle_type_id":"4","last_reported":1720814923,"current_range_meters":29600,"station_id":"ce4bgm92rcd13ifvqbr0","pricing_plan_id":"cebpf4jnsgd1na2vs0mg"},{"bike_id":"c309e1da-aa3b-486e-9232-82d027b734cf","system_id":"levelo_inurba_marseille","lat":43.29844,"lon":5.36469,"is_reserved":false,"is_disabled":false,"rental_uris":{"android":"levelo://app?vid=c309e1da-aa3b-486e-9232-82d027b734cf","ios":"levelo://app?vid=c309e1da-aa3b-486e-9232-82d027b734cf"},"vehicle_type_id":"4","last_reported":1720814923,"current_range_meters":14400,"station_id":"","pricing_plan_id":"cebpf4jnsgd1na2vs0mg"},{"bike_id":"2e9b9134-0b6f-4620-80ab-35cccec98f88","system_id":"levelo_inurba_marseille","lat":43.294153,"lon":5.386305,"is_reserved":false,"is_disabled":false,"rental_uris":{"android":"levelo://app?vid=2e9b9134-0b6f-4620-80ab-35cccec98f88","ios":"levelo://app?vid=2e9b9134-0b6f-4620-80ab-35cccec98f88"},"vehicle_type_id":"4","last_reported":1720814923,"current_range_meters":18800,"station_id":"ce4bh2h2rcd13ifvqdh0","pricing_plan_id":"cebpf4jnsgd1na2vs0mg"},{"bike_id":"eb55c736-b5df-48d2-bb0b-5ce35a324011","system_id":"levelo_inurba_marseille","lat":43.305364,"lon":5.384119,"is_reserved":false,"is_disabled":false,"rental_uris":{"android":"levelo://app?vid=eb55c736-b5df-48d2-bb0b-5ce35a324011","ios":"levelo://app?vid=eb55c736-b5df-48d2-bb0b-5ce35a324011"},"vehicle_type_id":"4","last_reported":1720814923,"current_range_meters":4400,"station_id":"ce4bgg92rcd13ifvqb30","pricing_plan_id":"cebpf4jnsgd1na2vs0mg"},{"bike_id":"469d604d-5058-4e5b-ba6c-b878361b1965","system_id":"levelo_inurba_marseille","lat":43.305364,"lon":5.384119,"is_reserved":false,"is_disabled":false,"rental_uris":{"android":"levelo://app?vid=469d604d-5058-4e5b-ba6c-b878361b1965","ios":"levelo://app?vid=469d604d-5058-4e5b-ba6c-b878361b1965"},"vehicle_type_id":"4","last_reported":1720814923,"current_range_meters":31600,"station_id":"ce4bgg92rcd13ifvqb30","pricing_plan_id":"cebpf4jnsgd1na2vs0mg"},{"bike_id":"61631bbc-b4ba-4a6c-aedc-3dcdcf97b247","system_id":"levelo_inurba_marseille","lat":43.2985,"lon":5.36285,"is_reserved":false,"is_disabled":false,"rental_uris":{"android":"levelo://app?vid=61631bbc-b4ba-4a6c-aedc-3dcdcf97b247","ios":"levelo://app?vid=61631bbc-b4ba-4a6c-aedc-3dcdcf97b247"},"vehicle_type_id":"4","last_reported":1720814923,"current_range_meters":24400,"station_id":"ce4bgpp2rcd13ifvqc3g","pricing_plan_id":"cebpf4jnsgd1na2vs0mg"},{"bike_id":"975b1334-720d-4fe5-8711-b941cc938679","system_id":"levelo_inurba_marseille","lat":43.2985,"lon":5.36285,"is_reserved":false,"is_disabled":false,"rental_uris":{"android":"levelo://app?vid=975b1334-720d-4fe5-8711-b941cc938679","ios":"levelo://app?vid=975b1334-720d-4fe5-8711-b941cc938679"},"vehicle_type_id":"4","last_reported":1720814923,"current_range_meters":0,"station_id":"ce4bgpp2rcd13ifvqc3g","pricing_plan_id":"cebpf4jnsgd1na2vs0mg"},{"bike_id":"1353820a-ff46-4969-85fe-ab7281ca22ae","system_id":"levelo_inurba_marseille","lat":43.298433,"lon":5.362774,"is_reserved":false,"is_disabled":false,"rental_uris":{"android":"levelo://app?vid=1353820a-ff46-4969-85fe-ab7281ca22ae","ios":"levelo://app?vid=1353820a-ff46-4969-85fe-ab7281ca22ae"},"vehicle_type_id":"4","last_reported":1720814923,"current_range_meters":25600,"station_id":"ce4bgpp2rcd13ifvqc3g","pricing_plan_id":"cebpf4jnsgd1na2vs0mg"},{"bike_id":"f2e49bbc-f7ec-4e12-a248-a23b38ee0482","system_id":"levelo_inurba_marseille","lat":43.305364,"lon":5.384119,"is_reserved":false,"is_disabled":false,"rental_uris":{"android":"levelo://app?vid=f2e49bbc-f7ec-4e12-a248-a23b38ee0482","ios":"levelo://app?vid=f2e49bbc-f7ec-4e12-a248-a23b38ee0482"},"vehicle_type_id":"4","last_reported":1720814923,"current_range_meters":15600,"station_id":"ce4bgg92rcd13ifvqb30","pricing_plan_id":"cebpf4jnsgd1na2vs0mg"},{"bike_id":"69c1e9f6-0fb5-4497-9e63-7ce256c3e9e7","system_id":"levelo_inurba_marseille","lat":43.298433,"lon":5.362774,"is_reserved":false,"is_disabled":false,"rental_uris":{"android":"levelo://app?vid=69c1e9f6-0fb5-4497-9e63-7ce256c3e9e7","ios":"levelo://app?vid=69c1e9f6-0fb5-4497-9e63-7ce256c3e9e7"},"vehicle_type_id":"4","last_reported":1720814923,"current_range_meters":31200,"station_id":"ce4bgpp2rcd13ifvqc3g","pricing_plan_id":"cebpf4jnsgd1na2vs0mg"},{"bike_id":"36ad2b35-fd8f-4ec3-98f5-da4bbdf9da98","system_id":"levelo_inurba_marseille","lat":43.305364,"lon":5.384119,"is_reserved":false,"is_disabled":false,"rental_uris":{"android":"levelo://app?vid=36ad2b35-fd8f-4ec3-98f5-da4bbdf9da98","ios":"levelo://app?vid=36ad2b35-fd8f-4ec3-98f5-da4bbdf9da98"},"vehicle_type_id":"4","last_reported":1720814923,"current_range_meters":14800,"station_id":"ce4bgg92rcd13ifvqb30","pricing_plan_id":"cebpf4jnsgd1na2vs0mg"},{"bike_id":"1c140272-2603-4830-b09b-0d351c9fd4f1","system_id":"levelo_inurba_marseille","lat":43.299243,"lon":5.374807,"is_reserved":false,"is_disabled":false,"rental_uris":{"android":"levelo://app?vid=1c140272-2603-4830-b09b-0d351c9fd4f1","ios":"levelo://app?vid=1c140272-2603-4830-b09b-0d351c9fd4f1"},"vehicle_type_id":"4","last_reported":1720814923,"current_range_meters":0,"station_id":"ce4bgjh2rcd13ifvqbg0","pricing_plan_id":"cebpf4jnsgd1na2vs0mg"},{"bike_id":"b855205b-6934-42dd-b951-13a8726bd928","system_id":"levelo_inurba_marseille","lat":43.298433,"lon":5.362774,"is_reserved":false,"is_disabled":false,"rental_uris":{"android":"levelo://app?vid=b855205b-6934-42dd-b951-13a8726bd928","ios":"levelo://app?vid=b855205b-6934-42dd-b951-13a8726bd928"},"vehicle_type_id":"4","last_reported":1720814923,"current_range_meters":31600,"station_id":"ce4bgpp2rcd13ifvqc3g","pricing_plan_id":"cebpf4jnsgd1na2vs0mg"},{"bike_id":"215a67cc-f8f5-4072-8596-501cd321ac67","system_id":"levelo_inurba_marseille","lat":43.305364,"lon":5.384119,"is_reserved":false,"is_disabled":false,"rental_uris":{"android":"levelo://app?vid=215a67cc-f8f5-4072-8596-501cd321ac67","ios":"levelo://app?vid=215a67cc-f8f5-4072-8596-501cd321ac67"},"vehicle_type_id":"4","last_reported":1720814923,"current_range_meters":8400,"station_id":"ce4bgg92rcd13ifvqb30","pricing_plan_id":"cebpf4jnsgd1na2vs0mg"},{"bike_id":"4351a735-4dd4-47bd-8616-3eb843a99cda","system_id":"levelo_inurba_marseille","lat":43.305364,"lon":5.384119,"is_reserved":false,"is_disabled":false,"rental_uris":{"android":"levelo://app?vid=4351a735-4dd4-47bd-8616-3eb843a99cda","ios":"levelo://app?vid=4351a735-4dd4-47bd-8616-3eb843a99cda"},"vehicle_type_id":"4","last_reported":1720814923,"current_range_meters":22400,"station_id":"ce4bgg92rcd13ifvqb30","pricing_plan_id":"cebpf4jnsgd1na2vs0mg"},{"bike_id":"8fba6e83-6016-4639-8648-abf0be1166d7","system_id":"levelo_inurba_marseille","lat":43.298433,"lon":5.362774,"is_reserved":false,"is_disabled":false,"rental_uris":{"android":"levelo://app?vid=8fba6e83-6016-4639-8648-abf0be1166d7","ios":"levelo://app?vid=8fba6e83-6016-4639-8648-abf0be1166d7"},"vehicle_type_id":"4","last_reported":1720814923,"current_range_meters":15200,"station_id":"ce4bgpp2rcd13ifvqc3g","pricing_plan_id":"cebpf4jnsgd1na2vs0mg"},{"bike_id":"ac4439a7-8ddc-468b-881f-3a2ce51a8f00","system_id":"levelo_inurba_marseille","lat":43.311722,"lon":5.387247,"is_reserved":false,"is_disabled":false,"rental_uris":{"android":"levelo://app?vid=ac4439a7-8ddc-468b-881f-3a2ce51a8f00","ios":"levelo://app?vid=ac4439a7-8ddc-468b-881f-3a2ce51a8f00"},"vehicle_type_id":"4","last_reported":1720814923,"current_range_meters":22000,"station_id":"ce4bgv12rcd13ifvqcp0","pricing_plan_id":"cebpf4jnsgd1na2vs0mg"},{"bike_id":"ea3a45b1-44e6-4501-a32e-71bf1a9582e6","system_id":"levelo_inurba_marseille","lat":43.2979,"lon":5.37119,"is_reserved":false,"is_disabled":false,"rental_uris":{"android":"levelo://app?vid=ea3a45b1-44e6-4501-a32e-71bf1a9582e6","ios":"levelo://app?vid=ea3a45b1-44e6-4501-a32e-71bf1a9582e6"},"vehicle_type_id":"4","last_reported":1720814923,"current_range_meters":31200,"station_id":"ce4bgop2rcd13ifvqc1g","pricing_plan_id":"cebpf4jnsgd1na2vs0mg"},{"bike_id":"c262a484-5b53-4900-9bf6-81b39485d1d5","system_id":"levelo_inurba_marseille","lat":43.29789,"lon":5.37114,"is_reserved":false,"is_disabled":false,"rental_uris":{"android":"levelo://app?vid=c262a484-5b53-4900-9bf6-81b39485d1d5","ios":"levelo://app?vid=c262a484-5b53-4900-9bf6-81b39485d1d5"},"vehicle_type_id":"4","last_reported":1720814923,"current_range_meters":12800,"station_id":"ce4bgop2rcd13ifvqc1g","pricing_plan_id":"cebpf4jnsgd1na2vs0mg"},{"bike_id":"3a534bba-4be8-42d2-bb5d-755ece55494a","system_id":"levelo_inurba_marseille","lat":43.297794,"lon":5.370888,"is_reserved":false,"is_disabled":false,"rental_uris":{"android":"levelo://app?vid=3a534bba-4be8-42d2-bb5d-755ece55494a","ios":"levelo://app?vid=3a534bba-4be8-42d2-bb5d-755ece55494a"},"vehicle_type_id":"4","last_reported":1720814923,"current_range_meters":2400,"station_id":"ce4bgop2rcd13ifvqc1g","pricing_plan_id":"cebpf4jnsgd1na2vs0mg"},{"bike_id":"53c3daac-6dba-4a84-b664-4f7d0ab8b796","system_id":"levelo_inurba_marseille","lat":43.297794,"lon":5.370888,"is_reserved":false,"is_disabled":false,"rental_uris":{"android":"levelo://app?vid=53c3daac-6dba-4a84-b664-4f7d0ab8b796","ios":"levelo://app?vid=53c3daac-6dba-4a84-b664-4f7d0ab8b796"},"vehicle_type_id":"4","last_reported":1720814923,"current_range_meters":9600,"station_id":"ce4bgop2rcd13ifvqc1g","pricing_plan_id":"cebpf4jnsgd1na2vs0mg"},{"bike_id":"6d08ec71-f802-481a-bb47-a9578c0803ef","system_id":"levelo_inurba_marseille","lat":43.29782,"lon":5.36276,"is_reserved":false,"is_disabled":false,"rental_uris":{"android":"levelo://app?vid=6d08ec71-f802-481a-bb47-a9578c0803ef","ios":"levelo://app?vid=6d08ec71-f802-481a-bb47-a9578c0803ef"},"vehicle_type_id":"4","last_reported":1720814923,"current_range_meters":2800,"station_id":"","pricing_plan_id":"cebpf4jnsgd1na2vs0mg"},{"bike_id":"ffa4fe67-4b85-4ff4-bbd9-cbad9278c956","system_id":"levelo_inurba_marseille","lat":43.297774,"lon":5.370875,"is_reserved":false,"is_disabled":false,"rental_uris":{"android":"levelo://app?vid=ffa4fe67-4b85-4ff4-bbd9-cbad9278c956","ios":"levelo://app?vid=ffa4fe67-4b85-4ff4-bbd9-cbad9278c956"},"vehicle_type_id":"4","last_reported":1720814923,"current_range_meters":20000,"station_id":"ce4bgop2rcd13ifvqc1g","pricing_plan_id":"cebpf4jnsgd1na2vs0mg"},{"bike_id":"47727fa6-7d72-4262-b233-f663db0e1be4","system_id":"levelo_inurba_marseille","lat":43.29781,"lon":5.36264,"is_reserved":false,"is_disabled":false,"rental_uris":{"android":"levelo://app?vid=47727fa6-7d72-4262-b233-f663db0e1be4","ios":"levelo://app?vid=47727fa6-7d72-4262-b233-f663db0e1be4"},"vehicle_type_id":"4","last_reported":1720814923,"current_range_meters":12400,"station_id":"","pricing_plan_id":"cebpf4jnsgd1na2vs0mg"},{"bike_id":"b797d313-a3e5-4922-baf9-4754d7c727cd","system_id":"levelo_inurba_marseille","lat":43.322903,"lon":5.382656,"is_reserved":false,"is_disabled":false,"rental_uris":{"android":"levelo://app?vid=b797d313-a3e5-4922-baf9-4754d7c727cd","ios":"levelo://app?vid=b797d313-a3e5-4922-baf9-4754d7c727cd"},"vehicle_type_id":"4","last_reported":1720814923,"current_range_meters":24000,"station_id":"ce4bhr12rcd13ifvqhqg","pricing_plan_id":"cebpf4jnsgd1na2vs0mg"},{"bike_id":"168172ca-d191-426f-a35a-5f0bd34b6030","system_id":"levelo_inurba_marseille","lat":43.29718,"lon":5.36617,"is_reserved":false,"is_disabled":false,"rental_uris":{"android":"levelo://app?vid=168172ca-d191-426f-a35a-5f0bd34b6030","ios":"levelo://app?vid=168172ca-d191-426f-a35a-5f0bd34b6030"},"vehicle_type_id":"4","last_reported":1720814923,"current_range_meters":19600,"station_id":"ce4bgn12rcd13ifvqbt0","pricing_plan_id":"cebpf4jnsgd1na2vs0mg"},{"bike_id":"23f7e8d1-4c8f-4deb-a494-099fce9f8f0e","system_id":"levelo_inurba_marseille","lat":43.297163,"lon":5.365866,"is_reserved":false,"is_disabled":false,"rental_uris":{"android":"levelo://app?vid=23f7e8d1-4c8f-4deb-a494-099fce9f8f0e","ios":"levelo://app?vid=23f7e8d1-4c8f-4deb-a494-099fce9f8f0e"},"vehicle_type_id":"4","last_reported":1720814923,"current_range_meters":28800,"station_id":"ce4bgn12rcd13ifvqbt0","pricing_plan_id":"cebpf4jnsgd1na2vs0mg"},{"bike_id":"1d6462b5-189b-4b0e-ad79-29eba9f97e07","system_id":"levelo_inurba_marseille","lat":43.29714,"lon":5.3661,"is_reserved":false,"is_disabled":false,"rental_uris":{"android":"levelo://app?vid=1d6462b5-189b-4b0e-ad79-29eba9f97e07","ios":"levelo://app?vid=1d6462b5-189b-4b0e-ad79-29eba9f97e07"},"vehicle_type_id":"4","last_reported":1720814923,"current_range_meters":6800,"station_id":"ce4bgn12rcd13ifvqbt0","pricing_plan_id":"cebpf4jnsgd1na2vs0mg"},{"bike_id":"8b680ee5-3e2f-4427-9f3e-e35191126417","system_id":"levelo_inurba_marseille","lat":43.297163,"lon":5.365866,"is_reserved":false,"is_disabled":false,"rental_uris":{"android":"levelo://app?vid=8b680ee5-3e2f-4427-9f3e-e35191126417","ios":"levelo://app?vid=8b680ee5-3e2f-4427-9f3e-e35191126417"},"vehicle_type_id":"4","last_reported":1720814923,"current_range_meters":0,"station_id":"ce4bgn12rcd13ifvqbt0","pricing_plan_id":"cebpf4jnsgd1na2vs0mg"},{"bike_id":"da0e6daa-15db-4f37-b11a-b869988a7568","system_id":"levelo_inurba_marseille","lat":43.297163,"lon":5.365866,"is_reserved":false,"is_disabled":false,"rental_uris":{"android":"levelo://app?vid=da0e6daa-15db-4f37-b11a-b869988a7568","ios":"levelo://app?vid=da0e6daa-15db-4f37-b11a-b869988a7568"},"vehicle_type_id":"4","last_reported":1720814923,"current_range_meters":21600,"station_id":"ce4bgn12rcd13ifvqbt0","pricing_plan_id":"cebpf4jnsgd1na2vs0mg"},{"bike_id":"b3bc8b33-6342-48d8-8205-944e24f7fbf1","system_id":"levelo_inurba_marseille","lat":43.29709,"lon":5.36608,"is_reserved":false,"is_disabled":false,"rental_uris":{"android":"levelo://app?vid=b3bc8b33-6342-48d8-8205-944e24f7fbf1","ios":"levelo://app?vid=b3bc8b33-6342-48d8-8205-944e24f7fbf1"},"vehicle_type_id":"4","last_reported":1720814923,"current_range_meters":16400,"station_id":"ce4bgn12rcd13ifvqbt0","pricing_plan_id":"cebpf4jnsgd1na2vs0mg"},{"bike_id":"30559899-78a4-450c-8546-3e9d38d625ad","system_id":"levelo_inurba_marseille","lat":43.29709,"lon":5.36607,"is_reserved":false,"is_disabled":false,"rental_uris":{"android":"levelo://app?vid=30559899-78a4-450c-8546-3e9d38d625ad","ios":"levelo://app?vid=30559899-78a4-450c-8546-3e9d38d625ad"},"vehicle_type_id":"4","last_reported":1720814923,"current_range_meters":5200,"station_id":"ce4bgn12rcd13ifvqbt0","pricing_plan_id":"cebpf4jnsgd1na2vs0mg"},{"bike_id":"b8897607-2872-4242-9d14-d86460be8a0d","system_id":"levelo_inurba_marseille","lat":43.29709,"lon":5.36607,"is_reserved":false,"is_disabled":false,"rental_uris":{"android":"levelo://app?vid=b8897607-2872-4242-9d14-d86460be8a0d","ios":"levelo://app?vid=b8897607-2872-4242-9d14-d86460be8a0d"},"vehicle_type_id":"4","last_reported":1720814923,"current_range_meters":27200,"station_id":"ce4bgn12rcd13ifvqbt0","pricing_plan_id":"cebpf4jnsgd1na2vs0mg"},{"bike_id":"80cf94ff-cc79-4406-bab9-c96dba1ef3b8","system_id":"levelo_inurba_marseille","lat":43.29708,"lon":5.36606,"is_reserved":false,"is_disabled":false,"rental_uris":{"android":"levelo://app?vid=80cf94ff-cc79-4406-bab9-c96dba1ef3b8","ios":"levelo://app?vid=80cf94ff-cc79-4406-bab9-c96dba1ef3b8"},"vehicle_type_id":"4","last_reported":1720814923,"current_range_meters":28000,"station_id":"ce4bgn12rcd13ifvqbt0","pricing_plan_id":"cebpf4jnsgd1na2vs0mg"},{"bike_id":"f6366265-83f4-4cc9-99a8-beee2e2d91d8","system_id":"levelo_inurba_marseille","lat":43.29708,"lon":5.36602,"is_reserved":false,"is_disabled":false,"rental_uris":{"android":"levelo://app?vid=f6366265-83f4-4cc9-99a8-beee2e2d91d8","ios":"levelo://app?vid=f6366265-83f4-4cc9-99a8-beee2e2d91d8"},"vehicle_type_id":"4","last_reported":1720814923,"current_range_meters":4800,"station_id":"ce4bgn12rcd13ifvqbt0","pricing_plan_id":"cebpf4jnsgd1na2vs0mg"},{"bike_id":"21f9ece3-ef76-4d80-86b4-c2111a37258f","system_id":"levelo_inurba_marseille","lat":43.297163,"lon":5.365866,"is_reserved":false,"is_disabled":false,"rental_uris":{"android":"levelo://app?vid=21f9ece3-ef76-4d80-86b4-c2111a37258f","ios":"levelo://app?vid=21f9ece3-ef76-4d80-86b4-c2111a37258f"},"vehicle_type_id":"4","last_reported":1720814923,"current_range_meters":16000,"station_id":"ce4bgn12rcd13ifvqbt0","pricing_plan_id":"cebpf4jnsgd1na2vs0mg"},{"bike_id":"406814ba-9a17-40fb-86a8-60f601b1f69a","system_id":"levelo_inurba_marseille","lat":43.297163,"lon":5.365866,"is_reserved":false,"is_disabled":false,"rental_uris":{"android":"levelo://app?vid=406814ba-9a17-40fb-86a8-60f601b1f69a","ios":"levelo://app?vid=406814ba-9a17-40fb-86a8-60f601b1f69a"},"vehicle_type_id":"4","last_reported":1720814923,"current_range_meters":12800,"station_id":"ce4bgn12rcd13ifvqbt0","pricing_plan_id":"cebpf4jnsgd1na2vs0mg"},{"bike_id":"06e32943-9b06-45d0-b8e1-4acb893aca27","system_id":"levelo_inurba_marseille","lat":43.297163,"lon":5.365866,"is_reserved":false,"is_disabled":false,"rental_uris":{"android":"levelo://app?vid=06e32943-9b06-45d0-b8e1-4acb893aca27","ios":"levelo://app?vid=06e32943-9b06-45d0-b8e1-4acb893aca27"},"vehicle_type_id":"4","last_reported":1720814923,"current_range_meters":16400,"station_id":"ce4bgn12rcd13ifvqbt0","pricing_plan_id":"cebpf4jnsgd1na2vs0mg"},{"bike_id":"90ad678a-8869-4734-95af-e55fa690d442","system_id":"levelo_inurba_marseille","lat":43.297163,"lon":5.365866,"is_reserved":false,"is_disabled":false,"rental_uris":{"android":"levelo://app?vid=90ad678a-8869-4734-95af-e55fa690d442","ios":"levelo://app?vid=90ad678a-8869-4734-95af-e55fa690d442"},"vehicle_type_id":"4","last_reported":1720814923,"current_range_meters":32000,"station_id":"ce4bgn12rcd13ifvqbt0","pricing_plan_id":"cebpf4jnsgd1na2vs0mg"},{"bike_id":"fe1683c0-a700-41f6-962f-9683cda2f27a","system_id":"levelo_inurba_marseille","lat":43.31117,"lon":5.3886,"is_reserved":false,"is_disabled":false,"rental_uris":{"android":"levelo://app?vid=fe1683c0-a700-41f6-962f-9683cda2f27a","ios":"levelo://app?vid=fe1683c0-a700-41f6-962f-9683cda2f27a"},"vehicle_type_id":"4","last_reported":1720814923,"current_range_meters":16800,"station_id":"","pricing_plan_id":"cebpf4jnsgd1na2vs0mg"},{"bike_id":"ed59e27d-1eb1-464b-88e4-75560b23abab","system_id":"levelo_inurba_marseille","lat":43.29642,"lon":5.36853,"is_reserved":false,"is_disabled":false,"rental_uris":{"android":"levelo://app?vid=ed59e27d-1eb1-464b-88e4-75560b23abab","ios":"levelo://app?vid=ed59e27d-1eb1-464b-88e4-75560b23abab"},"vehicle_type_id":"4","last_reported":1720814923,"current_range_meters":16000,"station_id":"","pricing_plan_id":"cebpf4jnsgd1na2vs0mg"},{"bike_id":"b726e5ee-8b0d-4253-866a-225b365ab8c1","system_id":"levelo_inurba_marseille","lat":43.2968,"lon":5.37291,"is_reserved":false,"is_disabled":false,"rental_uris":{"android":"levelo://app?vid=b726e5ee-8b0d-4253-866a-225b365ab8c1","ios":"levelo://app?vid=b726e5ee-8b0d-4253-866a-225b365ab8c1"},"vehicle_type_id":"4","last_reported":1720814923,"current_range_meters":22800,"station_id":"ce4bgk12rcd13ifvqbj0","pricing_plan_id":"cebpf4jnsgd1na2vs0mg"},{"bike_id":"0bd579b8-0447-42a8-aa36-7d03a6a37715","system_id":"levelo_inurba_marseille","lat":43.2968,"lon":5.37291,"is_reserved":false,"is_disabled":false,"rental_uris":{"android":"levelo://app?vid=0bd579b8-0447-42a8-aa36-7d03a6a37715","ios":"levelo://app?vid=0bd579b8-0447-42a8-aa36-7d03a6a37715"},"vehicle_type_id":"4","last_reported":1720814923,"current_range_meters":26000,"station_id":"ce4bgk12rcd13ifvqbj0","pricing_plan_id":"cebpf4jnsgd1na2vs0mg"},{"bike_id":"98f19aba-7a46-4959-b8d3-3a0f49ca426e","system_id":"levelo_inurba_marseille","lat":43.296767,"lon":5.3729,"is_reserved":false,"is_disabled":false,"rental_uris":{"android":"levelo://app?vid=98f19aba-7a46-4959-b8d3-3a0f49ca426e","ios":"levelo://app?vid=98f19aba-7a46-4959-b8d3-3a0f49ca426e"},"vehicle_type_id":"4","last_reported":1720814923,"current_range_meters":14400,"station_id":"ce4bgk12rcd13ifvqbj0","pricing_plan_id":"cebpf4jnsgd1na2vs0mg"},{"bike_id":"b4df35c6-4166-4995-b172-7b2d60bf4542","system_id":"levelo_inurba_marseille","lat":43.29758,"lon":5.37698,"is_reserved":false,"is_disabled":false,"rental_uris":{"android":"levelo://app?vid=b4df35c6-4166-4995-b172-7b2d60bf4542","ios":"levelo://app?vid=b4df35c6-4166-4995-b172-7b2d60bf4542"},"vehicle_type_id":"4","last_reported":1720814923,"current_range_meters":0,"station_id":"","pricing_plan_id":"cebpf4jnsgd1na2vs0mg"},{"bike_id":"d724e6ff-9d38-407e-b2b3-981dd7f99fe8","system_id":"levelo_inurba_marseille","lat":43.296204,"lon":5.373161,"is_reserved":false,"is_disabled":false,"rental_uris":{"android":"levelo://app?vid=d724e6ff-9d38-407e-b2b3-981dd7f99fe8","ios":"levelo://app?vid=d724e6ff-9d38-407e-b2b3-981dd7f99fe8"},"vehicle_type_id":"4","last_reported":1720814923,"current_range_meters":29600,"station_id":"","pricing_plan_id":"cebpf4jnsgd1na2vs0mg"},{"bike_id":"dde5d243-40de-4453-a4b2-f5e0c457212b","system_id":"levelo_inurba_marseille","lat":43.296935,"lon":5.376544,"is_reserved":false,"is_disabled":false,"rental_uris":{"android":"levelo://app?vid=dde5d243-40de-4453-a4b2-f5e0c457212b","ios":"levelo://app?vid=dde5d243-40de-4453-a4b2-f5e0c457212b"},"vehicle_type_id":"4","last_reported":1720814923,"current_range_meters":19600,"station_id":"ce4bgkh2rcd13ifvqbl0","pricing_plan_id":"cebpf4jnsgd1na2vs0mg"},{"bike_id":"721a4f7c-867f-4ac4-b843-a0d9cd4eebfd","system_id":"levelo_inurba_marseille","lat":43.299028,"lon":5.381509,"is_reserved":false,"is_disabled":false,"rental_uris":{"android":"levelo://app?vid=721a4f7c-867f-4ac4-b843-a0d9cd4eebfd","ios":"levelo://app?vid=721a4f7c-867f-4ac4-b843-a0d9cd4eebfd"},"vehicle_type_id":"4","last_reported":1720814923,"current_range_meters":2000,"station_id":"ce4bgj12rcd13ifvqbc0","pricing_plan_id":"cebpf4jnsgd1na2vs0mg"},{"bike_id":"ff930445-c7b3-4d25-9809-426b01c841c4","system_id":"levelo_inurba_marseille","lat":43.29546,"lon":5.36566,"is_reserved":false,"is_disabled":false,"rental_uris":{"android":"levelo://app?vid=ff930445-c7b3-4d25-9809-426b01c841c4","ios":"levelo://app?vid=ff930445-c7b3-4d25-9809-426b01c841c4"},"vehicle_type_id":"4","last_reported":1720814923,"current_range_meters":9200,"station_id":"","pricing_plan_id":"cebpf4jnsgd1na2vs0mg"},{"bike_id":"3a6cda51-c112-451a-bed9-930a70c7574c","system_id":"levelo_inurba_marseille","lat":43.3095,"lon":5.39029,"is_reserved":false,"is_disabled":false,"rental_uris":{"android":"levelo://app?vid=3a6cda51-c112-451a-bed9-930a70c7574c","ios":"levelo://app?vid=3a6cda51-c112-451a-bed9-930a70c7574c"},"vehicle_type_id":"4","last_reported":1720814923,"current_range_meters":2400,"station_id":"ce4bgup2rcd13ifvqco0","pricing_plan_id":"cebpf4jnsgd1na2vs0mg"},{"bike_id":"1cd94f6c-1c4e-41fb-afd7-1c6b6abb8723","system_id":"levelo_inurba_marseille","lat":43.30949,"lon":5.390295,"is_reserved":false,"is_disabled":false,"rental_uris":{"android":"levelo://app?vid=1cd94f6c-1c4e-41fb-afd7-1c6b6abb8723","ios":"levelo://app?vid=1cd94f6c-1c4e-41fb-afd7-1c6b6abb8723"},"vehicle_type_id":"4","last_reported":1720814923,"current_range_meters":0,"station_id":"ce4bgup2rcd13ifvqco0","pricing_plan_id":"cebpf4jnsgd1na2vs0mg"},{"bike_id":"68362576-7a01-423d-9817-43412cf10c87","system_id":"levelo_inurba_marseille","lat":43.309589,"lon":5.390258,"is_reserved":false,"is_disabled":false,"rental_uris":{"android":"levelo://app?vid=68362576-7a01-423d-9817-43412cf10c87","ios":"levelo://app?vid=68362576-7a01-423d-9817-43412cf10c87"},"vehicle_type_id":"4","last_reported":1720814923,"current_range_meters":3200,"station_id":"ce4bgup2rcd13ifvqco0","pricing_plan_id":"cebpf4jnsgd1na2vs0mg"},{"bike_id":"bd8968a9-a182-4816-8c74-9331dddcb052","system_id":"levelo_inurba_marseille","lat":43.309589,"lon":5.390258,"is_reserved":false,"is_disabled":false,"rental_uris":{"android":"levelo://app?vid=bd8968a9-a182-4816-8c74-9331dddcb052","ios":"levelo://app?vid=bd8968a9-a182-4816-8c74-9331dddcb052"},"vehicle_type_id":"4","last_reported":1720814923,"current_range_meters":0,"station_id":"ce4bgup2rcd13ifvqco0","pricing_plan_id":"cebpf4jnsgd1na2vs0mg"},{"bike_id":"7cdd0d1b-cf7b-49f2-bb52-1c3c1942f8a4","system_id":"levelo_inurba_marseille","lat":43.309589,"lon":5.390258,"is_reserved":false,"is_disabled":false,"rental_uris":{"android":"levelo://app?vid=7cdd0d1b-cf7b-49f2-bb52-1c3c1942f8a4","ios":"levelo://app?vid=7cdd0d1b-cf7b-49f2-bb52-1c3c1942f8a4"},"vehicle_type_id":"4","last_reported":1720814923,"current_range_meters":31600,"station_id":"ce4bgup2rcd13ifvqco0","pricing_plan_id":"cebpf4jnsgd1na2vs0mg"},{"bike_id":"4efead30-0369-41c8-8706-ae0d29c998e2","system_id":"levelo_inurba_marseille","lat":43.30963,"lon":5.39039,"is_reserved":false,"is_disabled":false,"rental_uris":{"android":"levelo://app?vid=4efead30-0369-41c8-8706-ae0d29c998e2","ios":"levelo://app?vid=4efead30-0369-41c8-8706-ae0d29c998e2"},"vehicle_type_id":"4","last_reported":1720814923,"current_range_meters":0,"station_id":"ce4bgup2rcd13ifvqco0","pricing_plan_id":"cebpf4jnsgd1na2vs0mg"},{"bike_id":"c59ce1ec-1184-496b-8658-fdd3f7ee11d5","system_id":"levelo_inurba_marseille","lat":43.309589,"lon":5.390258,"is_reserved":false,"is_disabled":false,"rental_uris":{"android":"levelo://app?vid=c59ce1ec-1184-496b-8658-fdd3f7ee11d5","ios":"levelo://app?vid=c59ce1ec-1184-496b-8658-fdd3f7ee11d5"},"vehicle_type_id":"4","last_reported":1720814923,"current_range_meters":10400,"station_id":"ce4bgup2rcd13ifvqco0","pricing_plan_id":"cebpf4jnsgd1na2vs0mg"},{"bike_id":"dcf958c2-8d66-4ce4-845c-9eec0e5eb0ff","system_id":"levelo_inurba_marseille","lat":43.30958,"lon":5.39039,"is_reserved":false,"is_disabled":false,"rental_uris":{"android":"levelo://app?vid=dcf958c2-8d66-4ce4-845c-9eec0e5eb0ff","ios":"levelo://app?vid=dcf958c2-8d66-4ce4-845c-9eec0e5eb0ff"},"vehicle_type_id":"4","last_reported":1720814923,"current_range_meters":0,"station_id":"ce4bgup2rcd13ifvqco0","pricing_plan_id":"cebpf4jnsgd1na2vs0mg"},{"bike_id":"0f90ec91-5eb7-43a2-be61-ca8c11f5ff35","system_id":"levelo_inurba_marseille","lat":43.30954,"lon":5.39041,"is_reserved":false,"is_disabled":false,"rental_uris":{"android":"levelo://app?vid=0f90ec91-5eb7-43a2-be61-ca8c11f5ff35","ios":"levelo://app?vid=0f90ec91-5eb7-43a2-be61-ca8c11f5ff35"},"vehicle_type_id":"4","last_reported":1720814923,"current_range_meters":0,"station_id":"ce4bgup2rcd13ifvqco0","pricing_plan_id":"cebpf4jnsgd1na2vs0mg"},{"bike_id":"6fb8c382-c1d1-4759-840c-470bf5dc273f","system_id":"levelo_inurba_marseille","lat":43.309428,"lon":5.390383,"is_reserved":false,"is_disabled":false,"rental_uris":{"android":"levelo://app?vid=6fb8c382-c1d1-4759-840c-470bf5dc273f","ios":"levelo://app?vid=6fb8c382-c1d1-4759-840c-470bf5dc273f"},"vehicle_type_id":"4","last_reported":1720814923,"current_range_meters":0,"station_id":"ce4bgup2rcd13ifvqco0","pricing_plan_id":"cebpf4jnsgd1na2vs0mg"},{"bike_id":"402d2575-70ad-428d-a39d-4e9741a1e6e6","system_id":"levelo_inurba_marseille","lat":43.30953,"lon":5.39041,"is_reserved":false,"is_disabled":false,"rental_uris":{"android":"levelo://app?vid=402d2575-70ad-428d-a39d-4e9741a1e6e6","ios":"levelo://app?vid=402d2575-70ad-428d-a39d-4e9741a1e6e6"},"vehicle_type_id":"4","last_reported":1720814923,"current_range_meters":0,"station_id":"ce4bgup2rcd13ifvqco0","pricing_plan_id":"cebpf4jnsgd1na2vs0mg"},{"bike_id":"8d226e95-3e7b-4b8e-b0ef-825c3bdd3038","system_id":"levelo_inurba_marseille","lat":43.309589,"lon":5.390258,"is_reserved":false,"is_disabled":false,"rental_uris":{"android":"levelo://app?vid=8d226e95-3e7b-4b8e-b0ef-825c3bdd3038","ios":"levelo://app?vid=8d226e95-3e7b-4b8e-b0ef-825c3bdd3038"},"vehicle_type_id":"4","last_reported":1720814923,"current_range_meters":26800,"station_id":"ce4bgup2rcd13ifvqco0","pricing_plan_id":"cebpf4jnsgd1na2vs0mg"},{"bike_id":"4e63721c-c6cd-4032-b26f-189f8954ff6c","system_id":"levelo_inurba_marseille","lat":43.3095,"lon":5.39045,"is_reserved":false,"is_disabled":false,"rental_uris":{"android":"levelo://app?vid=4e63721c-c6cd-4032-b26f-189f8954ff6c","ios":"levelo://app?vid=4e63721c-c6cd-4032-b26f-189f8954ff6c"},"vehicle_type_id":"4","last_reported":1720814923,"current_range_meters":0,"station_id":"ce4bgup2rcd13ifvqco0","pricing_plan_id":"cebpf4jnsgd1na2vs0mg"},{"bike_id":"92620f37-ea29-4a62-b5b9-b6b05b0d8e3e","system_id":"levelo_inurba_marseille","lat":43.29582,"lon":5.3751,"is_reserved":false,"is_disabled":false,"rental_uris":{"android":"levelo://app?vid=92620f37-ea29-4a62-b5b9-b6b05b0d8e3e","ios":"levelo://app?vid=92620f37-ea29-4a62-b5b9-b6b05b0d8e3e"},"vehicle_type_id":"4","last_reported":1720814923,"current_range_meters":30000,"station_id":"ce4bgh92rcd13ifvqb50","pricing_plan_id":"cebpf4jnsgd1na2vs0mg"},{"bike_id":"bebe2b41-075c-4059-bdb4-d024dea184fe","system_id":"levelo_inurba_marseille","lat":43.298037,"lon":5.381066,"is_reserved":false,"is_disabled":false,"rental_uris":{"android":"levelo://app?vid=bebe2b41-075c-4059-bdb4-d024dea184fe","ios":"levelo://app?vid=bebe2b41-075c-4059-bdb4-d024dea184fe"},"vehicle_type_id":"4","last_reported":1720814923,"current_range_meters":23200,"station_id":"ce4bgip2rcd13ifvqbb0","pricing_plan_id":"cebpf4jnsgd1na2vs0mg"},{"bike_id":"64e84fda-64f8-4ed4-9504-a772bb78bc26","system_id":"levelo_inurba_marseille","lat":43.298037,"lon":5.381066,"is_reserved":false,"is_disabled":false,"rental_uris":{"android":"levelo://app?vid=64e84fda-64f8-4ed4-9504-a772bb78bc26","ios":"levelo://app?vid=64e84fda-64f8-4ed4-9504-a772bb78bc26"},"vehicle_type_id":"4","last_reported":1720814923,"current_range_meters":20400,"station_id":"ce4bgip2rcd13ifvqbb0","pricing_plan_id":"cebpf4jnsgd1na2vs0mg"},{"bike_id":"eddf8afa-a4cc-48a1-81c1-c879287a0f52","system_id":"levelo_inurba_marseille","lat":43.29576,"lon":5.37513,"is_reserved":false,"is_disabled":false,"rental_uris":{"android":"levelo://app?vid=eddf8afa-a4cc-48a1-81c1-c879287a0f52","ios":"levelo://app?vid=eddf8afa-a4cc-48a1-81c1-c879287a0f52"},"vehicle_type_id":"4","last_reported":1720814923,"current_range_meters":0,"station_id":"ce4bgh92rcd13ifvqb50","pricing_plan_id":"cebpf4jnsgd1na2vs0mg"},{"bike_id":"9e027c44-dc90-4e4c-9836-1e9e7d908f6d","system_id":"levelo_inurba_marseille","lat":43.295748,"lon":5.37522,"is_reserved":false,"is_disabled":false,"rental_uris":{"android":"levelo://app?vid=9e027c44-dc90-4e4c-9836-1e9e7d908f6d","ios":"levelo://app?vid=9e027c44-dc90-4e4c-9836-1e9e7d908f6d"},"vehicle_type_id":"4","last_reported":1720814923,"current_range_meters":14400,"station_id":"ce4bgh92rcd13ifvqb50","pricing_plan_id":"cebpf4jnsgd1na2vs0mg"},{"bike_id":"13625d8a-ee54-4c31-8f3e-86bb1ae331bb","system_id":"levelo_inurba_marseille","lat":43.304274,"lon":5.388873,"is_reserved":false,"is_disabled":false,"rental_uris":{"android":"levelo://app?vid=13625d8a-ee54-4c31-8f3e-86bb1ae331bb","ios":"levelo://app?vid=13625d8a-ee54-4c31-8f3e-86bb1ae331bb"},"vehicle_type_id":"4","last_reported":1720814923,"current_range_meters":4400,"station_id":"ce4bgk12rcd13ifvqbi0","pricing_plan_id":"cebpf4jnsgd1na2vs0mg"},{"bike_id":"1f78cb65-5ab1-4fd8-922c-01234048fc51","system_id":"levelo_inurba_marseille","lat":43.304274,"lon":5.388873,"is_reserved":false,"is_disabled":false,"rental_uris":{"android":"levelo://app?vid=1f78cb65-5ab1-4fd8-922c-01234048fc51","ios":"levelo://app?vid=1f78cb65-5ab1-4fd8-922c-01234048fc51"},"vehicle_type_id":"4","last_reported":1720814923,"current_range_meters":24400,"station_id":"ce4bgk12rcd13ifvqbi0","pricing_plan_id":"cebpf4jnsgd1na2vs0mg"},{"bike_id":"b18e340c-9ea8-42e5-813c-119b37773b29","system_id":"levelo_inurba_marseille","lat":43.296239,"lon":5.377156,"is_reserved":false,"is_disabled":false,"rental_uris":{"android":"levelo://app?vid=b18e340c-9ea8-42e5-813c-119b37773b29","ios":"levelo://app?vid=b18e340c-9ea8-42e5-813c-119b37773b29"},"vehicle_type_id":"4","last_reported":1720814923,"current_range_meters":15200,"station_id":"ce4bgi92rcd13ifvqb90","pricing_plan_id":"cebpf4jnsgd1na2vs0mg"},{"bike_id":"688113ea-5725-4706-a0bf-870991032144","system_id":"levelo_inurba_marseille","lat":43.29595,"lon":5.37635,"is_reserved":false,"is_disabled":false,"rental_uris":{"android":"levelo://app?vid=688113ea-5725-4706-a0bf-870991032144","ios":"levelo://app?vid=688113ea-5725-4706-a0bf-870991032144"},"vehicle_type_id":"4","last_reported":1720814923,"current_range_meters":26800,"station_id":"","pricing_plan_id":"cebpf4jnsgd1na2vs0mg"},{"bike_id":"2899386e-ab7a-475f-a0ce-fc98d729509c","system_id":"levelo_inurba_marseille","lat":43.297648,"lon":5.381106,"is_reserved":false,"is_disabled":false,"rental_uris":{"android":"levelo://app?vid=2899386e-ab7a-475f-a0ce-fc98d729509c","ios":"levelo://app?vid=2899386e-ab7a-475f-a0ce-fc98d729509c"},"vehicle_type_id":"4","last_reported":1720814923,"current_range_meters":10000,"station_id":"","pricing_plan_id":"cebpf4jnsgd1na2vs0mg"},{"bike_id":"3e096217-2c0a-44b7-b0b8-8f0a742d6afb","system_id":"levelo_inurba_marseille","lat":43.295317,"lon":5.375047,"is_reserved":false,"is_disabled":false,"rental_uris":{"android":"levelo://app?vid=3e096217-2c0a-44b7-b0b8-8f0a742d6afb","ios":"levelo://app?vid=3e096217-2c0a-44b7-b0b8-8f0a742d6afb"},"vehicle_type_id":"4","last_reported":1720814923,"current_range_meters":0,"station_id":"ce4bgkp2rcd13ifvqbmg","pricing_plan_id":"cebpf4jnsgd1na2vs0mg"},{"bike_id":"2f890a41-fb23-46b9-9dc0-2480f496b188","system_id":"levelo_inurba_marseille","lat":43.2953,"lon":5.37508,"is_reserved":false,"is_disabled":false,"rental_uris":{"android":"levelo://app?vid=2f890a41-fb23-46b9-9dc0-2480f496b188","ios":"levelo://app?vid=2f890a41-fb23-46b9-9dc0-2480f496b188"},"vehicle_type_id":"4","last_reported":1720814923,"current_range_meters":0,"station_id":"ce4bgkp2rcd13ifvqbmg","pricing_plan_id":"cebpf4jnsgd1na2vs0mg"},{"bike_id":"777384b9-fce5-4e9c-81c5-768f0d651df0","system_id":"levelo_inurba_marseille","lat":43.299707,"lon":5.384859,"is_reserved":false,"is_disabled":false,"rental_uris":{"android":"levelo://app?vid=777384b9-fce5-4e9c-81c5-768f0d651df0","ios":"levelo://app?vid=777384b9-fce5-4e9c-81c5-768f0d651df0"},"vehicle_type_id":"4","last_reported":1720814923,"current_range_meters":22000,"station_id":"ce4bgj92rcd13ifvqbd0","pricing_plan_id":"cebpf4jnsgd1na2vs0mg"},{"bike_id":"715b15bd-960f-4048-8844-47b48bd4eecf","system_id":"levelo_inurba_marseille","lat":43.295077,"lon":5.374263,"is_reserved":false,"is_disabled":false,"rental_uris":{"android":"levelo://app?vid=715b15bd-960f-4048-8844-47b48bd4eecf","ios":"levelo://app?vid=715b15bd-960f-4048-8844-47b48bd4eecf"},"vehicle_type_id":"4","last_reported":1720814923,"current_range_meters":8000,"station_id":"","pricing_plan_id":"cebpf4jnsgd1na2vs0mg"},{"bike_id":"69aa37da-fcf3-47af-ad93-3d41dca84c47","system_id":"levelo_inurba_marseille","lat":43.29971,"lon":5.3849,"is_reserved":false,"is_disabled":false,"rental_uris":{"android":"levelo://app?vid=69aa37da-fcf3-47af-ad93-3d41dca84c47","ios":"levelo://app?vid=69aa37da-fcf3-47af-ad93-3d41dca84c47"},"vehicle_type_id":"4","last_reported":1720814923,"current_range_meters":31200,"station_id":"ce4bgj92rcd13ifvqbd0","pricing_plan_id":"cebpf4jnsgd1na2vs0mg"},{"bike_id":"5bc51927-be47-47b1-9d29-b1b921b3236c","system_id":"levelo_inurba_marseille","lat":43.29974,"lon":5.38495,"is_reserved":false,"is_disabled":false,"rental_uris":{"android":"levelo://app?vid=5bc51927-be47-47b1-9d29-b1b921b3236c","ios":"levelo://app?vid=5bc51927-be47-47b1-9d29-b1b921b3236c"},"vehicle_type_id":"4","last_reported":1720814923,"current_range_meters":28800,"station_id":"ce4bgj92rcd13ifvqbd0","pricing_plan_id":"cebpf4jnsgd1na2vs0mg"},{"bike_id":"3e39d462-789a-4214-bb67-9d5a8e7dd293","system_id":"levelo_inurba_marseille","lat":43.299707,"lon":5.384859,"is_reserved":false,"is_disabled":false,"rental_uris":{"android":"levelo://app?vid=3e39d462-789a-4214-bb67-9d5a8e7dd293","ios":"levelo://app?vid=3e39d462-789a-4214-bb67-9d5a8e7dd293"},"vehicle_type_id":"4","last_reported":1720814923,"current_range_meters":8000,"station_id":"ce4bgj92rcd13ifvqbd0","pricing_plan_id":"cebpf4jnsgd1na2vs0mg"},{"bike_id":"4fa6184f-d834-42de-9b1d-ac86384a24e5","system_id":"levelo_inurba_marseille","lat":43.29967,"lon":5.38488,"is_reserved":false,"is_disabled":false,"rental_uris":{"android":"levelo://app?vid=4fa6184f-d834-42de-9b1d-ac86384a24e5","ios":"levelo://app?vid=4fa6184f-d834-42de-9b1d-ac86384a24e5"},"vehicle_type_id":"4","last_reported":1720814923,"current_range_meters":21600,"station_id":"ce4bgj92rcd13ifvqbd0","pricing_plan_id":"cebpf4jnsgd1na2vs0mg"},{"bike_id":"be70a6cc-3420-433d-abd5-4d0b01cf9ac5","system_id":"levelo_inurba_marseille","lat":43.29967,"lon":5.38494,"is_reserved":false,"is_disabled":false,"rental_uris":{"android":"levelo://app?vid=be70a6cc-3420-433d-abd5-4d0b01cf9ac5","ios":"levelo://app?vid=be70a6cc-3420-433d-abd5-4d0b01cf9ac5"},"vehicle_type_id":"4","last_reported":1720814923,"current_range_meters":4400,"station_id":"ce4bgj92rcd13ifvqbd0","pricing_plan_id":"cebpf4jnsgd1na2vs0mg"},{"bike_id":"ad301d28-b61d-4a71-8709-b4d7a316346d","system_id":"levelo_inurba_marseille","lat":43.29965,"lon":5.38495,"is_reserved":false,"is_disabled":false,"rental_uris":{"android":"levelo://app?vid=ad301d28-b61d-4a71-8709-b4d7a316346d","ios":"levelo://app?vid=ad301d28-b61d-4a71-8709-b4d7a316346d"},"vehicle_type_id":"4","last_reported":1720814923,"current_range_meters":23600,"station_id":"ce4bgj92rcd13ifvqbd0","pricing_plan_id":"cebpf4jnsgd1na2vs0mg"},{"bike_id":"aac4ff9d-e65d-453e-b122-0d97013b4150","system_id":"levelo_inurba_marseille","lat":43.30152,"lon":5.38769,"is_reserved":false,"is_disabled":false,"rental_uris":{"android":"levelo://app?vid=aac4ff9d-e65d-453e-b122-0d97013b4150","ios":"levelo://app?vid=aac4ff9d-e65d-453e-b122-0d97013b4150"},"vehicle_type_id":"4","last_reported":1720814923,"current_range_meters":17200,"station_id":"ce4bghh2rcd13ifvqb60","pricing_plan_id":"cebpf4jnsgd1na2vs0mg"},{"bike_id":"8af75ef8-05fc-4c2a-ba91-fcb4428c23f2","system_id":"levelo_inurba_marseille","lat":43.30143,"lon":5.38776,"is_reserved":false,"is_disabled":false,"rental_uris":{"android":"levelo://app?vid=8af75ef8-05fc-4c2a-ba91-fcb4428c23f2","ios":"levelo://app?vid=8af75ef8-05fc-4c2a-ba91-fcb4428c23f2"},"vehicle_type_id":"4","last_reported":1720814923,"current_range_meters":0,"station_id":"ce4bghh2rcd13ifvqb60","pricing_plan_id":"cebpf4jnsgd1na2vs0mg"},{"bike_id":"e97971f6-f931-4c89-9974-30ebcda1aa6c","system_id":"levelo_inurba_marseille","lat":43.30143,"lon":5.38777,"is_reserved":false,"is_disabled":false,"rental_uris":{"android":"levelo://app?vid=e97971f6-f931-4c89-9974-30ebcda1aa6c","ios":"levelo://app?vid=e97971f6-f931-4c89-9974-30ebcda1aa6c"},"vehicle_type_id":"4","last_reported":1720814923,"current_range_meters":9600,"station_id":"ce4bghh2rcd13ifvqb60","pricing_plan_id":"cebpf4jnsgd1na2vs0mg"},{"bike_id":"f2040c82-bf73-430c-96a9-6354697c75b2","system_id":"levelo_inurba_marseille","lat":43.30141,"lon":5.38778,"is_reserved":false,"is_disabled":false,"rental_uris":{"android":"levelo://app?vid=f2040c82-bf73-430c-96a9-6354697c75b2","ios":"levelo://app?vid=f2040c82-bf73-430c-96a9-6354697c75b2"},"vehicle_type_id":"4","last_reported":1720814923,"current_range_meters":21600,"station_id":"ce4bghh2rcd13ifvqb60","pricing_plan_id":"cebpf4jnsgd1na2vs0mg"},{"bike_id":"1fcea6cd-9d3e-4644-ad10-ebfc54a8c640","system_id":"levelo_inurba_marseille","lat":43.30142,"lon":5.38781,"is_reserved":false,"is_disabled":false,"rental_uris":{"android":"levelo://app?vid=1fcea6cd-9d3e-4644-ad10-ebfc54a8c640","ios":"levelo://app?vid=1fcea6cd-9d3e-4644-ad10-ebfc54a8c640"},"vehicle_type_id":"4","last_reported":1720814923,"current_range_meters":16800,"station_id":"ce4bghh2rcd13ifvqb60","pricing_plan_id":"cebpf4jnsgd1na2vs0mg"},{"bike_id":"3c21e91f-6be7-42aa-8854-24c12a25dd85","system_id":"levelo_inurba_marseille","lat":43.30142,"lon":5.38787,"is_reserved":false,"is_disabled":false,"rental_uris":{"android":"levelo://app?vid=3c21e91f-6be7-42aa-8854-24c12a25dd85","ios":"levelo://app?vid=3c21e91f-6be7-42aa-8854-24c12a25dd85"},"vehicle_type_id":"4","last_reported":1720814923,"current_range_meters":26000,"station_id":"ce4bghh2rcd13ifvqb60","pricing_plan_id":"cebpf4jnsgd1na2vs0mg"},{"bike_id":"df40c980-6c60-4df9-a834-4129eb66c65a","system_id":"levelo_inurba_marseille","lat":43.32362,"lon":5.3888,"is_reserved":false,"is_disabled":false,"rental_uris":{"android":"levelo://app?vid=df40c980-6c60-4df9-a834-4129eb66c65a","ios":"levelo://app?vid=df40c980-6c60-4df9-a834-4129eb66c65a"},"vehicle_type_id":"4","last_reported":1720814923,"current_range_meters":2800,"station_id":"ce4bhqp2rcd13ifvqhog","pricing_plan_id":"cebpf4jnsgd1na2vs0mg"},{"bike_id":"eda3f9e5-e424-4959-a9bd-c01fc6b0120a","system_id":"levelo_inurba_marseille","lat":43.32367,"lon":5.388836,"is_reserved":false,"is_disabled":false,"rental_uris":{"android":"levelo://app?vid=eda3f9e5-e424-4959-a9bd-c01fc6b0120a","ios":"levelo://app?vid=eda3f9e5-e424-4959-a9bd-c01fc6b0120a"},"vehicle_type_id":"4","last_reported":1720814923,"current_range_meters":18000,"station_id":"ce4bhqp2rcd13ifvqhog","pricing_plan_id":"cebpf4jnsgd1na2vs0mg"},{"bike_id":"2cf07c4b-6eee-45c8-9bd4-66a5f00c03d8","system_id":"levelo_inurba_marseille","lat":43.32367,"lon":5.388836,"is_reserved":false,"is_disabled":false,"rental_uris":{"android":"levelo://app?vid=2cf07c4b-6eee-45c8-9bd4-66a5f00c03d8","ios":"levelo://app?vid=2cf07c4b-6eee-45c8-9bd4-66a5f00c03d8"},"vehicle_type_id":"4","last_reported":1720814923,"current_range_meters":400,"station_id":"ce4bhqp2rcd13ifvqhog","pricing_plan_id":"cebpf4jnsgd1na2vs0mg"},{"bike_id":"2cd6bf21-13ab-4750-8176-c32414372f81","system_id":"levelo_inurba_marseille","lat":43.32367,"lon":5.388836,"is_reserved":false,"is_disabled":false,"rental_uris":{"android":"levelo://app?vid=2cd6bf21-13ab-4750-8176-c32414372f81","ios":"levelo://app?vid=2cd6bf21-13ab-4750-8176-c32414372f81"},"vehicle_type_id":"4","last_reported":1720814923,"current_range_meters":26000,"station_id":"ce4bhqp2rcd13ifvqhog","pricing_plan_id":"cebpf4jnsgd1na2vs0mg"},{"bike_id":"cc98810d-1216-4101-9147-448c2b41b6bf","system_id":"levelo_inurba_marseille","lat":43.29425,"lon":5.37473,"is_reserved":false,"is_disabled":false,"rental_uris":{"android":"levelo://app?vid=cc98810d-1216-4101-9147-448c2b41b6bf","ios":"levelo://app?vid=cc98810d-1216-4101-9147-448c2b41b6bf"},"vehicle_type_id":"4","last_reported":1720814923,"current_range_meters":29600,"station_id":"","pricing_plan_id":"cebpf4jnsgd1na2vs0mg"},{"bike_id":"84afae22-7654-4422-ba25-48093af55b1c","system_id":"levelo_inurba_marseille","lat":43.29556,"lon":5.37931,"is_reserved":false,"is_disabled":false,"rental_uris":{"android":"levelo://app?vid=84afae22-7654-4422-ba25-48093af55b1c","ios":"levelo://app?vid=84afae22-7654-4422-ba25-48093af55b1c"},"vehicle_type_id":"4","last_reported":1720814923,"current_range_meters":4400,"station_id":"","pricing_plan_id":"cebpf4jnsgd1na2vs0mg"},{"bike_id":"9a4c2434-e9b2-42c6-8a38-92da8bdbdf37","system_id":"levelo_inurba_marseille","lat":43.29307,"lon":5.37178,"is_reserved":false,"is_disabled":false,"rental_uris":{"android":"levelo://app?vid=9a4c2434-e9b2-42c6-8a38-92da8bdbdf37","ios":"levelo://app?vid=9a4c2434-e9b2-42c6-8a38-92da8bdbdf37"},"vehicle_type_id":"4","last_reported":1720814923,"current_range_meters":0,"station_id":"ce4bgh92rcd13ifvqb40","pricing_plan_id":"cebpf4jnsgd1na2vs0mg"},{"bike_id":"fdc91bc8-9d87-47ed-a13a-ee878d2abe64","system_id":"levelo_inurba_marseille","lat":43.293259,"lon":5.371586,"is_reserved":false,"is_disabled":false,"rental_uris":{"android":"levelo://app?vid=fdc91bc8-9d87-47ed-a13a-ee878d2abe64","ios":"levelo://app?vid=fdc91bc8-9d87-47ed-a13a-ee878d2abe64"},"vehicle_type_id":"4","last_reported":1720814923,"current_range_meters":20400,"station_id":"ce4bgh92rcd13ifvqb40","pricing_plan_id":"cebpf4jnsgd1na2vs0mg"},{"bike_id":"004758fa-287e-45d8-8c76-73f29db9aab6","system_id":"levelo_inurba_marseille","lat":43.293259,"lon":5.371586,"is_reserved":false,"is_disabled":false,"rental_uris":{"android":"levelo://app?vid=004758fa-287e-45d8-8c76-73f29db9aab6","ios":"levelo://app?vid=004758fa-287e-45d8-8c76-73f29db9aab6"},"vehicle_type_id":"4","last_reported":1720814923,"current_range_meters":17600,"station_id":"ce4bgh92rcd13ifvqb40","pricing_plan_id":"cebpf4jnsgd1na2vs0mg"},{"bike_id":"2b663512-3d4d-4ec2-ba4c-17228a680663","system_id":"levelo_inurba_marseille","lat":43.29304,"lon":5.37177,"is_reserved":false,"is_disabled":false,"rental_uris":{"android":"levelo://app?vid=2b663512-3d4d-4ec2-ba4c-17228a680663","ios":"levelo://app?vid=2b663512-3d4d-4ec2-ba4c-17228a680663"},"vehicle_type_id":"4","last_reported":1720814923,"current_range_meters":0,"station_id":"ce4bgh92rcd13ifvqb40","pricing_plan_id":"cebpf4jnsgd1na2vs0mg"},{"bike_id":"4fb7f8d7-f324-4ac5-b860-fa9dbbb21a9f","system_id":"levelo_inurba_marseille","lat":43.29301,"lon":5.37172,"is_reserved":false,"is_disabled":false,"rental_uris":{"android":"levelo://app?vid=4fb7f8d7-f324-4ac5-b860-fa9dbbb21a9f","ios":"levelo://app?vid=4fb7f8d7-f324-4ac5-b860-fa9dbbb21a9f"},"vehicle_type_id":"4","last_reported":1720814923,"current_range_meters":0,"station_id":"ce4bgh92rcd13ifvqb40","pricing_plan_id":"cebpf4jnsgd1na2vs0mg"},{"bike_id":"c9967a36-21c8-4f7f-8cc8-cbda41875a55","system_id":"levelo_inurba_marseille","lat":43.293259,"lon":5.371586,"is_reserved":false,"is_disabled":false,"rental_uris":{"android":"levelo://app?vid=c9967a36-21c8-4f7f-8cc8-cbda41875a55","ios":"levelo://app?vid=c9967a36-21c8-4f7f-8cc8-cbda41875a55"},"vehicle_type_id":"4","last_reported":1720814923,"current_range_meters":14800,"station_id":"ce4bgh92rcd13ifvqb40","pricing_plan_id":"cebpf4jnsgd1na2vs0mg"},{"bike_id":"f4727845-546c-476d-819e-7f6443097a61","system_id":"levelo_inurba_marseille","lat":43.293009,"lon":5.374584,"is_reserved":false,"is_disabled":false,"rental_uris":{"android":"levelo://app?vid=f4727845-546c-476d-819e-7f6443097a61","ios":"levelo://app?vid=f4727845-546c-476d-819e-7f6443097a61"},"vehicle_type_id":"4","last_reported":1720814923,"current_range_meters":8400,"station_id":"ce4bgi12rcd13ifvqb70","pricing_plan_id":"cebpf4jnsgd1na2vs0mg"},{"bike_id":"1a485915-9d43-4453-8b32-61bbcb1e4392","system_id":"levelo_inurba_marseille","lat":43.293009,"lon":5.374584,"is_reserved":false,"is_disabled":false,"rental_uris":{"android":"levelo://app?vid=1a485915-9d43-4453-8b32-61bbcb1e4392","ios":"levelo://app?vid=1a485915-9d43-4453-8b32-61bbcb1e4392"},"vehicle_type_id":"4","last_reported":1720814923,"current_range_meters":15600,"station_id":"ce4bgi12rcd13ifvqb70","pricing_plan_id":"cebpf4jnsgd1na2vs0mg"},{"bike_id":"2f1f7acf-77c2-4c5b-9807-82e74d73f93e","system_id":"levelo_inurba_marseille","lat":43.293009,"lon":5.374584,"is_reserved":false,"is_disabled":false,"rental_uris":{"android":"levelo://app?vid=2f1f7acf-77c2-4c5b-9807-82e74d73f93e","ios":"levelo://app?vid=2f1f7acf-77c2-4c5b-9807-82e74d73f93e"},"vehicle_type_id":"4","last_reported":1720814923,"current_range_meters":16400,"station_id":"ce4bgi12rcd13ifvqb70","pricing_plan_id":"cebpf4jnsgd1na2vs0mg"},{"bike_id":"8dd77f16-bccf-4934-9805-a6fc8ab2d696","system_id":"levelo_inurba_marseille","lat":43.29296,"lon":5.37448,"is_reserved":false,"is_disabled":false,"rental_uris":{"android":"levelo://app?vid=8dd77f16-bccf-4934-9805-a6fc8ab2d696","ios":"levelo://app?vid=8dd77f16-bccf-4934-9805-a6fc8ab2d696"},"vehicle_type_id":"4","last_reported":1720814923,"current_range_meters":0,"station_id":"ce4bgi12rcd13ifvqb70","pricing_plan_id":"cebpf4jnsgd1na2vs0mg"},{"bike_id":"8bf84428-27cd-4470-82a2-4f962e69a7b7","system_id":"levelo_inurba_marseille","lat":43.29295,"lon":5.37448,"is_reserved":false,"is_disabled":false,"rental_uris":{"android":"levelo://app?vid=8bf84428-27cd-4470-82a2-4f962e69a7b7","ios":"levelo://app?vid=8bf84428-27cd-4470-82a2-4f962e69a7b7"},"vehicle_type_id":"4","last_reported":1720814923,"current_range_meters":0,"station_id":"ce4bgi12rcd13ifvqb70","pricing_plan_id":"cebpf4jnsgd1na2vs0mg"},{"bike_id":"c7546324-7d1e-4580-bc98-3a12fa8ca116","system_id":"levelo_inurba_marseille","lat":43.29293,"lon":5.37447,"is_reserved":false,"is_disabled":false,"rental_uris":{"android":"levelo://app?vid=c7546324-7d1e-4580-bc98-3a12fa8ca116","ios":"levelo://app?vid=c7546324-7d1e-4580-bc98-3a12fa8ca116"},"vehicle_type_id":"4","last_reported":1720814923,"current_range_meters":1200,"station_id":"ce4bgi12rcd13ifvqb70","pricing_plan_id":"cebpf4jnsgd1na2vs0mg"},{"bike_id":"1c298c6a-ab21-4ad5-b7e9-12579f3b6a4b","system_id":"levelo_inurba_marseille","lat":43.293009,"lon":5.374584,"is_reserved":false,"is_disabled":false,"rental_uris":{"android":"levelo://app?vid=1c298c6a-ab21-4ad5-b7e9-12579f3b6a4b","ios":"levelo://app?vid=1c298c6a-ab21-4ad5-b7e9-12579f3b6a4b"},"vehicle_type_id":"4","last_reported":1720814923,"current_range_meters":7200,"station_id":"ce4bgi12rcd13ifvqb70","pricing_plan_id":"cebpf4jnsgd1na2vs0mg"},{"bike_id":"57d238c4-43ad-4e32-8642-579b94617d73","system_id":"levelo_inurba_marseille","lat":43.29574,"lon":5.38306,"is_reserved":false,"is_disabled":false,"rental_uris":{"android":"levelo://app?vid=57d238c4-43ad-4e32-8642-579b94617d73","ios":"levelo://app?vid=57d238c4-43ad-4e32-8642-579b94617d73"},"vehicle_type_id":"4","last_reported":1720814923,"current_range_meters":2400,"station_id":"","pricing_plan_id":"cebpf4jnsgd1na2vs0mg"},{"bike_id":"54a31da9-cadd-43f8-b838-43ce61e1e9c5","system_id":"levelo_inurba_marseille","lat":43.303002,"lon":5.392142,"is_reserved":false,"is_disabled":false,"rental_uris":{"android":"levelo://app?vid=54a31da9-cadd-43f8-b838-43ce61e1e9c5","ios":"levelo://app?vid=54a31da9-cadd-43f8-b838-43ce61e1e9c5"},"vehicle_type_id":"4","last_reported":1720814923,"current_range_meters":14400,"station_id":"ce4bgkh2rcd13ifvqbk0","pricing_plan_id":"cebpf4jnsgd1na2vs0mg"},{"bike_id":"f278d2af-026d-4e67-b765-a5c42ce07e95","system_id":"levelo_inurba_marseille","lat":43.29378,"lon":5.37857,"is_reserved":false,"is_disabled":false,"rental_uris":{"android":"levelo://app?vid=f278d2af-026d-4e67-b765-a5c42ce07e95","ios":"levelo://app?vid=f278d2af-026d-4e67-b765-a5c42ce07e95"},"vehicle_type_id":"4","last_reported":1720814923,"current_range_meters":0,"station_id":"ce4bgjh2rcd13ifvqbf0","pricing_plan_id":"cebpf4jnsgd1na2vs0mg"},{"bike_id":"f1d2259a-456a-4588-b3e6-80719e828a17","system_id":"levelo_inurba_marseille","lat":43.303002,"lon":5.392142,"is_reserved":false,"is_disabled":false,"rental_uris":{"android":"levelo://app?vid=f1d2259a-456a-4588-b3e6-80719e828a17","ios":"levelo://app?vid=f1d2259a-456a-4588-b3e6-80719e828a17"},"vehicle_type_id":"4","last_reported":1720814923,"current_range_meters":4800,"station_id":"ce4bgkh2rcd13ifvqbk0","pricing_plan_id":"cebpf4jnsgd1na2vs0mg"},{"bike_id":"10878b42-4243-496e-83c6-4d32ec941372","system_id":"levelo_inurba_marseille","lat":43.29373,"lon":5.37852,"is_reserved":false,"is_disabled":false,"rental_uris":{"android":"levelo://app?vid=10878b42-4243-496e-83c6-4d32ec941372","ios":"levelo://app?vid=10878b42-4243-496e-83c6-4d32ec941372"},"vehicle_type_id":"4","last_reported":1720814923,"current_range_meters":0,"station_id":"ce4bgjh2rcd13ifvqbf0","pricing_plan_id":"cebpf4jnsgd1na2vs0mg"},{"bike_id":"b4fff363-9a13-48cb-9fef-b95f94a754c0","system_id":"levelo_inurba_marseille","lat":43.29228,"lon":5.36064,"is_reserved":false,"is_disabled":false,"rental_uris":{"android":"levelo://app?vid=b4fff363-9a13-48cb-9fef-b95f94a754c0","ios":"levelo://app?vid=b4fff363-9a13-48cb-9fef-b95f94a754c0"},"vehicle_type_id":"4","last_reported":1720814923,"current_range_meters":0,"station_id":"ce4bhbh2rcd13ifvqeqg","pricing_plan_id":"cebpf4jnsgd1na2vs0mg"},{"bike_id":"22a1d218-8039-4faa-9cbc-6c0944fa111c","system_id":"levelo_inurba_marseille","lat":43.30085,"lon":5.390856,"is_reserved":false,"is_disabled":false,"rental_uris":{"android":"levelo://app?vid=22a1d218-8039-4faa-9cbc-6c0944fa111c","ios":"levelo://app?vid=22a1d218-8039-4faa-9cbc-6c0944fa111c"},"vehicle_type_id":"4","last_reported":1720814923,"current_range_meters":29200,"station_id":"ce4bh192rcd13ifvqdb0","pricing_plan_id":"cebpf4jnsgd1na2vs0mg"},{"bike_id":"1aa295e3-a04c-43e7-ac86-8ec0e9ecd452","system_id":"levelo_inurba_marseille","lat":43.29223,"lon":5.360597,"is_reserved":false,"is_disabled":false,"rental_uris":{"android":"levelo://app?vid=1aa295e3-a04c-43e7-ac86-8ec0e9ecd452","ios":"levelo://app?vid=1aa295e3-a04c-43e7-ac86-8ec0e9ecd452"},"vehicle_type_id":"4","last_reported":1720814923,"current_range_meters":0,"station_id":"ce4bhbh2rcd13ifvqeqg","pricing_plan_id":"cebpf4jnsgd1na2vs0mg"},{"bike_id":"081335dc-5524-4afb-afbe-137f5b60a549","system_id":"levelo_inurba_marseille","lat":43.292311,"lon":5.360731,"is_reserved":false,"is_disabled":false,"rental_uris":{"android":"levelo://app?vid=081335dc-5524-4afb-afbe-137f5b60a549","ios":"levelo://app?vid=081335dc-5524-4afb-afbe-137f5b60a549"},"vehicle_type_id":"4","last_reported":1720814923,"current_range_meters":24800,"station_id":"ce4bhbh2rcd13ifvqeqg","pricing_plan_id":"cebpf4jnsgd1na2vs0mg"},{"bike_id":"f78eeb37-e5fd-44e0-97f7-2e2744a8b5be","system_id":"levelo_inurba_marseille","lat":43.29886,"lon":5.389,"is_reserved":false,"is_disabled":false,"rental_uris":{"android":"levelo://app?vid=f78eeb37-e5fd-44e0-97f7-2e2744a8b5be","ios":"levelo://app?vid=f78eeb37-e5fd-44e0-97f7-2e2744a8b5be"},"vehicle_type_id":"4","last_reported":1720814923,"current_range_meters":5200,"station_id":"ce4bh392rcd13ifvqdl0","pricing_plan_id":"cebpf4jnsgd1na2vs0mg"},{"bike_id":"b2eaa1e3-f0ec-4a78-a514-47a3f07e7cb7","system_id":"levelo_inurba_marseille","lat":43.298851,"lon":5.389082,"is_reserved":false,"is_disabled":false,"rental_uris":{"android":"levelo://app?vid=b2eaa1e3-f0ec-4a78-a514-47a3f07e7cb7","ios":"levelo://app?vid=b2eaa1e3-f0ec-4a78-a514-47a3f07e7cb7"},"vehicle_type_id":"4","last_reported":1720814923,"current_range_meters":22400,"station_id":"ce4bh392rcd13ifvqdl0","pricing_plan_id":"cebpf4jnsgd1na2vs0mg"},{"bike_id":"5938bf3e-677b-47b7-ab84-11ca37b575d9","system_id":"levelo_inurba_marseille","lat":43.291713,"lon":5.371497,"is_reserved":false,"is_disabled":false,"rental_uris":{"android":"levelo://app?vid=5938bf3e-677b-47b7-ab84-11ca37b575d9","ios":"levelo://app?vid=5938bf3e-677b-47b7-ab84-11ca37b575d9"},"vehicle_type_id":"4","last_reported":1720814923,"current_range_meters":0,"station_id":"ce4bha92rcd13ifvqeh0","pricing_plan_id":"cebpf4jnsgd1na2vs0mg"},{"bike_id":"db3c7b36-e237-47e1-992b-ab2a033f9168","system_id":"levelo_inurba_marseille","lat":43.29884,"lon":5.38909,"is_reserved":false,"is_disabled":false,"rental_uris":{"android":"levelo://app?vid=db3c7b36-e237-47e1-992b-ab2a033f9168","ios":"levelo://app?vid=db3c7b36-e237-47e1-992b-ab2a033f9168"},"vehicle_type_id":"4","last_reported":1720814923,"current_range_meters":18000,"station_id":"ce4bh392rcd13ifvqdl0","pricing_plan_id":"cebpf4jnsgd1na2vs0mg"},{"bike_id":"b2e0c9c9-3245-4af0-9c4d-c7a1136127e2","system_id":"levelo_inurba_marseille","lat":43.29861,"lon":5.38919,"is_reserved":false,"is_disabled":false,"rental_uris":{"android":"levelo://app?vid=b2e0c9c9-3245-4af0-9c4d-c7a1136127e2","ios":"levelo://app?vid=b2e0c9c9-3245-4af0-9c4d-c7a1136127e2"},"vehicle_type_id":"4","last_reported":1720814923,"current_range_meters":29600,"station_id":"ce4bh392rcd13ifvqdl0","pricing_plan_id":"cebpf4jnsgd1na2vs0mg"},{"bike_id":"de074a24-3f38-4606-bd17-c867b053772c","system_id":"levelo_inurba_marseille","lat":43.29199,"lon":5.35814,"is_reserved":false,"is_disabled":false,"rental_uris":{"android":"levelo://app?vid=de074a24-3f38-4606-bd17-c867b053772c","ios":"levelo://app?vid=de074a24-3f38-4606-bd17-c867b053772c"},"vehicle_type_id":"4","last_reported":1720814923,"current_range_meters":0,"station_id":"ce4bhb12rcd13ifvqel0","pricing_plan_id":"cebpf4jnsgd1na2vs0mg"},{"bike_id":"b5e01129-b3ed-4e9e-a131-242e8593a284","system_id":"levelo_inurba_marseille","lat":43.313291,"lon":5.396838,"is_reserved":false,"is_disabled":false,"rental_uris":{"android":"levelo://app?vid=b5e01129-b3ed-4e9e-a131-242e8593a284","ios":"levelo://app?vid=b5e01129-b3ed-4e9e-a131-242e8593a284"},"vehicle_type_id":"4","last_reported":1720814923,"current_range_meters":14800,"station_id":"ce4bgvp2rcd13ifvqcu0","pricing_plan_id":"cebpf4jnsgd1na2vs0mg"},{"bike_id":"f737074b-eb5c-45f5-930b-f24ad4338ad2","system_id":"levelo_inurba_marseille","lat":43.29192,"lon":5.35802,"is_reserved":false,"is_disabled":false,"rental_uris":{"android":"levelo://app?vid=f737074b-eb5c-45f5-930b-f24ad4338ad2","ios":"levelo://app?vid=f737074b-eb5c-45f5-930b-f24ad4338ad2"},"vehicle_type_id":"4","last_reported":1720814923,"current_range_meters":0,"station_id":"ce4bhb12rcd13ifvqel0","pricing_plan_id":"cebpf4jnsgd1na2vs0mg"},{"bike_id":"afb93253-1695-4ad6-be7c-95987d3960d8","system_id":"levelo_inurba_marseille","lat":43.309038,"lon":5.396546,"is_reserved":false,"is_disabled":false,"rental_uris":{"android":"levelo://app?vid=afb93253-1695-4ad6-be7c-95987d3960d8","ios":"levelo://app?vid=afb93253-1695-4ad6-be7c-95987d3960d8"},"vehicle_type_id":"4","last_reported":1720814923,"current_range_meters":0,"station_id":"ce4bh012rcd13ifvqcv0","pricing_plan_id":"cebpf4jnsgd1na2vs0mg"},{"bike_id":"c77d75c4-9059-4c30-9242-f243c1a18b15","system_id":"levelo_inurba_marseille","lat":43.31335,"lon":5.39697,"is_reserved":false,"is_disabled":false,"rental_uris":{"android":"levelo://app?vid=c77d75c4-9059-4c30-9242-f243c1a18b15","ios":"levelo://app?vid=c77d75c4-9059-4c30-9242-f243c1a18b15"},"vehicle_type_id":"4","last_reported":1720814923,"current_range_meters":10800,"station_id":"ce4bgvp2rcd13ifvqcu0","pricing_plan_id":"cebpf4jnsgd1na2vs0mg"},{"bike_id":"f60ced42-6c9e-41cf-8740-4ea625f1b0ce","system_id":"levelo_inurba_marseille","lat":43.33235,"lon":5.3804,"is_reserved":false,"is_disabled":false,"rental_uris":{"android":"levelo://app?vid=f60ced42-6c9e-41cf-8740-4ea625f1b0ce","ios":"levelo://app?vid=f60ced42-6c9e-41cf-8740-4ea625f1b0ce"},"vehicle_type_id":"4","last_reported":1720814923,"current_range_meters":6400,"station_id":"","pricing_plan_id":"cebpf4jnsgd1na2vs0mg"},{"bike_id":"1436a7f8-70f9-43af-8bc3-bfc28d786a9b","system_id":"levelo_inurba_marseille","lat":43.3088,"lon":5.39657,"is_reserved":false,"is_disabled":false,"rental_uris":{"android":"levelo://app?vid=1436a7f8-70f9-43af-8bc3-bfc28d786a9b","ios":"levelo://app?vid=1436a7f8-70f9-43af-8bc3-bfc28d786a9b"},"vehicle_type_id":"4","last_reported":1720814923,"current_range_meters":16400,"station_id":"ce4bh012rcd13ifvqcv0","pricing_plan_id":"cebpf4jnsgd1na2vs0mg"},{"bike_id":"fdbbcc93-93eb-4a94-95cd-9a9544342504","system_id":"levelo_inurba_marseille","lat":43.29534,"lon":5.38534,"is_reserved":false,"is_disabled":false,"rental_uris":{"android":"levelo://app?vid=fdbbcc93-93eb-4a94-95cd-9a9544342504","ios":"levelo://app?vid=fdbbcc93-93eb-4a94-95cd-9a9544342504"},"vehicle_type_id":"4","last_reported":1720814923,"current_range_meters":2800,"station_id":"ce4bgih2rcd13ifvqba0","pricing_plan_id":"cebpf4jnsgd1na2vs0mg"},{"bike_id":"7bccc5bc-fd75-4b5e-8796-13f50da2ac19","system_id":"levelo_inurba_marseille","lat":43.29529,"lon":5.385581,"is_reserved":false,"is_disabled":false,"rental_uris":{"android":"levelo://app?vid=7bccc5bc-fd75-4b5e-8796-13f50da2ac19","ios":"levelo://app?vid=7bccc5bc-fd75-4b5e-8796-13f50da2ac19"},"vehicle_type_id":"4","last_reported":1720814923,"current_range_meters":31200,"station_id":"ce4bgih2rcd13ifvqba0","pricing_plan_id":"cebpf4jnsgd1na2vs0mg"},{"bike_id":"ce87d3f3-7239-4480-b853-0cb1c8ca864e","system_id":"levelo_inurba_marseille","lat":43.29529,"lon":5.385581,"is_reserved":false,"is_disabled":false,"rental_uris":{"android":"levelo://app?vid=ce87d3f3-7239-4480-b853-0cb1c8ca864e","ios":"levelo://app?vid=ce87d3f3-7239-4480-b853-0cb1c8ca864e"},"vehicle_type_id":"4","last_reported":1720814923,"current_range_meters":0,"station_id":"ce4bgih2rcd13ifvqba0","pricing_plan_id":"cebpf4jnsgd1na2vs0mg"},{"bike_id":"a480c05c-1413-4125-807f-3629be3b6dc4","system_id":"levelo_inurba_marseille","lat":43.29529,"lon":5.385581,"is_reserved":false,"is_disabled":false,"rental_uris":{"android":"levelo://app?vid=a480c05c-1413-4125-807f-3629be3b6dc4","ios":"levelo://app?vid=a480c05c-1413-4125-807f-3629be3b6dc4"},"vehicle_type_id":"4","last_reported":1720814923,"current_range_meters":31200,"station_id":"ce4bgih2rcd13ifvqba0","pricing_plan_id":"cebpf4jnsgd1na2vs0mg"},{"bike_id":"2a89ed80-4612-4987-b31d-4b49690260d3","system_id":"levelo_inurba_marseille","lat":43.29529,"lon":5.385581,"is_reserved":false,"is_disabled":false,"rental_uris":{"android":"levelo://app?vid=2a89ed80-4612-4987-b31d-4b49690260d3","ios":"levelo://app?vid=2a89ed80-4612-4987-b31d-4b49690260d3"},"vehicle_type_id":"4","last_reported":1720814923,"current_range_meters":16400,"station_id":"ce4bgih2rcd13ifvqba0","pricing_plan_id":"cebpf4jnsgd1na2vs0mg"},{"bike_id":"b0f776a8-76a7-4c9e-a06f-ba950c75b4a7","system_id":"levelo_inurba_marseille","lat":43.29529,"lon":5.385581,"is_reserved":false,"is_disabled":false,"rental_uris":{"android":"levelo://app?vid=b0f776a8-76a7-4c9e-a06f-ba950c75b4a7","ios":"levelo://app?vid=b0f776a8-76a7-4c9e-a06f-ba950c75b4a7"},"vehicle_type_id":"4","last_reported":1720814923,"current_range_meters":5200,"station_id":"ce4bgih2rcd13ifvqba0","pricing_plan_id":"cebpf4jnsgd1na2vs0mg"},{"bike_id":"26992ebd-fbe9-4089-ba4e-eeb7cd9cf82e","system_id":"levelo_inurba_marseille","lat":43.29529,"lon":5.385581,"is_reserved":false,"is_disabled":false,"rental_uris":{"android":"levelo://app?vid=26992ebd-fbe9-4089-ba4e-eeb7cd9cf82e","ios":"levelo://app?vid=26992ebd-fbe9-4089-ba4e-eeb7cd9cf82e"},"vehicle_type_id":"4","last_reported":1720814923,"current_range_meters":14800,"station_id":"ce4bgih2rcd13ifvqba0","pricing_plan_id":"cebpf4jnsgd1na2vs0mg"},{"bike_id":"459f3090-9d90-4dc1-b32d-8b7838724b09","system_id":"levelo_inurba_marseille","lat":43.29529,"lon":5.385581,"is_reserved":false,"is_disabled":false,"rental_uris":{"android":"levelo://app?vid=459f3090-9d90-4dc1-b32d-8b7838724b09","ios":"levelo://app?vid=459f3090-9d90-4dc1-b32d-8b7838724b09"},"vehicle_type_id":"4","last_reported":1720814923,"current_range_meters":4400,"station_id":"ce4bgih2rcd13ifvqba0","pricing_plan_id":"cebpf4jnsgd1na2vs0mg"},{"bike_id":"ca04482d-0e58-4851-b2f7-905384f88e24","system_id":"levelo_inurba_marseille","lat":43.29529,"lon":5.385581,"is_reserved":false,"is_disabled":false,"rental_uris":{"android":"levelo://app?vid=ca04482d-0e58-4851-b2f7-905384f88e24","ios":"levelo://app?vid=ca04482d-0e58-4851-b2f7-905384f88e24"},"vehicle_type_id":"4","last_reported":1720814923,"current_range_meters":27200,"station_id":"ce4bgih2rcd13ifvqba0","pricing_plan_id":"cebpf4jnsgd1na2vs0mg"},{"bike_id":"2a0f8518-039d-4cec-aafe-39345ebc6682","system_id":"levelo_inurba_marseille","lat":43.29529,"lon":5.385581,"is_reserved":false,"is_disabled":false,"rental_uris":{"android":"levelo://app?vid=2a0f8518-039d-4cec-aafe-39345ebc6682","ios":"levelo://app?vid=2a0f8518-039d-4cec-aafe-39345ebc6682"},"vehicle_type_id":"4","last_reported":1720814923,"current_range_meters":18800,"station_id":"ce4bgih2rcd13ifvqba0","pricing_plan_id":"cebpf4jnsgd1na2vs0mg"},{"bike_id":"4d71f06c-903e-4d37-8bb9-f7985f7fd29e","system_id":"levelo_inurba_marseille","lat":43.290779,"lon":5.371482,"is_reserved":false,"is_disabled":false,"rental_uris":{"android":"levelo://app?vid=4d71f06c-903e-4d37-8bb9-f7985f7fd29e","ios":"levelo://app?vid=4d71f06c-903e-4d37-8bb9-f7985f7fd29e"},"vehicle_type_id":"4","last_reported":1720814923,"current_range_meters":0,"station_id":"ce4bh5p2rcd13ifvqe4g","pricing_plan_id":"cebpf4jnsgd1na2vs0mg"},{"bike_id":"d7c5ba4f-97ef-438d-b969-bcb6cb6f05ad","system_id":"levelo_inurba_marseille","lat":43.29151,"lon":5.35577,"is_reserved":false,"is_disabled":false,"rental_uris":{"android":"levelo://app?vid=d7c5ba4f-97ef-438d-b969-bcb6cb6f05ad","ios":"levelo://app?vid=d7c5ba4f-97ef-438d-b969-bcb6cb6f05ad"},"vehicle_type_id":"4","last_reported":1720814923,"current_range_meters":17200,"station_id":"","pricing_plan_id":"cebpf4jnsgd1na2vs0mg"},{"bike_id":"57a289c9-748e-4471-a0a5-3e4a4858cd27","system_id":"levelo_inurba_marseille","lat":43.294153,"lon":5.386305,"is_reserved":false,"is_disabled":false,"rental_uris":{"android":"levelo://app?vid=57a289c9-748e-4471-a0a5-3e4a4858cd27","ios":"levelo://app?vid=57a289c9-748e-4471-a0a5-3e4a4858cd27"},"vehicle_type_id":"4","last_reported":1720814923,"current_range_meters":28000,"station_id":"ce4bh2h2rcd13ifvqdh0","pricing_plan_id":"cebpf4jnsgd1na2vs0mg"},{"bike_id":"49d9b952-42aa-4a89-8001-88cb700cdcfb","system_id":"levelo_inurba_marseille","lat":43.294153,"lon":5.386305,"is_reserved":false,"is_disabled":false,"rental_uris":{"android":"levelo://app?vid=49d9b952-42aa-4a89-8001-88cb700cdcfb","ios":"levelo://app?vid=49d9b952-42aa-4a89-8001-88cb700cdcfb"},"vehicle_type_id":"4","last_reported":1720814923,"current_range_meters":3600,"station_id":"ce4bh2h2rcd13ifvqdh0","pricing_plan_id":"cebpf4jnsgd1na2vs0mg"},{"bike_id":"3ccbfaa2-4582-4b25-911d-38f80c56d407","system_id":"levelo_inurba_marseille","lat":43.2942,"lon":5.38617,"is_reserved":false,"is_disabled":false,"rental_uris":{"android":"levelo://app?vid=3ccbfaa2-4582-4b25-911d-38f80c56d407","ios":"levelo://app?vid=3ccbfaa2-4582-4b25-911d-38f80c56d407"},"vehicle_type_id":"4","last_reported":1720814923,"current_range_meters":20400,"station_id":"ce4bh2h2rcd13ifvqdh0","pricing_plan_id":"cebpf4jnsgd1na2vs0mg"},{"bike_id":"14e2fbbd-fd27-4a12-912f-cb5d1ced15e6","system_id":"levelo_inurba_marseille","lat":43.29419,"lon":5.38616,"is_reserved":false,"is_disabled":false,"rental_uris":{"android":"levelo://app?vid=14e2fbbd-fd27-4a12-912f-cb5d1ced15e6","ios":"levelo://app?vid=14e2fbbd-fd27-4a12-912f-cb5d1ced15e6"},"vehicle_type_id":"4","last_reported":1720814923,"current_range_meters":0,"station_id":"ce4bh2h2rcd13ifvqdh0","pricing_plan_id":"cebpf4jnsgd1na2vs0mg"},{"bike_id":"68aeed71-8045-415b-9612-a76bed5f570a","system_id":"levelo_inurba_marseille","lat":43.29418,"lon":5.38619,"is_reserved":false,"is_disabled":false,"rental_uris":{"android":"levelo://app?vid=68aeed71-8045-415b-9612-a76bed5f570a","ios":"levelo://app?vid=68aeed71-8045-415b-9612-a76bed5f570a"},"vehicle_type_id":"4","last_reported":1720814923,"current_range_meters":14400,"station_id":"ce4bh2h2rcd13ifvqdh0","pricing_plan_id":"cebpf4jnsgd1na2vs0mg"},{"bike_id":"8462116b-3e89-4bf9-9f04-5d21c2f3f6b7","system_id":"levelo_inurba_marseille","lat":43.294162,"lon":5.386292,"is_reserved":false,"is_disabled":false,"rental_uris":{"android":"levelo://app?vid=8462116b-3e89-4bf9-9f04-5d21c2f3f6b7","ios":"levelo://app?vid=8462116b-3e89-4bf9-9f04-5d21c2f3f6b7"},"vehicle_type_id":"4","last_reported":1720814923,"current_range_meters":31600,"station_id":"ce4bh2h2rcd13ifvqdh0","pricing_plan_id":"cebpf4jnsgd1na2vs0mg"},{"bike_id":"f4545624-6d90-4dd4-a06b-68a38541a428","system_id":"levelo_inurba_marseille","lat":43.294153,"lon":5.386305,"is_reserved":false,"is_disabled":false,"rental_uris":{"android":"levelo://app?vid=f4545624-6d90-4dd4-a06b-68a38541a428","ios":"levelo://app?vid=f4545624-6d90-4dd4-a06b-68a38541a428"},"vehicle_type_id":"4","last_reported":1720814923,"current_range_meters":26800,"station_id":"ce4bh2h2rcd13ifvqdh0","pricing_plan_id":"cebpf4jnsgd1na2vs0mg"},{"bike_id":"25add94f-4dbd-49eb-b7b8-0e29019806c4","system_id":"levelo_inurba_marseille","lat":43.294162,"lon":5.386292,"is_reserved":false,"is_disabled":false,"rental_uris":{"android":"levelo://app?vid=25add94f-4dbd-49eb-b7b8-0e29019806c4","ios":"levelo://app?vid=25add94f-4dbd-49eb-b7b8-0e29019806c4"},"vehicle_type_id":"4","last_reported":1720814923,"current_range_meters":20000,"station_id":"ce4bh2h2rcd13ifvqdh0","pricing_plan_id":"cebpf4jnsgd1na2vs0mg"},{"bike_id":"ce90e33b-8a60-4606-aeac-58795ff6b68c","system_id":"levelo_inurba_marseille","lat":43.28946,"lon":5.36629,"is_reserved":false,"is_disabled":false,"rental_uris":{"android":"levelo://app?vid=ce90e33b-8a60-4606-aeac-58795ff6b68c","ios":"levelo://app?vid=ce90e33b-8a60-4606-aeac-58795ff6b68c"},"vehicle_type_id":"4","last_reported":1720814923,"current_range_meters":0,"station_id":"ce4bhap2rcd13ifvqek0","pricing_plan_id":"cebpf4jnsgd1na2vs0mg"},{"bike_id":"83987a5b-c0b4-4951-b769-9267473d9e96","system_id":"levelo_inurba_marseille","lat":43.290319,"lon":5.375732,"is_reserved":false,"is_disabled":false,"rental_uris":{"android":"levelo://app?vid=83987a5b-c0b4-4951-b769-9267473d9e96","ios":"levelo://app?vid=83987a5b-c0b4-4951-b769-9267473d9e96"},"vehicle_type_id":"4","last_reported":1720814923,"current_range_meters":0,"station_id":"ce4bh692rcd13ifvqe90","pricing_plan_id":"cebpf4jnsgd1na2vs0mg"},{"bike_id":"19358eea-468a-488e-9b4b-390e5af22a82","system_id":"levelo_inurba_marseille","lat":43.29417,"lon":5.38623,"is_reserved":false,"is_disabled":false,"rental_uris":{"android":"levelo://app?vid=19358eea-468a-488e-9b4b-390e5af22a82","ios":"levelo://app?vid=19358eea-468a-488e-9b4b-390e5af22a82"},"vehicle_type_id":"4","last_reported":1720814923,"current_range_meters":26800,"station_id":"ce4bh2h2rcd13ifvqdh0","pricing_plan_id":"cebpf4jnsgd1na2vs0mg"},{"bike_id":"e3a71183-3273-4b17-9c5c-a5b50c31543b","system_id":"levelo_inurba_marseille","lat":43.29417,"lon":5.38624,"is_reserved":false,"is_disabled":false,"rental_uris":{"android":"levelo://app?vid=e3a71183-3273-4b17-9c5c-a5b50c31543b","ios":"levelo://app?vid=e3a71183-3273-4b17-9c5c-a5b50c31543b"},"vehicle_type_id":"4","last_reported":1720814923,"current_range_meters":0,"station_id":"ce4bh2h2rcd13ifvqdh0","pricing_plan_id":"cebpf4jnsgd1na2vs0mg"},{"bike_id":"13b8d591-810d-4676-bbc5-6b5dbbde05d7","system_id":"levelo_inurba_marseille","lat":43.294153,"lon":5.386305,"is_reserved":false,"is_disabled":false,"rental_uris":{"android":"levelo://app?vid=13b8d591-810d-4676-bbc5-6b5dbbde05d7","ios":"levelo://app?vid=13b8d591-810d-4676-bbc5-6b5dbbde05d7"},"vehicle_type_id":"4","last_reported":1720814923,"current_range_meters":19600,"station_id":"ce4bh2h2rcd13ifvqdh0","pricing_plan_id":"cebpf4jnsgd1na2vs0mg"},{"bike_id":"53cf9901-320f-40da-8ac9-4ecde90241d1","system_id":"levelo_inurba_marseille","lat":43.29417,"lon":5.38625,"is_reserved":false,"is_disabled":false,"rental_uris":{"android":"levelo://app?vid=53cf9901-320f-40da-8ac9-4ecde90241d1","ios":"levelo://app?vid=53cf9901-320f-40da-8ac9-4ecde90241d1"},"vehicle_type_id":"4","last_reported":1720814923,"current_range_meters":24400,"station_id":"ce4bh2h2rcd13ifvqdh0","pricing_plan_id":"cebpf4jnsgd1na2vs0mg"},{"bike_id":"f216225a-d9fd-488b-9f50-56d46e1a4c11","system_id":"levelo_inurba_marseille","lat":43.294153,"lon":5.386305,"is_reserved":false,"is_disabled":false,"rental_uris":{"android":"levelo://app?vid=f216225a-d9fd-488b-9f50-56d46e1a4c11","ios":"levelo://app?vid=f216225a-d9fd-488b-9f50-56d46e1a4c11"},"vehicle_type_id":"4","last_reported":1720814923,"current_range_meters":10400,"station_id":"ce4bh2h2rcd13ifvqdh0","pricing_plan_id":"cebpf4jnsgd1na2vs0mg"},{"bike_id":"5de4df66-4c56-4d31-b118-051cbcdbd1ef","system_id":"levelo_inurba_marseille","lat":43.294162,"lon":5.386292,"is_reserved":false,"is_disabled":false,"rental_uris":{"android":"levelo://app?vid=5de4df66-4c56-4d31-b118-051cbcdbd1ef","ios":"levelo://app?vid=5de4df66-4c56-4d31-b118-051cbcdbd1ef"},"vehicle_type_id":"4","last_reported":1720814923,"current_range_meters":22800,"station_id":"ce4bh2h2rcd13ifvqdh0","pricing_plan_id":"cebpf4jnsgd1na2vs0mg"},{"bike_id":"2ab26c8d-8f6a-4d06-b070-eef978fd1b87","system_id":"levelo_inurba_marseille","lat":43.294162,"lon":5.386292,"is_reserved":false,"is_disabled":false,"rental_uris":{"android":"levelo://app?vid=2ab26c8d-8f6a-4d06-b070-eef978fd1b87","ios":"levelo://app?vid=2ab26c8d-8f6a-4d06-b070-eef978fd1b87"},"vehicle_type_id":"4","last_reported":1720814923,"current_range_meters":0,"station_id":"ce4bh2h2rcd13ifvqdh0","pricing_plan_id":"cebpf4jnsgd1na2vs0mg"},{"bike_id":"bc24aa36-6f07-4e9a-8ad2-8e0f98dc0574","system_id":"levelo_inurba_marseille","lat":43.294162,"lon":5.386292,"is_reserved":false,"is_disabled":false,"rental_uris":{"android":"levelo://app?vid=bc24aa36-6f07-4e9a-8ad2-8e0f98dc0574","ios":"levelo://app?vid=bc24aa36-6f07-4e9a-8ad2-8e0f98dc0574"},"vehicle_type_id":"4","last_reported":1720814923,"current_range_meters":28800,"station_id":"ce4bh2h2rcd13ifvqdh0","pricing_plan_id":"cebpf4jnsgd1na2vs0mg"},{"bike_id":"9d4c6bb1-5f08-4788-8984-22827d936156","system_id":"levelo_inurba_marseille","lat":43.29413,"lon":5.38629,"is_reserved":false,"is_disabled":false,"rental_uris":{"android":"levelo://app?vid=9d4c6bb1-5f08-4788-8984-22827d936156","ios":"levelo://app?vid=9d4c6bb1-5f08-4788-8984-22827d936156"},"vehicle_type_id":"4","last_reported":1720814923,"current_range_meters":0,"station_id":"ce4bh2h2rcd13ifvqdh0","pricing_plan_id":"cebpf4jnsgd1na2vs0mg"},{"bike_id":"9684d2b7-fff4-4d51-8776-73d7f8cf3114","system_id":"levelo_inurba_marseille","lat":43.289184,"lon":5.366408,"is_reserved":false,"is_disabled":false,"rental_uris":{"android":"levelo://app?vid=9684d2b7-fff4-4d51-8776-73d7f8cf3114","ios":"levelo://app?vid=9684d2b7-fff4-4d51-8776-73d7f8cf3114"},"vehicle_type_id":"4","last_reported":1720814923,"current_range_meters":28400,"station_id":"ce4bhap2rcd13ifvqek0","pricing_plan_id":"cebpf4jnsgd1na2vs0mg"},{"bike_id":"980c3612-7803-49ed-96de-cedc66424863","system_id":"levelo_inurba_marseille","lat":43.29412,"lon":5.38629,"is_reserved":false,"is_disabled":false,"rental_uris":{"android":"levelo://app?vid=980c3612-7803-49ed-96de-cedc66424863","ios":"levelo://app?vid=980c3612-7803-49ed-96de-cedc66424863"},"vehicle_type_id":"4","last_reported":1720814923,"current_range_meters":0,"station_id":"ce4bh2h2rcd13ifvqdh0","pricing_plan_id":"cebpf4jnsgd1na2vs0mg"},{"bike_id":"698d49c2-c321-4728-8bed-683954398dbc","system_id":"levelo_inurba_marseille","lat":43.2941,"lon":5.38632,"is_reserved":false,"is_disabled":false,"rental_uris":{"android":"levelo://app?vid=698d49c2-c321-4728-8bed-683954398dbc","ios":"levelo://app?vid=698d49c2-c321-4728-8bed-683954398dbc"},"vehicle_type_id":"4","last_reported":1720814923,"current_range_meters":400,"station_id":"ce4bh2h2rcd13ifvqdh0","pricing_plan_id":"cebpf4jnsgd1na2vs0mg"},{"bike_id":"4b01c1fa-279e-4889-9779-ef8bc48444f3","system_id":"levelo_inurba_marseille","lat":43.289468,"lon":5.363719,"is_reserved":false,"is_disabled":false,"rental_uris":{"android":"levelo://app?vid=4b01c1fa-279e-4889-9779-ef8bc48444f3","ios":"levelo://app?vid=4b01c1fa-279e-4889-9779-ef8bc48444f3"},"vehicle_type_id":"4","last_reported":1720814923,"current_range_meters":2400,"station_id":"ce4bhc92rcd13ifvqetg","pricing_plan_id":"cebpf4jnsgd1na2vs0mg"},{"bike_id":"227293cb-bc90-4aec-add9-f7d893f0f52e","system_id":"levelo_inurba_marseille","lat":43.289468,"lon":5.363719,"is_reserved":false,"is_disabled":false,"rental_uris":{"android":"levelo://app?vid=227293cb-bc90-4aec-add9-f7d893f0f52e","ios":"levelo://app?vid=227293cb-bc90-4aec-add9-f7d893f0f52e"},"vehicle_type_id":"4","last_reported":1720814923,"current_range_meters":0,"station_id":"ce4bhc92rcd13ifvqetg","pricing_plan_id":"cebpf4jnsgd1na2vs0mg"},{"bike_id":"576bcf20-4402-4c61-93e8-47579e73c82e","system_id":"levelo_inurba_marseille","lat":43.289184,"lon":5.366408,"is_reserved":false,"is_disabled":false,"rental_uris":{"android":"levelo://app?vid=576bcf20-4402-4c61-93e8-47579e73c82e","ios":"levelo://app?vid=576bcf20-4402-4c61-93e8-47579e73c82e"},"vehicle_type_id":"4","last_reported":1720814923,"current_range_meters":8000,"station_id":"ce4bhap2rcd13ifvqek0","pricing_plan_id":"cebpf4jnsgd1na2vs0mg"},{"bike_id":"cbb249d2-7803-46fa-beeb-cf11af9e2097","system_id":"levelo_inurba_marseille","lat":43.28942,"lon":5.36383,"is_reserved":false,"is_disabled":false,"rental_uris":{"android":"levelo://app?vid=cbb249d2-7803-46fa-beeb-cf11af9e2097","ios":"levelo://app?vid=cbb249d2-7803-46fa-beeb-cf11af9e2097"},"vehicle_type_id":"4","last_reported":1720814923,"current_range_meters":17600,"station_id":"ce4bhc92rcd13ifvqetg","pricing_plan_id":"cebpf4jnsgd1na2vs0mg"},{"bike_id":"7553f479-ad4b-4a9a-a411-f58085c4c642","system_id":"levelo_inurba_marseille","lat":43.304274,"lon":5.397513,"is_reserved":false,"is_disabled":false,"rental_uris":{"android":"levelo://app?vid=7553f479-ad4b-4a9a-a411-f58085c4c642","ios":"levelo://app?vid=7553f479-ad4b-4a9a-a411-f58085c4c642"},"vehicle_type_id":"4","last_reported":1720814923,"current_range_meters":28400,"station_id":"ce4bh092rcd13ifvqd20","pricing_plan_id":"cebpf4jnsgd1na2vs0mg"},{"bike_id":"534e8c6f-f669-4cb4-bcab-a4ecaf24080c","system_id":"levelo_inurba_marseille","lat":43.29263,"lon":5.38433,"is_reserved":false,"is_disabled":false,"rental_uris":{"android":"levelo://app?vid=534e8c6f-f669-4cb4-bcab-a4ecaf24080c","ios":"levelo://app?vid=534e8c6f-f669-4cb4-bcab-a4ecaf24080c"},"vehicle_type_id":"4","last_reported":1720814923,"current_range_meters":7200,"station_id":"ce4bh692rcd13ifvqea0","pricing_plan_id":"cebpf4jnsgd1na2vs0mg"},{"bike_id":"b6790342-540b-4ccd-bb38-80ba00e649cd","system_id":"levelo_inurba_marseille","lat":43.29266,"lon":5.38445,"is_reserved":false,"is_disabled":false,"rental_uris":{"android":"levelo://app?vid=b6790342-540b-4ccd-bb38-80ba00e649cd","ios":"levelo://app?vid=b6790342-540b-4ccd-bb38-80ba00e649cd"},"vehicle_type_id":"4","last_reported":1720814923,"current_range_meters":0,"station_id":"ce4bh692rcd13ifvqea0","pricing_plan_id":"cebpf4jnsgd1na2vs0mg"},{"bike_id":"25a5852f-d29c-4d81-b9f0-d355dcfaca8b","system_id":"levelo_inurba_marseille","lat":43.29263,"lon":5.38439,"is_reserved":false,"is_disabled":false,"rental_uris":{"android":"levelo://app?vid=25a5852f-d29c-4d81-b9f0-d355dcfaca8b","ios":"levelo://app?vid=25a5852f-d29c-4d81-b9f0-d355dcfaca8b"},"vehicle_type_id":"4","last_reported":1720814923,"current_range_meters":0,"station_id":"ce4bh692rcd13ifvqea0","pricing_plan_id":"cebpf4jnsgd1na2vs0mg"},{"bike_id":"34f751f1-0eeb-4b43-9fb0-5bcbc8fab007","system_id":"levelo_inurba_marseille","lat":43.29267,"lon":5.38448,"is_reserved":false,"is_disabled":false,"rental_uris":{"android":"levelo://app?vid=34f751f1-0eeb-4b43-9fb0-5bcbc8fab007","ios":"levelo://app?vid=34f751f1-0eeb-4b43-9fb0-5bcbc8fab007"},"vehicle_type_id":"4","last_reported":1720814923,"current_range_meters":12000,"station_id":"ce4bh692rcd13ifvqea0","pricing_plan_id":"cebpf4jnsgd1na2vs0mg"},{"bike_id":"39d30a2b-14da-4601-8e0e-f4a4a7b964f4","system_id":"levelo_inurba_marseille","lat":43.29266,"lon":5.38446,"is_reserved":false,"is_disabled":false,"rental_uris":{"android":"levelo://app?vid=39d30a2b-14da-4601-8e0e-f4a4a7b964f4","ios":"levelo://app?vid=39d30a2b-14da-4601-8e0e-f4a4a7b964f4"},"vehicle_type_id":"4","last_reported":1720814923,"current_range_meters":3200,"station_id":"ce4bh692rcd13ifvqea0","pricing_plan_id":"cebpf4jnsgd1na2vs0mg"},{"bike_id":"8806bc5b-6d57-4243-af08-8fee2e90650e","system_id":"levelo_inurba_marseille","lat":43.29264,"lon":5.38445,"is_reserved":false,"is_disabled":false,"rental_uris":{"android":"levelo://app?vid=8806bc5b-6d57-4243-af08-8fee2e90650e","ios":"levelo://app?vid=8806bc5b-6d57-4243-af08-8fee2e90650e"},"vehicle_type_id":"4","last_reported":1720814923,"current_range_meters":0,"station_id":"ce4bh692rcd13ifvqea0","pricing_plan_id":"cebpf4jnsgd1na2vs0mg"},{"bike_id":"5937cdfa-2afb-411c-8eae-86f2fe27770a","system_id":"levelo_inurba_marseille","lat":43.29262,"lon":5.38443,"is_reserved":false,"is_disabled":false,"rental_uris":{"android":"levelo://app?vid=5937cdfa-2afb-411c-8eae-86f2fe27770a","ios":"levelo://app?vid=5937cdfa-2afb-411c-8eae-86f2fe27770a"},"vehicle_type_id":"4","last_reported":1720814923,"current_range_meters":0,"station_id":"ce4bh692rcd13ifvqea0","pricing_plan_id":"cebpf4jnsgd1na2vs0mg"},{"bike_id":"e5f90134-45f2-426e-a08d-8dec08a9864e","system_id":"levelo_inurba_marseille","lat":43.2926,"lon":5.38443,"is_reserved":false,"is_disabled":false,"rental_uris":{"android":"levelo://app?vid=e5f90134-45f2-426e-a08d-8dec08a9864e","ios":"levelo://app?vid=e5f90134-45f2-426e-a08d-8dec08a9864e"},"vehicle_type_id":"4","last_reported":1720814923,"current_range_meters":3200,"station_id":"ce4bh692rcd13ifvqea0","pricing_plan_id":"cebpf4jnsgd1na2vs0mg"},{"bike_id":"2539fc7f-b49a-494e-8032-85fef0387083","system_id":"levelo_inurba_marseille","lat":43.290104,"lon":5.356111,"is_reserved":false,"is_disabled":false,"rental_uris":{"android":"levelo://app?vid=2539fc7f-b49a-494e-8032-85fef0387083","ios":"levelo://app?vid=2539fc7f-b49a-494e-8032-85fef0387083"},