{"last_updated":1775116685,"ttl":60,"version":"2.2","data":{"bikes":[{"bike_id":"c7146a49-b98e-4c59-a8ec-08a70b1606fc","system_id":"levelo_inurba_marseille","lat":43.21197,"lon":5.3507,"is_reserved":false,"is_disabled":false,"rental_uris":{"android":"levelo://app?vid=c7146a49-b98e-4c59-a8ec-08a70b1606fc","ios":"levelo://app?vid=c7146a49-b98e-4c59-a8ec-08a70b1606fc"},"vehicle_type_id":"4","last_reported":1775116686,"current_range_meters":2800,"station_id":"st_cvj6sg6p6f1abm77japg","pricing_plan_id":"cebpf4jnsgd1na2vs0mg"},{"bike_id":"97911566-b39d-4772-9786-37508c49e45f","system_id":"levelo_inurba_marseille","lat":43.22557,"lon":5.41626,"is_reserved":false,"is_disabled":false,"rental_uris":{"android":"levelo://app?vid=97911566-b39d-4772-9786-37508c49e45f","ios":"levelo://app?vid=97911566-b39d-4772-9786-37508c49e45f"},"vehicle_type_id":"4","last_reported":1775116686,"current_range_meters":2800,"station_id":"st_d2o4gvlbi1j2169b742g","pricing_plan_id":"cebpf4jnsgd1na2vs0mg"},{"bike_id":"8553374e-2630-4eb7-b40b-cde4aaf21694","system_id":"levelo_inurba_marseille","lat":43.2389,"lon":5.37465,"is_reserved":false,"is_disabled":false,"rental_uris":{"android":"levelo://app?vid=8553374e-2630-4eb7-b40b-cde4aaf21694","ios":"levelo://app?vid=8553374e-2630-4eb7-b40b-cde4aaf21694"},"vehicle_type_id":"4","last_reported":1775116686,"current_range_meters":2800,"station_id":"st_d6sm7csbq4hs73f8fpjg","pricing_plan_id":"cebpf4jnsgd1na2vs0mg"},{"bike_id":"58a7148f-c3ce-4cb7-8bd6-c3448106b272","system_id":"levelo_inurba_marseille","lat":43.297101,"lon":5.381901,"is_reserved":false,"is_disabled":false,"rental_uris":{"android":"levelo://app?vid=58a7148f-c3ce-4cb7-8bd6-c3448106b272","ios":"levelo://app?vid=58a7148f-c3ce-4cb7-8bd6-c3448106b272"},"vehicle_type_id":"4","last_reported":1775116686,"current_range_meters":2800,"station_id":"ce4bgg92rcd13ifvqb30","pricing_plan_id":"cebpf4jnsgd1na2vs0mg"},{"bike_id":"2780c993-ed69-4d31-beb0-98676d8a4038","system_id":"levelo_inurba_marseille","lat":43.250909,"lon":5.395243,"is_reserved":false,"is_disabled":false,"rental_uris":{"android":"levelo://app?vid=2780c993-ed69-4d31-beb0-98676d8a4038","ios":"levelo://app?vid=2780c993-ed69-4d31-beb0-98676d8a4038"},"vehicle_type_id":"4","last_reported":1775116686,"current_range_meters":2800,"station_id":"ce4bhm12rcd13ifvqgkg","pricing_plan_id":"cebpf4jnsgd1na2vs0mg"},{"bike_id":"599274e6-5922-44eb-9531-05e370a85b3e","system_id":"levelo_inurba_marseille","lat":43.24803,"lon":5.37455,"is_reserved":false,"is_disabled":false,"rental_uris":{"android":"levelo://app?vid=599274e6-5922-44eb-9531-05e370a85b3e","ios":"levelo://app?vid=599274e6-5922-44eb-9531-05e370a85b3e"},"vehicle_type_id":"4","last_reported":1775116686,"current_range_meters":2800,"station_id":"ce4bhgh2rcd13ifvqfb0","pricing_plan_id":"cebpf4jnsgd1na2vs0mg"},{"bike_id":"e39075e1-ea5f-489b-92f7-81d5eb2a83fd","system_id":"levelo_inurba_marseille","lat":43.21768,"lon":5.34615,"is_reserved":false,"is_disabled":false,"rental_uris":{"android":"levelo://app?vid=e39075e1-ea5f-489b-92f7-81d5eb2a83fd","ios":"levelo://app?vid=e39075e1-ea5f-489b-92f7-81d5eb2a83fd"},"vehicle_type_id":"4","last_reported":1775116686,"current_range_meters":2800,"station_id":"st_cvj6r9ubvosntc0bgbag","pricing_plan_id":"cebpf4jnsgd1na2vs0mg"},{"bike_id":"5017ed3e-5ae8-4a2b-bc3b-d1157886d715","system_id":"levelo_inurba_marseille","lat":43.26548,"lon":5.37302,"is_reserved":false,"is_disabled":false,"rental_uris":{"android":"levelo://app?vid=5017ed3e-5ae8-4a2b-bc3b-d1157886d715","ios":"levelo://app?vid=5017ed3e-5ae8-4a2b-bc3b-d1157886d715"},"vehicle_type_id":"4","last_reported":1775116686,"current_range_meters":2800,"station_id":"ce4bhg12rcd13ifvqf70","pricing_plan_id":"cebpf4jnsgd1na2vs0mg"},{"bike_id":"9d8a9a7e-464b-4dd7-a621-d6c377a8f2ef","system_id":"levelo_inurba_marseille","lat":43.25931,"lon":5.40906,"is_reserved":false,"is_disabled":false,"rental_uris":{"android":"levelo://app?vid=9d8a9a7e-464b-4dd7-a621-d6c377a8f2ef","ios":"levelo://app?vid=9d8a9a7e-464b-4dd7-a621-d6c377a8f2ef"},"vehicle_type_id":"4","last_reported":1775116686,"current_range_meters":2800,"station_id":"ce4bhm92rcd13ifvqglg","pricing_plan_id":"cebpf4jnsgd1na2vs0mg"},{"bike_id":"6ec1889d-c43d-42d7-9ebb-6d09626d1897","system_id":"levelo_inurba_marseille","lat":43.24644,"lon":5.38927,"is_reserved":false,"is_disabled":false,"rental_uris":{"android":"levelo://app?vid=6ec1889d-c43d-42d7-9ebb-6d09626d1897","ios":"levelo://app?vid=6ec1889d-c43d-42d7-9ebb-6d09626d1897"},"vehicle_type_id":"4","last_reported":1775116686,"current_range_meters":3200,"station_id":"ce4bhg12rcd13ifvqf60","pricing_plan_id":"cebpf4jnsgd1na2vs0mg"},{"bike_id":"a1d50569-5976-49ca-8b6c-1a7281c5266d","system_id":"levelo_inurba_marseille","lat":43.292962,"lon":5.371846,"is_reserved":false,"is_disabled":true,"rental_uris":{"android":"levelo://app?vid=a1d50569-5976-49ca-8b6c-1a7281c5266d","ios":"levelo://app?vid=a1d50569-5976-49ca-8b6c-1a7281c5266d"},"vehicle_type_id":"4","last_reported":1775116686,"current_range_meters":3200,"station_id":"ce4bgh92rcd13ifvqb40","pricing_plan_id":"cebpf4jnsgd1na2vs0mg"},{"bike_id":"e4956c66-fba0-45d5-a7d2-90ca01f34637","system_id":"levelo_inurba_marseille","lat":43.21746,"lon":5.34604,"is_reserved":false,"is_disabled":false,"rental_uris":{"android":"levelo://app?vid=e4956c66-fba0-45d5-a7d2-90ca01f34637","ios":"levelo://app?vid=e4956c66-fba0-45d5-a7d2-90ca01f34637"},"vehicle_type_id":"4","last_reported":1775116686,"current_range_meters":3200,"station_id":"st_cvj6r9ubvosntc0bgbag","pricing_plan_id":"cebpf4jnsgd1na2vs0mg"},{"bike_id":"51ee9063-27c6-4645-aab5-a8b07c3f4c5e","system_id":"levelo_inurba_marseille","lat":43.2416,"lon":5.36373,"is_reserved":false,"is_disabled":false,"rental_uris":{"android":"levelo://app?vid=51ee9063-27c6-4645-aab5-a8b07c3f4c5e","ios":"levelo://app?vid=51ee9063-27c6-4645-aab5-a8b07c3f4c5e"},"vehicle_type_id":"4","last_reported":1775116686,"current_range_meters":3200,"station_id":"cpo36qri1sfpv3e86is0","pricing_plan_id":"cebpf4jnsgd1na2vs0mg"},{"bike_id":"c6043a5e-6059-47d4-aca9-ce3cfe11791d","system_id":"levelo_inurba_marseille","lat":43.29567,"lon":5.37528,"is_reserved":false,"is_disabled":false,"rental_uris":{"android":"levelo://app?vid=c6043a5e-6059-47d4-aca9-ce3cfe11791d","ios":"levelo://app?vid=c6043a5e-6059-47d4-aca9-ce3cfe11791d"},"vehicle_type_id":"4","last_reported":1775116686,"current_range_meters":3200,"station_id":"ce4bgh92rcd13ifvqb50","pricing_plan_id":"cebpf4jnsgd1na2vs0mg"},{"bike_id":"1b719c32-5038-4bc1-a7ba-e551cb70500d","system_id":"levelo_inurba_marseille","lat":43.32108,"lon":5.36785,"is_reserved":false,"is_disabled":false,"rental_uris":{"android":"levelo://app?vid=1b719c32-5038-4bc1-a7ba-e551cb70500d","ios":"levelo://app?vid=1b719c32-5038-4bc1-a7ba-e551cb70500d"},"vehicle_type_id":"4","last_reported":1775116686,"current_range_meters":3200,"station_id":"ce4bhrh2rcd13ifvqhug","pricing_plan_id":"cebpf4jnsgd1na2vs0mg"},{"bike_id":"781c42fe-e8a7-46eb-8aaa-3cb47afdf549","system_id":"levelo_inurba_marseille","lat":43.31492,"lon":5.37304,"is_reserved":false,"is_disabled":false,"rental_uris":{"android":"levelo://app?vid=781c42fe-e8a7-46eb-8aaa-3cb47afdf549","ios":"levelo://app?vid=781c42fe-e8a7-46eb-8aaa-3cb47afdf549"},"vehicle_type_id":"4","last_reported":1775116686,"current_range_meters":3200,"station_id":"ce4bgt12rcd13ifvqcd0","pricing_plan_id":"cebpf4jnsgd1na2vs0mg"},{"bike_id":"4dc5e590-cebf-4591-86fa-2533cf011660","system_id":"levelo_inurba_marseille","lat":43.23967,"lon":5.36631,"is_reserved":false,"is_disabled":false,"rental_uris":{"android":"levelo://app?vid=4dc5e590-cebf-4591-86fa-2533cf011660","ios":"levelo://app?vid=4dc5e590-cebf-4591-86fa-2533cf011660"},"vehicle_type_id":"4","last_reported":1775116686,"current_range_meters":3200,"station_id":"ce4bhi12rcd13ifvqfp0","pricing_plan_id":"cebpf4jnsgd1na2vs0mg"},{"bike_id":"359192e3-5060-4e8d-99a4-60c8177a5557","system_id":"levelo_inurba_marseille","lat":43.29248,"lon":5.37635,"is_reserved":false,"is_disabled":false,"rental_uris":{"android":"levelo://app?vid=359192e3-5060-4e8d-99a4-60c8177a5557","ios":"levelo://app?vid=359192e3-5060-4e8d-99a4-60c8177a5557"},"vehicle_type_id":"4","last_reported":1775116686,"current_range_meters":3200,"station_id":"ce4bgi12rcd13ifvqb80","pricing_plan_id":"cebpf4jnsgd1na2vs0mg"},{"bike_id":"29cdac5f-ab24-4680-bdbb-b9f9e11d744e","system_id":"levelo_inurba_marseille","lat":43.33155,"lon":5.37699,"is_reserved":false,"is_disabled":false,"rental_uris":{"android":"levelo://app?vid=29cdac5f-ab24-4680-bdbb-b9f9e11d744e","ios":"levelo://app?vid=29cdac5f-ab24-4680-bdbb-b9f9e11d744e"},"vehicle_type_id":"4","last_reported":1775116686,"current_range_meters":3200,"station_id":"st_d46cu089ee8s73dldbu0","pricing_plan_id":"cebpf4jnsgd1na2vs0mg"},{"bike_id":"786ca097-21da-420b-8e54-1ee9116311a7","system_id":"levelo_inurba_marseille","lat":43.3352,"lon":5.41083,"is_reserved":false,"is_disabled":false,"rental_uris":{"android":"levelo://app?vid=786ca097-21da-420b-8e54-1ee9116311a7","ios":"levelo://app?vid=786ca097-21da-420b-8e54-1ee9116311a7"},"vehicle_type_id":"4","last_reported":1775116686,"current_range_meters":3200,"station_id":"","pricing_plan_id":"cebpf4jnsgd1na2vs0mg"},{"bike_id":"e48449c9-7d13-4803-b2aa-7fb857c0a68c","system_id":"levelo_inurba_marseille","lat":43.24431,"lon":5.41587,"is_reserved":false,"is_disabled":false,"rental_uris":{"android":"levelo://app?vid=e48449c9-7d13-4803-b2aa-7fb857c0a68c","ios":"levelo://app?vid=e48449c9-7d13-4803-b2aa-7fb857c0a68c"},"vehicle_type_id":"4","last_reported":1775116686,"current_range_meters":3600,"station_id":"","pricing_plan_id":"cebpf4jnsgd1na2vs0mg"},{"bike_id":"a12ced21-9765-4fca-9fbf-5660d7509d0d","system_id":"levelo_inurba_marseille","lat":43.28418,"lon":5.34992,"is_reserved":false,"is_disabled":false,"rental_uris":{"android":"levelo://app?vid=a12ced21-9765-4fca-9fbf-5660d7509d0d","ios":"levelo://app?vid=a12ced21-9765-4fca-9fbf-5660d7509d0d"},"vehicle_type_id":"4","last_reported":1775116686,"current_range_meters":3600,"station_id":"ce4bhbh2rcd13ifvqepg","pricing_plan_id":"cebpf4jnsgd1na2vs0mg"},{"bike_id":"ddacb53e-55a3-4a67-a531-5d71504540ee","system_id":"levelo_inurba_marseille","lat":43.22557,"lon":5.41634,"is_reserved":false,"is_disabled":false,"rental_uris":{"android":"levelo://app?vid=ddacb53e-55a3-4a67-a531-5d71504540ee","ios":"levelo://app?vid=ddacb53e-55a3-4a67-a531-5d71504540ee"},"vehicle_type_id":"4","last_reported":1775116686,"current_range_meters":3600,"station_id":"st_d2o4gvlbi1j2169b742g","pricing_plan_id":"cebpf4jnsgd1na2vs0mg"},{"bike_id":"a9616136-f3db-4e2d-951b-e20c22b73feb","system_id":"levelo_inurba_marseille","lat":43.24803,"lon":5.37452,"is_reserved":false,"is_disabled":true,"rental_uris":{"android":"levelo://app?vid=a9616136-f3db-4e2d-951b-e20c22b73feb","ios":"levelo://app?vid=a9616136-f3db-4e2d-951b-e20c22b73feb"},"vehicle_type_id":"4","last_reported":1775116686,"current_range_meters":3600,"station_id":"ce4bhgh2rcd13ifvqfb0","pricing_plan_id":"cebpf4jnsgd1na2vs0mg"},{"bike_id":"50236813-bf88-46a5-ace1-dd5e5784f3e0","system_id":"levelo_inurba_marseille","lat":43.33182,"lon":5.37621,"is_reserved":false,"is_disabled":false,"rental_uris":{"android":"levelo://app?vid=50236813-bf88-46a5-ace1-dd5e5784f3e0","ios":"levelo://app?vid=50236813-bf88-46a5-ace1-dd5e5784f3e0"},"vehicle_type_id":"4","last_reported":1775116686,"current_range_meters":3600,"station_id":"st_d46cu089ee8s73dldbu0","pricing_plan_id":"cebpf4jnsgd1na2vs0mg"},{"bike_id":"4489e38d-b693-43ca-966f-464eb546dc84","system_id":"levelo_inurba_marseille","lat":43.24167,"lon":5.364,"is_reserved":false,"is_disabled":false,"rental_uris":{"android":"levelo://app?vid=4489e38d-b693-43ca-966f-464eb546dc84","ios":"levelo://app?vid=4489e38d-b693-43ca-966f-464eb546dc84"},"vehicle_type_id":"4","last_reported":1775116686,"current_range_meters":3600,"station_id":"cpo36qri1sfpv3e86is0","pricing_plan_id":"cebpf4jnsgd1na2vs0mg"},{"bike_id":"15e159ca-4e0f-43f8-982d-c16dab56bef0","system_id":"levelo_inurba_marseille","lat":43.23957,"lon":5.36625,"is_reserved":false,"is_disabled":false,"rental_uris":{"android":"levelo://app?vid=15e159ca-4e0f-43f8-982d-c16dab56bef0","ios":"levelo://app?vid=15e159ca-4e0f-43f8-982d-c16dab56bef0"},"vehicle_type_id":"4","last_reported":1775116686,"current_range_meters":3600,"station_id":"ce4bhi12rcd13ifvqfp0","pricing_plan_id":"cebpf4jnsgd1na2vs0mg"},{"bike_id":"8fc970ee-a484-45a1-8680-8f7f28a23ddf","system_id":"levelo_inurba_marseille","lat":43.21756,"lon":5.34597,"is_reserved":false,"is_disabled":false,"rental_uris":{"android":"levelo://app?vid=8fc970ee-a484-45a1-8680-8f7f28a23ddf","ios":"levelo://app?vid=8fc970ee-a484-45a1-8680-8f7f28a23ddf"},"vehicle_type_id":"4","last_reported":1775116686,"current_range_meters":3600,"station_id":"st_cvj6r9ubvosntc0bgbag","pricing_plan_id":"cebpf4jnsgd1na2vs0mg"},{"bike_id":"521fdd5c-22f2-444b-870e-16f0ca92be9e","system_id":"levelo_inurba_marseille","lat":43.29525,"lon":5.38653,"is_reserved":false,"is_disabled":false,"rental_uris":{"android":"levelo://app?vid=521fdd5c-22f2-444b-870e-16f0ca92be9e","ios":"levelo://app?vid=521fdd5c-22f2-444b-870e-16f0ca92be9e"},"vehicle_type_id":"4","last_reported":1775116686,"current_range_meters":4000,"station_id":"","pricing_plan_id":"cebpf4jnsgd1na2vs0mg"},{"bike_id":"a2eaa8fe-9ee3-4783-9910-a0708dc6938b","system_id":"levelo_inurba_marseille","lat":43.23054,"lon":5.3548,"is_reserved":false,"is_disabled":false,"rental_uris":{"android":"levelo://app?vid=a2eaa8fe-9ee3-4783-9910-a0708dc6938b","ios":"levelo://app?vid=a2eaa8fe-9ee3-4783-9910-a0708dc6938b"},"vehicle_type_id":"4","last_reported":1775116686,"current_range_meters":4000,"station_id":"cpo3342slgdg3j2ifvpg","pricing_plan_id":"cebpf4jnsgd1na2vs0mg"},{"bike_id":"977fc7c3-1ec4-4662-b6a1-5d26f21089e8","system_id":"levelo_inurba_marseille","lat":43.24165,"lon":5.36431,"is_reserved":false,"is_disabled":false,"rental_uris":{"android":"levelo://app?vid=977fc7c3-1ec4-4662-b6a1-5d26f21089e8","ios":"levelo://app?vid=977fc7c3-1ec4-4662-b6a1-5d26f21089e8"},"vehicle_type_id":"4","last_reported":1775116686,"current_range_meters":4000,"station_id":"cpo36qri1sfpv3e86is0","pricing_plan_id":"cebpf4jnsgd1na2vs0mg"},{"bike_id":"6f01236f-c1bf-4629-8f10-a082c24743f2","system_id":"levelo_inurba_marseille","lat":43.27491,"lon":5.42465,"is_reserved":false,"is_disabled":false,"rental_uris":{"android":"levelo://app?vid=6f01236f-c1bf-4629-8f10-a082c24743f2","ios":"levelo://app?vid=6f01236f-c1bf-4629-8f10-a082c24743f2"},"vehicle_type_id":"4","last_reported":1775116686,"current_range_meters":4000,"station_id":"ce4bhn92rcd13ifvqgrg","pricing_plan_id":"cebpf4jnsgd1na2vs0mg"},{"bike_id":"5ff8da46-d50f-41b2-8eee-8fa1fd7c4ed1","system_id":"levelo_inurba_marseille","lat":43.25004,"lon":5.38938,"is_reserved":false,"is_disabled":false,"rental_uris":{"android":"levelo://app?vid=5ff8da46-d50f-41b2-8eee-8fa1fd7c4ed1","ios":"levelo://app?vid=5ff8da46-d50f-41b2-8eee-8fa1fd7c4ed1"},"vehicle_type_id":"4","last_reported":1775116686,"current_range_meters":4000,"station_id":"ce4bhgp2rcd13ifvqfd0","pricing_plan_id":"cebpf4jnsgd1na2vs0mg"},{"bike_id":"ace8d92c-665e-46a4-858d-e12872c8b9f0","system_id":"levelo_inurba_marseille","lat":43.28483,"lon":5.48402,"is_reserved":false,"is_disabled":false,"rental_uris":{"android":"levelo://app?vid=ace8d92c-665e-46a4-858d-e12872c8b9f0","ios":"levelo://app?vid=ace8d92c-665e-46a4-858d-e12872c8b9f0"},"vehicle_type_id":"4","last_reported":1775116686,"current_range_meters":4000,"station_id":"","pricing_plan_id":"cebpf4jnsgd1na2vs0mg"},{"bike_id":"23a1f004-01c9-4416-9d3b-31e26d56c169","system_id":"levelo_inurba_marseille","lat":43.23999,"lon":5.37776,"is_reserved":false,"is_disabled":false,"rental_uris":{"android":"levelo://app?vid=23a1f004-01c9-4416-9d3b-31e26d56c169","ios":"levelo://app?vid=23a1f004-01c9-4416-9d3b-31e26d56c169"},"vehicle_type_id":"4","last_reported":1775116686,"current_range_meters":4000,"station_id":"","pricing_plan_id":"cebpf4jnsgd1na2vs0mg"},{"bike_id":"acc7b62a-d9bb-4113-95ac-ab78d8fba512","system_id":"levelo_inurba_marseille","lat":43.31704,"lon":5.40457,"is_reserved":false,"is_disabled":false,"rental_uris":{"android":"levelo://app?vid=acc7b62a-d9bb-4113-95ac-ab78d8fba512","ios":"levelo://app?vid=acc7b62a-d9bb-4113-95ac-ab78d8fba512"},"vehicle_type_id":"4","last_reported":1775116686,"current_range_meters":4000,"station_id":"ce4bh012rcd13ifvqd00","pricing_plan_id":"cebpf4jnsgd1na2vs0mg"},{"bike_id":"0d0c8f03-48a7-4e97-9825-e79885ed278e","system_id":"levelo_inurba_marseille","lat":43.23058,"lon":5.3549,"is_reserved":false,"is_disabled":false,"rental_uris":{"android":"levelo://app?vid=0d0c8f03-48a7-4e97-9825-e79885ed278e","ios":"levelo://app?vid=0d0c8f03-48a7-4e97-9825-e79885ed278e"},"vehicle_type_id":"4","last_reported":1775116686,"current_range_meters":4000,"station_id":"cpo3342slgdg3j2ifvpg","pricing_plan_id":"cebpf4jnsgd1na2vs0mg"},{"bike_id":"d41d5ff3-651c-4e70-8a12-e8a105b53c64","system_id":"levelo_inurba_marseille","lat":43.31568,"lon":5.44531,"is_reserved":false,"is_disabled":false,"rental_uris":{"android":"levelo://app?vid=d41d5ff3-651c-4e70-8a12-e8a105b53c64","ios":"levelo://app?vid=d41d5ff3-651c-4e70-8a12-e8a105b53c64"},"vehicle_type_id":"4","last_reported":1775116686,"current_range_meters":4000,"station_id":"","pricing_plan_id":"cebpf4jnsgd1na2vs0mg"},{"bike_id":"e41e3697-59e4-4346-81a5-c14ee6c184fd","system_id":"levelo_inurba_marseille","lat":43.22548,"lon":5.34828,"is_reserved":false,"is_disabled":false,"rental_uris":{"android":"levelo://app?vid=e41e3697-59e4-4346-81a5-c14ee6c184fd","ios":"levelo://app?vid=e41e3697-59e4-4346-81a5-c14ee6c184fd"},"vehicle_type_id":"4","last_reported":1775116686,"current_range_meters":4000,"station_id":"st_cvj5dfep6f1abm77gieg","pricing_plan_id":"cebpf4jnsgd1na2vs0mg"},{"bike_id":"e3bc094b-18d0-4ed5-95c3-a249711ef9c5","system_id":"levelo_inurba_marseille","lat":43.24175,"lon":5.39716,"is_reserved":false,"is_disabled":false,"rental_uris":{"android":"levelo://app?vid=e3bc094b-18d0-4ed5-95c3-a249711ef9c5","ios":"levelo://app?vid=e3bc094b-18d0-4ed5-95c3-a249711ef9c5"},"vehicle_type_id":"4","last_reported":1775116686,"current_range_meters":4000,"station_id":"ce4bhn12rcd13ifvqgpg","pricing_plan_id":"cebpf4jnsgd1na2vs0mg"},{"bike_id":"ee39683d-f98a-4da0-b314-92f41090c4cf","system_id":"levelo_inurba_marseille","lat":43.22561,"lon":5.41631,"is_reserved":false,"is_disabled":false,"rental_uris":{"android":"levelo://app?vid=ee39683d-f98a-4da0-b314-92f41090c4cf","ios":"levelo://app?vid=ee39683d-f98a-4da0-b314-92f41090c4cf"},"vehicle_type_id":"4","last_reported":1775116686,"current_range_meters":4000,"station_id":"st_d2o4gvlbi1j2169b742g","pricing_plan_id":"cebpf4jnsgd1na2vs0mg"},{"bike_id":"faa5f399-4138-4b0a-8f82-379ba1169bca","system_id":"levelo_inurba_marseille","lat":43.29069,"lon":5.40079,"is_reserved":false,"is_disabled":false,"rental_uris":{"android":"levelo://app?vid=faa5f399-4138-4b0a-8f82-379ba1169bca","ios":"levelo://app?vid=faa5f399-4138-4b0a-8f82-379ba1169bca"},"vehicle_type_id":"4","last_reported":1775116686,"current_range_meters":4000,"station_id":"","pricing_plan_id":"cebpf4jnsgd1na2vs0mg"},{"bike_id":"7d221536-c309-4cb7-98fe-5bdf54751499","system_id":"levelo_inurba_marseille","lat":43.28475,"lon":5.48401,"is_reserved":false,"is_disabled":false,"rental_uris":{"android":"levelo://app?vid=7d221536-c309-4cb7-98fe-5bdf54751499","ios":"levelo://app?vid=7d221536-c309-4cb7-98fe-5bdf54751499"},"vehicle_type_id":"4","last_reported":1775116686,"current_range_meters":4000,"station_id":"","pricing_plan_id":"cebpf4jnsgd1na2vs0mg"},{"bike_id":"45c050e8-a329-47f8-a86f-69826197952f","system_id":"levelo_inurba_marseille","lat":43.24151,"lon":5.36416,"is_reserved":false,"is_disabled":false,"rental_uris":{"android":"levelo://app?vid=45c050e8-a329-47f8-a86f-69826197952f","ios":"levelo://app?vid=45c050e8-a329-47f8-a86f-69826197952f"},"vehicle_type_id":"4","last_reported":1775116686,"current_range_meters":4000,"station_id":"cpo36qri1sfpv3e86is0","pricing_plan_id":"cebpf4jnsgd1na2vs0mg"},{"bike_id":"0be0f331-343d-4e35-84d1-0c2a496d1cfe","system_id":"levelo_inurba_marseille","lat":43.31913,"lon":5.36821,"is_reserved":false,"is_disabled":false,"rental_uris":{"android":"levelo://app?vid=0be0f331-343d-4e35-84d1-0c2a496d1cfe","ios":"levelo://app?vid=0be0f331-343d-4e35-84d1-0c2a496d1cfe"},"vehicle_type_id":"4","last_reported":1775116686,"current_range_meters":4000,"station_id":"st_d6o2h0d0559c73evc1b0","pricing_plan_id":"cebpf4jnsgd1na2vs0mg"},{"bike_id":"52e3bae0-b247-4977-97ac-8d2074f1c062","system_id":"levelo_inurba_marseille","lat":43.24399,"lon":5.37067,"is_reserved":false,"is_disabled":false,"rental_uris":{"android":"levelo://app?vid=52e3bae0-b247-4977-97ac-8d2074f1c062","ios":"levelo://app?vid=52e3bae0-b247-4977-97ac-8d2074f1c062"},"vehicle_type_id":"4","last_reported":1775116686,"current_range_meters":4000,"station_id":"ce4bhhh2rcd13ifvqfk0","pricing_plan_id":"cebpf4jnsgd1na2vs0mg"},{"bike_id":"f6ced8d1-bf4c-433b-9ac4-01f185b043e1","system_id":"levelo_inurba_marseille","lat":43.2415,"lon":5.3642,"is_reserved":false,"is_disabled":false,"rental_uris":{"android":"levelo://app?vid=f6ced8d1-bf4c-433b-9ac4-01f185b043e1","ios":"levelo://app?vid=f6ced8d1-bf4c-433b-9ac4-01f185b043e1"},"vehicle_type_id":"4","last_reported":1775116686,"current_range_meters":4400,"station_id":"cpo36qri1sfpv3e86is0","pricing_plan_id":"cebpf4jnsgd1na2vs0mg"},{"bike_id":"69537728-14f2-4432-8061-080aa135bc58","system_id":"levelo_inurba_marseille","lat":43.23152,"lon":5.43721,"is_reserved":false,"is_disabled":false,"rental_uris":{"android":"levelo://app?vid=69537728-14f2-4432-8061-080aa135bc58","ios":"levelo://app?vid=69537728-14f2-4432-8061-080aa135bc58"},"vehicle_type_id":"4","last_reported":1775116686,"current_range_meters":4400,"station_id":"ce4bhmp2rcd13ifvqgog","pricing_plan_id":"cebpf4jnsgd1na2vs0mg"},{"bike_id":"a08ca64a-2abc-4872-bcd9-336ced89a23d","system_id":"levelo_inurba_marseille","lat":43.24475,"lon":5.42528,"is_reserved":false,"is_disabled":false,"rental_uris":{"android":"levelo://app?vid=a08ca64a-2abc-4872-bcd9-336ced89a23d","ios":"levelo://app?vid=a08ca64a-2abc-4872-bcd9-336ced89a23d"},"vehicle_type_id":"4","last_reported":1775116686,"current_range_meters":4400,"station_id":"st_d4a3vfp97mjs738cd8kg","pricing_plan_id":"cebpf4jnsgd1na2vs0mg"},{"bike_id":"982951ba-d1eb-42d4-bb65-5d98050aa6ef","system_id":"levelo_inurba_marseille","lat":43.2847,"lon":5.48402,"is_reserved":false,"is_disabled":false,"rental_uris":{"android":"levelo://app?vid=982951ba-d1eb-42d4-bb65-5d98050aa6ef","ios":"levelo://app?vid=982951ba-d1eb-42d4-bb65-5d98050aa6ef"},"vehicle_type_id":"4","last_reported":1775116686,"current_range_meters":4400,"station_id":"","pricing_plan_id":"cebpf4jnsgd1na2vs0mg"},{"bike_id":"0591e93c-6da7-411b-b708-bc9aaa04c6bd","system_id":"levelo_inurba_marseille","lat":43.292317,"lon":5.36062,"is_reserved":false,"is_disabled":false,"rental_uris":{"android":"levelo://app?vid=0591e93c-6da7-411b-b708-bc9aaa04c6bd","ios":"levelo://app?vid=0591e93c-6da7-411b-b708-bc9aaa04c6bd"},"vehicle_type_id":"4","last_reported":1775116686,"current_range_meters":4400,"station_id":"ce4bhbh2rcd13ifvqeqg","pricing_plan_id":"cebpf4jnsgd1na2vs0mg"},{"bike_id":"19d804f8-e022-4728-979b-c94761dfb083","system_id":"levelo_inurba_marseille","lat":43.23778,"lon":5.36629,"is_reserved":false,"is_disabled":false,"rental_uris":{"android":"levelo://app?vid=19d804f8-e022-4728-979b-c94761dfb083","ios":"levelo://app?vid=19d804f8-e022-4728-979b-c94761dfb083"},"vehicle_type_id":"4","last_reported":1775116686,"current_range_meters":4400,"station_id":"st_d3nk18o9ro0c73en2l3g","pricing_plan_id":"cebpf4jnsgd1na2vs0mg"},{"bike_id":"cb96e374-9253-493d-8ea1-d685a53dbd39","system_id":"levelo_inurba_marseille","lat":43.28532,"lon":5.44102,"is_reserved":false,"is_disabled":false,"rental_uris":{"android":"levelo://app?vid=cb96e374-9253-493d-8ea1-d685a53dbd39","ios":"levelo://app?vid=cb96e374-9253-493d-8ea1-d685a53dbd39"},"vehicle_type_id":"4","last_reported":1775116686,"current_range_meters":4400,"station_id":"st_d3j3df2ikq2c7380ej80","pricing_plan_id":"cebpf4jnsgd1na2vs0mg"},{"bike_id":"d5d3c35b-4420-4569-83eb-e2eef5fa6559","system_id":"levelo_inurba_marseille","lat":43.22565,"lon":5.41624,"is_reserved":false,"is_disabled":false,"rental_uris":{"android":"levelo://app?vid=d5d3c35b-4420-4569-83eb-e2eef5fa6559","ios":"levelo://app?vid=d5d3c35b-4420-4569-83eb-e2eef5fa6559"},"vehicle_type_id":"4","last_reported":1775116686,"current_range_meters":4400,"station_id":"st_d2o4gvlbi1j2169b742g","pricing_plan_id":"cebpf4jnsgd1na2vs0mg"},{"bike_id":"ac750519-69a1-4eac-846f-31128d535c20","system_id":"levelo_inurba_marseille","lat":43.244,"lon":5.37063,"is_reserved":false,"is_disabled":false,"rental_uris":{"android":"levelo://app?vid=ac750519-69a1-4eac-846f-31128d535c20","ios":"levelo://app?vid=ac750519-69a1-4eac-846f-31128d535c20"},"vehicle_type_id":"4","last_reported":1775116686,"current_range_meters":4400,"station_id":"ce4bhhh2rcd13ifvqfk0","pricing_plan_id":"cebpf4jnsgd1na2vs0mg"},{"bike_id":"6c3b2188-ad26-44f1-97bc-4de5c5fe5d74","system_id":"levelo_inurba_marseille","lat":43.28474,"lon":5.48399,"is_reserved":false,"is_disabled":false,"rental_uris":{"android":"levelo://app?vid=6c3b2188-ad26-44f1-97bc-4de5c5fe5d74","ios":"levelo://app?vid=6c3b2188-ad26-44f1-97bc-4de5c5fe5d74"},"vehicle_type_id":"4","last_reported":1775116686,"current_range_meters":4400,"station_id":"","pricing_plan_id":"cebpf4jnsgd1na2vs0mg"},{"bike_id":"cb5b1ee0-fb07-4fe9-8d2d-7bd39e547d09","system_id":"levelo_inurba_marseille","lat":43.33486,"lon":5.41031,"is_reserved":false,"is_disabled":true,"rental_uris":{"android":"levelo://app?vid=cb5b1ee0-fb07-4fe9-8d2d-7bd39e547d09","ios":"levelo://app?vid=cb5b1ee0-fb07-4fe9-8d2d-7bd39e547d09"},"vehicle_type_id":"4","last_reported":1775116686,"current_range_meters":4400,"station_id":"","pricing_plan_id":"cebpf4jnsgd1na2vs0mg"},{"bike_id":"4b468e67-5df8-40e9-a14b-f7dd9a354424","system_id":"levelo_inurba_marseille","lat":43.31043,"lon":5.37155,"is_reserved":false,"is_disabled":false,"rental_uris":{"android":"levelo://app?vid=4b468e67-5df8-40e9-a14b-f7dd9a354424","ios":"levelo://app?vid=4b468e67-5df8-40e9-a14b-f7dd9a354424"},"vehicle_type_id":"4","last_reported":1775116686,"current_range_meters":4400,"station_id":"st_d4kl2rp97mjs73e7tdfg","pricing_plan_id":"cebpf4jnsgd1na2vs0mg"},{"bike_id":"febd890f-8091-48ad-815e-abf0b801ed37","system_id":"levelo_inurba_marseille","lat":43.24389,"lon":5.37064,"is_reserved":false,"is_disabled":false,"rental_uris":{"android":"levelo://app?vid=febd890f-8091-48ad-815e-abf0b801ed37","ios":"levelo://app?vid=febd890f-8091-48ad-815e-abf0b801ed37"},"vehicle_type_id":"4","last_reported":1775116686,"current_range_meters":4400,"station_id":"ce4bhhh2rcd13ifvqfk0","pricing_plan_id":"cebpf4jnsgd1na2vs0mg"},{"bike_id":"2c78b9d7-6797-4c09-ad87-2e1c14443b34","system_id":"levelo_inurba_marseille","lat":43.28567,"lon":5.42928,"is_reserved":false,"is_disabled":false,"rental_uris":{"android":"levelo://app?vid=2c78b9d7-6797-4c09-ad87-2e1c14443b34","ios":"levelo://app?vid=2c78b9d7-6797-4c09-ad87-2e1c14443b34"},"vehicle_type_id":"4","last_reported":1775116686,"current_range_meters":4400,"station_id":"","pricing_plan_id":"cebpf4jnsgd1na2vs0mg"},{"bike_id":"044d0e04-4a13-414f-aa0d-6345aea274e6","system_id":"levelo_inurba_marseille","lat":43.29568,"lon":5.37506,"is_reserved":false,"is_disabled":true,"rental_uris":{"android":"levelo://app?vid=044d0e04-4a13-414f-aa0d-6345aea274e6","ios":"levelo://app?vid=044d0e04-4a13-414f-aa0d-6345aea274e6"},"vehicle_type_id":"4","last_reported":1775116686,"current_range_meters":4800,"station_id":"ce4bgh92rcd13ifvqb50","pricing_plan_id":"cebpf4jnsgd1na2vs0mg"},{"bike_id":"52dc2264-cce2-4d05-81cc-597b892a962a","system_id":"levelo_inurba_marseille","lat":43.28408,"lon":5.34989,"is_reserved":false,"is_disabled":false,"rental_uris":{"android":"levelo://app?vid=52dc2264-cce2-4d05-81cc-597b892a962a","ios":"levelo://app?vid=52dc2264-cce2-4d05-81cc-597b892a962a"},"vehicle_type_id":"4","last_reported":1775116686,"current_range_meters":4800,"station_id":"ce4bhbh2rcd13ifvqepg","pricing_plan_id":"cebpf4jnsgd1na2vs0mg"},{"bike_id":"b9a2dc0a-a78c-4ec1-b214-1ebc47ea2ab0","system_id":"levelo_inurba_marseille","lat":43.22548,"lon":5.41646,"is_reserved":false,"is_disabled":false,"rental_uris":{"android":"levelo://app?vid=b9a2dc0a-a78c-4ec1-b214-1ebc47ea2ab0","ios":"levelo://app?vid=b9a2dc0a-a78c-4ec1-b214-1ebc47ea2ab0"},"vehicle_type_id":"4","last_reported":1775116686,"current_range_meters":4800,"station_id":"st_d2o4gvlbi1j2169b742g","pricing_plan_id":"cebpf4jnsgd1na2vs0mg"},{"bike_id":"49bf89f4-35c4-41a0-a0c6-04e0d316201a","system_id":"levelo_inurba_marseille","lat":43.31388,"lon":5.36724,"is_reserved":false,"is_disabled":false,"rental_uris":{"android":"levelo://app?vid=49bf89f4-35c4-41a0-a0c6-04e0d316201a","ios":"levelo://app?vid=49bf89f4-35c4-41a0-a0c6-04e0d316201a"},"vehicle_type_id":"4","last_reported":1775116686,"current_range_meters":4800,"station_id":"","pricing_plan_id":"cebpf4jnsgd1na2vs0mg"},{"bike_id":"077f0b42-a33f-4134-9262-d5e844e89553","system_id":"levelo_inurba_marseille","lat":43.30465,"lon":5.3791,"is_reserved":false,"is_disabled":false,"rental_uris":{"android":"levelo://app?vid=077f0b42-a33f-4134-9262-d5e844e89553","ios":"levelo://app?vid=077f0b42-a33f-4134-9262-d5e844e89553"},"vehicle_type_id":"4","last_reported":1775116686,"current_range_meters":4800,"station_id":"ce4bgup2rcd13ifvqcn0","pricing_plan_id":"cebpf4jnsgd1na2vs0mg"},{"bike_id":"ac9cfb47-6491-4537-bdd0-177ab07e5667","system_id":"levelo_inurba_marseille","lat":43.31328,"lon":5.36755,"is_reserved":false,"is_disabled":false,"rental_uris":{"android":"levelo://app?vid=ac9cfb47-6491-4537-bdd0-177ab07e5667","ios":"levelo://app?vid=ac9cfb47-6491-4537-bdd0-177ab07e5667"},"vehicle_type_id":"4","last_reported":1775116686,"current_range_meters":4800,"station_id":"ce4bgr92rcd13ifvqc6g","pricing_plan_id":"cebpf4jnsgd1na2vs0mg"},{"bike_id":"74c19cb5-1989-40eb-b88a-badf52341489","system_id":"levelo_inurba_marseille","lat":43.29985,"lon":5.37151,"is_reserved":false,"is_disabled":false,"rental_uris":{"android":"levelo://app?vid=74c19cb5-1989-40eb-b88a-badf52341489","ios":"levelo://app?vid=74c19cb5-1989-40eb-b88a-badf52341489"},"vehicle_type_id":"4","last_reported":1775116686,"current_range_meters":4800,"station_id":"ce4bgr92rcd13ifvqc7g","pricing_plan_id":"cebpf4jnsgd1na2vs0mg"},{"bike_id":"7c9577d7-ead9-478d-a7a9-c2ea7d2e30c0","system_id":"levelo_inurba_marseille","lat":43.2572,"lon":5.41114,"is_reserved":false,"is_disabled":false,"rental_uris":{"android":"levelo://app?vid=7c9577d7-ead9-478d-a7a9-c2ea7d2e30c0","ios":"levelo://app?vid=7c9577d7-ead9-478d-a7a9-c2ea7d2e30c0"},"vehicle_type_id":"4","last_reported":1775116686,"current_range_meters":4800,"station_id":"ce4bhkp2rcd13ifvqgd0","pricing_plan_id":"cebpf4jnsgd1na2vs0mg"},{"bike_id":"b93feb2d-b731-4c1d-b33a-3f91a61de80e","system_id":"levelo_inurba_marseille","lat":43.29298,"lon":5.37458,"is_reserved":false,"is_disabled":false,"rental_uris":{"android":"levelo://app?vid=b93feb2d-b731-4c1d-b33a-3f91a61de80e","ios":"levelo://app?vid=b93feb2d-b731-4c1d-b33a-3f91a61de80e"},"vehicle_type_id":"4","last_reported":1775116686,"current_range_meters":4800,"station_id":"ce4bgi12rcd13ifvqb70","pricing_plan_id":"cebpf4jnsgd1na2vs0mg"},{"bike_id":"414e0a70-6dfc-4ae8-82b3-ec8ad75a8436","system_id":"levelo_inurba_marseille","lat":43.2557,"lon":5.3823,"is_reserved":false,"is_disabled":false,"rental_uris":{"android":"levelo://app?vid=414e0a70-6dfc-4ae8-82b3-ec8ad75a8436","ios":"levelo://app?vid=414e0a70-6dfc-4ae8-82b3-ec8ad75a8436"},"vehicle_type_id":"4","last_reported":1775116686,"current_range_meters":4800,"station_id":"ce4bhih2rcd13ifvqfs0","pricing_plan_id":"cebpf4jnsgd1na2vs0mg"},{"bike_id":"663f083f-00a2-4b8f-950e-3aa403228b3d","system_id":"levelo_inurba_marseille","lat":43.22568,"lon":5.41632,"is_reserved":false,"is_disabled":false,"rental_uris":{"android":"levelo://app?vid=663f083f-00a2-4b8f-950e-3aa403228b3d","ios":"levelo://app?vid=663f083f-00a2-4b8f-950e-3aa403228b3d"},"vehicle_type_id":"4","last_reported":1775116686,"current_range_meters":4800,"station_id":"st_d2o4gvlbi1j2169b742g","pricing_plan_id":"cebpf4jnsgd1na2vs0mg"},{"bike_id":"bed085cd-e643-4cf8-a83c-4e3f37218df7","system_id":"levelo_inurba_marseille","lat":43.23131,"lon":5.40175,"is_reserved":false,"is_disabled":false,"rental_uris":{"android":"levelo://app?vid=bed085cd-e643-4cf8-a83c-4e3f37218df7","ios":"levelo://app?vid=bed085cd-e643-4cf8-a83c-4e3f37218df7"},"vehicle_type_id":"4","last_reported":1775116686,"current_range_meters":4800,"station_id":"","pricing_plan_id":"cebpf4jnsgd1na2vs0mg"},{"bike_id":"bd745af4-b1d4-4322-9723-4db0fa7083f7","system_id":"levelo_inurba_marseille","lat":43.30969,"lon":5.39027,"is_reserved":false,"is_disabled":false,"rental_uris":{"android":"levelo://app?vid=bd745af4-b1d4-4322-9723-4db0fa7083f7","ios":"levelo://app?vid=bd745af4-b1d4-4322-9723-4db0fa7083f7"},"vehicle_type_id":"4","last_reported":1775116686,"current_range_meters":4800,"station_id":"ce4bgup2rcd13ifvqco0","pricing_plan_id":"cebpf4jnsgd1na2vs0mg"},{"bike_id":"6b30b689-0e8e-4a7c-bff0-3186003a6265","system_id":"levelo_inurba_marseille","lat":43.25007,"lon":5.38916,"is_reserved":false,"is_disabled":false,"rental_uris":{"android":"levelo://app?vid=6b30b689-0e8e-4a7c-bff0-3186003a6265","ios":"levelo://app?vid=6b30b689-0e8e-4a7c-bff0-3186003a6265"},"vehicle_type_id":"4","last_reported":1775116686,"current_range_meters":4800,"station_id":"ce4bhgp2rcd13ifvqfd0","pricing_plan_id":"cebpf4jnsgd1na2vs0mg"},{"bike_id":"78124c6b-c620-44eb-be28-2c8cc5b27892","system_id":"levelo_inurba_marseille","lat":43.28936,"lon":5.36611,"is_reserved":false,"is_disabled":false,"rental_uris":{"android":"levelo://app?vid=78124c6b-c620-44eb-be28-2c8cc5b27892","ios":"levelo://app?vid=78124c6b-c620-44eb-be28-2c8cc5b27892"},"vehicle_type_id":"4","last_reported":1775116686,"current_range_meters":4800,"station_id":"ce4bhap2rcd13ifvqek0","pricing_plan_id":"cebpf4jnsgd1na2vs0mg"},{"bike_id":"dbafccf7-0909-44bd-86f0-abe7aa0ed694","system_id":"levelo_inurba_marseille","lat":43.29101,"lon":5.43617,"is_reserved":false,"is_disabled":false,"rental_uris":{"android":"levelo://app?vid=dbafccf7-0909-44bd-86f0-abe7aa0ed694","ios":"levelo://app?vid=dbafccf7-0909-44bd-86f0-abe7aa0ed694"},"vehicle_type_id":"4","last_reported":1775116686,"current_range_meters":5600,"station_id":"","pricing_plan_id":"cebpf4jnsgd1na2vs0mg"},{"bike_id":"62bf82c9-a7d6-485f-b660-bbbb2d4f54e9","system_id":"levelo_inurba_marseille","lat":43.24387,"lon":5.37044,"is_reserved":false,"is_disabled":false,"rental_uris":{"android":"levelo://app?vid=62bf82c9-a7d6-485f-b660-bbbb2d4f54e9","ios":"levelo://app?vid=62bf82c9-a7d6-485f-b660-bbbb2d4f54e9"},"vehicle_type_id":"4","last_reported":1775116686,"current_range_meters":5600,"station_id":"ce4bhhh2rcd13ifvqfk0","pricing_plan_id":"cebpf4jnsgd1na2vs0mg"},{"bike_id":"9f379acd-775f-40aa-a2ad-0898810cd24c","system_id":"levelo_inurba_marseille","lat":43.24448,"lon":5.37044,"is_reserved":false,"is_disabled":false,"rental_uris":{"android":"levelo://app?vid=9f379acd-775f-40aa-a2ad-0898810cd24c","ios":"levelo://app?vid=9f379acd-775f-40aa-a2ad-0898810cd24c"},"vehicle_type_id":"4","last_reported":1775116686,"current_range_meters":5600,"station_id":"","pricing_plan_id":"cebpf4jnsgd1na2vs0mg"},{"bike_id":"04ed8c4e-0974-4f4c-a3b5-3ec8afa07ecb","system_id":"levelo_inurba_marseille","lat":43.26571,"lon":5.3727,"is_reserved":false,"is_disabled":false,"rental_uris":{"android":"levelo://app?vid=04ed8c4e-0974-4f4c-a3b5-3ec8afa07ecb","ios":"levelo://app?vid=04ed8c4e-0974-4f4c-a3b5-3ec8afa07ecb"},"vehicle_type_id":"4","last_reported":1775116686,"current_range_meters":5600,"station_id":"ce4bhg12rcd13ifvqf70","pricing_plan_id":"cebpf4jnsgd1na2vs0mg"},{"bike_id":"ffde6a95-5dec-426a-943f-3ce4b714e7dc","system_id":"levelo_inurba_marseille","lat":43.218,"lon":5.3459,"is_reserved":false,"is_disabled":false,"rental_uris":{"android":"levelo://app?vid=ffde6a95-5dec-426a-943f-3ce4b714e7dc","ios":"levelo://app?vid=ffde6a95-5dec-426a-943f-3ce4b714e7dc"},"vehicle_type_id":"4","last_reported":1775116686,"current_range_meters":5600,"station_id":"","pricing_plan_id":"cebpf4jnsgd1na2vs0mg"},{"bike_id":"3b00fc1e-e36b-481b-a2bc-3dac3c178dbc","system_id":"levelo_inurba_marseille","lat":43.27849,"lon":5.40711,"is_reserved":false,"is_disabled":true,"rental_uris":{"android":"levelo://app?vid=3b00fc1e-e36b-481b-a2bc-3dac3c178dbc","ios":"levelo://app?vid=3b00fc1e-e36b-481b-a2bc-3dac3c178dbc"},"vehicle_type_id":"4","last_reported":1775116686,"current_range_meters":5600,"station_id":"ce4bhnh2rcd13ifvqgtg","pricing_plan_id":"cebpf4jnsgd1na2vs0mg"},{"bike_id":"7b9afc77-0e17-48ba-b360-a407675726ad","system_id":"levelo_inurba_marseille","lat":43.28878,"lon":5.42511,"is_reserved":false,"is_disabled":false,"rental_uris":{"android":"levelo://app?vid=7b9afc77-0e17-48ba-b360-a407675726ad","ios":"levelo://app?vid=7b9afc77-0e17-48ba-b360-a407675726ad"},"vehicle_type_id":"4","last_reported":1775116686,"current_range_meters":5600,"station_id":"st_d3b462108ojc7389ooeg","pricing_plan_id":"cebpf4jnsgd1na2vs0mg"},{"bike_id":"68945dd7-fcc7-4d4c-a459-6c84a8a17358","system_id":"levelo_inurba_marseille","lat":43.23958,"lon":5.36638,"is_reserved":false,"is_disabled":false,"rental_uris":{"android":"levelo://app?vid=68945dd7-fcc7-4d4c-a459-6c84a8a17358","ios":"levelo://app?vid=68945dd7-fcc7-4d4c-a459-6c84a8a17358"},"vehicle_type_id":"4","last_reported":1775116686,"current_range_meters":5600,"station_id":"ce4bhi12rcd13ifvqfp0","pricing_plan_id":"cebpf4jnsgd1na2vs0mg"},{"bike_id":"6ee576b8-0d43-4935-b534-dcb1d51f05f8","system_id":"levelo_inurba_marseille","lat":43.26538,"lon":5.3728,"is_reserved":false,"is_disabled":false,"rental_uris":{"android":"levelo://app?vid=6ee576b8-0d43-4935-b534-dcb1d51f05f8","ios":"levelo://app?vid=6ee576b8-0d43-4935-b534-dcb1d51f05f8"},"vehicle_type_id":"4","last_reported":1775116686,"current_range_meters":5600,"station_id":"ce4bhg12rcd13ifvqf70","pricing_plan_id":"cebpf4jnsgd1na2vs0mg"},{"bike_id":"9fcf7efc-fc1a-4324-8ff4-a881c156388c","system_id":"levelo_inurba_marseille","lat":43.29914,"lon":5.37459,"is_reserved":false,"is_disabled":false,"rental_uris":{"android":"levelo://app?vid=9fcf7efc-fc1a-4324-8ff4-a881c156388c","ios":"levelo://app?vid=9fcf7efc-fc1a-4324-8ff4-a881c156388c"},"vehicle_type_id":"4","last_reported":1775116686,"current_range_meters":5600,"station_id":"ce4bgjh2rcd13ifvqbg0","pricing_plan_id":"cebpf4jnsgd1na2vs0mg"},{"bike_id":"da46a4c6-14ff-4547-851e-67aeaa7cd5b0","system_id":"levelo_inurba_marseille","lat":43.24797,"lon":5.37444,"is_reserved":false,"is_disabled":false,"rental_uris":{"android":"levelo://app?vid=da46a4c6-14ff-4547-851e-67aeaa7cd5b0","ios":"levelo://app?vid=da46a4c6-14ff-4547-851e-67aeaa7cd5b0"},"vehicle_type_id":"4","last_reported":1775116686,"current_range_meters":5600,"station_id":"ce4bhgh2rcd13ifvqfb0","pricing_plan_id":"cebpf4jnsgd1na2vs0mg"},{"bike_id":"69222b34-8546-401b-a1fa-4755dd4d424d","system_id":"levelo_inurba_marseille","lat":43.29839,"lon":5.36266,"is_reserved":false,"is_disabled":false,"rental_uris":{"android":"levelo://app?vid=69222b34-8546-401b-a1fa-4755dd4d424d","ios":"levelo://app?vid=69222b34-8546-401b-a1fa-4755dd4d424d"},"vehicle_type_id":"4","last_reported":1775116686,"current_range_meters":5600,"station_id":"ce4bgpp2rcd13ifvqc3g","pricing_plan_id":"cebpf4jnsgd1na2vs0mg"},{"bike_id":"a17dbbf9-2919-4aa7-a6bc-4d101b9dc30c","system_id":"levelo_inurba_marseille","lat":43.27504,"lon":5.40943,"is_reserved":false,"is_disabled":false,"rental_uris":{"android":"levelo://app?vid=a17dbbf9-2919-4aa7-a6bc-4d101b9dc30c","ios":"levelo://app?vid=a17dbbf9-2919-4aa7-a6bc-4d101b9dc30c"},"vehicle_type_id":"4","last_reported":1775116686,"current_range_meters":5600,"station_id":"","pricing_plan_id":"cebpf4jnsgd1na2vs0mg"},{"bike_id":"c01d9e49-fff9-456c-8c86-45ce90e055c7","system_id":"levelo_inurba_marseille","lat":43.31206,"lon":5.36889,"is_reserved":false,"is_disabled":false,"rental_uris":{"android":"levelo://app?vid=c01d9e49-fff9-456c-8c86-45ce90e055c7","ios":"levelo://app?vid=c01d9e49-fff9-456c-8c86-45ce90e055c7"},"vehicle_type_id":"4","last_reported":1775116686,"current_range_meters":5600,"station_id":"ce4bgl92rcd13ifvqbq0","pricing_plan_id":"cebpf4jnsgd1na2vs0mg"},{"bike_id":"0b417d6b-01e3-4a7a-87a5-ad7ec5b3190a","system_id":"levelo_inurba_marseille","lat":43.23133,"lon":5.43699,"is_reserved":false,"is_disabled":false,"rental_uris":{"android":"levelo://app?vid=0b417d6b-01e3-4a7a-87a5-ad7ec5b3190a","ios":"levelo://app?vid=0b417d6b-01e3-4a7a-87a5-ad7ec5b3190a"},"vehicle_type_id":"4","last_reported":1775116686,"current_range_meters":5600,"station_id":"ce4bhmp2rcd13ifvqgog","pricing_plan_id":"cebpf4jnsgd1na2vs0mg"},{"bike_id":"c267eaf3-200a-4a1c-8074-fa1f1a8154c6","system_id":"levelo_inurba_marseille","lat":43.21757,"lon":5.34593,"is_reserved":false,"is_disabled":false,"rental_uris":{"android":"levelo://app?vid=c267eaf3-200a-4a1c-8074-fa1f1a8154c6","ios":"levelo://app?vid=c267eaf3-200a-4a1c-8074-fa1f1a8154c6"},"vehicle_type_id":"4","last_reported":1775116686,"current_range_meters":5600,"station_id":"st_cvj6r9ubvosntc0bgbag","pricing_plan_id":"cebpf4jnsgd1na2vs0mg"},{"bike_id":"7ddea560-5928-4366-b118-9b15ebc08656","system_id":"levelo_inurba_marseille","lat":43.29428,"lon":5.39793,"is_reserved":false,"is_disabled":false,"rental_uris":{"android":"levelo://app?vid=7ddea560-5928-4366-b118-9b15ebc08656","ios":"levelo://app?vid=7ddea560-5928-4366-b118-9b15ebc08656"},"vehicle_type_id":"4","last_reported":1775116686,"current_range_meters":5600,"station_id":"ce4bh3h2rcd13ifvqdo0","pricing_plan_id":"cebpf4jnsgd1na2vs0mg"},{"bike_id":"46ee68ab-7640-4e26-a561-748b913f475b","system_id":"levelo_inurba_marseille","lat":43.320434,"lon":5.415599,"is_reserved":false,"is_disabled":false,"rental_uris":{"android":"levelo://app?vid=46ee68ab-7640-4e26-a561-748b913f475b","ios":"levelo://app?vid=46ee68ab-7640-4e26-a561-748b913f475b"},"vehicle_type_id":"4","last_reported":1775116686,"current_range_meters":5600,"station_id":"ce4bhq92rcd13ifvqhkg","pricing_plan_id":"cebpf4jnsgd1na2vs0mg"},{"bike_id":"b97544d4-fc20-4746-a137-2d69f3584b87","system_id":"levelo_inurba_marseille","lat":43.22534,"lon":5.34827,"is_reserved":false,"is_disabled":false,"rental_uris":{"android":"levelo://app?vid=b97544d4-fc20-4746-a137-2d69f3584b87","ios":"levelo://app?vid=b97544d4-fc20-4746-a137-2d69f3584b87"},"vehicle_type_id":"4","last_reported":1775116686,"current_range_meters":6000,"station_id":"st_cvj5dfep6f1abm77gieg","pricing_plan_id":"cebpf4jnsgd1na2vs0mg"},{"bike_id":"b06b5d34-ff31-4a5e-a067-3e9bfc5c8b79","system_id":"levelo_inurba_marseille","lat":43.24811,"lon":5.3746,"is_reserved":false,"is_disabled":false,"rental_uris":{"android":"levelo://app?vid=b06b5d34-ff31-4a5e-a067-3e9bfc5c8b79","ios":"levelo://app?vid=b06b5d34-ff31-4a5e-a067-3e9bfc5c8b79"},"vehicle_type_id":"4","last_reported":1775116686,"current_range_meters":6000,"station_id":"ce4bhgh2rcd13ifvqfb0","pricing_plan_id":"cebpf4jnsgd1na2vs0mg"},{"bike_id":"d4fa54e3-56b5-493a-961f-85769c4ccc1a","system_id":"levelo_inurba_marseille","lat":43.30592,"lon":5.39365,"is_reserved":false,"is_disabled":false,"rental_uris":{"android":"levelo://app?vid=d4fa54e3-56b5-493a-961f-85769c4ccc1a","ios":"levelo://app?vid=d4fa54e3-56b5-493a-961f-85769c4ccc1a"},"vehicle_type_id":"4","last_reported":1775116686,"current_range_meters":6000,"station_id":"ce4bh0p2rcd13ifvqd80","pricing_plan_id":"cebpf4jnsgd1na2vs0mg"},{"bike_id":"28902c85-2ce9-4ec9-adfe-51cf4064fa09","system_id":"levelo_inurba_marseille","lat":43.28498,"lon":5.39184,"is_reserved":false,"is_disabled":true,"rental_uris":{"android":"levelo://app?vid=28902c85-2ce9-4ec9-adfe-51cf4064fa09","ios":"levelo://app?vid=28902c85-2ce9-4ec9-adfe-51cf4064fa09"},"vehicle_type_id":"4","last_reported":1775116686,"current_range_meters":6000,"station_id":"ce4bhoh2rcd13ifvqh5g","pricing_plan_id":"cebpf4jnsgd1na2vs0mg"},{"bike_id":"900f6954-667b-42a8-86aa-d50ceeeb00a4","system_id":"levelo_inurba_marseille","lat":43.24045,"lon":5.37796,"is_reserved":false,"is_disabled":false,"rental_uris":{"android":"levelo://app?vid=900f6954-667b-42a8-86aa-d50ceeeb00a4","ios":"levelo://app?vid=900f6954-667b-42a8-86aa-d50ceeeb00a4"},"vehicle_type_id":"4","last_reported":1775116686,"current_range_meters":6000,"station_id":"ce4bhnp2rcd13ifvqgvg","pricing_plan_id":"cebpf4jnsgd1na2vs0mg"},{"bike_id":"32bbc785-7878-457c-9b63-c753cac045af","system_id":"levelo_inurba_marseille","lat":43.21764,"lon":5.34601,"is_reserved":false,"is_disabled":false,"rental_uris":{"android":"levelo://app?vid=32bbc785-7878-457c-9b63-c753cac045af","ios":"levelo://app?vid=32bbc785-7878-457c-9b63-c753cac045af"},"vehicle_type_id":"4","last_reported":1775116686,"current_range_meters":6000,"station_id":"st_cvj6r9ubvosntc0bgbag","pricing_plan_id":"cebpf4jnsgd1na2vs0mg"},{"bike_id":"d0b112fe-ee2e-4a32-ba67-70fb4819a2be","system_id":"levelo_inurba_marseille","lat":43.29317,"lon":5.37151,"is_reserved":false,"is_disabled":false,"rental_uris":{"android":"levelo://app?vid=d0b112fe-ee2e-4a32-ba67-70fb4819a2be","ios":"levelo://app?vid=d0b112fe-ee2e-4a32-ba67-70fb4819a2be"},"vehicle_type_id":"4","last_reported":1775116686,"current_range_meters":6000,"station_id":"ce4bgh92rcd13ifvqb40","pricing_plan_id":"cebpf4jnsgd1na2vs0mg"},{"bike_id":"4de7b28a-2ee1-4dd8-880c-371c7c96997d","system_id":"levelo_inurba_marseille","lat":43.22921,"lon":5.35378,"is_reserved":false,"is_disabled":false,"rental_uris":{"android":"levelo://app?vid=4de7b28a-2ee1-4dd8-880c-371c7c96997d","ios":"levelo://app?vid=4de7b28a-2ee1-4dd8-880c-371c7c96997d"},"vehicle_type_id":"4","last_reported":1775116686,"current_range_meters":6000,"station_id":"cpo3532slgdg3j2ikp40","pricing_plan_id":"cebpf4jnsgd1na2vs0mg"},{"bike_id":"465c3b97-fa3b-4987-a0da-c02fe6cfecbd","system_id":"levelo_inurba_marseille","lat":43.31049,"lon":5.3716,"is_reserved":false,"is_disabled":false,"rental_uris":{"android":"levelo://app?vid=465c3b97-fa3b-4987-a0da-c02fe6cfecbd","ios":"levelo://app?vid=465c3b97-fa3b-4987-a0da-c02fe6cfecbd"},"vehicle_type_id":"4","last_reported":1775116686,"current_range_meters":6400,"station_id":"st_d4kl2rp97mjs73e7tdfg","pricing_plan_id":"cebpf4jnsgd1na2vs0mg"},{"bike_id":"dade577c-f111-4297-9cc9-58c29c3da4e2","system_id":"levelo_inurba_marseille","lat":43.24801,"lon":5.37453,"is_reserved":false,"is_disabled":false,"rental_uris":{"android":"levelo://app?vid=dade577c-f111-4297-9cc9-58c29c3da4e2","ios":"levelo://app?vid=dade577c-f111-4297-9cc9-58c29c3da4e2"},"vehicle_type_id":"4","last_reported":1775116686,"current_range_meters":6400,"station_id":"ce4bhgh2rcd13ifvqfb0","pricing_plan_id":"cebpf4jnsgd1na2vs0mg"},{"bike_id":"4b3c825a-c5e6-42c6-af30-700063fa913d","system_id":"levelo_inurba_marseille","lat":43.25981,"lon":5.37596,"is_reserved":false,"is_disabled":true,"rental_uris":{"android":"levelo://app?vid=4b3c825a-c5e6-42c6-af30-700063fa913d","ios":"levelo://app?vid=4b3c825a-c5e6-42c6-af30-700063fa913d"},"vehicle_type_id":"4","last_reported":1775116686,"current_range_meters":6400,"station_id":"","pricing_plan_id":"cebpf4jnsgd1na2vs0mg"},{"bike_id":"17b8fc26-3ba8-4cf9-a457-0b2cc0ec871e","system_id":"levelo_inurba_marseille","lat":43.2747,"lon":5.41648,"is_reserved":false,"is_disabled":false,"rental_uris":{"android":"levelo://app?vid=17b8fc26-3ba8-4cf9-a457-0b2cc0ec871e","ios":"levelo://app?vid=17b8fc26-3ba8-4cf9-a457-0b2cc0ec871e"},"vehicle_type_id":"4","last_reported":1775116686,"current_range_meters":6400,"station_id":"","pricing_plan_id":"cebpf4jnsgd1na2vs0mg"},{"bike_id":"e9b3f906-3c96-41d2-bde3-70019147dd95","system_id":"levelo_inurba_marseille","lat":43.22561,"lon":5.41639,"is_reserved":false,"is_disabled":false,"rental_uris":{"android":"levelo://app?vid=e9b3f906-3c96-41d2-bde3-70019147dd95","ios":"levelo://app?vid=e9b3f906-3c96-41d2-bde3-70019147dd95"},"vehicle_type_id":"4","last_reported":1775116686,"current_range_meters":6400,"station_id":"st_d2o4gvlbi1j2169b742g","pricing_plan_id":"cebpf4jnsgd1na2vs0mg"},{"bike_id":"a0a24221-07e8-40e7-93ed-5487a3244b70","system_id":"levelo_inurba_marseille","lat":43.29267,"lon":5.36836,"is_reserved":false,"is_disabled":false,"rental_uris":{"android":"levelo://app?vid=a0a24221-07e8-40e7-93ed-5487a3244b70","ios":"levelo://app?vid=a0a24221-07e8-40e7-93ed-5487a3244b70"},"vehicle_type_id":"4","last_reported":1775116686,"current_range_meters":6400,"station_id":"ce4bhbp2rcd13ifvqesg","pricing_plan_id":"cebpf4jnsgd1na2vs0mg"},{"bike_id":"1bdbf982-d656-4173-91b1-d3055e78d6cd","system_id":"levelo_inurba_marseille","lat":43.22557,"lon":5.41641,"is_reserved":false,"is_disabled":false,"rental_uris":{"android":"levelo://app?vid=1bdbf982-d656-4173-91b1-d3055e78d6cd","ios":"levelo://app?vid=1bdbf982-d656-4173-91b1-d3055e78d6cd"},"vehicle_type_id":"4","last_reported":1775116686,"current_range_meters":6400,"station_id":"st_d2o4gvlbi1j2169b742g","pricing_plan_id":"cebpf4jnsgd1na2vs0mg"},{"bike_id":"2b176618-2114-4a94-bc43-fa6914887efb","system_id":"levelo_inurba_marseille","lat":43.33531,"lon":5.37457,"is_reserved":false,"is_disabled":false,"rental_uris":{"android":"levelo://app?vid=2b176618-2114-4a94-bc43-fa6914887efb","ios":"levelo://app?vid=2b176618-2114-4a94-bc43-fa6914887efb"},"vehicle_type_id":"4","last_reported":1775116686,"current_range_meters":6400,"station_id":"st_d46tts09ee8s73dlu43g","pricing_plan_id":"cebpf4jnsgd1na2vs0mg"},{"bike_id":"052f68eb-b3d2-4c29-a99d-37f9d3e34be6","system_id":"levelo_inurba_marseille","lat":43.24874,"lon":5.42659,"is_reserved":false,"is_disabled":false,"rental_uris":{"android":"levelo://app?vid=052f68eb-b3d2-4c29-a99d-37f9d3e34be6","ios":"levelo://app?vid=052f68eb-b3d2-4c29-a99d-37f9d3e34be6"},"vehicle_type_id":"4","last_reported":1775116686,"current_range_meters":6400,"station_id":"","pricing_plan_id":"cebpf4jnsgd1na2vs0mg"},{"bike_id":"751823b1-fecf-476f-a14d-b22ea92d3e4c","system_id":"levelo_inurba_marseille","lat":43.29185,"lon":5.42677,"is_reserved":false,"is_disabled":false,"rental_uris":{"android":"levelo://app?vid=751823b1-fecf-476f-a14d-b22ea92d3e4c","ios":"levelo://app?vid=751823b1-fecf-476f-a14d-b22ea92d3e4c"},"vehicle_type_id":"4","last_reported":1775116686,"current_range_meters":6400,"station_id":"","pricing_plan_id":"cebpf4jnsgd1na2vs0mg"},{"bike_id":"45f9f1eb-8e22-4d9b-ba8a-012bfa826554","system_id":"levelo_inurba_marseille","lat":43.30531,"lon":5.36548,"is_reserved":false,"is_disabled":false,"rental_uris":{"android":"levelo://app?vid=45f9f1eb-8e22-4d9b-ba8a-012bfa826554","ios":"levelo://app?vid=45f9f1eb-8e22-4d9b-ba8a-012bfa826554"},"vehicle_type_id":"4","last_reported":1775116686,"current_range_meters":6400,"station_id":"ce4bgs12rcd13ifvqcag","pricing_plan_id":"cebpf4jnsgd1na2vs0mg"},{"bike_id":"9acbff69-4b92-42bd-bc61-5615b90aae7e","system_id":"levelo_inurba_marseille","lat":43.24974,"lon":5.3895,"is_reserved":false,"is_disabled":false,"rental_uris":{"android":"levelo://app?vid=9acbff69-4b92-42bd-bc61-5615b90aae7e","ios":"levelo://app?vid=9acbff69-4b92-42bd-bc61-5615b90aae7e"},"vehicle_type_id":"4","last_reported":1775116686,"current_range_meters":6400,"station_id":"ce4bhgp2rcd13ifvqfd0","pricing_plan_id":"cebpf4jnsgd1na2vs0mg"},{"bike_id":"fa52ce35-6ea9-4f46-bfd2-c8715437ce36","system_id":"levelo_inurba_marseille","lat":43.31037,"lon":5.37161,"is_reserved":false,"is_disabled":false,"rental_uris":{"android":"levelo://app?vid=fa52ce35-6ea9-4f46-bfd2-c8715437ce36","ios":"levelo://app?vid=fa52ce35-6ea9-4f46-bfd2-c8715437ce36"},"vehicle_type_id":"4","last_reported":1775116686,"current_range_meters":6800,"station_id":"st_d4kl2rp97mjs73e7tdfg","pricing_plan_id":"cebpf4jnsgd1na2vs0mg"},{"bike_id":"78151f0b-d096-4bc8-9d04-f28fec21246f","system_id":"levelo_inurba_marseille","lat":43.23193,"lon":5.39963,"is_reserved":false,"is_disabled":false,"rental_uris":{"android":"levelo://app?vid=78151f0b-d096-4bc8-9d04-f28fec21246f","ios":"levelo://app?vid=78151f0b-d096-4bc8-9d04-f28fec21246f"},"vehicle_type_id":"4","last_reported":1775116686,"current_range_meters":6800,"station_id":"ce4bhn12rcd13ifvqgqg","pricing_plan_id":"cebpf4jnsgd1na2vs0mg"},{"bike_id":"c3618f58-9b94-4c99-852f-04747669ffab","system_id":"levelo_inurba_marseille","lat":43.29142,"lon":5.3984,"is_reserved":false,"is_disabled":false,"rental_uris":{"android":"levelo://app?vid=c3618f58-9b94-4c99-852f-04747669ffab","ios":"levelo://app?vid=c3618f58-9b94-4c99-852f-04747669ffab"},"vehicle_type_id":"4","last_reported":1775116686,"current_range_meters":6800,"station_id":"","pricing_plan_id":"cebpf4jnsgd1na2vs0mg"},{"bike_id":"8429f855-c4a0-4803-9ce7-0d1fb93dbfe8","system_id":"levelo_inurba_marseille","lat":43.28556,"lon":5.48336,"is_reserved":false,"is_disabled":false,"rental_uris":{"android":"levelo://app?vid=8429f855-c4a0-4803-9ce7-0d1fb93dbfe8","ios":"levelo://app?vid=8429f855-c4a0-4803-9ce7-0d1fb93dbfe8"},"vehicle_type_id":"4","last_reported":1775116686,"current_range_meters":6800,"station_id":"","pricing_plan_id":"cebpf4jnsgd1na2vs0mg"},{"bike_id":"1b89f2e1-0726-4a0a-ba7f-f4397fe41860","system_id":"levelo_inurba_marseille","lat":43.2862,"lon":5.38409,"is_reserved":false,"is_disabled":false,"rental_uris":{"android":"levelo://app?vid=1b89f2e1-0726-4a0a-ba7f-f4397fe41860","ios":"levelo://app?vid=1b89f2e1-0726-4a0a-ba7f-f4397fe41860"},"vehicle_type_id":"4","last_reported":1775116686,"current_range_meters":6800,"station_id":"","pricing_plan_id":"cebpf4jnsgd1na2vs0mg"},{"bike_id":"6b6d0136-8741-41da-8600-da4235d9b4fd","system_id":"levelo_inurba_marseille","lat":43.26028,"lon":5.37555,"is_reserved":false,"is_disabled":false,"rental_uris":{"android":"levelo://app?vid=6b6d0136-8741-41da-8600-da4235d9b4fd","ios":"levelo://app?vid=6b6d0136-8741-41da-8600-da4235d9b4fd"},"vehicle_type_id":"4","last_reported":1775116686,"current_range_meters":6800,"station_id":"ce4bhgh2rcd13ifvqfa0","pricing_plan_id":"cebpf4jnsgd1na2vs0mg"},{"bike_id":"11d19dab-7798-472d-a3cd-c1ff1cf623a6","system_id":"levelo_inurba_marseille","lat":43.25002,"lon":5.38911,"is_reserved":false,"is_disabled":false,"rental_uris":{"android":"levelo://app?vid=11d19dab-7798-472d-a3cd-c1ff1cf623a6","ios":"levelo://app?vid=11d19dab-7798-472d-a3cd-c1ff1cf623a6"},"vehicle_type_id":"4","last_reported":1775116686,"current_range_meters":6800,"station_id":"ce4bhgp2rcd13ifvqfd0","pricing_plan_id":"cebpf4jnsgd1na2vs0mg"},{"bike_id":"2e6d6eb1-b9c4-442b-a422-3ee8e5570dac","system_id":"levelo_inurba_marseille","lat":43.23391,"lon":5.41238,"is_reserved":false,"is_disabled":false,"rental_uris":{"android":"levelo://app?vid=2e6d6eb1-b9c4-442b-a422-3ee8e5570dac","ios":"levelo://app?vid=2e6d6eb1-b9c4-442b-a422-3ee8e5570dac"},"vehicle_type_id":"4","last_reported":1775116686,"current_range_meters":6800,"station_id":"st_d75pvndhf9lc73cqq3eg","pricing_plan_id":"cebpf4jnsgd1na2vs0mg"},{"bike_id":"7e0bf3c1-338e-4b84-a3d8-43b7dee79bfd","system_id":"levelo_inurba_marseille","lat":43.28509,"lon":5.38456,"is_reserved":false,"is_disabled":false,"rental_uris":{"android":"levelo://app?vid=7e0bf3c1-338e-4b84-a3d8-43b7dee79bfd","ios":"levelo://app?vid=7e0bf3c1-338e-4b84-a3d8-43b7dee79bfd"},"vehicle_type_id":"4","last_reported":1775116686,"current_range_meters":6800,"station_id":"ce4bh512rcd13ifvqe3g","pricing_plan_id":"cebpf4jnsgd1na2vs0mg"},{"bike_id":"8d67b323-4095-4405-9704-9e7776fd3be7","system_id":"levelo_inurba_marseille","lat":43.21209,"lon":5.35083,"is_reserved":false,"is_disabled":false,"rental_uris":{"android":"levelo://app?vid=8d67b323-4095-4405-9704-9e7776fd3be7","ios":"levelo://app?vid=8d67b323-4095-4405-9704-9e7776fd3be7"},"vehicle_type_id":"4","last_reported":1775116686,"current_range_meters":6800,"station_id":"st_cvj6sg6p6f1abm77japg","pricing_plan_id":"cebpf4jnsgd1na2vs0mg"},{"bike_id":"7a44b039-836a-4b6a-b321-6853ea723941","system_id":"levelo_inurba_marseille","lat":43.24169,"lon":5.36415,"is_reserved":false,"is_disabled":false,"rental_uris":{"android":"levelo://app?vid=7a44b039-836a-4b6a-b321-6853ea723941","ios":"levelo://app?vid=7a44b039-836a-4b6a-b321-6853ea723941"},"vehicle_type_id":"4","last_reported":1775116686,"current_range_meters":6800,"station_id":"cpo36qri1sfpv3e86is0","pricing_plan_id":"cebpf4jnsgd1na2vs0mg"},{"bike_id":"b149b05d-17dc-4174-91fd-6a2d9bb13c8f","system_id":"levelo_inurba_marseille","lat":43.31677,"lon":5.3813,"is_reserved":false,"is_disabled":false,"rental_uris":{"android":"levelo://app?vid=b149b05d-17dc-4174-91fd-6a2d9bb13c8f","ios":"levelo://app?vid=b149b05d-17dc-4174-91fd-6a2d9bb13c8f"},"vehicle_type_id":"4","last_reported":1775116686,"current_range_meters":6800,"station_id":"","pricing_plan_id":"cebpf4jnsgd1na2vs0mg"},{"bike_id":"1f927e1e-5732-4eb3-8547-664189fed673","system_id":"levelo_inurba_marseille","lat":43.28707,"lon":5.39986,"is_reserved":false,"is_disabled":false,"rental_uris":{"android":"levelo://app?vid=1f927e1e-5732-4eb3-8547-664189fed673","ios":"levelo://app?vid=1f927e1e-5732-4eb3-8547-664189fed673"},"vehicle_type_id":"4","last_reported":1775116686,"current_range_meters":6800,"station_id":"ce4bho92rcd13ifvqh3g","pricing_plan_id":"cebpf4jnsgd1na2vs0mg"},{"bike_id":"843ccc67-c31c-41dd-9c12-11a688eb1aa7","system_id":"levelo_inurba_marseille","lat":43.29162,"lon":5.37165,"is_reserved":false,"is_disabled":false,"rental_uris":{"android":"levelo://app?vid=843ccc67-c31c-41dd-9c12-11a688eb1aa7","ios":"levelo://app?vid=843ccc67-c31c-41dd-9c12-11a688eb1aa7"},"vehicle_type_id":"4","last_reported":1775116686,"current_range_meters":6800,"station_id":"ce4bha92rcd13ifvqeh0","pricing_plan_id":"cebpf4jnsgd1na2vs0mg"},{"bike_id":"2be64f19-432b-4d07-98a7-6e9bfd23e981","system_id":"levelo_inurba_marseille","lat":43.29757,"lon":5.42779,"is_reserved":false,"is_disabled":false,"rental_uris":{"android":"levelo://app?vid=2be64f19-432b-4d07-98a7-6e9bfd23e981","ios":"levelo://app?vid=2be64f19-432b-4d07-98a7-6e9bfd23e981"},"vehicle_type_id":"4","last_reported":1775116686,"current_range_meters":6800,"station_id":"st_d3md5207bmas73dh9klg","pricing_plan_id":"cebpf4jnsgd1na2vs0mg"},{"bike_id":"05960a17-b70c-46e5-8745-045fee7c4424","system_id":"levelo_inurba_marseille","lat":43.24951,"lon":5.40492,"is_reserved":false,"is_disabled":false,"rental_uris":{"android":"levelo://app?vid=05960a17-b70c-46e5-8745-045fee7c4424","ios":"levelo://app?vid=05960a17-b70c-46e5-8745-045fee7c4424"},"vehicle_type_id":"4","last_reported":1775116686,"current_range_meters":6800,"station_id":"st_d2ngiaodas8pm72gd1h0","pricing_plan_id":"cebpf4jnsgd1na2vs0mg"},{"bike_id":"d79043de-c8e5-4bdb-aecd-cc4044485d69","system_id":"levelo_inurba_marseille","lat":43.33082,"lon":5.37777,"is_reserved":false,"is_disabled":false,"rental_uris":{"android":"levelo://app?vid=d79043de-c8e5-4bdb-aecd-cc4044485d69","ios":"levelo://app?vid=d79043de-c8e5-4bdb-aecd-cc4044485d69"},"vehicle_type_id":"4","last_reported":1775116686,"current_range_meters":6800,"station_id":"st_d46cu089ee8s73dldbu0","pricing_plan_id":"cebpf4jnsgd1na2vs0mg"},{"bike_id":"cce71867-af00-4efb-acca-1ad994ce58c1","system_id":"levelo_inurba_marseille","lat":43.3315,"lon":5.37713,"is_reserved":false,"is_disabled":false,"rental_uris":{"android":"levelo://app?vid=cce71867-af00-4efb-acca-1ad994ce58c1","ios":"levelo://app?vid=cce71867-af00-4efb-acca-1ad994ce58c1"},"vehicle_type_id":"4","last_reported":1775116686,"current_range_meters":6800,"station_id":"st_d46cu089ee8s73dldbu0","pricing_plan_id":"cebpf4jnsgd1na2vs0mg"},{"bike_id":"71e116ac-4975-45ed-abef-6e2b7bbfc930","system_id":"levelo_inurba_marseille","lat":43.25114,"lon":5.40319,"is_reserved":false,"is_disabled":false,"rental_uris":{"android":"levelo://app?vid=71e116ac-4975-45ed-abef-6e2b7bbfc930","ios":"levelo://app?vid=71e116ac-4975-45ed-abef-6e2b7bbfc930"},"vehicle_type_id":"4","last_reported":1775116686,"current_range_meters":6800,"station_id":"ce4bhlh2rcd13ifvqgig","pricing_plan_id":"cebpf4jnsgd1na2vs0mg"},{"bike_id":"92bc439b-46bb-43da-958c-5a059175f2a1","system_id":"levelo_inurba_marseille","lat":43.23901,"lon":5.37474,"is_reserved":false,"is_disabled":false,"rental_uris":{"android":"levelo://app?vid=92bc439b-46bb-43da-958c-5a059175f2a1","ios":"levelo://app?vid=92bc439b-46bb-43da-958c-5a059175f2a1"},"vehicle_type_id":"4","last_reported":1775116686,"current_range_meters":6800,"station_id":"st_d6sm7csbq4hs73f8fpjg","pricing_plan_id":"cebpf4jnsgd1na2vs0mg"},{"bike_id":"d0111825-3017-4e03-aba5-c350420e66fe","system_id":"levelo_inurba_marseille","lat":43.21179,"lon":5.35071,"is_reserved":false,"is_disabled":false,"rental_uris":{"android":"levelo://app?vid=d0111825-3017-4e03-aba5-c350420e66fe","ios":"levelo://app?vid=d0111825-3017-4e03-aba5-c350420e66fe"},"vehicle_type_id":"4","last_reported":1775116686,"current_range_meters":7200,"station_id":"st_cvj6sg6p6f1abm77japg","pricing_plan_id":"cebpf4jnsgd1na2vs0mg"},{"bike_id":"4e48773f-30f8-41cd-9be2-e8fe81c25162","system_id":"levelo_inurba_marseille","lat":43.21196,"lon":5.35057,"is_reserved":false,"is_disabled":false,"rental_uris":{"android":"levelo://app?vid=4e48773f-30f8-41cd-9be2-e8fe81c25162","ios":"levelo://app?vid=4e48773f-30f8-41cd-9be2-e8fe81c25162"},"vehicle_type_id":"4","last_reported":1775116686,"current_range_meters":7200,"station_id":"st_cvj6sg6p6f1abm77japg","pricing_plan_id":"cebpf4jnsgd1na2vs0mg"},{"bike_id":"bd0ac768-7c9c-45a3-a37e-3f8f101dd4fa","system_id":"levelo_inurba_marseille","lat":43.2253,"lon":5.34822,"is_reserved":false,"is_disabled":false,"rental_uris":{"android":"levelo://app?vid=bd0ac768-7c9c-45a3-a37e-3f8f101dd4fa","ios":"levelo://app?vid=bd0ac768-7c9c-45a3-a37e-3f8f101dd4fa"},"vehicle_type_id":"4","last_reported":1775116686,"current_range_meters":7200,"station_id":"st_cvj5dfep6f1abm77gieg","pricing_plan_id":"cebpf4jnsgd1na2vs0mg"},{"bike_id":"30dae98e-4ac5-4ca0-a017-ffb95991992d","system_id":"levelo_inurba_marseille","lat":43.302511,"lon":5.400723,"is_reserved":false,"is_disabled":false,"rental_uris":{"android":"levelo://app?vid=30dae98e-4ac5-4ca0-a017-ffb95991992d","ios":"levelo://app?vid=30dae98e-4ac5-4ca0-a017-ffb95991992d"},"vehicle_type_id":"4","last_reported":1775116686,"current_range_meters":7200,"station_id":"ce4bgvh2rcd13ifvqcs0","pricing_plan_id":"cebpf4jnsgd1na2vs0mg"},{"bike_id":"58d91ae1-8063-4e7d-870c-f6392dad8fd9","system_id":"levelo_inurba_marseille","lat":43.28477,"lon":5.48397,"is_reserved":false,"is_disabled":false,"rental_uris":{"android":"levelo://app?vid=58d91ae1-8063-4e7d-870c-f6392dad8fd9","ios":"levelo://app?vid=58d91ae1-8063-4e7d-870c-f6392dad8fd9"},"vehicle_type_id":"4","last_reported":1775116686,"current_range_meters":7200,"station_id":"","pricing_plan_id":"cebpf4jnsgd1na2vs0mg"},{"bike_id":"a5ccb9c6-4f2b-438b-b0de-c6c999b11fec","system_id":"levelo_inurba_marseille","lat":43.2843,"lon":5.34965,"is_reserved":false,"is_disabled":false,"rental_uris":{"android":"levelo://app?vid=a5ccb9c6-4f2b-438b-b0de-c6c999b11fec","ios":"levelo://app?vid=a5ccb9c6-4f2b-438b-b0de-c6c999b11fec"},"vehicle_type_id":"4","last_reported":1775116686,"current_range_meters":7200,"station_id":"ce4bhbh2rcd13ifvqepg","pricing_plan_id":"cebpf4jnsgd1na2vs0mg"},{"bike_id":"ff5036de-6179-402b-88a2-84ed71bef80b","system_id":"levelo_inurba_marseille","lat":43.32036,"lon":5.4156,"is_reserved":false,"is_disabled":false,"rental_uris":{"android":"levelo://app?vid=ff5036de-6179-402b-88a2-84ed71bef80b","ios":"levelo://app?vid=ff5036de-6179-402b-88a2-84ed71bef80b"},"vehicle_type_id":"4","last_reported":1775116686,"current_range_meters":7200,"station_id":"ce4bhq92rcd13ifvqhkg","pricing_plan_id":"cebpf4jnsgd1na2vs0mg"},{"bike_id":"55e4184e-d859-4e5d-af56-570ae31e06dc","system_id":"levelo_inurba_marseille","lat":43.26945,"lon":5.38624,"is_reserved":false,"is_disabled":false,"rental_uris":{"android":"levelo://app?vid=55e4184e-d859-4e5d-af56-570ae31e06dc","ios":"levelo://app?vid=55e4184e-d859-4e5d-af56-570ae31e06dc"},"vehicle_type_id":"4","last_reported":1775116686,"current_range_meters":7200,"station_id":"ce4bhh92rcd13ifvqfh0","pricing_plan_id":"cebpf4jnsgd1na2vs0mg"},{"bike_id":"0bccd438-ccc6-4db5-a746-92db398465e4","system_id":"levelo_inurba_marseille","lat":43.3154,"lon":5.37202,"is_reserved":false,"is_disabled":false,"rental_uris":{"android":"levelo://app?vid=0bccd438-ccc6-4db5-a746-92db398465e4","ios":"levelo://app?vid=0bccd438-ccc6-4db5-a746-92db398465e4"},"vehicle_type_id":"4","last_reported":1775116686,"current_range_meters":7200,"station_id":"","pricing_plan_id":"cebpf4jnsgd1na2vs0mg"},{"bike_id":"4d5384d3-8484-4fd4-ab3e-42cf8d8ddb2b","system_id":"levelo_inurba_marseille","lat":43.28867,"lon":5.42513,"is_reserved":false,"is_disabled":false,"rental_uris":{"android":"levelo://app?vid=4d5384d3-8484-4fd4-ab3e-42cf8d8ddb2b","ios":"levelo://app?vid=4d5384d3-8484-4fd4-ab3e-42cf8d8ddb2b"},"vehicle_type_id":"4","last_reported":1775116686,"current_range_meters":7200,"station_id":"st_d3b462108ojc7389ooeg","pricing_plan_id":"cebpf4jnsgd1na2vs0mg"},{"bike_id":"62210ce0-a99a-4686-acce-34a5c68d8cfd","system_id":"levelo_inurba_marseille","lat":43.24012,"lon":5.37781,"is_reserved":false,"is_disabled":false,"rental_uris":{"android":"levelo://app?vid=62210ce0-a99a-4686-acce-34a5c68d8cfd","ios":"levelo://app?vid=62210ce0-a99a-4686-acce-34a5c68d8cfd"},"vehicle_type_id":"4","last_reported":1775116686,"current_range_meters":7200,"station_id":"","pricing_plan_id":"cebpf4jnsgd1na2vs0mg"},{"bike_id":"2d8dc583-c7cc-4f15-a029-c275d4c51525","system_id":"levelo_inurba_marseille","lat":43.29579,"lon":5.37742,"is_reserved":false,"is_disabled":false,"rental_uris":{"android":"levelo://app?vid=2d8dc583-c7cc-4f15-a029-c275d4c51525","ios":"levelo://app?vid=2d8dc583-c7cc-4f15-a029-c275d4c51525"},"vehicle_type_id":"4","last_reported":1775116686,"current_range_meters":7200,"station_id":"","pricing_plan_id":"cebpf4jnsgd1na2vs0mg"},{"bike_id":"b5cbaa55-e1db-425a-a956-cb70a8f58d12","system_id":"levelo_inurba_marseille","lat":43.29364,"lon":5.37846,"is_reserved":false,"is_disabled":false,"rental_uris":{"android":"levelo://app?vid=b5cbaa55-e1db-425a-a956-cb70a8f58d12","ios":"levelo://app?vid=b5cbaa55-e1db-425a-a956-cb70a8f58d12"},"vehicle_type_id":"4","last_reported":1775116686,"current_range_meters":7200,"station_id":"ce4bgjh2rcd13ifvqbf0","pricing_plan_id":"cebpf4jnsgd1na2vs0mg"},{"bike_id":"93b54f12-6027-40ee-aaaf-52c4a5342eb2","system_id":"levelo_inurba_marseille","lat":43.21198,"lon":5.35061,"is_reserved":false,"is_disabled":false,"rental_uris":{"android":"levelo://app?vid=93b54f12-6027-40ee-aaaf-52c4a5342eb2","ios":"levelo://app?vid=93b54f12-6027-40ee-aaaf-52c4a5342eb2"},"vehicle_type_id":"4","last_reported":1775116686,"current_range_meters":7200,"station_id":"st_cvj6sg6p6f1abm77japg","pricing_plan_id":"cebpf4jnsgd1na2vs0mg"},{"bike_id":"2e4c9b40-e6c0-4afa-aaa5-77cabac0f0de","system_id":"levelo_inurba_marseille","lat":43.23154,"lon":5.43689,"is_reserved":false,"is_disabled":false,"rental_uris":{"android":"levelo://app?vid=2e4c9b40-e6c0-4afa-aaa5-77cabac0f0de","ios":"levelo://app?vid=2e4c9b40-e6c0-4afa-aaa5-77cabac0f0de"},"vehicle_type_id":"4","last_reported":1775116686,"current_range_meters":7200,"station_id":"ce4bhmp2rcd13ifvqgog","pricing_plan_id":"cebpf4jnsgd1na2vs0mg"},{"bike_id":"f4badef3-cc9f-44cc-b026-4346521c1fe3","system_id":"levelo_inurba_marseille","lat":43.28664,"lon":5.36352,"is_reserved":false,"is_disabled":false,"rental_uris":{"android":"levelo://app?vid=f4badef3-cc9f-44cc-b026-4346521c1fe3","ios":"levelo://app?vid=f4badef3-cc9f-44cc-b026-4346521c1fe3"},"vehicle_type_id":"4","last_reported":1775116686,"current_range_meters":7200,"station_id":"ce4bhah2rcd13ifvqej0","pricing_plan_id":"cebpf4jnsgd1na2vs0mg"},{"bike_id":"d6349826-5510-4834-ae61-5f416883040f","system_id":"levelo_inurba_marseille","lat":43.21748,"lon":5.34597,"is_reserved":false,"is_disabled":false,"rental_uris":{"android":"levelo://app?vid=d6349826-5510-4834-ae61-5f416883040f","ios":"levelo://app?vid=d6349826-5510-4834-ae61-5f416883040f"},"vehicle_type_id":"4","last_reported":1775116686,"current_range_meters":7200,"station_id":"st_cvj6r9ubvosntc0bgbag","pricing_plan_id":"cebpf4jnsgd1na2vs0mg"},{"bike_id":"71195851-f126-43ec-a2a7-703a881ee3e3","system_id":"levelo_inurba_marseille","lat":43.27065,"lon":5.38311,"is_reserved":false,"is_disabled":false,"rental_uris":{"android":"levelo://app?vid=71195851-f126-43ec-a2a7-703a881ee3e3","ios":"levelo://app?vid=71195851-f126-43ec-a2a7-703a881ee3e3"},"vehicle_type_id":"4","last_reported":1775116686,"current_range_meters":7200,"station_id":"st_d3n2fo6cfp8s73cte1j0","pricing_plan_id":"cebpf4jnsgd1na2vs0mg"},{"bike_id":"793b472f-3246-4295-8dc2-cf0dac98a9ac","system_id":"levelo_inurba_marseille","lat":43.29583,"lon":5.39028,"is_reserved":false,"is_disabled":false,"rental_uris":{"android":"levelo://app?vid=793b472f-3246-4295-8dc2-cf0dac98a9ac","ios":"levelo://app?vid=793b472f-3246-4295-8dc2-cf0dac98a9ac"},"vehicle_type_id":"4","last_reported":1775116686,"current_range_meters":8000,"station_id":"","pricing_plan_id":"cebpf4jnsgd1na2vs0mg"},{"bike_id":"1ddada69-e90e-42d5-84c6-ca6acdb9f7a2","system_id":"levelo_inurba_marseille","lat":43.30055,"lon":5.43892,"is_reserved":false,"is_disabled":false,"rental_uris":{"android":"levelo://app?vid=1ddada69-e90e-42d5-84c6-ca6acdb9f7a2","ios":"levelo://app?vid=1ddada69-e90e-42d5-84c6-ca6acdb9f7a2"},"vehicle_type_id":"4","last_reported":1775116686,"current_range_meters":8000,"station_id":"","pricing_plan_id":"cebpf4jnsgd1na2vs0mg"},{"bike_id":"450722e3-0e49-4198-a1d9-8956385d29ec","system_id":"levelo_inurba_marseille","lat":43.28419,"lon":5.34988,"is_reserved":false,"is_disabled":false,"rental_uris":{"android":"levelo://app?vid=450722e3-0e49-4198-a1d9-8956385d29ec","ios":"levelo://app?vid=450722e3-0e49-4198-a1d9-8956385d29ec"},"vehicle_type_id":"4","last_reported":1775116686,"current_range_meters":8000,"station_id":"ce4bhbh2rcd13ifvqepg","pricing_plan_id":"cebpf4jnsgd1na2vs0mg"},{"bike_id":"38229089-2eba-460d-8fa7-69cd48d52f91","system_id":"levelo_inurba_marseille","lat":43.28869,"lon":5.42509,"is_reserved":false,"is_disabled":false,"rental_uris":{"android":"levelo://app?vid=38229089-2eba-460d-8fa7-69cd48d52f91","ios":"levelo://app?vid=38229089-2eba-460d-8fa7-69cd48d52f91"},"vehicle_type_id":"4","last_reported":1775116686,"current_range_meters":8000,"station_id":"st_d3b462108ojc7389ooeg","pricing_plan_id":"cebpf4jnsgd1na2vs0mg"},{"bike_id":"c21ba44d-1144-4d5b-86bf-96a8964765fb","system_id":"levelo_inurba_marseille","lat":43.24668,"lon":5.38164,"is_reserved":false,"is_disabled":false,"rental_uris":{"android":"levelo://app?vid=c21ba44d-1144-4d5b-86bf-96a8964765fb","ios":"levelo://app?vid=c21ba44d-1144-4d5b-86bf-96a8964765fb"},"vehicle_type_id":"4","last_reported":1775116686,"current_range_meters":8000,"station_id":"ce4bhih2rcd13ifvqfr0","pricing_plan_id":"cebpf4jnsgd1na2vs0mg"},{"bike_id":"6535518c-804f-447b-a494-407b4e1dbc8e","system_id":"levelo_inurba_marseille","lat":43.313,"lon":5.36825,"is_reserved":false,"is_disabled":false,"rental_uris":{"android":"levelo://app?vid=6535518c-804f-447b-a494-407b4e1dbc8e","ios":"levelo://app?vid=6535518c-804f-447b-a494-407b4e1dbc8e"},"vehicle_type_id":"4","last_reported":1775116686,"current_range_meters":8000,"station_id":"ce4bgl92rcd13ifvqbq0","pricing_plan_id":"cebpf4jnsgd1na2vs0mg"},{"bike_id":"bbb2e985-3a8b-47e9-a36c-6a193be0f09f","system_id":"levelo_inurba_marseille","lat":43.30475,"lon":5.37906,"is_reserved":false,"is_disabled":false,"rental_uris":{"android":"levelo://app?vid=bbb2e985-3a8b-47e9-a36c-6a193be0f09f","ios":"levelo://app?vid=bbb2e985-3a8b-47e9-a36c-6a193be0f09f"},"vehicle_type_id":"4","last_reported":1775116686,"current_range_meters":8000,"station_id":"ce4bgup2rcd13ifvqcn0","pricing_plan_id":"cebpf4jnsgd1na2vs0mg"},{"bike_id":"9b76a430-1715-4bdf-ba95-ccb004ee3579","system_id":"levelo_inurba_marseille","lat":43.27317,"lon":5.39113,"is_reserved":false,"is_disabled":false,"rental_uris":{"android":"levelo://app?vid=9b76a430-1715-4bdf-ba95-ccb004ee3579","ios":"levelo://app?vid=9b76a430-1715-4bdf-ba95-ccb004ee3579"},"vehicle_type_id":"4","last_reported":1775116686,"current_range_meters":8000,"station_id":"ce4bhgp2rcd13ifvqfe0","pricing_plan_id":"cebpf4jnsgd1na2vs0mg"},{"bike_id":"9d8aec10-d2cd-4399-aae6-dd58aab4237b","system_id":"levelo_inurba_marseille","lat":43.24224,"lon":5.39702,"is_reserved":false,"is_disabled":false,"rental_uris":{"android":"levelo://app?vid=9d8aec10-d2cd-4399-aae6-dd58aab4237b","ios":"levelo://app?vid=9d8aec10-d2cd-4399-aae6-dd58aab4237b"},"vehicle_type_id":"4","last_reported":1775116686,"current_range_meters":8000,"station_id":"ce4bhn12rcd13ifvqgpg","pricing_plan_id":"cebpf4jnsgd1na2vs0mg"},{"bike_id":"b3973508-2430-44c7-81ef-caaebdce77df","system_id":"levelo_inurba_marseille","lat":43.24181,"lon":5.3639,"is_reserved":false,"is_disabled":false,"rental_uris":{"android":"levelo://app?vid=b3973508-2430-44c7-81ef-caaebdce77df","ios":"levelo://app?vid=b3973508-2430-44c7-81ef-caaebdce77df"},"vehicle_type_id":"4","last_reported":1775116686,"current_range_meters":8000,"station_id":"cpo36qri1sfpv3e86is0","pricing_plan_id":"cebpf4jnsgd1na2vs0mg"},{"bike_id":"91f6c6e4-3173-430a-922a-ed24dba3f564","system_id":"levelo_inurba_marseille","lat":43.31314,"lon":5.36719,"is_reserved":false,"is_disabled":false,"rental_uris":{"android":"levelo://app?vid=91f6c6e4-3173-430a-922a-ed24dba3f564","ios":"levelo://app?vid=91f6c6e4-3173-430a-922a-ed24dba3f564"},"vehicle_type_id":"4","last_reported":1775116686,"current_range_meters":8000,"station_id":"ce4bgr92rcd13ifvqc6g","pricing_plan_id":"cebpf4jnsgd1na2vs0mg"},{"bike_id":"a3e023e2-d4d4-4709-b2ae-04a06b5ecc63","system_id":"levelo_inurba_marseille","lat":43.2255,"lon":5.41629,"is_reserved":false,"is_disabled":false,"rental_uris":{"android":"levelo://app?vid=a3e023e2-d4d4-4709-b2ae-04a06b5ecc63","ios":"levelo://app?vid=a3e023e2-d4d4-4709-b2ae-04a06b5ecc63"},"vehicle_type_id":"4","last_reported":1775116686,"current_range_meters":8000,"station_id":"st_d2o4gvlbi1j2169b742g","pricing_plan_id":"cebpf4jnsgd1na2vs0mg"},{"bike_id":"758e5522-5145-473f-ba09-6a31f15dfe44","system_id":"levelo_inurba_marseille","lat":43.30899,"lon":5.36831,"is_reserved":false,"is_disabled":false,"rental_uris":{"android":"levelo://app?vid=758e5522-5145-473f-ba09-6a31f15dfe44","ios":"levelo://app?vid=758e5522-5145-473f-ba09-6a31f15dfe44"},"vehicle_type_id":"4","last_reported":1775116686,"current_range_meters":8000,"station_id":"ce4bgn92rcd13ifvqbvg","pricing_plan_id":"cebpf4jnsgd1na2vs0mg"},{"bike_id":"3927c982-43c0-4ecc-a701-3859dbd6ce9b","system_id":"levelo_inurba_marseille","lat":43.27313,"lon":5.42441,"is_reserved":false,"is_disabled":false,"rental_uris":{"android":"levelo://app?vid=3927c982-43c0-4ecc-a701-3859dbd6ce9b","ios":"levelo://app?vid=3927c982-43c0-4ecc-a701-3859dbd6ce9b"},"vehicle_type_id":"4","last_reported":1775116686,"current_range_meters":8000,"station_id":"","pricing_plan_id":"cebpf4jnsgd1na2vs0mg"},{"bike_id":"457e349b-1f51-403d-932e-9050877d3415","system_id":"levelo_inurba_marseille","lat":43.31685,"lon":5.40476,"is_reserved":false,"is_disabled":false,"rental_uris":{"android":"levelo://app?vid=457e349b-1f51-403d-932e-9050877d3415","ios":"levelo://app?vid=457e349b-1f51-403d-932e-9050877d3415"},"vehicle_type_id":"4","last_reported":1775116686,"current_range_meters":8000,"station_id":"ce4bh012rcd13ifvqd00","pricing_plan_id":"cebpf4jnsgd1na2vs0mg"},{"bike_id":"b1cb2378-66e2-4e73-a135-28bf0dec66f1","system_id":"levelo_inurba_marseille","lat":43.31285,"lon":5.4408,"is_reserved":false,"is_disabled":false,"rental_uris":{"android":"levelo://app?vid=b1cb2378-66e2-4e73-a135-28bf0dec66f1","ios":"levelo://app?vid=b1cb2378-66e2-4e73-a135-28bf0dec66f1"},"vehicle_type_id":"4","last_reported":1775116686,"current_range_meters":8000,"station_id":"","pricing_plan_id":"cebpf4jnsgd1na2vs0mg"},{"bike_id":"205651f6-8db1-45e3-9037-fb012c9d6050","system_id":"levelo_inurba_marseille","lat":43.27345,"lon":5.39123,"is_reserved":false,"is_disabled":false,"rental_uris":{"android":"levelo://app?vid=205651f6-8db1-45e3-9037-fb012c9d6050","ios":"levelo://app?vid=205651f6-8db1-45e3-9037-fb012c9d6050"},"vehicle_type_id":"4","last_reported":1775116686,"current_range_meters":8000,"station_id":"ce4bhgp2rcd13ifvqfe0","pricing_plan_id":"cebpf4jnsgd1na2vs0mg"},{"bike_id":"b3fdb3c6-13b8-4611-957c-1ad249219f8c","system_id":"levelo_inurba_marseille","lat":43.24466,"lon":5.4253,"is_reserved":false,"is_disabled":false,"rental_uris":{"android":"levelo://app?vid=b3fdb3c6-13b8-4611-957c-1ad249219f8c","ios":"levelo://app?vid=b3fdb3c6-13b8-4611-957c-1ad249219f8c"},"vehicle_type_id":"4","last_reported":1775116686,"current_range_meters":8000,"station_id":"st_d4a3vfp97mjs738cd8kg","pricing_plan_id":"cebpf4jnsgd1na2vs0mg"},{"bike_id":"797dc91d-b57e-4440-8bfd-9d80d7bfa6c4","system_id":"levelo_inurba_marseille","lat":43.28928,"lon":5.3663,"is_reserved":false,"is_disabled":false,"rental_uris":{"android":"levelo://app?vid=797dc91d-b57e-4440-8bfd-9d80d7bfa6c4","ios":"levelo://app?vid=797dc91d-b57e-4440-8bfd-9d80d7bfa6c4"},"vehicle_type_id":"4","last_reported":1775116686,"current_range_meters":8000,"station_id":"ce4bhap2rcd13ifvqek0","pricing_plan_id":"cebpf4jnsgd1na2vs0mg"},{"bike_id":"289e5139-6a81-43f5-882c-a0d2a8b654c5","system_id":"levelo_inurba_marseille","lat":43.28731,"lon":5.38528,"is_reserved":false,"is_disabled":false,"rental_uris":{"android":"levelo://app?vid=289e5139-6a81-43f5-882c-a0d2a8b654c5","ios":"levelo://app?vid=289e5139-6a81-43f5-882c-a0d2a8b654c5"},"vehicle_type_id":"4","last_reported":1775116686,"current_range_meters":8000,"station_id":"","pricing_plan_id":"cebpf4jnsgd1na2vs0mg"},{"bike_id":"220b8287-6cd8-4214-a8c2-fdc39c8b7d43","system_id":"levelo_inurba_marseille","lat":43.25934,"lon":5.40916,"is_reserved":false,"is_disabled":false,"rental_uris":{"android":"levelo://app?vid=220b8287-6cd8-4214-a8c2-fdc39c8b7d43","ios":"levelo://app?vid=220b8287-6cd8-4214-a8c2-fdc39c8b7d43"},"vehicle_type_id":"4","last_reported":1775116686,"current_range_meters":8000,"station_id":"ce4bhm92rcd13ifvqglg","pricing_plan_id":"cebpf4jnsgd1na2vs0mg"},{"bike_id":"bf2c42ee-9952-4d50-a40a-94fc5a4258da","system_id":"levelo_inurba_marseille","lat":43.23392,"lon":5.4125,"is_reserved":false,"is_disabled":false,"rental_uris":{"android":"levelo://app?vid=bf2c42ee-9952-4d50-a40a-94fc5a4258da","ios":"levelo://app?vid=bf2c42ee-9952-4d50-a40a-94fc5a4258da"},"vehicle_type_id":"4","last_reported":1775116686,"current_range_meters":8000,"station_id":"st_d75pvndhf9lc73cqq3eg","pricing_plan_id":"cebpf4jnsgd1na2vs0mg"},{"bike_id":"ba33614c-a307-4e62-b0d9-643b797f7d62","system_id":"levelo_inurba_marseille","lat":43.30197,"lon":5.38538,"is_reserved":false,"is_disabled":false,"rental_uris":{"android":"levelo://app?vid=ba33614c-a307-4e62-b0d9-643b797f7d62","ios":"levelo://app?vid=ba33614c-a307-4e62-b0d9-643b797f7d62"},"vehicle_type_id":"4","last_reported":1775116686,"current_range_meters":8000,"station_id":"","pricing_plan_id":"cebpf4jnsgd1na2vs0mg"},{"bike_id":"8f91e520-04da-4378-b78f-cc59291ee14a","system_id":"levelo_inurba_marseille","lat":43.25005,"lon":5.38957,"is_reserved":false,"is_disabled":false,"rental_uris":{"android":"levelo://app?vid=8f91e520-04da-4378-b78f-cc59291ee14a","ios":"levelo://app?vid=8f91e520-04da-4378-b78f-cc59291ee14a"},"vehicle_type_id":"4","last_reported":1775116686,"current_range_meters":8000,"station_id":"ce4bhgp2rcd13ifvqfd0","pricing_plan_id":"cebpf4jnsgd1na2vs0mg"},{"bike_id":"bb435da3-856a-4144-9704-d052e66aeded","system_id":"levelo_inurba_marseille","lat":43.33148,"lon":5.37699,"is_reserved":false,"is_disabled":false,"rental_uris":{"android":"levelo://app?vid=bb435da3-856a-4144-9704-d052e66aeded","ios":"levelo://app?vid=bb435da3-856a-4144-9704-d052e66aeded"},"vehicle_type_id":"4","last_reported":1775116686,"current_range_meters":8000,"station_id":"st_d46cu089ee8s73dldbu0","pricing_plan_id":"cebpf4jnsgd1na2vs0mg"},{"bike_id":"ab06f0c1-dd3c-4093-aae2-11693a90ca5c","system_id":"levelo_inurba_marseille","lat":43.23959,"lon":5.36639,"is_reserved":false,"is_disabled":false,"rental_uris":{"android":"levelo://app?vid=ab06f0c1-dd3c-4093-aae2-11693a90ca5c","ios":"levelo://app?vid=ab06f0c1-dd3c-4093-aae2-11693a90ca5c"},"vehicle_type_id":"4","last_reported":1775116686,"current_range_meters":8000,"station_id":"ce4bhi12rcd13ifvqfp0","pricing_plan_id":"cebpf4jnsgd1na2vs0mg"},{"bike_id":"c0244268-1300-41a7-9a33-8160575e0bc7","system_id":"levelo_inurba_marseille","lat":43.23201,"lon":5.35553,"is_reserved":false,"is_disabled":false,"rental_uris":{"android":"levelo://app?vid=c0244268-1300-41a7-9a33-8160575e0bc7","ios":"levelo://app?vid=c0244268-1300-41a7-9a33-8160575e0bc7"},"vehicle_type_id":"4","last_reported":1775116686,"current_range_meters":8000,"station_id":"ce4bhu92rcd13ifvqi70","pricing_plan_id":"cebpf4jnsgd1na2vs0mg"},{"bike_id":"d6a624d6-57d5-4395-adc1-62320d3f6f32","system_id":"levelo_inurba_marseille","lat":43.27356,"lon":5.39095,"is_reserved":false,"is_disabled":false,"rental_uris":{"android":"levelo://app?vid=d6a624d6-57d5-4395-adc1-62320d3f6f32","ios":"levelo://app?vid=d6a624d6-57d5-4395-adc1-62320d3f6f32"},"vehicle_type_id":"4","last_reported":1775116686,"current_range_meters":8000,"station_id":"ce4bhgp2rcd13ifvqfe0","pricing_plan_id":"cebpf4jnsgd1na2vs0mg"},{"bike_id":"905289e5-7113-4e8f-9100-1778260d107a","system_id":"levelo_inurba_marseille","lat":43.24393,"lon":5.37083,"is_reserved":false,"is_disabled":false,"rental_uris":{"android":"levelo://app?vid=905289e5-7113-4e8f-9100-1778260d107a","ios":"levelo://app?vid=905289e5-7113-4e8f-9100-1778260d107a"},"vehicle_type_id":"4","last_reported":1775116686,"current_range_meters":8400,"station_id":"ce4bhhh2rcd13ifvqfk0","pricing_plan_id":"cebpf4jnsgd1na2vs0mg"},{"bike_id":"a26e0612-5996-4080-8567-451a7c6785da","system_id":"levelo_inurba_marseille","lat":43.28477,"lon":5.48397,"is_reserved":false,"is_disabled":false,"rental_uris":{"android":"levelo://app?vid=a26e0612-5996-4080-8567-451a7c6785da","ios":"levelo://app?vid=a26e0612-5996-4080-8567-451a7c6785da"},"vehicle_type_id":"4","last_reported":1775116686,"current_range_meters":8400,"station_id":"","pricing_plan_id":"cebpf4jnsgd1na2vs0mg"},{"bike_id":"c05c913c-fc4b-429e-b8b5-b128060eff8f","system_id":"levelo_inurba_marseille","lat":43.24966,"lon":5.4049,"is_reserved":false,"is_disabled":false,"rental_uris":{"android":"levelo://app?vid=c05c913c-fc4b-429e-b8b5-b128060eff8f","ios":"levelo://app?vid=c05c913c-fc4b-429e-b8b5-b128060eff8f"},"vehicle_type_id":"4","last_reported":1775116686,"current_range_meters":8400,"station_id":"st_d2ngiaodas8pm72gd1h0","pricing_plan_id":"cebpf4jnsgd1na2vs0mg"},{"bike_id":"993554b6-0de0-483c-81a8-74355d0900be","system_id":"levelo_inurba_marseille","lat":43.29635,"lon":5.38103,"is_reserved":false,"is_disabled":false,"rental_uris":{"android":"levelo://app?vid=993554b6-0de0-483c-81a8-74355d0900be","ios":"levelo://app?vid=993554b6-0de0-483c-81a8-74355d0900be"},"vehicle_type_id":"4","last_reported":1775116686,"current_range_meters":8400,"station_id":"ce4bgl12rcd13ifvqbo0","pricing_plan_id":"cebpf4jnsgd1na2vs0mg"},{"bike_id":"7454e20f-aeeb-429e-8370-29d207e4b480","system_id":"levelo_inurba_marseille","lat":43.25488,"lon":5.37652,"is_reserved":false,"is_disabled":false,"rental_uris":{"android":"levelo://app?vid=7454e20f-aeeb-429e-8370-29d207e4b480","ios":"levelo://app?vid=7454e20f-aeeb-429e-8370-29d207e4b480"},"vehicle_type_id":"4","last_reported":1775116686,"current_range_meters":8400,"station_id":"ce4bhh12rcd13ifvqff0","pricing_plan_id":"cebpf4jnsgd1na2vs0mg"},{"bike_id":"b99da45f-b890-4b92-ad87-4c26ace5150b","system_id":"levelo_inurba_marseille","lat":43.26679,"lon":5.38281,"is_reserved":false,"is_disabled":false,"rental_uris":{"android":"levelo://app?vid=b99da45f-b890-4b92-ad87-4c26ace5150b","ios":"levelo://app?vid=b99da45f-b890-4b92-ad87-4c26ace5150b"},"vehicle_type_id":"4","last_reported":1775116686,"current_range_meters":8400,"station_id":"ce4bhg92rcd13ifvqf90","pricing_plan_id":"cebpf4jnsgd1na2vs0mg"},{"bike_id":"ae36046c-5825-48bc-91f4-268d8ab1d0c3","system_id":"levelo_inurba_marseille","lat":43.28345,"lon":5.38111,"is_reserved":false,"is_disabled":false,"rental_uris":{"android":"levelo://app?vid=ae36046c-5825-48bc-91f4-268d8ab1d0c3","ios":"levelo://app?vid=ae36046c-5825-48bc-91f4-268d8ab1d0c3"},"vehicle_type_id":"4","last_reported":1775116686,"current_range_meters":8400,"station_id":"ce4bh412rcd13ifvqdr0","pricing_plan_id":"cebpf4jnsgd1na2vs0mg"},{"bike_id":"229f0e67-0671-4c17-8f2a-9394f3ccb1c5","system_id":"levelo_inurba_marseille","lat":43.24395,"lon":5.37055,"is_reserved":false,"is_disabled":false,"rental_uris":{"android":"levelo://app?vid=229f0e67-0671-4c17-8f2a-9394f3ccb1c5","ios":"levelo://app?vid=229f0e67-0671-4c17-8f2a-9394f3ccb1c5"},"vehicle_type_id":"4","last_reported":1775116686,"current_range_meters":8400,"station_id":"ce4bhhh2rcd13ifvqfk0","pricing_plan_id":"cebpf4jnsgd1na2vs0mg"},{"bike_id":"cfcb86aa-462f-42c7-a24b-6c23535a5d85","system_id":"levelo_inurba_marseille","lat":43.28715,"lon":5.37932,"is_reserved":false,"is_disabled":false,"rental_uris":{"android":"levelo://app?vid=cfcb86aa-462f-42c7-a24b-6c23535a5d85","ios":"levelo://app?vid=cfcb86aa-462f-42c7-a24b-6c23535a5d85"},"vehicle_type_id":"4","last_reported":1775116686,"current_range_meters":8400,"station_id":"ce4bh9p2rcd13ifvqec0","pricing_plan_id":"cebpf4jnsgd1na2vs0mg"},{"bike_id":"be0a2f51-4a1f-4d86-977a-210b03c4524c","system_id":"levelo_inurba_marseille","lat":43.24184,"lon":5.39721,"is_reserved":false,"is_disabled":false,"rental_uris":{"android":"levelo://app?vid=be0a2f51-4a1f-4d86-977a-210b03c4524c","ios":"levelo://app?vid=be0a2f51-4a1f-4d86-977a-210b03c4524c"},"vehicle_type_id":"4","last_reported":1775116686,"current_range_meters":8400,"station_id":"ce4bhn12rcd13ifvqgpg","pricing_plan_id":"cebpf4jnsgd1na2vs0mg"},{"bike_id":"8737fca9-9d67-4904-8c93-18bcdf5cb775","system_id":"levelo_inurba_marseille","lat":43.299375,"lon":5.36556,"is_reserved":false,"is_disabled":false,"rental_uris":{"android":"levelo://app?vid=8737fca9-9d67-4904-8c93-18bcdf5cb775","ios":"levelo://app?vid=8737fca9-9d67-4904-8c93-18bcdf5cb775"},"vehicle_type_id":"4","last_reported":1775116686,"current_range_meters":8400,"station_id":"ce4bgm92rcd13ifvqbr0","pricing_plan_id":"cebpf4jnsgd1na2vs0mg"},{"bike_id":"a203dbad-ee5e-43bd-96fc-aa0223049c1d","system_id":"levelo_inurba_marseille","lat":43.29276,"lon":5.36854,"is_reserved":false,"is_disabled":false,"rental_uris":{"android":"levelo://app?vid=a203dbad-ee5e-43bd-96fc-aa0223049c1d","ios":"levelo://app?vid=a203dbad-ee5e-43bd-96fc-aa0223049c1d"},"vehicle_type_id":"4","last_reported":1775116686,"current_range_meters":8400,"station_id":"ce4bhbp2rcd13ifvqesg","pricing_plan_id":"cebpf4jnsgd1na2vs0mg"},{"bike_id":"fc6395ad-d62f-4a87-ac5d-6a2edf2e75a8","system_id":"levelo_inurba_marseille","lat":43.31211,"lon":5.36883,"is_reserved":false,"is_disabled":false,"rental_uris":{"android":"levelo://app?vid=fc6395ad-d62f-4a87-ac5d-6a2edf2e75a8","ios":"levelo://app?vid=fc6395ad-d62f-4a87-ac5d-6a2edf2e75a8"},"vehicle_type_id":"4","last_reported":1775116686,"current_range_meters":8400,"station_id":"ce4bgl92rcd13ifvqbq0","pricing_plan_id":"cebpf4jnsgd1na2vs0mg"},{"bike_id":"0fa94896-dd54-446d-bc8b-217c16a94572","system_id":"levelo_inurba_marseille","lat":43.32535,"lon":5.36538,"is_reserved":false,"is_disabled":false,"rental_uris":{"android":"levelo://app?vid=0fa94896-dd54-446d-bc8b-217c16a94572","ios":"levelo://app?vid=0fa94896-dd54-446d-bc8b-217c16a94572"},"vehicle_type_id":"4","last_reported":1775116686,"current_range_meters":8400,"station_id":"","pricing_plan_id":"cebpf4jnsgd1na2vs0mg"},{"bike_id":"b276c3c2-7b5b-4cdf-a8b7-da86be0ddfc7","system_id":"levelo_inurba_marseille","lat":43.23782,"lon":5.36635,"is_reserved":false,"is_disabled":false,"rental_uris":{"android":"levelo://app?vid=b276c3c2-7b5b-4cdf-a8b7-da86be0ddfc7","ios":"levelo://app?vid=b276c3c2-7b5b-4cdf-a8b7-da86be0ddfc7"},"vehicle_type_id":"4","last_reported":1775116686,"current_range_meters":8400,"station_id":"st_d3nk18o9ro0c73en2l3g","pricing_plan_id":"cebpf4jnsgd1na2vs0mg"},{"bike_id":"3e21d9ea-0dae-4671-8a47-57d552d516e2","system_id":"levelo_inurba_marseille","lat":43.26496,"lon":5.3954,"is_reserved":false,"is_disabled":false,"rental_uris":{"android":"levelo://app?vid=3e21d9ea-0dae-4671-8a47-57d552d516e2","ios":"levelo://app?vid=3e21d9ea-0dae-4671-8a47-57d552d516e2"},"vehicle_type_id":"4","last_reported":1775116686,"current_range_meters":8400,"station_id":"ce4bhi12rcd13ifvqfq0","pricing_plan_id":"cebpf4jnsgd1na2vs0mg"},{"bike_id":"054467c5-d014-47a8-9ed7-2323e0d64cd1","system_id":"levelo_inurba_marseille","lat":43.26219,"lon":5.37533,"is_reserved":false,"is_disabled":false,"rental_uris":{"android":"levelo://app?vid=054467c5-d014-47a8-9ed7-2323e0d64cd1","ios":"levelo://app?vid=054467c5-d014-47a8-9ed7-2323e0d64cd1"},"vehicle_type_id":"4","last_reported":1775116686,"current_range_meters":8400,"station_id":"","pricing_plan_id":"cebpf4jnsgd1na2vs0mg"},{"bike_id":"e3ccc183-2d52-483d-b306-8ec417ed00fd","system_id":"levelo_inurba_marseille","lat":43.31042,"lon":5.37168,"is_reserved":false,"is_disabled":false,"rental_uris":{"android":"levelo://app?vid=e3ccc183-2d52-483d-b306-8ec417ed00fd","ios":"levelo://app?vid=e3ccc183-2d52-483d-b306-8ec417ed00fd"},"vehicle_type_id":"4","last_reported":1775116686,"current_range_meters":8400,"station_id":"st_d4kl2rp97mjs73e7tdfg","pricing_plan_id":"cebpf4jnsgd1na2vs0mg"},{"bike_id":"ec0ce348-2ff5-4e8c-8a8d-7f24350ab519","system_id":"levelo_inurba_marseille","lat":43.30456,"lon":5.37916,"is_reserved":false,"is_disabled":false,"rental_uris":{"android":"levelo://app?vid=ec0ce348-2ff5-4e8c-8a8d-7f24350ab519","ios":"levelo://app?vid=ec0ce348-2ff5-4e8c-8a8d-7f24350ab519"},"vehicle_type_id":"4","last_reported":1775116686,"current_range_meters":8400,"station_id":"ce4bgup2rcd13ifvqcn0","pricing_plan_id":"cebpf4jnsgd1na2vs0mg"},{"bike_id":"102c7519-e7e3-4de8-8a1e-2a86a3f7c287","system_id":"levelo_inurba_marseille","lat":43.3127,"lon":5.36837,"is_reserved":false,"is_disabled":false,"rental_uris":{"android":"levelo://app?vid=102c7519-e7e3-4de8-8a1e-2a86a3f7c287","ios":"levelo://app?vid=102c7519-e7e3-4de8-8a1e-2a86a3f7c287"},"vehicle_type_id":"4","last_reported":1775116686,"current_range_meters":8400,"station_id":"","pricing_plan_id":"cebpf4jnsgd1na2vs0mg"},{"bike_id":"144b0d5f-d798-40ac-b026-8c585a1baeda","system_id":"levelo_inurba_marseille","lat":43.29046,"lon":5.40006,"is_reserved":false,"is_disabled":false,"rental_uris":{"android":"levelo://app?vid=144b0d5f-d798-40ac-b026-8c585a1baeda","ios":"levelo://app?vid=144b0d5f-d798-40ac-b026-8c585a1baeda"},"vehicle_type_id":"4","last_reported":1775116686,"current_range_meters":8400,"station_id":"ce4bh392rcd13ifvqdm0","pricing_plan_id":"cebpf4jnsgd1na2vs0mg"},{"bike_id":"6adb978b-dee4-4408-8ec3-416616f035fa","system_id":"levelo_inurba_marseille","lat":43.29568,"lon":5.37514,"is_reserved":false,"is_disabled":false,"rental_uris":{"android":"levelo://app?vid=6adb978b-dee4-4408-8ec3-416616f035fa","ios":"levelo://app?vid=6adb978b-dee4-4408-8ec3-416616f035fa"},"vehicle_type_id":"4","last_reported":1775116686,"current_range_meters":8400,"station_id":"ce4bgh92rcd13ifvqb50","pricing_plan_id":"cebpf4jnsgd1na2vs0mg"},{"bike_id":"c28f5135-9d7b-4dfe-8960-5d8192f525bc","system_id":"levelo_inurba_marseille","lat":43.30468,"lon":5.37904,"is_reserved":false,"is_disabled":false,"rental_uris":{"android":"levelo://app?vid=c28f5135-9d7b-4dfe-8960-5d8192f525bc","ios":"levelo://app?vid=c28f5135-9d7b-4dfe-8960-5d8192f525bc"},"vehicle_type_id":"4","last_reported":1775116686,"current_range_meters":8400,"station_id":"ce4bgup2rcd13ifvqcn0","pricing_plan_id":"cebpf4jnsgd1na2vs0mg"},{"bike_id":"ec8b19fe-643e-4f00-8b29-5c9b3d9fb7d0","system_id":"levelo_inurba_marseille","lat":43.272,"lon":5.39103,"is_reserved":false,"is_disabled":false,"rental_uris":{"android":"levelo://app?vid=ec8b19fe-643e-4f00-8b29-5c9b3d9fb7d0","ios":"levelo://app?vid=ec8b19fe-643e-4f00-8b29-5c9b3d9fb7d0"},"vehicle_type_id":"4","last_reported":1775116686,"current_range_meters":8400,"station_id":"","pricing_plan_id":"cebpf4jnsgd1na2vs0mg"},{"bike_id":"ec73d10f-d000-4d7d-ab9a-4a1d96a7ccc2","system_id":"levelo_inurba_marseille","lat":43.31211,"lon":5.36912,"is_reserved":false,"is_disabled":false,"rental_uris":{"android":"levelo://app?vid=ec73d10f-d000-4d7d-ab9a-4a1d96a7ccc2","ios":"levelo://app?vid=ec73d10f-d000-4d7d-ab9a-4a1d96a7ccc2"},"vehicle_type_id":"4","last_reported":1775116686,"current_range_meters":8400,"station_id":"ce4bgl92rcd13ifvqbq0","pricing_plan_id":"cebpf4jnsgd1na2vs0mg"},{"bike_id":"b17c4f99-f264-4929-869c-2e7e7176ce13","system_id":"levelo_inurba_marseille","lat":43.28673,"lon":5.38655,"is_reserved":false,"is_disabled":true,"rental_uris":{"android":"levelo://app?vid=b17c4f99-f264-4929-869c-2e7e7176ce13","ios":"levelo://app?vid=b17c4f99-f264-4929-869c-2e7e7176ce13"},"vehicle_type_id":"4","last_reported":1775116686,"current_range_meters":8400,"station_id":"ce4bh492rcd13ifvqdug","pricing_plan_id":"cebpf4jnsgd1na2vs0mg"},{"bike_id":"63f54104-1358-46d5-b04e-dbd776a1d3a2","system_id":"levelo_inurba_marseille","lat":43.21766,"lon":5.34606,"is_reserved":false,"is_disabled":false,"rental_uris":{"android":"levelo://app?vid=63f54104-1358-46d5-b04e-dbd776a1d3a2","ios":"levelo://app?vid=63f54104-1358-46d5-b04e-dbd776a1d3a2"},"vehicle_type_id":"4","last_reported":1775116686,"current_range_meters":8800,"station_id":"st_cvj6r9ubvosntc0bgbag","pricing_plan_id":"cebpf4jnsgd1na2vs0mg"},{"bike_id":"8c8ca048-1b66-4480-9922-651206dfd11a","system_id":"levelo_inurba_marseille","lat":43.32666,"lon":5.40984,"is_reserved":false,"is_disabled":false,"rental_uris":{"android":"levelo://app?vid=8c8ca048-1b66-4480-9922-651206dfd11a","ios":"levelo://app?vid=8c8ca048-1b66-4480-9922-651206dfd11a"},"vehicle_type_id":"4","last_reported":1775116686,"current_range_meters":8800,"station_id":"ce4bhpp2rcd13ifvqhgg","pricing_plan_id":"cebpf4jnsgd1na2vs0mg"},{"bike_id":"87e346fe-57ff-40e1-bc30-332765acdf33","system_id":"levelo_inurba_marseille","lat":43.22937,"lon":5.35372,"is_reserved":false,"is_disabled":false,"rental_uris":{"android":"levelo://app?vid=87e346fe-57ff-40e1-bc30-332765acdf33","ios":"levelo://app?vid=87e346fe-57ff-40e1-bc30-332765acdf33"},"vehicle_type_id":"4","last_reported":1775116686,"current_range_meters":8800,"station_id":"cpo3532slgdg3j2ikp40","pricing_plan_id":"cebpf4jnsgd1na2vs0mg"},{"bike_id":"35435ac2-be35-436f-9d1e-092a65854e3c","system_id":"levelo_inurba_marseille","lat":43.25864,"lon":5.39914,"is_reserved":false,"is_disabled":false,"rental_uris":{"android":"levelo://app?vid=35435ac2-be35-436f-9d1e-092a65854e3c","ios":"levelo://app?vid=35435ac2-be35-436f-9d1e-092a65854e3c"},"vehicle_type_id":"4","last_reported":1775116686,"current_range_meters":8800,"station_id":"ce4bhl92rcd13ifvqghg","pricing_plan_id":"cebpf4jnsgd1na2vs0mg"},{"bike_id":"3083a054-ad5b-40e9-b34b-8b3f3962f588","system_id":"levelo_inurba_marseille","lat":43.26075,"lon":5.39409,"is_reserved":false,"is_disabled":false,"rental_uris":{"android":"levelo://app?vid=3083a054-ad5b-40e9-b34b-8b3f3962f588","ios":"levelo://app?vid=3083a054-ad5b-40e9-b34b-8b3f3962f588"},"vehicle_type_id":"4","last_reported":1775116686,"current_range_meters":8800,"station_id":"ce4bhh92rcd13ifvqfj0","pricing_plan_id":"cebpf4jnsgd1na2vs0mg"},{"bike_id":"da5f2f74-51b9-4844-8782-8e1f28b10367","system_id":"levelo_inurba_marseille","lat":43.29123,"lon":5.38112,"is_reserved":false,"is_disabled":true,"rental_uris":{"android":"levelo://app?vid=da5f2f74-51b9-4844-8782-8e1f28b10367","ios":"levelo://app?vid=da5f2f74-51b9-4844-8782-8e1f28b10367"},"vehicle_type_id":"4","last_reported":1775116686,"current_range_meters":8800,"station_id":"","pricing_plan_id":"cebpf4jnsgd1na2vs0mg"},{"bike_id":"baaa819f-f621-4bbc-b8f6-009cbb2eb24c","system_id":"levelo_inurba_marseille","lat":43.23199,"lon":5.35556,"is_reserved":false,"is_disabled":false,"rental_uris":{"android":"levelo://app?vid=baaa819f-f621-4bbc-b8f6-009cbb2eb24c","ios":"levelo://app?vid=baaa819f-f621-4bbc-b8f6-009cbb2eb24c"},"vehicle_type_id":"4","last_reported":1775116686,"current_range_meters":8800,"station_id":"ce4bhu92rcd13ifvqi70","pricing_plan_id":"cebpf4jnsgd1na2vs0mg"},{"bike_id":"f9889cfc-1d44-4a74-b59e-2e0cc04a8762","system_id":"levelo_inurba_marseille","lat":43.21203,"lon":5.35055,"is_reserved":false,"is_disabled":false,"rental_uris":{"android":"levelo://app?vid=f9889cfc-1d44-4a74-b59e-2e0cc04a8762","ios":"levelo://app?vid=f9889cfc-1d44-4a74-b59e-2e0cc04a8762"},"vehicle_type_id":"4","last_reported":1775116686,"current_range_meters":8800,"station_id":"st_cvj6sg6p6f1abm77japg","pricing_plan_id":"cebpf4jnsgd1na2vs0mg"},{"bike_id":"e29e1953-b5e2-42ad-b863-e11d2fd568e7","system_id":"levelo_inurba_marseille","lat":43.33528,"lon":5.37461,"is_reserved":false,"is_disabled":false,"rental_uris":{"android":"levelo://app?vid=e29e1953-b5e2-42ad-b863-e11d2fd568e7","ios":"levelo://app?vid=e29e1953-b5e2-42ad-b863-e11d2fd568e7"},"vehicle_type_id":"4","last_reported":1775116686,"current_range_meters":8800,"station_id":"st_d46tts09ee8s73dlu43g","pricing_plan_id":"cebpf4jnsgd1na2vs0mg"},{"bike_id":"39882fe1-cb8d-4aef-a677-90c3a879b9c7","system_id":"levelo_inurba_marseille","lat":43.27961,"lon":5.38744,"is_reserved":false,"is_disabled":false,"rental_uris":{"android":"levelo://app?vid=39882fe1-cb8d-4aef-a677-90c3a879b9c7","ios":"levelo://app?vid=39882fe1-cb8d-4aef-a677-90c3a879b9c7"},"vehicle_type_id":"4","last_reported":1775116686,"current_range_meters":8800,"station_id":"ce4bhg12rcd13ifvqf80","pricing_plan_id":"cebpf4jnsgd1na2vs0mg"},{"bike_id":"ebf8d41b-af9e-48cd-b4ac-c559138fc501","system_id":"levelo_inurba_marseille","lat":43.24162,"lon":5.36397,"is_reserved":false,"is_disabled":false,"rental_uris":{"android":"levelo://app?vid=ebf8d41b-af9e-48cd-b4ac-c559138fc501","ios":"levelo://app?vid=ebf8d41b-af9e-48cd-b4ac-c559138fc501"},"vehicle_type_id":"4","last_reported":1775116686,"current_range_meters":8800,"station_id":"cpo36qri1sfpv3e86is0","pricing_plan_id":"cebpf4jnsgd1na2vs0mg"},{"bike_id":"4e58bf43-42ef-4fe3-a97b-d60dd6dc77be","system_id":"levelo_inurba_marseille","lat":43.24463,"lon":5.4254,"is_reserved":false,"is_disabled":false,"rental_uris":{"android":"levelo://app?vid=4e58bf43-42ef-4fe3-a97b-d60dd6dc77be","ios":"levelo://app?vid=4e58bf43-42ef-4fe3-a97b-d60dd6dc77be"},"vehicle_type_id":"4","last_reported":1775116686,"current_range_meters":8800,"station_id":"st_d4a3vfp97mjs738cd8kg","pricing_plan_id":"cebpf4jnsgd1na2vs0mg"},{"bike_id":"17e1349c-2875-4c80-8b7f-edefe8fdfd05","system_id":"levelo_inurba_marseille","lat":43.23142,"lon":5.43718,"is_reserved":false,"is_disabled":false,"rental_uris":{"android":"levelo://app?vid=17e1349c-2875-4c80-8b7f-edefe8fdfd05","ios":"levelo://app?vid=17e1349c-2875-4c80-8b7f-edefe8fdfd05"},"vehicle_type_id":"4","last_reported":1775116686,"current_range_meters":8800,"station_id":"ce4bhmp2rcd13ifvqgog","pricing_plan_id":"cebpf4jnsgd1na2vs0mg"},{"bike_id":"42ef0725-9ce6-475e-bcb5-07b0be3c0a7c","system_id":"levelo_inurba_marseille","lat":43.30449,"lon":5.37953,"is_reserved":false,"is_disabled":false,"rental_uris":{"android":"levelo://app?vid=42ef0725-9ce6-475e-bcb5-07b0be3c0a7c","ios":"levelo://app?vid=42ef0725-9ce6-475e-bcb5-07b0be3c0a7c"},"vehicle_type_id":"4","last_reported":1775116686,"current_range_meters":8800,"station_id":"ce4bgup2rcd13ifvqcn0","pricing_plan_id":"cebpf4jnsgd1na2vs0mg"},{"bike_id":"cdaf5c21-01f8-48a6-ac5a-655f303d788b","system_id":"levelo_inurba_marseille","lat":43.28037,"lon":5.36933,"is_reserved":false,"is_disabled":true,"rental_uris":{"android":"levelo://app?vid=cdaf5c21-01f8-48a6-ac5a-655f303d788b","ios":"levelo://app?vid=cdaf5c21-01f8-48a6-ac5a-655f303d788b"},"vehicle_type_id":"4","last_reported":1775116686,"current_range_meters":8800,"station_id":"ce4bha12rcd13ifvqef0","pricing_plan_id":"cebpf4jnsgd1na2vs0mg"},{"bike_id":"bc680e3f-5bf9-4b6b-b278-7640a68aaa9b","system_id":"levelo_inurba_marseille","lat":43.2842,"lon":5.34982,"is_reserved":false,"is_disabled":false,"rental_uris":{"android":"levelo://app?vid=bc680e3f-5bf9-4b6b-b278-7640a68aaa9b","ios":"levelo://app?vid=bc680e3f-5bf9-4b6b-b278-7640a68aaa9b"},