{"last_updated":1742235255,"ttl":60,"version":"2.2","data":{"bikes":[{"bike_id":"9a2de320-196e-44b6-91b6-0d424eaa2a88","system_id":"levelo_inurba_marseille","lat":43.25722,"lon":5.42188,"is_reserved":false,"is_disabled":false,"rental_uris":{"android":"levelo://app?vid=9a2de320-196e-44b6-91b6-0d424eaa2a88","ios":"levelo://app?vid=9a2de320-196e-44b6-91b6-0d424eaa2a88"},"vehicle_type_id":"4","last_reported":1742235256,"current_range_meters":2800,"station_id":"","pricing_plan_id":"cebpf4jnsgd1na2vs0mg"},{"bike_id":"99a8384c-6f7d-467f-8b0b-a387bb9c7a82","system_id":"levelo_inurba_marseille","lat":43.29859,"lon":5.39748,"is_reserved":false,"is_disabled":false,"rental_uris":{"android":"levelo://app?vid=99a8384c-6f7d-467f-8b0b-a387bb9c7a82","ios":"levelo://app?vid=99a8384c-6f7d-467f-8b0b-a387bb9c7a82"},"vehicle_type_id":"4","last_reported":1742235256,"current_range_meters":2800,"station_id":"ce4bh0h2rcd13ifvqd50","pricing_plan_id":"cebpf4jnsgd1na2vs0mg"},{"bike_id":"9f7f3ddf-3ed4-4e28-80e2-541d81efcd81","system_id":"levelo_inurba_marseille","lat":43.279174,"lon":5.395795,"is_reserved":false,"is_disabled":false,"rental_uris":{"android":"levelo://app?vid=9f7f3ddf-3ed4-4e28-80e2-541d81efcd81","ios":"levelo://app?vid=9f7f3ddf-3ed4-4e28-80e2-541d81efcd81"},"vehicle_type_id":"4","last_reported":1742235256,"current_range_meters":2800,"station_id":"ce4bgip2rcd13ifvqbb0","pricing_plan_id":"cebpf4jnsgd1na2vs0mg"},{"bike_id":"2887c066-6a70-419a-a4ca-eafa05f6ec89","system_id":"levelo_inurba_marseille","lat":43.24642,"lon":5.4363,"is_reserved":false,"is_disabled":false,"rental_uris":{"android":"levelo://app?vid=2887c066-6a70-419a-a4ca-eafa05f6ec89","ios":"levelo://app?vid=2887c066-6a70-419a-a4ca-eafa05f6ec89"},"vehicle_type_id":"4","last_reported":1742235256,"current_range_meters":2800,"station_id":"","pricing_plan_id":"cebpf4jnsgd1na2vs0mg"},{"bike_id":"0fc1f0dc-d411-4676-abfc-a771321e236e","system_id":"levelo_inurba_marseille","lat":43.25525,"lon":5.38285,"is_reserved":false,"is_disabled":false,"rental_uris":{"android":"levelo://app?vid=0fc1f0dc-d411-4676-abfc-a771321e236e","ios":"levelo://app?vid=0fc1f0dc-d411-4676-abfc-a771321e236e"},"vehicle_type_id":"4","last_reported":1742235256,"current_range_meters":2800,"station_id":"","pricing_plan_id":"cebpf4jnsgd1na2vs0mg"},{"bike_id":"3dfdb5f6-708e-4c6a-a1f2-cc679916d8c7","system_id":"levelo_inurba_marseille","lat":43.32343,"lon":5.40636,"is_reserved":false,"is_disabled":false,"rental_uris":{"android":"levelo://app?vid=3dfdb5f6-708e-4c6a-a1f2-cc679916d8c7","ios":"levelo://app?vid=3dfdb5f6-708e-4c6a-a1f2-cc679916d8c7"},"vehicle_type_id":"4","last_reported":1742235256,"current_range_meters":2800,"station_id":"ce4bhq92rcd13ifvqhjg","pricing_plan_id":"cebpf4jnsgd1na2vs0mg"},{"bike_id":"2d980c3d-7b52-4394-9f8e-05783246b572","system_id":"levelo_inurba_marseille","lat":43.29264,"lon":5.40906,"is_reserved":false,"is_disabled":false,"rental_uris":{"android":"levelo://app?vid=2d980c3d-7b52-4394-9f8e-05783246b572","ios":"levelo://app?vid=2d980c3d-7b52-4394-9f8e-05783246b572"},"vehicle_type_id":"4","last_reported":1742235256,"current_range_meters":3200,"station_id":"ce4bh192rcd13ifvqdc0","pricing_plan_id":"cebpf4jnsgd1na2vs0mg"},{"bike_id":"13f565a9-ad77-42dd-bbcf-651900507196","system_id":"levelo_inurba_marseille","lat":43.32875,"lon":5.39196,"is_reserved":false,"is_disabled":false,"rental_uris":{"android":"levelo://app?vid=13f565a9-ad77-42dd-bbcf-651900507196","ios":"levelo://app?vid=13f565a9-ad77-42dd-bbcf-651900507196"},"vehicle_type_id":"4","last_reported":1742235256,"current_range_meters":3200,"station_id":"","pricing_plan_id":"cebpf4jnsgd1na2vs0mg"},{"bike_id":"24b294af-a712-46c8-b1f3-a707c56df5d8","system_id":"levelo_inurba_marseille","lat":43.30319,"lon":5.40442,"is_reserved":false,"is_disabled":false,"rental_uris":{"android":"levelo://app?vid=24b294af-a712-46c8-b1f3-a707c56df5d8","ios":"levelo://app?vid=24b294af-a712-46c8-b1f3-a707c56df5d8"},"vehicle_type_id":"4","last_reported":1742235256,"current_range_meters":3200,"station_id":"ce4bh012rcd13ifvqd10","pricing_plan_id":"cebpf4jnsgd1na2vs0mg"},{"bike_id":"6fc9ca7e-36fd-45f4-8bff-506de1f33729","system_id":"levelo_inurba_marseille","lat":43.30351,"lon":5.41882,"is_reserved":false,"is_disabled":false,"rental_uris":{"android":"levelo://app?vid=6fc9ca7e-36fd-45f4-8bff-506de1f33729","ios":"levelo://app?vid=6fc9ca7e-36fd-45f4-8bff-506de1f33729"},"vehicle_type_id":"4","last_reported":1742235256,"current_range_meters":3200,"station_id":"ce4bhop2rcd13ifvqh7g","pricing_plan_id":"cebpf4jnsgd1na2vs0mg"},{"bike_id":"4e91ae06-99f6-44fe-b731-d81a580e9e7f","system_id":"levelo_inurba_marseille","lat":43.28673,"lon":5.38661,"is_reserved":false,"is_disabled":false,"rental_uris":{"android":"levelo://app?vid=4e91ae06-99f6-44fe-b731-d81a580e9e7f","ios":"levelo://app?vid=4e91ae06-99f6-44fe-b731-d81a580e9e7f"},"vehicle_type_id":"4","last_reported":1742235256,"current_range_meters":3200,"station_id":"ce4bh492rcd13ifvqdug","pricing_plan_id":"cebpf4jnsgd1na2vs0mg"},{"bike_id":"28892105-4a01-4138-8376-ab89a675672c","system_id":"levelo_inurba_marseille","lat":43.28575,"lon":5.39496,"is_reserved":false,"is_disabled":false,"rental_uris":{"android":"levelo://app?vid=28892105-4a01-4138-8376-ab89a675672c","ios":"levelo://app?vid=28892105-4a01-4138-8376-ab89a675672c"},"vehicle_type_id":"4","last_reported":1742235256,"current_range_meters":3200,"station_id":"ce4bh292rcd13ifvqdg0","pricing_plan_id":"cebpf4jnsgd1na2vs0mg"},{"bike_id":"0dd85a3b-2678-4007-8f51-9a8b08c88973","system_id":"levelo_inurba_marseille","lat":43.30543,"lon":5.36563,"is_reserved":false,"is_disabled":false,"rental_uris":{"android":"levelo://app?vid=0dd85a3b-2678-4007-8f51-9a8b08c88973","ios":"levelo://app?vid=0dd85a3b-2678-4007-8f51-9a8b08c88973"},"vehicle_type_id":"4","last_reported":1742235256,"current_range_meters":3200,"station_id":"ce4bgs12rcd13ifvqcag","pricing_plan_id":"cebpf4jnsgd1na2vs0mg"},{"bike_id":"3a4099fc-8cda-4a6c-a30a-0b92f3665d27","system_id":"levelo_inurba_marseille","lat":43.30325,"lon":5.40435,"is_reserved":false,"is_disabled":false,"rental_uris":{"android":"levelo://app?vid=3a4099fc-8cda-4a6c-a30a-0b92f3665d27","ios":"levelo://app?vid=3a4099fc-8cda-4a6c-a30a-0b92f3665d27"},"vehicle_type_id":"4","last_reported":1742235256,"current_range_meters":3200,"station_id":"ce4bh012rcd13ifvqd10","pricing_plan_id":"cebpf4jnsgd1na2vs0mg"},{"bike_id":"fe535ac1-f859-4328-a553-181bec5165fc","system_id":"levelo_inurba_marseille","lat":43.25006,"lon":5.38947,"is_reserved":false,"is_disabled":false,"rental_uris":{"android":"levelo://app?vid=fe535ac1-f859-4328-a553-181bec5165fc","ios":"levelo://app?vid=fe535ac1-f859-4328-a553-181bec5165fc"},"vehicle_type_id":"4","last_reported":1742235256,"current_range_meters":3200,"station_id":"ce4bhgp2rcd13ifvqfd0","pricing_plan_id":"cebpf4jnsgd1na2vs0mg"},{"bike_id":"7420de8e-623c-4773-a013-a933398b3664","system_id":"levelo_inurba_marseille","lat":43.30611,"lon":5.37237,"is_reserved":false,"is_disabled":false,"rental_uris":{"android":"levelo://app?vid=7420de8e-623c-4773-a013-a933398b3664","ios":"levelo://app?vid=7420de8e-623c-4773-a013-a933398b3664"},"vehicle_type_id":"4","last_reported":1742235256,"current_range_meters":3600,"station_id":"ce4bgqh2rcd13ifvqc4g","pricing_plan_id":"cebpf4jnsgd1na2vs0mg"},{"bike_id":"21166d41-4014-4bd8-ac69-731adebb5df7","system_id":"levelo_inurba_marseille","lat":43.24546,"lon":5.3733,"is_reserved":false,"is_disabled":false,"rental_uris":{"android":"levelo://app?vid=21166d41-4014-4bd8-ac69-731adebb5df7","ios":"levelo://app?vid=21166d41-4014-4bd8-ac69-731adebb5df7"},"vehicle_type_id":"4","last_reported":1742235256,"current_range_meters":3600,"station_id":"","pricing_plan_id":"cebpf4jnsgd1na2vs0mg"},{"bike_id":"d3cd3183-66f3-47f3-a902-35103184a088","system_id":"levelo_inurba_marseille","lat":43.29598,"lon":5.38098,"is_reserved":false,"is_disabled":false,"rental_uris":{"android":"levelo://app?vid=d3cd3183-66f3-47f3-a902-35103184a088","ios":"levelo://app?vid=d3cd3183-66f3-47f3-a902-35103184a088"},"vehicle_type_id":"4","last_reported":1742235256,"current_range_meters":400,"station_id":"ce4bgl12rcd13ifvqbo0","pricing_plan_id":"cebpf4jnsgd1na2vs0mg"},{"bike_id":"531d4977-ab70-41c1-8751-3b85ccaa9c14","system_id":"levelo_inurba_marseille","lat":43.310846,"lon":5.424297,"is_reserved":false,"is_disabled":false,"rental_uris":{"android":"levelo://app?vid=531d4977-ab70-41c1-8751-3b85ccaa9c14","ios":"levelo://app?vid=531d4977-ab70-41c1-8751-3b85ccaa9c14"},"vehicle_type_id":"4","last_reported":1742235256,"current_range_meters":3600,"station_id":"ce4bhp92rcd13ifvqhag","pricing_plan_id":"cebpf4jnsgd1na2vs0mg"},{"bike_id":"fdbe1562-5483-4d99-95a2-75cd1adb872c","system_id":"levelo_inurba_marseille","lat":43.26506,"lon":5.39553,"is_reserved":false,"is_disabled":false,"rental_uris":{"android":"levelo://app?vid=fdbe1562-5483-4d99-95a2-75cd1adb872c","ios":"levelo://app?vid=fdbe1562-5483-4d99-95a2-75cd1adb872c"},"vehicle_type_id":"4","last_reported":1742235256,"current_range_meters":3600,"station_id":"ce4bhi12rcd13ifvqfq0","pricing_plan_id":"cebpf4jnsgd1na2vs0mg"},{"bike_id":"db51e16a-5282-40c4-8737-9784b1dddee1","system_id":"levelo_inurba_marseille","lat":43.29051,"lon":5.39972,"is_reserved":false,"is_disabled":false,"rental_uris":{"android":"levelo://app?vid=db51e16a-5282-40c4-8737-9784b1dddee1","ios":"levelo://app?vid=db51e16a-5282-40c4-8737-9784b1dddee1"},"vehicle_type_id":"4","last_reported":1742235256,"current_range_meters":3600,"station_id":"ce4bh392rcd13ifvqdm0","pricing_plan_id":"cebpf4jnsgd1na2vs0mg"},{"bike_id":"d6863bd5-dcb2-48bb-a0ac-fb438f5d314f","system_id":"levelo_inurba_marseille","lat":43.31178,"lon":5.38742,"is_reserved":false,"is_disabled":false,"rental_uris":{"android":"levelo://app?vid=d6863bd5-dcb2-48bb-a0ac-fb438f5d314f","ios":"levelo://app?vid=d6863bd5-dcb2-48bb-a0ac-fb438f5d314f"},"vehicle_type_id":"4","last_reported":1742235256,"current_range_meters":8800,"station_id":"ce4bgv12rcd13ifvqcp0","pricing_plan_id":"cebpf4jnsgd1na2vs0mg"},{"bike_id":"a524cca4-b149-4692-8736-ebfad008226e","system_id":"levelo_inurba_marseille","lat":43.29523,"lon":5.39035,"is_reserved":false,"is_disabled":false,"rental_uris":{"android":"levelo://app?vid=a524cca4-b149-4692-8736-ebfad008226e","ios":"levelo://app?vid=a524cca4-b149-4692-8736-ebfad008226e"},"vehicle_type_id":"4","last_reported":1742235256,"current_range_meters":3600,"station_id":"ce4bh3p2rcd13ifvqdp0","pricing_plan_id":"cebpf4jnsgd1na2vs0mg"},{"bike_id":"0ae6cb88-499c-47fd-a777-8b0cef22b6eb","system_id":"levelo_inurba_marseille","lat":43.28459,"lon":5.35891,"is_reserved":false,"is_disabled":false,"rental_uris":{"android":"levelo://app?vid=0ae6cb88-499c-47fd-a777-8b0cef22b6eb","ios":"levelo://app?vid=0ae6cb88-499c-47fd-a777-8b0cef22b6eb"},"vehicle_type_id":"4","last_reported":1742235256,"current_range_meters":3600,"station_id":"ce4bhah2rcd13ifvqei0","pricing_plan_id":"cebpf4jnsgd1na2vs0mg"},{"bike_id":"7aa1bd18-2604-4d91-aa0b-2908cbba70b4","system_id":"levelo_inurba_marseille","lat":43.2762,"lon":5.36107,"is_reserved":false,"is_disabled":false,"rental_uris":{"android":"levelo://app?vid=7aa1bd18-2604-4d91-aa0b-2908cbba70b4","ios":"levelo://app?vid=7aa1bd18-2604-4d91-aa0b-2908cbba70b4"},"vehicle_type_id":"4","last_reported":1742235256,"current_range_meters":3200,"station_id":"ce4bgj92rcd13ifvqbe0","pricing_plan_id":"cebpf4jnsgd1na2vs0mg"},{"bike_id":"7cb2171f-16ba-4af3-a5b1-b616363c8855","system_id":"levelo_inurba_marseille","lat":43.23954,"lon":5.36631,"is_reserved":false,"is_disabled":false,"rental_uris":{"android":"levelo://app?vid=7cb2171f-16ba-4af3-a5b1-b616363c8855","ios":"levelo://app?vid=7cb2171f-16ba-4af3-a5b1-b616363c8855"},"vehicle_type_id":"4","last_reported":1742235256,"current_range_meters":3600,"station_id":"ce4bhi12rcd13ifvqfp0","pricing_plan_id":"cebpf4jnsgd1na2vs0mg"},{"bike_id":"3a330528-6016-4454-b6a8-c1e98ee622ae","system_id":"levelo_inurba_marseille","lat":43.27837,"lon":5.39218,"is_reserved":false,"is_disabled":false,"rental_uris":{"android":"levelo://app?vid=3a330528-6016-4454-b6a8-c1e98ee622ae","ios":"levelo://app?vid=3a330528-6016-4454-b6a8-c1e98ee622ae"},"vehicle_type_id":"4","last_reported":1742235256,"current_range_meters":3600,"station_id":"ce4bhjp2rcd13ifvqga0","pricing_plan_id":"cebpf4jnsgd1na2vs0mg"},{"bike_id":"da4af89f-b57e-4338-a2dc-1fb2e55820b1","system_id":"levelo_inurba_marseille","lat":43.23059,"lon":5.35495,"is_reserved":false,"is_disabled":false,"rental_uris":{"android":"levelo://app?vid=da4af89f-b57e-4338-a2dc-1fb2e55820b1","ios":"levelo://app?vid=da4af89f-b57e-4338-a2dc-1fb2e55820b1"},"vehicle_type_id":"4","last_reported":1742235256,"current_range_meters":4000,"station_id":"cpo3342slgdg3j2ifvpg","pricing_plan_id":"cebpf4jnsgd1na2vs0mg"},{"bike_id":"7f81434b-c569-48be-97be-35fae68e0084","system_id":"levelo_inurba_marseille","lat":43.29043,"lon":5.39957,"is_reserved":false,"is_disabled":true,"rental_uris":{"android":"levelo://app?vid=7f81434b-c569-48be-97be-35fae68e0084","ios":"levelo://app?vid=7f81434b-c569-48be-97be-35fae68e0084"},"vehicle_type_id":"4","last_reported":1742235256,"current_range_meters":4000,"station_id":"ce4bh392rcd13ifvqdm0","pricing_plan_id":"cebpf4jnsgd1na2vs0mg"},{"bike_id":"885c677d-9212-4154-b31b-f0b26ae107b0","system_id":"levelo_inurba_marseille","lat":43.284,"lon":5.37506,"is_reserved":false,"is_disabled":false,"rental_uris":{"android":"levelo://app?vid=885c677d-9212-4154-b31b-f0b26ae107b0","ios":"levelo://app?vid=885c677d-9212-4154-b31b-f0b26ae107b0"},"vehicle_type_id":"4","last_reported":1742235256,"current_range_meters":4000,"station_id":"ce4bh412rcd13ifvqds0","pricing_plan_id":"cebpf4jnsgd1na2vs0mg"},{"bike_id":"b33142dd-8dd4-43bc-b558-2a5a4a852b55","system_id":"levelo_inurba_marseille","lat":43.25001,"lon":5.38925,"is_reserved":false,"is_disabled":false,"rental_uris":{"android":"levelo://app?vid=b33142dd-8dd4-43bc-b558-2a5a4a852b55","ios":"levelo://app?vid=b33142dd-8dd4-43bc-b558-2a5a4a852b55"},"vehicle_type_id":"4","last_reported":1742235256,"current_range_meters":4000,"station_id":"ce4bhgp2rcd13ifvqfd0","pricing_plan_id":"cebpf4jnsgd1na2vs0mg"},{"bike_id":"a6eb9dab-c9c6-48fe-886b-b27d74364092","system_id":"levelo_inurba_marseille","lat":43.30591,"lon":5.39358,"is_reserved":false,"is_disabled":false,"rental_uris":{"android":"levelo://app?vid=a6eb9dab-c9c6-48fe-886b-b27d74364092","ios":"levelo://app?vid=a6eb9dab-c9c6-48fe-886b-b27d74364092"},"vehicle_type_id":"4","last_reported":1742235256,"current_range_meters":4400,"station_id":"ce4bh0p2rcd13ifvqd80","pricing_plan_id":"cebpf4jnsgd1na2vs0mg"},{"bike_id":"8b270144-e67b-4ad8-beb5-780c8bc18699","system_id":"levelo_inurba_marseille","lat":43.29848,"lon":5.3628,"is_reserved":false,"is_disabled":false,"rental_uris":{"android":"levelo://app?vid=8b270144-e67b-4ad8-beb5-780c8bc18699","ios":"levelo://app?vid=8b270144-e67b-4ad8-beb5-780c8bc18699"},"vehicle_type_id":"4","last_reported":1742235256,"current_range_meters":4000,"station_id":"ce4bgpp2rcd13ifvqc3g","pricing_plan_id":"cebpf4jnsgd1na2vs0mg"},{"bike_id":"05d1cd79-ef9a-4f08-b13c-fadd693981a4","system_id":"levelo_inurba_marseille","lat":43.26785,"lon":5.39423,"is_reserved":false,"is_disabled":false,"rental_uris":{"android":"levelo://app?vid=05d1cd79-ef9a-4f08-b13c-fadd693981a4","ios":"levelo://app?vid=05d1cd79-ef9a-4f08-b13c-fadd693981a4"},"vehicle_type_id":"4","last_reported":1742235256,"current_range_meters":4000,"station_id":"ce4bhh12rcd13ifvqfg0","pricing_plan_id":"cebpf4jnsgd1na2vs0mg"},{"bike_id":"6d0a5282-a8d1-4056-890c-72d4ab258391","system_id":"levelo_inurba_marseille","lat":43.27621,"lon":5.36142,"is_reserved":false,"is_disabled":false,"rental_uris":{"android":"levelo://app?vid=6d0a5282-a8d1-4056-890c-72d4ab258391","ios":"levelo://app?vid=6d0a5282-a8d1-4056-890c-72d4ab258391"},"vehicle_type_id":"4","last_reported":1742235256,"current_range_meters":4000,"station_id":"ce4bgj92rcd13ifvqbe0","pricing_plan_id":"cebpf4jnsgd1na2vs0mg"},{"bike_id":"66b8b5ba-a8f1-4fef-a69d-63069a93762b","system_id":"levelo_inurba_marseille","lat":43.30807,"lon":5.38175,"is_reserved":false,"is_disabled":false,"rental_uris":{"android":"levelo://app?vid=66b8b5ba-a8f1-4fef-a69d-63069a93762b","ios":"levelo://app?vid=66b8b5ba-a8f1-4fef-a69d-63069a93762b"},"vehicle_type_id":"4","last_reported":1742235256,"current_range_meters":4000,"station_id":"ce4bgt12rcd13ifvqce0","pricing_plan_id":"cebpf4jnsgd1na2vs0mg"},{"bike_id":"91e9ae70-355b-49e1-826f-8677ba576a1b","system_id":"levelo_inurba_marseille","lat":43.29799,"lon":5.38104,"is_reserved":false,"is_disabled":false,"rental_uris":{"android":"levelo://app?vid=91e9ae70-355b-49e1-826f-8677ba576a1b","ios":"levelo://app?vid=91e9ae70-355b-49e1-826f-8677ba576a1b"},"vehicle_type_id":"4","last_reported":1742235256,"current_range_meters":4000,"station_id":"ce4bgip2rcd13ifvqbb0","pricing_plan_id":"cebpf4jnsgd1na2vs0mg"},{"bike_id":"7f1d6035-85bd-42d7-a3bc-6cf7020d1680","system_id":"levelo_inurba_marseille","lat":43.28374,"lon":5.38646,"is_reserved":false,"is_disabled":false,"rental_uris":{"android":"levelo://app?vid=7f1d6035-85bd-42d7-a3bc-6cf7020d1680","ios":"levelo://app?vid=7f1d6035-85bd-42d7-a3bc-6cf7020d1680"},"vehicle_type_id":"4","last_reported":1742235256,"current_range_meters":4000,"station_id":"ce4bh492rcd13ifvqdvg","pricing_plan_id":"cebpf4jnsgd1na2vs0mg"},{"bike_id":"55cfdacd-fc59-4042-9ffc-78877622a54b","system_id":"levelo_inurba_marseille","lat":43.31356,"lon":5.3849,"is_reserved":false,"is_disabled":false,"rental_uris":{"android":"levelo://app?vid=55cfdacd-fc59-4042-9ffc-78877622a54b","ios":"levelo://app?vid=55cfdacd-fc59-4042-9ffc-78877622a54b"},"vehicle_type_id":"4","last_reported":1742235256,"current_range_meters":4000,"station_id":"ce4bgt92rcd13ifvqcf0","pricing_plan_id":"cebpf4jnsgd1na2vs0mg"},{"bike_id":"ba0a5410-a1c1-4077-93e8-14b95daaa007","system_id":"levelo_inurba_marseille","lat":43.29443,"lon":5.39764,"is_reserved":false,"is_disabled":false,"rental_uris":{"android":"levelo://app?vid=ba0a5410-a1c1-4077-93e8-14b95daaa007","ios":"levelo://app?vid=ba0a5410-a1c1-4077-93e8-14b95daaa007"},"vehicle_type_id":"4","last_reported":1742235256,"current_range_meters":4000,"station_id":"ce4bh3h2rcd13ifvqdo0","pricing_plan_id":"cebpf4jnsgd1na2vs0mg"},{"bike_id":"77e7d193-c015-44d0-9b0d-7ceb00ed9eab","system_id":"levelo_inurba_marseille","lat":43.24076,"lon":5.37762,"is_reserved":false,"is_disabled":false,"rental_uris":{"android":"levelo://app?vid=77e7d193-c015-44d0-9b0d-7ceb00ed9eab","ios":"levelo://app?vid=77e7d193-c015-44d0-9b0d-7ceb00ed9eab"},"vehicle_type_id":"4","last_reported":1742235256,"current_range_meters":4400,"station_id":"ce4bhnp2rcd13ifvqgvg","pricing_plan_id":"cebpf4jnsgd1na2vs0mg"},{"bike_id":"1cec1d91-9b07-400a-b5b9-a34137188a38","system_id":"levelo_inurba_marseille","lat":43.30535,"lon":5.36714,"is_reserved":false,"is_disabled":false,"rental_uris":{"android":"levelo://app?vid=1cec1d91-9b07-400a-b5b9-a34137188a38","ios":"levelo://app?vid=1cec1d91-9b07-400a-b5b9-a34137188a38"},"vehicle_type_id":"4","last_reported":1742235256,"current_range_meters":4000,"station_id":"ce4bgrp2rcd13ifvqc9g","pricing_plan_id":"cebpf4jnsgd1na2vs0mg"},{"bike_id":"5d3dbd3a-1365-40c0-af69-8ba2c314a313","system_id":"levelo_inurba_marseille","lat":43.2991,"lon":5.43663,"is_reserved":false,"is_disabled":false,"rental_uris":{"android":"levelo://app?vid=5d3dbd3a-1365-40c0-af69-8ba2c314a313","ios":"levelo://app?vid=5d3dbd3a-1365-40c0-af69-8ba2c314a313"},"vehicle_type_id":"4","last_reported":1742235256,"current_range_meters":4400,"station_id":"ce4bhpp2rcd13ifvqhfg","pricing_plan_id":"cebpf4jnsgd1na2vs0mg"},{"bike_id":"3cc9a666-e1dc-4068-be79-8bd89aa23de3","system_id":"levelo_inurba_marseille","lat":43.31123,"lon":5.37771,"is_reserved":false,"is_disabled":false,"rental_uris":{"android":"levelo://app?vid=3cc9a666-e1dc-4068-be79-8bd89aa23de3","ios":"levelo://app?vid=3cc9a666-e1dc-4068-be79-8bd89aa23de3"},"vehicle_type_id":"4","last_reported":1742235256,"current_range_meters":4400,"station_id":"ce4bgt92rcd13ifvqcg0","pricing_plan_id":"cebpf4jnsgd1na2vs0mg"},{"bike_id":"8a432cd2-8578-4e35-b529-6b2e5965d90c","system_id":"levelo_inurba_marseille","lat":43.26954,"lon":5.38632,"is_reserved":false,"is_disabled":false,"rental_uris":{"android":"levelo://app?vid=8a432cd2-8578-4e35-b529-6b2e5965d90c","ios":"levelo://app?vid=8a432cd2-8578-4e35-b529-6b2e5965d90c"},"vehicle_type_id":"4","last_reported":1742235256,"current_range_meters":4400,"station_id":"ce4bhh92rcd13ifvqfh0","pricing_plan_id":"cebpf4jnsgd1na2vs0mg"},{"bike_id":"07426afa-cb65-48da-a2f9-ee88f5670618","system_id":"levelo_inurba_marseille","lat":43.28945,"lon":5.3665,"is_reserved":false,"is_disabled":false,"rental_uris":{"android":"levelo://app?vid=07426afa-cb65-48da-a2f9-ee88f5670618","ios":"levelo://app?vid=07426afa-cb65-48da-a2f9-ee88f5670618"},"vehicle_type_id":"4","last_reported":1742235256,"current_range_meters":4400,"station_id":"ce4bhap2rcd13ifvqek0","pricing_plan_id":"cebpf4jnsgd1na2vs0mg"},{"bike_id":"7eefbdec-24a4-4889-bf0f-a56d9282ff8a","system_id":"levelo_inurba_marseille","lat":43.29845,"lon":5.36276,"is_reserved":false,"is_disabled":false,"rental_uris":{"android":"levelo://app?vid=7eefbdec-24a4-4889-bf0f-a56d9282ff8a","ios":"levelo://app?vid=7eefbdec-24a4-4889-bf0f-a56d9282ff8a"},"vehicle_type_id":"4","last_reported":1742235256,"current_range_meters":4400,"station_id":"ce4bgpp2rcd13ifvqc3g","pricing_plan_id":"cebpf4jnsgd1na2vs0mg"},{"bike_id":"f47c5661-ec21-4eb6-9e89-29a7736904bf","system_id":"levelo_inurba_marseille","lat":43.30279,"lon":5.37699,"is_reserved":false,"is_disabled":false,"rental_uris":{"android":"levelo://app?vid=f47c5661-ec21-4eb6-9e89-29a7736904bf","ios":"levelo://app?vid=f47c5661-ec21-4eb6-9e89-29a7736904bf"},"vehicle_type_id":"4","last_reported":1742235256,"current_range_meters":4400,"station_id":"ce4bguh2rcd13ifvqcj0","pricing_plan_id":"cebpf4jnsgd1na2vs0mg"},{"bike_id":"50b53234-a3c6-4b9a-a9f1-7d5a56fa386b","system_id":"levelo_inurba_marseille","lat":43.27915,"lon":5.39578,"is_reserved":false,"is_disabled":false,"rental_uris":{"android":"levelo://app?vid=50b53234-a3c6-4b9a-a9f1-7d5a56fa386b","ios":"levelo://app?vid=50b53234-a3c6-4b9a-a9f1-7d5a56fa386b"},"vehicle_type_id":"4","last_reported":1742235256,"current_range_meters":4400,"station_id":"ce4bhf92rcd13ifvqf40","pricing_plan_id":"cebpf4jnsgd1na2vs0mg"},{"bike_id":"b1e45dff-ca2d-45e4-aa9b-a9535266d84d","system_id":"levelo_inurba_marseille","lat":43.31328,"lon":5.39692,"is_reserved":false,"is_disabled":false,"rental_uris":{"android":"levelo://app?vid=b1e45dff-ca2d-45e4-aa9b-a9535266d84d","ios":"levelo://app?vid=b1e45dff-ca2d-45e4-aa9b-a9535266d84d"},"vehicle_type_id":"4","last_reported":1742235256,"current_range_meters":4400,"station_id":"ce4bgvp2rcd13ifvqcu0","pricing_plan_id":"cebpf4jnsgd1na2vs0mg"},{"bike_id":"f762fd6f-ca69-45f6-995f-65c0e25825a3","system_id":"levelo_inurba_marseille","lat":43.32534,"lon":5.41467,"is_reserved":false,"is_disabled":true,"rental_uris":{"android":"levelo://app?vid=f762fd6f-ca69-45f6-995f-65c0e25825a3","ios":"levelo://app?vid=f762fd6f-ca69-45f6-995f-65c0e25825a3"},"vehicle_type_id":"4","last_reported":1742235256,"current_range_meters":4800,"station_id":"ce4bhq12rcd13ifvqhhg","pricing_plan_id":"cebpf4jnsgd1na2vs0mg"},{"bike_id":"4f4016e7-1456-40c8-97ab-d1d7b7abb400","system_id":"levelo_inurba_marseille","lat":43.25946,"lon":5.39893,"is_reserved":false,"is_disabled":false,"rental_uris":{"android":"levelo://app?vid=4f4016e7-1456-40c8-97ab-d1d7b7abb400","ios":"levelo://app?vid=4f4016e7-1456-40c8-97ab-d1d7b7abb400"},"vehicle_type_id":"4","last_reported":1742235256,"current_range_meters":5600,"station_id":"ce4bhi12rcd13ifvqfq0","pricing_plan_id":"cebpf4jnsgd1na2vs0mg"},{"bike_id":"92670b41-a328-4096-8965-8f74953a26db","system_id":"levelo_inurba_marseille","lat":43.28494,"lon":5.38541,"is_reserved":false,"is_disabled":false,"rental_uris":{"android":"levelo://app?vid=92670b41-a328-4096-8965-8f74953a26db","ios":"levelo://app?vid=92670b41-a328-4096-8965-8f74953a26db"},"vehicle_type_id":"4","last_reported":1742235256,"current_range_meters":4800,"station_id":"ce4bh8p2rcd13ifvqeb0","pricing_plan_id":"cebpf4jnsgd1na2vs0mg"},{"bike_id":"6ae6f76c-6a01-4d75-9d3f-dfa610803a78","system_id":"levelo_inurba_marseille","lat":43.23083,"lon":5.3551,"is_reserved":false,"is_disabled":false,"rental_uris":{"android":"levelo://app?vid=6ae6f76c-6a01-4d75-9d3f-dfa610803a78","ios":"levelo://app?vid=6ae6f76c-6a01-4d75-9d3f-dfa610803a78"},"vehicle_type_id":"4","last_reported":1742235256,"current_range_meters":4800,"station_id":"cpo3342slgdg3j2ifvpg","pricing_plan_id":"cebpf4jnsgd1na2vs0mg"},{"bike_id":"6f09edc2-2100-4829-932c-97a64f4c39a1","system_id":"levelo_inurba_marseille","lat":43.30537,"lon":5.36557,"is_reserved":false,"is_disabled":false,"rental_uris":{"android":"levelo://app?vid=6f09edc2-2100-4829-932c-97a64f4c39a1","ios":"levelo://app?vid=6f09edc2-2100-4829-932c-97a64f4c39a1"},"vehicle_type_id":"4","last_reported":1742235256,"current_range_meters":4800,"station_id":"ce4bgs12rcd13ifvqcag","pricing_plan_id":"cebpf4jnsgd1na2vs0mg"},{"bike_id":"0e54ba2d-cb17-4d08-ab2f-1b79836196be","system_id":"levelo_inurba_marseille","lat":43.298004,"lon":5.380916,"is_reserved":false,"is_disabled":false,"rental_uris":{"android":"levelo://app?vid=0e54ba2d-cb17-4d08-ab2f-1b79836196be","ios":"levelo://app?vid=0e54ba2d-cb17-4d08-ab2f-1b79836196be"},"vehicle_type_id":"4","last_reported":1742235256,"current_range_meters":5600,"station_id":"ce4bgjh2rcd13ifvqbg0","pricing_plan_id":"cebpf4jnsgd1na2vs0mg"},{"bike_id":"436163ae-329e-4516-a54b-ab951f1eae33","system_id":"levelo_inurba_marseille","lat":43.256,"lon":5.38215,"is_reserved":false,"is_disabled":false,"rental_uris":{"android":"levelo://app?vid=436163ae-329e-4516-a54b-ab951f1eae33","ios":"levelo://app?vid=436163ae-329e-4516-a54b-ab951f1eae33"},"vehicle_type_id":"4","last_reported":1742235256,"current_range_meters":4800,"station_id":"ce4bhih2rcd13ifvqfs0","pricing_plan_id":"cebpf4jnsgd1na2vs0mg"},{"bike_id":"85f43d79-d741-43d2-be0f-bf5230279a64","system_id":"levelo_inurba_marseille","lat":43.29848,"lon":5.36285,"is_reserved":false,"is_disabled":false,"rental_uris":{"android":"levelo://app?vid=85f43d79-d741-43d2-be0f-bf5230279a64","ios":"levelo://app?vid=85f43d79-d741-43d2-be0f-bf5230279a64"},"vehicle_type_id":"4","last_reported":1742235256,"current_range_meters":4800,"station_id":"ce4bgpp2rcd13ifvqc3g","pricing_plan_id":"cebpf4jnsgd1na2vs0mg"},{"bike_id":"d87d01b0-53bb-405d-a34e-24df13294a43","system_id":"levelo_inurba_marseille","lat":43.29191,"lon":5.39321,"is_reserved":false,"is_disabled":true,"rental_uris":{"android":"levelo://app?vid=d87d01b0-53bb-405d-a34e-24df13294a43","ios":"levelo://app?vid=d87d01b0-53bb-405d-a34e-24df13294a43"},"vehicle_type_id":"4","last_reported":1742235256,"current_range_meters":4800,"station_id":"ce4bh192rcd13ifvqdd0","pricing_plan_id":"cebpf4jnsgd1na2vs0mg"},{"bike_id":"dcf21b4d-8529-44dd-982b-b5bb454725cd","system_id":"levelo_inurba_marseille","lat":43.23191,"lon":5.39994,"is_reserved":false,"is_disabled":false,"rental_uris":{"android":"levelo://app?vid=dcf21b4d-8529-44dd-982b-b5bb454725cd","ios":"levelo://app?vid=dcf21b4d-8529-44dd-982b-b5bb454725cd"},"vehicle_type_id":"4","last_reported":1742235256,"current_range_meters":4800,"station_id":"ce4bhn12rcd13ifvqgqg","pricing_plan_id":"cebpf4jnsgd1na2vs0mg"},{"bike_id":"1281715b-0974-4362-aaca-2e53a3eb00f7","system_id":"levelo_inurba_marseille","lat":43.28489,"lon":5.3856,"is_reserved":false,"is_disabled":false,"rental_uris":{"android":"levelo://app?vid=1281715b-0974-4362-aaca-2e53a3eb00f7","ios":"levelo://app?vid=1281715b-0974-4362-aaca-2e53a3eb00f7"},"vehicle_type_id":"4","last_reported":1742235256,"current_range_meters":4800,"station_id":"ce4bh8p2rcd13ifvqeb0","pricing_plan_id":"cebpf4jnsgd1na2vs0mg"},{"bike_id":"2db41d65-2c09-4782-9a2e-b558284c305a","system_id":"levelo_inurba_marseille","lat":43.23181,"lon":5.39986,"is_reserved":false,"is_disabled":false,"rental_uris":{"android":"levelo://app?vid=2db41d65-2c09-4782-9a2e-b558284c305a","ios":"levelo://app?vid=2db41d65-2c09-4782-9a2e-b558284c305a"},"vehicle_type_id":"4","last_reported":1742235256,"current_range_meters":4800,"station_id":"ce4bhn12rcd13ifvqgqg","pricing_plan_id":"cebpf4jnsgd1na2vs0mg"},{"bike_id":"47f44de6-46d0-48b3-b9c3-dbbca3c3720f","system_id":"levelo_inurba_marseille","lat":43.29512,"lon":5.39047,"is_reserved":false,"is_disabled":false,"rental_uris":{"android":"levelo://app?vid=47f44de6-46d0-48b3-b9c3-dbbca3c3720f","ios":"levelo://app?vid=47f44de6-46d0-48b3-b9c3-dbbca3c3720f"},"vehicle_type_id":"4","last_reported":1742235256,"current_range_meters":4800,"station_id":"ce4bh3p2rcd13ifvqdp0","pricing_plan_id":"cebpf4jnsgd1na2vs0mg"},{"bike_id":"a2923613-891f-4021-a6ef-e42fe8fa616b","system_id":"levelo_inurba_marseille","lat":43.299144,"lon":5.401988,"is_reserved":false,"is_disabled":false,"rental_uris":{"android":"levelo://app?vid=a2923613-891f-4021-a6ef-e42fe8fa616b","ios":"levelo://app?vid=a2923613-891f-4021-a6ef-e42fe8fa616b"},"vehicle_type_id":"4","last_reported":1742235256,"current_range_meters":4800,"station_id":"ce4bh112rcd13ifvqd90","pricing_plan_id":"cebpf4jnsgd1na2vs0mg"},{"bike_id":"6fc12898-2397-4b4f-ac69-eddefb442ad6","system_id":"levelo_inurba_marseille","lat":43.27958,"lon":5.41071,"is_reserved":false,"is_disabled":false,"rental_uris":{"android":"levelo://app?vid=6fc12898-2397-4b4f-ac69-eddefb442ad6","ios":"levelo://app?vid=6fc12898-2397-4b4f-ac69-eddefb442ad6"},"vehicle_type_id":"4","last_reported":1742235256,"current_range_meters":5600,"station_id":"ce4bhnp2rcd13ifvqh0g","pricing_plan_id":"cebpf4jnsgd1na2vs0mg"},{"bike_id":"259b2a62-eee3-46d4-9ba2-779b7755c371","system_id":"levelo_inurba_marseille","lat":43.26211,"lon":5.37446,"is_reserved":false,"is_disabled":false,"rental_uris":{"android":"levelo://app?vid=259b2a62-eee3-46d4-9ba2-779b7755c371","ios":"levelo://app?vid=259b2a62-eee3-46d4-9ba2-779b7755c371"},"vehicle_type_id":"4","last_reported":1742235256,"current_range_meters":5600,"station_id":"ce4bhgp2rcd13ifvqfc0","pricing_plan_id":"cebpf4jnsgd1na2vs0mg"},{"bike_id":"21f34ee2-d58d-48ef-9de3-46c66c78271b","system_id":"levelo_inurba_marseille","lat":43.28677,"lon":5.38665,"is_reserved":false,"is_disabled":false,"rental_uris":{"android":"levelo://app?vid=21f34ee2-d58d-48ef-9de3-46c66c78271b","ios":"levelo://app?vid=21f34ee2-d58d-48ef-9de3-46c66c78271b"},"vehicle_type_id":"4","last_reported":1742235256,"current_range_meters":5600,"station_id":"ce4bh492rcd13ifvqdug","pricing_plan_id":"cebpf4jnsgd1na2vs0mg"},{"bike_id":"1b943be4-6982-4e0a-87d2-c55646e0db50","system_id":"levelo_inurba_marseille","lat":43.28575,"lon":5.39512,"is_reserved":false,"is_disabled":false,"rental_uris":{"android":"levelo://app?vid=1b943be4-6982-4e0a-87d2-c55646e0db50","ios":"levelo://app?vid=1b943be4-6982-4e0a-87d2-c55646e0db50"},"vehicle_type_id":"4","last_reported":1742235256,"current_range_meters":5600,"station_id":"ce4bh292rcd13ifvqdg0","pricing_plan_id":"cebpf4jnsgd1na2vs0mg"},{"bike_id":"5d33ee2e-ab8c-4d48-b2e3-8df7c0b816e1","system_id":"levelo_inurba_marseille","lat":43.23058,"lon":5.35493,"is_reserved":false,"is_disabled":false,"rental_uris":{"android":"levelo://app?vid=5d33ee2e-ab8c-4d48-b2e3-8df7c0b816e1","ios":"levelo://app?vid=5d33ee2e-ab8c-4d48-b2e3-8df7c0b816e1"},"vehicle_type_id":"4","last_reported":1742235256,"current_range_meters":5600,"station_id":"cpo3342slgdg3j2ifvpg","pricing_plan_id":"cebpf4jnsgd1na2vs0mg"},{"bike_id":"5e7401c2-c372-430f-8491-0557cf6a4ff2","system_id":"levelo_inurba_marseille","lat":43.24552,"lon":5.37379,"is_reserved":false,"is_disabled":true,"rental_uris":{"android":"levelo://app?vid=5e7401c2-c372-430f-8491-0557cf6a4ff2","ios":"levelo://app?vid=5e7401c2-c372-430f-8491-0557cf6a4ff2"},"vehicle_type_id":"4","last_reported":1742235256,"current_range_meters":5600,"station_id":"","pricing_plan_id":"cebpf4jnsgd1na2vs0mg"},{"bike_id":"0d8b3370-b5a3-47aa-92d2-4427f4f52485","system_id":"levelo_inurba_marseille","lat":43.30146,"lon":5.37421,"is_reserved":false,"is_disabled":false,"rental_uris":{"android":"levelo://app?vid=0d8b3370-b5a3-47aa-92d2-4427f4f52485","ios":"levelo://app?vid=0d8b3370-b5a3-47aa-92d2-4427f4f52485"},"vehicle_type_id":"4","last_reported":1742235256,"current_range_meters":4800,"station_id":"ce4bgs92rcd13ifvqcc0","pricing_plan_id":"cebpf4jnsgd1na2vs0mg"},{"bike_id":"ae1e5f30-d81c-4d53-a9eb-c451db1da285","system_id":"levelo_inurba_marseille","lat":43.28359,"lon":5.381,"is_reserved":false,"is_disabled":false,"rental_uris":{"android":"levelo://app?vid=ae1e5f30-d81c-4d53-a9eb-c451db1da285","ios":"levelo://app?vid=ae1e5f30-d81c-4d53-a9eb-c451db1da285"},"vehicle_type_id":"4","last_reported":1742235256,"current_range_meters":5600,"station_id":"ce4bh412rcd13ifvqdr0","pricing_plan_id":"cebpf4jnsgd1na2vs0mg"},{"bike_id":"223c097e-768e-4d7b-bd89-4c59ab060ae9","system_id":"levelo_inurba_marseille","lat":43.27993,"lon":5.41659,"is_reserved":false,"is_disabled":false,"rental_uris":{"android":"levelo://app?vid=223c097e-768e-4d7b-bd89-4c59ab060ae9","ios":"levelo://app?vid=223c097e-768e-4d7b-bd89-4c59ab060ae9"},"vehicle_type_id":"4","last_reported":1742235256,"current_range_meters":5600,"station_id":"ce4bho12rcd13ifvqh1g","pricing_plan_id":"cebpf4jnsgd1na2vs0mg"},{"bike_id":"f87997a6-6498-409c-8146-4f556242baff","system_id":"levelo_inurba_marseille","lat":43.24166,"lon":5.36404,"is_reserved":false,"is_disabled":false,"rental_uris":{"android":"levelo://app?vid=f87997a6-6498-409c-8146-4f556242baff","ios":"levelo://app?vid=f87997a6-6498-409c-8146-4f556242baff"},"vehicle_type_id":"4","last_reported":1742235256,"current_range_meters":6000,"station_id":"cpo36qri1sfpv3e86is0","pricing_plan_id":"cebpf4jnsgd1na2vs0mg"},{"bike_id":"6abf44f0-a02d-4b5a-be11-db9dcd1c360a","system_id":"levelo_inurba_marseille","lat":43.29844,"lon":5.36268,"is_reserved":false,"is_disabled":false,"rental_uris":{"android":"levelo://app?vid=6abf44f0-a02d-4b5a-be11-db9dcd1c360a","ios":"levelo://app?vid=6abf44f0-a02d-4b5a-be11-db9dcd1c360a"},"vehicle_type_id":"4","last_reported":1742235256,"current_range_meters":6000,"station_id":"ce4bgpp2rcd13ifvqc3g","pricing_plan_id":"cebpf4jnsgd1na2vs0mg"},{"bike_id":"71444a67-dfbc-4a22-b971-5a542271d1aa","system_id":"levelo_inurba_marseille","lat":43.28666,"lon":5.3867,"is_reserved":false,"is_disabled":false,"rental_uris":{"android":"levelo://app?vid=71444a67-dfbc-4a22-b971-5a542271d1aa","ios":"levelo://app?vid=71444a67-dfbc-4a22-b971-5a542271d1aa"},"vehicle_type_id":"4","last_reported":1742235256,"current_range_meters":6000,"station_id":"ce4bh492rcd13ifvqdug","pricing_plan_id":"cebpf4jnsgd1na2vs0mg"},{"bike_id":"541fc5df-6a07-4152-ad1d-92914d652869","system_id":"levelo_inurba_marseille","lat":43.29543,"lon":5.39037,"is_reserved":false,"is_disabled":false,"rental_uris":{"android":"levelo://app?vid=541fc5df-6a07-4152-ad1d-92914d652869","ios":"levelo://app?vid=541fc5df-6a07-4152-ad1d-92914d652869"},"vehicle_type_id":"4","last_reported":1742235256,"current_range_meters":6000,"station_id":"ce4bh3p2rcd13ifvqdp0","pricing_plan_id":"cebpf4jnsgd1na2vs0mg"},{"bike_id":"f31da457-6e9b-4ad6-be1d-5ffba7cbc733","system_id":"levelo_inurba_marseille","lat":43.25009,"lon":5.38938,"is_reserved":false,"is_disabled":false,"rental_uris":{"android":"levelo://app?vid=f31da457-6e9b-4ad6-be1d-5ffba7cbc733","ios":"levelo://app?vid=f31da457-6e9b-4ad6-be1d-5ffba7cbc733"},"vehicle_type_id":"4","last_reported":1742235256,"current_range_meters":6000,"station_id":"ce4bhgp2rcd13ifvqfd0","pricing_plan_id":"cebpf4jnsgd1na2vs0mg"},{"bike_id":"5bb38e7a-362b-41b0-a773-374fae536bc9","system_id":"levelo_inurba_marseille","lat":43.28347,"lon":5.38114,"is_reserved":false,"is_disabled":false,"rental_uris":{"android":"levelo://app?vid=5bb38e7a-362b-41b0-a773-374fae536bc9","ios":"levelo://app?vid=5bb38e7a-362b-41b0-a773-374fae536bc9"},"vehicle_type_id":"4","last_reported":1742235256,"current_range_meters":6000,"station_id":"ce4bh412rcd13ifvqdr0","pricing_plan_id":"cebpf4jnsgd1na2vs0mg"},{"bike_id":"88531a84-c602-42aa-9e4f-8f2ca29ef55c","system_id":"levelo_inurba_marseille","lat":43.25091,"lon":5.3952,"is_reserved":false,"is_disabled":false,"rental_uris":{"android":"levelo://app?vid=88531a84-c602-42aa-9e4f-8f2ca29ef55c","ios":"levelo://app?vid=88531a84-c602-42aa-9e4f-8f2ca29ef55c"},"vehicle_type_id":"4","last_reported":1742235256,"current_range_meters":6000,"station_id":"ce4bhm12rcd13ifvqgkg","pricing_plan_id":"cebpf4jnsgd1na2vs0mg"},{"bike_id":"bd95e462-c605-4bd6-b0a6-7ecc3176c361","system_id":"levelo_inurba_marseille","lat":43.27177,"lon":5.40991,"is_reserved":false,"is_disabled":false,"rental_uris":{"android":"levelo://app?vid=bd95e462-c605-4bd6-b0a6-7ecc3176c361","ios":"levelo://app?vid=bd95e462-c605-4bd6-b0a6-7ecc3176c361"},"vehicle_type_id":"4","last_reported":1742235256,"current_range_meters":6000,"station_id":"ce4bhl12rcd13ifvqgf0","pricing_plan_id":"cebpf4jnsgd1na2vs0mg"},{"bike_id":"e76090d8-9555-41bb-877a-c2c40bc3d834","system_id":"levelo_inurba_marseille","lat":43.32109,"lon":5.36772,"is_reserved":false,"is_disabled":false,"rental_uris":{"android":"levelo://app?vid=e76090d8-9555-41bb-877a-c2c40bc3d834","ios":"levelo://app?vid=e76090d8-9555-41bb-877a-c2c40bc3d834"},"vehicle_type_id":"4","last_reported":1742235256,"current_range_meters":6000,"station_id":"ce4bhrh2rcd13ifvqhug","pricing_plan_id":"cebpf4jnsgd1na2vs0mg"},{"bike_id":"2cad790d-8767-4dde-a366-83aeeac91662","system_id":"levelo_inurba_marseille","lat":43.2418,"lon":5.39729,"is_reserved":false,"is_disabled":false,"rental_uris":{"android":"levelo://app?vid=2cad790d-8767-4dde-a366-83aeeac91662","ios":"levelo://app?vid=2cad790d-8767-4dde-a366-83aeeac91662"},"vehicle_type_id":"4","last_reported":1742235256,"current_range_meters":6000,"station_id":"ce4bhn12rcd13ifvqgpg","pricing_plan_id":"cebpf4jnsgd1na2vs0mg"},{"bike_id":"a156d38d-c587-49b6-879d-43f4f5296b6d","system_id":"levelo_inurba_marseille","lat":43.26578,"lon":5.39009,"is_reserved":false,"is_disabled":true,"rental_uris":{"android":"levelo://app?vid=a156d38d-c587-49b6-879d-43f4f5296b6d","ios":"levelo://app?vid=a156d38d-c587-49b6-879d-43f4f5296b6d"},"vehicle_type_id":"4","last_reported":1742235256,"current_range_meters":6000,"station_id":"ce4bhe12rcd13ifvqf30","pricing_plan_id":"cebpf4jnsgd1na2vs0mg"},{"bike_id":"1c4c62ee-739b-4e5e-894a-ae7098a7b6a7","system_id":"levelo_inurba_marseille","lat":43.31322,"lon":5.36718,"is_reserved":false,"is_disabled":false,"rental_uris":{"android":"levelo://app?vid=1c4c62ee-739b-4e5e-894a-ae7098a7b6a7","ios":"levelo://app?vid=1c4c62ee-739b-4e5e-894a-ae7098a7b6a7"},"vehicle_type_id":"4","last_reported":1742235256,"current_range_meters":6400,"station_id":"ce4bgr92rcd13ifvqc6g","pricing_plan_id":"cebpf4jnsgd1na2vs0mg"},{"bike_id":"3c98965b-df3d-48d1-92c2-168854572632","system_id":"levelo_inurba_marseille","lat":43.26786,"lon":5.39415,"is_reserved":false,"is_disabled":false,"rental_uris":{"android":"levelo://app?vid=3c98965b-df3d-48d1-92c2-168854572632","ios":"levelo://app?vid=3c98965b-df3d-48d1-92c2-168854572632"},"vehicle_type_id":"4","last_reported":1742235256,"current_range_meters":6000,"station_id":"ce4bhh12rcd13ifvqfg0","pricing_plan_id":"cebpf4jnsgd1na2vs0mg"},{"bike_id":"e4fe9363-eae5-4b9e-b569-0901d653aa8b","system_id":"levelo_inurba_marseille","lat":43.26566,"lon":5.39009,"is_reserved":false,"is_disabled":false,"rental_uris":{"android":"levelo://app?vid=e4fe9363-eae5-4b9e-b569-0901d653aa8b","ios":"levelo://app?vid=e4fe9363-eae5-4b9e-b569-0901d653aa8b"},"vehicle_type_id":"4","last_reported":1742235256,"current_range_meters":6400,"station_id":"ce4bhe12rcd13ifvqf30","pricing_plan_id":"cebpf4jnsgd1na2vs0mg"},{"bike_id":"5c904e4d-7d4e-4898-b016-f5d399d447c9","system_id":"levelo_inurba_marseille","lat":43.298,"lon":5.404,"is_reserved":false,"is_disabled":false,"rental_uris":{"android":"levelo://app?vid=5c904e4d-7d4e-4898-b016-f5d399d447c9","ios":"levelo://app?vid=5c904e4d-7d4e-4898-b016-f5d399d447c9"},"vehicle_type_id":"4","last_reported":1742235256,"current_range_meters":6400,"station_id":"ce4bh112rcd13ifvqd90","pricing_plan_id":"cebpf4jnsgd1na2vs0mg"},{"bike_id":"728b3c33-4762-4943-8e4d-67c88c8cd107","system_id":"levelo_inurba_marseille","lat":43.29789,"lon":5.38117,"is_reserved":false,"is_disabled":false,"rental_uris":{"android":"levelo://app?vid=728b3c33-4762-4943-8e4d-67c88c8cd107","ios":"levelo://app?vid=728b3c33-4762-4943-8e4d-67c88c8cd107"},"vehicle_type_id":"4","last_reported":1742235256,"current_range_meters":6400,"station_id":"ce4bgip2rcd13ifvqbb0","pricing_plan_id":"cebpf4jnsgd1na2vs0mg"},{"bike_id":"a1652038-ac69-46c1-96cf-f0a7292a55cd","system_id":"levelo_inurba_marseille","lat":43.286178,"lon":5.351003,"is_reserved":false,"is_disabled":false,"rental_uris":{"android":"levelo://app?vid=a1652038-ac69-46c1-96cf-f0a7292a55cd","ios":"levelo://app?vid=a1652038-ac69-46c1-96cf-f0a7292a55cd"},"vehicle_type_id":"4","last_reported":1742235256,"current_range_meters":6400,"station_id":"ce4bhch2rcd13ifvqeug","pricing_plan_id":"cebpf4jnsgd1na2vs0mg"},{"bike_id":"b29a0463-5e75-49d5-8955-7693d791a747","system_id":"levelo_inurba_marseille","lat":43.27615,"lon":5.36139,"is_reserved":false,"is_disabled":false,"rental_uris":{"android":"levelo://app?vid=b29a0463-5e75-49d5-8955-7693d791a747","ios":"levelo://app?vid=b29a0463-5e75-49d5-8955-7693d791a747"},"vehicle_type_id":"4","last_reported":1742235256,"current_range_meters":6400,"station_id":"ce4bgj92rcd13ifvqbe0","pricing_plan_id":"cebpf4jnsgd1na2vs0mg"},{"bike_id":"cc365fea-66f1-4bd6-bbfd-5eda25825812","system_id":"levelo_inurba_marseille","lat":43.32647,"lon":5.40995,"is_reserved":false,"is_disabled":false,"rental_uris":{"android":"levelo://app?vid=cc365fea-66f1-4bd6-bbfd-5eda25825812","ios":"levelo://app?vid=cc365fea-66f1-4bd6-bbfd-5eda25825812"},"vehicle_type_id":"4","last_reported":1742235256,"current_range_meters":6400,"station_id":"ce4bhpp2rcd13ifvqhgg","pricing_plan_id":"cebpf4jnsgd1na2vs0mg"},{"bike_id":"c2e58ad5-5aa6-4185-906b-d5978f407bff","system_id":"levelo_inurba_marseille","lat":43.28448,"lon":5.39209,"is_reserved":false,"is_disabled":false,"rental_uris":{"android":"levelo://app?vid=c2e58ad5-5aa6-4185-906b-d5978f407bff","ios":"levelo://app?vid=c2e58ad5-5aa6-4185-906b-d5978f407bff"},"vehicle_type_id":"4","last_reported":1742235256,"current_range_meters":6800,"station_id":"ce4bhoh2rcd13ifvqh5g","pricing_plan_id":"cebpf4jnsgd1na2vs0mg"},{"bike_id":"cd6bd228-ec34-418f-8538-14abbf44a6a3","system_id":"levelo_inurba_marseille","lat":43.31979,"lon":5.37401,"is_reserved":false,"is_disabled":false,"rental_uris":{"android":"levelo://app?vid=cd6bd228-ec34-418f-8538-14abbf44a6a3","ios":"levelo://app?vid=cd6bd228-ec34-418f-8538-14abbf44a6a3"},"vehicle_type_id":"4","last_reported":1742235256,"current_range_meters":6800,"station_id":"","pricing_plan_id":"cebpf4jnsgd1na2vs0mg"},{"bike_id":"3fc0f90a-ab8b-46e2-8527-8cc184a651fb","system_id":"levelo_inurba_marseille","lat":43.29629,"lon":5.37705,"is_reserved":false,"is_disabled":false,"rental_uris":{"android":"levelo://app?vid=3fc0f90a-ab8b-46e2-8527-8cc184a651fb","ios":"levelo://app?vid=3fc0f90a-ab8b-46e2-8527-8cc184a651fb"},"vehicle_type_id":"4","last_reported":1742235256,"current_range_meters":6800,"station_id":"ce4bgi92rcd13ifvqb90","pricing_plan_id":"cebpf4jnsgd1na2vs0mg"},{"bike_id":"14cd229a-e82f-4d5d-bc54-5bd7b491925a","system_id":"levelo_inurba_marseille","lat":43.23201,"lon":5.40004,"is_reserved":false,"is_disabled":false,"rental_uris":{"android":"levelo://app?vid=14cd229a-e82f-4d5d-bc54-5bd7b491925a","ios":"levelo://app?vid=14cd229a-e82f-4d5d-bc54-5bd7b491925a"},"vehicle_type_id":"4","last_reported":1742235256,"current_range_meters":6800,"station_id":"ce4bhn12rcd13ifvqgqg","pricing_plan_id":"cebpf4jnsgd1na2vs0mg"},{"bike_id":"0ffb8409-551c-4a1d-bba3-6290337fb542","system_id":"levelo_inurba_marseille","lat":43.2803,"lon":5.4162,"is_reserved":false,"is_disabled":false,"rental_uris":{"android":"levelo://app?vid=0ffb8409-551c-4a1d-bba3-6290337fb542","ios":"levelo://app?vid=0ffb8409-551c-4a1d-bba3-6290337fb542"},"vehicle_type_id":"4","last_reported":1742235256,"current_range_meters":6800,"station_id":"","pricing_plan_id":"cebpf4jnsgd1na2vs0mg"},{"bike_id":"6078d1f1-b9bf-4f01-a708-ec37bfd1d3d9","system_id":"levelo_inurba_marseille","lat":43.26946,"lon":5.40254,"is_reserved":false,"is_disabled":false,"rental_uris":{"android":"levelo://app?vid=6078d1f1-b9bf-4f01-a708-ec37bfd1d3d9","ios":"levelo://app?vid=6078d1f1-b9bf-4f01-a708-ec37bfd1d3d9"},"vehicle_type_id":"4","last_reported":1742235256,"current_range_meters":6800,"station_id":"cjm6bp8fraef2m0cb0m0","pricing_plan_id":"cebpf4jnsgd1na2vs0mg"},{"bike_id":"7ee5d4c8-239d-4423-9a63-5d19080ff94e","system_id":"levelo_inurba_marseille","lat":43.26581,"lon":5.39035,"is_reserved":false,"is_disabled":false,"rental_uris":{"android":"levelo://app?vid=7ee5d4c8-239d-4423-9a63-5d19080ff94e","ios":"levelo://app?vid=7ee5d4c8-239d-4423-9a63-5d19080ff94e"},"vehicle_type_id":"4","last_reported":1742235256,"current_range_meters":6800,"station_id":"ce4bhe12rcd13ifvqf30","pricing_plan_id":"cebpf4jnsgd1na2vs0mg"},{"bike_id":"427f8971-810b-41c5-adaa-7bb62f1efb21","system_id":"levelo_inurba_marseille","lat":43.24637,"lon":5.38921,"is_reserved":false,"is_disabled":false,"rental_uris":{"android":"levelo://app?vid=427f8971-810b-41c5-adaa-7bb62f1efb21","ios":"levelo://app?vid=427f8971-810b-41c5-adaa-7bb62f1efb21"},"vehicle_type_id":"4","last_reported":1742235256,"current_range_meters":6800,"station_id":"ce4bhg12rcd13ifvqf60","pricing_plan_id":"cebpf4jnsgd1na2vs0mg"},{"bike_id":"3fb52932-5480-41a7-9647-c5a9100c3c67","system_id":"levelo_inurba_marseille","lat":43.32356,"lon":5.38917,"is_reserved":false,"is_disabled":false,"rental_uris":{"android":"levelo://app?vid=3fb52932-5480-41a7-9647-c5a9100c3c67","ios":"levelo://app?vid=3fb52932-5480-41a7-9647-c5a9100c3c67"},"vehicle_type_id":"4","last_reported":1742235256,"current_range_meters":7200,"station_id":"ce4bhqp2rcd13ifvqhog","pricing_plan_id":"cebpf4jnsgd1na2vs0mg"},{"bike_id":"74620aff-b1f0-4b60-8841-bc8a0a2edc3e","system_id":"levelo_inurba_marseille","lat":43.23195,"lon":5.35559,"is_reserved":false,"is_disabled":false,"rental_uris":{"android":"levelo://app?vid=74620aff-b1f0-4b60-8841-bc8a0a2edc3e","ios":"levelo://app?vid=74620aff-b1f0-4b60-8841-bc8a0a2edc3e"},"vehicle_type_id":"4","last_reported":1742235256,"current_range_meters":7200,"station_id":"ce4bhu92rcd13ifvqi70","pricing_plan_id":"cebpf4jnsgd1na2vs0mg"},{"bike_id":"0b60e72b-d8b1-4266-9b63-b94b87c1ad4b","system_id":"levelo_inurba_marseille","lat":43.23194,"lon":5.3998,"is_reserved":false,"is_disabled":false,"rental_uris":{"android":"levelo://app?vid=0b60e72b-d8b1-4266-9b63-b94b87c1ad4b","ios":"levelo://app?vid=0b60e72b-d8b1-4266-9b63-b94b87c1ad4b"},"vehicle_type_id":"4","last_reported":1742235256,"current_range_meters":7200,"station_id":"ce4bhn12rcd13ifvqgqg","pricing_plan_id":"cebpf4jnsgd1na2vs0mg"},{"bike_id":"ad604410-c96a-4d39-8ab5-5f20ba3effb6","system_id":"levelo_inurba_marseille","lat":43.29871,"lon":5.36264,"is_reserved":false,"is_disabled":false,"rental_uris":{"android":"levelo://app?vid=ad604410-c96a-4d39-8ab5-5f20ba3effb6","ios":"levelo://app?vid=ad604410-c96a-4d39-8ab5-5f20ba3effb6"},"vehicle_type_id":"4","last_reported":1742235256,"current_range_meters":4800,"station_id":"ce4bgpp2rcd13ifvqc3g","pricing_plan_id":"cebpf4jnsgd1na2vs0mg"},{"bike_id":"d1676c12-45d0-460a-ab7d-e6bd42a8628c","system_id":"levelo_inurba_marseille","lat":43.25943,"lon":5.40902,"is_reserved":false,"is_disabled":false,"rental_uris":{"android":"levelo://app?vid=d1676c12-45d0-460a-ab7d-e6bd42a8628c","ios":"levelo://app?vid=d1676c12-45d0-460a-ab7d-e6bd42a8628c"},"vehicle_type_id":"4","last_reported":1742235256,"current_range_meters":7200,"station_id":"ce4bhm92rcd13ifvqglg","pricing_plan_id":"cebpf4jnsgd1na2vs0mg"},{"bike_id":"abd48a52-c8cc-4abb-a801-8dce64155a4a","system_id":"levelo_inurba_marseille","lat":43.2499,"lon":5.38938,"is_reserved":false,"is_disabled":false,"rental_uris":{"android":"levelo://app?vid=abd48a52-c8cc-4abb-a801-8dce64155a4a","ios":"levelo://app?vid=abd48a52-c8cc-4abb-a801-8dce64155a4a"},"vehicle_type_id":"4","last_reported":1742235256,"current_range_meters":7200,"station_id":"ce4bhgp2rcd13ifvqfd0","pricing_plan_id":"cebpf4jnsgd1na2vs0mg"},{"bike_id":"bde96ba6-be71-4846-af55-f3cc04e28d8c","system_id":"levelo_inurba_marseille","lat":43.29851,"lon":5.36286,"is_reserved":false,"is_disabled":false,"rental_uris":{"android":"levelo://app?vid=bde96ba6-be71-4846-af55-f3cc04e28d8c","ios":"levelo://app?vid=bde96ba6-be71-4846-af55-f3cc04e28d8c"},"vehicle_type_id":"4","last_reported":1742235256,"current_range_meters":7200,"station_id":"ce4bgpp2rcd13ifvqc3g","pricing_plan_id":"cebpf4jnsgd1na2vs0mg"},{"bike_id":"e39f083d-4542-4f7b-9173-1e8fe9e09597","system_id":"levelo_inurba_marseille","lat":43.27506,"lon":5.424843,"is_reserved":false,"is_disabled":true,"rental_uris":{"android":"levelo://app?vid=e39f083d-4542-4f7b-9173-1e8fe9e09597","ios":"levelo://app?vid=e39f083d-4542-4f7b-9173-1e8fe9e09597"},"vehicle_type_id":"4","last_reported":1742235256,"current_range_meters":7200,"station_id":"ce4bhn92rcd13ifvqgrg","pricing_plan_id":"cebpf4jnsgd1na2vs0mg"},{"bike_id":"a5343c1d-a5de-406c-92a3-764110836e8f","system_id":"levelo_inurba_marseille","lat":43.29517,"lon":5.39041,"is_reserved":false,"is_disabled":false,"rental_uris":{"android":"levelo://app?vid=a5343c1d-a5de-406c-92a3-764110836e8f","ios":"levelo://app?vid=a5343c1d-a5de-406c-92a3-764110836e8f"},"vehicle_type_id":"4","last_reported":1742235256,"current_range_meters":7200,"station_id":"ce4bh3p2rcd13ifvqdp0","pricing_plan_id":"cebpf4jnsgd1na2vs0mg"},{"bike_id":"a561f3af-dc1c-4af4-b9a4-ead55b35e495","system_id":"levelo_inurba_marseille","lat":43.23212,"lon":5.35574,"is_reserved":false,"is_disabled":false,"rental_uris":{"android":"levelo://app?vid=a561f3af-dc1c-4af4-b9a4-ead55b35e495","ios":"levelo://app?vid=a561f3af-dc1c-4af4-b9a4-ead55b35e495"},"vehicle_type_id":"4","last_reported":1742235256,"current_range_meters":7200,"station_id":"ce4bhu92rcd13ifvqi70","pricing_plan_id":"cebpf4jnsgd1na2vs0mg"},{"bike_id":"72b4107b-accc-419b-b1c2-f49ab58a640b","system_id":"levelo_inurba_marseille","lat":43.31262,"lon":5.40172,"is_reserved":false,"is_disabled":false,"rental_uris":{"android":"levelo://app?vid=72b4107b-accc-419b-b1c2-f49ab58a640b","ios":"levelo://app?vid=72b4107b-accc-419b-b1c2-f49ab58a640b"},"vehicle_type_id":"4","last_reported":1742235256,"current_range_meters":6800,"station_id":"ce4bh092rcd13ifvqd30","pricing_plan_id":"cebpf4jnsgd1na2vs0mg"},{"bike_id":"4a82e9fa-897e-4db9-9848-eca7bdecdfdc","system_id":"levelo_inurba_marseille","lat":43.27913,"lon":5.38238,"is_reserved":false,"is_disabled":false,"rental_uris":{"android":"levelo://app?vid=4a82e9fa-897e-4db9-9848-eca7bdecdfdc","ios":"levelo://app?vid=4a82e9fa-897e-4db9-9848-eca7bdecdfdc"},"vehicle_type_id":"4","last_reported":1742235256,"current_range_meters":7200,"station_id":"","pricing_plan_id":"cebpf4jnsgd1na2vs0mg"},{"bike_id":"be0289a3-c694-4723-a319-e430c03eab9c","system_id":"levelo_inurba_marseille","lat":43.2803,"lon":5.36935,"is_reserved":false,"is_disabled":false,"rental_uris":{"android":"levelo://app?vid=be0289a3-c694-4723-a319-e430c03eab9c","ios":"levelo://app?vid=be0289a3-c694-4723-a319-e430c03eab9c"},"vehicle_type_id":"4","last_reported":1742235256,"current_range_meters":6800,"station_id":"ce4bha12rcd13ifvqef0","pricing_plan_id":"cebpf4jnsgd1na2vs0mg"},{"bike_id":"6b8ffa9f-0e09-4bfb-a7c9-f730a8d18a65","system_id":"levelo_inurba_marseille","lat":43.24397,"lon":5.37064,"is_reserved":false,"is_disabled":false,"rental_uris":{"android":"levelo://app?vid=6b8ffa9f-0e09-4bfb-a7c9-f730a8d18a65","ios":"levelo://app?vid=6b8ffa9f-0e09-4bfb-a7c9-f730a8d18a65"},"vehicle_type_id":"4","last_reported":1742235256,"current_range_meters":7200,"station_id":"ce4bhhh2rcd13ifvqfk0","pricing_plan_id":"cebpf4jnsgd1na2vs0mg"},{"bike_id":"607496c0-5a33-47b9-ad9d-59952d6063d6","system_id":"levelo_inurba_marseille","lat":43.3108,"lon":5.38351,"is_reserved":false,"is_disabled":false,"rental_uris":{"android":"levelo://app?vid=607496c0-5a33-47b9-ad9d-59952d6063d6","ios":"levelo://app?vid=607496c0-5a33-47b9-ad9d-59952d6063d6"},"vehicle_type_id":"4","last_reported":1742235256,"current_range_meters":7200,"station_id":"ce4bgv92rcd13ifvqcr0","pricing_plan_id":"cebpf4jnsgd1na2vs0mg"},{"bike_id":"ef9b20c2-24a5-462d-8f71-a0b89cbc915f","system_id":"levelo_inurba_marseille","lat":43.26045,"lon":5.41763,"is_reserved":false,"is_disabled":false,"rental_uris":{"android":"levelo://app?vid=ef9b20c2-24a5-462d-8f71-a0b89cbc915f","ios":"levelo://app?vid=ef9b20c2-24a5-462d-8f71-a0b89cbc915f"},"vehicle_type_id":"4","last_reported":1742235256,"current_range_meters":8000,"station_id":"","pricing_plan_id":"cebpf4jnsgd1na2vs0mg"},{"bike_id":"2fe6b5d4-c6f7-40d2-9a0b-4798d57f392b","system_id":"levelo_inurba_marseille","lat":43.23104,"lon":5.35472,"is_reserved":false,"is_disabled":false,"rental_uris":{"android":"levelo://app?vid=2fe6b5d4-c6f7-40d2-9a0b-4798d57f392b","ios":"levelo://app?vid=2fe6b5d4-c6f7-40d2-9a0b-4798d57f392b"},"vehicle_type_id":"4","last_reported":1742235256,"current_range_meters":8000,"station_id":"","pricing_plan_id":"cebpf4jnsgd1na2vs0mg"},{"bike_id":"eb2324ae-6d73-4dfe-93dc-cd4f0dffd928","system_id":"levelo_inurba_marseille","lat":43.27989,"lon":5.41658,"is_reserved":false,"is_disabled":false,"rental_uris":{"android":"levelo://app?vid=eb2324ae-6d73-4dfe-93dc-cd4f0dffd928","ios":"levelo://app?vid=eb2324ae-6d73-4dfe-93dc-cd4f0dffd928"},"vehicle_type_id":"4","last_reported":1742235256,"current_range_meters":8000,"station_id":"ce4bho12rcd13ifvqh1g","pricing_plan_id":"cebpf4jnsgd1na2vs0mg"},{"bike_id":"c483a682-e751-4f8c-bf03-eebb9f81e26c","system_id":"levelo_inurba_marseille","lat":43.26484,"lon":5.39556,"is_reserved":false,"is_disabled":false,"rental_uris":{"android":"levelo://app?vid=c483a682-e751-4f8c-bf03-eebb9f81e26c","ios":"levelo://app?vid=c483a682-e751-4f8c-bf03-eebb9f81e26c"},"vehicle_type_id":"4","last_reported":1742235256,"current_range_meters":8000,"station_id":"ce4bhi12rcd13ifvqfq0","pricing_plan_id":"cebpf4jnsgd1na2vs0mg"},{"bike_id":"021238b5-2b9d-46d2-b80c-a5e816fdc135","system_id":"levelo_inurba_marseille","lat":43.29515,"lon":5.42487,"is_reserved":false,"is_disabled":false,"rental_uris":{"android":"levelo://app?vid=021238b5-2b9d-46d2-b80c-a5e816fdc135","ios":"levelo://app?vid=021238b5-2b9d-46d2-b80c-a5e816fdc135"},"vehicle_type_id":"4","last_reported":1742235256,"current_range_meters":8000,"station_id":"","pricing_plan_id":"cebpf4jnsgd1na2vs0mg"},{"bike_id":"06093d11-ae9e-4558-8a11-324154d88448","system_id":"levelo_inurba_marseille","lat":43.28667,"lon":5.36351,"is_reserved":false,"is_disabled":false,"rental_uris":{"android":"levelo://app?vid=06093d11-ae9e-4558-8a11-324154d88448","ios":"levelo://app?vid=06093d11-ae9e-4558-8a11-324154d88448"},"vehicle_type_id":"4","last_reported":1742235256,"current_range_meters":8000,"station_id":"ce4bhah2rcd13ifvqej0","pricing_plan_id":"cebpf4jnsgd1na2vs0mg"},{"bike_id":"1eef6fe9-8462-4804-b1c7-1b92116f17de","system_id":"levelo_inurba_marseille","lat":43.31767,"lon":5.39063,"is_reserved":false,"is_disabled":false,"rental_uris":{"android":"levelo://app?vid=1eef6fe9-8462-4804-b1c7-1b92116f17de","ios":"levelo://app?vid=1eef6fe9-8462-4804-b1c7-1b92116f17de"},"vehicle_type_id":"4","last_reported":1742235256,"current_range_meters":8000,"station_id":"ce4bhqp2rcd13ifvqhng","pricing_plan_id":"cebpf4jnsgd1na2vs0mg"},{"bike_id":"2b7011fc-7dee-42c2-86d6-7293fa23c29b","system_id":"levelo_inurba_marseille","lat":43.286136,"lon":5.35108,"is_reserved":false,"is_disabled":true,"rental_uris":{"android":"levelo://app?vid=2b7011fc-7dee-42c2-86d6-7293fa23c29b","ios":"levelo://app?vid=2b7011fc-7dee-42c2-86d6-7293fa23c29b"},"vehicle_type_id":"4","last_reported":1742235256,"current_range_meters":8000,"station_id":"","pricing_plan_id":"cebpf4jnsgd1na2vs0mg"},{"bike_id":"8ed59062-d874-4b51-897b-02ca75af8bab","system_id":"levelo_inurba_marseille","lat":43.28714,"lon":5.37938,"is_reserved":false,"is_disabled":false,"rental_uris":{"android":"levelo://app?vid=8ed59062-d874-4b51-897b-02ca75af8bab","ios":"levelo://app?vid=8ed59062-d874-4b51-897b-02ca75af8bab"},"vehicle_type_id":"4","last_reported":1742235256,"current_range_meters":7200,"station_id":"ce4bh9p2rcd13ifvqec0","pricing_plan_id":"cebpf4jnsgd1na2vs0mg"},{"bike_id":"d3b8b1cc-fa39-4a2e-ab69-5b350a5ddff1","system_id":"levelo_inurba_marseille","lat":43.29523,"lon":5.39403,"is_reserved":false,"is_disabled":false,"rental_uris":{"android":"levelo://app?vid=d3b8b1cc-fa39-4a2e-ab69-5b350a5ddff1","ios":"levelo://app?vid=d3b8b1cc-fa39-4a2e-ab69-5b350a5ddff1"},"vehicle_type_id":"4","last_reported":1742235256,"current_range_meters":8000,"station_id":"ce4bh292rcd13ifvqdf0","pricing_plan_id":"cebpf4jnsgd1na2vs0mg"},{"bike_id":"0a018086-283c-4259-a1ff-a9304b066761","system_id":"levelo_inurba_marseille","lat":43.25021,"lon":5.38906,"is_reserved":false,"is_disabled":false,"rental_uris":{"android":"levelo://app?vid=0a018086-283c-4259-a1ff-a9304b066761","ios":"levelo://app?vid=0a018086-283c-4259-a1ff-a9304b066761"},"vehicle_type_id":"4","last_reported":1742235256,"current_range_meters":8000,"station_id":"ce4bhgp2rcd13ifvqfd0","pricing_plan_id":"cebpf4jnsgd1na2vs0mg"},{"bike_id":"ca7f3700-362d-415c-9d66-52d9402681ad","system_id":"levelo_inurba_marseille","lat":43.28689,"lon":5.38666,"is_reserved":false,"is_disabled":false,"rental_uris":{"android":"levelo://app?vid=ca7f3700-362d-415c-9d66-52d9402681ad","ios":"levelo://app?vid=ca7f3700-362d-415c-9d66-52d9402681ad"},"vehicle_type_id":"4","last_reported":1742235256,"current_range_meters":8400,"station_id":"ce4bh492rcd13ifvqdug","pricing_plan_id":"cebpf4jnsgd1na2vs0mg"},{"bike_id":"35521dd3-72f7-493f-a095-4dcb781b273f","system_id":"levelo_inurba_marseille","lat":43.29864,"lon":5.36306,"is_reserved":false,"is_disabled":false,"rental_uris":{"android":"levelo://app?vid=35521dd3-72f7-493f-a095-4dcb781b273f","ios":"levelo://app?vid=35521dd3-72f7-493f-a095-4dcb781b273f"},"vehicle_type_id":"4","last_reported":1742235256,"current_range_meters":8400,"station_id":"ce4bgpp2rcd13ifvqc3g","pricing_plan_id":"cebpf4jnsgd1na2vs0mg"},{"bike_id":"986b9465-7cb9-4e44-98c2-ad89b6231d6f","system_id":"levelo_inurba_marseille","lat":43.29848,"lon":5.36284,"is_reserved":false,"is_disabled":false,"rental_uris":{"android":"levelo://app?vid=986b9465-7cb9-4e44-98c2-ad89b6231d6f","ios":"levelo://app?vid=986b9465-7cb9-4e44-98c2-ad89b6231d6f"},"vehicle_type_id":"4","last_reported":1742235256,"current_range_meters":8400,"station_id":"ce4bgpp2rcd13ifvqc3g","pricing_plan_id":"cebpf4jnsgd1na2vs0mg"},{"bike_id":"7d78064c-9d5b-481b-8cfa-a1a183540f06","system_id":"levelo_inurba_marseille","lat":43.3132,"lon":5.39688,"is_reserved":false,"is_disabled":false,"rental_uris":{"android":"levelo://app?vid=7d78064c-9d5b-481b-8cfa-a1a183540f06","ios":"levelo://app?vid=7d78064c-9d5b-481b-8cfa-a1a183540f06"},"vehicle_type_id":"4","last_reported":1742235256,"current_range_meters":8400,"station_id":"ce4bgvp2rcd13ifvqcu0","pricing_plan_id":"cebpf4jnsgd1na2vs0mg"},{"bike_id":"9dcb622a-e621-4cef-b659-02a845217b91","system_id":"levelo_inurba_marseille","lat":43.32353,"lon":5.38898,"is_reserved":false,"is_disabled":false,"rental_uris":{"android":"levelo://app?vid=9dcb622a-e621-4cef-b659-02a845217b91","ios":"levelo://app?vid=9dcb622a-e621-4cef-b659-02a845217b91"},"vehicle_type_id":"4","last_reported":1742235256,"current_range_meters":8400,"station_id":"ce4bhqp2rcd13ifvqhog","pricing_plan_id":"cebpf4jnsgd1na2vs0mg"},{"bike_id":"b0d4f5f0-79ce-4a3f-92ac-2959ecb2dee0","system_id":"levelo_inurba_marseille","lat":43.33054,"lon":5.39035,"is_reserved":false,"is_disabled":false,"rental_uris":{"android":"levelo://app?vid=b0d4f5f0-79ce-4a3f-92ac-2959ecb2dee0","ios":"levelo://app?vid=b0d4f5f0-79ce-4a3f-92ac-2959ecb2dee0"},"vehicle_type_id":"4","last_reported":1742235256,"current_range_meters":8400,"station_id":"ce4bhr92rcd13ifvqhrg","pricing_plan_id":"cebpf4jnsgd1na2vs0mg"},{"bike_id":"807d1c46-1543-4f63-8003-0d789a8aaaa9","system_id":"levelo_inurba_marseille","lat":43.27944,"lon":5.41045,"is_reserved":false,"is_disabled":false,"rental_uris":{"android":"levelo://app?vid=807d1c46-1543-4f63-8003-0d789a8aaaa9","ios":"levelo://app?vid=807d1c46-1543-4f63-8003-0d789a8aaaa9"},"vehicle_type_id":"4","last_reported":1742235256,"current_range_meters":8400,"station_id":"ce4bhnp2rcd13ifvqh0g","pricing_plan_id":"cebpf4jnsgd1na2vs0mg"},{"bike_id":"0ef35fa4-b9fd-4b69-81cd-8bd6986e652d","system_id":"levelo_inurba_marseille","lat":43.298407,"lon":5.362787,"is_reserved":false,"is_disabled":false,"rental_uris":{"android":"levelo://app?vid=0ef35fa4-b9fd-4b69-81cd-8bd6986e652d","ios":"levelo://app?vid=0ef35fa4-b9fd-4b69-81cd-8bd6986e652d"},"vehicle_type_id":"4","last_reported":1742235256,"current_range_meters":8400,"station_id":"ce4bgpp2rcd13ifvqc3g","pricing_plan_id":"cebpf4jnsgd1na2vs0mg"},{"bike_id":"9cd5ee77-b199-4ddc-ba0e-23e934c945b6","system_id":"levelo_inurba_marseille","lat":43.29851,"lon":5.36262,"is_reserved":false,"is_disabled":false,"rental_uris":{"android":"levelo://app?vid=9cd5ee77-b199-4ddc-ba0e-23e934c945b6","ios":"levelo://app?vid=9cd5ee77-b199-4ddc-ba0e-23e934c945b6"},"vehicle_type_id":"4","last_reported":1742235256,"current_range_meters":8400,"station_id":"ce4bgpp2rcd13ifvqc3g","pricing_plan_id":"cebpf4jnsgd1na2vs0mg"},{"bike_id":"f49ac960-bb37-4310-9da5-2585431506ef","system_id":"levelo_inurba_marseille","lat":43.29844,"lon":5.36277,"is_reserved":false,"is_disabled":false,"rental_uris":{"android":"levelo://app?vid=f49ac960-bb37-4310-9da5-2585431506ef","ios":"levelo://app?vid=f49ac960-bb37-4310-9da5-2585431506ef"},"vehicle_type_id":"4","last_reported":1742235256,"current_range_meters":8400,"station_id":"ce4bgpp2rcd13ifvqc3g","pricing_plan_id":"cebpf4jnsgd1na2vs0mg"},{"bike_id":"f0510cd6-bc99-450d-9347-4437ecfe414b","system_id":"levelo_inurba_marseille","lat":43.29446,"lon":5.39752,"is_reserved":false,"is_disabled":false,"rental_uris":{"android":"levelo://app?vid=f0510cd6-bc99-450d-9347-4437ecfe414b","ios":"levelo://app?vid=f0510cd6-bc99-450d-9347-4437ecfe414b"},"vehicle_type_id":"4","last_reported":1742235256,"current_range_meters":8400,"station_id":"ce4bh3h2rcd13ifvqdo0","pricing_plan_id":"cebpf4jnsgd1na2vs0mg"},{"bike_id":"1c03193c-3de9-48a8-b9e1-23407e1876a9","system_id":"levelo_inurba_marseille","lat":43.30641,"lon":5.40068,"is_reserved":false,"is_disabled":false,"rental_uris":{"android":"levelo://app?vid=1c03193c-3de9-48a8-b9e1-23407e1876a9","ios":"levelo://app?vid=1c03193c-3de9-48a8-b9e1-23407e1876a9"},"vehicle_type_id":"4","last_reported":1742235256,"current_range_meters":8400,"station_id":"ce4bh112rcd13ifvqda0","pricing_plan_id":"cebpf4jnsgd1na2vs0mg"},{"bike_id":"a632a65b-90be-4449-a4d3-8f1019c735fb","system_id":"levelo_inurba_marseille","lat":43.29851,"lon":5.36284,"is_reserved":false,"is_disabled":false,"rental_uris":{"android":"levelo://app?vid=a632a65b-90be-4449-a4d3-8f1019c735fb","ios":"levelo://app?vid=a632a65b-90be-4449-a4d3-8f1019c735fb"},"vehicle_type_id":"4","last_reported":1742235256,"current_range_meters":8400,"station_id":"ce4bgpp2rcd13ifvqc3g","pricing_plan_id":"cebpf4jnsgd1na2vs0mg"},{"bike_id":"9ee8265a-0fdc-4849-933f-8351e6c3b1de","system_id":"levelo_inurba_marseille","lat":43.23194,"lon":5.40004,"is_reserved":false,"is_disabled":false,"rental_uris":{"android":"levelo://app?vid=9ee8265a-0fdc-4849-933f-8351e6c3b1de","ios":"levelo://app?vid=9ee8265a-0fdc-4849-933f-8351e6c3b1de"},"vehicle_type_id":"4","last_reported":1742235256,"current_range_meters":8400,"station_id":"ce4bhn12rcd13ifvqgqg","pricing_plan_id":"cebpf4jnsgd1na2vs0mg"},{"bike_id":"c610338b-0008-4d1e-8a0a-c61418d52eac","system_id":"levelo_inurba_marseille","lat":43.31103,"lon":5.42426,"is_reserved":false,"is_disabled":false,"rental_uris":{"android":"levelo://app?vid=c610338b-0008-4d1e-8a0a-c61418d52eac","ios":"levelo://app?vid=c610338b-0008-4d1e-8a0a-c61418d52eac"},"vehicle_type_id":"4","last_reported":1742235256,"current_range_meters":8400,"station_id":"ce4bhp92rcd13ifvqhag","pricing_plan_id":"cebpf4jnsgd1na2vs0mg"},{"bike_id":"feccfcdc-7f39-44b9-8a91-5009f6fc4e5f","system_id":"levelo_inurba_marseille","lat":43.27053,"lon":5.40263,"is_reserved":false,"is_disabled":false,"rental_uris":{"android":"levelo://app?vid=feccfcdc-7f39-44b9-8a91-5009f6fc4e5f","ios":"levelo://app?vid=feccfcdc-7f39-44b9-8a91-5009f6fc4e5f"},"vehicle_type_id":"4","last_reported":1742235256,"current_range_meters":8800,"station_id":"ce4bhk92rcd13ifvqgc0","pricing_plan_id":"cebpf4jnsgd1na2vs0mg"},{"bike_id":"ada663a7-05cd-4c4e-8f48-76dd4898878e","system_id":"levelo_inurba_marseille","lat":43.27805,"lon":5.40716,"is_reserved":false,"is_disabled":false,"rental_uris":{"android":"levelo://app?vid=ada663a7-05cd-4c4e-8f48-76dd4898878e","ios":"levelo://app?vid=ada663a7-05cd-4c4e-8f48-76dd4898878e"},"vehicle_type_id":"4","last_reported":1742235256,"current_range_meters":8800,"station_id":"ce4bhnh2rcd13ifvqgtg","pricing_plan_id":"cebpf4jnsgd1na2vs0mg"},{"bike_id":"0d126537-def7-47c3-bba6-892f83e3c00f","system_id":"levelo_inurba_marseille","lat":43.25011,"lon":5.3894,"is_reserved":false,"is_disabled":false,"rental_uris":{"android":"levelo://app?vid=0d126537-def7-47c3-bba6-892f83e3c00f","ios":"levelo://app?vid=0d126537-def7-47c3-bba6-892f83e3c00f"},"vehicle_type_id":"4","last_reported":1742235256,"current_range_meters":8800,"station_id":"ce4bhgp2rcd13ifvqfd0","pricing_plan_id":"cebpf4jnsgd1na2vs0mg"},{"bike_id":"59e86cae-ac0f-40d3-bc8f-a9641b9734d4","system_id":"levelo_inurba_marseille","lat":43.28156,"lon":5.42649,"is_reserved":false,"is_disabled":false,"rental_uris":{"android":"levelo://app?vid=59e86cae-ac0f-40d3-bc8f-a9641b9734d4","ios":"levelo://app?vid=59e86cae-ac0f-40d3-bc8f-a9641b9734d4"},"vehicle_type_id":"4","last_reported":1742235256,"current_range_meters":8800,"station_id":"ce4bhnh2rcd13ifvqgug","pricing_plan_id":"cebpf4jnsgd1na2vs0mg"},{"bike_id":"65c38077-fb03-47d0-b3d3-85fc93161494","system_id":"levelo_inurba_marseille","lat":43.28032,"lon":5.36949,"is_reserved":false,"is_disabled":false,"rental_uris":{"android":"levelo://app?vid=65c38077-fb03-47d0-b3d3-85fc93161494","ios":"levelo://app?vid=65c38077-fb03-47d0-b3d3-85fc93161494"},"vehicle_type_id":"4","last_reported":1742235256,"current_range_meters":8800,"station_id":"ce4bha12rcd13ifvqef0","pricing_plan_id":"cebpf4jnsgd1na2vs0mg"},{"bike_id":"73ba6054-b256-49f9-a881-8617a962027d","system_id":"levelo_inurba_marseille","lat":43.23039,"lon":5.35546,"is_reserved":false,"is_disabled":false,"rental_uris":{"android":"levelo://app?vid=73ba6054-b256-49f9-a881-8617a962027d","ios":"levelo://app?vid=73ba6054-b256-49f9-a881-8617a962027d"},"vehicle_type_id":"4","last_reported":1742235256,"current_range_meters":8800,"station_id":"cpo3342slgdg3j2ifvpg","pricing_plan_id":"cebpf4jnsgd1na2vs0mg"},{"bike_id":"ba22b769-c7e4-474a-a7e5-3ff558251ffd","system_id":"levelo_inurba_marseille","lat":43.2558,"lon":5.38231,"is_reserved":false,"is_disabled":false,"rental_uris":{"android":"levelo://app?vid=ba22b769-c7e4-474a-a7e5-3ff558251ffd","ios":"levelo://app?vid=ba22b769-c7e4-474a-a7e5-3ff558251ffd"},"vehicle_type_id":"4","last_reported":1742235256,"current_range_meters":8800,"station_id":"ce4bhih2rcd13ifvqfs0","pricing_plan_id":"cebpf4jnsgd1na2vs0mg"},{"bike_id":"e95151cd-abc4-4dae-8ab5-1de4cba734f5","system_id":"levelo_inurba_marseille","lat":43.24181,"lon":5.39742,"is_reserved":false,"is_disabled":false,"rental_uris":{"android":"levelo://app?vid=e95151cd-abc4-4dae-8ab5-1de4cba734f5","ios":"levelo://app?vid=e95151cd-abc4-4dae-8ab5-1de4cba734f5"},"vehicle_type_id":"4","last_reported":1742235256,"current_range_meters":8800,"station_id":"ce4bhn12rcd13ifvqgpg","pricing_plan_id":"cebpf4jnsgd1na2vs0mg"},{"bike_id":"fa5f15ab-8994-45e1-84de-31aa4c8b3ced","system_id":"levelo_inurba_marseille","lat":43.23194,"lon":5.35561,"is_reserved":false,"is_disabled":false,"rental_uris":{"android":"levelo://app?vid=fa5f15ab-8994-45e1-84de-31aa4c8b3ced","ios":"levelo://app?vid=fa5f15ab-8994-45e1-84de-31aa4c8b3ced"},"vehicle_type_id":"4","last_reported":1742235256,"current_range_meters":8800,"station_id":"ce4bhu92rcd13ifvqi70","pricing_plan_id":"cebpf4jnsgd1na2vs0mg"},{"bike_id":"7e615ce0-c153-4fe0-a79f-9b214e5b1054","system_id":"levelo_inurba_marseille","lat":43.25577,"lon":5.3825,"is_reserved":false,"is_disabled":true,"rental_uris":{"android":"levelo://app?vid=7e615ce0-c153-4fe0-a79f-9b214e5b1054","ios":"levelo://app?vid=7e615ce0-c153-4fe0-a79f-9b214e5b1054"},"vehicle_type_id":"4","last_reported":1742235256,"current_range_meters":8800,"station_id":"ce4bhih2rcd13ifvqfs0","pricing_plan_id":"cebpf4jnsgd1na2vs0mg"},{"bike_id":"b54a649d-2707-4569-87ee-d2c230e19409","system_id":"levelo_inurba_marseille","lat":43.27456,"lon":5.40883,"is_reserved":false,"is_disabled":false,"rental_uris":{"android":"levelo://app?vid=b54a649d-2707-4569-87ee-d2c230e19409","ios":"levelo://app?vid=b54a649d-2707-4569-87ee-d2c230e19409"},"vehicle_type_id":"4","last_reported":1742235256,"current_range_meters":8800,"station_id":"","pricing_plan_id":"cebpf4jnsgd1na2vs0mg"},{"bike_id":"dd117a7c-a536-40a1-91af-43693b0b8fe5","system_id":"levelo_inurba_marseille","lat":43.25962,"lon":5.40898,"is_reserved":false,"is_disabled":false,"rental_uris":{"android":"levelo://app?vid=dd117a7c-a536-40a1-91af-43693b0b8fe5","ios":"levelo://app?vid=dd117a7c-a536-40a1-91af-43693b0b8fe5"},"vehicle_type_id":"4","last_reported":1742235256,"current_range_meters":8800,"station_id":"ce4bhm92rcd13ifvqglg","pricing_plan_id":"cebpf4jnsgd1na2vs0mg"},{"bike_id":"e82a3408-305a-4b4a-bfb6-332dccb0aa32","system_id":"levelo_inurba_marseille","lat":43.28461,"lon":5.35886,"is_reserved":false,"is_disabled":false,"rental_uris":{"android":"levelo://app?vid=e82a3408-305a-4b4a-bfb6-332dccb0aa32","ios":"levelo://app?vid=e82a3408-305a-4b4a-bfb6-332dccb0aa32"},"vehicle_type_id":"4","last_reported":1742235256,"current_range_meters":8800,"station_id":"ce4bhah2rcd13ifvqei0","pricing_plan_id":"cebpf4jnsgd1na2vs0mg"},{"bike_id":"9f677300-39ee-4bb5-b043-d213f16c81b1","system_id":"levelo_inurba_marseille","lat":43.29291,"lon":5.40171,"is_reserved":false,"is_disabled":false,"rental_uris":{"android":"levelo://app?vid=9f677300-39ee-4bb5-b043-d213f16c81b1","ios":"levelo://app?vid=9f677300-39ee-4bb5-b043-d213f16c81b1"},"vehicle_type_id":"4","last_reported":1742235256,"current_range_meters":8800,"station_id":"ce4bhnh2rcd13ifvqgug","pricing_plan_id":"cebpf4jnsgd1na2vs0mg"},{"bike_id":"5e31fbed-d4b7-49e5-97ef-d23adbdbc443","system_id":"levelo_inurba_marseille","lat":43.25737,"lon":5.41124,"is_reserved":false,"is_disabled":false,"rental_uris":{"android":"levelo://app?vid=5e31fbed-d4b7-49e5-97ef-d23adbdbc443","ios":"levelo://app?vid=5e31fbed-d4b7-49e5-97ef-d23adbdbc443"},"vehicle_type_id":"4","last_reported":1742235256,"current_range_meters":8800,"station_id":"ce4bhkp2rcd13ifvqgd0","pricing_plan_id":"cebpf4jnsgd1na2vs0mg"},{"bike_id":"6d8e8090-a4c7-4966-a3f4-a833922b9e5a","system_id":"levelo_inurba_marseille","lat":43.23193,"lon":5.35572,"is_reserved":false,"is_disabled":false,"rental_uris":{"android":"levelo://app?vid=6d8e8090-a4c7-4966-a3f4-a833922b9e5a","ios":"levelo://app?vid=6d8e8090-a4c7-4966-a3f4-a833922b9e5a"},"vehicle_type_id":"4","last_reported":1742235256,"current_range_meters":9200,"station_id":"ce4bhu92rcd13ifvqi70","pricing_plan_id":"cebpf4jnsgd1na2vs0mg"},{"bike_id":"d155b6d7-4f04-4869-a663-a1baa5b8f97e","system_id":"levelo_inurba_marseille","lat":43.23184,"lon":5.35573,"is_reserved":false,"is_disabled":false,"rental_uris":{"android":"levelo://app?vid=d155b6d7-4f04-4869-a663-a1baa5b8f97e","ios":"levelo://app?vid=d155b6d7-4f04-4869-a663-a1baa5b8f97e"},"vehicle_type_id":"4","last_reported":1742235256,"current_range_meters":9200,"station_id":"ce4bhu92rcd13ifvqi70","pricing_plan_id":"cebpf4jnsgd1na2vs0mg"},{"bike_id":"9ef8209e-f7e0-4b36-b640-caf96ec8d5ee","system_id":"levelo_inurba_marseille","lat":43.25506,"lon":5.37649,"is_reserved":false,"is_disabled":false,"rental_uris":{"android":"levelo://app?vid=9ef8209e-f7e0-4b36-b640-caf96ec8d5ee","ios":"levelo://app?vid=9ef8209e-f7e0-4b36-b640-caf96ec8d5ee"},"vehicle_type_id":"4","last_reported":1742235256,"current_range_meters":9200,"station_id":"ce4bhh12rcd13ifvqff0","pricing_plan_id":"cebpf4jnsgd1na2vs0mg"},{"bike_id":"19d770b0-180d-4437-bdbb-fb5c59a8c500","system_id":"levelo_inurba_marseille","lat":43.31267,"lon":5.40175,"is_reserved":false,"is_disabled":false,"rental_uris":{"android":"levelo://app?vid=19d770b0-180d-4437-bdbb-fb5c59a8c500","ios":"levelo://app?vid=19d770b0-180d-4437-bdbb-fb5c59a8c500"},"vehicle_type_id":"4","last_reported":1742235256,"current_range_meters":8800,"station_id":"ce4bh092rcd13ifvqd30","pricing_plan_id":"cebpf4jnsgd1na2vs0mg"},{"bike_id":"136e3224-78fe-49f0-ab83-398238bd4c97","system_id":"levelo_inurba_marseille","lat":43.26222,"lon":5.37426,"is_reserved":false,"is_disabled":false,"rental_uris":{"android":"levelo://app?vid=136e3224-78fe-49f0-ab83-398238bd4c97","ios":"levelo://app?vid=136e3224-78fe-49f0-ab83-398238bd4c97"},"vehicle_type_id":"4","last_reported":1742235256,"current_range_meters":9200,"station_id":"","pricing_plan_id":"cebpf4jnsgd1na2vs0mg"},{"bike_id":"ca1bc7c9-b9e2-46cc-a555-1a16c25f59d3","system_id":"levelo_inurba_marseille","lat":43.30797,"lon":5.38155,"is_reserved":false,"is_disabled":false,"rental_uris":{"android":"levelo://app?vid=ca1bc7c9-b9e2-46cc-a555-1a16c25f59d3","ios":"levelo://app?vid=ca1bc7c9-b9e2-46cc-a555-1a16c25f59d3"},"vehicle_type_id":"4","last_reported":1742235256,"current_range_meters":9200,"station_id":"ce4bgt12rcd13ifvqce0","pricing_plan_id":"cebpf4jnsgd1na2vs0mg"},{"bike_id":"9b4044b9-a073-4c83-980a-fa6ed0189d7d","system_id":"levelo_inurba_marseille","lat":43.27817,"lon":5.40719,"is_reserved":false,"is_disabled":false,"rental_uris":{"android":"levelo://app?vid=9b4044b9-a073-4c83-980a-fa6ed0189d7d","ios":"levelo://app?vid=9b4044b9-a073-4c83-980a-fa6ed0189d7d"},"vehicle_type_id":"4","last_reported":1742235256,"current_range_meters":9200,"station_id":"ce4bhnh2rcd13ifvqgtg","pricing_plan_id":"cebpf4jnsgd1na2vs0mg"},{"bike_id":"f8931fcf-497c-4cf3-bf3d-754cd13d47c6","system_id":"levelo_inurba_marseille","lat":43.23961,"lon":5.36634,"is_reserved":false,"is_disabled":false,"rental_uris":{"android":"levelo://app?vid=f8931fcf-497c-4cf3-bf3d-754cd13d47c6","ios":"levelo://app?vid=f8931fcf-497c-4cf3-bf3d-754cd13d47c6"},"vehicle_type_id":"4","last_reported":1742235256,"current_range_meters":8800,"station_id":"ce4bhi12rcd13ifvqfp0","pricing_plan_id":"cebpf4jnsgd1na2vs0mg"},{"bike_id":"9e2fcf04-35eb-4c39-98a4-f9f808ee3610","system_id":"levelo_inurba_marseille","lat":43.27845,"lon":5.39211,"is_reserved":false,"is_disabled":false,"rental_uris":{"android":"levelo://app?vid=9e2fcf04-35eb-4c39-98a4-f9f808ee3610","ios":"levelo://app?vid=9e2fcf04-35eb-4c39-98a4-f9f808ee3610"},"vehicle_type_id":"4","last_reported":1742235256,"current_range_meters":9200,"station_id":"ce4bhjp2rcd13ifvqga0","pricing_plan_id":"cebpf4jnsgd1na2vs0mg"},{"bike_id":"62c6e523-34b6-415e-b65b-5fa2996b2e64","system_id":"levelo_inurba_marseille","lat":43.29054,"lon":5.35911,"is_reserved":false,"is_disabled":false,"rental_uris":{"android":"levelo://app?vid=62c6e523-34b6-415e-b65b-5fa2996b2e64","ios":"levelo://app?vid=62c6e523-34b6-415e-b65b-5fa2996b2e64"},"vehicle_type_id":"4","last_reported":1742235256,"current_range_meters":9200,"station_id":"ce4bha92rcd13ifvqeg0","pricing_plan_id":"cebpf4jnsgd1na2vs0mg"},{"bike_id":"cec4eccd-9295-427c-a15b-34c58ab5cda5","system_id":"levelo_inurba_marseille","lat":43.3088,"lon":5.39637,"is_reserved":false,"is_disabled":false,"rental_uris":{"android":"levelo://app?vid=cec4eccd-9295-427c-a15b-34c58ab5cda5","ios":"levelo://app?vid=cec4eccd-9295-427c-a15b-34c58ab5cda5"},"vehicle_type_id":"4","last_reported":1742235256,"current_range_meters":9200,"station_id":"ce4bh012rcd13ifvqcv0","pricing_plan_id":"cebpf4jnsgd1na2vs0mg"},{"bike_id":"cfa7e782-dad6-4dd1-8c87-12f3d6075fb2","system_id":"levelo_inurba_marseille","lat":43.28154,"lon":5.42649,"is_reserved":false,"is_disabled":false,"rental_uris":{"android":"levelo://app?vid=cfa7e782-dad6-4dd1-8c87-12f3d6075fb2","ios":"levelo://app?vid=cfa7e782-dad6-4dd1-8c87-12f3d6075fb2"},"vehicle_type_id":"4","last_reported":1742235256,"current_range_meters":9600,"station_id":"ce4bhnh2rcd13ifvqgug","pricing_plan_id":"cebpf4jnsgd1na2vs0mg"},{"bike_id":"8d98e715-03e1-4d63-8c29-c55918dee619","system_id":"levelo_inurba_marseille","lat":43.28669,"lon":5.38667,"is_reserved":false,"is_disabled":false,"rental_uris":{"android":"levelo://app?vid=8d98e715-03e1-4d63-8c29-c55918dee619","ios":"levelo://app?vid=8d98e715-03e1-4d63-8c29-c55918dee619"},"vehicle_type_id":"4","last_reported":1742235256,"current_range_meters":8000,"station_id":"ce4bh492rcd13ifvqdug","pricing_plan_id":"cebpf4jnsgd1na2vs0mg"},{"bike_id":"4b3690bc-ecde-4409-a4ed-21bd1202d8fe","system_id":"levelo_inurba_marseille","lat":43.30864,"lon":5.38174,"is_reserved":false,"is_disabled":false,"rental_uris":{"android":"levelo://app?vid=4b3690bc-ecde-4409-a4ed-21bd1202d8fe","ios":"levelo://app?vid=4b3690bc-ecde-4409-a4ed-21bd1202d8fe"},"vehicle_type_id":"4","last_reported":1742235256,"current_range_meters":9600,"station_id":"ce4bgt12rcd13ifvqce0","pricing_plan_id":"cebpf4jnsgd1na2vs0mg"},{"bike_id":"95e81ade-a078-4998-88f9-71b08b8e8828","system_id":"levelo_inurba_marseille","lat":43.25116,"lon":5.40338,"is_reserved":false,"is_disabled":false,"rental_uris":{"android":"levelo://app?vid=95e81ade-a078-4998-88f9-71b08b8e8828","ios":"levelo://app?vid=95e81ade-a078-4998-88f9-71b08b8e8828"},"vehicle_type_id":"4","last_reported":1742235256,"current_range_meters":9600,"station_id":"ce4bhlh2rcd13ifvqgig","pricing_plan_id":"cebpf4jnsgd1na2vs0mg"},{"bike_id":"d6ae5921-8e90-4421-8f0f-8dc11835825e","system_id":"levelo_inurba_marseille","lat":43.29902,"lon":5.38148,"is_reserved":false,"is_disabled":false,"rental_uris":{"android":"levelo://app?vid=d6ae5921-8e90-4421-8f0f-8dc11835825e","ios":"levelo://app?vid=d6ae5921-8e90-4421-8f0f-8dc11835825e"},"vehicle_type_id":"4","last_reported":1742235256,"current_range_meters":9600,"station_id":"ce4bgj12rcd13ifvqbc0","pricing_plan_id":"cebpf4jnsgd1na2vs0mg"},{"bike_id":"788ca77b-d202-4ecb-9d3f-69989dd9524d","system_id":"levelo_inurba_marseille","lat":43.25503,"lon":5.37647,"is_reserved":false,"is_disabled":false,"rental_uris":{"android":"levelo://app?vid=788ca77b-d202-4ecb-9d3f-69989dd9524d","ios":"levelo://app?vid=788ca77b-d202-4ecb-9d3f-69989dd9524d"},"vehicle_type_id":"4","last_reported":1742235256,"current_range_meters":9600,"station_id":"ce4bhh12rcd13ifvqff0","pricing_plan_id":"cebpf4jnsgd1na2vs0mg"},{"bike_id":"49756cae-fdea-495e-a81b-0f0589429950","system_id":"levelo_inurba_marseille","lat":43.29516,"lon":5.39045,"is_reserved":false,"is_disabled":false,"rental_uris":{"android":"levelo://app?vid=49756cae-fdea-495e-a81b-0f0589429950","ios":"levelo://app?vid=49756cae-fdea-495e-a81b-0f0589429950"},"vehicle_type_id":"4","last_reported":1742235256,"current_range_meters":9600,"station_id":"ce4bh3p2rcd13ifvqdp0","pricing_plan_id":"cebpf4jnsgd1na2vs0mg"},{"bike_id":"f726d16a-5cce-4273-b849-56297f73384d","system_id":"levelo_inurba_marseille","lat":43.27997,"lon":5.41665,"is_reserved":false,"is_disabled":false,"rental_uris":{"android":"levelo://app?vid=f726d16a-5cce-4273-b849-56297f73384d","ios":"levelo://app?vid=f726d16a-5cce-4273-b849-56297f73384d"},"vehicle_type_id":"4","last_reported":1742235256,"current_range_meters":9600,"station_id":"ce4bho12rcd13ifvqh1g","pricing_plan_id":"cebpf4jnsgd1na2vs0mg"},{"bike_id":"836e6160-43fb-4e74-bca4-6228c501760e","system_id":"levelo_inurba_marseille","lat":43.25503,"lon":5.37668,"is_reserved":false,"is_disabled":false,"rental_uris":{"android":"levelo://app?vid=836e6160-43fb-4e74-bca4-6228c501760e","ios":"levelo://app?vid=836e6160-43fb-4e74-bca4-6228c501760e"},"vehicle_type_id":"4","last_reported":1742235256,"current_range_meters":9600,"station_id":"ce4bhh12rcd13ifvqff0","pricing_plan_id":"cebpf4jnsgd1na2vs0mg"},{"bike_id":"700b903f-1c42-4ee9-a107-c92a99238f5c","system_id":"levelo_inurba_marseille","lat":43.25724,"lon":5.41115,"is_reserved":false,"is_disabled":false,"rental_uris":{"android":"levelo://app?vid=700b903f-1c42-4ee9-a107-c92a99238f5c","ios":"levelo://app?vid=700b903f-1c42-4ee9-a107-c92a99238f5c"},"vehicle_type_id":"4","last_reported":1742235256,"current_range_meters":9600,"station_id":"ce4bhkp2rcd13ifvqgd0","pricing_plan_id":"cebpf4jnsgd1na2vs0mg"},{"bike_id":"489b1b94-c822-4cb8-abab-f6cd6d600b35","system_id":"levelo_inurba_marseille","lat":43.28363,"lon":5.38642,"is_reserved":false,"is_disabled":false,"rental_uris":{"android":"levelo://app?vid=489b1b94-c822-4cb8-abab-f6cd6d600b35","ios":"levelo://app?vid=489b1b94-c822-4cb8-abab-f6cd6d600b35"},"vehicle_type_id":"4","last_reported":1742235256,"current_range_meters":9600,"station_id":"ce4bh492rcd13ifvqdvg","pricing_plan_id":"cebpf4jnsgd1na2vs0mg"},{"bike_id":"b1b41327-66f3-4983-ac80-93a6af2a034d","system_id":"levelo_inurba_marseille","lat":43.23045,"lon":5.35548,"is_reserved":false,"is_disabled":false,"rental_uris":{"android":"levelo://app?vid=b1b41327-66f3-4983-ac80-93a6af2a034d","ios":"levelo://app?vid=b1b41327-66f3-4983-ac80-93a6af2a034d"},"vehicle_type_id":"4","last_reported":1742235256,"current_range_meters":10000,"station_id":"cpo3342slgdg3j2ifvpg","pricing_plan_id":"cebpf4jnsgd1na2vs0mg"},{"bike_id":"9ea07714-058b-4ba8-b854-8b5d6262df3d","system_id":"levelo_inurba_marseille","lat":43.28034,"lon":5.36946,"is_reserved":false,"is_disabled":false,"rental_uris":{"android":"levelo://app?vid=9ea07714-058b-4ba8-b854-8b5d6262df3d","ios":"levelo://app?vid=9ea07714-058b-4ba8-b854-8b5d6262df3d"},"vehicle_type_id":"4","last_reported":1742235256,"current_range_meters":10000,"station_id":"ce4bha12rcd13ifvqef0","pricing_plan_id":"cebpf4jnsgd1na2vs0mg"},{"bike_id":"0d3accb9-853e-4df0-b9d8-4607b8048f46","system_id":"levelo_inurba_marseille","lat":43.2417,"lon":5.36407,"is_reserved":false,"is_disabled":false,"rental_uris":{"android":"levelo://app?vid=0d3accb9-853e-4df0-b9d8-4607b8048f46","ios":"levelo://app?vid=0d3accb9-853e-4df0-b9d8-4607b8048f46"},"vehicle_type_id":"4","last_reported":1742235256,"current_range_meters":10000,"station_id":"cpo36qri1sfpv3e86is0","pricing_plan_id":"cebpf4jnsgd1na2vs0mg"},{"bike_id":"a484158f-66dc-48d6-a932-a39b9a8d1878","system_id":"levelo_inurba_marseille","lat":43.2815,"lon":5.42656,"is_reserved":false,"is_disabled":false,"rental_uris":{"android":"levelo://app?vid=a484158f-66dc-48d6-a932-a39b9a8d1878","ios":"levelo://app?vid=a484158f-66dc-48d6-a932-a39b9a8d1878"},"vehicle_type_id":"4","last_reported":1742235256,"current_range_meters":10000,"station_id":"ce4bhnh2rcd13ifvqgug","pricing_plan_id":"cebpf4jnsgd1na2vs0mg"},{"bike_id":"737a1d64-a21d-4452-b1f9-a22f87a8d6bd","system_id":"levelo_inurba_marseille","lat":43.23053,"lon":5.355,"is_reserved":false,"is_disabled":false,"rental_uris":{"android":"levelo://app?vid=737a1d64-a21d-4452-b1f9-a22f87a8d6bd","ios":"levelo://app?vid=737a1d64-a21d-4452-b1f9-a22f87a8d6bd"},"vehicle_type_id":"4","last_reported":1742235256,"current_range_meters":10000,"station_id":"cpo3342slgdg3j2ifvpg","pricing_plan_id":"cebpf4jnsgd1na2vs0mg"},{"bike_id":"8fe7e33b-57fc-439c-ba02-015988635c80","system_id":"levelo_inurba_marseille","lat":43.27068,"lon":5.42278,"is_reserved":false,"is_disabled":true,"rental_uris":{"android":"levelo://app?vid=8fe7e33b-57fc-439c-ba02-015988635c80","ios":"levelo://app?vid=8fe7e33b-57fc-439c-ba02-015988635c80"},"vehicle_type_id":"4","last_reported":1742235256,"current_range_meters":10000,"station_id":"ce4bhk92rcd13ifvqgb0","pricing_plan_id":"cebpf4jnsgd1na2vs0mg"},{"bike_id":"b60bef2c-6bfc-4ae8-938f-206f337aafdb","system_id":"levelo_inurba_marseille","lat":43.29843,"lon":5.36274,"is_reserved":false,"is_disabled":false,"rental_uris":{"android":"levelo://app?vid=b60bef2c-6bfc-4ae8-938f-206f337aafdb","ios":"levelo://app?vid=b60bef2c-6bfc-4ae8-938f-206f337aafdb"},"vehicle_type_id":"4","last_reported":1742235256,"current_range_meters":10000,"station_id":"ce4bgpp2rcd13ifvqc3g","pricing_plan_id":"cebpf4jnsgd1na2vs0mg"},{"bike_id":"6a709de3-7399-4419-9086-63b742b8fa9e","system_id":"levelo_inurba_marseille","lat":43.304527,"lon":5.389224,"is_reserved":false,"is_disabled":false,"rental_uris":{"android":"levelo://app?vid=6a709de3-7399-4419-9086-63b742b8fa9e","ios":"levelo://app?vid=6a709de3-7399-4419-9086-63b742b8fa9e"},"vehicle_type_id":"4","last_reported":1742235256,"current_range_meters":10800,"station_id":"ce4bh0h2rcd13ifvqd50","pricing_plan_id":"cebpf4jnsgd1na2vs0mg"},{"bike_id":"29d582ed-be23-4b76-b3d3-e74ec596976c","system_id":"levelo_inurba_marseille","lat":43.27837,"lon":5.39208,"is_reserved":false,"is_disabled":false,"rental_uris":{"android":"levelo://app?vid=29d582ed-be23-4b76-b3d3-e74ec596976c","ios":"levelo://app?vid=29d582ed-be23-4b76-b3d3-e74ec596976c"},"vehicle_type_id":"4","last_reported":1742235256,"current_range_meters":10800,"station_id":"ce4bhjp2rcd13ifvqga0","pricing_plan_id":"cebpf4jnsgd1na2vs0mg"},{"bike_id":"7f11dac0-b27b-408d-a7cc-bcc0c3e0137c","system_id":"levelo_inurba_marseille","lat":43.2815,"lon":5.42645,"is_reserved":false,"is_disabled":false,"rental_uris":{"android":"levelo://app?vid=7f11dac0-b27b-408d-a7cc-bcc0c3e0137c","ios":"levelo://app?vid=7f11dac0-b27b-408d-a7cc-bcc0c3e0137c"},"vehicle_type_id":"4","last_reported":1742235256,"current_range_meters":10800,"station_id":"ce4bhnh2rcd13ifvqgug","pricing_plan_id":"cebpf4jnsgd1na2vs0mg"},{"bike_id":"2665cc4b-07ed-4ae6-a66f-2b09983c709d","system_id":"levelo_inurba_marseille","lat":43.33761,"lon":5.37489,"is_reserved":false,"is_disabled":false,"rental_uris":{"android":"levelo://app?vid=2665cc4b-07ed-4ae6-a66f-2b09983c709d","ios":"levelo://app?vid=2665cc4b-07ed-4ae6-a66f-2b09983c709d"},"vehicle_type_id":"4","last_reported":1742235256,"current_range_meters":10800,"station_id":"","pricing_plan_id":"cebpf4jnsgd1na2vs0mg"},{"bike_id":"1d6cac7c-2239-4112-b1eb-4e01e647ab39","system_id":"levelo_inurba_marseille","lat":43.23199,"lon":5.3997,"is_reserved":false,"is_disabled":false,"rental_uris":{"android":"levelo://app?vid=1d6cac7c-2239-4112-b1eb-4e01e647ab39","ios":"levelo://app?vid=1d6cac7c-2239-4112-b1eb-4e01e647ab39"},"vehicle_type_id":"4","last_reported":1742235256,"current_range_meters":10800,"station_id":"ce4bhn12rcd13ifvqgqg","pricing_plan_id":"cebpf4jnsgd1na2vs0mg"},{"bike_id":"9dd2f0ce-4384-407c-8887-2dfb7b368225","system_id":"levelo_inurba_marseille","lat":43.30607,"lon":5.37234,"is_reserved":false,"is_disabled":false,"rental_uris":{"android":"levelo://app?vid=9dd2f0ce-4384-407c-8887-2dfb7b368225","ios":"levelo://app?vid=9dd2f0ce-4384-407c-8887-2dfb7b368225"},"vehicle_type_id":"4","last_reported":1742235256,"current_range_meters":10800,"station_id":"ce4bgqh2rcd13ifvqc4g","pricing_plan_id":"cebpf4jnsgd1na2vs0mg"},{"bike_id":"ac767398-3a37-4b25-a151-49e4b1e3ef78","system_id":"levelo_inurba_marseille","lat":43.25084,"lon":5.39506,"is_reserved":false,"is_disabled":false,"rental_uris":{"android":"levelo://app?vid=ac767398-3a37-4b25-a151-49e4b1e3ef78","ios":"levelo://app?vid=ac767398-3a37-4b25-a151-49e4b1e3ef78"},"vehicle_type_id":"4","last_reported":1742235256,"current_range_meters":10800,"station_id":"ce4bhm12rcd13ifvqgkg","pricing_plan_id":"cebpf4jnsgd1na2vs0mg"},{"bike_id":"73a79ca3-ae2d-4ff8-8fa9-2eb1cf3af867","system_id":"levelo_inurba_marseille","lat":43.29195,"lon":5.35796,"is_reserved":false,"is_disabled":false,"rental_uris":{"android":"levelo://app?vid=73a79ca3-ae2d-4ff8-8fa9-2eb1cf3af867","ios":"levelo://app?vid=73a79ca3-ae2d-4ff8-8fa9-2eb1cf3af867"},"vehicle_type_id":"4","last_reported":1742235256,"current_range_meters":10800,"station_id":"ce4bhb12rcd13ifvqel0","pricing_plan_id":"cebpf4jnsgd1na2vs0mg"},{"bike_id":"0677992e-e762-4cc3-a8e0-bef1b7c26cbf","system_id":"levelo_inurba_marseille","lat":43.24647,"lon":5.38892,"is_reserved":false,"is_disabled":false,"rental_uris":{"android":"levelo://app?vid=0677992e-e762-4cc3-a8e0-bef1b7c26cbf","ios":"levelo://app?vid=0677992e-e762-4cc3-a8e0-bef1b7c26cbf"},"vehicle_type_id":"4","last_reported":1742235256,"current_range_meters":10800,"station_id":"ce4bhg12rcd13ifvqf60","pricing_plan_id":"cebpf4jnsgd1na2vs0mg"},{"bike_id":"bf53558a-323c-40e3-9c37-ac64ba388e1c","system_id":"levelo_inurba_marseille","lat":43.2396,"lon":5.36644,"is_reserved":false,"is_disabled":false,"rental_uris":{"android":"levelo://app?vid=bf53558a-323c-40e3-9c37-ac64ba388e1c","ios":"levelo://app?vid=bf53558a-323c-40e3-9c37-ac64ba388e1c"},"vehicle_type_id":"4","last_reported":1742235256,"current_range_meters":10800,"station_id":"ce4bhi12rcd13ifvqfp0","pricing_plan_id":"cebpf4jnsgd1na2vs0mg"},{"bike_id":"7a8a8ccb-b5ee-4bab-9535-af226cc12302","system_id":"levelo_inurba_marseille","lat":43.29085,"lon":5.42379,"is_reserved":false,"is_disabled":false,"rental_uris":{"android":"levelo://app?vid=7a8a8ccb-b5ee-4bab-9535-af226cc12302","ios":"levelo://app?vid=7a8a8ccb-b5ee-4bab-9535-af226cc12302"},"vehicle_type_id":"4","last_reported":1742235256,"current_range_meters":10800,"station_id":"","pricing_plan_id":"cebpf4jnsgd1na2vs0mg"},{"bike_id":"ba17eb78-f062-4f77-b8b0-1a4a31d62a9e","system_id":"levelo_inurba_marseille","lat":43.25754,"lon":5.41091,"is_reserved":false,"is_disabled":true,"rental_uris":{"android":"levelo://app?vid=ba17eb78-f062-4f77-b8b0-1a4a31d62a9e","ios":"levelo://app?vid=ba17eb78-f062-4f77-b8b0-1a4a31d62a9e"},"vehicle_type_id":"4","last_reported":1742235256,"current_range_meters":10800,"station_id":"ce4bhkp2rcd13ifvqgd0","pricing_plan_id":"cebpf4jnsgd1na2vs0mg"},{"bike_id":"5076799d-06ed-4d7c-89c5-19d849d7f7d4","system_id":"levelo_inurba_marseille","lat":43.30637,"lon":5.40097,"is_reserved":false,"is_disabled":false,"rental_uris":{"android":"levelo://app?vid=5076799d-06ed-4d7c-89c5-19d849d7f7d4","ios":"levelo://app?vid=5076799d-06ed-4d7c-89c5-19d849d7f7d4"},"vehicle_type_id":"4","last_reported":1742235256,"current_range_meters":11200,"station_id":"ce4bh112rcd13ifvqda0","pricing_plan_id":"cebpf4jnsgd1na2vs0mg"},{"bike_id":"06e6eede-4ecb-4319-9d79-1a567e57af49","system_id":"levelo_inurba_marseille","lat":43.26024,"lon":5.41752,"is_reserved":false,"is_disabled":false,"rental_uris":{"android":"levelo://app?vid=06e6eede-4ecb-4319-9d79-1a567e57af49","ios":"levelo://app?vid=06e6eede-4ecb-4319-9d79-1a567e57af49"},"vehicle_type_id":"4","last_reported":1742235256,"current_range_meters":11200,"station_id":"","pricing_plan_id":"cebpf4jnsgd1na2vs0mg"},{"bike_id":"94fdd1ba-3ffd-4433-8787-ad70688850e1","system_id":"levelo_inurba_marseille","lat":43.24803,"lon":5.37458,"is_reserved":false,"is_disabled":false,"rental_uris":{"android":"levelo://app?vid=94fdd1ba-3ffd-4433-8787-ad70688850e1","ios":"levelo://app?vid=94fdd1ba-3ffd-4433-8787-ad70688850e1"},"vehicle_type_id":"4","last_reported":1742235256,"current_range_meters":11200,"station_id":"ce4bhgh2rcd13ifvqfb0","pricing_plan_id":"cebpf4jnsgd1na2vs0mg"},{"bike_id":"3dc0322f-ab6e-46df-aae4-5c16f0cd9d92","system_id":"levelo_inurba_marseille","lat":43.2957,"lon":5.39963,"is_reserved":false,"is_disabled":false,"rental_uris":{"android":"levelo://app?vid=3dc0322f-ab6e-46df-aae4-5c16f0cd9d92","ios":"levelo://app?vid=3dc0322f-ab6e-46df-aae4-5c16f0cd9d92"},"vehicle_type_id":"4","last_reported":1742235256,"current_range_meters":11200,"station_id":"ce4bh312rcd13ifvqdj0","pricing_plan_id":"cebpf4jnsgd1na2vs0mg"},{"bike_id":"291e9e7f-45e0-453e-82d9-8a41b021ef01","system_id":"levelo_inurba_marseille","lat":43.29569,"lon":5.39974,"is_reserved":false,"is_disabled":false,"rental_uris":{"android":"levelo://app?vid=291e9e7f-45e0-453e-82d9-8a41b021ef01","ios":"levelo://app?vid=291e9e7f-45e0-453e-82d9-8a41b021ef01"},"vehicle_type_id":"4","last_reported":1742235256,"current_range_meters":10800,"station_id":"ce4bh312rcd13ifvqdj0","pricing_plan_id":"cebpf4jnsgd1na2vs0mg"},{"bike_id":"5f11853b-afaa-4f7b-a5d9-3678c83229fa","system_id":"levelo_inurba_marseille","lat":43.32361,"lon":5.40626,"is_reserved":false,"is_disabled":false,"rental_uris":{"android":"levelo://app?vid=5f11853b-afaa-4f7b-a5d9-3678c83229fa","ios":"levelo://app?vid=5f11853b-afaa-4f7b-a5d9-3678c83229fa"},"vehicle_type_id":"4","last_reported":1742235256,"current_range_meters":11200,"station_id":"ce4bhq92rcd13ifvqhjg","pricing_plan_id":"cebpf4jnsgd1na2vs0mg"},{"bike_id":"d4d1e8b8-edbc-4e41-9dcb-d5cc1355f33e","system_id":"levelo_inurba_marseille","lat":43.296214,"lon":5.37173,"is_reserved":false,"is_disabled":false,"rental_uris":{"android":"levelo://app?vid=d4d1e8b8-edbc-4e41-9dcb-d5cc1355f33e","ios":"levelo://app?vid=d4d1e8b8-edbc-4e41-9dcb-d5cc1355f33e"},"vehicle_type_id":"4","last_reported":1742235256,"current_range_meters":11200,"station_id":"ce4bh2h2rcd13ifvqdh0","pricing_plan_id":"cebpf4jnsgd1na2vs0mg"},{"bike_id":"0ab96156-8352-449f-b0e1-89d71869d9a7","system_id":"levelo_inurba_marseille","lat":43.3236,"lon":5.38879,"is_reserved":false,"is_disabled":false,"rental_uris":{"android":"levelo://app?vid=0ab96156-8352-449f-b0e1-89d71869d9a7","ios":"levelo://app?vid=0ab96156-8352-449f-b0e1-89d71869d9a7"},"vehicle_type_id":"4","last_reported":1742235256,"current_range_meters":11600,"station_id":"ce4bhqp2rcd13ifvqhog","pricing_plan_id":"cebpf4jnsgd1na2vs0mg"},{"bike_id":"13cf58df-5147-4d91-a162-42dc98b9d75b","system_id":"levelo_inurba_marseille","lat":43.3104,"lon":5.38078,"is_reserved":false,"is_disabled":false,"rental_uris":{"android":"levelo://app?vid=13cf58df-5147-4d91-a162-42dc98b9d75b","ios":"levelo://app?vid=13cf58df-5147-4d91-a162-42dc98b9d75b"},"vehicle_type_id":"4","last_reported":1742235256,"current_range_meters":11600,"station_id":"","pricing_plan_id":"cebpf4jnsgd1na2vs0mg"},{"bike_id":"adb9e5ab-5f6e-4ade-868c-41b497d90d10","system_id":"levelo_inurba_marseille","lat":43.29845,"lon":5.36266,"is_reserved":false,"is_disabled":false,"rental_uris":{"android":"levelo://app?vid=adb9e5ab-5f6e-4ade-868c-41b497d90d10","ios":"levelo://app?vid=adb9e5ab-5f6e-4ade-868c-41b497d90d10"},"vehicle_type_id":"4","last_reported":1742235256,"current_range_meters":11600,"station_id":"ce4bgpp2rcd13ifvqc3g","pricing_plan_id":"cebpf4jnsgd1na2vs0mg"},{"bike_id":"32d316ac-fbff-4a46-b089-c9659d2f694c","system_id":"levelo_inurba_marseille","lat":43.32992,"lon":5.39097,"is_reserved":false,"is_disabled":false,"rental_uris":{"android":"levelo://app?vid=32d316ac-fbff-4a46-b089-c9659d2f694c","ios":"levelo://app?vid=32d316ac-fbff-4a46-b089-c9659d2f694c"},"vehicle_type_id":"4","last_reported":1742235256,"current_range_meters":11600,"station_id":"","pricing_plan_id":"cebpf4jnsgd1na2vs0mg"},{"bike_id":"b4c0d3d1-6c8e-4d94-88da-187d216918e2","system_id":"levelo_inurba_marseille","lat":43.30812,"lon":5.3816,"is_reserved":false,"is_disabled":false,"rental_uris":{"android":"levelo://app?vid=b4c0d3d1-6c8e-4d94-88da-187d216918e2","ios":"levelo://app?vid=b4c0d3d1-6c8e-4d94-88da-187d216918e2"},"vehicle_type_id":"4","last_reported":1742235256,"current_range_meters":11200,"station_id":"ce4bgt12rcd13ifvqce0","pricing_plan_id":"cebpf4jnsgd1na2vs0mg"},{"bike_id":"42e35520-f310-4cc9-afe0-cc69621e6853","system_id":"levelo_inurba_marseille","lat":43.3236,"lon":5.38921,"is_reserved":false,"is_disabled":false,"rental_uris":{"android":"levelo://app?vid=42e35520-f310-4cc9-afe0-cc69621e6853","ios":"levelo://app?vid=42e35520-f310-4cc9-afe0-cc69621e6853"},"vehicle_type_id":"4","last_reported":1742235256,"current_range_meters":11600,"station_id":"ce4bhqp2rcd13ifvqhog","pricing_plan_id":"cebpf4jnsgd1na2vs0mg"},{"bike_id":"ee54ac11-db4c-4dd1-9f8e-34ff11e58d2c","system_id":"levelo_inurba_marseille","lat":43.26687,"lon":5.38287,"is_reserved":false,"is_disabled":false,"rental_uris":{"android":"levelo://app?vid=ee54ac11-db4c-4dd1-9f8e-34ff11e58d2c","ios":"levelo://app?vid=ee54ac11-db4c-4dd1-9f8e-34ff11e58d2c"},"vehicle_type_id":"4","last_reported":1742235256,"current_range_meters":11600,"station_id":"ce4bhg92rcd13ifvqf90","pricing_plan_id":"cebpf4jnsgd1na2vs0mg"},{"bike_id":"cc127605-97f5-449d-ad23-12b6f80c9639","system_id":"levelo_inurba_marseille","lat":43.29297,"lon":5.37453,"is_reserved":false,"is_disabled":true,"rental_uris":{"android":"levelo://app?vid=cc127605-97f5-449d-ad23-12b6f80c9639","ios":"levelo://app?vid=cc127605-97f5-449d-ad23-12b6f80c9639"},"vehicle_type_id":"4","last_reported":1742235256,"current_range_meters":12000,"station_id":"ce4bgi12rcd13ifvqb70","pricing_plan_id":"cebpf4jnsgd1na2vs0mg"},{"bike_id":"8264681e-b969-498b-82f6-6e5a7d895fd0","system_id":"levelo_inurba_marseille","lat":43.25503,"lon":5.3765,"is_reserved":false,"is_disabled":false,"rental_uris":{"android":"levelo://app?vid=8264681e-b969-498b-82f6-6e5a7d895fd0","ios":"levelo://app?vid=8264681e-b969-498b-82f6-6e5a7d895fd0"},"vehicle_type_id":"4","last_reported":1742235256,"current_range_meters":12000,"station_id":"ce4bhh12rcd13ifvqff0","pricing_plan_id":"cebpf4jnsgd1na2vs0mg"},{"bike_id":"12527f85-a72e-4be2-af47-5cdf2494e740","system_id":"levelo_inurba_marseille","lat":43.32464,"lon":5.39397,"is_reserved":false,"is_disabled":false,"rental_uris":{"android":"levelo://app?vid=12527f85-a72e-4be2-af47-5cdf2494e740","ios":"levelo://app?vid=12527f85-a72e-4be2-af47-5cdf2494e740"},"vehicle_type_id":"4","last_reported":1742235256,"current_range_meters":12400,"station_id":"","pricing_plan_id":"cebpf4jnsgd1na2vs0mg"},{"bike_id":"09be20b3-ccfa-43d5-8616-036d82fe33a0","system_id":"levelo_inurba_marseille","lat":43.24988,"lon":5.38935,"is_reserved":false,"is_disabled":false,"rental_uris":{"android":"levelo://app?vid=09be20b3-ccfa-43d5-8616-036d82fe33a0","ios":"levelo://app?vid=09be20b3-ccfa-43d5-8616-036d82fe33a0"},"vehicle_type_id":"4","last_reported":1742235256,"current_range_meters":12000,"station_id":"ce4bhgp2rcd13ifvqfd0","pricing_plan_id":"cebpf4jnsgd1na2vs0mg"},{"bike_id":"046b5df2-0430-492c-94f2-7f37a38bf37f","system_id":"levelo_inurba_marseille","lat":43.23149,"lon":5.43726,"is_reserved":false,"is_disabled":false,"rental_uris":{"android":"levelo://app?vid=046b5df2-0430-492c-94f2-7f37a38bf37f","ios":"levelo://app?vid=046b5df2-0430-492c-94f2-7f37a38bf37f"},"vehicle_type_id":"4","last_reported":1742235256,"current_range_meters":12000,"station_id":"ce4bhmp2rcd13ifvqgog","pricing_plan_id":"cebpf4jnsgd1na2vs0mg"},{"bike_id":"4bbe6e45-5ba5-40e2-8c34-e62a80efa572","system_id":"levelo_inurba_marseille","lat":43.26512,"lon":5.39564,"is_reserved":false,"is_disabled":false,"rental_uris":{"android":"levelo://app?vid=4bbe6e45-5ba5-40e2-8c34-e62a80efa572","ios":"levelo://app?vid=4bbe6e45-5ba5-40e2-8c34-e62a80efa572"},"vehicle_type_id":"4","last_reported":1742235256,"current_range_meters":12000,"station_id":"ce4bhi12rcd13ifvqfq0","pricing_plan_id":"cebpf4jnsgd1na2vs0mg"},{"bike_id":"bdc92589-0f6b-4ca4-a612-8fa7a236aeb2","system_id":"levelo_inurba_marseille","lat":43.2985,"lon":5.36288,"is_reserved":false,"is_disabled":false,"rental_uris":{"android":"levelo://app?vid=bdc92589-0f6b-4ca4-a612-8fa7a236aeb2","ios":"levelo://app?vid=bdc92589-0f6b-4ca4-a612-8fa7a236aeb2"},"vehicle_type_id":"4","last_reported":1742235256,"current_range_meters":12400,"station_id":"ce4bgpp2rcd13ifvqc3g","pricing_plan_id":"cebpf4jnsgd1na2vs0mg"},{"bike_id":"f1f1528e-2397-4128-ab03-98e7d8a7d729","system_id":"levelo_inurba_marseille","lat":43.28352,"lon":5.38107,"is_reserved":false,"is_disabled":false,"rental_uris":{"android":"levelo://app?vid=f1f1528e-2397-4128-ab03-98e7d8a7d729","ios":"levelo://app?vid=f1f1528e-2397-4128-ab03-98e7d8a7d729"},"vehicle_type_id":"4","last_reported":1742235256,"current_range_meters":12400,"station_id":"ce4bh412rcd13ifvqdr0","pricing_plan_id":"cebpf4jnsgd1na2vs0mg"},{"bike_id":"420d0c1c-c674-4568-acf2-a297a78a8a58","system_id":"levelo_inurba_marseille","lat":43.288574,"lon":5.391507,"is_reserved":false,"is_disabled":false,"rental_uris":{"android":"levelo://app?vid=420d0c1c-c674-4568-acf2-a297a78a8a58","ios":"levelo://app?vid=420d0c1c-c674-4568-acf2-a297a78a8a58"},"vehicle_type_id":"4","last_reported":1742235256,"current_range_meters":12000,"station_id":"ce4bgjh2rcd13ifvqbg0","pricing_plan_id":"cebpf4jnsgd1na2vs0mg"},