{"last_updated":1761865740,"ttl":60,"version":"2.2","data":{"bikes":[{"bike_id":"aacc01e3-6d9f-491a-b1ed-d10f639e29e2","system_id":"levelo_inurba_marseille","lat":43.337444,"lon":5.374475,"is_reserved":false,"is_disabled":false,"rental_uris":{"android":"levelo://app?vid=aacc01e3-6d9f-491a-b1ed-d10f639e29e2","ios":"levelo://app?vid=aacc01e3-6d9f-491a-b1ed-d10f639e29e2"},"vehicle_type_id":"4","last_reported":1761865740,"current_range_meters":0,"station_id":"","pricing_plan_id":"cebpf4jnsgd1na2vs0mg"},{"bike_id":"35ef2eb9-fe09-4124-a7ab-f792dcbd6ddc","system_id":"levelo_inurba_marseille","lat":43.337444,"lon":5.374475,"is_reserved":false,"is_disabled":false,"rental_uris":{"android":"levelo://app?vid=35ef2eb9-fe09-4124-a7ab-f792dcbd6ddc","ios":"levelo://app?vid=35ef2eb9-fe09-4124-a7ab-f792dcbd6ddc"},"vehicle_type_id":"4","last_reported":1761865740,"current_range_meters":0,"station_id":"","pricing_plan_id":"cebpf4jnsgd1na2vs0mg"},{"bike_id":"49ddb7e7-127c-434c-8992-2e05f2e3428d","system_id":"levelo_inurba_marseille","lat":43.337444,"lon":5.374475,"is_reserved":false,"is_disabled":false,"rental_uris":{"android":"levelo://app?vid=49ddb7e7-127c-434c-8992-2e05f2e3428d","ios":"levelo://app?vid=49ddb7e7-127c-434c-8992-2e05f2e3428d"},"vehicle_type_id":"4","last_reported":1761865740,"current_range_meters":0,"station_id":"","pricing_plan_id":"cebpf4jnsgd1na2vs0mg"},{"bike_id":"b3b460c5-2faa-45c2-8fde-7b54e8b4eaf5","system_id":"levelo_inurba_marseille","lat":43.337444,"lon":5.374475,"is_reserved":false,"is_disabled":false,"rental_uris":{"android":"levelo://app?vid=b3b460c5-2faa-45c2-8fde-7b54e8b4eaf5","ios":"levelo://app?vid=b3b460c5-2faa-45c2-8fde-7b54e8b4eaf5"},"vehicle_type_id":"4","last_reported":1761865740,"current_range_meters":0,"station_id":"","pricing_plan_id":"cebpf4jnsgd1na2vs0mg"},{"bike_id":"6b8eeff3-ec31-445f-be43-f1e3ba63fb37","system_id":"levelo_inurba_marseille","lat":43.337416,"lon":5.374586,"is_reserved":false,"is_disabled":false,"rental_uris":{"android":"levelo://app?vid=6b8eeff3-ec31-445f-be43-f1e3ba63fb37","ios":"levelo://app?vid=6b8eeff3-ec31-445f-be43-f1e3ba63fb37"},"vehicle_type_id":"4","last_reported":1761865740,"current_range_meters":0,"station_id":"","pricing_plan_id":"cebpf4jnsgd1na2vs0mg"},{"bike_id":"e0e86d10-d79a-47b9-82ad-a00ae7a62a8a","system_id":"levelo_inurba_marseille","lat":43.337444,"lon":5.374475,"is_reserved":false,"is_disabled":false,"rental_uris":{"android":"levelo://app?vid=e0e86d10-d79a-47b9-82ad-a00ae7a62a8a","ios":"levelo://app?vid=e0e86d10-d79a-47b9-82ad-a00ae7a62a8a"},"vehicle_type_id":"4","last_reported":1761865740,"current_range_meters":0,"station_id":"","pricing_plan_id":"cebpf4jnsgd1na2vs0mg"},{"bike_id":"548f1c45-4f2a-4cfe-b981-5bc1daecb21b","system_id":"levelo_inurba_marseille","lat":43.337444,"lon":5.374475,"is_reserved":false,"is_disabled":false,"rental_uris":{"android":"levelo://app?vid=548f1c45-4f2a-4cfe-b981-5bc1daecb21b","ios":"levelo://app?vid=548f1c45-4f2a-4cfe-b981-5bc1daecb21b"},"vehicle_type_id":"4","last_reported":1761865740,"current_range_meters":0,"station_id":"","pricing_plan_id":"cebpf4jnsgd1na2vs0mg"},{"bike_id":"5260dce0-6ede-4de4-b006-1466527b5fbe","system_id":"levelo_inurba_marseille","lat":43.337444,"lon":5.374475,"is_reserved":false,"is_disabled":false,"rental_uris":{"android":"levelo://app?vid=5260dce0-6ede-4de4-b006-1466527b5fbe","ios":"levelo://app?vid=5260dce0-6ede-4de4-b006-1466527b5fbe"},"vehicle_type_id":"4","last_reported":1761865740,"current_range_meters":0,"station_id":"","pricing_plan_id":"cebpf4jnsgd1na2vs0mg"},{"bike_id":"fb1816a3-8e74-463a-88d2-d6b63cf0a426","system_id":"levelo_inurba_marseille","lat":43.337444,"lon":5.374475,"is_reserved":false,"is_disabled":false,"rental_uris":{"android":"levelo://app?vid=fb1816a3-8e74-463a-88d2-d6b63cf0a426","ios":"levelo://app?vid=fb1816a3-8e74-463a-88d2-d6b63cf0a426"},"vehicle_type_id":"4","last_reported":1761865740,"current_range_meters":0,"station_id":"","pricing_plan_id":"cebpf4jnsgd1na2vs0mg"},{"bike_id":"3c881d8d-608f-4c39-9df3-b2aa54f8afcf","system_id":"levelo_inurba_marseille","lat":43.337444,"lon":5.374475,"is_reserved":false,"is_disabled":false,"rental_uris":{"android":"levelo://app?vid=3c881d8d-608f-4c39-9df3-b2aa54f8afcf","ios":"levelo://app?vid=3c881d8d-608f-4c39-9df3-b2aa54f8afcf"},"vehicle_type_id":"4","last_reported":1761865740,"current_range_meters":0,"station_id":"","pricing_plan_id":"cebpf4jnsgd1na2vs0mg"},{"bike_id":"a26e4937-215f-44d2-a8de-a7d3ec75d32b","system_id":"levelo_inurba_marseille","lat":43.337444,"lon":5.374475,"is_reserved":false,"is_disabled":false,"rental_uris":{"android":"levelo://app?vid=a26e4937-215f-44d2-a8de-a7d3ec75d32b","ios":"levelo://app?vid=a26e4937-215f-44d2-a8de-a7d3ec75d32b"},"vehicle_type_id":"4","last_reported":1761865740,"current_range_meters":0,"station_id":"","pricing_plan_id":"cebpf4jnsgd1na2vs0mg"},{"bike_id":"fadc4e19-b9ad-4402-a5bc-a0eff5c2b634","system_id":"levelo_inurba_marseille","lat":43.337444,"lon":5.374475,"is_reserved":false,"is_disabled":false,"rental_uris":{"android":"levelo://app?vid=fadc4e19-b9ad-4402-a5bc-a0eff5c2b634","ios":"levelo://app?vid=fadc4e19-b9ad-4402-a5bc-a0eff5c2b634"},"vehicle_type_id":"4","last_reported":1761865740,"current_range_meters":0,"station_id":"","pricing_plan_id":"cebpf4jnsgd1na2vs0mg"},{"bike_id":"e294c151-4441-4e4a-a116-13c66dfb9429","system_id":"levelo_inurba_marseille","lat":43.337444,"lon":5.374475,"is_reserved":false,"is_disabled":false,"rental_uris":{"android":"levelo://app?vid=e294c151-4441-4e4a-a116-13c66dfb9429","ios":"levelo://app?vid=e294c151-4441-4e4a-a116-13c66dfb9429"},"vehicle_type_id":"4","last_reported":1761865740,"current_range_meters":0,"station_id":"","pricing_plan_id":"cebpf4jnsgd1na2vs0mg"},{"bike_id":"0baff1cc-f548-40f7-a934-77958566d6a5","system_id":"levelo_inurba_marseille","lat":43.337444,"lon":5.374475,"is_reserved":false,"is_disabled":false,"rental_uris":{"android":"levelo://app?vid=0baff1cc-f548-40f7-a934-77958566d6a5","ios":"levelo://app?vid=0baff1cc-f548-40f7-a934-77958566d6a5"},"vehicle_type_id":"4","last_reported":1761865740,"current_range_meters":0,"station_id":"","pricing_plan_id":"cebpf4jnsgd1na2vs0mg"},{"bike_id":"1310c5d0-e39d-4b9c-84d7-1872f297ff18","system_id":"levelo_inurba_marseille","lat":43.337444,"lon":5.374475,"is_reserved":false,"is_disabled":false,"rental_uris":{"android":"levelo://app?vid=1310c5d0-e39d-4b9c-84d7-1872f297ff18","ios":"levelo://app?vid=1310c5d0-e39d-4b9c-84d7-1872f297ff18"},"vehicle_type_id":"4","last_reported":1761865740,"current_range_meters":0,"station_id":"","pricing_plan_id":"cebpf4jnsgd1na2vs0mg"},{"bike_id":"01eaacf7-8682-4054-bf38-52456d06e6f6","system_id":"levelo_inurba_marseille","lat":43.337444,"lon":5.374475,"is_reserved":false,"is_disabled":false,"rental_uris":{"android":"levelo://app?vid=01eaacf7-8682-4054-bf38-52456d06e6f6","ios":"levelo://app?vid=01eaacf7-8682-4054-bf38-52456d06e6f6"},"vehicle_type_id":"4","last_reported":1761865740,"current_range_meters":0,"station_id":"","pricing_plan_id":"cebpf4jnsgd1na2vs0mg"},{"bike_id":"4dbab57a-b708-409a-b815-3b9a5d92f753","system_id":"levelo_inurba_marseille","lat":43.337444,"lon":5.374475,"is_reserved":false,"is_disabled":false,"rental_uris":{"android":"levelo://app?vid=4dbab57a-b708-409a-b815-3b9a5d92f753","ios":"levelo://app?vid=4dbab57a-b708-409a-b815-3b9a5d92f753"},"vehicle_type_id":"4","last_reported":1761865740,"current_range_meters":0,"station_id":"","pricing_plan_id":"cebpf4jnsgd1na2vs0mg"},{"bike_id":"00f1260a-63f9-4663-ac1e-51258f9213bd","system_id":"levelo_inurba_marseille","lat":43.337444,"lon":5.374475,"is_reserved":false,"is_disabled":false,"rental_uris":{"android":"levelo://app?vid=00f1260a-63f9-4663-ac1e-51258f9213bd","ios":"levelo://app?vid=00f1260a-63f9-4663-ac1e-51258f9213bd"},"vehicle_type_id":"4","last_reported":1761865740,"current_range_meters":0,"station_id":"","pricing_plan_id":"cebpf4jnsgd1na2vs0mg"},{"bike_id":"50aa746e-d71a-437c-bb7a-ed648a03f81b","system_id":"levelo_inurba_marseille","lat":43.337444,"lon":5.374475,"is_reserved":false,"is_disabled":false,"rental_uris":{"android":"levelo://app?vid=50aa746e-d71a-437c-bb7a-ed648a03f81b","ios":"levelo://app?vid=50aa746e-d71a-437c-bb7a-ed648a03f81b"},"vehicle_type_id":"4","last_reported":1761865740,"current_range_meters":0,"station_id":"","pricing_plan_id":"cebpf4jnsgd1na2vs0mg"},{"bike_id":"3e68cf6e-17b6-46f5-8b08-d049449e0ca4","system_id":"levelo_inurba_marseille","lat":43.337444,"lon":5.374475,"is_reserved":false,"is_disabled":false,"rental_uris":{"android":"levelo://app?vid=3e68cf6e-17b6-46f5-8b08-d049449e0ca4","ios":"levelo://app?vid=3e68cf6e-17b6-46f5-8b08-d049449e0ca4"},"vehicle_type_id":"4","last_reported":1761865740,"current_range_meters":0,"station_id":"","pricing_plan_id":"cebpf4jnsgd1na2vs0mg"},{"bike_id":"b06c4997-7e4f-467a-922f-92f2f2e27e9d","system_id":"levelo_inurba_marseille","lat":43.337444,"lon":5.374475,"is_reserved":false,"is_disabled":false,"rental_uris":{"android":"levelo://app?vid=b06c4997-7e4f-467a-922f-92f2f2e27e9d","ios":"levelo://app?vid=b06c4997-7e4f-467a-922f-92f2f2e27e9d"},"vehicle_type_id":"4","last_reported":1761865740,"current_range_meters":0,"station_id":"","pricing_plan_id":"cebpf4jnsgd1na2vs0mg"},{"bike_id":"bb49b980-4cfb-49a5-9add-f3f9d4fc6db5","system_id":"levelo_inurba_marseille","lat":43.337444,"lon":5.374475,"is_reserved":false,"is_disabled":false,"rental_uris":{"android":"levelo://app?vid=bb49b980-4cfb-49a5-9add-f3f9d4fc6db5","ios":"levelo://app?vid=bb49b980-4cfb-49a5-9add-f3f9d4fc6db5"},"vehicle_type_id":"4","last_reported":1761865740,"current_range_meters":0,"station_id":"","pricing_plan_id":"cebpf4jnsgd1na2vs0mg"},{"bike_id":"b97206fc-6c94-4378-926a-a788d4f71c09","system_id":"levelo_inurba_marseille","lat":43.337444,"lon":5.374475,"is_reserved":false,"is_disabled":false,"rental_uris":{"android":"levelo://app?vid=b97206fc-6c94-4378-926a-a788d4f71c09","ios":"levelo://app?vid=b97206fc-6c94-4378-926a-a788d4f71c09"},"vehicle_type_id":"4","last_reported":1761865740,"current_range_meters":0,"station_id":"","pricing_plan_id":"cebpf4jnsgd1na2vs0mg"},{"bike_id":"37d7ebf5-2b3d-4af3-a7cd-4f29f464d5a0","system_id":"levelo_inurba_marseille","lat":43.337444,"lon":5.374475,"is_reserved":false,"is_disabled":false,"rental_uris":{"android":"levelo://app?vid=37d7ebf5-2b3d-4af3-a7cd-4f29f464d5a0","ios":"levelo://app?vid=37d7ebf5-2b3d-4af3-a7cd-4f29f464d5a0"},"vehicle_type_id":"4","last_reported":1761865740,"current_range_meters":0,"station_id":"","pricing_plan_id":"cebpf4jnsgd1na2vs0mg"},{"bike_id":"4ce4318f-b763-4325-8589-2aecbcc80add","system_id":"levelo_inurba_marseille","lat":43.337444,"lon":5.374475,"is_reserved":false,"is_disabled":false,"rental_uris":{"android":"levelo://app?vid=4ce4318f-b763-4325-8589-2aecbcc80add","ios":"levelo://app?vid=4ce4318f-b763-4325-8589-2aecbcc80add"},"vehicle_type_id":"4","last_reported":1761865740,"current_range_meters":0,"station_id":"","pricing_plan_id":"cebpf4jnsgd1na2vs0mg"},{"bike_id":"a6a3a590-5c2a-4683-a516-e9f5572de0f8","system_id":"levelo_inurba_marseille","lat":43.337444,"lon":5.374475,"is_reserved":false,"is_disabled":false,"rental_uris":{"android":"levelo://app?vid=a6a3a590-5c2a-4683-a516-e9f5572de0f8","ios":"levelo://app?vid=a6a3a590-5c2a-4683-a516-e9f5572de0f8"},"vehicle_type_id":"4","last_reported":1761865740,"current_range_meters":0,"station_id":"","pricing_plan_id":"cebpf4jnsgd1na2vs0mg"},{"bike_id":"111bdd74-3ae9-48f5-979c-2e177e7747d9","system_id":"levelo_inurba_marseille","lat":43.337444,"lon":5.374475,"is_reserved":false,"is_disabled":false,"rental_uris":{"android":"levelo://app?vid=111bdd74-3ae9-48f5-979c-2e177e7747d9","ios":"levelo://app?vid=111bdd74-3ae9-48f5-979c-2e177e7747d9"},"vehicle_type_id":"4","last_reported":1761865740,"current_range_meters":0,"station_id":"","pricing_plan_id":"cebpf4jnsgd1na2vs0mg"},{"bike_id":"b9d871b8-65b0-40af-afa3-0bf2492a45a9","system_id":"levelo_inurba_marseille","lat":43.337444,"lon":5.374475,"is_reserved":false,"is_disabled":false,"rental_uris":{"android":"levelo://app?vid=b9d871b8-65b0-40af-afa3-0bf2492a45a9","ios":"levelo://app?vid=b9d871b8-65b0-40af-afa3-0bf2492a45a9"},"vehicle_type_id":"4","last_reported":1761865740,"current_range_meters":0,"station_id":"","pricing_plan_id":"cebpf4jnsgd1na2vs0mg"},{"bike_id":"5bec735e-fcf4-48c7-8bdc-29590fc410b1","system_id":"levelo_inurba_marseille","lat":43.337444,"lon":5.374475,"is_reserved":false,"is_disabled":false,"rental_uris":{"android":"levelo://app?vid=5bec735e-fcf4-48c7-8bdc-29590fc410b1","ios":"levelo://app?vid=5bec735e-fcf4-48c7-8bdc-29590fc410b1"},"vehicle_type_id":"4","last_reported":1761865740,"current_range_meters":0,"station_id":"","pricing_plan_id":"cebpf4jnsgd1na2vs0mg"},{"bike_id":"026e76ec-bb30-48a3-8407-a17635ff5e4d","system_id":"levelo_inurba_marseille","lat":43.337444,"lon":5.374475,"is_reserved":false,"is_disabled":false,"rental_uris":{"android":"levelo://app?vid=026e76ec-bb30-48a3-8407-a17635ff5e4d","ios":"levelo://app?vid=026e76ec-bb30-48a3-8407-a17635ff5e4d"},"vehicle_type_id":"4","last_reported":1761865740,"current_range_meters":0,"station_id":"","pricing_plan_id":"cebpf4jnsgd1na2vs0mg"},{"bike_id":"46d34bff-7ac4-476c-bd3e-8e7dba53c807","system_id":"levelo_inurba_marseille","lat":43.337444,"lon":5.374475,"is_reserved":false,"is_disabled":false,"rental_uris":{"android":"levelo://app?vid=46d34bff-7ac4-476c-bd3e-8e7dba53c807","ios":"levelo://app?vid=46d34bff-7ac4-476c-bd3e-8e7dba53c807"},"vehicle_type_id":"4","last_reported":1761865740,"current_range_meters":0,"station_id":"","pricing_plan_id":"cebpf4jnsgd1na2vs0mg"},{"bike_id":"2c7e37d6-d4ca-47ae-a0e0-a648dd4e1706","system_id":"levelo_inurba_marseille","lat":43.337444,"lon":5.374475,"is_reserved":false,"is_disabled":false,"rental_uris":{"android":"levelo://app?vid=2c7e37d6-d4ca-47ae-a0e0-a648dd4e1706","ios":"levelo://app?vid=2c7e37d6-d4ca-47ae-a0e0-a648dd4e1706"},"vehicle_type_id":"4","last_reported":1761865740,"current_range_meters":0,"station_id":"","pricing_plan_id":"cebpf4jnsgd1na2vs0mg"},{"bike_id":"94eee6a6-2463-4d2a-b222-3ef19356212a","system_id":"levelo_inurba_marseille","lat":43.337444,"lon":5.374475,"is_reserved":false,"is_disabled":false,"rental_uris":{"android":"levelo://app?vid=94eee6a6-2463-4d2a-b222-3ef19356212a","ios":"levelo://app?vid=94eee6a6-2463-4d2a-b222-3ef19356212a"},"vehicle_type_id":"4","last_reported":1761865740,"current_range_meters":0,"station_id":"","pricing_plan_id":"cebpf4jnsgd1na2vs0mg"},{"bike_id":"4592e008-320c-4bcd-ae3b-d140e613f684","system_id":"levelo_inurba_marseille","lat":43.337444,"lon":5.374475,"is_reserved":false,"is_disabled":false,"rental_uris":{"android":"levelo://app?vid=4592e008-320c-4bcd-ae3b-d140e613f684","ios":"levelo://app?vid=4592e008-320c-4bcd-ae3b-d140e613f684"},"vehicle_type_id":"4","last_reported":1761865740,"current_range_meters":0,"station_id":"","pricing_plan_id":"cebpf4jnsgd1na2vs0mg"},{"bike_id":"5807ce94-1b62-42db-8c77-9488accc83d5","system_id":"levelo_inurba_marseille","lat":43.337444,"lon":5.374475,"is_reserved":false,"is_disabled":false,"rental_uris":{"android":"levelo://app?vid=5807ce94-1b62-42db-8c77-9488accc83d5","ios":"levelo://app?vid=5807ce94-1b62-42db-8c77-9488accc83d5"},"vehicle_type_id":"4","last_reported":1761865740,"current_range_meters":0,"station_id":"","pricing_plan_id":"cebpf4jnsgd1na2vs0mg"},{"bike_id":"f6adb9c1-4a78-4322-baec-aa5f6f5d93b6","system_id":"levelo_inurba_marseille","lat":43.337745,"lon":5.374164,"is_reserved":false,"is_disabled":false,"rental_uris":{"android":"levelo://app?vid=f6adb9c1-4a78-4322-baec-aa5f6f5d93b6","ios":"levelo://app?vid=f6adb9c1-4a78-4322-baec-aa5f6f5d93b6"},"vehicle_type_id":"4","last_reported":1761865740,"current_range_meters":2800,"station_id":"","pricing_plan_id":"cebpf4jnsgd1na2vs0mg"},{"bike_id":"df4a7072-9a99-4388-960f-688f83a92f17","system_id":"levelo_inurba_marseille","lat":43.29543,"lon":5.42284,"is_reserved":false,"is_disabled":false,"rental_uris":{"android":"levelo://app?vid=df4a7072-9a99-4388-960f-688f83a92f17","ios":"levelo://app?vid=df4a7072-9a99-4388-960f-688f83a92f17"},"vehicle_type_id":"4","last_reported":1761865740,"current_range_meters":3200,"station_id":"ce4bhph2rcd13ifvqhdg","pricing_plan_id":"cebpf4jnsgd1na2vs0mg"},{"bike_id":"d3debb47-2b08-4b0f-8070-af6b27a5b695","system_id":"levelo_inurba_marseille","lat":43.246605,"lon":5.381683,"is_reserved":false,"is_disabled":false,"rental_uris":{"android":"levelo://app?vid=d3debb47-2b08-4b0f-8070-af6b27a5b695","ios":"levelo://app?vid=d3debb47-2b08-4b0f-8070-af6b27a5b695"},"vehicle_type_id":"4","last_reported":1761865740,"current_range_meters":3600,"station_id":"ce4bhih2rcd13ifvqfr0","pricing_plan_id":"cebpf4jnsgd1na2vs0mg"},{"bike_id":"6e851129-60bc-45d8-b764-b90b56683710","system_id":"levelo_inurba_marseille","lat":43.24096,"lon":5.37764,"is_reserved":false,"is_disabled":false,"rental_uris":{"android":"levelo://app?vid=6e851129-60bc-45d8-b764-b90b56683710","ios":"levelo://app?vid=6e851129-60bc-45d8-b764-b90b56683710"},"vehicle_type_id":"4","last_reported":1761865740,"current_range_meters":3600,"station_id":"ce4bhnp2rcd13ifvqgvg","pricing_plan_id":"cebpf4jnsgd1na2vs0mg"},{"bike_id":"5cb3f363-ac2f-4bc2-ad50-da3965e1e89b","system_id":"levelo_inurba_marseille","lat":43.24564,"lon":5.41565,"is_reserved":false,"is_disabled":false,"rental_uris":{"android":"levelo://app?vid=5cb3f363-ac2f-4bc2-ad50-da3965e1e89b","ios":"levelo://app?vid=5cb3f363-ac2f-4bc2-ad50-da3965e1e89b"},"vehicle_type_id":"4","last_reported":1761865740,"current_range_meters":3600,"station_id":"","pricing_plan_id":"cebpf4jnsgd1na2vs0mg"},{"bike_id":"8ea80026-9ba8-4595-9ad6-123bbf8727cd","system_id":"levelo_inurba_marseille","lat":43.304216,"lon":5.412927,"is_reserved":false,"is_disabled":true,"rental_uris":{"android":"levelo://app?vid=8ea80026-9ba8-4595-9ad6-123bbf8727cd","ios":"levelo://app?vid=8ea80026-9ba8-4595-9ad6-123bbf8727cd"},"vehicle_type_id":"4","last_reported":1761865740,"current_range_meters":4400,"station_id":"ce4bhop2rcd13ifvqh8g","pricing_plan_id":"cebpf4jnsgd1na2vs0mg"},{"bike_id":"69be44dc-11e3-4bf5-80cd-10c987999653","system_id":"levelo_inurba_marseille","lat":43.2587,"lon":5.39899,"is_reserved":false,"is_disabled":false,"rental_uris":{"android":"levelo://app?vid=69be44dc-11e3-4bf5-80cd-10c987999653","ios":"levelo://app?vid=69be44dc-11e3-4bf5-80cd-10c987999653"},"vehicle_type_id":"4","last_reported":1761865740,"current_range_meters":4400,"station_id":"ce4bhl92rcd13ifvqghg","pricing_plan_id":"cebpf4jnsgd1na2vs0mg"},{"bike_id":"c510725f-ffec-46c1-84dd-e3b59acfa4bc","system_id":"levelo_inurba_marseille","lat":43.28926,"lon":5.38378,"is_reserved":false,"is_disabled":false,"rental_uris":{"android":"levelo://app?vid=c510725f-ffec-46c1-84dd-e3b59acfa4bc","ios":"levelo://app?vid=c510725f-ffec-46c1-84dd-e3b59acfa4bc"},"vehicle_type_id":"4","last_reported":1761865740,"current_range_meters":4400,"station_id":"ce4bh612rcd13ifvqe6g","pricing_plan_id":"cebpf4jnsgd1na2vs0mg"},{"bike_id":"ae8ebe94-fc0f-4409-8f77-39eb5c613a67","system_id":"levelo_inurba_marseille","lat":43.337444,"lon":5.374475,"is_reserved":false,"is_disabled":false,"rental_uris":{"android":"levelo://app?vid=ae8ebe94-fc0f-4409-8f77-39eb5c613a67","ios":"levelo://app?vid=ae8ebe94-fc0f-4409-8f77-39eb5c613a67"},"vehicle_type_id":"4","last_reported":1761865740,"current_range_meters":4800,"station_id":"","pricing_plan_id":"cebpf4jnsgd1na2vs0mg"},{"bike_id":"bb46c534-723b-456c-83fa-77999b65808c","system_id":"levelo_inurba_marseille","lat":43.27612,"lon":5.36103,"is_reserved":false,"is_disabled":false,"rental_uris":{"android":"levelo://app?vid=bb46c534-723b-456c-83fa-77999b65808c","ios":"levelo://app?vid=bb46c534-723b-456c-83fa-77999b65808c"},"vehicle_type_id":"4","last_reported":1761865740,"current_range_meters":4800,"station_id":"ce4bgj92rcd13ifvqbe0","pricing_plan_id":"cebpf4jnsgd1na2vs0mg"},{"bike_id":"7db30370-454c-4ea0-a81d-1531212ebfce","system_id":"levelo_inurba_marseille","lat":43.29595,"lon":5.39161,"is_reserved":false,"is_disabled":true,"rental_uris":{"android":"levelo://app?vid=7db30370-454c-4ea0-a81d-1531212ebfce","ios":"levelo://app?vid=7db30370-454c-4ea0-a81d-1531212ebfce"},"vehicle_type_id":"4","last_reported":1761865740,"current_range_meters":5600,"station_id":"","pricing_plan_id":"cebpf4jnsgd1na2vs0mg"},{"bike_id":"04944fad-6a33-4be6-b8b7-aafc6fbab4c1","system_id":"levelo_inurba_marseille","lat":43.3024,"lon":5.40056,"is_reserved":false,"is_disabled":false,"rental_uris":{"android":"levelo://app?vid=04944fad-6a33-4be6-b8b7-aafc6fbab4c1","ios":"levelo://app?vid=04944fad-6a33-4be6-b8b7-aafc6fbab4c1"},"vehicle_type_id":"4","last_reported":1761865740,"current_range_meters":6000,"station_id":"ce4bgvh2rcd13ifvqcs0","pricing_plan_id":"cebpf4jnsgd1na2vs0mg"},{"bike_id":"e2e35269-30a5-4900-acfa-b3db6a523382","system_id":"levelo_inurba_marseille","lat":43.28147,"lon":5.3742,"is_reserved":false,"is_disabled":false,"rental_uris":{"android":"levelo://app?vid=e2e35269-30a5-4900-acfa-b3db6a523382","ios":"levelo://app?vid=e2e35269-30a5-4900-acfa-b3db6a523382"},"vehicle_type_id":"4","last_reported":1761865740,"current_range_meters":6000,"station_id":"","pricing_plan_id":"cebpf4jnsgd1na2vs0mg"},{"bike_id":"484d6367-473d-4872-a0b9-4c61efd856b9","system_id":"levelo_inurba_marseille","lat":43.27942,"lon":5.41047,"is_reserved":false,"is_disabled":false,"rental_uris":{"android":"levelo://app?vid=484d6367-473d-4872-a0b9-4c61efd856b9","ios":"levelo://app?vid=484d6367-473d-4872-a0b9-4c61efd856b9"},"vehicle_type_id":"4","last_reported":1761865740,"current_range_meters":6400,"station_id":"ce4bhnp2rcd13ifvqh0g","pricing_plan_id":"cebpf4jnsgd1na2vs0mg"},{"bike_id":"e2285a6a-1cf7-4ac5-b6a3-c71d320ad08a","system_id":"levelo_inurba_marseille","lat":43.295465,"lon":5.422825,"is_reserved":false,"is_disabled":false,"rental_uris":{"android":"levelo://app?vid=e2285a6a-1cf7-4ac5-b6a3-c71d320ad08a","ios":"levelo://app?vid=e2285a6a-1cf7-4ac5-b6a3-c71d320ad08a"},"vehicle_type_id":"4","last_reported":1761865740,"current_range_meters":6400,"station_id":"ce4bhph2rcd13ifvqhdg","pricing_plan_id":"cebpf4jnsgd1na2vs0mg"},{"bike_id":"c6698ab8-b9c1-4ef6-8d1d-6b190a79e8e9","system_id":"levelo_inurba_marseille","lat":43.3095,"lon":5.37288,"is_reserved":false,"is_disabled":false,"rental_uris":{"android":"levelo://app?vid=c6698ab8-b9c1-4ef6-8d1d-6b190a79e8e9","ios":"levelo://app?vid=c6698ab8-b9c1-4ef6-8d1d-6b190a79e8e9"},"vehicle_type_id":"4","last_reported":1761865740,"current_range_meters":6400,"station_id":"","pricing_plan_id":"cebpf4jnsgd1na2vs0mg"},{"bike_id":"7632d16b-d979-4d51-bdc3-d7a8dfdd012b","system_id":"levelo_inurba_marseille","lat":43.33027,"lon":5.39034,"is_reserved":false,"is_disabled":false,"rental_uris":{"android":"levelo://app?vid=7632d16b-d979-4d51-bdc3-d7a8dfdd012b","ios":"levelo://app?vid=7632d16b-d979-4d51-bdc3-d7a8dfdd012b"},"vehicle_type_id":"4","last_reported":1761865740,"current_range_meters":6400,"station_id":"ce4bhr92rcd13ifvqhrg","pricing_plan_id":"cebpf4jnsgd1na2vs0mg"},{"bike_id":"e6e1c1a9-180c-481b-9d9c-4820cfcb38ea","system_id":"levelo_inurba_marseille","lat":43.3046,"lon":5.37908,"is_reserved":false,"is_disabled":false,"rental_uris":{"android":"levelo://app?vid=e6e1c1a9-180c-481b-9d9c-4820cfcb38ea","ios":"levelo://app?vid=e6e1c1a9-180c-481b-9d9c-4820cfcb38ea"},"vehicle_type_id":"4","last_reported":1761865740,"current_range_meters":6800,"station_id":"ce4bgup2rcd13ifvqcn0","pricing_plan_id":"cebpf4jnsgd1na2vs0mg"},{"bike_id":"74c0f436-7d45-43fe-ae77-36c049e4d21b","system_id":"levelo_inurba_marseille","lat":43.24649,"lon":5.38894,"is_reserved":false,"is_disabled":false,"rental_uris":{"android":"levelo://app?vid=74c0f436-7d45-43fe-ae77-36c049e4d21b","ios":"levelo://app?vid=74c0f436-7d45-43fe-ae77-36c049e4d21b"},"vehicle_type_id":"4","last_reported":1761865740,"current_range_meters":7200,"station_id":"ce4bhg12rcd13ifvqf60","pricing_plan_id":"cebpf4jnsgd1na2vs0mg"},{"bike_id":"d0ec133a-6df4-42fe-b520-5dce0c16e051","system_id":"levelo_inurba_marseille","lat":43.28668,"lon":5.36354,"is_reserved":false,"is_disabled":false,"rental_uris":{"android":"levelo://app?vid=d0ec133a-6df4-42fe-b520-5dce0c16e051","ios":"levelo://app?vid=d0ec133a-6df4-42fe-b520-5dce0c16e051"},"vehicle_type_id":"4","last_reported":1761865740,"current_range_meters":7200,"station_id":"ce4bhah2rcd13ifvqej0","pricing_plan_id":"cebpf4jnsgd1na2vs0mg"},{"bike_id":"7df9efe5-0b17-4b46-859c-97cfc458abfb","system_id":"levelo_inurba_marseille","lat":43.29531,"lon":5.39042,"is_reserved":false,"is_disabled":false,"rental_uris":{"android":"levelo://app?vid=7df9efe5-0b17-4b46-859c-97cfc458abfb","ios":"levelo://app?vid=7df9efe5-0b17-4b46-859c-97cfc458abfb"},"vehicle_type_id":"4","last_reported":1761865740,"current_range_meters":7200,"station_id":"ce4bh3p2rcd13ifvqdp0","pricing_plan_id":"cebpf4jnsgd1na2vs0mg"},{"bike_id":"0d911b40-a5f9-4f8e-97a1-a04a1318b74c","system_id":"levelo_inurba_marseille","lat":43.3039,"lon":5.42468,"is_reserved":false,"is_disabled":false,"rental_uris":{"android":"levelo://app?vid=0d911b40-a5f9-4f8e-97a1-a04a1318b74c","ios":"levelo://app?vid=0d911b40-a5f9-4f8e-97a1-a04a1318b74c"},"vehicle_type_id":"4","last_reported":1761865740,"current_range_meters":7200,"station_id":"ce4bhoh2rcd13ifvqh6g","pricing_plan_id":"cebpf4jnsgd1na2vs0mg"},{"bike_id":"78abc191-d83d-47fd-ba50-61243a381451","system_id":"levelo_inurba_marseille","lat":43.265696,"lon":5.372958,"is_reserved":false,"is_disabled":false,"rental_uris":{"android":"levelo://app?vid=78abc191-d83d-47fd-ba50-61243a381451","ios":"levelo://app?vid=78abc191-d83d-47fd-ba50-61243a381451"},"vehicle_type_id":"4","last_reported":1761865740,"current_range_meters":7200,"station_id":"ce4bhg12rcd13ifvqf70","pricing_plan_id":"cebpf4jnsgd1na2vs0mg"},{"bike_id":"4fa37116-ace8-4674-b234-d1bf4aa1d2c0","system_id":"levelo_inurba_marseille","lat":43.30429,"lon":5.388914,"is_reserved":false,"is_disabled":false,"rental_uris":{"android":"levelo://app?vid=4fa37116-ace8-4674-b234-d1bf4aa1d2c0","ios":"levelo://app?vid=4fa37116-ace8-4674-b234-d1bf4aa1d2c0"},"vehicle_type_id":"4","last_reported":1761865740,"current_range_meters":7200,"station_id":"ce4bgk12rcd13ifvqbi0","pricing_plan_id":"cebpf4jnsgd1na2vs0mg"},{"bike_id":"a879c809-5645-427f-a8c8-432bf0943db5","system_id":"levelo_inurba_marseille","lat":43.29964,"lon":5.38496,"is_reserved":false,"is_disabled":false,"rental_uris":{"android":"levelo://app?vid=a879c809-5645-427f-a8c8-432bf0943db5","ios":"levelo://app?vid=a879c809-5645-427f-a8c8-432bf0943db5"},"vehicle_type_id":"4","last_reported":1761865740,"current_range_meters":7200,"station_id":"ce4bgj92rcd13ifvqbd0","pricing_plan_id":"cebpf4jnsgd1na2vs0mg"},{"bike_id":"d9a3637a-3954-4c82-b9fc-b5f917758005","system_id":"levelo_inurba_marseille","lat":43.282,"lon":5.39057,"is_reserved":false,"is_disabled":true,"rental_uris":{"android":"levelo://app?vid=d9a3637a-3954-4c82-b9fc-b5f917758005","ios":"levelo://app?vid=d9a3637a-3954-4c82-b9fc-b5f917758005"},"vehicle_type_id":"4","last_reported":1761865740,"current_range_meters":8000,"station_id":"ce4bhn92rcd13ifvqgsg","pricing_plan_id":"cebpf4jnsgd1na2vs0mg"},{"bike_id":"17262acb-bf7a-452a-bfa0-197c22d0f542","system_id":"levelo_inurba_marseille","lat":43.28935,"lon":5.36644,"is_reserved":false,"is_disabled":false,"rental_uris":{"android":"levelo://app?vid=17262acb-bf7a-452a-bfa0-197c22d0f542","ios":"levelo://app?vid=17262acb-bf7a-452a-bfa0-197c22d0f542"},"vehicle_type_id":"4","last_reported":1761865740,"current_range_meters":8000,"station_id":"ce4bhap2rcd13ifvqek0","pricing_plan_id":"cebpf4jnsgd1na2vs0mg"},{"bike_id":"faee4aed-34d1-4e59-9f3e-bc2337688920","system_id":"levelo_inurba_marseille","lat":43.31709,"lon":5.4369,"is_reserved":false,"is_disabled":true,"rental_uris":{"android":"levelo://app?vid=faee4aed-34d1-4e59-9f3e-bc2337688920","ios":"levelo://app?vid=faee4aed-34d1-4e59-9f3e-bc2337688920"},"vehicle_type_id":"4","last_reported":1761865740,"current_range_meters":8000,"station_id":"ce4bhp92rcd13ifvqhcg","pricing_plan_id":"cebpf4jnsgd1na2vs0mg"},{"bike_id":"cc2e82cb-5ccb-439b-b8b9-bc00f724273f","system_id":"levelo_inurba_marseille","lat":43.22977,"lon":5.43709,"is_reserved":false,"is_disabled":false,"rental_uris":{"android":"levelo://app?vid=cc2e82cb-5ccb-439b-b8b9-bc00f724273f","ios":"levelo://app?vid=cc2e82cb-5ccb-439b-b8b9-bc00f724273f"},"vehicle_type_id":"4","last_reported":1761865740,"current_range_meters":8000,"station_id":"","pricing_plan_id":"cebpf4jnsgd1na2vs0mg"},{"bike_id":"a130ab64-6e45-4d2d-946a-7990e5f78fbe","system_id":"levelo_inurba_marseille","lat":43.28619,"lon":5.35105,"is_reserved":false,"is_disabled":false,"rental_uris":{"android":"levelo://app?vid=a130ab64-6e45-4d2d-946a-7990e5f78fbe","ios":"levelo://app?vid=a130ab64-6e45-4d2d-946a-7990e5f78fbe"},"vehicle_type_id":"4","last_reported":1761865740,"current_range_meters":8000,"station_id":"ce4bhch2rcd13ifvqeug","pricing_plan_id":"cebpf4jnsgd1na2vs0mg"},{"bike_id":"85afd5da-6093-45b2-8e67-e004b6249797","system_id":"levelo_inurba_marseille","lat":43.284377,"lon":5.391879,"is_reserved":false,"is_disabled":true,"rental_uris":{"android":"levelo://app?vid=85afd5da-6093-45b2-8e67-e004b6249797","ios":"levelo://app?vid=85afd5da-6093-45b2-8e67-e004b6249797"},"vehicle_type_id":"4","last_reported":1761865740,"current_range_meters":8400,"station_id":"ce4bhoh2rcd13ifvqh5g","pricing_plan_id":"cebpf4jnsgd1na2vs0mg"},{"bike_id":"a7641db1-6af1-45f7-ba58-6763f9696759","system_id":"levelo_inurba_marseille","lat":43.29002,"lon":5.35611,"is_reserved":false,"is_disabled":false,"rental_uris":{"android":"levelo://app?vid=a7641db1-6af1-45f7-ba58-6763f9696759","ios":"levelo://app?vid=a7641db1-6af1-45f7-ba58-6763f9696759"},"vehicle_type_id":"4","last_reported":1761865740,"current_range_meters":8400,"station_id":"ce4bhb92rcd13ifvqen0","pricing_plan_id":"cebpf4jnsgd1na2vs0mg"},{"bike_id":"f3feeff6-d410-4cea-8ba1-9870dc4ec990","system_id":"levelo_inurba_marseille","lat":43.3101,"lon":5.3791,"is_reserved":false,"is_disabled":false,"rental_uris":{"android":"levelo://app?vid=f3feeff6-d410-4cea-8ba1-9870dc4ec990","ios":"levelo://app?vid=f3feeff6-d410-4cea-8ba1-9870dc4ec990"},"vehicle_type_id":"4","last_reported":1761865740,"current_range_meters":8400,"station_id":"","pricing_plan_id":"cebpf4jnsgd1na2vs0mg"},{"bike_id":"885646ff-1dcb-4409-8308-385a3600908a","system_id":"levelo_inurba_marseille","lat":43.30075,"lon":5.39068,"is_reserved":false,"is_disabled":false,"rental_uris":{"android":"levelo://app?vid=885646ff-1dcb-4409-8308-385a3600908a","ios":"levelo://app?vid=885646ff-1dcb-4409-8308-385a3600908a"},"vehicle_type_id":"4","last_reported":1761865740,"current_range_meters":8800,"station_id":"ce4bh192rcd13ifvqdb0","pricing_plan_id":"cebpf4jnsgd1na2vs0mg"},{"bike_id":"46f3e991-c55b-4d9d-9a37-f9e3e15f4f3f","system_id":"levelo_inurba_marseille","lat":43.2121,"lon":5.35063,"is_reserved":false,"is_disabled":false,"rental_uris":{"android":"levelo://app?vid=46f3e991-c55b-4d9d-9a37-f9e3e15f4f3f","ios":"levelo://app?vid=46f3e991-c55b-4d9d-9a37-f9e3e15f4f3f"},"vehicle_type_id":"4","last_reported":1761865740,"current_range_meters":8800,"station_id":"st_cvj6sg6p6f1abm77japg","pricing_plan_id":"cebpf4jnsgd1na2vs0mg"},{"bike_id":"3df12c8b-ae59-46b4-980b-bec69ed3fb32","system_id":"levelo_inurba_marseille","lat":43.29869,"lon":5.39738,"is_reserved":false,"is_disabled":false,"rental_uris":{"android":"levelo://app?vid=3df12c8b-ae59-46b4-980b-bec69ed3fb32","ios":"levelo://app?vid=3df12c8b-ae59-46b4-980b-bec69ed3fb32"},"vehicle_type_id":"4","last_reported":1761865740,"current_range_meters":8800,"station_id":"ce4bh0h2rcd13ifvqd50","pricing_plan_id":"cebpf4jnsgd1na2vs0mg"},{"bike_id":"3a217d2d-0c7e-4d79-a702-b9135e90946e","system_id":"levelo_inurba_marseille","lat":43.28159,"lon":5.42642,"is_reserved":false,"is_disabled":false,"rental_uris":{"android":"levelo://app?vid=3a217d2d-0c7e-4d79-a702-b9135e90946e","ios":"levelo://app?vid=3a217d2d-0c7e-4d79-a702-b9135e90946e"},"vehicle_type_id":"4","last_reported":1761865740,"current_range_meters":8800,"station_id":"ce4bhnh2rcd13ifvqgug","pricing_plan_id":"cebpf4jnsgd1na2vs0mg"},{"bike_id":"b3f41dc7-cc1a-48e1-8c06-2060615b1de8","system_id":"levelo_inurba_marseille","lat":43.31721,"lon":5.42394,"is_reserved":false,"is_disabled":false,"rental_uris":{"android":"levelo://app?vid=b3f41dc7-cc1a-48e1-8c06-2060615b1de8","ios":"levelo://app?vid=b3f41dc7-cc1a-48e1-8c06-2060615b1de8"},"vehicle_type_id":"4","last_reported":1761865740,"current_range_meters":8800,"station_id":"ce4bhp92rcd13ifvqhbg","pricing_plan_id":"cebpf4jnsgd1na2vs0mg"},{"bike_id":"22878d24-6d09-4c78-8701-97568c72061f","system_id":"levelo_inurba_marseille","lat":43.30794,"lon":5.37657,"is_reserved":false,"is_disabled":false,"rental_uris":{"android":"levelo://app?vid=22878d24-6d09-4c78-8701-97568c72061f","ios":"levelo://app?vid=22878d24-6d09-4c78-8701-97568c72061f"},"vehicle_type_id":"4","last_reported":1761865740,"current_range_meters":9200,"station_id":"ce4bgv92rcd13ifvqcq0","pricing_plan_id":"cebpf4jnsgd1na2vs0mg"},{"bike_id":"59fc4896-d387-43ff-9fc6-2d5ab0606c0c","system_id":"levelo_inurba_marseille","lat":43.2847,"lon":5.35894,"is_reserved":false,"is_disabled":false,"rental_uris":{"android":"levelo://app?vid=59fc4896-d387-43ff-9fc6-2d5ab0606c0c","ios":"levelo://app?vid=59fc4896-d387-43ff-9fc6-2d5ab0606c0c"},"vehicle_type_id":"4","last_reported":1761865740,"current_range_meters":9200,"station_id":"ce4bhah2rcd13ifvqei0","pricing_plan_id":"cebpf4jnsgd1na2vs0mg"},{"bike_id":"8cbb1c06-31b7-44a5-b5a6-5cda47381cde","system_id":"levelo_inurba_marseille","lat":43.28869,"lon":5.3585,"is_reserved":false,"is_disabled":false,"rental_uris":{"android":"levelo://app?vid=8cbb1c06-31b7-44a5-b5a6-5cda47381cde","ios":"levelo://app?vid=8cbb1c06-31b7-44a5-b5a6-5cda47381cde"},"vehicle_type_id":"4","last_reported":1761865740,"current_range_meters":9200,"station_id":"ce4bhb12rcd13ifvqem0","pricing_plan_id":"cebpf4jnsgd1na2vs0mg"},{"bike_id":"042eb4d1-99b1-43de-9077-0ac524ce70f9","system_id":"levelo_inurba_marseille","lat":43.2791,"lon":5.39601,"is_reserved":false,"is_disabled":false,"rental_uris":{"android":"levelo://app?vid=042eb4d1-99b1-43de-9077-0ac524ce70f9","ios":"levelo://app?vid=042eb4d1-99b1-43de-9077-0ac524ce70f9"},"vehicle_type_id":"4","last_reported":1761865740,"current_range_meters":9200,"station_id":"ce4bhf92rcd13ifvqf40","pricing_plan_id":"cebpf4jnsgd1na2vs0mg"},{"bike_id":"03c064bc-896b-4826-83ad-aacd70616843","system_id":"levelo_inurba_marseille","lat":43.29601,"lon":5.381,"is_reserved":false,"is_disabled":false,"rental_uris":{"android":"levelo://app?vid=03c064bc-896b-4826-83ad-aacd70616843","ios":"levelo://app?vid=03c064bc-896b-4826-83ad-aacd70616843"},"vehicle_type_id":"4","last_reported":1761865740,"current_range_meters":9200,"station_id":"ce4bgl12rcd13ifvqbo0","pricing_plan_id":"cebpf4jnsgd1na2vs0mg"},{"bike_id":"01e1ab1b-1578-4547-a593-5299c2254e53","system_id":"levelo_inurba_marseille","lat":43.24536,"lon":5.39528,"is_reserved":false,"is_disabled":false,"rental_uris":{"android":"levelo://app?vid=01e1ab1b-1578-4547-a593-5299c2254e53","ios":"levelo://app?vid=01e1ab1b-1578-4547-a593-5299c2254e53"},"vehicle_type_id":"4","last_reported":1761865740,"current_range_meters":9200,"station_id":"ce4bhlp2rcd13ifvqgjg","pricing_plan_id":"cebpf4jnsgd1na2vs0mg"},{"bike_id":"1a64a235-50f7-4ccf-8355-4e573840c315","system_id":"levelo_inurba_marseille","lat":43.2582,"lon":5.39437,"is_reserved":false,"is_disabled":false,"rental_uris":{"android":"levelo://app?vid=1a64a235-50f7-4ccf-8355-4e573840c315","ios":"levelo://app?vid=1a64a235-50f7-4ccf-8355-4e573840c315"},"vehicle_type_id":"4","last_reported":1761865740,"current_range_meters":9200,"station_id":"ce4bhip2rcd13ifvqft0","pricing_plan_id":"cebpf4jnsgd1na2vs0mg"},{"bike_id":"53c1e4c1-be5b-45c9-b2c7-e603e7ed276a","system_id":"levelo_inurba_marseille","lat":43.257166,"lon":5.411148,"is_reserved":false,"is_disabled":false,"rental_uris":{"android":"levelo://app?vid=53c1e4c1-be5b-45c9-b2c7-e603e7ed276a","ios":"levelo://app?vid=53c1e4c1-be5b-45c9-b2c7-e603e7ed276a"},"vehicle_type_id":"4","last_reported":1761865740,"current_range_meters":9200,"station_id":"ce4bhkp2rcd13ifvqgd0","pricing_plan_id":"cebpf4jnsgd1na2vs0mg"},{"bike_id":"6fff56e2-dc33-4322-9554-e738206d1bc0","system_id":"levelo_inurba_marseille","lat":43.21188,"lon":5.35053,"is_reserved":false,"is_disabled":false,"rental_uris":{"android":"levelo://app?vid=6fff56e2-dc33-4322-9554-e738206d1bc0","ios":"levelo://app?vid=6fff56e2-dc33-4322-9554-e738206d1bc0"},"vehicle_type_id":"4","last_reported":1761865740,"current_range_meters":9600,"station_id":"st_cvj6sg6p6f1abm77japg","pricing_plan_id":"cebpf4jnsgd1na2vs0mg"},{"bike_id":"299b6d25-0432-40b3-b88d-599bdb7cfc7b","system_id":"levelo_inurba_marseille","lat":43.29518,"lon":5.39003,"is_reserved":false,"is_disabled":true,"rental_uris":{"android":"levelo://app?vid=299b6d25-0432-40b3-b88d-599bdb7cfc7b","ios":"levelo://app?vid=299b6d25-0432-40b3-b88d-599bdb7cfc7b"},"vehicle_type_id":"4","last_reported":1761865740,"current_range_meters":9600,"station_id":"ce4bh3p2rcd13ifvqdp0","pricing_plan_id":"cebpf4jnsgd1na2vs0mg"},{"bike_id":"9e3564a3-3b3b-4a4a-a9e5-f73e91e05ce8","system_id":"levelo_inurba_marseille","lat":43.309109,"lon":5.368505,"is_reserved":false,"is_disabled":true,"rental_uris":{"android":"levelo://app?vid=9e3564a3-3b3b-4a4a-a9e5-f73e91e05ce8","ios":"levelo://app?vid=9e3564a3-3b3b-4a4a-a9e5-f73e91e05ce8"},"vehicle_type_id":"4","last_reported":1761865740,"current_range_meters":9600,"station_id":"ce4bgn92rcd13ifvqbvg","pricing_plan_id":"cebpf4jnsgd1na2vs0mg"},{"bike_id":"0db070e1-1eb7-4c02-b18a-6ea074a48fba","system_id":"levelo_inurba_marseille","lat":43.30733,"lon":5.42434,"is_reserved":false,"is_disabled":true,"rental_uris":{"android":"levelo://app?vid=0db070e1-1eb7-4c02-b18a-6ea074a48fba","ios":"levelo://app?vid=0db070e1-1eb7-4c02-b18a-6ea074a48fba"},"vehicle_type_id":"4","last_reported":1761865740,"current_range_meters":10000,"station_id":"st_cvj6ca6bvosntc0bfgr0","pricing_plan_id":"cebpf4jnsgd1na2vs0mg"},{"bike_id":"eb5a1371-1544-4237-81ed-a57acf2690e3","system_id":"levelo_inurba_marseille","lat":43.28357,"lon":5.38632,"is_reserved":false,"is_disabled":false,"rental_uris":{"android":"levelo://app?vid=eb5a1371-1544-4237-81ed-a57acf2690e3","ios":"levelo://app?vid=eb5a1371-1544-4237-81ed-a57acf2690e3"},"vehicle_type_id":"4","last_reported":1761865740,"current_range_meters":10000,"station_id":"ce4bh492rcd13ifvqdvg","pricing_plan_id":"cebpf4jnsgd1na2vs0mg"},{"bike_id":"eb98d852-e103-4ef2-ad42-c16d73c8a137","system_id":"levelo_inurba_marseille","lat":43.28446,"lon":5.39171,"is_reserved":false,"is_disabled":false,"rental_uris":{"android":"levelo://app?vid=eb98d852-e103-4ef2-ad42-c16d73c8a137","ios":"levelo://app?vid=eb98d852-e103-4ef2-ad42-c16d73c8a137"},"vehicle_type_id":"4","last_reported":1761865740,"current_range_meters":10000,"station_id":"ce4bhoh2rcd13ifvqh5g","pricing_plan_id":"cebpf4jnsgd1na2vs0mg"},{"bike_id":"42798673-9b43-4db8-be45-b99fbb67e433","system_id":"levelo_inurba_marseille","lat":43.24797,"lon":5.37503,"is_reserved":false,"is_disabled":false,"rental_uris":{"android":"levelo://app?vid=42798673-9b43-4db8-be45-b99fbb67e433","ios":"levelo://app?vid=42798673-9b43-4db8-be45-b99fbb67e433"},"vehicle_type_id":"4","last_reported":1761865740,"current_range_meters":10000,"station_id":"ce4bhgh2rcd13ifvqfb0","pricing_plan_id":"cebpf4jnsgd1na2vs0mg"},{"bike_id":"e5d63bb6-a75c-4ea0-aef1-d6972c9478c5","system_id":"levelo_inurba_marseille","lat":43.29197,"lon":5.393291,"is_reserved":false,"is_disabled":false,"rental_uris":{"android":"levelo://app?vid=e5d63bb6-a75c-4ea0-aef1-d6972c9478c5","ios":"levelo://app?vid=e5d63bb6-a75c-4ea0-aef1-d6972c9478c5"},"vehicle_type_id":"4","last_reported":1761865740,"current_range_meters":10000,"station_id":"ce4bh192rcd13ifvqdd0","pricing_plan_id":"cebpf4jnsgd1na2vs0mg"},{"bike_id":"3126ce35-4101-4b06-a7b2-19548fb25089","system_id":"levelo_inurba_marseille","lat":43.21197,"lon":5.3507,"is_reserved":false,"is_disabled":false,"rental_uris":{"android":"levelo://app?vid=3126ce35-4101-4b06-a7b2-19548fb25089","ios":"levelo://app?vid=3126ce35-4101-4b06-a7b2-19548fb25089"},"vehicle_type_id":"4","last_reported":1761865740,"current_range_meters":10000,"station_id":"st_cvj6sg6p6f1abm77japg","pricing_plan_id":"cebpf4jnsgd1na2vs0mg"},{"bike_id":"a90ee1c9-7932-426d-b9cb-caeaf3e682d7","system_id":"levelo_inurba_marseille","lat":43.29212,"lon":5.39324,"is_reserved":false,"is_disabled":false,"rental_uris":{"android":"levelo://app?vid=a90ee1c9-7932-426d-b9cb-caeaf3e682d7","ios":"levelo://app?vid=a90ee1c9-7932-426d-b9cb-caeaf3e682d7"},"vehicle_type_id":"4","last_reported":1761865740,"current_range_meters":10000,"station_id":"ce4bh192rcd13ifvqdd0","pricing_plan_id":"cebpf4jnsgd1na2vs0mg"},{"bike_id":"eb496b09-d611-4ea1-b27b-b10c411d60e0","system_id":"levelo_inurba_marseille","lat":43.23784,"lon":5.36636,"is_reserved":false,"is_disabled":false,"rental_uris":{"android":"levelo://app?vid=eb496b09-d611-4ea1-b27b-b10c411d60e0","ios":"levelo://app?vid=eb496b09-d611-4ea1-b27b-b10c411d60e0"},"vehicle_type_id":"4","last_reported":1761865740,"current_range_meters":10000,"station_id":"st_d3nk18o9ro0c73en2l3g","pricing_plan_id":"cebpf4jnsgd1na2vs0mg"},{"bike_id":"6c3f8b32-c115-4971-ab70-7ce53698f0ed","system_id":"levelo_inurba_marseille","lat":43.28161,"lon":5.42655,"is_reserved":false,"is_disabled":false,"rental_uris":{"android":"levelo://app?vid=6c3f8b32-c115-4971-ab70-7ce53698f0ed","ios":"levelo://app?vid=6c3f8b32-c115-4971-ab70-7ce53698f0ed"},"vehicle_type_id":"4","last_reported":1761865740,"current_range_meters":10000,"station_id":"ce4bhnh2rcd13ifvqgug","pricing_plan_id":"cebpf4jnsgd1na2vs0mg"},{"bike_id":"e1e2a457-df19-4b98-90a8-25aeb1c4995a","system_id":"levelo_inurba_marseille","lat":43.260241,"lon":5.417462,"is_reserved":false,"is_disabled":false,"rental_uris":{"android":"levelo://app?vid=e1e2a457-df19-4b98-90a8-25aeb1c4995a","ios":"levelo://app?vid=e1e2a457-df19-4b98-90a8-25aeb1c4995a"},"vehicle_type_id":"4","last_reported":1761865740,"current_range_meters":10800,"station_id":"","pricing_plan_id":"cebpf4jnsgd1na2vs0mg"},{"bike_id":"942cb668-9ab0-4e5e-8a02-78f93e17c71e","system_id":"levelo_inurba_marseille","lat":43.30017,"lon":5.38324,"is_reserved":false,"is_disabled":false,"rental_uris":{"android":"levelo://app?vid=942cb668-9ab0-4e5e-8a02-78f93e17c71e","ios":"levelo://app?vid=942cb668-9ab0-4e5e-8a02-78f93e17c71e"},"vehicle_type_id":"4","last_reported":1761865740,"current_range_meters":10800,"station_id":"","pricing_plan_id":"cebpf4jnsgd1na2vs0mg"},{"bike_id":"003dc589-afc6-47c4-a84a-e90cd5f91109","system_id":"levelo_inurba_marseille","lat":43.29548,"lon":5.39028,"is_reserved":false,"is_disabled":true,"rental_uris":{"android":"levelo://app?vid=003dc589-afc6-47c4-a84a-e90cd5f91109","ios":"levelo://app?vid=003dc589-afc6-47c4-a84a-e90cd5f91109"},"vehicle_type_id":"4","last_reported":1761865740,"current_range_meters":10800,"station_id":"ce4bh3p2rcd13ifvqdp0","pricing_plan_id":"cebpf4jnsgd1na2vs0mg"},{"bike_id":"56972b59-4352-4e6b-ae3d-742b07622236","system_id":"levelo_inurba_marseille","lat":43.27832,"lon":5.39198,"is_reserved":false,"is_disabled":false,"rental_uris":{"android":"levelo://app?vid=56972b59-4352-4e6b-ae3d-742b07622236","ios":"levelo://app?vid=56972b59-4352-4e6b-ae3d-742b07622236"},"vehicle_type_id":"4","last_reported":1761865740,"current_range_meters":10800,"station_id":"ce4bhjp2rcd13ifvqga0","pricing_plan_id":"cebpf4jnsgd1na2vs0mg"},{"bike_id":"9cc57b54-8953-457c-89de-b5c5dc7ef482","system_id":"levelo_inurba_marseille","lat":43.28939,"lon":5.36638,"is_reserved":false,"is_disabled":false,"rental_uris":{"android":"levelo://app?vid=9cc57b54-8953-457c-89de-b5c5dc7ef482","ios":"levelo://app?vid=9cc57b54-8953-457c-89de-b5c5dc7ef482"},"vehicle_type_id":"4","last_reported":1761865740,"current_range_meters":10800,"station_id":"ce4bhap2rcd13ifvqek0","pricing_plan_id":"cebpf4jnsgd1na2vs0mg"},{"bike_id":"8a8be838-a024-4d1c-b2b9-47205cfc9e52","system_id":"levelo_inurba_marseille","lat":43.29532,"lon":5.3938,"is_reserved":false,"is_disabled":false,"rental_uris":{"android":"levelo://app?vid=8a8be838-a024-4d1c-b2b9-47205cfc9e52","ios":"levelo://app?vid=8a8be838-a024-4d1c-b2b9-47205cfc9e52"},"vehicle_type_id":"4","last_reported":1761865740,"current_range_meters":10800,"station_id":"ce4bh292rcd13ifvqdf0","pricing_plan_id":"cebpf4jnsgd1na2vs0mg"},{"bike_id":"e783c847-3aeb-47a5-970e-5738b7df6341","system_id":"levelo_inurba_marseille","lat":43.25727,"lon":5.41106,"is_reserved":false,"is_disabled":false,"rental_uris":{"android":"levelo://app?vid=e783c847-3aeb-47a5-970e-5738b7df6341","ios":"levelo://app?vid=e783c847-3aeb-47a5-970e-5738b7df6341"},"vehicle_type_id":"4","last_reported":1761865740,"current_range_meters":10800,"station_id":"ce4bhkp2rcd13ifvqgd0","pricing_plan_id":"cebpf4jnsgd1na2vs0mg"},{"bike_id":"ef077506-ad53-48c6-96ed-57184394616c","system_id":"levelo_inurba_marseille","lat":43.304752,"lon":5.367117,"is_reserved":false,"is_disabled":false,"rental_uris":{"android":"levelo://app?vid=ef077506-ad53-48c6-96ed-57184394616c","ios":"levelo://app?vid=ef077506-ad53-48c6-96ed-57184394616c"},"vehicle_type_id":"4","last_reported":1761865740,"current_range_meters":11200,"station_id":"","pricing_plan_id":"cebpf4jnsgd1na2vs0mg"},{"bike_id":"e7fbda8d-e4b1-4d1d-8e59-650ead40058d","system_id":"levelo_inurba_marseille","lat":43.24644,"lon":5.43139,"is_reserved":false,"is_disabled":false,"rental_uris":{"android":"levelo://app?vid=e7fbda8d-e4b1-4d1d-8e59-650ead40058d","ios":"levelo://app?vid=e7fbda8d-e4b1-4d1d-8e59-650ead40058d"},"vehicle_type_id":"4","last_reported":1761865740,"current_range_meters":11200,"station_id":"st_d2m6c4gdas8pm72e190g","pricing_plan_id":"cebpf4jnsgd1na2vs0mg"},{"bike_id":"22219237-c8df-4ea1-8cfc-d971c5dcd449","system_id":"levelo_inurba_marseille","lat":43.240723,"lon":5.37766,"is_reserved":false,"is_disabled":false,"rental_uris":{"android":"levelo://app?vid=22219237-c8df-4ea1-8cfc-d971c5dcd449","ios":"levelo://app?vid=22219237-c8df-4ea1-8cfc-d971c5dcd449"},"vehicle_type_id":"4","last_reported":1761865740,"current_range_meters":11200,"station_id":"ce4bhnp2rcd13ifvqgvg","pricing_plan_id":"cebpf4jnsgd1na2vs0mg"},{"bike_id":"293a366c-ad33-464f-be66-4c308271167a","system_id":"levelo_inurba_marseille","lat":43.24203,"lon":5.36398,"is_reserved":false,"is_disabled":false,"rental_uris":{"android":"levelo://app?vid=293a366c-ad33-464f-be66-4c308271167a","ios":"levelo://app?vid=293a366c-ad33-464f-be66-4c308271167a"},"vehicle_type_id":"4","last_reported":1761865740,"current_range_meters":11200,"station_id":"cpo36qri1sfpv3e86is0","pricing_plan_id":"cebpf4jnsgd1na2vs0mg"},{"bike_id":"e85dc3bf-df6a-446b-914b-75189d622bbb","system_id":"levelo_inurba_marseille","lat":43.301596,"lon":5.385831,"is_reserved":false,"is_disabled":false,"rental_uris":{"android":"levelo://app?vid=e85dc3bf-df6a-446b-914b-75189d622bbb","ios":"levelo://app?vid=e85dc3bf-df6a-446b-914b-75189d622bbb"},"vehicle_type_id":"4","last_reported":1761865740,"current_range_meters":11200,"station_id":"","pricing_plan_id":"cebpf4jnsgd1na2vs0mg"},{"bike_id":"302f5987-e35c-438a-ac0c-aeb08312e39e","system_id":"levelo_inurba_marseille","lat":43.26059,"lon":5.39395,"is_reserved":false,"is_disabled":false,"rental_uris":{"android":"levelo://app?vid=302f5987-e35c-438a-ac0c-aeb08312e39e","ios":"levelo://app?vid=302f5987-e35c-438a-ac0c-aeb08312e39e"},"vehicle_type_id":"4","last_reported":1761865740,"current_range_meters":11200,"station_id":"ce4bhh92rcd13ifvqfj0","pricing_plan_id":"cebpf4jnsgd1na2vs0mg"},{"bike_id":"0b1b4eb2-08ad-4740-b0ed-46827b0ff964","system_id":"levelo_inurba_marseille","lat":43.30777,"lon":5.37653,"is_reserved":false,"is_disabled":false,"rental_uris":{"android":"levelo://app?vid=0b1b4eb2-08ad-4740-b0ed-46827b0ff964","ios":"levelo://app?vid=0b1b4eb2-08ad-4740-b0ed-46827b0ff964"},"vehicle_type_id":"4","last_reported":1761865740,"current_range_meters":11200,"station_id":"ce4bgv92rcd13ifvqcq0","pricing_plan_id":"cebpf4jnsgd1na2vs0mg"},{"bike_id":"5a111d64-fcac-44e4-98be-55be4170f069","system_id":"levelo_inurba_marseille","lat":43.28157,"lon":5.42636,"is_reserved":false,"is_disabled":false,"rental_uris":{"android":"levelo://app?vid=5a111d64-fcac-44e4-98be-55be4170f069","ios":"levelo://app?vid=5a111d64-fcac-44e4-98be-55be4170f069"},"vehicle_type_id":"4","last_reported":1761865740,"current_range_meters":11600,"station_id":"ce4bhnh2rcd13ifvqgug","pricing_plan_id":"cebpf4jnsgd1na2vs0mg"},{"bike_id":"5b8bd8bc-e548-4aa5-a737-db3f6403521b","system_id":"levelo_inurba_marseille","lat":43.29144,"lon":5.38303,"is_reserved":false,"is_disabled":false,"rental_uris":{"android":"levelo://app?vid=5b8bd8bc-e548-4aa5-a737-db3f6403521b","ios":"levelo://app?vid=5b8bd8bc-e548-4aa5-a737-db3f6403521b"},"vehicle_type_id":"4","last_reported":1761865740,"current_range_meters":11600,"station_id":"","pricing_plan_id":"cebpf4jnsgd1na2vs0mg"},{"bike_id":"f6946de9-6fd5-486c-846e-6aac0ac8e59f","system_id":"levelo_inurba_marseille","lat":43.21186,"lon":5.35069,"is_reserved":false,"is_disabled":false,"rental_uris":{"android":"levelo://app?vid=f6946de9-6fd5-486c-846e-6aac0ac8e59f","ios":"levelo://app?vid=f6946de9-6fd5-486c-846e-6aac0ac8e59f"},"vehicle_type_id":"4","last_reported":1761865740,"current_range_meters":11600,"station_id":"st_cvj6sg6p6f1abm77japg","pricing_plan_id":"cebpf4jnsgd1na2vs0mg"},{"bike_id":"0dc2677d-52f3-4c3e-a4eb-af7b96f166b0","system_id":"levelo_inurba_marseille","lat":43.29037,"lon":5.38657,"is_reserved":false,"is_disabled":false,"rental_uris":{"android":"levelo://app?vid=0dc2677d-52f3-4c3e-a4eb-af7b96f166b0","ios":"levelo://app?vid=0dc2677d-52f3-4c3e-a4eb-af7b96f166b0"},"vehicle_type_id":"4","last_reported":1761865740,"current_range_meters":11600,"station_id":"ce4bh4p2rcd13ifvqe0g","pricing_plan_id":"cebpf4jnsgd1na2vs0mg"},{"bike_id":"33fb74ff-b00a-42bd-b7ef-62a81ee75bb0","system_id":"levelo_inurba_marseille","lat":43.30877,"lon":5.3964,"is_reserved":false,"is_disabled":false,"rental_uris":{"android":"levelo://app?vid=33fb74ff-b00a-42bd-b7ef-62a81ee75bb0","ios":"levelo://app?vid=33fb74ff-b00a-42bd-b7ef-62a81ee75bb0"},"vehicle_type_id":"4","last_reported":1761865740,"current_range_meters":11600,"station_id":"ce4bh012rcd13ifvqcv0","pricing_plan_id":"cebpf4jnsgd1na2vs0mg"},{"bike_id":"781be9e8-1fba-4218-b4b0-c9ba19a4ce6d","system_id":"levelo_inurba_marseille","lat":43.28935,"lon":5.36637,"is_reserved":false,"is_disabled":false,"rental_uris":{"android":"levelo://app?vid=781be9e8-1fba-4218-b4b0-c9ba19a4ce6d","ios":"levelo://app?vid=781be9e8-1fba-4218-b4b0-c9ba19a4ce6d"},"vehicle_type_id":"4","last_reported":1761865740,"current_range_meters":12000,"station_id":"ce4bhap2rcd13ifvqek0","pricing_plan_id":"cebpf4jnsgd1na2vs0mg"},{"bike_id":"2b068601-91e8-4670-a4e3-068638b00800","system_id":"levelo_inurba_marseille","lat":43.29589,"lon":5.38104,"is_reserved":false,"is_disabled":false,"rental_uris":{"android":"levelo://app?vid=2b068601-91e8-4670-a4e3-068638b00800","ios":"levelo://app?vid=2b068601-91e8-4670-a4e3-068638b00800"},"vehicle_type_id":"4","last_reported":1761865740,"current_range_meters":12000,"station_id":"ce4bgl12rcd13ifvqbo0","pricing_plan_id":"cebpf4jnsgd1na2vs0mg"},{"bike_id":"4c1b2049-b590-4ae2-a090-9d731b00e193","system_id":"levelo_inurba_marseille","lat":43.27073,"lon":5.4228,"is_reserved":false,"is_disabled":false,"rental_uris":{"android":"levelo://app?vid=4c1b2049-b590-4ae2-a090-9d731b00e193","ios":"levelo://app?vid=4c1b2049-b590-4ae2-a090-9d731b00e193"},"vehicle_type_id":"4","last_reported":1761865740,"current_range_meters":12000,"station_id":"ce4bhk92rcd13ifvqgb0","pricing_plan_id":"cebpf4jnsgd1na2vs0mg"},{"bike_id":"a159c7fa-4c33-479a-9130-82f09aa8b34d","system_id":"levelo_inurba_marseille","lat":43.25084,"lon":5.39523,"is_reserved":false,"is_disabled":false,"rental_uris":{"android":"levelo://app?vid=a159c7fa-4c33-479a-9130-82f09aa8b34d","ios":"levelo://app?vid=a159c7fa-4c33-479a-9130-82f09aa8b34d"},"vehicle_type_id":"4","last_reported":1761865740,"current_range_meters":12000,"station_id":"ce4bhm12rcd13ifvqgkg","pricing_plan_id":"cebpf4jnsgd1na2vs0mg"},{"bike_id":"832f8360-f0a1-43f7-8c58-03a9849f627c","system_id":"levelo_inurba_marseille","lat":43.29529,"lon":5.38533,"is_reserved":false,"is_disabled":false,"rental_uris":{"android":"levelo://app?vid=832f8360-f0a1-43f7-8c58-03a9849f627c","ios":"levelo://app?vid=832f8360-f0a1-43f7-8c58-03a9849f627c"},"vehicle_type_id":"4","last_reported":1761865740,"current_range_meters":12400,"station_id":"ce4bgih2rcd13ifvqba0","pricing_plan_id":"cebpf4jnsgd1na2vs0mg"},{"bike_id":"6031e130-bc2f-4945-be2d-739bc30e9d8e","system_id":"levelo_inurba_marseille","lat":43.28536,"lon":5.44129,"is_reserved":false,"is_disabled":false,"rental_uris":{"android":"levelo://app?vid=6031e130-bc2f-4945-be2d-739bc30e9d8e","ios":"levelo://app?vid=6031e130-bc2f-4945-be2d-739bc30e9d8e"},"vehicle_type_id":"4","last_reported":1761865740,"current_range_meters":12400,"station_id":"st_d3j3df2ikq2c7380ej80","pricing_plan_id":"cebpf4jnsgd1na2vs0mg"},{"bike_id":"bd86e903-f9ed-4e32-8ec4-38eb5e06ceef","system_id":"levelo_inurba_marseille","lat":43.28722,"lon":5.36102,"is_reserved":false,"is_disabled":false,"rental_uris":{"android":"levelo://app?vid=bd86e903-f9ed-4e32-8ec4-38eb5e06ceef","ios":"levelo://app?vid=bd86e903-f9ed-4e32-8ec4-38eb5e06ceef"},"vehicle_type_id":"4","last_reported":1761865740,"current_range_meters":12400,"station_id":"cki0cbj6b192h4jlfktg","pricing_plan_id":"cebpf4jnsgd1na2vs0mg"},{"bike_id":"007896d7-a74d-4bb8-b312-9f7c544e6281","system_id":"levelo_inurba_marseille","lat":43.291977,"lon":5.357994,"is_reserved":false,"is_disabled":false,"rental_uris":{"android":"levelo://app?vid=007896d7-a74d-4bb8-b312-9f7c544e6281","ios":"levelo://app?vid=007896d7-a74d-4bb8-b312-9f7c544e6281"},"vehicle_type_id":"4","last_reported":1761865740,"current_range_meters":12400,"station_id":"ce4bhb12rcd13ifvqel0","pricing_plan_id":"cebpf4jnsgd1na2vs0mg"},{"bike_id":"f4e2783e-22bf-4c00-b9b4-9562347df08d","system_id":"levelo_inurba_marseille","lat":43.29857,"lon":5.39765,"is_reserved":false,"is_disabled":false,"rental_uris":{"android":"levelo://app?vid=f4e2783e-22bf-4c00-b9b4-9562347df08d","ios":"levelo://app?vid=f4e2783e-22bf-4c00-b9b4-9562347df08d"},"vehicle_type_id":"4","last_reported":1761865740,"current_range_meters":12400,"station_id":"ce4bh0h2rcd13ifvqd50","pricing_plan_id":"cebpf4jnsgd1na2vs0mg"},{"bike_id":"b4b09f56-cc63-4de6-a53b-baa7ae5929d9","system_id":"levelo_inurba_marseille","lat":43.2319,"lon":5.39993,"is_reserved":false,"is_disabled":false,"rental_uris":{"android":"levelo://app?vid=b4b09f56-cc63-4de6-a53b-baa7ae5929d9","ios":"levelo://app?vid=b4b09f56-cc63-4de6-a53b-baa7ae5929d9"},"vehicle_type_id":"4","last_reported":1761865740,"current_range_meters":12800,"station_id":"ce4bhn12rcd13ifvqgqg","pricing_plan_id":"cebpf4jnsgd1na2vs0mg"},{"bike_id":"ca31fa37-b791-4891-8cd9-471eb9909525","system_id":"levelo_inurba_marseille","lat":43.29024,"lon":5.38644,"is_reserved":false,"is_disabled":false,"rental_uris":{"android":"levelo://app?vid=ca31fa37-b791-4891-8cd9-471eb9909525","ios":"levelo://app?vid=ca31fa37-b791-4891-8cd9-471eb9909525"},"vehicle_type_id":"4","last_reported":1761865740,"current_range_meters":12800,"station_id":"ce4bh4p2rcd13ifvqe0g","pricing_plan_id":"cebpf4jnsgd1na2vs0mg"},{"bike_id":"8c929b2a-4f00-4126-bae8-4e8292f3d6d6","system_id":"levelo_inurba_marseille","lat":43.302277,"lon":5.395111,"is_reserved":false,"is_disabled":false,"rental_uris":{"android":"levelo://app?vid=8c929b2a-4f00-4126-bae8-4e8292f3d6d6","ios":"levelo://app?vid=8c929b2a-4f00-4126-bae8-4e8292f3d6d6"},"vehicle_type_id":"4","last_reported":1761865740,"current_range_meters":12800,"station_id":"","pricing_plan_id":"cebpf4jnsgd1na2vs0mg"},{"bike_id":"a18dbf48-2c4d-4fa4-a4c5-c9871d73c9a0","system_id":"levelo_inurba_marseille","lat":43.301994,"lon":5.383462,"is_reserved":false,"is_disabled":false,"rental_uris":{"android":"levelo://app?vid=a18dbf48-2c4d-4fa4-a4c5-c9871d73c9a0","ios":"levelo://app?vid=a18dbf48-2c4d-4fa4-a4c5-c9871d73c9a0"},"vehicle_type_id":"4","last_reported":1761865740,"current_range_meters":12800,"station_id":"ce4bgup2rcd13ifvqcn0","pricing_plan_id":"cebpf4jnsgd1na2vs0mg"},{"bike_id":"e61a2e2a-30bf-4268-91db-df42f03b9bab","system_id":"levelo_inurba_marseille","lat":43.29195,"lon":5.35807,"is_reserved":false,"is_disabled":false,"rental_uris":{"android":"levelo://app?vid=e61a2e2a-30bf-4268-91db-df42f03b9bab","ios":"levelo://app?vid=e61a2e2a-30bf-4268-91db-df42f03b9bab"},"vehicle_type_id":"4","last_reported":1761865740,"current_range_meters":12800,"station_id":"ce4bhb12rcd13ifvqel0","pricing_plan_id":"cebpf4jnsgd1na2vs0mg"},{"bike_id":"12da3edc-3dad-4e3f-8cfb-0db287ca6e43","system_id":"levelo_inurba_marseille","lat":43.28925,"lon":5.38394,"is_reserved":false,"is_disabled":false,"rental_uris":{"android":"levelo://app?vid=12da3edc-3dad-4e3f-8cfb-0db287ca6e43","ios":"levelo://app?vid=12da3edc-3dad-4e3f-8cfb-0db287ca6e43"},"vehicle_type_id":"4","last_reported":1761865740,"current_range_meters":12800,"station_id":"ce4bh612rcd13ifvqe6g","pricing_plan_id":"cebpf4jnsgd1na2vs0mg"},{"bike_id":"035643cd-5060-47bf-be17-b05fb2fe124e","system_id":"levelo_inurba_marseille","lat":43.31177,"lon":5.3871,"is_reserved":false,"is_disabled":false,"rental_uris":{"android":"levelo://app?vid=035643cd-5060-47bf-be17-b05fb2fe124e","ios":"levelo://app?vid=035643cd-5060-47bf-be17-b05fb2fe124e"},"vehicle_type_id":"4","last_reported":1761865740,"current_range_meters":12800,"station_id":"ce4bgv12rcd13ifvqcp0","pricing_plan_id":"cebpf4jnsgd1na2vs0mg"},{"bike_id":"196a7d4a-05f1-40ba-beda-a1fd200da649","system_id":"levelo_inurba_marseille","lat":43.284133,"lon":5.375135,"is_reserved":false,"is_disabled":false,"rental_uris":{"android":"levelo://app?vid=196a7d4a-05f1-40ba-beda-a1fd200da649","ios":"levelo://app?vid=196a7d4a-05f1-40ba-beda-a1fd200da649"},"vehicle_type_id":"4","last_reported":1761865740,"current_range_meters":12800,"station_id":"","pricing_plan_id":"cebpf4jnsgd1na2vs0mg"},{"bike_id":"f1ebec42-de39-49cb-aa79-a7d00cd08ff7","system_id":"levelo_inurba_marseille","lat":43.33023,"lon":5.39037,"is_reserved":false,"is_disabled":false,"rental_uris":{"android":"levelo://app?vid=f1ebec42-de39-49cb-aa79-a7d00cd08ff7","ios":"levelo://app?vid=f1ebec42-de39-49cb-aa79-a7d00cd08ff7"},"vehicle_type_id":"4","last_reported":1761865740,"current_range_meters":12800,"station_id":"ce4bhr92rcd13ifvqhrg","pricing_plan_id":"cebpf4jnsgd1na2vs0mg"},{"bike_id":"dd457ba3-9e07-42fa-81ff-1ce7b1782007","system_id":"levelo_inurba_marseille","lat":43.29826,"lon":5.38105,"is_reserved":false,"is_disabled":false,"rental_uris":{"android":"levelo://app?vid=dd457ba3-9e07-42fa-81ff-1ce7b1782007","ios":"levelo://app?vid=dd457ba3-9e07-42fa-81ff-1ce7b1782007"},"vehicle_type_id":"4","last_reported":1761865740,"current_range_meters":12800,"station_id":"ce4bgip2rcd13ifvqbb0","pricing_plan_id":"cebpf4jnsgd1na2vs0mg"},{"bike_id":"7f597b80-e60b-4d55-8e6a-3e68b1031742","system_id":"levelo_inurba_marseille","lat":43.25081,"lon":5.39531,"is_reserved":false,"is_disabled":false,"rental_uris":{"android":"levelo://app?vid=7f597b80-e60b-4d55-8e6a-3e68b1031742","ios":"levelo://app?vid=7f597b80-e60b-4d55-8e6a-3e68b1031742"},"vehicle_type_id":"4","last_reported":1761865740,"current_range_meters":13600,"station_id":"ce4bhm12rcd13ifvqgkg","pricing_plan_id":"cebpf4jnsgd1na2vs0mg"},{"bike_id":"9b93b5e1-c939-4745-bf85-2d21945442dc","system_id":"levelo_inurba_marseille","lat":43.29998,"lon":5.36356,"is_reserved":false,"is_disabled":false,"rental_uris":{"android":"levelo://app?vid=9b93b5e1-c939-4745-bf85-2d21945442dc","ios":"levelo://app?vid=9b93b5e1-c939-4745-bf85-2d21945442dc"},"vehicle_type_id":"4","last_reported":1761865740,"current_range_meters":13600,"station_id":"","pricing_plan_id":"cebpf4jnsgd1na2vs0mg"},{"bike_id":"2ec8fd1b-3b42-4f93-a828-68bd711efa51","system_id":"levelo_inurba_marseille","lat":43.24622,"lon":5.43151,"is_reserved":false,"is_disabled":false,"rental_uris":{"android":"levelo://app?vid=2ec8fd1b-3b42-4f93-a828-68bd711efa51","ios":"levelo://app?vid=2ec8fd1b-3b42-4f93-a828-68bd711efa51"},"vehicle_type_id":"4","last_reported":1761865740,"current_range_meters":13600,"station_id":"st_d2m6c4gdas8pm72e190g","pricing_plan_id":"cebpf4jnsgd1na2vs0mg"},{"bike_id":"08b2eda2-0e70-4be1-8cbd-085b9bda286c","system_id":"levelo_inurba_marseille","lat":43.29932,"lon":5.36535,"is_reserved":false,"is_disabled":false,"rental_uris":{"android":"levelo://app?vid=08b2eda2-0e70-4be1-8cbd-085b9bda286c","ios":"levelo://app?vid=08b2eda2-0e70-4be1-8cbd-085b9bda286c"},"vehicle_type_id":"4","last_reported":1761865740,"current_range_meters":13600,"station_id":"ce4bgm92rcd13ifvqbr0","pricing_plan_id":"cebpf4jnsgd1na2vs0mg"},{"bike_id":"4d7d62ab-4ac7-4f11-a006-c751970e74e0","system_id":"levelo_inurba_marseille","lat":43.25352,"lon":5.4216,"is_reserved":false,"is_disabled":false,"rental_uris":{"android":"levelo://app?vid=4d7d62ab-4ac7-4f11-a006-c751970e74e0","ios":"levelo://app?vid=4d7d62ab-4ac7-4f11-a006-c751970e74e0"},"vehicle_type_id":"4","last_reported":1761865740,"current_range_meters":13600,"station_id":"st_d2m65c5bi1j21697t3ng","pricing_plan_id":"cebpf4jnsgd1na2vs0mg"},{"bike_id":"a0d564f2-5ac0-4238-b3be-1fed830781ea","system_id":"levelo_inurba_marseille","lat":43.273801,"lon":5.362358,"is_reserved":false,"is_disabled":false,"rental_uris":{"android":"levelo://app?vid=a0d564f2-5ac0-4238-b3be-1fed830781ea","ios":"levelo://app?vid=a0d564f2-5ac0-4238-b3be-1fed830781ea"},"vehicle_type_id":"4","last_reported":1761865740,"current_range_meters":13600,"station_id":"","pricing_plan_id":"cebpf4jnsgd1na2vs0mg"},{"bike_id":"e43a9cd2-21d7-4cf6-a759-05b557878143","system_id":"levelo_inurba_marseille","lat":43.24629,"lon":5.43173,"is_reserved":false,"is_disabled":false,"rental_uris":{"android":"levelo://app?vid=e43a9cd2-21d7-4cf6-a759-05b557878143","ios":"levelo://app?vid=e43a9cd2-21d7-4cf6-a759-05b557878143"},"vehicle_type_id":"4","last_reported":1761865740,"current_range_meters":13600,"station_id":"st_d2m6c4gdas8pm72e190g","pricing_plan_id":"cebpf4jnsgd1na2vs0mg"},{"bike_id":"6c371dfb-e785-4888-8426-5f27b3e801a9","system_id":"levelo_inurba_marseille","lat":43.28697,"lon":5.37389,"is_reserved":false,"is_disabled":false,"rental_uris":{"android":"levelo://app?vid=6c371dfb-e785-4888-8426-5f27b3e801a9","ios":"levelo://app?vid=6c371dfb-e785-4888-8426-5f27b3e801a9"},"vehicle_type_id":"4","last_reported":1761865740,"current_range_meters":13600,"station_id":"ce4bh3p2rcd13ifvqdq0","pricing_plan_id":"cebpf4jnsgd1na2vs0mg"},{"bike_id":"c21c4846-0f5c-400e-99d9-934b9cb69953","system_id":"levelo_inurba_marseille","lat":43.28463,"lon":5.35888,"is_reserved":false,"is_disabled":false,"rental_uris":{"android":"levelo://app?vid=c21c4846-0f5c-400e-99d9-934b9cb69953","ios":"levelo://app?vid=c21c4846-0f5c-400e-99d9-934b9cb69953"},"vehicle_type_id":"4","last_reported":1761865740,"current_range_meters":13600,"station_id":"ce4bhah2rcd13ifvqei0","pricing_plan_id":"cebpf4jnsgd1na2vs0mg"},{"bike_id":"b61e1e59-261f-4781-9885-10fc3dd1eaf7","system_id":"levelo_inurba_marseille","lat":43.3052,"lon":5.36914,"is_reserved":false,"is_disabled":false,"rental_uris":{"android":"levelo://app?vid=b61e1e59-261f-4781-9885-10fc3dd1eaf7","ios":"levelo://app?vid=b61e1e59-261f-4781-9885-10fc3dd1eaf7"},"vehicle_type_id":"4","last_reported":1761865740,"current_range_meters":13600,"station_id":"","pricing_plan_id":"cebpf4jnsgd1na2vs0mg"},{"bike_id":"382a3ba7-d376-4cdb-8ec1-2ca215a52431","system_id":"levelo_inurba_marseille","lat":43.31066,"lon":5.38343,"is_reserved":false,"is_disabled":false,"rental_uris":{"android":"levelo://app?vid=382a3ba7-d376-4cdb-8ec1-2ca215a52431","ios":"levelo://app?vid=382a3ba7-d376-4cdb-8ec1-2ca215a52431"},"vehicle_type_id":"4","last_reported":1761865740,"current_range_meters":13600,"station_id":"ce4bgv92rcd13ifvqcr0","pricing_plan_id":"cebpf4jnsgd1na2vs0mg"},{"bike_id":"c0a1ab8d-72ff-4114-b274-fdab8f1c3cb0","system_id":"levelo_inurba_marseille","lat":43.24689,"lon":5.38186,"is_reserved":false,"is_disabled":false,"rental_uris":{"android":"levelo://app?vid=c0a1ab8d-72ff-4114-b274-fdab8f1c3cb0","ios":"levelo://app?vid=c0a1ab8d-72ff-4114-b274-fdab8f1c3cb0"},"vehicle_type_id":"4","last_reported":1761865740,"current_range_meters":14000,"station_id":"ce4bhih2rcd13ifvqfr0","pricing_plan_id":"cebpf4jnsgd1na2vs0mg"},{"bike_id":"926593f6-579b-4bc9-b774-62aba5138a9f","system_id":"levelo_inurba_marseille","lat":43.31365,"lon":5.38497,"is_reserved":false,"is_disabled":false,"rental_uris":{"android":"levelo://app?vid=926593f6-579b-4bc9-b774-62aba5138a9f","ios":"levelo://app?vid=926593f6-579b-4bc9-b774-62aba5138a9f"},"vehicle_type_id":"4","last_reported":1761865740,"current_range_meters":14000,"station_id":"ce4bgt92rcd13ifvqcf0","pricing_plan_id":"cebpf4jnsgd1na2vs0mg"},{"bike_id":"1ef9814f-5b2c-4b66-bbfa-024bf189995a","system_id":"levelo_inurba_marseille","lat":43.28463,"lon":5.35885,"is_reserved":false,"is_disabled":false,"rental_uris":{"android":"levelo://app?vid=1ef9814f-5b2c-4b66-bbfa-024bf189995a","ios":"levelo://app?vid=1ef9814f-5b2c-4b66-bbfa-024bf189995a"},"vehicle_type_id":"4","last_reported":1761865740,"current_range_meters":14000,"station_id":"ce4bhah2rcd13ifvqei0","pricing_plan_id":"cebpf4jnsgd1na2vs0mg"},{"bike_id":"69daedd1-e532-426c-b096-24cfed29fb24","system_id":"levelo_inurba_marseille","lat":43.27931,"lon":5.41036,"is_reserved":false,"is_disabled":false,"rental_uris":{"android":"levelo://app?vid=69daedd1-e532-426c-b096-24cfed29fb24","ios":"levelo://app?vid=69daedd1-e532-426c-b096-24cfed29fb24"},"vehicle_type_id":"4","last_reported":1761865740,"current_range_meters":14000,"station_id":"ce4bhnp2rcd13ifvqh0g","pricing_plan_id":"cebpf4jnsgd1na2vs0mg"},{"bike_id":"c2b29e2a-9ddf-4599-9569-ebeda3771708","system_id":"levelo_inurba_marseille","lat":43.21198,"lon":5.35067,"is_reserved":false,"is_disabled":false,"rental_uris":{"android":"levelo://app?vid=c2b29e2a-9ddf-4599-9569-ebeda3771708","ios":"levelo://app?vid=c2b29e2a-9ddf-4599-9569-ebeda3771708"},"vehicle_type_id":"4","last_reported":1761865740,"current_range_meters":14000,"station_id":"st_cvj6sg6p6f1abm77japg","pricing_plan_id":"cebpf4jnsgd1na2vs0mg"},{"bike_id":"bd43bf2d-d103-4900-8015-35353dbf95d9","system_id":"levelo_inurba_marseille","lat":43.303209,"lon":5.404362,"is_reserved":false,"is_disabled":false,"rental_uris":{"android":"levelo://app?vid=bd43bf2d-d103-4900-8015-35353dbf95d9","ios":"levelo://app?vid=bd43bf2d-d103-4900-8015-35353dbf95d9"},"vehicle_type_id":"4","last_reported":1761865740,"current_range_meters":14000,"station_id":"ce4bh012rcd13ifvqd10","pricing_plan_id":"cebpf4jnsgd1na2vs0mg"},{"bike_id":"f0f4e9c6-0d3e-4e63-8b2a-1bf38004cf45","system_id":"levelo_inurba_marseille","lat":43.29544,"lon":5.3855,"is_reserved":false,"is_disabled":false,"rental_uris":{"android":"levelo://app?vid=f0f4e9c6-0d3e-4e63-8b2a-1bf38004cf45","ios":"levelo://app?vid=f0f4e9c6-0d3e-4e63-8b2a-1bf38004cf45"},"vehicle_type_id":"4","last_reported":1761865740,"current_range_meters":14000,"station_id":"ce4bgih2rcd13ifvqba0","pricing_plan_id":"cebpf4jnsgd1na2vs0mg"},{"bike_id":"dcc563f4-816a-4fc2-b184-b97722b6ecf3","system_id":"levelo_inurba_marseille","lat":43.30931,"lon":5.40177,"is_reserved":false,"is_disabled":false,"rental_uris":{"android":"levelo://app?vid=dcc563f4-816a-4fc2-b184-b97722b6ecf3","ios":"levelo://app?vid=dcc563f4-816a-4fc2-b184-b97722b6ecf3"},"vehicle_type_id":"4","last_reported":1761865740,"current_range_meters":14000,"station_id":"ce4bgvp2rcd13ifvqct0","pricing_plan_id":"cebpf4jnsgd1na2vs0mg"},{"bike_id":"6cff0b09-c0ed-4824-8047-f6f13f64ac4a","system_id":"levelo_inurba_marseille","lat":43.30369,"lon":5.42479,"is_reserved":false,"is_disabled":false,"rental_uris":{"android":"levelo://app?vid=6cff0b09-c0ed-4824-8047-f6f13f64ac4a","ios":"levelo://app?vid=6cff0b09-c0ed-4824-8047-f6f13f64ac4a"},"vehicle_type_id":"4","last_reported":1761865740,"current_range_meters":14400,"station_id":"ce4bhoh2rcd13ifvqh6g","pricing_plan_id":"cebpf4jnsgd1na2vs0mg"},{"bike_id":"13b5bebc-2277-4643-9efc-b419c3a09bbd","system_id":"levelo_inurba_marseille","lat":43.22926,"lon":5.35377,"is_reserved":false,"is_disabled":false,"rental_uris":{"android":"levelo://app?vid=13b5bebc-2277-4643-9efc-b419c3a09bbd","ios":"levelo://app?vid=13b5bebc-2277-4643-9efc-b419c3a09bbd"},"vehicle_type_id":"4","last_reported":1761865740,"current_range_meters":14400,"station_id":"cpo3532slgdg3j2ikp40","pricing_plan_id":"cebpf4jnsgd1na2vs0mg"},{"bike_id":"d3e4191f-8708-4957-a7db-efe93d73dc66","system_id":"levelo_inurba_marseille","lat":43.285326,"lon":5.441022,"is_reserved":false,"is_disabled":false,"rental_uris":{"android":"levelo://app?vid=d3e4191f-8708-4957-a7db-efe93d73dc66","ios":"levelo://app?vid=d3e4191f-8708-4957-a7db-efe93d73dc66"},"vehicle_type_id":"4","last_reported":1761865740,"current_range_meters":14400,"station_id":"st_d3j3df2ikq2c7380ej80","pricing_plan_id":"cebpf4jnsgd1na2vs0mg"},{"bike_id":"47a0604b-ebf0-481c-99c8-f92e88b99a63","system_id":"levelo_inurba_marseille","lat":43.30776,"lon":5.37644,"is_reserved":false,"is_disabled":false,"rental_uris":{"android":"levelo://app?vid=47a0604b-ebf0-481c-99c8-f92e88b99a63","ios":"levelo://app?vid=47a0604b-ebf0-481c-99c8-f92e88b99a63"},"vehicle_type_id":"4","last_reported":1761865740,"current_range_meters":14400,"station_id":"ce4bgv92rcd13ifvqcq0","pricing_plan_id":"cebpf4jnsgd1na2vs0mg"},{"bike_id":"f9f5725b-4420-4974-8696-29f60feee800","system_id":"levelo_inurba_marseille","lat":43.33593,"lon":5.41035,"is_reserved":false,"is_disabled":false,"rental_uris":{"android":"levelo://app?vid=f9f5725b-4420-4974-8696-29f60feee800","ios":"levelo://app?vid=f9f5725b-4420-4974-8696-29f60feee800"},"vehicle_type_id":"4","last_reported":1761865740,"current_range_meters":14800,"station_id":"ce4bhqh2rcd13ifvqhmg","pricing_plan_id":"cebpf4jnsgd1na2vs0mg"},{"bike_id":"960e6fa4-4740-4586-b1d8-4bb7b95af038","system_id":"levelo_inurba_marseille","lat":43.24976,"lon":5.40488,"is_reserved":false,"is_disabled":false,"rental_uris":{"android":"levelo://app?vid=960e6fa4-4740-4586-b1d8-4bb7b95af038","ios":"levelo://app?vid=960e6fa4-4740-4586-b1d8-4bb7b95af038"},"vehicle_type_id":"4","last_reported":1761865740,"current_range_meters":14800,"station_id":"st_d2ngiaodas8pm72gd1h0","pricing_plan_id":"cebpf4jnsgd1na2vs0mg"},{"bike_id":"ea26f597-91d1-4f54-b158-8d3bda3cc998","system_id":"levelo_inurba_marseille","lat":43.32264,"lon":5.38288,"is_reserved":false,"is_disabled":false,"rental_uris":{"android":"levelo://app?vid=ea26f597-91d1-4f54-b158-8d3bda3cc998","ios":"levelo://app?vid=ea26f597-91d1-4f54-b158-8d3bda3cc998"},"vehicle_type_id":"4","last_reported":1761865740,"current_range_meters":14800,"station_id":"ce4bhr12rcd13ifvqhqg","pricing_plan_id":"cebpf4jnsgd1na2vs0mg"},{"bike_id":"0a1b43ae-e267-4b42-9e59-4bf9da197316","system_id":"levelo_inurba_marseille","lat":43.304927,"lon":5.390092,"is_reserved":false,"is_disabled":false,"rental_uris":{"android":"levelo://app?vid=0a1b43ae-e267-4b42-9e59-4bf9da197316","ios":"levelo://app?vid=0a1b43ae-e267-4b42-9e59-4bf9da197316"},"vehicle_type_id":"4","last_reported":1761865740,"current_range_meters":14800,"station_id":"ce4bh0p2rcd13ifvqd80","pricing_plan_id":"cebpf4jnsgd1na2vs0mg"},{"bike_id":"c9b4af88-1224-4afa-90b7-39ff1e25017d","system_id":"levelo_inurba_marseille","lat":43.2558,"lon":5.38234,"is_reserved":false,"is_disabled":false,"rental_uris":{"android":"levelo://app?vid=c9b4af88-1224-4afa-90b7-39ff1e25017d","ios":"levelo://app?vid=c9b4af88-1224-4afa-90b7-39ff1e25017d"},"vehicle_type_id":"4","last_reported":1761865740,"current_range_meters":14800,"station_id":"ce4bhih2rcd13ifvqfs0","pricing_plan_id":"cebpf4jnsgd1na2vs0mg"},{"bike_id":"c0381cfe-4020-45a1-a90a-c73928248165","system_id":"levelo_inurba_marseille","lat":43.28424,"lon":5.37519,"is_reserved":false,"is_disabled":false,"rental_uris":{"android":"levelo://app?vid=c0381cfe-4020-45a1-a90a-c73928248165","ios":"levelo://app?vid=c0381cfe-4020-45a1-a90a-c73928248165"},"vehicle_type_id":"4","last_reported":1761865740,"current_range_meters":14800,"station_id":"ce4bh412rcd13ifvqds0","pricing_plan_id":"cebpf4jnsgd1na2vs0mg"},{"bike_id":"ccb25d01-a5cc-45c9-8b7f-7faed4ee6eba","system_id":"levelo_inurba_marseille","lat":43.295288,"lon":5.385416,"is_reserved":false,"is_disabled":false,"rental_uris":{"android":"levelo://app?vid=ccb25d01-a5cc-45c9-8b7f-7faed4ee6eba","ios":"levelo://app?vid=ccb25d01-a5cc-45c9-8b7f-7faed4ee6eba"},"vehicle_type_id":"4","last_reported":1761865740,"current_range_meters":14800,"station_id":"","pricing_plan_id":"cebpf4jnsgd1na2vs0mg"},{"bike_id":"0e8e0a18-4139-452e-bab3-cb99f058b247","system_id":"levelo_inurba_marseille","lat":43.29488,"lon":5.41991,"is_reserved":false,"is_disabled":true,"rental_uris":{"android":"levelo://app?vid=0e8e0a18-4139-452e-bab3-cb99f058b247","ios":"levelo://app?vid=0e8e0a18-4139-452e-bab3-cb99f058b247"},"vehicle_type_id":"4","last_reported":1761865740,"current_range_meters":15200,"station_id":"","pricing_plan_id":"cebpf4jnsgd1na2vs0mg"},{"bike_id":"e6fc3da6-433a-49da-91cc-2141cc624b7c","system_id":"levelo_inurba_marseille","lat":43.296211,"lon":5.371628,"is_reserved":false,"is_disabled":false,"rental_uris":{"android":"levelo://app?vid=e6fc3da6-433a-49da-91cc-2141cc624b7c","ios":"levelo://app?vid=e6fc3da6-433a-49da-91cc-2141cc624b7c"},"vehicle_type_id":"4","last_reported":1761865740,"current_range_meters":15200,"station_id":"ce4bgnh2rcd13ifvqc0g","pricing_plan_id":"cebpf4jnsgd1na2vs0mg"},{"bike_id":"269171dd-a42b-4a43-9617-89dbae353c92","system_id":"levelo_inurba_marseille","lat":43.30804,"lon":5.38157,"is_reserved":false,"is_disabled":true,"rental_uris":{"android":"levelo://app?vid=269171dd-a42b-4a43-9617-89dbae353c92","ios":"levelo://app?vid=269171dd-a42b-4a43-9617-89dbae353c92"},"vehicle_type_id":"4","last_reported":1761865740,"current_range_meters":15200,"station_id":"ce4bgt12rcd13ifvqcd0","pricing_plan_id":"cebpf4jnsgd1na2vs0mg"},{"bike_id":"af8529e9-dfc3-4103-aa99-3e1c8dc825fc","system_id":"levelo_inurba_marseille","lat":43.27207,"lon":5.39183,"is_reserved":false,"is_disabled":false,"rental_uris":{"android":"levelo://app?vid=af8529e9-dfc3-4103-aa99-3e1c8dc825fc","ios":"levelo://app?vid=af8529e9-dfc3-4103-aa99-3e1c8dc825fc"},"vehicle_type_id":"4","last_reported":1761865740,"current_range_meters":15200,"station_id":"ce4bhhp2rcd13ifvqfm0","pricing_plan_id":"cebpf4jnsgd1na2vs0mg"},{"bike_id":"88327406-ba65-4ce0-831c-3da476dbb691","system_id":"levelo_inurba_marseille","lat":43.23781,"lon":5.36627,"is_reserved":false,"is_disabled":false,"rental_uris":{"android":"levelo://app?vid=88327406-ba65-4ce0-831c-3da476dbb691","ios":"levelo://app?vid=88327406-ba65-4ce0-831c-3da476dbb691"},"vehicle_type_id":"4","last_reported":1761865740,"current_range_meters":15200,"station_id":"st_d3nk18o9ro0c73en2l3g","pricing_plan_id":"cebpf4jnsgd1na2vs0mg"},{"bike_id":"7afafebc-9388-4b96-826a-eb1746b15f9a","system_id":"levelo_inurba_marseille","lat":43.27077,"lon":5.42259,"is_reserved":false,"is_disabled":false,"rental_uris":{"android":"levelo://app?vid=7afafebc-9388-4b96-826a-eb1746b15f9a","ios":"levelo://app?vid=7afafebc-9388-4b96-826a-eb1746b15f9a"},"vehicle_type_id":"4","last_reported":1761865740,"current_range_meters":15200,"station_id":"ce4bhk92rcd13ifvqgb0","pricing_plan_id":"cebpf4jnsgd1na2vs0mg"},{"bike_id":"cde5c89e-769e-45e4-a1ae-b7d0a9029fa1","system_id":"levelo_inurba_marseille","lat":43.30641,"lon":5.40082,"is_reserved":false,"is_disabled":false,"rental_uris":{"android":"levelo://app?vid=cde5c89e-769e-45e4-a1ae-b7d0a9029fa1","ios":"levelo://app?vid=cde5c89e-769e-45e4-a1ae-b7d0a9029fa1"},"vehicle_type_id":"4","last_reported":1761865740,"current_range_meters":15200,"station_id":"ce4bh112rcd13ifvqda0","pricing_plan_id":"cebpf4jnsgd1na2vs0mg"},{"bike_id":"a657bfed-2a8a-41a5-8d2c-2d032f3588c4","system_id":"levelo_inurba_marseille","lat":43.25502,"lon":5.37646,"is_reserved":false,"is_disabled":false,"rental_uris":{"android":"levelo://app?vid=a657bfed-2a8a-41a5-8d2c-2d032f3588c4","ios":"levelo://app?vid=a657bfed-2a8a-41a5-8d2c-2d032f3588c4"},"vehicle_type_id":"4","last_reported":1761865740,"current_range_meters":15200,"station_id":"ce4bhh12rcd13ifvqff0","pricing_plan_id":"cebpf4jnsgd1na2vs0mg"},{"bike_id":"516995d3-31b4-460f-8436-1dc3fc004b9c","system_id":"levelo_inurba_marseille","lat":43.2926,"lon":5.40903,"is_reserved":false,"is_disabled":false,"rental_uris":{"android":"levelo://app?vid=516995d3-31b4-460f-8436-1dc3fc004b9c","ios":"levelo://app?vid=516995d3-31b4-460f-8436-1dc3fc004b9c"},"vehicle_type_id":"4","last_reported":1761865740,"current_range_meters":15200,"station_id":"ce4bh192rcd13ifvqdc0","pricing_plan_id":"cebpf4jnsgd1na2vs0mg"},{"bike_id":"aad6a064-c048-4ba9-a156-1745b89548aa","system_id":"levelo_inurba_marseille","lat":43.28318,"lon":5.41102,"is_reserved":false,"is_disabled":false,"rental_uris":{"android":"levelo://app?vid=aad6a064-c048-4ba9-a156-1745b89548aa","ios":"levelo://app?vid=aad6a064-c048-4ba9-a156-1745b89548aa"},"vehicle_type_id":"4","last_reported":1761865740,"current_range_meters":15200,"station_id":"","pricing_plan_id":"cebpf4jnsgd1na2vs0mg"},{"bike_id":"138ff61d-8859-4ecb-a94c-3a8ea01a7893","system_id":"levelo_inurba_marseille","lat":43.27939,"lon":5.41037,"is_reserved":false,"is_disabled":false,"rental_uris":{"android":"levelo://app?vid=138ff61d-8859-4ecb-a94c-3a8ea01a7893","ios":"levelo://app?vid=138ff61d-8859-4ecb-a94c-3a8ea01a7893"},"vehicle_type_id":"4","last_reported":1761865740,"current_range_meters":15200,"station_id":"ce4bhnp2rcd13ifvqh0g","pricing_plan_id":"cebpf4jnsgd1na2vs0mg"},{"bike_id":"bf249e9a-ea64-452d-bc1b-e8d78d39e8c4","system_id":"levelo_inurba_marseille","lat":43.2319,"lon":5.39979,"is_reserved":false,"is_disabled":false,"rental_uris":{"android":"levelo://app?vid=bf249e9a-ea64-452d-bc1b-e8d78d39e8c4","ios":"levelo://app?vid=bf249e9a-ea64-452d-bc1b-e8d78d39e8c4"},"vehicle_type_id":"4","last_reported":1761865740,"current_range_meters":15200,"station_id":"ce4bhn12rcd13ifvqgqg","pricing_plan_id":"cebpf4jnsgd1na2vs0mg"},{"bike_id":"28bbf614-7806-40a7-b631-19d992de53ed","system_id":"levelo_inurba_marseille","lat":43.22936,"lon":5.35367,"is_reserved":false,"is_disabled":false,"rental_uris":{"android":"levelo://app?vid=28bbf614-7806-40a7-b631-19d992de53ed","ios":"levelo://app?vid=28bbf614-7806-40a7-b631-19d992de53ed"},"vehicle_type_id":"4","last_reported":1761865740,"current_range_meters":15200,"station_id":"cpo3532slgdg3j2ikp40","pricing_plan_id":"cebpf4jnsgd1na2vs0mg"},{"bike_id":"9a28c307-938e-4357-a480-21088151146d","system_id":"levelo_inurba_marseille","lat":43.27779,"lon":5.43787,"is_reserved":false,"is_disabled":false,"rental_uris":{"android":"levelo://app?vid=9a28c307-938e-4357-a480-21088151146d","ios":"levelo://app?vid=9a28c307-938e-4357-a480-21088151146d"},"vehicle_type_id":"4","last_reported":1761865740,"current_range_meters":15200,"station_id":"","pricing_plan_id":"cebpf4jnsgd1na2vs0mg"},{"bike_id":"ee52d6a1-254f-4294-af63-f2cc34e4c3d4","system_id":"levelo_inurba_marseille","lat":43.30248,"lon":5.40048,"is_reserved":false,"is_disabled":false,"rental_uris":{"android":"levelo://app?vid=ee52d6a1-254f-4294-af63-f2cc34e4c3d4","ios":"levelo://app?vid=ee52d6a1-254f-4294-af63-f2cc34e4c3d4"},"vehicle_type_id":"4","last_reported":1761865740,"current_range_meters":15200,"station_id":"ce4bgvh2rcd13ifvqcs0","pricing_plan_id":"cebpf4jnsgd1na2vs0mg"},{"bike_id":"0ea07904-84f7-4751-a79c-34eb67ef8001","system_id":"levelo_inurba_marseille","lat":43.245426,"lon":5.395351,"is_reserved":false,"is_disabled":false,"rental_uris":{"android":"levelo://app?vid=0ea07904-84f7-4751-a79c-34eb67ef8001","ios":"levelo://app?vid=0ea07904-84f7-4751-a79c-34eb67ef8001"},"vehicle_type_id":"4","last_reported":1761865740,"current_range_meters":16000,"station_id":"ce4bhlp2rcd13ifvqgjg","pricing_plan_id":"cebpf4jnsgd1na2vs0mg"},{"bike_id":"0dc930ae-88e6-493c-ab95-8df0b3ac1f8b","system_id":"levelo_inurba_marseille","lat":43.29893,"lon":5.43666,"is_reserved":false,"is_disabled":false,"rental_uris":{"android":"levelo://app?vid=0dc930ae-88e6-493c-ab95-8df0b3ac1f8b","ios":"levelo://app?vid=0dc930ae-88e6-493c-ab95-8df0b3ac1f8b"},"vehicle_type_id":"4","last_reported":1761865740,"current_range_meters":16000,"station_id":"ce4bhpp2rcd13ifvqhfg","pricing_plan_id":"cebpf4jnsgd1na2vs0mg"},{"bike_id":"a3ba9ae1-19bb-4e14-8a8f-cd2d005b5815","system_id":"levelo_inurba_marseille","lat":43.28803,"lon":5.36649,"is_reserved":false,"is_disabled":false,"rental_uris":{"android":"levelo://app?vid=a3ba9ae1-19bb-4e14-8a8f-cd2d005b5815","ios":"levelo://app?vid=a3ba9ae1-19bb-4e14-8a8f-cd2d005b5815"},"vehicle_type_id":"4","last_reported":1761865740,"current_range_meters":16000,"station_id":"","pricing_plan_id":"cebpf4jnsgd1na2vs0mg"},{"bike_id":"75e2e341-989f-4547-9afe-4acc1fa290f9","system_id":"levelo_inurba_marseille","lat":43.27215,"lon":5.392,"is_reserved":false,"is_disabled":false,"rental_uris":{"android":"levelo://app?vid=75e2e341-989f-4547-9afe-4acc1fa290f9","ios":"levelo://app?vid=75e2e341-989f-4547-9afe-4acc1fa290f9"},"vehicle_type_id":"4","last_reported":1761865740,"current_range_meters":16000,"station_id":"ce4bhhp2rcd13ifvqfm0","pricing_plan_id":"cebpf4jnsgd1na2vs0mg"},{"bike_id":"80c53fab-d9fd-4b9a-94e7-e3f3183e35da","system_id":"levelo_inurba_marseille","lat":43.32999,"lon":5.39057,"is_reserved":false,"is_disabled":false,"rental_uris":{"android":"levelo://app?vid=80c53fab-d9fd-4b9a-94e7-e3f3183e35da","ios":"levelo://app?vid=80c53fab-d9fd-4b9a-94e7-e3f3183e35da"},"vehicle_type_id":"4","last_reported":1761865740,"current_range_meters":16000,"station_id":"ce4bhr92rcd13ifvqhrg","pricing_plan_id":"cebpf4jnsgd1na2vs0mg"},{"bike_id":"2662fe9b-aa47-4e6a-8505-64d896678582","system_id":"levelo_inurba_marseille","lat":43.22573,"lon":5.41617,"is_reserved":false,"is_disabled":false,"rental_uris":{"android":"levelo://app?vid=2662fe9b-aa47-4e6a-8505-64d896678582","ios":"levelo://app?vid=2662fe9b-aa47-4e6a-8505-64d896678582"},"vehicle_type_id":"4","last_reported":1761865740,"current_range_meters":16000,"station_id":"st_d2o4gvlbi1j2169b742g","pricing_plan_id":"cebpf4jnsgd1na2vs0mg"},{"bike_id":"e64c2e0a-7b4b-41fb-8ad4-e0d3e97f4b34","system_id":"levelo_inurba_marseille","lat":43.23183,"lon":5.39991,"is_reserved":false,"is_disabled":false,"rental_uris":{"android":"levelo://app?vid=e64c2e0a-7b4b-41fb-8ad4-e0d3e97f4b34","ios":"levelo://app?vid=e64c2e0a-7b4b-41fb-8ad4-e0d3e97f4b34"},"vehicle_type_id":"4","last_reported":1761865740,"current_range_meters":16000,"station_id":"ce4bhn12rcd13ifvqgqg","pricing_plan_id":"cebpf4jnsgd1na2vs0mg"},{"bike_id":"8a0ff850-cf9f-4e75-bc3f-994489f28f31","system_id":"levelo_inurba_marseille","lat":43.22562,"lon":5.41628,"is_reserved":false,"is_disabled":false,"rental_uris":{"android":"levelo://app?vid=8a0ff850-cf9f-4e75-bc3f-994489f28f31","ios":"levelo://app?vid=8a0ff850-cf9f-4e75-bc3f-994489f28f31"},"vehicle_type_id":"4","last_reported":1761865740,"current_range_meters":16000,"station_id":"st_d2o4gvlbi1j2169b742g","pricing_plan_id":"cebpf4jnsgd1na2vs0mg"},{"bike_id":"6082ef56-334f-4115-b7f0-ff8faa7865a2","system_id":"levelo_inurba_marseille","lat":43.29606,"lon":5.37672,"is_reserved":false,"is_disabled":false,"rental_uris":{"android":"levelo://app?vid=6082ef56-334f-4115-b7f0-ff8faa7865a2","ios":"levelo://app?vid=6082ef56-334f-4115-b7f0-ff8faa7865a2"},"vehicle_type_id":"4","last_reported":1761865740,"current_range_meters":16000,"station_id":"ce4bgi12rcd13ifvqb80","pricing_plan_id":"cebpf4jnsgd1na2vs0mg"},{"bike_id":"46835159-5dd5-4fc9-a732-591f6a5307e4","system_id":"levelo_inurba_marseille","lat":43.31351,"lon":5.37912,"is_reserved":false,"is_disabled":false,"rental_uris":{"android":"levelo://app?vid=46835159-5dd5-4fc9-a732-591f6a5307e4","ios":"levelo://app?vid=46835159-5dd5-4fc9-a732-591f6a5307e4"},"vehicle_type_id":"4","last_reported":1761865740,"current_range_meters":16000,"station_id":"","pricing_plan_id":"cebpf4jnsgd1na2vs0mg"},{"bike_id":"b8f404d3-62c4-4489-a471-d37212346558","system_id":"levelo_inurba_marseille","lat":43.31058,"lon":5.37848,"is_reserved":false,"is_disabled":false,"rental_uris":{"android":"levelo://app?vid=b8f404d3-62c4-4489-a471-d37212346558","ios":"levelo://app?vid=b8f404d3-62c4-4489-a471-d37212346558"},"vehicle_type_id":"4","last_reported":1761865740,"current_range_meters":16000,"station_id":"","pricing_plan_id":"cebpf4jnsgd1na2vs0mg"},{"bike_id":"1282d74a-548d-440e-84c8-e15be2e1b590","system_id":"levelo_inurba_marseille","lat":43.26236,"lon":5.37961,"is_reserved":false,"is_disabled":false,"rental_uris":{"android":"levelo://app?vid=1282d74a-548d-440e-84c8-e15be2e1b590","ios":"levelo://app?vid=1282d74a-548d-440e-84c8-e15be2e1b590"},"vehicle_type_id":"4","last_reported":1761865740,"current_range_meters":16400,"station_id":"ce4bhjp2rcd13ifvqg90","pricing_plan_id":"cebpf4jnsgd1na2vs0mg"},{"bike_id":"0ddd52f3-af9c-49de-9bf2-944301dde1b1","system_id":"levelo_inurba_marseille","lat":43.27824,"lon":5.40711,"is_reserved":false,"is_disabled":false,"rental_uris":{"android":"levelo://app?vid=0ddd52f3-af9c-49de-9bf2-944301dde1b1","ios":"levelo://app?vid=0ddd52f3-af9c-49de-9bf2-944301dde1b1"},"vehicle_type_id":"4","last_reported":1761865740,"current_range_meters":16400,"station_id":"ce4bhnh2rcd13ifvqgtg","pricing_plan_id":"cebpf4jnsgd1na2vs0mg"},{"bike_id":"53c0fca0-a7b4-4992-ba09-37a659a3b147","system_id":"levelo_inurba_marseille","lat":43.28437,"lon":5.39182,"is_reserved":false,"is_disabled":false,"rental_uris":{"android":"levelo://app?vid=53c0fca0-a7b4-4992-ba09-37a659a3b147","ios":"levelo://app?vid=53c0fca0-a7b4-4992-ba09-37a659a3b147"},"vehicle_type_id":"4","last_reported":1761865740,"current_range_meters":16400,"station_id":"ce4bhoh2rcd13ifvqh5g","pricing_plan_id":"cebpf4jnsgd1na2vs0mg"},{"bike_id":"a4dac4fa-66e6-48be-a654-6e17cdc7ca0b","system_id":"levelo_inurba_marseille","lat":43.337571,"lon":5.374323,"is_reserved":false,"is_disabled":false,"rental_uris":{"android":"levelo://app?vid=a4dac4fa-66e6-48be-a654-6e17cdc7ca0b","ios":"levelo://app?vid=a4dac4fa-66e6-48be-a654-6e17cdc7ca0b"},"vehicle_type_id":"4","last_reported":1761865740,"current_range_meters":16400,"station_id":"","pricing_plan_id":"cebpf4jnsgd1na2vs0mg"},{"bike_id":"609eccca-b55b-4605-87cd-a8fbec0dfdd6","system_id":"levelo_inurba_marseille","lat":43.29655,"lon":5.40599,"is_reserved":false,"is_disabled":false,"rental_uris":{"android":"levelo://app?vid=609eccca-b55b-4605-87cd-a8fbec0dfdd6","ios":"levelo://app?vid=609eccca-b55b-4605-87cd-a8fbec0dfdd6"},"vehicle_type_id":"4","last_reported":1761865740,"current_range_meters":16400,"station_id":"ce4bh0h2rcd13ifvqd60","pricing_plan_id":"cebpf4jnsgd1na2vs0mg"},{"bike_id":"f6722368-9cf7-4a08-86fa-a64de38b9829","system_id":"levelo_inurba_marseille","lat":43.27559,"lon":5.384349,"is_reserved":false,"is_disabled":false,"rental_uris":{"android":"levelo://app?vid=f6722368-9cf7-4a08-86fa-a64de38b9829","ios":"levelo://app?vid=f6722368-9cf7-4a08-86fa-a64de38b9829"},"vehicle_type_id":"4","last_reported":1761865740,"current_range_meters":16400,"station_id":"ce4bhh92rcd13ifvqfi0","pricing_plan_id":"cebpf4jnsgd1na2vs0mg"},{"bike_id":"d3173905-3c9f-4639-b7f0-7933d51eab66","system_id":"levelo_inurba_marseille","lat":43.25328,"lon":5.42172,"is_reserved":false,"is_disabled":false,"rental_uris":{"android":"levelo://app?vid=d3173905-3c9f-4639-b7f0-7933d51eab66","ios":"levelo://app?vid=d3173905-3c9f-4639-b7f0-7933d51eab66"},"vehicle_type_id":"4","last_reported":1761865740,"current_range_meters":16400,"station_id":"st_d2m65c5bi1j21697t3ng","pricing_plan_id":"cebpf4jnsgd1na2vs0mg"},{"bike_id":"3ebbf987-b9a6-468b-a094-ea28047aaf68","system_id":"levelo_inurba_marseille","lat":43.273193,"lon":5.39078,"is_reserved":false,"is_disabled":false,"rental_uris":{"android":"levelo://app?vid=3ebbf987-b9a6-468b-a094-ea28047aaf68","ios":"levelo://app?vid=3ebbf987-b9a6-468b-a094-ea28047aaf68"},"vehicle_type_id":"4","last_reported":1761865740,"current_range_meters":16400,"station_id":"ce4bhgp2rcd13ifvqfe0","pricing_plan_id":"cebpf4jnsgd1na2vs0mg"},{"bike_id":"709dc3cb-272e-4021-beff-59c84c7800d8","system_id":"levelo_inurba_marseille","lat":43.24657,"lon":5.38887,"is_reserved":false,"is_disabled":false,"rental_uris":{"android":"levelo://app?vid=709dc3cb-272e-4021-beff-59c84c7800d8","ios":"levelo://app?vid=709dc3cb-272e-4021-beff-59c84c7800d8"},"vehicle_type_id":"4","last_reported":1761865740,"current_range_meters":16800,"station_id":"ce4bhg12rcd13ifvqf60","pricing_plan_id":"cebpf4jnsgd1na2vs0mg"},{"bike_id":"f4df9bd8-5099-45e6-bb05-0397054b1b82","system_id":"levelo_inurba_marseille","lat":43.26565,"lon":5.40328,"is_reserved":false,"is_disabled":false,"rental_uris":{"android":"levelo://app?vid=f4df9bd8-5099-45e6-bb05-0397054b1b82","ios":"levelo://app?vid=f4df9bd8-5099-45e6-bb05-0397054b1b82"},"vehicle_type_id":"4","last_reported":1761865740,"current_range_meters":16800,"station_id":"ce4bhmp2rcd13ifvqgng","pricing_plan_id":"cebpf4jnsgd1na2vs0mg"},{"bike_id":"9da932a5-8f71-41d5-90d3-bb657dc1c603","system_id":"levelo_inurba_marseille","lat":43.276635,"lon":5.388816,"is_reserved":false,"is_disabled":false,"rental_uris":{"android":"levelo://app?vid=9da932a5-8f71-41d5-90d3-bb657dc1c603","ios":"levelo://app?vid=9da932a5-8f71-41d5-90d3-bb657dc1c603"},"vehicle_type_id":"4","last_reported":1761865740,"current_range_meters":16800,"station_id":"ce4bhi12rcd13ifvqfo0","pricing_plan_id":"cebpf4jnsgd1na2vs0mg"},{"bike_id":"79ab418a-79c0-4a6e-993b-761280f132d6","system_id":"levelo_inurba_marseille","lat":43.284811,"lon":5.484001,"is_reserved":false,"is_disabled":false,"rental_uris":{"android":"levelo://app?vid=79ab418a-79c0-4a6e-993b-761280f132d6","ios":"levelo://app?vid=79ab418a-79c0-4a6e-993b-761280f132d6"},"vehicle_type_id":"4","last_reported":1761865740,"current_range_meters":16800,"station_id":"st_d3svhcjqgbts73a3dn0g","pricing_plan_id":"cebpf4jnsgd1na2vs0mg"},{"bike_id":"20becc26-222d-4fd7-a0af-b39aa7873ead","system_id":"levelo_inurba_marseille","lat":43.265615,"lon":5.372932,"is_reserved":false,"is_disabled":false,"rental_uris":{"android":"levelo://app?vid=20becc26-222d-4fd7-a0af-b39aa7873ead","ios":"levelo://app?vid=20becc26-222d-4fd7-a0af-b39aa7873ead"},"vehicle_type_id":"4","last_reported":1761865740,"current_range_meters":16800,"station_id":"ce4bhg12rcd13ifvqf70","pricing_plan_id":"cebpf4jnsgd1na2vs0mg"},{"bike_id":"ad554042-17be-4e7a-abcb-5142fefcc30a","system_id":"levelo_inurba_marseille","lat":43.3377,"lon":5.37469,"is_reserved":false,"is_disabled":true,"rental_uris":{"android":"levelo://app?vid=ad554042-17be-4e7a-abcb-5142fefcc30a","ios":"levelo://app?vid=ad554042-17be-4e7a-abcb-5142fefcc30a"},"vehicle_type_id":"4","last_reported":1761865740,"current_range_meters":16800,"station_id":"","pricing_plan_id":"cebpf4jnsgd1na2vs0mg"},{"bike_id":"01716a2e-d99d-4c1c-9d38-f787d51b810f","system_id":"levelo_inurba_marseille","lat":43.29528,"lon":5.38552,"is_reserved":false,"is_disabled":false,"rental_uris":{"android":"levelo://app?vid=01716a2e-d99d-4c1c-9d38-f787d51b810f","ios":"levelo://app?vid=01716a2e-d99d-4c1c-9d38-f787d51b810f"},"vehicle_type_id":"4","last_reported":1761865740,"current_range_meters":17200,"station_id":"ce4bgih2rcd13ifvqba0","pricing_plan_id":"cebpf4jnsgd1na2vs0mg"},{"bike_id":"10550d20-c29a-421a-ad3c-0acbf44c0aaf","system_id":"levelo_inurba_marseille","lat":43.24799,"lon":5.37487,"is_reserved":false,"is_disabled":false,"rental_uris":{"android":"levelo://app?vid=10550d20-c29a-421a-ad3c-0acbf44c0aaf","ios":"levelo://app?vid=10550d20-c29a-421a-ad3c-0acbf44c0aaf"},"vehicle_type_id":"4","last_reported":1761865740,"current_range_meters":17200,"station_id":"ce4bhgh2rcd13ifvqfb0","pricing_plan_id":"cebpf4jnsgd1na2vs0mg"},{"bike_id":"ee261a32-9de1-4b9e-a923-6c91e1e26176","system_id":"levelo_inurba_marseille","lat":43.28481,"lon":5.48384,"is_reserved":false,"is_disabled":false,"rental_uris":{"android":"levelo://app?vid=ee261a32-9de1-4b9e-a923-6c91e1e26176","ios":"levelo://app?vid=ee261a32-9de1-4b9e-a923-6c91e1e26176"},"vehicle_type_id":"4","last_reported":1761865740,"current_range_meters":17200,"station_id":"st_d3svhcjqgbts73a3dn0g","pricing_plan_id":"cebpf4jnsgd1na2vs0mg"},{"bike_id":"3b8d8128-20c3-4189-8013-ffc8bbfec252","system_id":"levelo_inurba_marseille","lat":43.28614,"lon":5.35102,"is_reserved":false,"is_disabled":false,"rental_uris":{"android":"levelo://app?vid=3b8d8128-20c3-4189-8013-ffc8bbfec252","ios":"levelo://app?vid=3b8d8128-20c3-4189-8013-ffc8bbfec252"},"vehicle_type_id":"4","last_reported":1761865740,"current_range_meters":17200,"station_id":"ce4bhch2rcd13ifvqeug","pricing_plan_id":"cebpf4jnsgd1na2vs0mg"},{"bike_id":"14bf380a-0a43-4ae3-aac3-e33047dea600","system_id":"levelo_inurba_marseille","lat":43.29153,"lon":5.37065,"is_reserved":false,"is_disabled":true,"rental_uris":{"android":"levelo://app?vid=14bf380a-0a43-4ae3-aac3-e33047dea600","ios":"levelo://app?vid=14bf380a-0a43-4ae3-aac3-e33047dea600"},"vehicle_type_id":"4","last_reported":1761865740,"current_range_meters":17200,"station_id":"","pricing_plan_id":"cebpf4jnsgd1na2vs0mg"},{"bike_id":"1c005448-08df-4d9b-8378-de7620914b2d","system_id":"levelo_inurba_marseille","lat":43.30607,"lon":5.37223,"is_reserved":false,"is_disabled":false,"rental_uris":{"android":"levelo://app?vid=1c005448-08df-4d9b-8378-de7620914b2d","ios":"levelo://app?vid=1c005448-08df-4d9b-8378-de7620914b2d"},"vehicle_type_id":"4","last_reported":1761865740,"current_range_meters":17200,"station_id":"ce4bgqh2rcd13ifvqc4g","pricing_plan_id":"cebpf4jnsgd1na2vs0mg"},{"bike_id":"ba2b1460-094e-4458-b77e-91ff29365ff1","system_id":"levelo_inurba_marseille","lat":43.30534,"lon":5.38426,"is_reserved":false,"is_disabled":false,"rental_uris":{"android":"levelo://app?vid=ba2b1460-094e-4458-b77e-91ff29365ff1","ios":"levelo://app?vid=ba2b1460-094e-4458-b77e-91ff29365ff1"},"vehicle_type_id":"4","last_reported":1761865740,"current_range_meters":17600,"station_id":"ce4bgg92rcd13ifvqb30","pricing_plan_id":"cebpf4jnsgd1na2vs0mg"},{"bike_id":"3ca52d28-0253-4183-be5a-7286cd190908","system_id":"levelo_inurba_marseille","lat":43.27951,"lon":5.41038,"is_reserved":false,"is_disabled":false,"rental_uris":{"android":"levelo://app?vid=3ca52d28-0253-4183-be5a-7286cd190908","ios":"levelo://app?vid=3ca52d28-0253-4183-be5a-7286cd190908"},"vehicle_type_id":"4","last_reported":1761865740,"current_range_meters":17600,"station_id":"ce4bhnp2rcd13ifvqh0g","pricing_plan_id":"cebpf4jnsgd1na2vs0mg"},{"bike_id":"d367e803-0cc0-433f-bfa1-60ffe7c595bd","system_id":"levelo_inurba_marseille","lat":43.30746,"lon":5.42451,"is_reserved":false,"is_disabled":false,"rental_uris":{"android":"levelo://app?vid=d367e803-0cc0-433f-bfa1-60ffe7c595bd","ios":"levelo://app?vid=d367e803-0cc0-433f-bfa1-60ffe7c595bd"},"vehicle_type_id":"4","last_reported":1761865740,"current_range_meters":17600,"station_id":"st_cvj6ca6bvosntc0bfgr0","pricing_plan_id":"cebpf4jnsgd1na2vs0mg"},{"bike_id":"9c949a45-353c-4fea-a7b1-2aa63358177a","system_id":"levelo_inurba_marseille","lat":43.31073,"lon":5.38353,"is_reserved":false,"is_disabled":false,"rental_uris":{"android":"levelo://app?vid=9c949a45-353c-4fea-a7b1-2aa63358177a","ios":"levelo://app?vid=9c949a45-353c-4fea-a7b1-2aa63358177a"},"vehicle_type_id":"4","last_reported":1761865740,"current_range_meters":17600,"station_id":"ce4bgv92rcd13ifvqcr0","pricing_plan_id":"cebpf4jnsgd1na2vs0mg"},{"bike_id":"319b8584-93f2-449c-b056-ea3f20ebc971","system_id":"levelo_inurba_marseille","lat":43.28512,"lon":5.43002,"is_reserved":false,"is_disabled":false,"rental_uris":{"android":"levelo://app?vid=319b8584-93f2-449c-b056-ea3f20ebc971","ios":"levelo://app?vid=319b8584-93f2-449c-b056-ea3f20ebc971"},"vehicle_type_id":"4","last_reported":1761865740,"current_range_meters":17600,"station_id":"","pricing_plan_id":"cebpf4jnsgd1na2vs0mg"},{"bike_id":"2cf7c970-2668-4791-ab61-3ff7a6cc1c1e","system_id":"levelo_inurba_marseille","lat":43.30419,"lon":5.41283,"is_reserved":false,"is_disabled":false,"rental_uris":{"android":"levelo://app?vid=2cf7c970-2668-4791-ab61-3ff7a6cc1c1e","ios":"levelo://app?vid=2cf7c970-2668-4791-ab61-3ff7a6cc1c1e"},"vehicle_type_id":"4","last_reported":1761865740,"current_range_meters":18000,"station_id":"ce4bhop2rcd13ifvqh8g","pricing_plan_id":"cebpf4jnsgd1na2vs0mg"},{"bike_id":"e689a1c3-c0a6-4360-9617-9d3223325b8c","system_id":"levelo_inurba_marseille","lat":43.25096,"lon":5.39518,"is_reserved":false,"is_disabled":false,"rental_uris":{"android":"levelo://app?vid=e689a1c3-c0a6-4360-9617-9d3223325b8c","ios":"levelo://app?vid=e689a1c3-c0a6-4360-9617-9d3223325b8c"},"vehicle_type_id":"4","last_reported":1761865740,"current_range_meters":18000,"station_id":"ce4bhm12rcd13ifvqgkg","pricing_plan_id":"cebpf4jnsgd1na2vs0mg"},{"bike_id":"c1a6ecb0-a4de-4625-974a-f8aafdcce22e","system_id":"levelo_inurba_marseille","lat":43.30294,"lon":5.40456,"is_reserved":false,"is_disabled":false,"rental_uris":{"android":"levelo://app?vid=c1a6ecb0-a4de-4625-974a-f8aafdcce22e","ios":"levelo://app?vid=c1a6ecb0-a4de-4625-974a-f8aafdcce22e"},"vehicle_type_id":"4","last_reported":1761865740,"current_range_meters":18000,"station_id":"ce4bh012rcd13ifvqd10","pricing_plan_id":"cebpf4jnsgd1na2vs0mg"},{"bike_id":"d2999510-f948-4c68-9a9e-18959de98038","system_id":"levelo_inurba_marseille","lat":43.31076,"lon":5.38351,"is_reserved":false,"is_disabled":false,"rental_uris":{"android":"levelo://app?vid=d2999510-f948-4c68-9a9e-18959de98038","ios":"levelo://app?vid=d2999510-f948-4c68-9a9e-18959de98038"},"vehicle_type_id":"4","last_reported":1761865740,"current_range_meters":18000,"station_id":"ce4bgv92rcd13ifvqcr0","pricing_plan_id":"cebpf4jnsgd1na2vs0mg"},{"bike_id":"6cd59db7-cb12-4301-8385-22b87d7a5cfd","system_id":"levelo_inurba_marseille","lat":43.28531,"lon":5.4409,"is_reserved":false,"is_disabled":false,"rental_uris":{"android":"levelo://app?vid=6cd59db7-cb12-4301-8385-22b87d7a5cfd","ios":"levelo://app?vid=6cd59db7-cb12-4301-8385-22b87d7a5cfd"},"vehicle_type_id":"4","last_reported":1761865740,"current_range_meters":18000,"station_id":"st_d3j3df2ikq2c7380ej80","pricing_plan_id":"cebpf4jnsgd1na2vs0mg"},{"bike_id":"cc1b0318-7764-4d0c-b98d-438e90e57059","system_id":"levelo_inurba_marseille","lat":43.28929,"lon":5.38398,"is_reserved":false,"is_disabled":false,"rental_uris":{"android":"levelo://app?vid=cc1b0318-7764-4d0c-b98d-438e90e57059","ios":"levelo://app?vid=cc1b0318-7764-4d0c-b98d-438e90e57059"},"vehicle_type_id":"4","last_reported":1761865740,"current_range_meters":18000,"station_id":"ce4bh612rcd13ifvqe6g","pricing_plan_id":"cebpf4jnsgd1na2vs0mg"},{"bike_id":"80d5f4f3-4414-474f-bfdb-01fae53dfa4a","system_id":"levelo_inurba_marseille","lat":43.25113,"lon":5.40328,"is_reserved":false,"is_disabled":false,"rental_uris":{"android":"levelo://app?vid=80d5f4f3-4414-474f-bfdb-01fae53dfa4a","ios":"levelo://app?vid=80d5f4f3-4414-474f-bfdb-01fae53dfa4a"},"vehicle_type_id":"4","last_reported":1761865740,"current_range_meters":18000,"station_id":"ce4bhlh2rcd13ifvqgig","pricing_plan_id":"cebpf4jnsgd1na2vs0mg"},{"bike_id":"ea15699c-80f0-4f7b-8206-5dd55e6640d8","system_id":"levelo_inurba_marseille","lat":43.30532,"lon":5.38423,"is_reserved":false,"is_disabled":false,"rental_uris":{"android":"levelo://app?vid=ea15699c-80f0-4f7b-8206-5dd55e6640d8","ios":"levelo://app?vid=ea15699c-80f0-4f7b-8206-5dd55e6640d8"},"vehicle_type_id":"4","last_reported":1761865740,"current_range_meters":18000,"station_id":"ce4bgg92rcd13ifvqb30","pricing_plan_id":"cebpf4jnsgd1na2vs0mg"},{"bike_id":"90cc4e35-1e9a-4d48-878d-a3997094c0ce","system_id":"levelo_inurba_marseille","lat":43.246515,"lon":5.431323,"is_reserved":false,"is_disabled":false,"rental_uris":{"android":"levelo://app?vid=90cc4e35-1e9a-4d48-878d-a3997094c0ce","ios":"levelo://app?vid=90cc4e35-1e9a-4d48-878d-a3997094c0ce"},"vehicle_type_id":"4","last_reported":1761865740,"current_range_meters":18000,"station_id":"st_d2m6c4gdas8pm72e190g","pricing_plan_id":"cebpf4jnsgd1na2vs0mg"},