{"last_updated":1737721036,"ttl":60,"version":"2.2","data":{"bikes":[{"bike_id":"71025e83-daff-40eb-8f70-b8e1fc9300fb","system_id":"levelo_inurba_marseille","lat":43.22933,"lon":5.35383,"is_reserved":false,"is_disabled":false,"rental_uris":{"android":"levelo://app?vid=71025e83-daff-40eb-8f70-b8e1fc9300fb","ios":"levelo://app?vid=71025e83-daff-40eb-8f70-b8e1fc9300fb"},"vehicle_type_id":"4","last_reported":1737721037,"current_range_meters":39200,"station_id":"cpo3532slgdg3j2ikp40","pricing_plan_id":"cebpf4jnsgd1na2vs0mg"},{"bike_id":"ebbe391d-f1e8-4ff2-b709-e772b2444b74","system_id":"levelo_inurba_marseille","lat":43.30532,"lon":5.36527,"is_reserved":false,"is_disabled":false,"rental_uris":{"android":"levelo://app?vid=ebbe391d-f1e8-4ff2-b709-e772b2444b74","ios":"levelo://app?vid=ebbe391d-f1e8-4ff2-b709-e772b2444b74"},"vehicle_type_id":"4","last_reported":1737721037,"current_range_meters":28800,"station_id":"ce4bgs12rcd13ifvqcag","pricing_plan_id":"cebpf4jnsgd1na2vs0mg"},{"bike_id":"7966d265-10a4-42b0-abfc-14ed9fe5a604","system_id":"levelo_inurba_marseille","lat":43.29612,"lon":5.37725,"is_reserved":false,"is_disabled":false,"rental_uris":{"android":"levelo://app?vid=7966d265-10a4-42b0-abfc-14ed9fe5a604","ios":"levelo://app?vid=7966d265-10a4-42b0-abfc-14ed9fe5a604"},"vehicle_type_id":"4","last_reported":1737721037,"current_range_meters":26000,"station_id":"ce4bgi92rcd13ifvqb90","pricing_plan_id":"cebpf4jnsgd1na2vs0mg"},{"bike_id":"9c7eaa63-fad9-42a1-ac6c-648c1755a7f5","system_id":"levelo_inurba_marseille","lat":43.28537,"lon":5.39092,"is_reserved":false,"is_disabled":false,"rental_uris":{"android":"levelo://app?vid=9c7eaa63-fad9-42a1-ac6c-648c1755a7f5","ios":"levelo://app?vid=9c7eaa63-fad9-42a1-ac6c-648c1755a7f5"},"vehicle_type_id":"4","last_reported":1737721037,"current_range_meters":31200,"station_id":"","pricing_plan_id":"cebpf4jnsgd1na2vs0mg"},{"bike_id":"c4df36f3-e406-427e-aa11-9767e867ccd8","system_id":"levelo_inurba_marseille","lat":43.29285,"lon":5.37484,"is_reserved":false,"is_disabled":false,"rental_uris":{"android":"levelo://app?vid=c4df36f3-e406-427e-aa11-9767e867ccd8","ios":"levelo://app?vid=c4df36f3-e406-427e-aa11-9767e867ccd8"},"vehicle_type_id":"4","last_reported":1737721037,"current_range_meters":24400,"station_id":"ce4bgi12rcd13ifvqb70","pricing_plan_id":"cebpf4jnsgd1na2vs0mg"},{"bike_id":"abae30d7-015c-45d0-baf7-7bebb0c952c3","system_id":"levelo_inurba_marseille","lat":43.22932,"lon":5.35377,"is_reserved":false,"is_disabled":false,"rental_uris":{"android":"levelo://app?vid=abae30d7-015c-45d0-baf7-7bebb0c952c3","ios":"levelo://app?vid=abae30d7-015c-45d0-baf7-7bebb0c952c3"},"vehicle_type_id":"4","last_reported":1737721037,"current_range_meters":38000,"station_id":"cpo3532slgdg3j2ikp40","pricing_plan_id":"cebpf4jnsgd1na2vs0mg"},{"bike_id":"5ca1b0d9-e907-4880-8a5c-e9faab2c55a0","system_id":"levelo_inurba_marseille","lat":43.30502,"lon":5.3655,"is_reserved":false,"is_disabled":false,"rental_uris":{"android":"levelo://app?vid=5ca1b0d9-e907-4880-8a5c-e9faab2c55a0","ios":"levelo://app?vid=5ca1b0d9-e907-4880-8a5c-e9faab2c55a0"},"vehicle_type_id":"4","last_reported":1737721037,"current_range_meters":9200,"station_id":"","pricing_plan_id":"cebpf4jnsgd1na2vs0mg"},{"bike_id":"55425879-30bb-4a78-be78-c5ddd08ac409","system_id":"levelo_inurba_marseille","lat":43.28727,"lon":5.37939,"is_reserved":false,"is_disabled":false,"rental_uris":{"android":"levelo://app?vid=55425879-30bb-4a78-be78-c5ddd08ac409","ios":"levelo://app?vid=55425879-30bb-4a78-be78-c5ddd08ac409"},"vehicle_type_id":"4","last_reported":1737721037,"current_range_meters":30400,"station_id":"ce4bh9p2rcd13ifvqec0","pricing_plan_id":"cebpf4jnsgd1na2vs0mg"},{"bike_id":"0793f05d-0029-4d54-a0fe-9c0436426db5","system_id":"levelo_inurba_marseille","lat":43.23194,"lon":5.35557,"is_reserved":false,"is_disabled":false,"rental_uris":{"android":"levelo://app?vid=0793f05d-0029-4d54-a0fe-9c0436426db5","ios":"levelo://app?vid=0793f05d-0029-4d54-a0fe-9c0436426db5"},"vehicle_type_id":"4","last_reported":1737721037,"current_range_meters":5600,"station_id":"ce4bhu92rcd13ifvqi70","pricing_plan_id":"cebpf4jnsgd1na2vs0mg"},{"bike_id":"ff62eb49-1c81-473f-be53-62988cd921bd","system_id":"levelo_inurba_marseille","lat":43.29415,"lon":5.38627,"is_reserved":false,"is_disabled":false,"rental_uris":{"android":"levelo://app?vid=ff62eb49-1c81-473f-be53-62988cd921bd","ios":"levelo://app?vid=ff62eb49-1c81-473f-be53-62988cd921bd"},"vehicle_type_id":"4","last_reported":1737721037,"current_range_meters":22800,"station_id":"ce4bh2h2rcd13ifvqdh0","pricing_plan_id":"cebpf4jnsgd1na2vs0mg"},{"bike_id":"0dd91f0c-a48b-4f52-8436-25ee6729104b","system_id":"levelo_inurba_marseille","lat":43.30574,"lon":5.37182,"is_reserved":false,"is_disabled":false,"rental_uris":{"android":"levelo://app?vid=0dd91f0c-a48b-4f52-8436-25ee6729104b","ios":"levelo://app?vid=0dd91f0c-a48b-4f52-8436-25ee6729104b"},"vehicle_type_id":"4","last_reported":1737721037,"current_range_meters":28000,"station_id":"ce4bgqh2rcd13ifvqc4g","pricing_plan_id":"cebpf4jnsgd1na2vs0mg"},{"bike_id":"eb97554e-9784-452b-b85e-e8331efd4fe5","system_id":"levelo_inurba_marseille","lat":43.31363,"lon":5.36705,"is_reserved":false,"is_disabled":false,"rental_uris":{"android":"levelo://app?vid=eb97554e-9784-452b-b85e-e8331efd4fe5","ios":"levelo://app?vid=eb97554e-9784-452b-b85e-e8331efd4fe5"},"vehicle_type_id":"4","last_reported":1737721037,"current_range_meters":38800,"station_id":"ce4bgr92rcd13ifvqc6g","pricing_plan_id":"cebpf4jnsgd1na2vs0mg"},{"bike_id":"cb0ff26d-12db-4f4f-8a1e-edf0f3766303","system_id":"levelo_inurba_marseille","lat":43.31204,"lon":5.36876,"is_reserved":false,"is_disabled":false,"rental_uris":{"android":"levelo://app?vid=cb0ff26d-12db-4f4f-8a1e-edf0f3766303","ios":"levelo://app?vid=cb0ff26d-12db-4f4f-8a1e-edf0f3766303"},"vehicle_type_id":"4","last_reported":1737721037,"current_range_meters":8800,"station_id":"ce4bgl92rcd13ifvqbq0","pricing_plan_id":"cebpf4jnsgd1na2vs0mg"},{"bike_id":"6d80f215-ddf3-4448-abd9-11f3b32ea7fe","system_id":"levelo_inurba_marseille","lat":43.3108,"lon":5.42434,"is_reserved":false,"is_disabled":false,"rental_uris":{"android":"levelo://app?vid=6d80f215-ddf3-4448-abd9-11f3b32ea7fe","ios":"levelo://app?vid=6d80f215-ddf3-4448-abd9-11f3b32ea7fe"},"vehicle_type_id":"4","last_reported":1737721037,"current_range_meters":9200,"station_id":"ce4bhp92rcd13ifvqhag","pricing_plan_id":"cebpf4jnsgd1na2vs0mg"},{"bike_id":"18675e10-7b7e-4542-9ea5-424608b7fd98","system_id":"levelo_inurba_marseille","lat":43.29008,"lon":5.35614,"is_reserved":false,"is_disabled":false,"rental_uris":{"android":"levelo://app?vid=18675e10-7b7e-4542-9ea5-424608b7fd98","ios":"levelo://app?vid=18675e10-7b7e-4542-9ea5-424608b7fd98"},"vehicle_type_id":"4","last_reported":1737721037,"current_range_meters":38800,"station_id":"ce4bhb92rcd13ifvqen0","pricing_plan_id":"cebpf4jnsgd1na2vs0mg"},{"bike_id":"06fcbbbb-c9dd-4be1-9d7d-b2611a2c10e7","system_id":"levelo_inurba_marseille","lat":43.3266,"lon":5.40998,"is_reserved":false,"is_disabled":false,"rental_uris":{"android":"levelo://app?vid=06fcbbbb-c9dd-4be1-9d7d-b2611a2c10e7","ios":"levelo://app?vid=06fcbbbb-c9dd-4be1-9d7d-b2611a2c10e7"},"vehicle_type_id":"4","last_reported":1737721037,"current_range_meters":28000,"station_id":"ce4bhpp2rcd13ifvqhgg","pricing_plan_id":"cebpf4jnsgd1na2vs0mg"},{"bike_id":"367c1a4d-e3ef-4cc4-8a53-e7c1e322176a","system_id":"levelo_inurba_marseille","lat":43.3017,"lon":5.38079,"is_reserved":false,"is_disabled":false,"rental_uris":{"android":"levelo://app?vid=367c1a4d-e3ef-4cc4-8a53-e7c1e322176a","ios":"levelo://app?vid=367c1a4d-e3ef-4cc4-8a53-e7c1e322176a"},"vehicle_type_id":"4","last_reported":1737721037,"current_range_meters":39200,"station_id":"ce4bgjp2rcd13ifvqbh0","pricing_plan_id":"cebpf4jnsgd1na2vs0mg"},{"bike_id":"fa235921-264c-45fa-9486-36940e44284c","system_id":"levelo_inurba_marseille","lat":43.25585,"lon":5.38216,"is_reserved":false,"is_disabled":false,"rental_uris":{"android":"levelo://app?vid=fa235921-264c-45fa-9486-36940e44284c","ios":"levelo://app?vid=fa235921-264c-45fa-9486-36940e44284c"},"vehicle_type_id":"4","last_reported":1737721037,"current_range_meters":39200,"station_id":"ce4bhih2rcd13ifvqfs0","pricing_plan_id":"cebpf4jnsgd1na2vs0mg"},{"bike_id":"59e599e2-aa0c-47e0-b327-0676fd03ab57","system_id":"levelo_inurba_marseille","lat":43.24159,"lon":5.36408,"is_reserved":false,"is_disabled":false,"rental_uris":{"android":"levelo://app?vid=59e599e2-aa0c-47e0-b327-0676fd03ab57","ios":"levelo://app?vid=59e599e2-aa0c-47e0-b327-0676fd03ab57"},"vehicle_type_id":"4","last_reported":1737721037,"current_range_meters":25600,"station_id":"cpo36qri1sfpv3e86is0","pricing_plan_id":"cebpf4jnsgd1na2vs0mg"},{"bike_id":"3169bea1-794e-4a56-bb06-3b17a235f305","system_id":"levelo_inurba_marseille","lat":43.25727,"lon":5.41086,"is_reserved":false,"is_disabled":false,"rental_uris":{"android":"levelo://app?vid=3169bea1-794e-4a56-bb06-3b17a235f305","ios":"levelo://app?vid=3169bea1-794e-4a56-bb06-3b17a235f305"},"vehicle_type_id":"4","last_reported":1737721037,"current_range_meters":38800,"station_id":"ce4bhkp2rcd13ifvqgd0","pricing_plan_id":"cebpf4jnsgd1na2vs0mg"},{"bike_id":"1472ea52-8fc9-449d-8cdc-fb5de31126e2","system_id":"levelo_inurba_marseille","lat":43.32459,"lon":5.36584,"is_reserved":false,"is_disabled":false,"rental_uris":{"android":"levelo://app?vid=1472ea52-8fc9-449d-8cdc-fb5de31126e2","ios":"levelo://app?vid=1472ea52-8fc9-449d-8cdc-fb5de31126e2"},"vehicle_type_id":"4","last_reported":1737721037,"current_range_meters":26800,"station_id":"ce4bhs12rcd13ifvqhvg","pricing_plan_id":"cebpf4jnsgd1na2vs0mg"},{"bike_id":"056ed343-b9c5-4ee1-9000-c71459c47098","system_id":"levelo_inurba_marseille","lat":43.31774,"lon":5.40403,"is_reserved":false,"is_disabled":true,"rental_uris":{"android":"levelo://app?vid=056ed343-b9c5-4ee1-9000-c71459c47098","ios":"levelo://app?vid=056ed343-b9c5-4ee1-9000-c71459c47098"},"vehicle_type_id":"4","last_reported":1737721037,"current_range_meters":32400,"station_id":"","pricing_plan_id":"cebpf4jnsgd1na2vs0mg"},{"bike_id":"d8e8b75f-a794-4d72-85e8-ae788703f778","system_id":"levelo_inurba_marseille","lat":43.30523,"lon":5.36732,"is_reserved":false,"is_disabled":false,"rental_uris":{"android":"levelo://app?vid=d8e8b75f-a794-4d72-85e8-ae788703f778","ios":"levelo://app?vid=d8e8b75f-a794-4d72-85e8-ae788703f778"},"vehicle_type_id":"4","last_reported":1737721037,"current_range_meters":39200,"station_id":"ce4bgrp2rcd13ifvqc9g","pricing_plan_id":"cebpf4jnsgd1na2vs0mg"},{"bike_id":"90d227fb-a85f-43b0-b6d9-c7fa709e1e5e","system_id":"levelo_inurba_marseille","lat":43.3046,"lon":5.37906,"is_reserved":false,"is_disabled":false,"rental_uris":{"android":"levelo://app?vid=90d227fb-a85f-43b0-b6d9-c7fa709e1e5e","ios":"levelo://app?vid=90d227fb-a85f-43b0-b6d9-c7fa709e1e5e"},"vehicle_type_id":"4","last_reported":1737721037,"current_range_meters":22000,"station_id":"ce4bgup2rcd13ifvqcn0","pricing_plan_id":"cebpf4jnsgd1na2vs0mg"},{"bike_id":"21c89861-37f6-4c39-8ec6-3d880c37e92d","system_id":"levelo_inurba_marseille","lat":43.30495,"lon":5.37911,"is_reserved":false,"is_disabled":false,"rental_uris":{"android":"levelo://app?vid=21c89861-37f6-4c39-8ec6-3d880c37e92d","ios":"levelo://app?vid=21c89861-37f6-4c39-8ec6-3d880c37e92d"},"vehicle_type_id":"4","last_reported":1737721037,"current_range_meters":24800,"station_id":"ce4bgup2rcd13ifvqcn0","pricing_plan_id":"cebpf4jnsgd1na2vs0mg"},{"bike_id":"ac4f6abd-39b3-4f37-b048-faf417ed8988","system_id":"levelo_inurba_marseille","lat":43.29572,"lon":5.39984,"is_reserved":false,"is_disabled":false,"rental_uris":{"android":"levelo://app?vid=ac4f6abd-39b3-4f37-b048-faf417ed8988","ios":"levelo://app?vid=ac4f6abd-39b3-4f37-b048-faf417ed8988"},"vehicle_type_id":"4","last_reported":1737721037,"current_range_meters":32000,"station_id":"ce4bh312rcd13ifvqdj0","pricing_plan_id":"cebpf4jnsgd1na2vs0mg"},{"bike_id":"6ef9b078-758c-484c-88ff-72c3a69da2c0","system_id":"levelo_inurba_marseille","lat":43.33608,"lon":5.41032,"is_reserved":false,"is_disabled":false,"rental_uris":{"android":"levelo://app?vid=6ef9b078-758c-484c-88ff-72c3a69da2c0","ios":"levelo://app?vid=6ef9b078-758c-484c-88ff-72c3a69da2c0"},"vehicle_type_id":"4","last_reported":1737721037,"current_range_meters":38800,"station_id":"ce4bhqh2rcd13ifvqhmg","pricing_plan_id":"cebpf4jnsgd1na2vs0mg"},{"bike_id":"26392107-c621-4850-afcc-565d13d629cc","system_id":"levelo_inurba_marseille","lat":43.3122,"lon":5.36878,"is_reserved":false,"is_disabled":false,"rental_uris":{"android":"levelo://app?vid=26392107-c621-4850-afcc-565d13d629cc","ios":"levelo://app?vid=26392107-c621-4850-afcc-565d13d629cc"},"vehicle_type_id":"4","last_reported":1737721037,"current_range_meters":28000,"station_id":"ce4bgl92rcd13ifvqbq0","pricing_plan_id":"cebpf4jnsgd1na2vs0mg"},{"bike_id":"7dafa7e7-757d-4898-abdf-cf5305599df2","system_id":"levelo_inurba_marseille","lat":43.29912,"lon":5.37465,"is_reserved":false,"is_disabled":false,"rental_uris":{"android":"levelo://app?vid=7dafa7e7-757d-4898-abdf-cf5305599df2","ios":"levelo://app?vid=7dafa7e7-757d-4898-abdf-cf5305599df2"},"vehicle_type_id":"4","last_reported":1737721037,"current_range_meters":8400,"station_id":"ce4bgjh2rcd13ifvqbg0","pricing_plan_id":"cebpf4jnsgd1na2vs0mg"},{"bike_id":"8b996d3c-9970-4c5b-a89f-1d398712b8ee","system_id":"levelo_inurba_marseille","lat":43.27962,"lon":5.38741,"is_reserved":false,"is_disabled":false,"rental_uris":{"android":"levelo://app?vid=8b996d3c-9970-4c5b-a89f-1d398712b8ee","ios":"levelo://app?vid=8b996d3c-9970-4c5b-a89f-1d398712b8ee"},"vehicle_type_id":"4","last_reported":1737721037,"current_range_meters":7200,"station_id":"ce4bhg12rcd13ifvqf80","pricing_plan_id":"cebpf4jnsgd1na2vs0mg"},{"bike_id":"aeac1b36-318f-471b-b5b8-1dc238e88cdd","system_id":"levelo_inurba_marseille","lat":43.26932,"lon":5.38927,"is_reserved":false,"is_disabled":false,"rental_uris":{"android":"levelo://app?vid=aeac1b36-318f-471b-b5b8-1dc238e88cdd","ios":"levelo://app?vid=aeac1b36-318f-471b-b5b8-1dc238e88cdd"},"vehicle_type_id":"4","last_reported":1737721037,"current_range_meters":15200,"station_id":"ce4bhhh2rcd13ifvqfl0","pricing_plan_id":"cebpf4jnsgd1na2vs0mg"},{"bike_id":"5bdbe150-9b84-4e55-bac6-cff13ce5d19f","system_id":"levelo_inurba_marseille","lat":43.30536,"lon":5.36736,"is_reserved":false,"is_disabled":false,"rental_uris":{"android":"levelo://app?vid=5bdbe150-9b84-4e55-bac6-cff13ce5d19f","ios":"levelo://app?vid=5bdbe150-9b84-4e55-bac6-cff13ce5d19f"},"vehicle_type_id":"4","last_reported":1737721037,"current_range_meters":39200,"station_id":"ce4bgrp2rcd13ifvqc9g","pricing_plan_id":"cebpf4jnsgd1na2vs0mg"},{"bike_id":"c79eff41-c0bb-4147-a866-4d1159e75d8f","system_id":"levelo_inurba_marseille","lat":43.276096,"lon":5.361175,"is_reserved":false,"is_disabled":false,"rental_uris":{"android":"levelo://app?vid=c79eff41-c0bb-4147-a866-4d1159e75d8f","ios":"levelo://app?vid=c79eff41-c0bb-4147-a866-4d1159e75d8f"},"vehicle_type_id":"4","last_reported":1737721037,"current_range_meters":14800,"station_id":"ce4bgj92rcd13ifvqbe0","pricing_plan_id":"cebpf4jnsgd1na2vs0mg"},{"bike_id":"3890c536-600f-451b-9ff7-f40393b2862a","system_id":"levelo_inurba_marseille","lat":43.28449,"lon":5.38409,"is_reserved":false,"is_disabled":false,"rental_uris":{"android":"levelo://app?vid=3890c536-600f-451b-9ff7-f40393b2862a","ios":"levelo://app?vid=3890c536-600f-451b-9ff7-f40393b2862a"},"vehicle_type_id":"4","last_reported":1737721037,"current_range_meters":6000,"station_id":"ce4bh512rcd13ifvqe3g","pricing_plan_id":"cebpf4jnsgd1na2vs0mg"},{"bike_id":"b214cadd-e18d-499d-bd11-205c2e43cccd","system_id":"levelo_inurba_marseille","lat":43.32113,"lon":5.36772,"is_reserved":false,"is_disabled":false,"rental_uris":{"android":"levelo://app?vid=b214cadd-e18d-499d-bd11-205c2e43cccd","ios":"levelo://app?vid=b214cadd-e18d-499d-bd11-205c2e43cccd"},"vehicle_type_id":"4","last_reported":1737721037,"current_range_meters":30800,"station_id":"ce4bhrh2rcd13ifvqhug","pricing_plan_id":"cebpf4jnsgd1na2vs0mg"},{"bike_id":"2b5f67dd-f0e0-4724-bc4a-a13b0862ca51","system_id":"levelo_inurba_marseille","lat":43.29931,"lon":5.38155,"is_reserved":false,"is_disabled":false,"rental_uris":{"android":"levelo://app?vid=2b5f67dd-f0e0-4724-bc4a-a13b0862ca51","ios":"levelo://app?vid=2b5f67dd-f0e0-4724-bc4a-a13b0862ca51"},"vehicle_type_id":"4","last_reported":1737721037,"current_range_meters":38800,"station_id":"ce4bgj12rcd13ifvqbc0","pricing_plan_id":"cebpf4jnsgd1na2vs0mg"},{"bike_id":"e179efed-9719-4409-8d7a-7ac74947d312","system_id":"levelo_inurba_marseille","lat":43.24082,"lon":5.37749,"is_reserved":false,"is_disabled":false,"rental_uris":{"android":"levelo://app?vid=e179efed-9719-4409-8d7a-7ac74947d312","ios":"levelo://app?vid=e179efed-9719-4409-8d7a-7ac74947d312"},"vehicle_type_id":"4","last_reported":1737721037,"current_range_meters":14400,"station_id":"ce4bhnp2rcd13ifvqgvg","pricing_plan_id":"cebpf4jnsgd1na2vs0mg"},{"bike_id":"ce04c9db-d7f7-4cc3-ad0b-0d6e178c2093","system_id":"levelo_inurba_marseille","lat":43.2964,"lon":5.37188,"is_reserved":false,"is_disabled":false,"rental_uris":{"android":"levelo://app?vid=ce04c9db-d7f7-4cc3-ad0b-0d6e178c2093","ios":"levelo://app?vid=ce04c9db-d7f7-4cc3-ad0b-0d6e178c2093"},"vehicle_type_id":"4","last_reported":1737721037,"current_range_meters":36800,"station_id":"ce4bgnh2rcd13ifvqc0g","pricing_plan_id":"cebpf4jnsgd1na2vs0mg"},{"bike_id":"41311dab-937c-4a4a-83e6-a25c0a95d34b","system_id":"levelo_inurba_marseille","lat":43.29004,"lon":5.3561,"is_reserved":false,"is_disabled":false,"rental_uris":{"android":"levelo://app?vid=41311dab-937c-4a4a-83e6-a25c0a95d34b","ios":"levelo://app?vid=41311dab-937c-4a4a-83e6-a25c0a95d34b"},"vehicle_type_id":"4","last_reported":1737721037,"current_range_meters":25600,"station_id":"ce4bhb92rcd13ifvqen0","pricing_plan_id":"cebpf4jnsgd1na2vs0mg"},{"bike_id":"d788cb16-193a-434a-a814-680c0945b5ef","system_id":"levelo_inurba_marseille","lat":43.28488,"lon":5.38424,"is_reserved":false,"is_disabled":false,"rental_uris":{"android":"levelo://app?vid=d788cb16-193a-434a-a814-680c0945b5ef","ios":"levelo://app?vid=d788cb16-193a-434a-a814-680c0945b5ef"},"vehicle_type_id":"4","last_reported":1737721037,"current_range_meters":4000,"station_id":"ce4bh512rcd13ifvqe3g","pricing_plan_id":"cebpf4jnsgd1na2vs0mg"},{"bike_id":"95282a0b-c922-463a-b774-30d3d67a870b","system_id":"levelo_inurba_marseille","lat":43.30137,"lon":5.38786,"is_reserved":false,"is_disabled":false,"rental_uris":{"android":"levelo://app?vid=95282a0b-c922-463a-b774-30d3d67a870b","ios":"levelo://app?vid=95282a0b-c922-463a-b774-30d3d67a870b"},"vehicle_type_id":"4","last_reported":1737721037,"current_range_meters":8000,"station_id":"ce4bhoh2rcd13ifvqh6g","pricing_plan_id":"cebpf4jnsgd1na2vs0mg"},{"bike_id":"be86d3f9-a8fa-4cc8-af16-6b8534331eb6","system_id":"levelo_inurba_marseille","lat":43.31349,"lon":5.36723,"is_reserved":false,"is_disabled":false,"rental_uris":{"android":"levelo://app?vid=be86d3f9-a8fa-4cc8-af16-6b8534331eb6","ios":"levelo://app?vid=be86d3f9-a8fa-4cc8-af16-6b8534331eb6"},"vehicle_type_id":"4","last_reported":1737721037,"current_range_meters":32400,"station_id":"ce4bgr92rcd13ifvqc6g","pricing_plan_id":"cebpf4jnsgd1na2vs0mg"},{"bike_id":"7218d20e-6ade-4c14-9f86-3a45d86de5b5","system_id":"levelo_inurba_marseille","lat":43.28368,"lon":5.38638,"is_reserved":false,"is_disabled":true,"rental_uris":{"android":"levelo://app?vid=7218d20e-6ade-4c14-9f86-3a45d86de5b5","ios":"levelo://app?vid=7218d20e-6ade-4c14-9f86-3a45d86de5b5"},"vehicle_type_id":"4","last_reported":1737721037,"current_range_meters":800,"station_id":"ce4bh492rcd13ifvqdvg","pricing_plan_id":"cebpf4jnsgd1na2vs0mg"},{"bike_id":"6d1c7757-cbfa-452f-8195-daacd34f212b","system_id":"levelo_inurba_marseille","lat":43.23064,"lon":5.35493,"is_reserved":false,"is_disabled":true,"rental_uris":{"android":"levelo://app?vid=6d1c7757-cbfa-452f-8195-daacd34f212b","ios":"levelo://app?vid=6d1c7757-cbfa-452f-8195-daacd34f212b"},"vehicle_type_id":"4","last_reported":1737721037,"current_range_meters":400,"station_id":"cpo3342slgdg3j2ifvpg","pricing_plan_id":"cebpf4jnsgd1na2vs0mg"},{"bike_id":"580ab5c1-d551-45a5-9bba-feaf38546ca3","system_id":"levelo_inurba_marseille","lat":43.27206,"lon":5.39176,"is_reserved":false,"is_disabled":false,"rental_uris":{"android":"levelo://app?vid=580ab5c1-d551-45a5-9bba-feaf38546ca3","ios":"levelo://app?vid=580ab5c1-d551-45a5-9bba-feaf38546ca3"},"vehicle_type_id":"4","last_reported":1737721037,"current_range_meters":24800,"station_id":"ce4bhhp2rcd13ifvqfm0","pricing_plan_id":"cebpf4jnsgd1na2vs0mg"},{"bike_id":"1f4cc9a1-a6f1-42ee-8f62-d3fd1b2849a6","system_id":"levelo_inurba_marseille","lat":43.2319,"lon":5.39986,"is_reserved":false,"is_disabled":false,"rental_uris":{"android":"levelo://app?vid=1f4cc9a1-a6f1-42ee-8f62-d3fd1b2849a6","ios":"levelo://app?vid=1f4cc9a1-a6f1-42ee-8f62-d3fd1b2849a6"},"vehicle_type_id":"4","last_reported":1737721037,"current_range_meters":38800,"station_id":"ce4bhn12rcd13ifvqgqg","pricing_plan_id":"cebpf4jnsgd1na2vs0mg"},{"bike_id":"59767ab0-c777-48db-a2ff-2c2eeb72fd84","system_id":"levelo_inurba_marseille","lat":43.25584,"lon":5.38233,"is_reserved":false,"is_disabled":false,"rental_uris":{"android":"levelo://app?vid=59767ab0-c777-48db-a2ff-2c2eeb72fd84","ios":"levelo://app?vid=59767ab0-c777-48db-a2ff-2c2eeb72fd84"},"vehicle_type_id":"4","last_reported":1737721037,"current_range_meters":28000,"station_id":"ce4bhih2rcd13ifvqfs0","pricing_plan_id":"cebpf4jnsgd1na2vs0mg"},{"bike_id":"f253fc82-7ca1-4c38-a41a-566478bb536e","system_id":"levelo_inurba_marseille","lat":43.28042,"lon":5.36944,"is_reserved":false,"is_disabled":false,"rental_uris":{"android":"levelo://app?vid=f253fc82-7ca1-4c38-a41a-566478bb536e","ios":"levelo://app?vid=f253fc82-7ca1-4c38-a41a-566478bb536e"},"vehicle_type_id":"4","last_reported":1737721037,"current_range_meters":19600,"station_id":"ce4bha12rcd13ifvqef0","pricing_plan_id":"cebpf4jnsgd1na2vs0mg"},{"bike_id":"17c94a70-57bd-45e1-8fee-c8cc97a06643","system_id":"levelo_inurba_marseille","lat":43.27609,"lon":5.36111,"is_reserved":false,"is_disabled":false,"rental_uris":{"android":"levelo://app?vid=17c94a70-57bd-45e1-8fee-c8cc97a06643","ios":"levelo://app?vid=17c94a70-57bd-45e1-8fee-c8cc97a06643"},"vehicle_type_id":"4","last_reported":1737721037,"current_range_meters":36000,"station_id":"ce4bgj92rcd13ifvqbe0","pricing_plan_id":"cebpf4jnsgd1na2vs0mg"},{"bike_id":"9838cc78-2b53-49d3-ae13-82df62c4fd64","system_id":"levelo_inurba_marseille","lat":43.28432,"lon":5.40931,"is_reserved":false,"is_disabled":true,"rental_uris":{"android":"levelo://app?vid=9838cc78-2b53-49d3-ae13-82df62c4fd64","ios":"levelo://app?vid=9838cc78-2b53-49d3-ae13-82df62c4fd64"},"vehicle_type_id":"4","last_reported":1737721037,"current_range_meters":1200,"station_id":"","pricing_plan_id":"cebpf4jnsgd1na2vs0mg"},{"bike_id":"70f4baca-3d50-4fff-8ed7-e04bde78ff10","system_id":"levelo_inurba_marseille","lat":43.26195,"lon":5.37942,"is_reserved":false,"is_disabled":false,"rental_uris":{"android":"levelo://app?vid=70f4baca-3d50-4fff-8ed7-e04bde78ff10","ios":"levelo://app?vid=70f4baca-3d50-4fff-8ed7-e04bde78ff10"},"vehicle_type_id":"4","last_reported":1737721037,"current_range_meters":38800,"station_id":"ce4bhjp2rcd13ifvqg90","pricing_plan_id":"cebpf4jnsgd1na2vs0mg"},{"bike_id":"e0de0279-819a-465d-bc9d-de01ff25dedd","system_id":"levelo_inurba_marseille","lat":43.28474,"lon":5.38429,"is_reserved":false,"is_disabled":false,"rental_uris":{"android":"levelo://app?vid=e0de0279-819a-465d-bc9d-de01ff25dedd","ios":"levelo://app?vid=e0de0279-819a-465d-bc9d-de01ff25dedd"},"vehicle_type_id":"4","last_reported":1737721037,"current_range_meters":34800,"station_id":"ce4bh512rcd13ifvqe3g","pricing_plan_id":"cebpf4jnsgd1na2vs0mg"},{"bike_id":"bf096a89-ee72-4f37-85bd-7b3cf9f0cb41","system_id":"levelo_inurba_marseille","lat":43.31927,"lon":5.37887,"is_reserved":false,"is_disabled":false,"rental_uris":{"android":"levelo://app?vid=bf096a89-ee72-4f37-85bd-7b3cf9f0cb41","ios":"levelo://app?vid=bf096a89-ee72-4f37-85bd-7b3cf9f0cb41"},"vehicle_type_id":"4","last_reported":1737721037,"current_range_meters":35600,"station_id":"","pricing_plan_id":"cebpf4jnsgd1na2vs0mg"},{"bike_id":"ba6d53bf-70fc-4c43-8be4-a9be6dc798b6","system_id":"levelo_inurba_marseille","lat":43.29578,"lon":5.36745,"is_reserved":false,"is_disabled":false,"rental_uris":{"android":"levelo://app?vid=ba6d53bf-70fc-4c43-8be4-a9be6dc798b6","ios":"levelo://app?vid=ba6d53bf-70fc-4c43-8be4-a9be6dc798b6"},"vehicle_type_id":"4","last_reported":1737721037,"current_range_meters":28000,"station_id":"ce4bgph2rcd13ifvqc2g","pricing_plan_id":"cebpf4jnsgd1na2vs0mg"},{"bike_id":"11410044-3034-4881-b749-c4d08783cac0","system_id":"levelo_inurba_marseille","lat":43.28081,"lon":5.39659,"is_reserved":false,"is_disabled":false,"rental_uris":{"android":"levelo://app?vid=11410044-3034-4881-b749-c4d08783cac0","ios":"levelo://app?vid=11410044-3034-4881-b749-c4d08783cac0"},"vehicle_type_id":"4","last_reported":1737721037,"current_range_meters":4800,"station_id":"ce4bho12rcd13ifvqh2g","pricing_plan_id":"cebpf4jnsgd1na2vs0mg"},{"bike_id":"43c95a9f-bd06-49f3-a089-73bdf992218d","system_id":"levelo_inurba_marseille","lat":43.23187,"lon":5.39982,"is_reserved":false,"is_disabled":false,"rental_uris":{"android":"levelo://app?vid=43c95a9f-bd06-49f3-a089-73bdf992218d","ios":"levelo://app?vid=43c95a9f-bd06-49f3-a089-73bdf992218d"},"vehicle_type_id":"4","last_reported":1737721037,"current_range_meters":6800,"station_id":"ce4bhn12rcd13ifvqgqg","pricing_plan_id":"cebpf4jnsgd1na2vs0mg"},{"bike_id":"7e84a6b9-d4b5-435a-b398-a1bffd1e9813","system_id":"levelo_inurba_marseille","lat":43.32377,"lon":5.42075,"is_reserved":false,"is_disabled":false,"rental_uris":{"android":"levelo://app?vid=7e84a6b9-d4b5-435a-b398-a1bffd1e9813","ios":"levelo://app?vid=7e84a6b9-d4b5-435a-b398-a1bffd1e9813"},"vehicle_type_id":"4","last_reported":1737721037,"current_range_meters":25200,"station_id":"","pricing_plan_id":"cebpf4jnsgd1na2vs0mg"},{"bike_id":"44a53934-a7dc-4317-896c-0c9f8619ba3c","system_id":"levelo_inurba_marseille","lat":43.31322,"lon":5.39701,"is_reserved":false,"is_disabled":false,"rental_uris":{"android":"levelo://app?vid=44a53934-a7dc-4317-896c-0c9f8619ba3c","ios":"levelo://app?vid=44a53934-a7dc-4317-896c-0c9f8619ba3c"},"vehicle_type_id":"4","last_reported":1737721037,"current_range_meters":34000,"station_id":"ce4bgvp2rcd13ifvqcu0","pricing_plan_id":"cebpf4jnsgd1na2vs0mg"},{"bike_id":"20e569cd-49a5-4c92-9528-61b2f8dc1fea","system_id":"levelo_inurba_marseille","lat":43.29209,"lon":5.36076,"is_reserved":false,"is_disabled":false,"rental_uris":{"android":"levelo://app?vid=20e569cd-49a5-4c92-9528-61b2f8dc1fea","ios":"levelo://app?vid=20e569cd-49a5-4c92-9528-61b2f8dc1fea"},"vehicle_type_id":"4","last_reported":1737721037,"current_range_meters":36400,"station_id":"ce4bhbh2rcd13ifvqeqg","pricing_plan_id":"cebpf4jnsgd1na2vs0mg"},{"bike_id":"96bd59ea-dbbd-49c2-b26b-9369c7ed90ac","system_id":"levelo_inurba_marseille","lat":43.30463,"lon":5.37907,"is_reserved":false,"is_disabled":false,"rental_uris":{"android":"levelo://app?vid=96bd59ea-dbbd-49c2-b26b-9369c7ed90ac","ios":"levelo://app?vid=96bd59ea-dbbd-49c2-b26b-9369c7ed90ac"},"vehicle_type_id":"4","last_reported":1737721037,"current_range_meters":36800,"station_id":"ce4bgup2rcd13ifvqcn0","pricing_plan_id":"cebpf4jnsgd1na2vs0mg"},{"bike_id":"c964a905-9270-455d-8da3-260e623933e5","system_id":"levelo_inurba_marseille","lat":43.26687,"lon":5.38274,"is_reserved":false,"is_disabled":false,"rental_uris":{"android":"levelo://app?vid=c964a905-9270-455d-8da3-260e623933e5","ios":"levelo://app?vid=c964a905-9270-455d-8da3-260e623933e5"},"vehicle_type_id":"4","last_reported":1737721037,"current_range_meters":39200,"station_id":"ce4bhg92rcd13ifvqf90","pricing_plan_id":"cebpf4jnsgd1na2vs0mg"},{"bike_id":"640dda4b-4e7a-4299-9a4a-d49064134585","system_id":"levelo_inurba_marseille","lat":43.262,"lon":5.37934,"is_reserved":false,"is_disabled":false,"rental_uris":{"android":"levelo://app?vid=640dda4b-4e7a-4299-9a4a-d49064134585","ios":"levelo://app?vid=640dda4b-4e7a-4299-9a4a-d49064134585"},"vehicle_type_id":"4","last_reported":1737721037,"current_range_meters":38800,"station_id":"ce4bhjp2rcd13ifvqg90","pricing_plan_id":"cebpf4jnsgd1na2vs0mg"},{"bike_id":"823f5e62-6792-4b71-9479-360bc5d7ee1c","system_id":"levelo_inurba_marseille","lat":43.2922,"lon":5.3607,"is_reserved":false,"is_disabled":false,"rental_uris":{"android":"levelo://app?vid=823f5e62-6792-4b71-9479-360bc5d7ee1c","ios":"levelo://app?vid=823f5e62-6792-4b71-9479-360bc5d7ee1c"},"vehicle_type_id":"4","last_reported":1737721037,"current_range_meters":31200,"station_id":"ce4bhbh2rcd13ifvqeqg","pricing_plan_id":"cebpf4jnsgd1na2vs0mg"},{"bike_id":"0d523cb4-824a-4f30-9f94-216dd58ad552","system_id":"levelo_inurba_marseille","lat":43.3199,"lon":5.38152,"is_reserved":false,"is_disabled":false,"rental_uris":{"android":"levelo://app?vid=0d523cb4-824a-4f30-9f94-216dd58ad552","ios":"levelo://app?vid=0d523cb4-824a-4f30-9f94-216dd58ad552"},"vehicle_type_id":"4","last_reported":1737721037,"current_range_meters":36400,"station_id":"ce4bhr12rcd13ifvqhpg","pricing_plan_id":"cebpf4jnsgd1na2vs0mg"},{"bike_id":"b1350c89-a295-42ef-b3a2-f01d5d977dd1","system_id":"levelo_inurba_marseille","lat":43.301489,"lon":5.380989,"is_reserved":false,"is_disabled":false,"rental_uris":{"android":"levelo://app?vid=b1350c89-a295-42ef-b3a2-f01d5d977dd1","ios":"levelo://app?vid=b1350c89-a295-42ef-b3a2-f01d5d977dd1"},"vehicle_type_id":"4","last_reported":1737721037,"current_range_meters":16800,"station_id":"ce4bgjp2rcd13ifvqbh0","pricing_plan_id":"cebpf4jnsgd1na2vs0mg"},{"bike_id":"050bd42b-0fa4-4ea3-8a02-3c1196960ece","system_id":"levelo_inurba_marseille","lat":43.31637,"lon":5.37408,"is_reserved":false,"is_disabled":false,"rental_uris":{"android":"levelo://app?vid=050bd42b-0fa4-4ea3-8a02-3c1196960ece","ios":"levelo://app?vid=050bd42b-0fa4-4ea3-8a02-3c1196960ece"},"vehicle_type_id":"4","last_reported":1737721037,"current_range_meters":24000,"station_id":"","pricing_plan_id":"cebpf4jnsgd1na2vs0mg"},{"bike_id":"41e0f991-b417-481a-9dc5-59a19347509f","system_id":"levelo_inurba_marseille","lat":43.29408,"lon":5.38642,"is_reserved":false,"is_disabled":false,"rental_uris":{"android":"levelo://app?vid=41e0f991-b417-481a-9dc5-59a19347509f","ios":"levelo://app?vid=41e0f991-b417-481a-9dc5-59a19347509f"},"vehicle_type_id":"4","last_reported":1737721037,"current_range_meters":33200,"station_id":"ce4bh2h2rcd13ifvqdh0","pricing_plan_id":"cebpf4jnsgd1na2vs0mg"},{"bike_id":"761c9e44-5399-4d3e-bc4d-10389c429a84","system_id":"levelo_inurba_marseille","lat":43.26682,"lon":5.38277,"is_reserved":false,"is_disabled":false,"rental_uris":{"android":"levelo://app?vid=761c9e44-5399-4d3e-bc4d-10389c429a84","ios":"levelo://app?vid=761c9e44-5399-4d3e-bc4d-10389c429a84"},"vehicle_type_id":"4","last_reported":1737721037,"current_range_meters":15200,"station_id":"ce4bhg92rcd13ifvqf90","pricing_plan_id":"cebpf4jnsgd1na2vs0mg"},{"bike_id":"72929936-0362-48aa-aa88-00f62a858a3f","system_id":"levelo_inurba_marseille","lat":43.29031,"lon":5.38656,"is_reserved":false,"is_disabled":false,"rental_uris":{"android":"levelo://app?vid=72929936-0362-48aa-aa88-00f62a858a3f","ios":"levelo://app?vid=72929936-0362-48aa-aa88-00f62a858a3f"},"vehicle_type_id":"4","last_reported":1737721037,"current_range_meters":35200,"station_id":"ce4bh4p2rcd13ifvqe0g","pricing_plan_id":"cebpf4jnsgd1na2vs0mg"},{"bike_id":"1b5122ac-a27c-46b1-9640-a42214f102b7","system_id":"levelo_inurba_marseille","lat":43.30153,"lon":5.38085,"is_reserved":false,"is_disabled":false,"rental_uris":{"android":"levelo://app?vid=1b5122ac-a27c-46b1-9640-a42214f102b7","ios":"levelo://app?vid=1b5122ac-a27c-46b1-9640-a42214f102b7"},"vehicle_type_id":"4","last_reported":1737721037,"current_range_meters":27200,"station_id":"ce4bgjp2rcd13ifvqbh0","pricing_plan_id":"cebpf4jnsgd1na2vs0mg"},{"bike_id":"347dd29e-9a9e-4a37-8ddd-6e2050aaff03","system_id":"levelo_inurba_marseille","lat":43.33726,"lon":5.39246,"is_reserved":false,"is_disabled":false,"rental_uris":{"android":"levelo://app?vid=347dd29e-9a9e-4a37-8ddd-6e2050aaff03","ios":"levelo://app?vid=347dd29e-9a9e-4a37-8ddd-6e2050aaff03"},"vehicle_type_id":"4","last_reported":1737721037,"current_range_meters":38000,"station_id":"ce4bhr92rcd13ifvqhsg","pricing_plan_id":"cebpf4jnsgd1na2vs0mg"},{"bike_id":"69ebebd7-d777-4426-94d6-acaca1c5ded4","system_id":"levelo_inurba_marseille","lat":43.26558,"lon":5.37291,"is_reserved":false,"is_disabled":false,"rental_uris":{"android":"levelo://app?vid=69ebebd7-d777-4426-94d6-acaca1c5ded4","ios":"levelo://app?vid=69ebebd7-d777-4426-94d6-acaca1c5ded4"},"vehicle_type_id":"4","last_reported":1737721037,"current_range_meters":18800,"station_id":"ce4bhg12rcd13ifvqf70","pricing_plan_id":"cebpf4jnsgd1na2vs0mg"},{"bike_id":"d7dbec56-3cb4-42dd-970e-b1e8e7b8f352","system_id":"levelo_inurba_marseille","lat":43.26682,"lon":5.382747,"is_reserved":false,"is_disabled":false,"rental_uris":{"android":"levelo://app?vid=d7dbec56-3cb4-42dd-970e-b1e8e7b8f352","ios":"levelo://app?vid=d7dbec56-3cb4-42dd-970e-b1e8e7b8f352"},"vehicle_type_id":"4","last_reported":1737721037,"current_range_meters":39200,"station_id":"ce4bhg92rcd13ifvqf90","pricing_plan_id":"cebpf4jnsgd1na2vs0mg"},{"bike_id":"68f2ccb3-f174-4230-b667-71cfa289852c","system_id":"levelo_inurba_marseille","lat":43.280743,"lon":5.396658,"is_reserved":false,"is_disabled":false,"rental_uris":{"android":"levelo://app?vid=68f2ccb3-f174-4230-b667-71cfa289852c","ios":"levelo://app?vid=68f2ccb3-f174-4230-b667-71cfa289852c"},"vehicle_type_id":"4","last_reported":1737721037,"current_range_meters":30800,"station_id":"ce4bho12rcd13ifvqh2g","pricing_plan_id":"cebpf4jnsgd1na2vs0mg"},{"bike_id":"e6f11b4c-c4e2-4f78-9e3b-5b5c8124d2c6","system_id":"levelo_inurba_marseille","lat":43.24076,"lon":5.37759,"is_reserved":false,"is_disabled":false,"rental_uris":{"android":"levelo://app?vid=e6f11b4c-c4e2-4f78-9e3b-5b5c8124d2c6","ios":"levelo://app?vid=e6f11b4c-c4e2-4f78-9e3b-5b5c8124d2c6"},"vehicle_type_id":"4","last_reported":1737721037,"current_range_meters":36800,"station_id":"ce4bhnp2rcd13ifvqgvg","pricing_plan_id":"cebpf4jnsgd1na2vs0mg"},{"bike_id":"90b8a1b1-ad54-458d-9362-f5197bbdf048","system_id":"levelo_inurba_marseille","lat":43.22946,"lon":5.35374,"is_reserved":false,"is_disabled":false,"rental_uris":{"android":"levelo://app?vid=90b8a1b1-ad54-458d-9362-f5197bbdf048","ios":"levelo://app?vid=90b8a1b1-ad54-458d-9362-f5197bbdf048"},"vehicle_type_id":"4","last_reported":1737721037,"current_range_meters":38800,"station_id":"cpo3532slgdg3j2ikp40","pricing_plan_id":"cebpf4jnsgd1na2vs0mg"},{"bike_id":"1c66e932-63ee-4c4b-a135-c1271c7dcb5e","system_id":"levelo_inurba_marseille","lat":43.261896,"lon":5.379253,"is_reserved":false,"is_disabled":false,"rental_uris":{"android":"levelo://app?vid=1c66e932-63ee-4c4b-a135-c1271c7dcb5e","ios":"levelo://app?vid=1c66e932-63ee-4c4b-a135-c1271c7dcb5e"},"vehicle_type_id":"4","last_reported":1737721037,"current_range_meters":17200,"station_id":"ce4bhjp2rcd13ifvqg90","pricing_plan_id":"cebpf4jnsgd1na2vs0mg"},{"bike_id":"dc6e3d32-a291-4b70-8bf0-8040f7271e19","system_id":"levelo_inurba_marseille","lat":43.29033,"lon":5.35924,"is_reserved":false,"is_disabled":false,"rental_uris":{"android":"levelo://app?vid=dc6e3d32-a291-4b70-8bf0-8040f7271e19","ios":"levelo://app?vid=dc6e3d32-a291-4b70-8bf0-8040f7271e19"},"vehicle_type_id":"4","last_reported":1737721037,"current_range_meters":36800,"station_id":"ce4bha92rcd13ifvqeg0","pricing_plan_id":"cebpf4jnsgd1na2vs0mg"},{"bike_id":"0845987d-0847-49d4-ad9b-9ca9f12b43da","system_id":"levelo_inurba_marseille","lat":43.28439,"lon":5.39211,"is_reserved":false,"is_disabled":false,"rental_uris":{"android":"levelo://app?vid=0845987d-0847-49d4-ad9b-9ca9f12b43da","ios":"levelo://app?vid=0845987d-0847-49d4-ad9b-9ca9f12b43da"},"vehicle_type_id":"4","last_reported":1737721037,"current_range_meters":32800,"station_id":"ce4bhoh2rcd13ifvqh5g","pricing_plan_id":"cebpf4jnsgd1na2vs0mg"},{"bike_id":"a3ad6f3b-805c-479e-b1ff-4179d35b5e6a","system_id":"levelo_inurba_marseille","lat":43.29255,"lon":5.40913,"is_reserved":false,"is_disabled":false,"rental_uris":{"android":"levelo://app?vid=a3ad6f3b-805c-479e-b1ff-4179d35b5e6a","ios":"levelo://app?vid=a3ad6f3b-805c-479e-b1ff-4179d35b5e6a"},"vehicle_type_id":"4","last_reported":1737721037,"current_range_meters":38800,"station_id":"ce4bh192rcd13ifvqdc0","pricing_plan_id":"cebpf4jnsgd1na2vs0mg"},{"bike_id":"a0e00665-ceec-4a63-a1c0-9944712cc305","system_id":"levelo_inurba_marseille","lat":43.28844,"lon":5.35858,"is_reserved":false,"is_disabled":false,"rental_uris":{"android":"levelo://app?vid=a0e00665-ceec-4a63-a1c0-9944712cc305","ios":"levelo://app?vid=a0e00665-ceec-4a63-a1c0-9944712cc305"},"vehicle_type_id":"4","last_reported":1737721037,"current_range_meters":30400,"station_id":"ce4bgkp2rcd13ifvqbmg","pricing_plan_id":"cebpf4jnsgd1na2vs0mg"},{"bike_id":"66557ccd-fcbb-4f0e-9992-7c0b2c5020c8","system_id":"levelo_inurba_marseille","lat":43.30154,"lon":5.38101,"is_reserved":false,"is_disabled":false,"rental_uris":{"android":"levelo://app?vid=66557ccd-fcbb-4f0e-9992-7c0b2c5020c8","ios":"levelo://app?vid=66557ccd-fcbb-4f0e-9992-7c0b2c5020c8"},"vehicle_type_id":"4","last_reported":1737721037,"current_range_meters":32400,"station_id":"ce4bgjp2rcd13ifvqbh0","pricing_plan_id":"cebpf4jnsgd1na2vs0mg"},{"bike_id":"4303807f-9e95-4ab8-b222-a732cb8afeed","system_id":"levelo_inurba_marseille","lat":43.26951,"lon":5.3864,"is_reserved":false,"is_disabled":false,"rental_uris":{"android":"levelo://app?vid=4303807f-9e95-4ab8-b222-a732cb8afeed","ios":"levelo://app?vid=4303807f-9e95-4ab8-b222-a732cb8afeed"},"vehicle_type_id":"4","last_reported":1737721037,"current_range_meters":33600,"station_id":"ce4bhh92rcd13ifvqfh0","pricing_plan_id":"cebpf4jnsgd1na2vs0mg"},{"bike_id":"ce90fea6-ff2a-4d0b-bd4f-45ced0acf4c0","system_id":"levelo_inurba_marseille","lat":43.32375,"lon":5.36745,"is_reserved":false,"is_disabled":false,"rental_uris":{"android":"levelo://app?vid=ce90fea6-ff2a-4d0b-bd4f-45ced0acf4c0","ios":"levelo://app?vid=ce90fea6-ff2a-4d0b-bd4f-45ced0acf4c0"},"vehicle_type_id":"4","last_reported":1737721037,"current_range_meters":8400,"station_id":"ce4bhsh2rcd13ifvqi2g","pricing_plan_id":"cebpf4jnsgd1na2vs0mg"},{"bike_id":"ab13439f-1c4b-4b83-ac72-9f4e6d1f64cb","system_id":"levelo_inurba_marseille","lat":43.31247,"lon":5.37994,"is_reserved":false,"is_disabled":true,"rental_uris":{"android":"levelo://app?vid=ab13439f-1c4b-4b83-ac72-9f4e6d1f64cb","ios":"levelo://app?vid=ab13439f-1c4b-4b83-ac72-9f4e6d1f64cb"},"vehicle_type_id":"4","last_reported":1737721037,"current_range_meters":7200,"station_id":"","pricing_plan_id":"cebpf4jnsgd1na2vs0mg"},{"bike_id":"431299a0-21ec-4f6a-93fe-0d0fe6e96565","system_id":"levelo_inurba_marseille","lat":43.30264,"lon":5.36908,"is_reserved":false,"is_disabled":false,"rental_uris":{"android":"levelo://app?vid=431299a0-21ec-4f6a-93fe-0d0fe6e96565","ios":"levelo://app?vid=431299a0-21ec-4f6a-93fe-0d0fe6e96565"},"vehicle_type_id":"4","last_reported":1737721037,"current_range_meters":38000,"station_id":"ce4bgqh2rcd13ifvqc5g","pricing_plan_id":"cebpf4jnsgd1na2vs0mg"},{"bike_id":"467bb7e8-b31e-435f-adff-96bbfd89e0c0","system_id":"levelo_inurba_marseille","lat":43.27812,"lon":5.40713,"is_reserved":false,"is_disabled":false,"rental_uris":{"android":"levelo://app?vid=467bb7e8-b31e-435f-adff-96bbfd89e0c0","ios":"levelo://app?vid=467bb7e8-b31e-435f-adff-96bbfd89e0c0"},"vehicle_type_id":"4","last_reported":1737721037,"current_range_meters":38400,"station_id":"ce4bhnh2rcd13ifvqgtg","pricing_plan_id":"cebpf4jnsgd1na2vs0mg"},{"bike_id":"08ddc84c-0cf0-43b6-8658-02e253c04c3a","system_id":"levelo_inurba_marseille","lat":43.30145,"lon":5.3807,"is_reserved":false,"is_disabled":false,"rental_uris":{"android":"levelo://app?vid=08ddc84c-0cf0-43b6-8658-02e253c04c3a","ios":"levelo://app?vid=08ddc84c-0cf0-43b6-8658-02e253c04c3a"},"vehicle_type_id":"4","last_reported":1737721037,"current_range_meters":32800,"station_id":"ce4bgjp2rcd13ifvqbh0","pricing_plan_id":"cebpf4jnsgd1na2vs0mg"},{"bike_id":"0d3f5817-39fa-40d7-ab9d-35c01033f435","system_id":"levelo_inurba_marseille","lat":43.262281,"lon":5.404493,"is_reserved":false,"is_disabled":false,"rental_uris":{"android":"levelo://app?vid=0d3f5817-39fa-40d7-ab9d-35c01033f435","ios":"levelo://app?vid=0d3f5817-39fa-40d7-ab9d-35c01033f435"},"vehicle_type_id":"4","last_reported":1737721037,"current_range_meters":3200,"station_id":"","pricing_plan_id":"cebpf4jnsgd1na2vs0mg"},{"bike_id":"adf37ecb-7a79-450c-982d-303eae1f41ff","system_id":"levelo_inurba_marseille","lat":43.26669,"lon":5.38236,"is_reserved":false,"is_disabled":false,"rental_uris":{"android":"levelo://app?vid=adf37ecb-7a79-450c-982d-303eae1f41ff","ios":"levelo://app?vid=adf37ecb-7a79-450c-982d-303eae1f41ff"},"vehicle_type_id":"4","last_reported":1737721037,"current_range_meters":39200,"station_id":"ce4bhg92rcd13ifvqf90","pricing_plan_id":"cebpf4jnsgd1na2vs0mg"},{"bike_id":"78b03264-0c2d-45b5-9b0a-cf7cc454c0c6","system_id":"levelo_inurba_marseille","lat":43.32478,"lon":5.36615,"is_reserved":false,"is_disabled":false,"rental_uris":{"android":"levelo://app?vid=78b03264-0c2d-45b5-9b0a-cf7cc454c0c6","ios":"levelo://app?vid=78b03264-0c2d-45b5-9b0a-cf7cc454c0c6"},"vehicle_type_id":"4","last_reported":1737721037,"current_range_meters":37600,"station_id":"ce4bhs12rcd13ifvqhvg","pricing_plan_id":"cebpf4jnsgd1na2vs0mg"},{"bike_id":"a5f7b0ec-6daa-4e15-b0da-df118092518f","system_id":"levelo_inurba_marseille","lat":43.2315,"lon":5.43725,"is_reserved":false,"is_disabled":false,"rental_uris":{"android":"levelo://app?vid=a5f7b0ec-6daa-4e15-b0da-df118092518f","ios":"levelo://app?vid=a5f7b0ec-6daa-4e15-b0da-df118092518f"},"vehicle_type_id":"4","last_reported":1737721037,"current_range_meters":8400,"station_id":"ce4bhmp2rcd13ifvqgog","pricing_plan_id":"cebpf4jnsgd1na2vs0mg"},{"bike_id":"610b06d9-d6b8-493e-925e-29958eda2fc5","system_id":"levelo_inurba_marseille","lat":43.27372,"lon":5.36262,"is_reserved":false,"is_disabled":false,"rental_uris":{"android":"levelo://app?vid=610b06d9-d6b8-493e-925e-29958eda2fc5","ios":"levelo://app?vid=610b06d9-d6b8-493e-925e-29958eda2fc5"},"vehicle_type_id":"4","last_reported":1737721037,"current_range_meters":37600,"station_id":"ce4bhbh2rcd13ifvqeo0","pricing_plan_id":"cebpf4jnsgd1na2vs0mg"},{"bike_id":"5518a5cd-0897-4217-b703-47e30befc084","system_id":"levelo_inurba_marseille","lat":43.29375,"lon":5.37832,"is_reserved":false,"is_disabled":false,"rental_uris":{"android":"levelo://app?vid=5518a5cd-0897-4217-b703-47e30befc084","ios":"levelo://app?vid=5518a5cd-0897-4217-b703-47e30befc084"},"vehicle_type_id":"4","last_reported":1737721037,"current_range_meters":37600,"station_id":"ce4bgjh2rcd13ifvqbf0","pricing_plan_id":"cebpf4jnsgd1na2vs0mg"},{"bike_id":"86e74e3b-996a-4975-88d9-d5a7ed191bca","system_id":"levelo_inurba_marseille","lat":43.30504,"lon":5.36533,"is_reserved":false,"is_disabled":false,"rental_uris":{"android":"levelo://app?vid=86e74e3b-996a-4975-88d9-d5a7ed191bca","ios":"levelo://app?vid=86e74e3b-996a-4975-88d9-d5a7ed191bca"},"vehicle_type_id":"4","last_reported":1737721037,"current_range_meters":38800,"station_id":"ce4bgs12rcd13ifvqcag","pricing_plan_id":"cebpf4jnsgd1na2vs0mg"},{"bike_id":"8ef3fa62-0a6f-4835-9ef6-faeb3804ec0a","system_id":"levelo_inurba_marseille","lat":43.30895,"lon":5.3687,"is_reserved":false,"is_disabled":false,"rental_uris":{"android":"levelo://app?vid=8ef3fa62-0a6f-4835-9ef6-faeb3804ec0a","ios":"levelo://app?vid=8ef3fa62-0a6f-4835-9ef6-faeb3804ec0a"},"vehicle_type_id":"4","last_reported":1737721037,"current_range_meters":38400,"station_id":"ce4bgn92rcd13ifvqbvg","pricing_plan_id":"cebpf4jnsgd1na2vs0mg"},{"bike_id":"f8d47279-9ba1-467f-a5c2-954f8bee37fb","system_id":"levelo_inurba_marseille","lat":43.32535,"lon":5.41455,"is_reserved":false,"is_disabled":false,"rental_uris":{"android":"levelo://app?vid=f8d47279-9ba1-467f-a5c2-954f8bee37fb","ios":"levelo://app?vid=f8d47279-9ba1-467f-a5c2-954f8bee37fb"},"vehicle_type_id":"4","last_reported":1737721037,"current_range_meters":8400,"station_id":"ce4bhq12rcd13ifvqhhg","pricing_plan_id":"cebpf4jnsgd1na2vs0mg"},{"bike_id":"85a3042a-99ef-4a57-92d9-e9fccf7a3989","system_id":"levelo_inurba_marseille","lat":43.30479,"lon":5.37906,"is_reserved":false,"is_disabled":false,"rental_uris":{"android":"levelo://app?vid=85a3042a-99ef-4a57-92d9-e9fccf7a3989","ios":"levelo://app?vid=85a3042a-99ef-4a57-92d9-e9fccf7a3989"},"vehicle_type_id":"4","last_reported":1737721037,"current_range_meters":33600,"station_id":"ce4bgup2rcd13ifvqcn0","pricing_plan_id":"cebpf4jnsgd1na2vs0mg"},{"bike_id":"85c4b304-0a15-4fc1-b75d-cfc16b5afe60","system_id":"levelo_inurba_marseille","lat":43.2293,"lon":5.35378,"is_reserved":false,"is_disabled":false,"rental_uris":{"android":"levelo://app?vid=85c4b304-0a15-4fc1-b75d-cfc16b5afe60","ios":"levelo://app?vid=85c4b304-0a15-4fc1-b75d-cfc16b5afe60"},"vehicle_type_id":"4","last_reported":1737721037,"current_range_meters":38800,"station_id":"cpo3532slgdg3j2ikp40","pricing_plan_id":"cebpf4jnsgd1na2vs0mg"},{"bike_id":"13c17dca-014d-48b7-ad83-d0d80268795e","system_id":"levelo_inurba_marseille","lat":43.32107,"lon":5.36785,"is_reserved":false,"is_disabled":false,"rental_uris":{"android":"levelo://app?vid=13c17dca-014d-48b7-ad83-d0d80268795e","ios":"levelo://app?vid=13c17dca-014d-48b7-ad83-d0d80268795e"},"vehicle_type_id":"4","last_reported":1737721037,"current_range_meters":38000,"station_id":"ce4bhrh2rcd13ifvqhug","pricing_plan_id":"cebpf4jnsgd1na2vs0mg"},{"bike_id":"f2e3b5c2-d077-4514-b020-0850f3051bdb","system_id":"levelo_inurba_marseille","lat":43.2963,"lon":5.37726,"is_reserved":false,"is_disabled":false,"rental_uris":{"android":"levelo://app?vid=f2e3b5c2-d077-4514-b020-0850f3051bdb","ios":"levelo://app?vid=f2e3b5c2-d077-4514-b020-0850f3051bdb"},"vehicle_type_id":"4","last_reported":1737721037,"current_range_meters":38800,"station_id":"ce4bgi92rcd13ifvqb90","pricing_plan_id":"cebpf4jnsgd1na2vs0mg"},{"bike_id":"2aeb1fe7-2455-4a37-a484-bbbf324c7cf2","system_id":"levelo_inurba_marseille","lat":43.32083,"lon":5.36789,"is_reserved":false,"is_disabled":false,"rental_uris":{"android":"levelo://app?vid=2aeb1fe7-2455-4a37-a484-bbbf324c7cf2","ios":"levelo://app?vid=2aeb1fe7-2455-4a37-a484-bbbf324c7cf2"},"vehicle_type_id":"4","last_reported":1737721037,"current_range_meters":7200,"station_id":"ce4bhrh2rcd13ifvqhug","pricing_plan_id":"cebpf4jnsgd1na2vs0mg"},{"bike_id":"9a75e298-ddfa-48aa-84e2-a9d886d82a4c","system_id":"levelo_inurba_marseille","lat":43.32342,"lon":5.40625,"is_reserved":false,"is_disabled":false,"rental_uris":{"android":"levelo://app?vid=9a75e298-ddfa-48aa-84e2-a9d886d82a4c","ios":"levelo://app?vid=9a75e298-ddfa-48aa-84e2-a9d886d82a4c"},"vehicle_type_id":"4","last_reported":1737721037,"current_range_meters":38000,"station_id":"ce4bhq92rcd13ifvqhjg","pricing_plan_id":"cebpf4jnsgd1na2vs0mg"},{"bike_id":"1d51cb01-b3d9-4cd3-98cf-a30cf755d9d6","system_id":"levelo_inurba_marseille","lat":43.30902,"lon":5.36846,"is_reserved":false,"is_disabled":false,"rental_uris":{"android":"levelo://app?vid=1d51cb01-b3d9-4cd3-98cf-a30cf755d9d6","ios":"levelo://app?vid=1d51cb01-b3d9-4cd3-98cf-a30cf755d9d6"},"vehicle_type_id":"4","last_reported":1737721037,"current_range_meters":28400,"station_id":"ce4bgn92rcd13ifvqbvg","pricing_plan_id":"cebpf4jnsgd1na2vs0mg"},{"bike_id":"3e40302e-344f-404b-ba1e-ee841ffe8e36","system_id":"levelo_inurba_marseille","lat":43.30479,"lon":5.37916,"is_reserved":false,"is_disabled":true,"rental_uris":{"android":"levelo://app?vid=3e40302e-344f-404b-ba1e-ee841ffe8e36","ios":"levelo://app?vid=3e40302e-344f-404b-ba1e-ee841ffe8e36"},"vehicle_type_id":"4","last_reported":1737721037,"current_range_meters":22000,"station_id":"ce4bgup2rcd13ifvqcn0","pricing_plan_id":"cebpf4jnsgd1na2vs0mg"},{"bike_id":"7a55f28a-5a5b-4ca4-9825-dee123c17d08","system_id":"levelo_inurba_marseille","lat":43.32099,"lon":5.36777,"is_reserved":false,"is_disabled":false,"rental_uris":{"android":"levelo://app?vid=7a55f28a-5a5b-4ca4-9825-dee123c17d08","ios":"levelo://app?vid=7a55f28a-5a5b-4ca4-9825-dee123c17d08"},"vehicle_type_id":"4","last_reported":1737721037,"current_range_meters":37600,"station_id":"ce4bhrh2rcd13ifvqhug","pricing_plan_id":"cebpf4jnsgd1na2vs0mg"},{"bike_id":"fa8d78eb-e4d3-478c-924c-1bcea3e36896","system_id":"levelo_inurba_marseille","lat":43.27308,"lon":5.39092,"is_reserved":false,"is_disabled":false,"rental_uris":{"android":"levelo://app?vid=fa8d78eb-e4d3-478c-924c-1bcea3e36896","ios":"levelo://app?vid=fa8d78eb-e4d3-478c-924c-1bcea3e36896"},"vehicle_type_id":"4","last_reported":1737721037,"current_range_meters":38800,"station_id":"ce4bhgp2rcd13ifvqfe0","pricing_plan_id":"cebpf4jnsgd1na2vs0mg"},{"bike_id":"ffe2742c-407f-46b3-8ff8-4a379a0d59c5","system_id":"levelo_inurba_marseille","lat":43.254255,"lon":5.379915,"is_reserved":false,"is_disabled":false,"rental_uris":{"android":"levelo://app?vid=ffe2742c-407f-46b3-8ff8-4a379a0d59c5","ios":"levelo://app?vid=ffe2742c-407f-46b3-8ff8-4a379a0d59c5"},"vehicle_type_id":"4","last_reported":1737721037,"current_range_meters":30400,"station_id":"ce4bhh12rcd13ifvqff0","pricing_plan_id":"cebpf4jnsgd1na2vs0mg"},{"bike_id":"af4be260-4b87-4626-95cf-318d1bcde55e","system_id":"levelo_inurba_marseille","lat":43.28853,"lon":5.393245,"is_reserved":false,"is_disabled":false,"rental_uris":{"android":"levelo://app?vid=af4be260-4b87-4626-95cf-318d1bcde55e","ios":"levelo://app?vid=af4be260-4b87-4626-95cf-318d1bcde55e"},"vehicle_type_id":"4","last_reported":1737721037,"current_range_meters":36800,"station_id":"ce4bh2p2rcd13ifvqdi0","pricing_plan_id":"cebpf4jnsgd1na2vs0mg"},{"bike_id":"c0cd2d01-6e25-4457-8bf1-6e36de7e7aeb","system_id":"levelo_inurba_marseille","lat":43.28727,"lon":5.37936,"is_reserved":false,"is_disabled":false,"rental_uris":{"android":"levelo://app?vid=c0cd2d01-6e25-4457-8bf1-6e36de7e7aeb","ios":"levelo://app?vid=c0cd2d01-6e25-4457-8bf1-6e36de7e7aeb"},"vehicle_type_id":"4","last_reported":1737721037,"current_range_meters":24000,"station_id":"ce4bh9p2rcd13ifvqec0","pricing_plan_id":"cebpf4jnsgd1na2vs0mg"},{"bike_id":"7ae57d4a-987c-4a94-bf67-7089b41c8d83","system_id":"levelo_inurba_marseille","lat":43.276081,"lon":5.361138,"is_reserved":false,"is_disabled":false,"rental_uris":{"android":"levelo://app?vid=7ae57d4a-987c-4a94-bf67-7089b41c8d83","ios":"levelo://app?vid=7ae57d4a-987c-4a94-bf67-7089b41c8d83"},"vehicle_type_id":"4","last_reported":1737721037,"current_range_meters":38000,"station_id":"ce4bgj92rcd13ifvqbe0","pricing_plan_id":"cebpf4jnsgd1na2vs0mg"},{"bike_id":"92039acf-1019-4204-8633-aeeacd5924f6","system_id":"levelo_inurba_marseille","lat":43.28429,"lon":5.39176,"is_reserved":false,"is_disabled":false,"rental_uris":{"android":"levelo://app?vid=92039acf-1019-4204-8633-aeeacd5924f6","ios":"levelo://app?vid=92039acf-1019-4204-8633-aeeacd5924f6"},"vehicle_type_id":"4","last_reported":1737721037,"current_range_meters":22000,"station_id":"ce4bhoh2rcd13ifvqh5g","pricing_plan_id":"cebpf4jnsgd1na2vs0mg"},{"bike_id":"14460ec0-8ab7-4599-bc0f-7184ba5cd83d","system_id":"levelo_inurba_marseille","lat":43.30473,"lon":5.37904,"is_reserved":false,"is_disabled":false,"rental_uris":{"android":"levelo://app?vid=14460ec0-8ab7-4599-bc0f-7184ba5cd83d","ios":"levelo://app?vid=14460ec0-8ab7-4599-bc0f-7184ba5cd83d"},"vehicle_type_id":"4","last_reported":1737721037,"current_range_meters":20000,"station_id":"ce4bgup2rcd13ifvqcn0","pricing_plan_id":"cebpf4jnsgd1na2vs0mg"},{"bike_id":"35614ed7-a0df-4792-bca2-a1978fcd9fab","system_id":"levelo_inurba_marseille","lat":43.30802,"lon":5.43529,"is_reserved":false,"is_disabled":false,"rental_uris":{"android":"levelo://app?vid=35614ed7-a0df-4792-bca2-a1978fcd9fab","ios":"levelo://app?vid=35614ed7-a0df-4792-bca2-a1978fcd9fab"},"vehicle_type_id":"4","last_reported":1737721037,"current_range_meters":38400,"station_id":"ce4bhph2rcd13ifvqheg","pricing_plan_id":"cebpf4jnsgd1na2vs0mg"},{"bike_id":"c2b1d898-8d95-4b49-b324-a24f4f18a4a0","system_id":"levelo_inurba_marseille","lat":43.32531,"lon":5.41481,"is_reserved":false,"is_disabled":false,"rental_uris":{"android":"levelo://app?vid=c2b1d898-8d95-4b49-b324-a24f4f18a4a0","ios":"levelo://app?vid=c2b1d898-8d95-4b49-b324-a24f4f18a4a0"},"vehicle_type_id":"4","last_reported":1737721037,"current_range_meters":36400,"station_id":"ce4bhq12rcd13ifvqhhg","pricing_plan_id":"cebpf4jnsgd1na2vs0mg"},{"bike_id":"28c8c0d8-4bb2-40c7-97a3-48d0cd1d316d","system_id":"levelo_inurba_marseille","lat":43.266896,"lon":5.38278,"is_reserved":false,"is_disabled":false,"rental_uris":{"android":"levelo://app?vid=28c8c0d8-4bb2-40c7-97a3-48d0cd1d316d","ios":"levelo://app?vid=28c8c0d8-4bb2-40c7-97a3-48d0cd1d316d"},"vehicle_type_id":"4","last_reported":1737721037,"current_range_meters":38800,"station_id":"ce4bhg92rcd13ifvqf90","pricing_plan_id":"cebpf4jnsgd1na2vs0mg"},{"bike_id":"8661b5e3-5c50-41b5-9990-f6cea7332865","system_id":"levelo_inurba_marseille","lat":43.29189,"lon":5.35807,"is_reserved":false,"is_disabled":false,"rental_uris":{"android":"levelo://app?vid=8661b5e3-5c50-41b5-9990-f6cea7332865","ios":"levelo://app?vid=8661b5e3-5c50-41b5-9990-f6cea7332865"},"vehicle_type_id":"4","last_reported":1737721037,"current_range_meters":37600,"station_id":"ce4bhb12rcd13ifvqel0","pricing_plan_id":"cebpf4jnsgd1na2vs0mg"},{"bike_id":"4c298b78-82e8-429f-9888-c08228f0b854","system_id":"levelo_inurba_marseille","lat":43.30223,"lon":5.39473,"is_reserved":false,"is_disabled":true,"rental_uris":{"android":"levelo://app?vid=4c298b78-82e8-429f-9888-c08228f0b854","ios":"levelo://app?vid=4c298b78-82e8-429f-9888-c08228f0b854"},"vehicle_type_id":"4","last_reported":1737721037,"current_range_meters":800,"station_id":"ce4bh0p2rcd13ifvqd70","pricing_plan_id":"cebpf4jnsgd1na2vs0mg"},{"bike_id":"05b38463-b2c2-4e2e-b917-402af25c5e19","system_id":"levelo_inurba_marseille","lat":43.28482,"lon":5.38413,"is_reserved":false,"is_disabled":false,"rental_uris":{"android":"levelo://app?vid=05b38463-b2c2-4e2e-b917-402af25c5e19","ios":"levelo://app?vid=05b38463-b2c2-4e2e-b917-402af25c5e19"},"vehicle_type_id":"4","last_reported":1737721037,"current_range_meters":8400,"station_id":"ce4bh512rcd13ifvqe3g","pricing_plan_id":"cebpf4jnsgd1na2vs0mg"},{"bike_id":"302ad34d-83f9-4e3a-8246-16aa28274e3a","system_id":"levelo_inurba_marseille","lat":43.2961,"lon":5.3773,"is_reserved":false,"is_disabled":false,"rental_uris":{"android":"levelo://app?vid=302ad34d-83f9-4e3a-8246-16aa28274e3a","ios":"levelo://app?vid=302ad34d-83f9-4e3a-8246-16aa28274e3a"},"vehicle_type_id":"4","last_reported":1737721037,"current_range_meters":16800,"station_id":"ce4bgi92rcd13ifvqb90","pricing_plan_id":"cebpf4jnsgd1na2vs0mg"},{"bike_id":"311bbf9a-6c7d-4f3c-805e-005cc77c447e","system_id":"levelo_inurba_marseille","lat":43.26935,"lon":5.40267,"is_reserved":false,"is_disabled":false,"rental_uris":{"android":"levelo://app?vid=311bbf9a-6c7d-4f3c-805e-005cc77c447e","ios":"levelo://app?vid=311bbf9a-6c7d-4f3c-805e-005cc77c447e"},"vehicle_type_id":"4","last_reported":1737721037,"current_range_meters":37600,"station_id":"cjm6bp8fraef2m0cb0m0","pricing_plan_id":"cebpf4jnsgd1na2vs0mg"},{"bike_id":"ea45820a-8d38-4f79-925e-e36fded75b82","system_id":"levelo_inurba_marseille","lat":43.32289,"lon":5.38269,"is_reserved":false,"is_disabled":false,"rental_uris":{"android":"levelo://app?vid=ea45820a-8d38-4f79-925e-e36fded75b82","ios":"levelo://app?vid=ea45820a-8d38-4f79-925e-e36fded75b82"},"vehicle_type_id":"4","last_reported":1737721037,"current_range_meters":10000,"station_id":"ce4bhr12rcd13ifvqhqg","pricing_plan_id":"cebpf4jnsgd1na2vs0mg"},{"bike_id":"f60eb4ae-e5c1-4b0e-b7a7-b89e05712b26","system_id":"levelo_inurba_marseille","lat":43.30601,"lon":5.39368,"is_reserved":false,"is_disabled":false,"rental_uris":{"android":"levelo://app?vid=f60eb4ae-e5c1-4b0e-b7a7-b89e05712b26","ios":"levelo://app?vid=f60eb4ae-e5c1-4b0e-b7a7-b89e05712b26"},"vehicle_type_id":"4","last_reported":1737721037,"current_range_meters":25200,"station_id":"ce4bh0p2rcd13ifvqd80","pricing_plan_id":"cebpf4jnsgd1na2vs0mg"},{"bike_id":"a8744bb6-70ec-4c67-8342-75849e291589","system_id":"levelo_inurba_marseille","lat":43.26193,"lon":5.37449,"is_reserved":false,"is_disabled":false,"rental_uris":{"android":"levelo://app?vid=a8744bb6-70ec-4c67-8342-75849e291589","ios":"levelo://app?vid=a8744bb6-70ec-4c67-8342-75849e291589"},"vehicle_type_id":"4","last_reported":1737721037,"current_range_meters":22400,"station_id":"ce4bhgp2rcd13ifvqfc0","pricing_plan_id":"cebpf4jnsgd1na2vs0mg"},{"bike_id":"c5332c32-f726-4644-b824-15429296eaca","system_id":"levelo_inurba_marseille","lat":43.25494,"lon":5.37652,"is_reserved":false,"is_disabled":false,"rental_uris":{"android":"levelo://app?vid=c5332c32-f726-4644-b824-15429296eaca","ios":"levelo://app?vid=c5332c32-f726-4644-b824-15429296eaca"},"vehicle_type_id":"4","last_reported":1737721037,"current_range_meters":22800,"station_id":"ce4bhh12rcd13ifvqff0","pricing_plan_id":"cebpf4jnsgd1na2vs0mg"},{"bike_id":"c54405f6-19ca-4898-9c27-b06f2510a17d","system_id":"levelo_inurba_marseille","lat":43.29264,"lon":5.36116,"is_reserved":false,"is_disabled":false,"rental_uris":{"android":"levelo://app?vid=c54405f6-19ca-4898-9c27-b06f2510a17d","ios":"levelo://app?vid=c54405f6-19ca-4898-9c27-b06f2510a17d"},"vehicle_type_id":"4","last_reported":1737721037,"current_range_meters":35200,"station_id":"ce4bhbh2rcd13ifvqeqg","pricing_plan_id":"cebpf4jnsgd1na2vs0mg"},{"bike_id":"96b757d9-bc3b-420b-be19-28e6baef3842","system_id":"levelo_inurba_marseille","lat":43.29571,"lon":5.36763,"is_reserved":false,"is_disabled":false,"rental_uris":{"android":"levelo://app?vid=96b757d9-bc3b-420b-be19-28e6baef3842","ios":"levelo://app?vid=96b757d9-bc3b-420b-be19-28e6baef3842"},"vehicle_type_id":"4","last_reported":1737721037,"current_range_meters":39200,"station_id":"ce4bgph2rcd13ifvqc2g","pricing_plan_id":"cebpf4jnsgd1na2vs0mg"},{"bike_id":"90562b19-8802-4e76-a682-f90dad6ec469","system_id":"levelo_inurba_marseille","lat":43.29509,"lon":5.38555,"is_reserved":false,"is_disabled":true,"rental_uris":{"android":"levelo://app?vid=90562b19-8802-4e76-a682-f90dad6ec469","ios":"levelo://app?vid=90562b19-8802-4e76-a682-f90dad6ec469"},"vehicle_type_id":"4","last_reported":1737721037,"current_range_meters":0,"station_id":"ce4bgih2rcd13ifvqba0","pricing_plan_id":"cebpf4jnsgd1na2vs0mg"},{"bike_id":"9863b7f9-4316-4322-9f6c-3cc66b0448e2","system_id":"levelo_inurba_marseille","lat":43.279439,"lon":5.389008,"is_reserved":false,"is_disabled":true,"rental_uris":{"android":"levelo://app?vid=9863b7f9-4316-4322-9f6c-3cc66b0448e2","ios":"levelo://app?vid=9863b7f9-4316-4322-9f6c-3cc66b0448e2"},"vehicle_type_id":"4","last_reported":1737721037,"current_range_meters":20000,"station_id":"","pricing_plan_id":"cebpf4jnsgd1na2vs0mg"},{"bike_id":"52c76b33-891b-4417-9674-1dca51bf36cf","system_id":"levelo_inurba_marseille","lat":43.29854,"lon":5.36285,"is_reserved":false,"is_disabled":false,"rental_uris":{"android":"levelo://app?vid=52c76b33-891b-4417-9674-1dca51bf36cf","ios":"levelo://app?vid=52c76b33-891b-4417-9674-1dca51bf36cf"},"vehicle_type_id":"4","last_reported":1737721037,"current_range_meters":33200,"station_id":"ce4bgpp2rcd13ifvqc3g","pricing_plan_id":"cebpf4jnsgd1na2vs0mg"},{"bike_id":"439eff78-ea0e-40da-9eea-8f7a7a309896","system_id":"levelo_inurba_marseille","lat":43.3234,"lon":5.40619,"is_reserved":false,"is_disabled":false,"rental_uris":{"android":"levelo://app?vid=439eff78-ea0e-40da-9eea-8f7a7a309896","ios":"levelo://app?vid=439eff78-ea0e-40da-9eea-8f7a7a309896"},"vehicle_type_id":"4","last_reported":1737721037,"current_range_meters":38400,"station_id":"ce4bhq92rcd13ifvqhjg","pricing_plan_id":"cebpf4jnsgd1na2vs0mg"},{"bike_id":"9cc5f693-9451-496b-ad05-1688d59c1362","system_id":"levelo_inurba_marseille","lat":43.27214,"lon":5.39197,"is_reserved":false,"is_disabled":false,"rental_uris":{"android":"levelo://app?vid=9cc5f693-9451-496b-ad05-1688d59c1362","ios":"levelo://app?vid=9cc5f693-9451-496b-ad05-1688d59c1362"},"vehicle_type_id":"4","last_reported":1737721037,"current_range_meters":39200,"station_id":"ce4bhhp2rcd13ifvqfm0","pricing_plan_id":"cebpf4jnsgd1na2vs0mg"},{"bike_id":"9e2d13b9-d1b0-4762-93f4-a7dd29fa0c55","system_id":"levelo_inurba_marseille","lat":43.29222,"lon":5.36113,"is_reserved":false,"is_disabled":false,"rental_uris":{"android":"levelo://app?vid=9e2d13b9-d1b0-4762-93f4-a7dd29fa0c55","ios":"levelo://app?vid=9e2d13b9-d1b0-4762-93f4-a7dd29fa0c55"},"vehicle_type_id":"4","last_reported":1737721037,"current_range_meters":23200,"station_id":"ce4bhbh2rcd13ifvqeqg","pricing_plan_id":"cebpf4jnsgd1na2vs0mg"},{"bike_id":"1451baee-679d-4d56-b07f-349b5e186d75","system_id":"levelo_inurba_marseille","lat":43.2872,"lon":5.37937,"is_reserved":false,"is_disabled":false,"rental_uris":{"android":"levelo://app?vid=1451baee-679d-4d56-b07f-349b5e186d75","ios":"levelo://app?vid=1451baee-679d-4d56-b07f-349b5e186d75"},"vehicle_type_id":"4","last_reported":1737721037,"current_range_meters":11200,"station_id":"ce4bh9p2rcd13ifvqec0","pricing_plan_id":"cebpf4jnsgd1na2vs0mg"},{"bike_id":"431875b2-9d24-4db5-9274-a62ee86a9046","system_id":"levelo_inurba_marseille","lat":43.29421,"lon":5.3863,"is_reserved":false,"is_disabled":false,"rental_uris":{"android":"levelo://app?vid=431875b2-9d24-4db5-9274-a62ee86a9046","ios":"levelo://app?vid=431875b2-9d24-4db5-9274-a62ee86a9046"},"vehicle_type_id":"4","last_reported":1737721037,"current_range_meters":33600,"station_id":"ce4bh2h2rcd13ifvqdh0","pricing_plan_id":"cebpf4jnsgd1na2vs0mg"},{"bike_id":"6db1e521-cb90-4879-8241-dece18233a1c","system_id":"levelo_inurba_marseille","lat":43.29544,"lon":5.4229,"is_reserved":false,"is_disabled":false,"rental_uris":{"android":"levelo://app?vid=6db1e521-cb90-4879-8241-dece18233a1c","ios":"levelo://app?vid=6db1e521-cb90-4879-8241-dece18233a1c"},"vehicle_type_id":"4","last_reported":1737721037,"current_range_meters":22800,"station_id":"ce4bhph2rcd13ifvqhdg","pricing_plan_id":"cebpf4jnsgd1na2vs0mg"},{"bike_id":"eb82a4fa-b45d-4357-8410-47675bcbc568","system_id":"levelo_inurba_marseille","lat":43.29584,"lon":5.36742,"is_reserved":false,"is_disabled":false,"rental_uris":{"android":"levelo://app?vid=eb82a4fa-b45d-4357-8410-47675bcbc568","ios":"levelo://app?vid=eb82a4fa-b45d-4357-8410-47675bcbc568"},"vehicle_type_id":"4","last_reported":1737721037,"current_range_meters":39200,"station_id":"ce4bgph2rcd13ifvqc2g","pricing_plan_id":"cebpf4jnsgd1na2vs0mg"},{"bike_id":"fb96c333-d038-4b1c-9f7d-d3a5abfa6e1c","system_id":"levelo_inurba_marseille","lat":43.32459,"lon":5.366,"is_reserved":false,"is_disabled":false,"rental_uris":{"android":"levelo://app?vid=fb96c333-d038-4b1c-9f7d-d3a5abfa6e1c","ios":"levelo://app?vid=fb96c333-d038-4b1c-9f7d-d3a5abfa6e1c"},"vehicle_type_id":"4","last_reported":1737721037,"current_range_meters":21600,"station_id":"ce4bhs12rcd13ifvqhvg","pricing_plan_id":"cebpf4jnsgd1na2vs0mg"},{"bike_id":"f8204375-6eec-4773-a540-4c3a6461d6e7","system_id":"levelo_inurba_marseille","lat":43.301344,"lon":5.398607,"is_reserved":false,"is_disabled":false,"rental_uris":{"android":"levelo://app?vid=f8204375-6eec-4773-a540-4c3a6461d6e7","ios":"levelo://app?vid=f8204375-6eec-4773-a540-4c3a6461d6e7"},"vehicle_type_id":"4","last_reported":1737721037,"current_range_meters":22000,"station_id":"ce4bh0h2rcd13ifvqd40","pricing_plan_id":"cebpf4jnsgd1na2vs0mg"},{"bike_id":"934196af-5ffb-4509-b6e8-608b435748a6","system_id":"levelo_inurba_marseille","lat":43.31525,"lon":5.3805,"is_reserved":false,"is_disabled":false,"rental_uris":{"android":"levelo://app?vid=934196af-5ffb-4509-b6e8-608b435748a6","ios":"levelo://app?vid=934196af-5ffb-4509-b6e8-608b435748a6"},"vehicle_type_id":"4","last_reported":1737721037,"current_range_meters":31200,"station_id":"ce4bhsp2rcd13ifvqi50","pricing_plan_id":"cebpf4jnsgd1na2vs0mg"},{"bike_id":"c400706d-11d8-4109-af7f-04e1a2259d9b","system_id":"levelo_inurba_marseille","lat":43.29897,"lon":5.43673,"is_reserved":false,"is_disabled":false,"rental_uris":{"android":"levelo://app?vid=c400706d-11d8-4109-af7f-04e1a2259d9b","ios":"levelo://app?vid=c400706d-11d8-4109-af7f-04e1a2259d9b"},"vehicle_type_id":"4","last_reported":1737721037,"current_range_meters":6400,"station_id":"ce4bhpp2rcd13ifvqhfg","pricing_plan_id":"cebpf4jnsgd1na2vs0mg"},{"bike_id":"8542304e-3d2f-457a-940c-10f69bbb7cf1","system_id":"levelo_inurba_marseille","lat":43.27687,"lon":5.38919,"is_reserved":false,"is_disabled":false,"rental_uris":{"android":"levelo://app?vid=8542304e-3d2f-457a-940c-10f69bbb7cf1","ios":"levelo://app?vid=8542304e-3d2f-457a-940c-10f69bbb7cf1"},"vehicle_type_id":"4","last_reported":1737721037,"current_range_meters":38800,"station_id":"ce4bhi12rcd13ifvqfo0","pricing_plan_id":"cebpf4jnsgd1na2vs0mg"},{"bike_id":"e5109a90-279c-4aeb-8d41-ff529bfa1123","system_id":"levelo_inurba_marseille","lat":43.29684,"lon":5.37286,"is_reserved":false,"is_disabled":false,"rental_uris":{"android":"levelo://app?vid=e5109a90-279c-4aeb-8d41-ff529bfa1123","ios":"levelo://app?vid=e5109a90-279c-4aeb-8d41-ff529bfa1123"},"vehicle_type_id":"4","last_reported":1737721037,"current_range_meters":26800,"station_id":"ce4bgk12rcd13ifvqbj0","pricing_plan_id":"cebpf4jnsgd1na2vs0mg"},{"bike_id":"e65017eb-8f52-4183-a9ec-6e2784f34809","system_id":"levelo_inurba_marseille","lat":43.30473,"lon":5.37906,"is_reserved":false,"is_disabled":true,"rental_uris":{"android":"levelo://app?vid=e65017eb-8f52-4183-a9ec-6e2784f34809","ios":"levelo://app?vid=e65017eb-8f52-4183-a9ec-6e2784f34809"},"vehicle_type_id":"4","last_reported":1737721037,"current_range_meters":400,"station_id":"ce4bgup2rcd13ifvqcn0","pricing_plan_id":"cebpf4jnsgd1na2vs0mg"},{"bike_id":"e5bcb72f-4660-482d-8f72-fd1331220c27","system_id":"levelo_inurba_marseille","lat":43.29411,"lon":5.40165,"is_reserved":false,"is_disabled":false,"rental_uris":{"android":"levelo://app?vid=e5bcb72f-4660-482d-8f72-fd1331220c27","ios":"levelo://app?vid=e5bcb72f-4660-482d-8f72-fd1331220c27"},"vehicle_type_id":"4","last_reported":1737721037,"current_range_meters":7200,"station_id":"","pricing_plan_id":"cebpf4jnsgd1na2vs0mg"},{"bike_id":"c3ccfefb-c1f2-459b-aeea-f7492233dca7","system_id":"levelo_inurba_marseille","lat":43.25931,"lon":5.40896,"is_reserved":false,"is_disabled":false,"rental_uris":{"android":"levelo://app?vid=c3ccfefb-c1f2-459b-aeea-f7492233dca7","ios":"levelo://app?vid=c3ccfefb-c1f2-459b-aeea-f7492233dca7"},"vehicle_type_id":"4","last_reported":1737721037,"current_range_meters":36800,"station_id":"ce4bhm92rcd13ifvqglg","pricing_plan_id":"cebpf4jnsgd1na2vs0mg"},{"bike_id":"7c78a755-c7f5-4f07-a96b-621451d47948","system_id":"levelo_inurba_marseille","lat":43.29906,"lon":5.43673,"is_reserved":false,"is_disabled":false,"rental_uris":{"android":"levelo://app?vid=7c78a755-c7f5-4f07-a96b-621451d47948","ios":"levelo://app?vid=7c78a755-c7f5-4f07-a96b-621451d47948"},"vehicle_type_id":"4","last_reported":1737721037,"current_range_meters":8000,"station_id":"ce4bhpp2rcd13ifvqhfg","pricing_plan_id":"cebpf4jnsgd1na2vs0mg"},{"bike_id":"512ac84d-b018-4723-b2e0-cf38b42f6575","system_id":"levelo_inurba_marseille","lat":43.31356,"lon":5.38506,"is_reserved":false,"is_disabled":true,"rental_uris":{"android":"levelo://app?vid=512ac84d-b018-4723-b2e0-cf38b42f6575","ios":"levelo://app?vid=512ac84d-b018-4723-b2e0-cf38b42f6575"},"vehicle_type_id":"4","last_reported":1737721037,"current_range_meters":38800,"station_id":"","pricing_plan_id":"cebpf4jnsgd1na2vs0mg"},{"bike_id":"81481363-ee60-4805-9da0-e33c51b4f172","system_id":"levelo_inurba_marseille","lat":43.28441,"lon":5.39197,"is_reserved":false,"is_disabled":false,"rental_uris":{"android":"levelo://app?vid=81481363-ee60-4805-9da0-e33c51b4f172","ios":"levelo://app?vid=81481363-ee60-4805-9da0-e33c51b4f172"},"vehicle_type_id":"4","last_reported":1737721037,"current_range_meters":32400,"station_id":"ce4bhoh2rcd13ifvqh5g","pricing_plan_id":"cebpf4jnsgd1na2vs0mg"},{"bike_id":"1aed7b80-d93a-4904-8f20-7f823bd7e53e","system_id":"levelo_inurba_marseille","lat":43.28344,"lon":5.38106,"is_reserved":false,"is_disabled":false,"rental_uris":{"android":"levelo://app?vid=1aed7b80-d93a-4904-8f20-7f823bd7e53e","ios":"levelo://app?vid=1aed7b80-d93a-4904-8f20-7f823bd7e53e"},"vehicle_type_id":"4","last_reported":1737721037,"current_range_meters":27600,"station_id":"ce4bh412rcd13ifvqdr0","pricing_plan_id":"cebpf4jnsgd1na2vs0mg"},{"bike_id":"69df4a89-3cf7-41c9-940b-0dbf58802d46","system_id":"levelo_inurba_marseille","lat":43.29416,"lon":5.38632,"is_reserved":false,"is_disabled":false,"rental_uris":{"android":"levelo://app?vid=69df4a89-3cf7-41c9-940b-0dbf58802d46","ios":"levelo://app?vid=69df4a89-3cf7-41c9-940b-0dbf58802d46"},"vehicle_type_id":"4","last_reported":1737721037,"current_range_meters":35200,"station_id":"ce4bh2h2rcd13ifvqdh0","pricing_plan_id":"cebpf4jnsgd1na2vs0mg"},{"bike_id":"1bc3cf24-9130-48d4-a48c-ea389c65e86b","system_id":"levelo_inurba_marseille","lat":43.24801,"lon":5.37458,"is_reserved":false,"is_disabled":false,"rental_uris":{"android":"levelo://app?vid=1bc3cf24-9130-48d4-a48c-ea389c65e86b","ios":"levelo://app?vid=1bc3cf24-9130-48d4-a48c-ea389c65e86b"},"vehicle_type_id":"4","last_reported":1737721037,"current_range_meters":32400,"station_id":"ce4bhgh2rcd13ifvqfb0","pricing_plan_id":"cebpf4jnsgd1na2vs0mg"},{"bike_id":"1470ca42-04cc-4b23-81ca-1d82c6cc777e","system_id":"levelo_inurba_marseille","lat":43.26949,"lon":5.38651,"is_reserved":false,"is_disabled":false,"rental_uris":{"android":"levelo://app?vid=1470ca42-04cc-4b23-81ca-1d82c6cc777e","ios":"levelo://app?vid=1470ca42-04cc-4b23-81ca-1d82c6cc777e"},"vehicle_type_id":"4","last_reported":1737721037,"current_range_meters":38800,"station_id":"ce4bhh92rcd13ifvqfh0","pricing_plan_id":"cebpf4jnsgd1na2vs0mg"},{"bike_id":"4a13ea03-ec6c-4773-aab6-bf9a860cd9fc","system_id":"levelo_inurba_marseille","lat":43.27859,"lon":5.37987,"is_reserved":false,"is_disabled":false,"rental_uris":{"android":"levelo://app?vid=4a13ea03-ec6c-4773-aab6-bf9a860cd9fc","ios":"levelo://app?vid=4a13ea03-ec6c-4773-aab6-bf9a860cd9fc"},"vehicle_type_id":"4","last_reported":1737721037,"current_range_meters":38800,"station_id":"ce4bhf92rcd13ifvqf50","pricing_plan_id":"cebpf4jnsgd1na2vs0mg"},{"bike_id":"a5e42b99-04d1-482a-9300-0d2363e647cb","system_id":"levelo_inurba_marseille","lat":43.28617,"lon":5.35107,"is_reserved":false,"is_disabled":false,"rental_uris":{"android":"levelo://app?vid=a5e42b99-04d1-482a-9300-0d2363e647cb","ios":"levelo://app?vid=a5e42b99-04d1-482a-9300-0d2363e647cb"},"vehicle_type_id":"4","last_reported":1737721037,"current_range_meters":24400,"station_id":"ce4bhch2rcd13ifvqeug","pricing_plan_id":"cebpf4jnsgd1na2vs0mg"},{"bike_id":"cf24a7dc-d833-4357-8165-2514ac46fba4","system_id":"levelo_inurba_marseille","lat":43.24056,"lon":5.37768,"is_reserved":false,"is_disabled":false,"rental_uris":{"android":"levelo://app?vid=cf24a7dc-d833-4357-8165-2514ac46fba4","ios":"levelo://app?vid=cf24a7dc-d833-4357-8165-2514ac46fba4"},"vehicle_type_id":"4","last_reported":1737721037,"current_range_meters":39200,"station_id":"ce4bhnp2rcd13ifvqgvg","pricing_plan_id":"cebpf4jnsgd1na2vs0mg"},{"bike_id":"0f6f1f28-264c-42b7-9014-efb1bc5cfecb","system_id":"levelo_inurba_marseille","lat":43.29917,"lon":5.37473,"is_reserved":false,"is_disabled":false,"rental_uris":{"android":"levelo://app?vid=0f6f1f28-264c-42b7-9014-efb1bc5cfecb","ios":"levelo://app?vid=0f6f1f28-264c-42b7-9014-efb1bc5cfecb"},"vehicle_type_id":"4","last_reported":1737721037,"current_range_meters":37600,"station_id":"ce4bgjh2rcd13ifvqbg0","pricing_plan_id":"cebpf4jnsgd1na2vs0mg"},{"bike_id":"0e364ce1-43c1-4d01-b77a-41f968342676","system_id":"levelo_inurba_marseille","lat":43.25112,"lon":5.40324,"is_reserved":false,"is_disabled":false,"rental_uris":{"android":"levelo://app?vid=0e364ce1-43c1-4d01-b77a-41f968342676","ios":"levelo://app?vid=0e364ce1-43c1-4d01-b77a-41f968342676"},"vehicle_type_id":"4","last_reported":1737721037,"current_range_meters":13600,"station_id":"ce4bhlh2rcd13ifvqgig","pricing_plan_id":"cebpf4jnsgd1na2vs0mg"},{"bike_id":"bd28a8d1-43a3-411b-8e89-e91fc33f5dc5","system_id":"levelo_inurba_marseille","lat":43.25067,"lon":5.38975,"is_reserved":false,"is_disabled":false,"rental_uris":{"android":"levelo://app?vid=bd28a8d1-43a3-411b-8e89-e91fc33f5dc5","ios":"levelo://app?vid=bd28a8d1-43a3-411b-8e89-e91fc33f5dc5"},"vehicle_type_id":"4","last_reported":1737721037,"current_range_meters":38400,"station_id":"ce4bhgp2rcd13ifvqfd0","pricing_plan_id":"cebpf4jnsgd1na2vs0mg"},{"bike_id":"2d09f6c2-0a95-42dd-b273-6c37bca47794","system_id":"levelo_inurba_marseille","lat":43.29936,"lon":5.37474,"is_reserved":false,"is_disabled":false,"rental_uris":{"android":"levelo://app?vid=2d09f6c2-0a95-42dd-b273-6c37bca47794","ios":"levelo://app?vid=2d09f6c2-0a95-42dd-b273-6c37bca47794"},"vehicle_type_id":"4","last_reported":1737721037,"current_range_meters":38800,"station_id":"ce4bgjh2rcd13ifvqbg0","pricing_plan_id":"cebpf4jnsgd1na2vs0mg"},{"bike_id":"4b343468-a470-440a-91ba-f6ce46713a9d","system_id":"levelo_inurba_marseille","lat":43.29566,"lon":5.37514,"is_reserved":false,"is_disabled":false,"rental_uris":{"android":"levelo://app?vid=4b343468-a470-440a-91ba-f6ce46713a9d","ios":"levelo://app?vid=4b343468-a470-440a-91ba-f6ce46713a9d"},"vehicle_type_id":"4","last_reported":1737721037,"current_range_meters":38800,"station_id":"ce4bgh92rcd13ifvqb50","pricing_plan_id":"cebpf4jnsgd1na2vs0mg"},{"bike_id":"de6fd782-7134-4e64-b9c3-cc2cfbe12552","system_id":"levelo_inurba_marseille","lat":43.31099,"lon":5.38823,"is_reserved":false,"is_disabled":false,"rental_uris":{"android":"levelo://app?vid=de6fd782-7134-4e64-b9c3-cc2cfbe12552","ios":"levelo://app?vid=de6fd782-7134-4e64-b9c3-cc2cfbe12552"},"vehicle_type_id":"4","last_reported":1737721037,"current_range_meters":32400,"station_id":"","pricing_plan_id":"cebpf4jnsgd1na2vs0mg"},{"bike_id":"13ff516e-16cf-4543-8540-9030b8b296b4","system_id":"levelo_inurba_marseille","lat":43.23188,"lon":5.35566,"is_reserved":false,"is_disabled":false,"rental_uris":{"android":"levelo://app?vid=13ff516e-16cf-4543-8540-9030b8b296b4","ios":"levelo://app?vid=13ff516e-16cf-4543-8540-9030b8b296b4"},"vehicle_type_id":"4","last_reported":1737721037,"current_range_meters":25200,"station_id":"ce4bhu92rcd13ifvqi70","pricing_plan_id":"cebpf4jnsgd1na2vs0mg"},{"bike_id":"0559d6d4-37c7-46c4-8936-9ba759799326","system_id":"levelo_inurba_marseille","lat":43.24805,"lon":5.37462,"is_reserved":false,"is_disabled":false,"rental_uris":{"android":"levelo://app?vid=0559d6d4-37c7-46c4-8936-9ba759799326","ios":"levelo://app?vid=0559d6d4-37c7-46c4-8936-9ba759799326"},"vehicle_type_id":"4","last_reported":1737721037,"current_range_meters":38000,"station_id":"ce4bhgh2rcd13ifvqfb0","pricing_plan_id":"cebpf4jnsgd1na2vs0mg"},{"bike_id":"8a151ccc-edf6-40ab-a6a3-42b4ac96f698","system_id":"levelo_inurba_marseille","lat":43.28263,"lon":5.35112,"is_reserved":false,"is_disabled":true,"rental_uris":{"android":"levelo://app?vid=8a151ccc-edf6-40ab-a6a3-42b4ac96f698","ios":"levelo://app?vid=8a151ccc-edf6-40ab-a6a3-42b4ac96f698"},"vehicle_type_id":"4","last_reported":1737721037,"current_range_meters":24400,"station_id":"ce4bhbp2rcd13ifvqerg","pricing_plan_id":"cebpf4jnsgd1na2vs0mg"},{"bike_id":"f7fa6835-fe32-48f9-baaf-3b3d2101b701","system_id":"levelo_inurba_marseille","lat":43.27828,"lon":5.40735,"is_reserved":false,"is_disabled":false,"rental_uris":{"android":"levelo://app?vid=f7fa6835-fe32-48f9-baaf-3b3d2101b701","ios":"levelo://app?vid=f7fa6835-fe32-48f9-baaf-3b3d2101b701"},"vehicle_type_id":"4","last_reported":1737721037,"current_range_meters":38800,"station_id":"ce4bhnh2rcd13ifvqgtg","pricing_plan_id":"cebpf4jnsgd1na2vs0mg"},{"bike_id":"3580c5c1-dc70-4ba1-a8a7-c1a2b51491bb","system_id":"levelo_inurba_marseille","lat":43.23186,"lon":5.39984,"is_reserved":false,"is_disabled":false,"rental_uris":{"android":"levelo://app?vid=3580c5c1-dc70-4ba1-a8a7-c1a2b51491bb","ios":"levelo://app?vid=3580c5c1-dc70-4ba1-a8a7-c1a2b51491bb"},"vehicle_type_id":"4","last_reported":1737721037,"current_range_meters":16400,"station_id":"ce4bhn12rcd13ifvqgqg","pricing_plan_id":"cebpf4jnsgd1na2vs0mg"},{"bike_id":"cdc5a8ed-4598-4bee-9b07-4cc607fa93ef","system_id":"levelo_inurba_marseille","lat":43.320535,"lon":5.415525,"is_reserved":false,"is_disabled":false,"rental_uris":{"android":"levelo://app?vid=cdc5a8ed-4598-4bee-9b07-4cc607fa93ef","ios":"levelo://app?vid=cdc5a8ed-4598-4bee-9b07-4cc607fa93ef"},"vehicle_type_id":"4","last_reported":1737721037,"current_range_meters":14000,"station_id":"ce4bhq92rcd13ifvqhkg","pricing_plan_id":"cebpf4jnsgd1na2vs0mg"},{"bike_id":"c07ffe20-21f2-4b01-b153-b7e93fc6ba8d","system_id":"levelo_inurba_marseille","lat":43.31713,"lon":5.42413,"is_reserved":false,"is_disabled":true,"rental_uris":{"android":"levelo://app?vid=c07ffe20-21f2-4b01-b153-b7e93fc6ba8d","ios":"levelo://app?vid=c07ffe20-21f2-4b01-b153-b7e93fc6ba8d"},"vehicle_type_id":"4","last_reported":1737721037,"current_range_meters":1600,"station_id":"ce4bhp92rcd13ifvqhbg","pricing_plan_id":"cebpf4jnsgd1na2vs0mg"},{"bike_id":"af0a0d6b-1a9c-4ab4-a970-1279f3405831","system_id":"levelo_inurba_marseille","lat":43.29026,"lon":5.35916,"is_reserved":false,"is_disabled":false,"rental_uris":{"android":"levelo://app?vid=af0a0d6b-1a9c-4ab4-a970-1279f3405831","ios":"levelo://app?vid=af0a0d6b-1a9c-4ab4-a970-1279f3405831"},"vehicle_type_id":"4","last_reported":1737721037,"current_range_meters":24800,"station_id":"ce4bha92rcd13ifvqeg0","pricing_plan_id":"cebpf4jnsgd1na2vs0mg"},{"bike_id":"7074fef2-3a74-40e6-a15d-bce2bb1b8a50","system_id":"levelo_inurba_marseille","lat":43.30098,"lon":5.39069,"is_reserved":false,"is_disabled":false,"rental_uris":{"android":"levelo://app?vid=7074fef2-3a74-40e6-a15d-bce2bb1b8a50","ios":"levelo://app?vid=7074fef2-3a74-40e6-a15d-bce2bb1b8a50"},"vehicle_type_id":"4","last_reported":1737721037,"current_range_meters":3600,"station_id":"ce4bh192rcd13ifvqdb0","pricing_plan_id":"cebpf4jnsgd1na2vs0mg"},{"bike_id":"4807e3ef-6231-4e20-b51c-6a65d618a906","system_id":"levelo_inurba_marseille","lat":43.30922,"lon":5.4015,"is_reserved":false,"is_disabled":false,"rental_uris":{"android":"levelo://app?vid=4807e3ef-6231-4e20-b51c-6a65d618a906","ios":"levelo://app?vid=4807e3ef-6231-4e20-b51c-6a65d618a906"},"vehicle_type_id":"4","last_reported":1737721037,"current_range_meters":28800,"station_id":"ce4bgvp2rcd13ifvqct0","pricing_plan_id":"cebpf4jnsgd1na2vs0mg"},{"bike_id":"5178f3b8-4850-44ff-ae1d-dcc1bc414688","system_id":"levelo_inurba_marseille","lat":43.30573,"lon":5.3653,"is_reserved":false,"is_disabled":false,"rental_uris":{"android":"levelo://app?vid=5178f3b8-4850-44ff-ae1d-dcc1bc414688","ios":"levelo://app?vid=5178f3b8-4850-44ff-ae1d-dcc1bc414688"},"vehicle_type_id":"4","last_reported":1737721037,"current_range_meters":37600,"station_id":"ce4bgs12rcd13ifvqcag","pricing_plan_id":"cebpf4jnsgd1na2vs0mg"},{"bike_id":"3b5db362-e586-4843-ac19-b18328203e89","system_id":"levelo_inurba_marseille","lat":43.30302,"lon":5.36903,"is_reserved":false,"is_disabled":false,"rental_uris":{"android":"levelo://app?vid=3b5db362-e586-4843-ac19-b18328203e89","ios":"levelo://app?vid=3b5db362-e586-4843-ac19-b18328203e89"},"vehicle_type_id":"4","last_reported":1737721037,"current_range_meters":28800,"station_id":"ce4bgqh2rcd13ifvqc5g","pricing_plan_id":"cebpf4jnsgd1na2vs0mg"},{"bike_id":"8263b869-2897-4aec-bb52-47e72d21bc1d","system_id":"levelo_inurba_marseille","lat":43.29263,"lon":5.40919,"is_reserved":false,"is_disabled":true,"rental_uris":{"android":"levelo://app?vid=8263b869-2897-4aec-bb52-47e72d21bc1d","ios":"levelo://app?vid=8263b869-2897-4aec-bb52-47e72d21bc1d"},"vehicle_type_id":"4","last_reported":1737721037,"current_range_meters":1200,"station_id":"ce4bh192rcd13ifvqdc0","pricing_plan_id":"cebpf4jnsgd1na2vs0mg"},{"bike_id":"45b366a6-6abc-4401-bb9e-1aee69db2cae","system_id":"levelo_inurba_marseille","lat":43.2808,"lon":5.39664,"is_reserved":false,"is_disabled":false,"rental_uris":{"android":"levelo://app?vid=45b366a6-6abc-4401-bb9e-1aee69db2cae","ios":"levelo://app?vid=45b366a6-6abc-4401-bb9e-1aee69db2cae"},"vehicle_type_id":"4","last_reported":1737721037,"current_range_meters":32400,"station_id":"ce4bho12rcd13ifvqh2g","pricing_plan_id":"cebpf4jnsgd1na2vs0mg"},{"bike_id":"3444053c-9b78-40b6-b7e5-b021dc04c8c1","system_id":"levelo_inurba_marseille","lat":43.28346,"lon":5.38102,"is_reserved":false,"is_disabled":false,"rental_uris":{"android":"levelo://app?vid=3444053c-9b78-40b6-b7e5-b021dc04c8c1","ios":"levelo://app?vid=3444053c-9b78-40b6-b7e5-b021dc04c8c1"},"vehicle_type_id":"4","last_reported":1737721037,"current_range_meters":32000,"station_id":"ce4bh412rcd13ifvqdr0","pricing_plan_id":"cebpf4jnsgd1na2vs0mg"},{"bike_id":"d04f7cea-c0f0-4bfc-a0c7-6e2585e0e91a","system_id":"levelo_inurba_marseille","lat":43.27807,"lon":5.40719,"is_reserved":false,"is_disabled":false,"rental_uris":{"android":"levelo://app?vid=d04f7cea-c0f0-4bfc-a0c7-6e2585e0e91a","ios":"levelo://app?vid=d04f7cea-c0f0-4bfc-a0c7-6e2585e0e91a"},"vehicle_type_id":"4","last_reported":1737721037,"current_range_meters":36400,"station_id":"ce4bhnh2rcd13ifvqgtg","pricing_plan_id":"cebpf4jnsgd1na2vs0mg"},{"bike_id":"421d447e-f137-48f8-b50a-3cef6ba73d00","system_id":"levelo_inurba_marseille","lat":43.32364,"lon":5.36764,"is_reserved":false,"is_disabled":false,"rental_uris":{"android":"levelo://app?vid=421d447e-f137-48f8-b50a-3cef6ba73d00","ios":"levelo://app?vid=421d447e-f137-48f8-b50a-3cef6ba73d00"},"vehicle_type_id":"4","last_reported":1737721037,"current_range_meters":9600,"station_id":"ce4bhsh2rcd13ifvqi2g","pricing_plan_id":"cebpf4jnsgd1na2vs0mg"},{"bike_id":"5a362b09-4c79-42c9-950b-77c8a3146560","system_id":"levelo_inurba_marseille","lat":43.30189,"lon":5.36631,"is_reserved":false,"is_disabled":true,"rental_uris":{"android":"levelo://app?vid=5a362b09-4c79-42c9-950b-77c8a3146560","ios":"levelo://app?vid=5a362b09-4c79-42c9-950b-77c8a3146560"},"vehicle_type_id":"4","last_reported":1737721037,"current_range_meters":25600,"station_id":"ce4bgrh2rcd13ifvqc8g","pricing_plan_id":"cebpf4jnsgd1na2vs0mg"},{"bike_id":"56267fab-8f5a-4c8f-ab88-03578dbedfec","system_id":"levelo_inurba_marseille","lat":43.24172,"lon":5.3973,"is_reserved":false,"is_disabled":false,"rental_uris":{"android":"levelo://app?vid=56267fab-8f5a-4c8f-ab88-03578dbedfec","ios":"levelo://app?vid=56267fab-8f5a-4c8f-ab88-03578dbedfec"},"vehicle_type_id":"4","last_reported":1737721037,"current_range_meters":18800,"station_id":"ce4bhn12rcd13ifvqgpg","pricing_plan_id":"cebpf4jnsgd1na2vs0mg"},{"bike_id":"fc985f12-c445-4777-812f-dac20b7e0cac","system_id":"levelo_inurba_marseille","lat":43.29724,"lon":5.37728,"is_reserved":false,"is_disabled":false,"rental_uris":{"android":"levelo://app?vid=fc985f12-c445-4777-812f-dac20b7e0cac","ios":"levelo://app?vid=fc985f12-c445-4777-812f-dac20b7e0cac"},"vehicle_type_id":"4","last_reported":1737721037,"current_range_meters":37600,"station_id":"ce4bgkh2rcd13ifvqbl0","pricing_plan_id":"cebpf4jnsgd1na2vs0mg"},{"bike_id":"75495e7c-20bd-4569-84c6-35df34ab244d","system_id":"levelo_inurba_marseille","lat":43.29898,"lon":5.43677,"is_reserved":false,"is_disabled":true,"rental_uris":{"android":"levelo://app?vid=75495e7c-20bd-4569-84c6-35df34ab244d","ios":"levelo://app?vid=75495e7c-20bd-4569-84c6-35df34ab244d"},"vehicle_type_id":"4","last_reported":1737721037,"current_range_meters":0,"station_id":"ce4bhpp2rcd13ifvqhfg","pricing_plan_id":"cebpf4jnsgd1na2vs0mg"},{"bike_id":"1796b40c-e9f9-41b3-b9c3-07b6f944e660","system_id":"levelo_inurba_marseille","lat":43.29917,"lon":5.36538,"is_reserved":false,"is_disabled":false,"rental_uris":{"android":"levelo://app?vid=1796b40c-e9f9-41b3-b9c3-07b6f944e660","ios":"levelo://app?vid=1796b40c-e9f9-41b3-b9c3-07b6f944e660"},"vehicle_type_id":"4","last_reported":1737721037,"current_range_meters":37600,"station_id":"ce4bgm92rcd13ifvqbr0","pricing_plan_id":"cebpf4jnsgd1na2vs0mg"},{"bike_id":"bce90cb0-f07a-4e92-899b-84ce35d9b7d7","system_id":"levelo_inurba_marseille","lat":43.33025,"lon":5.39041,"is_reserved":false,"is_disabled":false,"rental_uris":{"android":"levelo://app?vid=bce90cb0-f07a-4e92-899b-84ce35d9b7d7","ios":"levelo://app?vid=bce90cb0-f07a-4e92-899b-84ce35d9b7d7"},"vehicle_type_id":"4","last_reported":1737721037,"current_range_meters":37600,"station_id":"ce4bhr92rcd13ifvqhrg","pricing_plan_id":"cebpf4jnsgd1na2vs0mg"},{"bike_id":"2693e099-578a-4462-b03c-cb6a658dc0f3","system_id":"levelo_inurba_marseille","lat":43.29897,"lon":5.436679,"is_reserved":false,"is_disabled":false,"rental_uris":{"android":"levelo://app?vid=2693e099-578a-4462-b03c-cb6a658dc0f3","ios":"levelo://app?vid=2693e099-578a-4462-b03c-cb6a658dc0f3"},"vehicle_type_id":"4","last_reported":1737721037,"current_range_meters":38800,"station_id":"ce4bhpp2rcd13ifvqhfg","pricing_plan_id":"cebpf4jnsgd1na2vs0mg"},{"bike_id":"0683b8fa-bf66-4a85-b23f-305b1ef8e2c5","system_id":"levelo_inurba_marseille","lat":43.29912,"lon":5.4369,"is_reserved":false,"is_disabled":true,"rental_uris":{"android":"levelo://app?vid=0683b8fa-bf66-4a85-b23f-305b1ef8e2c5","ios":"levelo://app?vid=0683b8fa-bf66-4a85-b23f-305b1ef8e2c5"},"vehicle_type_id":"4","last_reported":1737721037,"current_range_meters":2000,"station_id":"","pricing_plan_id":"cebpf4jnsgd1na2vs0mg"},{"bike_id":"7e3c1bd6-7159-4a2b-9bbd-c2724d8e2f1d","system_id":"levelo_inurba_marseille","lat":43.31353,"lon":5.36698,"is_reserved":false,"is_disabled":false,"rental_uris":{"android":"levelo://app?vid=7e3c1bd6-7159-4a2b-9bbd-c2724d8e2f1d","ios":"levelo://app?vid=7e3c1bd6-7159-4a2b-9bbd-c2724d8e2f1d"},"vehicle_type_id":"4","last_reported":1737721037,"current_range_meters":19600,"station_id":"ce4bgr92rcd13ifvqc6g","pricing_plan_id":"cebpf4jnsgd1na2vs0mg"},{"bike_id":"b6663470-0bb2-4d25-96c5-fa533bc2c675","system_id":"levelo_inurba_marseille","lat":43.33722,"lon":5.39197,"is_reserved":false,"is_disabled":false,"rental_uris":{"android":"levelo://app?vid=b6663470-0bb2-4d25-96c5-fa533bc2c675","ios":"levelo://app?vid=b6663470-0bb2-4d25-96c5-fa533bc2c675"},"vehicle_type_id":"4","last_reported":1737721037,"current_range_meters":20400,"station_id":"ce4bhr92rcd13ifvqhsg","pricing_plan_id":"cebpf4jnsgd1na2vs0mg"},{"bike_id":"b49702c0-b4c0-4a2a-b0b6-7113b4a9dba6","system_id":"levelo_inurba_marseille","lat":43.26064,"lon":5.39398,"is_reserved":false,"is_disabled":true,"rental_uris":{"android":"levelo://app?vid=b49702c0-b4c0-4a2a-b0b6-7113b4a9dba6","ios":"levelo://app?vid=b49702c0-b4c0-4a2a-b0b6-7113b4a9dba6"},"vehicle_type_id":"4","last_reported":1737721037,"current_range_meters":2800,"station_id":"ce4bhh92rcd13ifvqfj0","pricing_plan_id":"cebpf4jnsgd1na2vs0mg"},{"bike_id":"18f16f0d-edf7-470d-944c-0a0c2ccd3df8","system_id":"levelo_inurba_marseille","lat":43.29522,"lon":5.39416,"is_reserved":false,"is_disabled":true,"rental_uris":{"android":"levelo://app?vid=18f16f0d-edf7-470d-944c-0a0c2ccd3df8","ios":"levelo://app?vid=18f16f0d-edf7-470d-944c-0a0c2ccd3df8"},"vehicle_type_id":"4","last_reported":1737721037,"current_range_meters":28400,"station_id":"ce4bh292rcd13ifvqdf0","pricing_plan_id":"cebpf4jnsgd1na2vs0mg"},{"bike_id":"123073a0-3e6f-483f-817b-d683dc0b2228","system_id":"levelo_inurba_marseille","lat":43.287315,"lon":5.383006,"is_reserved":false,"is_disabled":false,"rental_uris":{"android":"levelo://app?vid=123073a0-3e6f-483f-817b-d683dc0b2228","ios":"levelo://app?vid=123073a0-3e6f-483f-817b-d683dc0b2228"},"vehicle_type_id":"4","last_reported":1737721037,"current_range_meters":24800,"station_id":"ce4bh4p2rcd13ifvqe1g","pricing_plan_id":"cebpf4jnsgd1na2vs0mg"},{"bike_id":"55fa9a63-1046-4c0c-8d88-973abc543598","system_id":"levelo_inurba_marseille","lat":43.25007,"lon":5.3894,"is_reserved":false,"is_disabled":false,"rental_uris":{"android":"levelo://app?vid=55fa9a63-1046-4c0c-8d88-973abc543598","ios":"levelo://app?vid=55fa9a63-1046-4c0c-8d88-973abc543598"},"vehicle_type_id":"4","last_reported":1737721037,"current_range_meters":15200,"station_id":"ce4bhgp2rcd13ifvqfd0","pricing_plan_id":"cebpf4jnsgd1na2vs0mg"},{"bike_id":"7208fc3a-7137-449b-9982-7c73da7ec291","system_id":"levelo_inurba_marseille","lat":43.29582,"lon":5.36739,"is_reserved":false,"is_disabled":false,"rental_uris":{"android":"levelo://app?vid=7208fc3a-7137-449b-9982-7c73da7ec291","ios":"levelo://app?vid=7208fc3a-7137-449b-9982-7c73da7ec291"},"vehicle_type_id":"4","last_reported":1737721037,"current_range_meters":30400,"station_id":"ce4bgph2rcd13ifvqc2g","pricing_plan_id":"cebpf4jnsgd1na2vs0mg"},{"bike_id":"ff3ad316-91bd-45e9-a327-694d5b8500c3","system_id":"levelo_inurba_marseille","lat":43.29254,"lon":5.40906,"is_reserved":false,"is_disabled":false,"rental_uris":{"android":"levelo://app?vid=ff3ad316-91bd-45e9-a327-694d5b8500c3","ios":"levelo://app?vid=ff3ad316-91bd-45e9-a327-694d5b8500c3"},"vehicle_type_id":"4","last_reported":1737721037,"current_range_meters":3200,"station_id":"ce4bh192rcd13ifvqdc0","pricing_plan_id":"cebpf4jnsgd1na2vs0mg"},{"bike_id":"47ea9852-5df1-490d-8a18-13617e4bf9e6","system_id":"levelo_inurba_marseille","lat":43.30466,"lon":5.37915,"is_reserved":false,"is_disabled":false,"rental_uris":{"android":"levelo://app?vid=47ea9852-5df1-490d-8a18-13617e4bf9e6","ios":"levelo://app?vid=47ea9852-5df1-490d-8a18-13617e4bf9e6"},"vehicle_type_id":"4","last_reported":1737721037,"current_range_meters":24000,"station_id":"ce4bgup2rcd13ifvqcn0","pricing_plan_id":"cebpf4jnsgd1na2vs0mg"},{"bike_id":"f3e1e0cc-e386-4335-a525-4da71585ccf5","system_id":"levelo_inurba_marseille","lat":43.32534,"lon":5.4146,"is_reserved":false,"is_disabled":false,"rental_uris":{"android":"levelo://app?vid=f3e1e0cc-e386-4335-a525-4da71585ccf5","ios":"levelo://app?vid=f3e1e0cc-e386-4335-a525-4da71585ccf5"},"vehicle_type_id":"4","last_reported":1737721037,"current_range_meters":6400,"station_id":"ce4bhq12rcd13ifvqhhg","pricing_plan_id":"cebpf4jnsgd1na2vs0mg"},{"bike_id":"cba064fd-960d-49db-9c3e-d44224ddb378","system_id":"levelo_inurba_marseille","lat":43.30942,"lon":5.39048,"is_reserved":false,"is_disabled":false,"rental_uris":{"android":"levelo://app?vid=cba064fd-960d-49db-9c3e-d44224ddb378","ios":"levelo://app?vid=cba064fd-960d-49db-9c3e-d44224ddb378"},"vehicle_type_id":"4","last_reported":1737721037,"current_range_meters":9600,"station_id":"ce4bgup2rcd13ifvqco0","pricing_plan_id":"cebpf4jnsgd1na2vs0mg"},{"bike_id":"8d2781c1-4b93-47a8-984b-20dcb7de2a0f","system_id":"levelo_inurba_marseille","lat":43.27814,"lon":5.40721,"is_reserved":false,"is_disabled":false,"rental_uris":{"android":"levelo://app?vid=8d2781c1-4b93-47a8-984b-20dcb7de2a0f","ios":"levelo://app?vid=8d2781c1-4b93-47a8-984b-20dcb7de2a0f"},"vehicle_type_id":"4","last_reported":1737721037,"current_range_meters":39200,"station_id":"ce4bhnh2rcd13ifvqgtg","pricing_plan_id":"cebpf4jnsgd1na2vs0mg"},{"bike_id":"8abc0678-047f-4f93-aac4-071eae2a8325","system_id":"levelo_inurba_marseille","lat":43.29195,"lon":5.35801,"is_reserved":false,"is_disabled":false,"rental_uris":{"android":"levelo://app?vid=8abc0678-047f-4f93-aac4-071eae2a8325","ios":"levelo://app?vid=8abc0678-047f-4f93-aac4-071eae2a8325"},"vehicle_type_id":"4","last_reported":1737721037,"current_range_meters":18000,"station_id":"ce4bhb12rcd13ifvqel0","pricing_plan_id":"cebpf4jnsgd1na2vs0mg"},{"bike_id":"2f6b3aa7-b4b0-438a-b2e8-50cb9a2c097e","system_id":"levelo_inurba_marseille","lat":43.29556,"lon":5.37551,"is_reserved":false,"is_disabled":false,"rental_uris":{"android":"levelo://app?vid=2f6b3aa7-b4b0-438a-b2e8-50cb9a2c097e","ios":"levelo://app?vid=2f6b3aa7-b4b0-438a-b2e8-50cb9a2c097e"},"vehicle_type_id":"4","last_reported":1737721037,"current_range_meters":24800,"station_id":"ce4bgh92rcd13ifvqb50","pricing_plan_id":"cebpf4jnsgd1na2vs0mg"},{"bike_id":"4da8d343-d475-44e8-bf56-1b89e3ea27be","system_id":"levelo_inurba_marseille","lat":43.31361,"lon":5.38489,"is_reserved":false,"is_disabled":false,"rental_uris":{"android":"levelo://app?vid=4da8d343-d475-44e8-bf56-1b89e3ea27be","ios":"levelo://app?vid=4da8d343-d475-44e8-bf56-1b89e3ea27be"},"vehicle_type_id":"4","last_reported":1737721037,"current_range_meters":38000,"station_id":"ce4bgt92rcd13ifvqcf0","pricing_plan_id":"cebpf4jnsgd1na2vs0mg"},{"bike_id":"ab1f0df1-f777-4cd9-b9ba-e664faa05fe8","system_id":"levelo_inurba_marseille","lat":43.30952,"lon":5.39034,"is_reserved":false,"is_disabled":false,"rental_uris":{"android":"levelo://app?vid=ab1f0df1-f777-4cd9-b9ba-e664faa05fe8","ios":"levelo://app?vid=ab1f0df1-f777-4cd9-b9ba-e664faa05fe8"},"vehicle_type_id":"4","last_reported":1737721037,"current_range_meters":25200,"station_id":"ce4bgup2rcd13ifvqco0","pricing_plan_id":"cebpf4jnsgd1na2vs0mg"},{"bike_id":"7fdd7e8b-5ba5-4e90-ac62-c8cd7e036afa","system_id":"levelo_inurba_marseille","lat":43.31677,"lon":5.40478,"is_reserved":false,"is_disabled":false,"rental_uris":{"android":"levelo://app?vid=7fdd7e8b-5ba5-4e90-ac62-c8cd7e036afa","ios":"levelo://app?vid=7fdd7e8b-5ba5-4e90-ac62-c8cd7e036afa"},"vehicle_type_id":"4","last_reported":1737721037,"current_range_meters":38800,"station_id":"ce4bh012rcd13ifvqd00","pricing_plan_id":"cebpf4jnsgd1na2vs0mg"},{"bike_id":"f739a72d-a731-4d6b-8545-1e999cf25a5d","system_id":"levelo_inurba_marseille","lat":43.2991,"lon":5.37481,"is_reserved":false,"is_disabled":false,"rental_uris":{"android":"levelo://app?vid=f739a72d-a731-4d6b-8545-1e999cf25a5d","ios":"levelo://app?vid=f739a72d-a731-4d6b-8545-1e999cf25a5d"},"vehicle_type_id":"4","last_reported":1737721037,"current_range_meters":19200,"station_id":"ce4bgjh2rcd13ifvqbg0","pricing_plan_id":"cebpf4jnsgd1na2vs0mg"},{"bike_id":"6e36cf6c-53ad-4bc9-84e8-52b98e2580db","system_id":"levelo_inurba_marseille","lat":43.29276,"lon":5.40131,"is_reserved":false,"is_disabled":false,"rental_uris":{"android":"levelo://app?vid=6e36cf6c-53ad-4bc9-84e8-52b98e2580db","ios":"levelo://app?vid=6e36cf6c-53ad-4bc9-84e8-52b98e2580db"},"vehicle_type_id":"4","last_reported":1737721037,"current_range_meters":19200,"station_id":"ce4bh312rcd13ifvqdk0","pricing_plan_id":"cebpf4jnsgd1na2vs0mg"},{"bike_id":"4c4f250f-bd2f-4d27-9cb0-9af1e3584693","system_id":"levelo_inurba_marseille","lat":43.26681,"lon":5.38289,"is_reserved":false,"is_disabled":false,"rental_uris":{"android":"levelo://app?vid=4c4f250f-bd2f-4d27-9cb0-9af1e3584693","ios":"levelo://app?vid=4c4f250f-bd2f-4d27-9cb0-9af1e3584693"},"vehicle_type_id":"4","last_reported":1737721037,"current_range_meters":38800,"station_id":"ce4bhg92rcd13ifvqf90","pricing_plan_id":"cebpf4jnsgd1na2vs0mg"},{"bike_id":"e09caa60-26e5-4378-bd26-3e0764731d08","system_id":"levelo_inurba_marseille","lat":43.30893,"lon":5.36836,"is_reserved":false,"is_disabled":false,"rental_uris":{"android":"levelo://app?vid=e09caa60-26e5-4378-bd26-3e0764731d08","ios":"levelo://app?vid=e09caa60-26e5-4378-bd26-3e0764731d08"},"vehicle_type_id":"4","last_reported":1737721037,"current_range_meters":38800,"station_id":"ce4bgn92rcd13ifvqbvg","pricing_plan_id":"cebpf4jnsgd1na2vs0mg"},{"bike_id":"576b8657-d5e2-4d23-9b1e-461b2180cd28","system_id":"levelo_inurba_marseille","lat":43.22939,"lon":5.35376,"is_reserved":false,"is_disabled":false,"rental_uris":{"android":"levelo://app?vid=576b8657-d5e2-4d23-9b1e-461b2180cd28","ios":"levelo://app?vid=576b8657-d5e2-4d23-9b1e-461b2180cd28"},"vehicle_type_id":"4","last_reported":1737721037,"current_range_meters":38800,"station_id":"cpo3532slgdg3j2ikp40","pricing_plan_id":"cebpf4jnsgd1na2vs0mg"},{"bike_id":"96bdbf08-6986-488d-981c-3a67861b7491","system_id":"levelo_inurba_marseille","lat":43.27807,"lon":5.40723,"is_reserved":false,"is_disabled":false,"rental_uris":{"android":"levelo://app?vid=96bdbf08-6986-488d-981c-3a67861b7491","ios":"levelo://app?vid=96bdbf08-6986-488d-981c-3a67861b7491"},"vehicle_type_id":"4","last_reported":1737721037,"current_range_meters":37600,"station_id":"ce4bhnh2rcd13ifvqgtg","pricing_plan_id":"cebpf4jnsgd1na2vs0mg"},{"bike_id":"5ca01e94-086a-4e13-a970-4050dfb6c562","system_id":"levelo_inurba_marseille","lat":43.27053,"lon":5.40262,"is_reserved":false,"is_disabled":false,"rental_uris":{"android":"levelo://app?vid=5ca01e94-086a-4e13-a970-4050dfb6c562","ios":"levelo://app?vid=5ca01e94-086a-4e13-a970-4050dfb6c562"},"vehicle_type_id":"4","last_reported":1737721037,"current_range_meters":10000,"station_id":"ce4bhk92rcd13ifvqgc0","pricing_plan_id":"cebpf4jnsgd1na2vs0mg"},{"bike_id":"ad0f4505-3ad3-4518-bb21-e12b5dbd17b0","system_id":"levelo_inurba_marseille","lat":43.27068,"lon":5.42296,"is_reserved":false,"is_disabled":true,"rental_uris":{"android":"levelo://app?vid=ad0f4505-3ad3-4518-bb21-e12b5dbd17b0","ios":"levelo://app?vid=ad0f4505-3ad3-4518-bb21-e12b5dbd17b0"},"vehicle_type_id":"4","last_reported":1737721037,"current_range_meters":2000,"station_id":"ce4bhk92rcd13ifvqgb0","pricing_plan_id":"cebpf4jnsgd1na2vs0mg"},{"bike_id":"2083eef9-064c-4e4d-a7aa-281342c5f16e","system_id":"levelo_inurba_marseille","lat":43.27833,"lon":5.40734,"is_reserved":false,"is_disabled":false,"rental_uris":{"android":"levelo://app?vid=2083eef9-064c-4e4d-a7aa-281342c5f16e","ios":"levelo://app?vid=2083eef9-064c-4e4d-a7aa-281342c5f16e"},"vehicle_type_id":"4","last_reported":1737721037,"current_range_meters":16400,"station_id":"ce4bhnh2rcd13ifvqgtg","pricing_plan_id":"cebpf4jnsgd1na2vs0mg"},{"bike_id":"40e9ee9a-146a-459f-b2e2-6a8f4bde8c9f","system_id":"levelo_inurba_marseille","lat":43.32288,"lon":5.38263,"is_reserved":false,"is_disabled":false,"rental_uris":{"android":"levelo://app?vid=40e9ee9a-146a-459f-b2e2-6a8f4bde8c9f","ios":"levelo://app?vid=40e9ee9a-146a-459f-b2e2-6a8f4bde8c9f"},"vehicle_type_id":"4","last_reported":1737721037,"current_range_meters":35600,"station_id":"ce4bhr12rcd13ifvqhqg","pricing_plan_id":"cebpf4jnsgd1na2vs0mg"},{"bike_id":"0c184a37-ed1e-49f8-9878-651470ae5991","system_id":"levelo_inurba_marseille","lat":43.29623,"lon":5.37165,"is_reserved":false,"is_disabled":false,"rental_uris":{"android":"levelo://app?vid=0c184a37-ed1e-49f8-9878-651470ae5991","ios":"levelo://app?vid=0c184a37-ed1e-49f8-9878-651470ae5991"},"vehicle_type_id":"4","last_reported":1737721037,"current_range_meters":17200,"station_id":"ce4bgnh2rcd13ifvqc0g","pricing_plan_id":"cebpf4jnsgd1na2vs0mg"},{"bike_id":"a6ed32e1-5f77-48e1-a52f-af930b732239","system_id":"levelo_inurba_marseille","lat":43.31721,"lon":5.42412,"is_reserved":false,"is_disabled":false,"rental_uris":{"android":"levelo://app?vid=a6ed32e1-5f77-48e1-a52f-af930b732239","ios":"levelo://app?vid=a6ed32e1-5f77-48e1-a52f-af930b732239"},"vehicle_type_id":"4","last_reported":1737721037,"current_range_meters":38800,"station_id":"ce4bhp92rcd13ifvqhbg","pricing_plan_id":"cebpf4jnsgd1na2vs0mg"},{"bike_id":"08411799-1bb3-4992-9753-c8dd9fd2a64d","system_id":"levelo_inurba_marseille","lat":43.30134,"lon":5.39861,"is_reserved":false,"is_disabled":false,"rental_uris":{"android":"levelo://app?vid=08411799-1bb3-4992-9753-c8dd9fd2a64d","ios":"levelo://app?vid=08411799-1bb3-4992-9753-c8dd9fd2a64d"},"vehicle_type_id":"4","last_reported":1737721037,"current_range_meters":9600,"station_id":"ce4bh0h2rcd13ifvqd40","pricing_plan_id":"cebpf4jnsgd1na2vs0mg"},{"bike_id":"befbfd4b-de99-43db-a1f6-0cb7042a1556","system_id":"levelo_inurba_marseille","lat":43.27425,"lon":5.39404,"is_reserved":false,"is_disabled":false,"rental_uris":{"android":"levelo://app?vid=befbfd4b-de99-43db-a1f6-0cb7042a1556","ios":"levelo://app?vid=befbfd4b-de99-43db-a1f6-0cb7042a1556"},"vehicle_type_id":"4","last_reported":1737721037,"current_range_meters":16400,"station_id":"ce4bhdp2rcd13ifvqf20","pricing_plan_id":"cebpf4jnsgd1na2vs0mg"},{"bike_id":"8e684fe1-e823-4367-81c0-b3c2dedc805b","system_id":"levelo_inurba_marseille","lat":43.29632,"lon":5.37171,"is_reserved":false,"is_disabled":false,"rental_uris":{"android":"levelo://app?vid=8e684fe1-e823-4367-81c0-b3c2dedc805b","ios":"levelo://app?vid=8e684fe1-e823-4367-81c0-b3c2dedc805b"},"vehicle_type_id":"4","last_reported":1737721037,"current_range_meters":39200,"station_id":"ce4bgnh2rcd13ifvqc0g","pricing_plan_id":"cebpf4jnsgd1na2vs0mg"},