{"last_updated":1731615014,"ttl":60,"version":"2.2","data":{"bikes":[{"bike_id":"1c786be2-02ec-4d6c-92d4-d6c720f0564c","system_id":"levelo_inurba_marseille","lat":43.29572,"lon":5.39981,"is_reserved":false,"is_disabled":false,"rental_uris":{"android":"levelo://app?vid=1c786be2-02ec-4d6c-92d4-d6c720f0564c","ios":"levelo://app?vid=1c786be2-02ec-4d6c-92d4-d6c720f0564c"},"vehicle_type_id":"4","last_reported":1731615014,"current_range_meters":32400,"station_id":"ce4bh312rcd13ifvqdj0","pricing_plan_id":"cebpf4jnsgd1na2vs0mg"},{"bike_id":"690e67e1-d11f-41b6-93e1-735bde49065f","system_id":"levelo_inurba_marseille","lat":43.31358,"lon":5.38487,"is_reserved":false,"is_disabled":false,"rental_uris":{"android":"levelo://app?vid=690e67e1-d11f-41b6-93e1-735bde49065f","ios":"levelo://app?vid=690e67e1-d11f-41b6-93e1-735bde49065f"},"vehicle_type_id":"4","last_reported":1731615014,"current_range_meters":16400,"station_id":"ce4bgt92rcd13ifvqcf0","pricing_plan_id":"cebpf4jnsgd1na2vs0mg"},{"bike_id":"1d936b62-1bb8-40f6-afdf-7dac3ed8caa9","system_id":"levelo_inurba_marseille","lat":43.28464,"lon":5.3588,"is_reserved":false,"is_disabled":false,"rental_uris":{"android":"levelo://app?vid=1d936b62-1bb8-40f6-afdf-7dac3ed8caa9","ios":"levelo://app?vid=1d936b62-1bb8-40f6-afdf-7dac3ed8caa9"},"vehicle_type_id":"4","last_reported":1731615014,"current_range_meters":18000,"station_id":"ce4bhah2rcd13ifvqei0","pricing_plan_id":"cebpf4jnsgd1na2vs0mg"},{"bike_id":"b018f637-7a13-4182-80f0-02dfdb1a0877","system_id":"levelo_inurba_marseille","lat":43.29969,"lon":5.38503,"is_reserved":false,"is_disabled":false,"rental_uris":{"android":"levelo://app?vid=b018f637-7a13-4182-80f0-02dfdb1a0877","ios":"levelo://app?vid=b018f637-7a13-4182-80f0-02dfdb1a0877"},"vehicle_type_id":"4","last_reported":1731615014,"current_range_meters":38000,"station_id":"ce4bgj92rcd13ifvqbd0","pricing_plan_id":"cebpf4jnsgd1na2vs0mg"},{"bike_id":"27dfd56c-a0dd-4836-a141-163a04b58bab","system_id":"levelo_inurba_marseille","lat":43.27986,"lon":5.41662,"is_reserved":false,"is_disabled":false,"rental_uris":{"android":"levelo://app?vid=27dfd56c-a0dd-4836-a141-163a04b58bab","ios":"levelo://app?vid=27dfd56c-a0dd-4836-a141-163a04b58bab"},"vehicle_type_id":"4","last_reported":1731615014,"current_range_meters":27600,"station_id":"ce4bho12rcd13ifvqh1g","pricing_plan_id":"cebpf4jnsgd1na2vs0mg"},{"bike_id":"3080464e-7993-40b6-97d5-4b09e273d3f3","system_id":"levelo_inurba_marseille","lat":43.287,"lon":5.39975,"is_reserved":false,"is_disabled":false,"rental_uris":{"android":"levelo://app?vid=3080464e-7993-40b6-97d5-4b09e273d3f3","ios":"levelo://app?vid=3080464e-7993-40b6-97d5-4b09e273d3f3"},"vehicle_type_id":"4","last_reported":1731615014,"current_range_meters":28400,"station_id":"ce4bho92rcd13ifvqh3g","pricing_plan_id":"cebpf4jnsgd1na2vs0mg"},{"bike_id":"93ee4e53-0b08-432a-8df5-beb35cdea60c","system_id":"levelo_inurba_marseille","lat":43.24386,"lon":5.37055,"is_reserved":false,"is_disabled":false,"rental_uris":{"android":"levelo://app?vid=93ee4e53-0b08-432a-8df5-beb35cdea60c","ios":"levelo://app?vid=93ee4e53-0b08-432a-8df5-beb35cdea60c"},"vehicle_type_id":"4","last_reported":1731615014,"current_range_meters":27600,"station_id":"ce4bhhh2rcd13ifvqfk0","pricing_plan_id":"cebpf4jnsgd1na2vs0mg"},{"bike_id":"c64a60b6-317d-4054-8f52-b03871d4495a","system_id":"levelo_inurba_marseille","lat":43.30802,"lon":5.43522,"is_reserved":false,"is_disabled":false,"rental_uris":{"android":"levelo://app?vid=c64a60b6-317d-4054-8f52-b03871d4495a","ios":"levelo://app?vid=c64a60b6-317d-4054-8f52-b03871d4495a"},"vehicle_type_id":"4","last_reported":1731615014,"current_range_meters":8000,"station_id":"ce4bhph2rcd13ifvqheg","pricing_plan_id":"cebpf4jnsgd1na2vs0mg"},{"bike_id":"5993bac6-5c24-49b7-a326-e88b8c1f8cc7","system_id":"levelo_inurba_marseille","lat":43.31367,"lon":5.38509,"is_reserved":false,"is_disabled":false,"rental_uris":{"android":"levelo://app?vid=5993bac6-5c24-49b7-a326-e88b8c1f8cc7","ios":"levelo://app?vid=5993bac6-5c24-49b7-a326-e88b8c1f8cc7"},"vehicle_type_id":"4","last_reported":1731615014,"current_range_meters":38000,"station_id":"ce4bgt92rcd13ifvqcf0","pricing_plan_id":"cebpf4jnsgd1na2vs0mg"},{"bike_id":"c719b9b3-7a53-4d8d-af11-089d59dd7855","system_id":"levelo_inurba_marseille","lat":43.284455,"lon":5.359034,"is_reserved":false,"is_disabled":false,"rental_uris":{"android":"levelo://app?vid=c719b9b3-7a53-4d8d-af11-089d59dd7855","ios":"levelo://app?vid=c719b9b3-7a53-4d8d-af11-089d59dd7855"},"vehicle_type_id":"4","last_reported":1731615014,"current_range_meters":30800,"station_id":"ce4bhgp2rcd13ifvqfe0","pricing_plan_id":"cebpf4jnsgd1na2vs0mg"},{"bike_id":"16fde11b-ad8b-4dc1-964d-0dcff4c00b3f","system_id":"levelo_inurba_marseille","lat":43.27994,"lon":5.40015,"is_reserved":false,"is_disabled":false,"rental_uris":{"android":"levelo://app?vid=16fde11b-ad8b-4dc1-964d-0dcff4c00b3f","ios":"levelo://app?vid=16fde11b-ad8b-4dc1-964d-0dcff4c00b3f"},"vehicle_type_id":"4","last_reported":1731615014,"current_range_meters":33600,"station_id":"ce4bho92rcd13ifvqh4g","pricing_plan_id":"cebpf4jnsgd1na2vs0mg"},{"bike_id":"3301ddcb-93b1-4572-9682-5ffe16c127ff","system_id":"levelo_inurba_marseille","lat":43.2848,"lon":5.38426,"is_reserved":false,"is_disabled":false,"rental_uris":{"android":"levelo://app?vid=3301ddcb-93b1-4572-9682-5ffe16c127ff","ios":"levelo://app?vid=3301ddcb-93b1-4572-9682-5ffe16c127ff"},"vehicle_type_id":"4","last_reported":1731615014,"current_range_meters":3200,"station_id":"ce4bh512rcd13ifvqe3g","pricing_plan_id":"cebpf4jnsgd1na2vs0mg"},{"bike_id":"a20d8c48-c239-406d-8551-9542d00739a0","system_id":"levelo_inurba_marseille","lat":43.29776,"lon":5.38763,"is_reserved":false,"is_disabled":false,"rental_uris":{"android":"levelo://app?vid=a20d8c48-c239-406d-8551-9542d00739a0","ios":"levelo://app?vid=a20d8c48-c239-406d-8551-9542d00739a0"},"vehicle_type_id":"4","last_reported":1731615014,"current_range_meters":24000,"station_id":"ce4bh192rcd13ifvqdb0","pricing_plan_id":"cebpf4jnsgd1na2vs0mg"},{"bike_id":"03a975f5-5857-4808-ac83-1e08fd421270","system_id":"levelo_inurba_marseille","lat":43.32367,"lon":5.38883,"is_reserved":false,"is_disabled":false,"rental_uris":{"android":"levelo://app?vid=03a975f5-5857-4808-ac83-1e08fd421270","ios":"levelo://app?vid=03a975f5-5857-4808-ac83-1e08fd421270"},"vehicle_type_id":"4","last_reported":1731615014,"current_range_meters":33600,"station_id":"ce4bhqp2rcd13ifvqhog","pricing_plan_id":"cebpf4jnsgd1na2vs0mg"},{"bike_id":"5e0e5a22-f63b-461a-8d18-ef926f6e3785","system_id":"levelo_inurba_marseille","lat":43.29101,"lon":5.38147,"is_reserved":false,"is_disabled":false,"rental_uris":{"android":"levelo://app?vid=5e0e5a22-f63b-461a-8d18-ef926f6e3785","ios":"levelo://app?vid=5e0e5a22-f63b-461a-8d18-ef926f6e3785"},"vehicle_type_id":"4","last_reported":1731615014,"current_range_meters":24400,"station_id":"ce4bh512rcd13ifvqe2g","pricing_plan_id":"cebpf4jnsgd1na2vs0mg"},{"bike_id":"2845acfe-9b52-45d7-8007-f43afc2c5ad1","system_id":"levelo_inurba_marseille","lat":43.30095,"lon":5.39077,"is_reserved":false,"is_disabled":false,"rental_uris":{"android":"levelo://app?vid=2845acfe-9b52-45d7-8007-f43afc2c5ad1","ios":"levelo://app?vid=2845acfe-9b52-45d7-8007-f43afc2c5ad1"},"vehicle_type_id":"4","last_reported":1731615014,"current_range_meters":12000,"station_id":"ce4bh192rcd13ifvqdb0","pricing_plan_id":"cebpf4jnsgd1na2vs0mg"},{"bike_id":"452e09f8-8f16-484a-8151-2136d267d0d0","system_id":"levelo_inurba_marseille","lat":43.279197,"lon":5.395742,"is_reserved":false,"is_disabled":false,"rental_uris":{"android":"levelo://app?vid=452e09f8-8f16-484a-8151-2136d267d0d0","ios":"levelo://app?vid=452e09f8-8f16-484a-8151-2136d267d0d0"},"vehicle_type_id":"4","last_reported":1731615014,"current_range_meters":38800,"station_id":"ce4bhf92rcd13ifvqf40","pricing_plan_id":"cebpf4jnsgd1na2vs0mg"},{"bike_id":"322929c1-8f42-441c-a8e7-5b80c2019ad2","system_id":"levelo_inurba_marseille","lat":43.28268,"lon":5.35062,"is_reserved":false,"is_disabled":false,"rental_uris":{"android":"levelo://app?vid=322929c1-8f42-441c-a8e7-5b80c2019ad2","ios":"levelo://app?vid=322929c1-8f42-441c-a8e7-5b80c2019ad2"},"vehicle_type_id":"4","last_reported":1731615014,"current_range_meters":39200,"station_id":"ce4bhbp2rcd13ifvqerg","pricing_plan_id":"cebpf4jnsgd1na2vs0mg"},{"bike_id":"e3cb1a55-4148-430e-8e94-feb4c70ed1b6","system_id":"levelo_inurba_marseille","lat":43.24183,"lon":5.39738,"is_reserved":false,"is_disabled":false,"rental_uris":{"android":"levelo://app?vid=e3cb1a55-4148-430e-8e94-feb4c70ed1b6","ios":"levelo://app?vid=e3cb1a55-4148-430e-8e94-feb4c70ed1b6"},"vehicle_type_id":"4","last_reported":1731615014,"current_range_meters":9600,"station_id":"ce4bhn12rcd13ifvqgpg","pricing_plan_id":"cebpf4jnsgd1na2vs0mg"},{"bike_id":"8e5b6f2c-7328-4c1a-b3f3-e42c48b25219","system_id":"levelo_inurba_marseille","lat":43.2969,"lon":5.37296,"is_reserved":false,"is_disabled":false,"rental_uris":{"android":"levelo://app?vid=8e5b6f2c-7328-4c1a-b3f3-e42c48b25219","ios":"levelo://app?vid=8e5b6f2c-7328-4c1a-b3f3-e42c48b25219"},"vehicle_type_id":"4","last_reported":1731615014,"current_range_meters":12800,"station_id":"ce4bgk12rcd13ifvqbj0","pricing_plan_id":"cebpf4jnsgd1na2vs0mg"},{"bike_id":"9ef76943-592f-4d3b-a0f1-da70d440e9b4","system_id":"levelo_inurba_marseille","lat":43.29898,"lon":5.43668,"is_reserved":false,"is_disabled":false,"rental_uris":{"android":"levelo://app?vid=9ef76943-592f-4d3b-a0f1-da70d440e9b4","ios":"levelo://app?vid=9ef76943-592f-4d3b-a0f1-da70d440e9b4"},"vehicle_type_id":"4","last_reported":1731615014,"current_range_meters":26800,"station_id":"ce4bhpp2rcd13ifvqhfg","pricing_plan_id":"cebpf4jnsgd1na2vs0mg"},{"bike_id":"831a639a-ea8c-4e3a-8ed9-0f37aef46145","system_id":"levelo_inurba_marseille","lat":43.28153,"lon":5.42643,"is_reserved":false,"is_disabled":false,"rental_uris":{"android":"levelo://app?vid=831a639a-ea8c-4e3a-8ed9-0f37aef46145","ios":"levelo://app?vid=831a639a-ea8c-4e3a-8ed9-0f37aef46145"},"vehicle_type_id":"4","last_reported":1731615014,"current_range_meters":20000,"station_id":"ce4bhnh2rcd13ifvqgug","pricing_plan_id":"cebpf4jnsgd1na2vs0mg"},{"bike_id":"a2824603-538d-4f20-8dcc-bb0102e732b8","system_id":"levelo_inurba_marseille","lat":43.27812,"lon":5.40706,"is_reserved":false,"is_disabled":false,"rental_uris":{"android":"levelo://app?vid=a2824603-538d-4f20-8dcc-bb0102e732b8","ios":"levelo://app?vid=a2824603-538d-4f20-8dcc-bb0102e732b8"},"vehicle_type_id":"4","last_reported":1731615014,"current_range_meters":38800,"station_id":"ce4bhnh2rcd13ifvqgtg","pricing_plan_id":"cebpf4jnsgd1na2vs0mg"},{"bike_id":"4fa3aaed-e4c5-4a34-bbc7-67c519cd255c","system_id":"levelo_inurba_marseille","lat":43.2707,"lon":5.42278,"is_reserved":false,"is_disabled":false,"rental_uris":{"android":"levelo://app?vid=4fa3aaed-e4c5-4a34-bbc7-67c519cd255c","ios":"levelo://app?vid=4fa3aaed-e4c5-4a34-bbc7-67c519cd255c"},"vehicle_type_id":"4","last_reported":1731615014,"current_range_meters":6800,"station_id":"ce4bhk92rcd13ifvqgb0","pricing_plan_id":"cebpf4jnsgd1na2vs0mg"},{"bike_id":"12be8816-9edc-48be-afea-bec14c436cd5","system_id":"levelo_inurba_marseille","lat":43.323419,"lon":5.406196,"is_reserved":false,"is_disabled":false,"rental_uris":{"android":"levelo://app?vid=12be8816-9edc-48be-afea-bec14c436cd5","ios":"levelo://app?vid=12be8816-9edc-48be-afea-bec14c436cd5"},"vehicle_type_id":"4","last_reported":1731615014,"current_range_meters":38800,"station_id":"ce4bhq92rcd13ifvqhjg","pricing_plan_id":"cebpf4jnsgd1na2vs0mg"},{"bike_id":"354f040a-9ab6-488a-9d26-4c39ec3baaa7","system_id":"levelo_inurba_marseille","lat":43.23203,"lon":5.35542,"is_reserved":false,"is_disabled":false,"rental_uris":{"android":"levelo://app?vid=354f040a-9ab6-488a-9d26-4c39ec3baaa7","ios":"levelo://app?vid=354f040a-9ab6-488a-9d26-4c39ec3baaa7"},"vehicle_type_id":"4","last_reported":1731615014,"current_range_meters":39200,"station_id":"ce4bhu92rcd13ifvqi70","pricing_plan_id":"cebpf4jnsgd1na2vs0mg"},{"bike_id":"238dc81d-120a-41e0-a5be-506cc79c5c19","system_id":"levelo_inurba_marseille","lat":43.2885,"lon":5.35849,"is_reserved":false,"is_disabled":false,"rental_uris":{"android":"levelo://app?vid=238dc81d-120a-41e0-a5be-506cc79c5c19","ios":"levelo://app?vid=238dc81d-120a-41e0-a5be-506cc79c5c19"},"vehicle_type_id":"4","last_reported":1731615014,"current_range_meters":13600,"station_id":"ce4bhb12rcd13ifvqem0","pricing_plan_id":"cebpf4jnsgd1na2vs0mg"},{"bike_id":"5c953bf5-0945-4e30-bc78-a41f2d2e25eb","system_id":"levelo_inurba_marseille","lat":43.295751,"lon":5.399791,"is_reserved":false,"is_disabled":false,"rental_uris":{"android":"levelo://app?vid=5c953bf5-0945-4e30-bc78-a41f2d2e25eb","ios":"levelo://app?vid=5c953bf5-0945-4e30-bc78-a41f2d2e25eb"},"vehicle_type_id":"4","last_reported":1731615014,"current_range_meters":22000,"station_id":"","pricing_plan_id":"cebpf4jnsgd1na2vs0mg"},{"bike_id":"75cd3c5d-40d3-4416-a266-d534055ae7f1","system_id":"levelo_inurba_marseille","lat":43.29533,"lon":5.38536,"is_reserved":false,"is_disabled":false,"rental_uris":{"android":"levelo://app?vid=75cd3c5d-40d3-4416-a266-d534055ae7f1","ios":"levelo://app?vid=75cd3c5d-40d3-4416-a266-d534055ae7f1"},"vehicle_type_id":"4","last_reported":1731615014,"current_range_meters":27200,"station_id":"ce4bgih2rcd13ifvqba0","pricing_plan_id":"cebpf4jnsgd1na2vs0mg"},{"bike_id":"720dc063-a267-426d-a1db-3b0cd665a220","system_id":"levelo_inurba_marseille","lat":43.29001,"lon":5.35611,"is_reserved":false,"is_disabled":false,"rental_uris":{"android":"levelo://app?vid=720dc063-a267-426d-a1db-3b0cd665a220","ios":"levelo://app?vid=720dc063-a267-426d-a1db-3b0cd665a220"},"vehicle_type_id":"4","last_reported":1731615014,"current_range_meters":8000,"station_id":"ce4bhb92rcd13ifvqen0","pricing_plan_id":"cebpf4jnsgd1na2vs0mg"},{"bike_id":"4a74f469-1d99-48ee-a8ca-9199898c00a4","system_id":"levelo_inurba_marseille","lat":43.23199,"lon":5.35547,"is_reserved":false,"is_disabled":false,"rental_uris":{"android":"levelo://app?vid=4a74f469-1d99-48ee-a8ca-9199898c00a4","ios":"levelo://app?vid=4a74f469-1d99-48ee-a8ca-9199898c00a4"},"vehicle_type_id":"4","last_reported":1731615014,"current_range_meters":19200,"station_id":"ce4bhu92rcd13ifvqi70","pricing_plan_id":"cebpf4jnsgd1na2vs0mg"},{"bike_id":"d13a87f9-953a-4c4d-9d1f-b8db7eaf93ea","system_id":"levelo_inurba_marseille","lat":43.30323,"lon":5.40447,"is_reserved":false,"is_disabled":false,"rental_uris":{"android":"levelo://app?vid=d13a87f9-953a-4c4d-9d1f-b8db7eaf93ea","ios":"levelo://app?vid=d13a87f9-953a-4c4d-9d1f-b8db7eaf93ea"},"vehicle_type_id":"4","last_reported":1731615014,"current_range_meters":33600,"station_id":"ce4bh012rcd13ifvqd10","pricing_plan_id":"cebpf4jnsgd1na2vs0mg"},{"bike_id":"238df19f-9e87-4c9b-9f9d-74f5077af548","system_id":"levelo_inurba_marseille","lat":43.295563,"lon":5.393835,"is_reserved":false,"is_disabled":false,"rental_uris":{"android":"levelo://app?vid=238df19f-9e87-4c9b-9f9d-74f5077af548","ios":"levelo://app?vid=238df19f-9e87-4c9b-9f9d-74f5077af548"},"vehicle_type_id":"4","last_reported":1731615014,"current_range_meters":19200,"station_id":"ce4bh292rcd13ifvqdf0","pricing_plan_id":"cebpf4jnsgd1na2vs0mg"},{"bike_id":"5a9487f5-1f4a-4526-91df-278697abb58b","system_id":"levelo_inurba_marseille","lat":43.2816,"lon":5.42647,"is_reserved":false,"is_disabled":false,"rental_uris":{"android":"levelo://app?vid=5a9487f5-1f4a-4526-91df-278697abb58b","ios":"levelo://app?vid=5a9487f5-1f4a-4526-91df-278697abb58b"},"vehicle_type_id":"4","last_reported":1731615014,"current_range_meters":23200,"station_id":"ce4bhnh2rcd13ifvqgug","pricing_plan_id":"cebpf4jnsgd1na2vs0mg"},{"bike_id":"b218162a-539b-480c-8693-30db50e70400","system_id":"levelo_inurba_marseille","lat":43.30137,"lon":5.39878,"is_reserved":false,"is_disabled":false,"rental_uris":{"android":"levelo://app?vid=b218162a-539b-480c-8693-30db50e70400","ios":"levelo://app?vid=b218162a-539b-480c-8693-30db50e70400"},"vehicle_type_id":"4","last_reported":1731615014,"current_range_meters":37600,"station_id":"ce4bh0h2rcd13ifvqd40","pricing_plan_id":"cebpf4jnsgd1na2vs0mg"},{"bike_id":"b84919f5-2a67-42b6-8358-c3ba73182bca","system_id":"levelo_inurba_marseille","lat":43.28074,"lon":5.3966,"is_reserved":false,"is_disabled":false,"rental_uris":{"android":"levelo://app?vid=b84919f5-2a67-42b6-8358-c3ba73182bca","ios":"levelo://app?vid=b84919f5-2a67-42b6-8358-c3ba73182bca"},"vehicle_type_id":"4","last_reported":1731615014,"current_range_meters":33600,"station_id":"ce4bho12rcd13ifvqh2g","pricing_plan_id":"cebpf4jnsgd1na2vs0mg"},{"bike_id":"fd2c6c42-08e2-401a-9318-a873906fb4cf","system_id":"levelo_inurba_marseille","lat":43.29596,"lon":5.38097,"is_reserved":false,"is_disabled":false,"rental_uris":{"android":"levelo://app?vid=fd2c6c42-08e2-401a-9318-a873906fb4cf","ios":"levelo://app?vid=fd2c6c42-08e2-401a-9318-a873906fb4cf"},"vehicle_type_id":"4","last_reported":1731615014,"current_range_meters":39200,"station_id":"ce4bgl12rcd13ifvqbo0","pricing_plan_id":"cebpf4jnsgd1na2vs0mg"},{"bike_id":"89913496-209d-42f3-83b0-621a9e82faa6","system_id":"levelo_inurba_marseille","lat":43.31758,"lon":5.39009,"is_reserved":false,"is_disabled":false,"rental_uris":{"android":"levelo://app?vid=89913496-209d-42f3-83b0-621a9e82faa6","ios":"levelo://app?vid=89913496-209d-42f3-83b0-621a9e82faa6"},"vehicle_type_id":"4","last_reported":1731615014,"current_range_meters":36800,"station_id":"ce4bhqp2rcd13ifvqhng","pricing_plan_id":"cebpf4jnsgd1na2vs0mg"},{"bike_id":"b401526e-9797-412b-a024-2aeff2654ce6","system_id":"levelo_inurba_marseille","lat":43.27934,"lon":5.35488,"is_reserved":false,"is_disabled":false,"rental_uris":{"android":"levelo://app?vid=b401526e-9797-412b-a024-2aeff2654ce6","ios":"levelo://app?vid=b401526e-9797-412b-a024-2aeff2654ce6"},"vehicle_type_id":"4","last_reported":1731615014,"current_range_meters":3600,"station_id":"","pricing_plan_id":"cebpf4jnsgd1na2vs0mg"},{"bike_id":"2c35c49c-dc15-40b0-90c8-c6504305c667","system_id":"levelo_inurba_marseille","lat":43.28724,"lon":5.36078,"is_reserved":false,"is_disabled":false,"rental_uris":{"android":"levelo://app?vid=2c35c49c-dc15-40b0-90c8-c6504305c667","ios":"levelo://app?vid=2c35c49c-dc15-40b0-90c8-c6504305c667"},"vehicle_type_id":"4","last_reported":1731615014,"current_range_meters":30800,"station_id":"cki0cbj6b192h4jlfktg","pricing_plan_id":"cebpf4jnsgd1na2vs0mg"},{"bike_id":"cdce8673-200c-455e-8f7f-c78d0fab3e45","system_id":"levelo_inurba_marseille","lat":43.30327,"lon":5.40444,"is_reserved":false,"is_disabled":false,"rental_uris":{"android":"levelo://app?vid=cdce8673-200c-455e-8f7f-c78d0fab3e45","ios":"levelo://app?vid=cdce8673-200c-455e-8f7f-c78d0fab3e45"},"vehicle_type_id":"4","last_reported":1731615014,"current_range_meters":37600,"station_id":"ce4bh012rcd13ifvqd10","pricing_plan_id":"cebpf4jnsgd1na2vs0mg"},{"bike_id":"81117fe0-1e47-4966-a7e0-0145c8ef9c98","system_id":"levelo_inurba_marseille","lat":43.25858,"lon":5.39912,"is_reserved":false,"is_disabled":false,"rental_uris":{"android":"levelo://app?vid=81117fe0-1e47-4966-a7e0-0145c8ef9c98","ios":"levelo://app?vid=81117fe0-1e47-4966-a7e0-0145c8ef9c98"},"vehicle_type_id":"4","last_reported":1731615014,"current_range_meters":6400,"station_id":"ce4bhl92rcd13ifvqghg","pricing_plan_id":"cebpf4jnsgd1na2vs0mg"},{"bike_id":"1cd6853f-ffdd-4358-bc58-45b6b9d8d7be","system_id":"levelo_inurba_marseille","lat":43.28838,"lon":5.35845,"is_reserved":false,"is_disabled":false,"rental_uris":{"android":"levelo://app?vid=1cd6853f-ffdd-4358-bc58-45b6b9d8d7be","ios":"levelo://app?vid=1cd6853f-ffdd-4358-bc58-45b6b9d8d7be"},"vehicle_type_id":"4","last_reported":1731615014,"current_range_meters":38000,"station_id":"ce4bhb12rcd13ifvqem0","pricing_plan_id":"cebpf4jnsgd1na2vs0mg"},{"bike_id":"39396c1c-6595-4c10-abc9-f900c42457ce","system_id":"levelo_inurba_marseille","lat":43.30303,"lon":5.39222,"is_reserved":false,"is_disabled":false,"rental_uris":{"android":"levelo://app?vid=39396c1c-6595-4c10-abc9-f900c42457ce","ios":"levelo://app?vid=39396c1c-6595-4c10-abc9-f900c42457ce"},"vehicle_type_id":"4","last_reported":1731615014,"current_range_meters":24400,"station_id":"ce4bgkh2rcd13ifvqbk0","pricing_plan_id":"cebpf4jnsgd1na2vs0mg"},{"bike_id":"98987524-04f9-466a-a89f-dcf1571df041","system_id":"levelo_inurba_marseille","lat":43.314796,"lon":5.3731,"is_reserved":false,"is_disabled":false,"rental_uris":{"android":"levelo://app?vid=98987524-04f9-466a-a89f-dcf1571df041","ios":"levelo://app?vid=98987524-04f9-466a-a89f-dcf1571df041"},"vehicle_type_id":"4","last_reported":1731615014,"current_range_meters":34000,"station_id":"ce4bgt12rcd13ifvqcd0","pricing_plan_id":"cebpf4jnsgd1na2vs0mg"},{"bike_id":"94c1df7f-9573-4b5a-b9cd-8bc2ab009242","system_id":"levelo_inurba_marseille","lat":43.27811,"lon":5.40707,"is_reserved":false,"is_disabled":false,"rental_uris":{"android":"levelo://app?vid=94c1df7f-9573-4b5a-b9cd-8bc2ab009242","ios":"levelo://app?vid=94c1df7f-9573-4b5a-b9cd-8bc2ab009242"},"vehicle_type_id":"4","last_reported":1731615014,"current_range_meters":38800,"station_id":"ce4bhnh2rcd13ifvqgtg","pricing_plan_id":"cebpf4jnsgd1na2vs0mg"},{"bike_id":"efa8c3d1-15b0-406a-a10a-ef5ffefd3156","system_id":"levelo_inurba_marseille","lat":43.28103,"lon":5.37832,"is_reserved":false,"is_disabled":false,"rental_uris":{"android":"levelo://app?vid=efa8c3d1-15b0-406a-a10a-ef5ffefd3156","ios":"levelo://app?vid=efa8c3d1-15b0-406a-a10a-ef5ffefd3156"},"vehicle_type_id":"4","last_reported":1731615014,"current_range_meters":10000,"station_id":"ce4bha12rcd13ifvqee0","pricing_plan_id":"cebpf4jnsgd1na2vs0mg"},{"bike_id":"23566d23-327f-41c5-a8d1-e6438d27626b","system_id":"levelo_inurba_marseille","lat":43.28951,"lon":5.36392,"is_reserved":false,"is_disabled":false,"rental_uris":{"android":"levelo://app?vid=23566d23-327f-41c5-a8d1-e6438d27626b","ios":"levelo://app?vid=23566d23-327f-41c5-a8d1-e6438d27626b"},"vehicle_type_id":"4","last_reported":1731615014,"current_range_meters":36800,"station_id":"ce4bhc92rcd13ifvqetg","pricing_plan_id":"cebpf4jnsgd1na2vs0mg"},{"bike_id":"f77bf8e5-7864-40f9-ab42-80ba2f5c0229","system_id":"levelo_inurba_marseille","lat":43.32366,"lon":5.38884,"is_reserved":false,"is_disabled":false,"rental_uris":{"android":"levelo://app?vid=f77bf8e5-7864-40f9-ab42-80ba2f5c0229","ios":"levelo://app?vid=f77bf8e5-7864-40f9-ab42-80ba2f5c0229"},"vehicle_type_id":"4","last_reported":1731615014,"current_range_meters":33200,"station_id":"ce4bhqp2rcd13ifvqhog","pricing_plan_id":"cebpf4jnsgd1na2vs0mg"},{"bike_id":"a7ad4873-63b3-4388-93bd-b478d5c67e5d","system_id":"levelo_inurba_marseille","lat":43.29706,"lon":5.37709,"is_reserved":false,"is_disabled":false,"rental_uris":{"android":"levelo://app?vid=a7ad4873-63b3-4388-93bd-b478d5c67e5d","ios":"levelo://app?vid=a7ad4873-63b3-4388-93bd-b478d5c67e5d"},"vehicle_type_id":"4","last_reported":1731615014,"current_range_meters":27200,"station_id":"ce4bgkh2rcd13ifvqbl0","pricing_plan_id":"cebpf4jnsgd1na2vs0mg"},{"bike_id":"653a4563-33db-4194-9bb5-387d16bacd01","system_id":"levelo_inurba_marseille","lat":43.29029,"lon":5.37553,"is_reserved":false,"is_disabled":false,"rental_uris":{"android":"levelo://app?vid=653a4563-33db-4194-9bb5-387d16bacd01","ios":"levelo://app?vid=653a4563-33db-4194-9bb5-387d16bacd01"},"vehicle_type_id":"4","last_reported":1731615014,"current_range_meters":39200,"station_id":"ce4bh692rcd13ifvqe90","pricing_plan_id":"cebpf4jnsgd1na2vs0mg"},{"bike_id":"7b345e06-ae65-4765-8f41-9d23a5d7c9cb","system_id":"levelo_inurba_marseille","lat":43.28155,"lon":5.42647,"is_reserved":false,"is_disabled":false,"rental_uris":{"android":"levelo://app?vid=7b345e06-ae65-4765-8f41-9d23a5d7c9cb","ios":"levelo://app?vid=7b345e06-ae65-4765-8f41-9d23a5d7c9cb"},"vehicle_type_id":"4","last_reported":1731615014,"current_range_meters":39200,"station_id":"ce4bhnh2rcd13ifvqgug","pricing_plan_id":"cebpf4jnsgd1na2vs0mg"},{"bike_id":"167e501f-4cdd-48cd-8ef5-684c0a5dd309","system_id":"levelo_inurba_marseille","lat":43.28455,"lon":5.35895,"is_reserved":false,"is_disabled":false,"rental_uris":{"android":"levelo://app?vid=167e501f-4cdd-48cd-8ef5-684c0a5dd309","ios":"levelo://app?vid=167e501f-4cdd-48cd-8ef5-684c0a5dd309"},"vehicle_type_id":"4","last_reported":1731615014,"current_range_meters":11200,"station_id":"ce4bhah2rcd13ifvqei0","pricing_plan_id":"cebpf4jnsgd1na2vs0mg"},{"bike_id":"9b2b2486-f3ad-43dd-9972-051be7f2ddba","system_id":"levelo_inurba_marseille","lat":43.28161,"lon":5.42641,"is_reserved":false,"is_disabled":false,"rental_uris":{"android":"levelo://app?vid=9b2b2486-f3ad-43dd-9972-051be7f2ddba","ios":"levelo://app?vid=9b2b2486-f3ad-43dd-9972-051be7f2ddba"},"vehicle_type_id":"4","last_reported":1731615014,"current_range_meters":38800,"station_id":"ce4bhnh2rcd13ifvqgug","pricing_plan_id":"cebpf4jnsgd1na2vs0mg"},{"bike_id":"675fe710-f9e5-46cf-95f1-88cbcbaf9606","system_id":"levelo_inurba_marseille","lat":43.28158,"lon":5.4265,"is_reserved":false,"is_disabled":false,"rental_uris":{"android":"levelo://app?vid=675fe710-f9e5-46cf-95f1-88cbcbaf9606","ios":"levelo://app?vid=675fe710-f9e5-46cf-95f1-88cbcbaf9606"},"vehicle_type_id":"4","last_reported":1731615014,"current_range_meters":28800,"station_id":"ce4bhnh2rcd13ifvqgug","pricing_plan_id":"cebpf4jnsgd1na2vs0mg"},{"bike_id":"a32f4638-caae-428e-abd1-d8fba66465f0","system_id":"levelo_inurba_marseille","lat":43.2835,"lon":5.381,"is_reserved":false,"is_disabled":false,"rental_uris":{"android":"levelo://app?vid=a32f4638-caae-428e-abd1-d8fba66465f0","ios":"levelo://app?vid=a32f4638-caae-428e-abd1-d8fba66465f0"},"vehicle_type_id":"4","last_reported":1731615014,"current_range_meters":10800,"station_id":"ce4bh412rcd13ifvqdr0","pricing_plan_id":"cebpf4jnsgd1na2vs0mg"},{"bike_id":"bb65540a-63bf-482e-ae28-4c05953402e5","system_id":"levelo_inurba_marseille","lat":43.23175,"lon":5.39978,"is_reserved":false,"is_disabled":false,"rental_uris":{"android":"levelo://app?vid=bb65540a-63bf-482e-ae28-4c05953402e5","ios":"levelo://app?vid=bb65540a-63bf-482e-ae28-4c05953402e5"},"vehicle_type_id":"4","last_reported":1731615014,"current_range_meters":8400,"station_id":"ce4bhn12rcd13ifvqgqg","pricing_plan_id":"cebpf4jnsgd1na2vs0mg"},{"bike_id":"91b3cfe7-d6e8-4c39-a63d-84a01b73f573","system_id":"levelo_inurba_marseille","lat":43.30245,"lon":5.40059,"is_reserved":false,"is_disabled":false,"rental_uris":{"android":"levelo://app?vid=91b3cfe7-d6e8-4c39-a63d-84a01b73f573","ios":"levelo://app?vid=91b3cfe7-d6e8-4c39-a63d-84a01b73f573"},"vehicle_type_id":"4","last_reported":1731615014,"current_range_meters":38800,"station_id":"ce4bgvh2rcd13ifvqcs0","pricing_plan_id":"cebpf4jnsgd1na2vs0mg"},{"bike_id":"19403e5b-9388-47f8-803d-8d1235a538c6","system_id":"levelo_inurba_marseille","lat":43.23193,"lon":5.35553,"is_reserved":false,"is_disabled":false,"rental_uris":{"android":"levelo://app?vid=19403e5b-9388-47f8-803d-8d1235a538c6","ios":"levelo://app?vid=19403e5b-9388-47f8-803d-8d1235a538c6"},"vehicle_type_id":"4","last_reported":1731615014,"current_range_meters":39200,"station_id":"ce4bhu92rcd13ifvqi70","pricing_plan_id":"cebpf4jnsgd1na2vs0mg"},{"bike_id":"6338ca2d-18e2-4c3b-8e0a-c4e19016c5cf","system_id":"levelo_inurba_marseille","lat":43.29064,"lon":5.37173,"is_reserved":false,"is_disabled":false,"rental_uris":{"android":"levelo://app?vid=6338ca2d-18e2-4c3b-8e0a-c4e19016c5cf","ios":"levelo://app?vid=6338ca2d-18e2-4c3b-8e0a-c4e19016c5cf"},"vehicle_type_id":"4","last_reported":1731615014,"current_range_meters":9200,"station_id":"ce4bh5p2rcd13ifvqe4g","pricing_plan_id":"cebpf4jnsgd1na2vs0mg"},{"bike_id":"fdf22818-4bc3-445a-8749-a72c0a6e64af","system_id":"levelo_inurba_marseille","lat":43.27982,"lon":5.41653,"is_reserved":false,"is_disabled":false,"rental_uris":{"android":"levelo://app?vid=fdf22818-4bc3-445a-8749-a72c0a6e64af","ios":"levelo://app?vid=fdf22818-4bc3-445a-8749-a72c0a6e64af"},"vehicle_type_id":"4","last_reported":1731615014,"current_range_meters":6000,"station_id":"ce4bho12rcd13ifvqh1g","pricing_plan_id":"cebpf4jnsgd1na2vs0mg"},{"bike_id":"1bda7f93-5e07-4d55-9634-1c55956005d0","system_id":"levelo_inurba_marseille","lat":43.25868,"lon":5.39899,"is_reserved":false,"is_disabled":false,"rental_uris":{"android":"levelo://app?vid=1bda7f93-5e07-4d55-9634-1c55956005d0","ios":"levelo://app?vid=1bda7f93-5e07-4d55-9634-1c55956005d0"},"vehicle_type_id":"4","last_reported":1731615014,"current_range_meters":39200,"station_id":"ce4bhl92rcd13ifvqghg","pricing_plan_id":"cebpf4jnsgd1na2vs0mg"},{"bike_id":"2e0c23ca-9fe5-4c7d-a9ae-bd7366942622","system_id":"levelo_inurba_marseille","lat":43.27913,"lon":5.41227,"is_reserved":false,"is_disabled":false,"rental_uris":{"android":"levelo://app?vid=2e0c23ca-9fe5-4c7d-a9ae-bd7366942622","ios":"levelo://app?vid=2e0c23ca-9fe5-4c7d-a9ae-bd7366942622"},"vehicle_type_id":"4","last_reported":1731615014,"current_range_meters":4000,"station_id":"","pricing_plan_id":"cebpf4jnsgd1na2vs0mg"},{"bike_id":"d99bff46-e3e0-4c25-9719-3fa3dd9a1a6e","system_id":"levelo_inurba_marseille","lat":43.31874,"lon":5.37364,"is_reserved":false,"is_disabled":false,"rental_uris":{"android":"levelo://app?vid=d99bff46-e3e0-4c25-9719-3fa3dd9a1a6e","ios":"levelo://app?vid=d99bff46-e3e0-4c25-9719-3fa3dd9a1a6e"},"vehicle_type_id":"4","last_reported":1731615014,"current_range_meters":22400,"station_id":"","pricing_plan_id":"cebpf4jnsgd1na2vs0mg"},{"bike_id":"7ffec89f-a257-454b-ae01-330b9667aaa3","system_id":"levelo_inurba_marseille","lat":43.295359,"lon":5.385398,"is_reserved":false,"is_disabled":false,"rental_uris":{"android":"levelo://app?vid=7ffec89f-a257-454b-ae01-330b9667aaa3","ios":"levelo://app?vid=7ffec89f-a257-454b-ae01-330b9667aaa3"},"vehicle_type_id":"4","last_reported":1731615014,"current_range_meters":18800,"station_id":"ce4bgih2rcd13ifvqba0","pricing_plan_id":"cebpf4jnsgd1na2vs0mg"},{"bike_id":"b0134942-92cc-40c4-8d3f-b1d1955bce8f","system_id":"levelo_inurba_marseille","lat":43.26564,"lon":5.39005,"is_reserved":false,"is_disabled":false,"rental_uris":{"android":"levelo://app?vid=b0134942-92cc-40c4-8d3f-b1d1955bce8f","ios":"levelo://app?vid=b0134942-92cc-40c4-8d3f-b1d1955bce8f"},"vehicle_type_id":"4","last_reported":1731615014,"current_range_meters":4000,"station_id":"ce4bhe12rcd13ifvqf30","pricing_plan_id":"cebpf4jnsgd1na2vs0mg"},{"bike_id":"1d74bc52-c8fd-442b-946b-e61aa82e32f3","system_id":"levelo_inurba_marseille","lat":43.28409,"lon":5.37517,"is_reserved":false,"is_disabled":false,"rental_uris":{"android":"levelo://app?vid=1d74bc52-c8fd-442b-946b-e61aa82e32f3","ios":"levelo://app?vid=1d74bc52-c8fd-442b-946b-e61aa82e32f3"},"vehicle_type_id":"4","last_reported":1731615014,"current_range_meters":38800,"station_id":"ce4bh412rcd13ifvqds0","pricing_plan_id":"cebpf4jnsgd1na2vs0mg"},{"bike_id":"daf14cb1-d6c4-4ea2-b6e4-7779e05a1714","system_id":"levelo_inurba_marseille","lat":43.33027,"lon":5.39041,"is_reserved":false,"is_disabled":false,"rental_uris":{"android":"levelo://app?vid=daf14cb1-d6c4-4ea2-b6e4-7779e05a1714","ios":"levelo://app?vid=daf14cb1-d6c4-4ea2-b6e4-7779e05a1714"},"vehicle_type_id":"4","last_reported":1731615014,"current_range_meters":32400,"station_id":"ce4bhr92rcd13ifvqhrg","pricing_plan_id":"cebpf4jnsgd1na2vs0mg"},{"bike_id":"c6cb8457-697d-4f7d-b5f3-bc657f612e53","system_id":"levelo_inurba_marseille","lat":43.30142,"lon":5.37411,"is_reserved":false,"is_disabled":false,"rental_uris":{"android":"levelo://app?vid=c6cb8457-697d-4f7d-b5f3-bc657f612e53","ios":"levelo://app?vid=c6cb8457-697d-4f7d-b5f3-bc657f612e53"},"vehicle_type_id":"4","last_reported":1731615014,"current_range_meters":25600,"station_id":"ce4bgs92rcd13ifvqcc0","pricing_plan_id":"cebpf4jnsgd1na2vs0mg"},{"bike_id":"4f3e4f15-eeb6-4d68-beb4-2ada588fa485","system_id":"levelo_inurba_marseille","lat":43.28153,"lon":5.42645,"is_reserved":false,"is_disabled":false,"rental_uris":{"android":"levelo://app?vid=4f3e4f15-eeb6-4d68-beb4-2ada588fa485","ios":"levelo://app?vid=4f3e4f15-eeb6-4d68-beb4-2ada588fa485"},"vehicle_type_id":"4","last_reported":1731615014,"current_range_meters":38800,"station_id":"ce4bhnh2rcd13ifvqgug","pricing_plan_id":"cebpf4jnsgd1na2vs0mg"},{"bike_id":"fdb9bf02-4408-4f3f-aad8-b04941bb83b6","system_id":"levelo_inurba_marseille","lat":43.28153,"lon":5.42634,"is_reserved":false,"is_disabled":false,"rental_uris":{"android":"levelo://app?vid=fdb9bf02-4408-4f3f-aad8-b04941bb83b6","ios":"levelo://app?vid=fdb9bf02-4408-4f3f-aad8-b04941bb83b6"},"vehicle_type_id":"4","last_reported":1731615014,"current_range_meters":40000,"station_id":"ce4bhnh2rcd13ifvqgug","pricing_plan_id":"cebpf4jnsgd1na2vs0mg"},{"bike_id":"2c6533dc-1157-4596-89a7-53c0dd1ae554","system_id":"levelo_inurba_marseille","lat":43.29582,"lon":5.36737,"is_reserved":false,"is_disabled":false,"rental_uris":{"android":"levelo://app?vid=2c6533dc-1157-4596-89a7-53c0dd1ae554","ios":"levelo://app?vid=2c6533dc-1157-4596-89a7-53c0dd1ae554"},"vehicle_type_id":"4","last_reported":1731615014,"current_range_meters":29600,"station_id":"ce4bgph2rcd13ifvqc2g","pricing_plan_id":"cebpf4jnsgd1na2vs0mg"},{"bike_id":"43654b45-62c1-46ca-8021-6054737f04d5","system_id":"levelo_inurba_marseille","lat":43.29525,"lon":5.39405,"is_reserved":false,"is_disabled":false,"rental_uris":{"android":"levelo://app?vid=43654b45-62c1-46ca-8021-6054737f04d5","ios":"levelo://app?vid=43654b45-62c1-46ca-8021-6054737f04d5"},"vehicle_type_id":"4","last_reported":1731615014,"current_range_meters":38000,"station_id":"ce4bh292rcd13ifvqdf0","pricing_plan_id":"cebpf4jnsgd1na2vs0mg"},{"bike_id":"3f1eab25-bbd0-4519-b2ce-b4566d191542","system_id":"levelo_inurba_marseille","lat":43.2509,"lon":5.3951,"is_reserved":false,"is_disabled":false,"rental_uris":{"android":"levelo://app?vid=3f1eab25-bbd0-4519-b2ce-b4566d191542","ios":"levelo://app?vid=3f1eab25-bbd0-4519-b2ce-b4566d191542"},"vehicle_type_id":"4","last_reported":1731615014,"current_range_meters":38800,"station_id":"ce4bhm12rcd13ifvqgkg","pricing_plan_id":"cebpf4jnsgd1na2vs0mg"},{"bike_id":"8b8ff766-c81b-43d3-ad54-da30363365ca","system_id":"levelo_inurba_marseille","lat":43.31326,"lon":5.39691,"is_reserved":false,"is_disabled":false,"rental_uris":{"android":"levelo://app?vid=8b8ff766-c81b-43d3-ad54-da30363365ca","ios":"levelo://app?vid=8b8ff766-c81b-43d3-ad54-da30363365ca"},"vehicle_type_id":"4","last_reported":1731615014,"current_range_meters":8800,"station_id":"ce4bgvp2rcd13ifvqcu0","pricing_plan_id":"cebpf4jnsgd1na2vs0mg"},{"bike_id":"b15ad833-99dc-427d-b9bc-2e07a14741f6","system_id":"levelo_inurba_marseille","lat":43.25727,"lon":5.41111,"is_reserved":false,"is_disabled":false,"rental_uris":{"android":"levelo://app?vid=b15ad833-99dc-427d-b9bc-2e07a14741f6","ios":"levelo://app?vid=b15ad833-99dc-427d-b9bc-2e07a14741f6"},"vehicle_type_id":"4","last_reported":1731615014,"current_range_meters":12000,"station_id":"ce4bhkp2rcd13ifvqgd0","pricing_plan_id":"cebpf4jnsgd1na2vs0mg"},{"bike_id":"f7de89b4-c064-4afc-96df-4cfc11c93143","system_id":"levelo_inurba_marseille","lat":43.29528,"lon":5.38546,"is_reserved":false,"is_disabled":false,"rental_uris":{"android":"levelo://app?vid=f7de89b4-c064-4afc-96df-4cfc11c93143","ios":"levelo://app?vid=f7de89b4-c064-4afc-96df-4cfc11c93143"},"vehicle_type_id":"4","last_reported":1731615014,"current_range_meters":4800,"station_id":"ce4bgih2rcd13ifvqba0","pricing_plan_id":"cebpf4jnsgd1na2vs0mg"},{"bike_id":"af5a6896-9be4-46fd-b2fc-5f2fd4c9ab05","system_id":"levelo_inurba_marseille","lat":43.30141,"lon":5.39882,"is_reserved":false,"is_disabled":false,"rental_uris":{"android":"levelo://app?vid=af5a6896-9be4-46fd-b2fc-5f2fd4c9ab05","ios":"levelo://app?vid=af5a6896-9be4-46fd-b2fc-5f2fd4c9ab05"},"vehicle_type_id":"4","last_reported":1731615014,"current_range_meters":20400,"station_id":"ce4bh0h2rcd13ifvqd40","pricing_plan_id":"cebpf4jnsgd1na2vs0mg"},{"bike_id":"e5bb307a-3df0-48bc-bf15-4b9a012fd2e4","system_id":"levelo_inurba_marseille","lat":43.25728,"lon":5.41095,"is_reserved":false,"is_disabled":false,"rental_uris":{"android":"levelo://app?vid=e5bb307a-3df0-48bc-bf15-4b9a012fd2e4","ios":"levelo://app?vid=e5bb307a-3df0-48bc-bf15-4b9a012fd2e4"},"vehicle_type_id":"4","last_reported":1731615014,"current_range_meters":38400,"station_id":"ce4bhkp2rcd13ifvqgd0","pricing_plan_id":"cebpf4jnsgd1na2vs0mg"},{"bike_id":"181c2868-b33e-4226-a512-c1bbbbdd57c7","system_id":"levelo_inurba_marseille","lat":43.26033,"lon":5.37556,"is_reserved":false,"is_disabled":false,"rental_uris":{"android":"levelo://app?vid=181c2868-b33e-4226-a512-c1bbbbdd57c7","ios":"levelo://app?vid=181c2868-b33e-4226-a512-c1bbbbdd57c7"},"vehicle_type_id":"4","last_reported":1731615014,"current_range_meters":20800,"station_id":"ce4bhgh2rcd13ifvqfa0","pricing_plan_id":"cebpf4jnsgd1na2vs0mg"},{"bike_id":"b8f91035-b021-405d-9e06-47c03ff95ddd","system_id":"levelo_inurba_marseille","lat":43.28276,"lon":5.35059,"is_reserved":false,"is_disabled":false,"rental_uris":{"android":"levelo://app?vid=b8f91035-b021-405d-9e06-47c03ff95ddd","ios":"levelo://app?vid=b8f91035-b021-405d-9e06-47c03ff95ddd"},"vehicle_type_id":"4","last_reported":1731615014,"current_range_meters":38400,"station_id":"ce4bhbp2rcd13ifvqerg","pricing_plan_id":"cebpf4jnsgd1na2vs0mg"},{"bike_id":"28536d39-4bfc-48c0-9487-4d398a6be564","system_id":"levelo_inurba_marseille","lat":43.29968,"lon":5.3849,"is_reserved":false,"is_disabled":false,"rental_uris":{"android":"levelo://app?vid=28536d39-4bfc-48c0-9487-4d398a6be564","ios":"levelo://app?vid=28536d39-4bfc-48c0-9487-4d398a6be564"},"vehicle_type_id":"4","last_reported":1731615014,"current_range_meters":35600,"station_id":"ce4bgj92rcd13ifvqbd0","pricing_plan_id":"cebpf4jnsgd1na2vs0mg"},{"bike_id":"0e5345b4-db26-4fe7-99ed-27459dba76b2","system_id":"levelo_inurba_marseille","lat":43.29529,"lon":5.38544,"is_reserved":false,"is_disabled":false,"rental_uris":{"android":"levelo://app?vid=0e5345b4-db26-4fe7-99ed-27459dba76b2","ios":"levelo://app?vid=0e5345b4-db26-4fe7-99ed-27459dba76b2"},"vehicle_type_id":"4","last_reported":1731615014,"current_range_meters":34000,"station_id":"ce4bgih2rcd13ifvqba0","pricing_plan_id":"cebpf4jnsgd1na2vs0mg"},{"bike_id":"4b6cae71-77bb-4d72-bed4-f023a0624f58","system_id":"levelo_inurba_marseille","lat":43.29526,"lon":5.38539,"is_reserved":false,"is_disabled":false,"rental_uris":{"android":"levelo://app?vid=4b6cae71-77bb-4d72-bed4-f023a0624f58","ios":"levelo://app?vid=4b6cae71-77bb-4d72-bed4-f023a0624f58"},"vehicle_type_id":"4","last_reported":1731615014,"current_range_meters":36400,"station_id":"ce4bgih2rcd13ifvqba0","pricing_plan_id":"cebpf4jnsgd1na2vs0mg"},{"bike_id":"ec84243a-a5d7-42d1-b66e-8434c298a9f1","system_id":"levelo_inurba_marseille","lat":43.31487,"lon":5.373,"is_reserved":false,"is_disabled":false,"rental_uris":{"android":"levelo://app?vid=ec84243a-a5d7-42d1-b66e-8434c298a9f1","ios":"levelo://app?vid=ec84243a-a5d7-42d1-b66e-8434c298a9f1"},"vehicle_type_id":"4","last_reported":1731615014,"current_range_meters":22000,"station_id":"ce4bgt12rcd13ifvqcd0","pricing_plan_id":"cebpf4jnsgd1na2vs0mg"},{"bike_id":"70c4e310-8352-4429-b1c1-a7d3d3bc3474","system_id":"levelo_inurba_marseille","lat":43.2572,"lon":5.4111,"is_reserved":false,"is_disabled":false,"rental_uris":{"android":"levelo://app?vid=70c4e310-8352-4429-b1c1-a7d3d3bc3474","ios":"levelo://app?vid=70c4e310-8352-4429-b1c1-a7d3d3bc3474"},"vehicle_type_id":"4","last_reported":1731615014,"current_range_meters":16800,"station_id":"ce4bhkp2rcd13ifvqgd0","pricing_plan_id":"cebpf4jnsgd1na2vs0mg"},{"bike_id":"dcb0c9d0-3c52-4364-87e7-a5ce6ed44790","system_id":"levelo_inurba_marseille","lat":43.30137,"lon":5.39874,"is_reserved":false,"is_disabled":false,"rental_uris":{"android":"levelo://app?vid=dcb0c9d0-3c52-4364-87e7-a5ce6ed44790","ios":"levelo://app?vid=dcb0c9d0-3c52-4364-87e7-a5ce6ed44790"},"vehicle_type_id":"4","last_reported":1731615014,"current_range_meters":36800,"station_id":"ce4bh0h2rcd13ifvqd40","pricing_plan_id":"cebpf4jnsgd1na2vs0mg"},{"bike_id":"0640b632-6876-4227-9267-eb35ea8d7191","system_id":"levelo_inurba_marseille","lat":43.28459,"lon":5.35891,"is_reserved":false,"is_disabled":false,"rental_uris":{"android":"levelo://app?vid=0640b632-6876-4227-9267-eb35ea8d7191","ios":"levelo://app?vid=0640b632-6876-4227-9267-eb35ea8d7191"},"vehicle_type_id":"4","last_reported":1731615014,"current_range_meters":38800,"station_id":"ce4bhah2rcd13ifvqei0","pricing_plan_id":"cebpf4jnsgd1na2vs0mg"},{"bike_id":"398b47b3-a042-4cec-b1dd-254773a78263","system_id":"levelo_inurba_marseille","lat":43.27411,"lon":5.3895,"is_reserved":false,"is_disabled":false,"rental_uris":{"android":"levelo://app?vid=398b47b3-a042-4cec-b1dd-254773a78263","ios":"levelo://app?vid=398b47b3-a042-4cec-b1dd-254773a78263"},"vehicle_type_id":"4","last_reported":1731615014,"current_range_meters":2800,"station_id":"","pricing_plan_id":"cebpf4jnsgd1na2vs0mg"},{"bike_id":"ee26f58e-b8c7-4191-bda2-353090292f42","system_id":"levelo_inurba_marseille","lat":43.31172,"lon":5.38715,"is_reserved":false,"is_disabled":false,"rental_uris":{"android":"levelo://app?vid=ee26f58e-b8c7-4191-bda2-353090292f42","ios":"levelo://app?vid=ee26f58e-b8c7-4191-bda2-353090292f42"},"vehicle_type_id":"4","last_reported":1731615014,"current_range_meters":6400,"station_id":"ce4bgv12rcd13ifvqcp0","pricing_plan_id":"cebpf4jnsgd1na2vs0mg"},{"bike_id":"505f5e1c-57ce-4f8e-9a06-de7fbd926747","system_id":"levelo_inurba_marseille","lat":43.29272,"lon":5.36848,"is_reserved":false,"is_disabled":false,"rental_uris":{"android":"levelo://app?vid=505f5e1c-57ce-4f8e-9a06-de7fbd926747","ios":"levelo://app?vid=505f5e1c-57ce-4f8e-9a06-de7fbd926747"},"vehicle_type_id":"4","last_reported":1731615014,"current_range_meters":20800,"station_id":"ce4bhbp2rcd13ifvqesg","pricing_plan_id":"cebpf4jnsgd1na2vs0mg"},{"bike_id":"92e3ad17-17c9-4714-a148-ef9436ad6113","system_id":"levelo_inurba_marseille","lat":43.22935,"lon":5.3538,"is_reserved":false,"is_disabled":false,"rental_uris":{"android":"levelo://app?vid=92e3ad17-17c9-4714-a148-ef9436ad6113","ios":"levelo://app?vid=92e3ad17-17c9-4714-a148-ef9436ad6113"},"vehicle_type_id":"4","last_reported":1731615014,"current_range_meters":39200,"station_id":"cpo3532slgdg3j2ikp40","pricing_plan_id":"cebpf4jnsgd1na2vs0mg"},{"bike_id":"e5f7351c-ffeb-4a7d-a910-48141a01d704","system_id":"levelo_inurba_marseille","lat":43.30586,"lon":5.39359,"is_reserved":false,"is_disabled":false,"rental_uris":{"android":"levelo://app?vid=e5f7351c-ffeb-4a7d-a910-48141a01d704","ios":"levelo://app?vid=e5f7351c-ffeb-4a7d-a910-48141a01d704"},"vehicle_type_id":"4","last_reported":1731615014,"current_range_meters":26800,"station_id":"ce4bh0p2rcd13ifvqd80","pricing_plan_id":"cebpf4jnsgd1na2vs0mg"},{"bike_id":"5326c5f8-bba7-40e6-bfc7-8e986a3bddf3","system_id":"levelo_inurba_marseille","lat":43.31913,"lon":5.38219,"is_reserved":false,"is_disabled":false,"rental_uris":{"android":"levelo://app?vid=5326c5f8-bba7-40e6-bfc7-8e986a3bddf3","ios":"levelo://app?vid=5326c5f8-bba7-40e6-bfc7-8e986a3bddf3"},"vehicle_type_id":"4","last_reported":1731615014,"current_range_meters":22400,"station_id":"ce4bhr12rcd13ifvqhqg","pricing_plan_id":"cebpf4jnsgd1na2vs0mg"},{"bike_id":"ceacf4ec-6c73-4cf7-9817-00efb9809e5e","system_id":"levelo_inurba_marseille","lat":43.30189,"lon":5.36631,"is_reserved":false,"is_disabled":false,"rental_uris":{"android":"levelo://app?vid=ceacf4ec-6c73-4cf7-9817-00efb9809e5e","ios":"levelo://app?vid=ceacf4ec-6c73-4cf7-9817-00efb9809e5e"},"vehicle_type_id":"4","last_reported":1731615014,"current_range_meters":32000,"station_id":"ce4bgrh2rcd13ifvqc8g","pricing_plan_id":"cebpf4jnsgd1na2vs0mg"},{"bike_id":"82f309e6-c4ae-421f-89cb-1d64a8e0ef10","system_id":"levelo_inurba_marseille","lat":43.337444,"lon":5.374475,"is_reserved":false,"is_disabled":false,"rental_uris":{"android":"levelo://app?vid=82f309e6-c4ae-421f-89cb-1d64a8e0ef10","ios":"levelo://app?vid=82f309e6-c4ae-421f-89cb-1d64a8e0ef10"},"vehicle_type_id":"4","last_reported":1731615014,"current_range_meters":31200,"station_id":"","pricing_plan_id":"cebpf4jnsgd1na2vs0mg"},{"bike_id":"ad998524-5cea-4355-99d8-50f015aa8ae5","system_id":"levelo_inurba_marseille","lat":43.31273,"lon":5.40164,"is_reserved":false,"is_disabled":false,"rental_uris":{"android":"levelo://app?vid=ad998524-5cea-4355-99d8-50f015aa8ae5","ios":"levelo://app?vid=ad998524-5cea-4355-99d8-50f015aa8ae5"},"vehicle_type_id":"4","last_reported":1731615014,"current_range_meters":27600,"station_id":"ce4bh092rcd13ifvqd30","pricing_plan_id":"cebpf4jnsgd1na2vs0mg"},{"bike_id":"90104b65-e034-4278-8a6f-21d73110c7a2","system_id":"levelo_inurba_marseille","lat":43.28348,"lon":5.38105,"is_reserved":false,"is_disabled":false,"rental_uris":{"android":"levelo://app?vid=90104b65-e034-4278-8a6f-21d73110c7a2","ios":"levelo://app?vid=90104b65-e034-4278-8a6f-21d73110c7a2"},"vehicle_type_id":"4","last_reported":1731615014,"current_range_meters":28400,"station_id":"ce4bh412rcd13ifvqdr0","pricing_plan_id":"cebpf4jnsgd1na2vs0mg"},{"bike_id":"3798d6cd-bfdb-48b5-9973-ac3e45e98d8a","system_id":"levelo_inurba_marseille","lat":43.27067,"lon":5.42276,"is_reserved":false,"is_disabled":false,"rental_uris":{"android":"levelo://app?vid=3798d6cd-bfdb-48b5-9973-ac3e45e98d8a","ios":"levelo://app?vid=3798d6cd-bfdb-48b5-9973-ac3e45e98d8a"},"vehicle_type_id":"4","last_reported":1731615014,"current_range_meters":38800,"station_id":"ce4bhk92rcd13ifvqgb0","pricing_plan_id":"cebpf4jnsgd1na2vs0mg"},{"bike_id":"1f9cac8b-add6-4980-80f4-c7b5889c4404","system_id":"levelo_inurba_marseille","lat":43.29203,"lon":5.39322,"is_reserved":false,"is_disabled":false,"rental_uris":{"android":"levelo://app?vid=1f9cac8b-add6-4980-80f4-c7b5889c4404","ios":"levelo://app?vid=1f9cac8b-add6-4980-80f4-c7b5889c4404"},"vehicle_type_id":"4","last_reported":1731615014,"current_range_meters":35600,"station_id":"ce4bh192rcd13ifvqdd0","pricing_plan_id":"cebpf4jnsgd1na2vs0mg"},{"bike_id":"31139bd4-9c6d-4100-a744-c1d0ce199198","system_id":"levelo_inurba_marseille","lat":43.31181,"lon":5.38723,"is_reserved":false,"is_disabled":false,"rental_uris":{"android":"levelo://app?vid=31139bd4-9c6d-4100-a744-c1d0ce199198","ios":"levelo://app?vid=31139bd4-9c6d-4100-a744-c1d0ce199198"},"vehicle_type_id":"4","last_reported":1731615014,"current_range_meters":38800,"station_id":"ce4bgv12rcd13ifvqcp0","pricing_plan_id":"cebpf4jnsgd1na2vs0mg"},{"bike_id":"bf94ce4b-a2be-4a65-818a-24b3a747d6fd","system_id":"levelo_inurba_marseille","lat":43.28847,"lon":5.393123,"is_reserved":false,"is_disabled":false,"rental_uris":{"android":"levelo://app?vid=bf94ce4b-a2be-4a65-818a-24b3a747d6fd","ios":"levelo://app?vid=bf94ce4b-a2be-4a65-818a-24b3a747d6fd"},"vehicle_type_id":"4","last_reported":1731615014,"current_range_meters":32800,"station_id":"ce4bh2p2rcd13ifvqdi0","pricing_plan_id":"cebpf4jnsgd1na2vs0mg"},{"bike_id":"212efe4a-0ada-4a3b-bab6-af4856eff509","system_id":"levelo_inurba_marseille","lat":43.28373,"lon":5.38636,"is_reserved":false,"is_disabled":false,"rental_uris":{"android":"levelo://app?vid=212efe4a-0ada-4a3b-bab6-af4856eff509","ios":"levelo://app?vid=212efe4a-0ada-4a3b-bab6-af4856eff509"},"vehicle_type_id":"4","last_reported":1731615014,"current_range_meters":8800,"station_id":"ce4bh492rcd13ifvqdvg","pricing_plan_id":"cebpf4jnsgd1na2vs0mg"},{"bike_id":"e9831758-7fbb-4bb8-92fd-5b32e1ae3ab6","system_id":"levelo_inurba_marseille","lat":43.33026,"lon":5.39051,"is_reserved":false,"is_disabled":false,"rental_uris":{"android":"levelo://app?vid=e9831758-7fbb-4bb8-92fd-5b32e1ae3ab6","ios":"levelo://app?vid=e9831758-7fbb-4bb8-92fd-5b32e1ae3ab6"},"vehicle_type_id":"4","last_reported":1731615014,"current_range_meters":29600,"station_id":"ce4bhr92rcd13ifvqhrg","pricing_plan_id":"cebpf4jnsgd1na2vs0mg"},{"bike_id":"8781d0fe-a968-4075-9453-c800ea4b95d6","system_id":"levelo_inurba_marseille","lat":43.30329,"lon":5.40437,"is_reserved":false,"is_disabled":false,"rental_uris":{"android":"levelo://app?vid=8781d0fe-a968-4075-9453-c800ea4b95d6","ios":"levelo://app?vid=8781d0fe-a968-4075-9453-c800ea4b95d6"},"vehicle_type_id":"4","last_reported":1731615014,"current_range_meters":36800,"station_id":"ce4bh012rcd13ifvqd10","pricing_plan_id":"cebpf4jnsgd1na2vs0mg"},{"bike_id":"d4357b6e-382d-42fb-a863-ff7fd5649955","system_id":"levelo_inurba_marseille","lat":43.25002,"lon":5.38924,"is_reserved":false,"is_disabled":false,"rental_uris":{"android":"levelo://app?vid=d4357b6e-382d-42fb-a863-ff7fd5649955","ios":"levelo://app?vid=d4357b6e-382d-42fb-a863-ff7fd5649955"},"vehicle_type_id":"4","last_reported":1731615014,"current_range_meters":38800,"station_id":"ce4bhgp2rcd13ifvqfd0","pricing_plan_id":"cebpf4jnsgd1na2vs0mg"},{"bike_id":"019b1824-cafa-405c-b8c5-74beab74332d","system_id":"levelo_inurba_marseille","lat":43.25082,"lon":5.39522,"is_reserved":false,"is_disabled":false,"rental_uris":{"android":"levelo://app?vid=019b1824-cafa-405c-b8c5-74beab74332d","ios":"levelo://app?vid=019b1824-cafa-405c-b8c5-74beab74332d"},"vehicle_type_id":"4","last_reported":1731615014,"current_range_meters":38800,"station_id":"ce4bhm12rcd13ifvqgkg","pricing_plan_id":"cebpf4jnsgd1na2vs0mg"},{"bike_id":"52111198-2768-4b1b-afcf-b763533e1ecd","system_id":"levelo_inurba_marseille","lat":43.28673,"lon":5.36354,"is_reserved":false,"is_disabled":false,"rental_uris":{"android":"levelo://app?vid=52111198-2768-4b1b-afcf-b763533e1ecd","ios":"levelo://app?vid=52111198-2768-4b1b-afcf-b763533e1ecd"},"vehicle_type_id":"4","last_reported":1731615014,"current_range_meters":11200,"station_id":"ce4bhah2rcd13ifvqej0","pricing_plan_id":"cebpf4jnsgd1na2vs0mg"},{"bike_id":"ba82e2b2-71b7-4fd0-ae22-472bef85183f","system_id":"levelo_inurba_marseille","lat":43.29411,"lon":5.38624,"is_reserved":false,"is_disabled":false,"rental_uris":{"android":"levelo://app?vid=ba82e2b2-71b7-4fd0-ae22-472bef85183f","ios":"levelo://app?vid=ba82e2b2-71b7-4fd0-ae22-472bef85183f"},"vehicle_type_id":"4","last_reported":1731615014,"current_range_meters":38800,"station_id":"ce4bh2h2rcd13ifvqdh0","pricing_plan_id":"cebpf4jnsgd1na2vs0mg"},{"bike_id":"7eda8e5f-367f-4f3c-944c-a5365b30f0c9","system_id":"levelo_inurba_marseille","lat":43.31532,"lon":5.38025,"is_reserved":false,"is_disabled":false,"rental_uris":{"android":"levelo://app?vid=7eda8e5f-367f-4f3c-944c-a5365b30f0c9","ios":"levelo://app?vid=7eda8e5f-367f-4f3c-944c-a5365b30f0c9"},"vehicle_type_id":"4","last_reported":1731615014,"current_range_meters":30800,"station_id":"ce4bhsp2rcd13ifvqi50","pricing_plan_id":"cebpf4jnsgd1na2vs0mg"},{"bike_id":"d1badb2f-ae8e-4081-9eb6-03a47653d796","system_id":"levelo_inurba_marseille","lat":43.29266,"lon":5.3844,"is_reserved":false,"is_disabled":false,"rental_uris":{"android":"levelo://app?vid=d1badb2f-ae8e-4081-9eb6-03a47653d796","ios":"levelo://app?vid=d1badb2f-ae8e-4081-9eb6-03a47653d796"},"vehicle_type_id":"4","last_reported":1731615014,"current_range_meters":38800,"station_id":"ce4bh692rcd13ifvqea0","pricing_plan_id":"cebpf4jnsgd1na2vs0mg"},{"bike_id":"add6469e-6694-4a2e-bfcd-ec1f32bc46a7","system_id":"levelo_inurba_marseille","lat":43.24653,"lon":5.38895,"is_reserved":false,"is_disabled":false,"rental_uris":{"android":"levelo://app?vid=add6469e-6694-4a2e-bfcd-ec1f32bc46a7","ios":"levelo://app?vid=add6469e-6694-4a2e-bfcd-ec1f32bc46a7"},"vehicle_type_id":"4","last_reported":1731615014,"current_range_meters":38800,"station_id":"ce4bhg12rcd13ifvqf60","pricing_plan_id":"cebpf4jnsgd1na2vs0mg"},{"bike_id":"88a7ec35-1e7e-417d-aed6-a0debbf85756","system_id":"levelo_inurba_marseille","lat":43.292105,"lon":5.393315,"is_reserved":false,"is_disabled":false,"rental_uris":{"android":"levelo://app?vid=88a7ec35-1e7e-417d-aed6-a0debbf85756","ios":"levelo://app?vid=88a7ec35-1e7e-417d-aed6-a0debbf85756"},"vehicle_type_id":"4","last_reported":1731615014,"current_range_meters":38800,"station_id":"ce4bh192rcd13ifvqdd0","pricing_plan_id":"cebpf4jnsgd1na2vs0mg"},{"bike_id":"6dcbb2ce-c695-4325-893f-7eb3313c10e8","system_id":"levelo_inurba_marseille","lat":43.28106,"lon":5.37829,"is_reserved":false,"is_disabled":false,"rental_uris":{"android":"levelo://app?vid=6dcbb2ce-c695-4325-893f-7eb3313c10e8","ios":"levelo://app?vid=6dcbb2ce-c695-4325-893f-7eb3313c10e8"},"vehicle_type_id":"4","last_reported":1731615014,"current_range_meters":38800,"station_id":"ce4bha12rcd13ifvqee0","pricing_plan_id":"cebpf4jnsgd1na2vs0mg"},{"bike_id":"e2b4984c-598d-4f4e-947f-3b8e957f8f99","system_id":"levelo_inurba_marseille","lat":43.30651,"lon":5.40084,"is_reserved":false,"is_disabled":false,"rental_uris":{"android":"levelo://app?vid=e2b4984c-598d-4f4e-947f-3b8e957f8f99","ios":"levelo://app?vid=e2b4984c-598d-4f4e-947f-3b8e957f8f99"},"vehicle_type_id":"4","last_reported":1731615014,"current_range_meters":32800,"station_id":"ce4bh112rcd13ifvqda0","pricing_plan_id":"cebpf4jnsgd1na2vs0mg"},{"bike_id":"1c02aeeb-53c4-40b5-bc4b-32f6ad3902cd","system_id":"levelo_inurba_marseille","lat":43.30085,"lon":5.39065,"is_reserved":false,"is_disabled":false,"rental_uris":{"android":"levelo://app?vid=1c02aeeb-53c4-40b5-bc4b-32f6ad3902cd","ios":"levelo://app?vid=1c02aeeb-53c4-40b5-bc4b-32f6ad3902cd"},"vehicle_type_id":"4","last_reported":1731615014,"current_range_meters":7200,"station_id":"ce4bh192rcd13ifvqdb0","pricing_plan_id":"cebpf4jnsgd1na2vs0mg"},{"bike_id":"bcf71e31-be4e-4033-b7c9-0a4044a34e08","system_id":"levelo_inurba_marseille","lat":43.30143,"lon":5.39896,"is_reserved":false,"is_disabled":false,"rental_uris":{"android":"levelo://app?vid=bcf71e31-be4e-4033-b7c9-0a4044a34e08","ios":"levelo://app?vid=bcf71e31-be4e-4033-b7c9-0a4044a34e08"},"vehicle_type_id":"4","last_reported":1731615014,"current_range_meters":38400,"station_id":"ce4bh0h2rcd13ifvqd40","pricing_plan_id":"cebpf4jnsgd1na2vs0mg"},{"bike_id":"655a10b0-a8e3-4534-a734-88ec4620f04f","system_id":"levelo_inurba_marseille","lat":43.29067,"lon":5.37171,"is_reserved":false,"is_disabled":false,"rental_uris":{"android":"levelo://app?vid=655a10b0-a8e3-4534-a734-88ec4620f04f","ios":"levelo://app?vid=655a10b0-a8e3-4534-a734-88ec4620f04f"},"vehicle_type_id":"4","last_reported":1731615014,"current_range_meters":24800,"station_id":"ce4bh5p2rcd13ifvqe4g","pricing_plan_id":"cebpf4jnsgd1na2vs0mg"},{"bike_id":"a87f255f-2815-4f74-b6f2-0c5330b1b1cf","system_id":"levelo_inurba_marseille","lat":43.29027,"lon":5.38647,"is_reserved":false,"is_disabled":false,"rental_uris":{"android":"levelo://app?vid=a87f255f-2815-4f74-b6f2-0c5330b1b1cf","ios":"levelo://app?vid=a87f255f-2815-4f74-b6f2-0c5330b1b1cf"},"vehicle_type_id":"4","last_reported":1731615014,"current_range_meters":11200,"station_id":"ce4bh4p2rcd13ifvqe0g","pricing_plan_id":"cebpf4jnsgd1na2vs0mg"},{"bike_id":"83f1619e-8203-4ed3-bf96-7cfd219fb755","system_id":"levelo_inurba_marseille","lat":43.289347,"lon":5.366374,"is_reserved":false,"is_disabled":false,"rental_uris":{"android":"levelo://app?vid=83f1619e-8203-4ed3-bf96-7cfd219fb755","ios":"levelo://app?vid=83f1619e-8203-4ed3-bf96-7cfd219fb755"},"vehicle_type_id":"4","last_reported":1731615014,"current_range_meters":28400,"station_id":"ce4bhap2rcd13ifvqek0","pricing_plan_id":"cebpf4jnsgd1na2vs0mg"},{"bike_id":"51704817-2877-45ea-ad31-d3fdee0f0146","system_id":"levelo_inurba_marseille","lat":43.27955,"lon":5.41038,"is_reserved":false,"is_disabled":false,"rental_uris":{"android":"levelo://app?vid=51704817-2877-45ea-ad31-d3fdee0f0146","ios":"levelo://app?vid=51704817-2877-45ea-ad31-d3fdee0f0146"},"vehicle_type_id":"4","last_reported":1731615014,"current_range_meters":18800,"station_id":"ce4bhnp2rcd13ifvqh0g","pricing_plan_id":"cebpf4jnsgd1na2vs0mg"},{"bike_id":"01d2172e-e0f5-4c90-b3e1-c651aaf6d273","system_id":"levelo_inurba_marseille","lat":43.29522,"lon":5.39038,"is_reserved":false,"is_disabled":false,"rental_uris":{"android":"levelo://app?vid=01d2172e-e0f5-4c90-b3e1-c651aaf6d273","ios":"levelo://app?vid=01d2172e-e0f5-4c90-b3e1-c651aaf6d273"},"vehicle_type_id":"4","last_reported":1731615014,"current_range_meters":39200,"station_id":"ce4bh3p2rcd13ifvqdp0","pricing_plan_id":"cebpf4jnsgd1na2vs0mg"},{"bike_id":"a1df99f0-d509-4bc0-bf21-bfa3ffaea986","system_id":"levelo_inurba_marseille","lat":43.29421,"lon":5.38626,"is_reserved":false,"is_disabled":false,"rental_uris":{"android":"levelo://app?vid=a1df99f0-d509-4bc0-bf21-bfa3ffaea986","ios":"levelo://app?vid=a1df99f0-d509-4bc0-bf21-bfa3ffaea986"},"vehicle_type_id":"4","last_reported":1731615014,"current_range_meters":26800,"station_id":"ce4bh2h2rcd13ifvqdh0","pricing_plan_id":"cebpf4jnsgd1na2vs0mg"},{"bike_id":"b29f5b1d-6f7f-436c-bb59-b33985de14ff","system_id":"levelo_inurba_marseille","lat":43.279936,"lon":5.399987,"is_reserved":false,"is_disabled":false,"rental_uris":{"android":"levelo://app?vid=b29f5b1d-6f7f-436c-bb59-b33985de14ff","ios":"levelo://app?vid=b29f5b1d-6f7f-436c-bb59-b33985de14ff"},"vehicle_type_id":"4","last_reported":1731615014,"current_range_meters":38800,"station_id":"ce4bho92rcd13ifvqh4g","pricing_plan_id":"cebpf4jnsgd1na2vs0mg"},{"bike_id":"2b0d7f65-95fa-4086-b4ec-0afeacda8de7","system_id":"levelo_inurba_marseille","lat":43.290281,"lon":5.37576,"is_reserved":false,"is_disabled":false,"rental_uris":{"android":"levelo://app?vid=2b0d7f65-95fa-4086-b4ec-0afeacda8de7","ios":"levelo://app?vid=2b0d7f65-95fa-4086-b4ec-0afeacda8de7"},"vehicle_type_id":"4","last_reported":1731615014,"current_range_meters":12800,"station_id":"ce4bh692rcd13ifvqe90","pricing_plan_id":"cebpf4jnsgd1na2vs0mg"},{"bike_id":"1d36ec1c-d89d-4bb1-8e0d-ff1c762508b7","system_id":"levelo_inurba_marseille","lat":43.22943,"lon":5.35362,"is_reserved":false,"is_disabled":false,"rental_uris":{"android":"levelo://app?vid=1d36ec1c-d89d-4bb1-8e0d-ff1c762508b7","ios":"levelo://app?vid=1d36ec1c-d89d-4bb1-8e0d-ff1c762508b7"},"vehicle_type_id":"4","last_reported":1731615014,"current_range_meters":13600,"station_id":"cpo3532slgdg3j2ikp40","pricing_plan_id":"cebpf4jnsgd1na2vs0mg"},{"bike_id":"2dfd4d0a-67f2-43b6-99f1-10c80d0f1b5e","system_id":"levelo_inurba_marseille","lat":43.30146,"lon":5.39876,"is_reserved":false,"is_disabled":false,"rental_uris":{"android":"levelo://app?vid=2dfd4d0a-67f2-43b6-99f1-10c80d0f1b5e","ios":"levelo://app?vid=2dfd4d0a-67f2-43b6-99f1-10c80d0f1b5e"},"vehicle_type_id":"4","last_reported":1731615014,"current_range_meters":14800,"station_id":"ce4bh0h2rcd13ifvqd40","pricing_plan_id":"cebpf4jnsgd1na2vs0mg"},{"bike_id":"96982182-a7c7-450e-8433-0ac9d985aed2","system_id":"levelo_inurba_marseille","lat":43.33718,"lon":5.39175,"is_reserved":false,"is_disabled":false,"rental_uris":{"android":"levelo://app?vid=96982182-a7c7-450e-8433-0ac9d985aed2","ios":"levelo://app?vid=96982182-a7c7-450e-8433-0ac9d985aed2"},"vehicle_type_id":"4","last_reported":1731615014,"current_range_meters":39200,"station_id":"ce4bhr92rcd13ifvqhsg","pricing_plan_id":"cebpf4jnsgd1na2vs0mg"},{"bike_id":"37212eb8-cfa6-47ba-9ed7-bfed51287466","system_id":"levelo_inurba_marseille","lat":43.31451,"lon":5.37368,"is_reserved":false,"is_disabled":false,"rental_uris":{"android":"levelo://app?vid=37212eb8-cfa6-47ba-9ed7-bfed51287466","ios":"levelo://app?vid=37212eb8-cfa6-47ba-9ed7-bfed51287466"},"vehicle_type_id":"4","last_reported":1731615014,"current_range_meters":37600,"station_id":"ce4bgt12rcd13ifvqcd0","pricing_plan_id":"cebpf4jnsgd1na2vs0mg"},{"bike_id":"0a7a7ac5-f54c-44af-a6b9-bff324764339","system_id":"levelo_inurba_marseille","lat":43.23056,"lon":5.35494,"is_reserved":false,"is_disabled":false,"rental_uris":{"android":"levelo://app?vid=0a7a7ac5-f54c-44af-a6b9-bff324764339","ios":"levelo://app?vid=0a7a7ac5-f54c-44af-a6b9-bff324764339"},"vehicle_type_id":"4","last_reported":1731615014,"current_range_meters":18800,"station_id":"cpo3342slgdg3j2ifvpg","pricing_plan_id":"cebpf4jnsgd1na2vs0mg"},{"bike_id":"bfbb9e65-c500-45cf-a025-1e46492df505","system_id":"levelo_inurba_marseille","lat":43.30136,"lon":5.39874,"is_reserved":false,"is_disabled":false,"rental_uris":{"android":"levelo://app?vid=bfbb9e65-c500-45cf-a025-1e46492df505","ios":"levelo://app?vid=bfbb9e65-c500-45cf-a025-1e46492df505"},"vehicle_type_id":"4","last_reported":1731615014,"current_range_meters":35200,"station_id":"ce4bh0h2rcd13ifvqd40","pricing_plan_id":"cebpf4jnsgd1na2vs0mg"},{"bike_id":"bef7ca68-0ccd-456c-a245-4471193ed987","system_id":"levelo_inurba_marseille","lat":43.26058,"lon":5.3939,"is_reserved":false,"is_disabled":false,"rental_uris":{"android":"levelo://app?vid=bef7ca68-0ccd-456c-a245-4471193ed987","ios":"levelo://app?vid=bef7ca68-0ccd-456c-a245-4471193ed987"},"vehicle_type_id":"4","last_reported":1731615014,"current_range_meters":38800,"station_id":"ce4bhh92rcd13ifvqfj0","pricing_plan_id":"cebpf4jnsgd1na2vs0mg"},{"bike_id":"ad3689c7-f80e-4e87-bb45-8b7a3995a15c","system_id":"levelo_inurba_marseille","lat":43.29054,"lon":5.35915,"is_reserved":false,"is_disabled":false,"rental_uris":{"android":"levelo://app?vid=ad3689c7-f80e-4e87-bb45-8b7a3995a15c","ios":"levelo://app?vid=ad3689c7-f80e-4e87-bb45-8b7a3995a15c"},"vehicle_type_id":"4","last_reported":1731615014,"current_range_meters":19200,"station_id":"ce4bha92rcd13ifvqeg0","pricing_plan_id":"cebpf4jnsgd1na2vs0mg"},{"bike_id":"cf948389-654f-49de-96a9-5976fdbf275a","system_id":"levelo_inurba_marseille","lat":43.30641,"lon":5.40071,"is_reserved":false,"is_disabled":false,"rental_uris":{"android":"levelo://app?vid=cf948389-654f-49de-96a9-5976fdbf275a","ios":"levelo://app?vid=cf948389-654f-49de-96a9-5976fdbf275a"},"vehicle_type_id":"4","last_reported":1731615014,"current_range_meters":28400,"station_id":"ce4bh112rcd13ifvqda0","pricing_plan_id":"cebpf4jnsgd1na2vs0mg"},{"bike_id":"206137e3-505f-4c07-8db9-b4dea21fdc42","system_id":"levelo_inurba_marseille","lat":43.28661,"lon":5.36347,"is_reserved":false,"is_disabled":false,"rental_uris":{"android":"levelo://app?vid=206137e3-505f-4c07-8db9-b4dea21fdc42","ios":"levelo://app?vid=206137e3-505f-4c07-8db9-b4dea21fdc42"},"vehicle_type_id":"4","last_reported":1731615014,"current_range_meters":6400,"station_id":"ce4bhah2rcd13ifvqej0","pricing_plan_id":"cebpf4jnsgd1na2vs0mg"},{"bike_id":"366cfb73-f810-4c90-999d-a691fedac1aa","system_id":"levelo_inurba_marseille","lat":43.243866,"lon":5.370611,"is_reserved":false,"is_disabled":false,"rental_uris":{"android":"levelo://app?vid=366cfb73-f810-4c90-999d-a691fedac1aa","ios":"levelo://app?vid=366cfb73-f810-4c90-999d-a691fedac1aa"},"vehicle_type_id":"4","last_reported":1731615014,"current_range_meters":3600,"station_id":"ce4bhhh2rcd13ifvqfk0","pricing_plan_id":"cebpf4jnsgd1na2vs0mg"},{"bike_id":"5a2acb69-f891-49c4-bac0-58743bd3450c","system_id":"levelo_inurba_marseille","lat":43.33714,"lon":5.39178,"is_reserved":false,"is_disabled":false,"rental_uris":{"android":"levelo://app?vid=5a2acb69-f891-49c4-bac0-58743bd3450c","ios":"levelo://app?vid=5a2acb69-f891-49c4-bac0-58743bd3450c"},"vehicle_type_id":"4","last_reported":1731615014,"current_range_meters":35600,"station_id":"ce4bhr92rcd13ifvqhsg","pricing_plan_id":"cebpf4jnsgd1na2vs0mg"},{"bike_id":"aaec841f-2a7c-4d64-8722-c25c02ca7092","system_id":"levelo_inurba_marseille","lat":43.23784,"lon":5.43055,"is_reserved":false,"is_disabled":false,"rental_uris":{"android":"levelo://app?vid=aaec841f-2a7c-4d64-8722-c25c02ca7092","ios":"levelo://app?vid=aaec841f-2a7c-4d64-8722-c25c02ca7092"},"vehicle_type_id":"4","last_reported":1731615014,"current_range_meters":36400,"station_id":"","pricing_plan_id":"cebpf4jnsgd1na2vs0mg"},{"bike_id":"d8d9769c-5795-43ab-a6b5-351abc0ce424","system_id":"levelo_inurba_marseille","lat":43.30933,"lon":5.40137,"is_reserved":false,"is_disabled":false,"rental_uris":{"android":"levelo://app?vid=d8d9769c-5795-43ab-a6b5-351abc0ce424","ios":"levelo://app?vid=d8d9769c-5795-43ab-a6b5-351abc0ce424"},"vehicle_type_id":"4","last_reported":1731615014,"current_range_meters":29600,"station_id":"ce4bgvp2rcd13ifvqct0","pricing_plan_id":"cebpf4jnsgd1na2vs0mg"},{"bike_id":"6d757fef-4f26-43f9-ac2c-ffab39bf7dae","system_id":"levelo_inurba_marseille","lat":43.32249,"lon":5.36901,"is_reserved":false,"is_disabled":false,"rental_uris":{"android":"levelo://app?vid=6d757fef-4f26-43f9-ac2c-ffab39bf7dae","ios":"levelo://app?vid=6d757fef-4f26-43f9-ac2c-ffab39bf7dae"},"vehicle_type_id":"4","last_reported":1731615014,"current_range_meters":27600,"station_id":"","pricing_plan_id":"cebpf4jnsgd1na2vs0mg"},{"bike_id":"5472ae20-beb3-4230-a71f-39ee5e6f6d72","system_id":"levelo_inurba_marseille","lat":43.29531,"lon":5.38533,"is_reserved":false,"is_disabled":false,"rental_uris":{"android":"levelo://app?vid=5472ae20-beb3-4230-a71f-39ee5e6f6d72","ios":"levelo://app?vid=5472ae20-beb3-4230-a71f-39ee5e6f6d72"},"vehicle_type_id":"4","last_reported":1731615014,"current_range_meters":33200,"station_id":"ce4bgih2rcd13ifvqba0","pricing_plan_id":"cebpf4jnsgd1na2vs0mg"},{"bike_id":"8c07a7e9-e558-4809-b4b8-faa040c34081","system_id":"levelo_inurba_marseille","lat":43.33026,"lon":5.39043,"is_reserved":false,"is_disabled":false,"rental_uris":{"android":"levelo://app?vid=8c07a7e9-e558-4809-b4b8-faa040c34081","ios":"levelo://app?vid=8c07a7e9-e558-4809-b4b8-faa040c34081"},"vehicle_type_id":"4","last_reported":1731615014,"current_range_meters":2800,"station_id":"ce4bhr92rcd13ifvqhrg","pricing_plan_id":"cebpf4jnsgd1na2vs0mg"},{"bike_id":"eb9dec63-e55c-410d-b274-177b661e1091","system_id":"levelo_inurba_marseille","lat":43.29791,"lon":5.38094,"is_reserved":false,"is_disabled":false,"rental_uris":{"android":"levelo://app?vid=eb9dec63-e55c-410d-b274-177b661e1091","ios":"levelo://app?vid=eb9dec63-e55c-410d-b274-177b661e1091"},"vehicle_type_id":"4","last_reported":1731615014,"current_range_meters":36800,"station_id":"ce4bgip2rcd13ifvqbb0","pricing_plan_id":"cebpf4jnsgd1na2vs0mg"},{"bike_id":"625e1693-e210-4796-9ba4-a89bb9e5236c","system_id":"levelo_inurba_marseille","lat":43.28727,"lon":5.36084,"is_reserved":false,"is_disabled":false,"rental_uris":{"android":"levelo://app?vid=625e1693-e210-4796-9ba4-a89bb9e5236c","ios":"levelo://app?vid=625e1693-e210-4796-9ba4-a89bb9e5236c"},"vehicle_type_id":"4","last_reported":1731615014,"current_range_meters":33600,"station_id":"cki0cbj6b192h4jlfktg","pricing_plan_id":"cebpf4jnsgd1na2vs0mg"},{"bike_id":"d74794cf-9155-4fd3-b5ad-205812a65d29","system_id":"levelo_inurba_marseille","lat":43.29975,"lon":5.38486,"is_reserved":false,"is_disabled":false,"rental_uris":{"android":"levelo://app?vid=d74794cf-9155-4fd3-b5ad-205812a65d29","ios":"levelo://app?vid=d74794cf-9155-4fd3-b5ad-205812a65d29"},"vehicle_type_id":"4","last_reported":1731615014,"current_range_meters":38800,"station_id":"ce4bgj92rcd13ifvqbd0","pricing_plan_id":"cebpf4jnsgd1na2vs0mg"},{"bike_id":"8f6396f2-9266-4012-9a5c-6aa994c38b46","system_id":"levelo_inurba_marseille","lat":43.30256,"lon":5.40073,"is_reserved":false,"is_disabled":false,"rental_uris":{"android":"levelo://app?vid=8f6396f2-9266-4012-9a5c-6aa994c38b46","ios":"levelo://app?vid=8f6396f2-9266-4012-9a5c-6aa994c38b46"},"vehicle_type_id":"4","last_reported":1731615014,"current_range_meters":38800,"station_id":"ce4bgvh2rcd13ifvqcs0","pricing_plan_id":"cebpf4jnsgd1na2vs0mg"},{"bike_id":"ea47ca18-313a-43f8-8ad8-476eed15f317","system_id":"levelo_inurba_marseille","lat":43.291901,"lon":5.385097,"is_reserved":false,"is_disabled":false,"rental_uris":{"android":"levelo://app?vid=ea47ca18-313a-43f8-8ad8-476eed15f317","ios":"levelo://app?vid=ea47ca18-313a-43f8-8ad8-476eed15f317"},"vehicle_type_id":"4","last_reported":1731615014,"current_range_meters":39200,"station_id":"ce4bh4p2rcd13ifvqe0g","pricing_plan_id":"cebpf4jnsgd1na2vs0mg"},{"bike_id":"678822ad-9eba-4e9b-ad02-5a5acd867df4","system_id":"levelo_inurba_marseille","lat":43.29908,"lon":5.38153,"is_reserved":false,"is_disabled":false,"rental_uris":{"android":"levelo://app?vid=678822ad-9eba-4e9b-ad02-5a5acd867df4","ios":"levelo://app?vid=678822ad-9eba-4e9b-ad02-5a5acd867df4"},"vehicle_type_id":"4","last_reported":1731615014,"current_range_meters":10800,"station_id":"ce4bgj12rcd13ifvqbc0","pricing_plan_id":"cebpf4jnsgd1na2vs0mg"},{"bike_id":"4fabcc84-c34c-46cf-be25-391a672ebd5f","system_id":"levelo_inurba_marseille","lat":43.31329,"lon":5.39693,"is_reserved":false,"is_disabled":false,"rental_uris":{"android":"levelo://app?vid=4fabcc84-c34c-46cf-be25-391a672ebd5f","ios":"levelo://app?vid=4fabcc84-c34c-46cf-be25-391a672ebd5f"},"vehicle_type_id":"4","last_reported":1731615014,"current_range_meters":38000,"station_id":"ce4bgvp2rcd13ifvqcu0","pricing_plan_id":"cebpf4jnsgd1na2vs0mg"},{"bike_id":"ce193cbf-7319-45e9-9e0d-dc0685ba2ca5","system_id":"levelo_inurba_marseille","lat":43.29301,"lon":5.37176,"is_reserved":false,"is_disabled":false,"rental_uris":{"android":"levelo://app?vid=ce193cbf-7319-45e9-9e0d-dc0685ba2ca5","ios":"levelo://app?vid=ce193cbf-7319-45e9-9e0d-dc0685ba2ca5"},"vehicle_type_id":"4","last_reported":1731615014,"current_range_meters":35600,"station_id":"ce4bgh92rcd13ifvqb40","pricing_plan_id":"cebpf4jnsgd1na2vs0mg"},{"bike_id":"25166272-a2e4-426f-8bd1-827ffbe55e39","system_id":"levelo_inurba_marseille","lat":43.31331,"lon":5.39697,"is_reserved":false,"is_disabled":false,"rental_uris":{"android":"levelo://app?vid=25166272-a2e4-426f-8bd1-827ffbe55e39","ios":"levelo://app?vid=25166272-a2e4-426f-8bd1-827ffbe55e39"},"vehicle_type_id":"4","last_reported":1731615014,"current_range_meters":21600,"station_id":"ce4bgvp2rcd13ifvqcu0","pricing_plan_id":"cebpf4jnsgd1na2vs0mg"},{"bike_id":"2ba01715-3170-4a7e-ae00-4a8868ac1042","system_id":"levelo_inurba_marseille","lat":43.25088,"lon":5.39512,"is_reserved":false,"is_disabled":false,"rental_uris":{"android":"levelo://app?vid=2ba01715-3170-4a7e-ae00-4a8868ac1042","ios":"levelo://app?vid=2ba01715-3170-4a7e-ae00-4a8868ac1042"},"vehicle_type_id":"4","last_reported":1731615014,"current_range_meters":27600,"station_id":"ce4bhm12rcd13ifvqgkg","pricing_plan_id":"cebpf4jnsgd1na2vs0mg"},{"bike_id":"3997b7a2-abaf-43e3-8c55-ad743fc17fe2","system_id":"levelo_inurba_marseille","lat":43.32054,"lon":5.41541,"is_reserved":false,"is_disabled":false,"rental_uris":{"android":"levelo://app?vid=3997b7a2-abaf-43e3-8c55-ad743fc17fe2","ios":"levelo://app?vid=3997b7a2-abaf-43e3-8c55-ad743fc17fe2"},"vehicle_type_id":"4","last_reported":1731615014,"current_range_meters":28400,"station_id":"ce4bhq92rcd13ifvqhkg","pricing_plan_id":"cebpf4jnsgd1na2vs0mg"},{"bike_id":"359db04f-5d69-43c1-b38e-4defe71ed94d","system_id":"levelo_inurba_marseille","lat":43.25864,"lon":5.39902,"is_reserved":false,"is_disabled":false,"rental_uris":{"android":"levelo://app?vid=359db04f-5d69-43c1-b38e-4defe71ed94d","ios":"levelo://app?vid=359db04f-5d69-43c1-b38e-4defe71ed94d"},"vehicle_type_id":"4","last_reported":1731615014,"current_range_meters":38800,"station_id":"ce4bhl92rcd13ifvqghg","pricing_plan_id":"cebpf4jnsgd1na2vs0mg"},{"bike_id":"3a0896cf-c6bf-4008-82b5-080293a13f93","system_id":"levelo_inurba_marseille","lat":43.29261,"lon":5.38436,"is_reserved":false,"is_disabled":false,"rental_uris":{"android":"levelo://app?vid=3a0896cf-c6bf-4008-82b5-080293a13f93","ios":"levelo://app?vid=3a0896cf-c6bf-4008-82b5-080293a13f93"},"vehicle_type_id":"4","last_reported":1731615014,"current_range_meters":28400,"station_id":"ce4bh692rcd13ifvqea0","pricing_plan_id":"cebpf4jnsgd1na2vs0mg"},{"bike_id":"3af5230d-21db-48d0-8884-9610ea6ca601","system_id":"levelo_inurba_marseille","lat":43.3089,"lon":5.39645,"is_reserved":false,"is_disabled":false,"rental_uris":{"android":"levelo://app?vid=3af5230d-21db-48d0-8884-9610ea6ca601","ios":"levelo://app?vid=3af5230d-21db-48d0-8884-9610ea6ca601"},"vehicle_type_id":"4","last_reported":1731615014,"current_range_meters":28400,"station_id":"ce4bh012rcd13ifvqcv0","pricing_plan_id":"cebpf4jnsgd1na2vs0mg"},{"bike_id":"ad4adb41-9857-427d-8450-c734cc85b634","system_id":"levelo_inurba_marseille","lat":43.31714,"lon":5.43709,"is_reserved":false,"is_disabled":false,"rental_uris":{"android":"levelo://app?vid=ad4adb41-9857-427d-8450-c734cc85b634","ios":"levelo://app?vid=ad4adb41-9857-427d-8450-c734cc85b634"},"vehicle_type_id":"4","last_reported":1731615014,"current_range_meters":38000,"station_id":"ce4bhp92rcd13ifvqhcg","pricing_plan_id":"cebpf4jnsgd1na2vs0mg"},{"bike_id":"219d0747-300d-4861-82d5-eff3a2a68773","system_id":"levelo_inurba_marseille","lat":43.31688,"lon":5.40475,"is_reserved":false,"is_disabled":false,"rental_uris":{"android":"levelo://app?vid=219d0747-300d-4861-82d5-eff3a2a68773","ios":"levelo://app?vid=219d0747-300d-4861-82d5-eff3a2a68773"},"vehicle_type_id":"4","last_reported":1731615014,"current_range_meters":21600,"station_id":"ce4bh012rcd13ifvqd00","pricing_plan_id":"cebpf4jnsgd1na2vs0mg"},{"bike_id":"a4c0b782-d654-44e3-bf31-ac507e118897","system_id":"levelo_inurba_marseille","lat":43.29044,"lon":5.3591,"is_reserved":false,"is_disabled":false,"rental_uris":{"android":"levelo://app?vid=a4c0b782-d654-44e3-bf31-ac507e118897","ios":"levelo://app?vid=a4c0b782-d654-44e3-bf31-ac507e118897"},"vehicle_type_id":"4","last_reported":1731615014,"current_range_meters":22000,"station_id":"ce4bha92rcd13ifvqeg0","pricing_plan_id":"cebpf4jnsgd1na2vs0mg"},{"bike_id":"ad9e5643-959a-4636-935c-2a6093955f09","system_id":"levelo_inurba_marseille","lat":43.26201,"lon":5.37924,"is_reserved":false,"is_disabled":false,"rental_uris":{"android":"levelo://app?vid=ad9e5643-959a-4636-935c-2a6093955f09","ios":"levelo://app?vid=ad9e5643-959a-4636-935c-2a6093955f09"},"vehicle_type_id":"4","last_reported":1731615014,"current_range_meters":30000,"station_id":"ce4bhjp2rcd13ifvqg90","pricing_plan_id":"cebpf4jnsgd1na2vs0mg"},{"bike_id":"6290061e-7002-4bed-8242-03e0a269a134","system_id":"levelo_inurba_marseille","lat":43.30326,"lon":5.40441,"is_reserved":false,"is_disabled":false,"rental_uris":{"android":"levelo://app?vid=6290061e-7002-4bed-8242-03e0a269a134","ios":"levelo://app?vid=6290061e-7002-4bed-8242-03e0a269a134"},"vehicle_type_id":"4","last_reported":1731615014,"current_range_meters":27600,"station_id":"ce4bh012rcd13ifvqd10","pricing_plan_id":"cebpf4jnsgd1na2vs0mg"},{"bike_id":"021ab24c-2a0d-440d-8e09-9e35589bcbc7","system_id":"levelo_inurba_marseille","lat":43.28003,"lon":5.40012,"is_reserved":false,"is_disabled":false,"rental_uris":{"android":"levelo://app?vid=021ab24c-2a0d-440d-8e09-9e35589bcbc7","ios":"levelo://app?vid=021ab24c-2a0d-440d-8e09-9e35589bcbc7"},"vehicle_type_id":"4","last_reported":1731615014,"current_range_meters":32400,"station_id":"ce4bho92rcd13ifvqh4g","pricing_plan_id":"cebpf4jnsgd1na2vs0mg"},{"bike_id":"6f45bdb5-bfdc-40f2-a38c-f51a93e95c83","system_id":"levelo_inurba_marseille","lat":43.25825,"lon":5.3943,"is_reserved":false,"is_disabled":false,"rental_uris":{"android":"levelo://app?vid=6f45bdb5-bfdc-40f2-a38c-f51a93e95c83","ios":"levelo://app?vid=6f45bdb5-bfdc-40f2-a38c-f51a93e95c83"},"vehicle_type_id":"4","last_reported":1731615014,"current_range_meters":8800,"station_id":"ce4bhip2rcd13ifvqft0","pricing_plan_id":"cebpf4jnsgd1na2vs0mg"},{"bike_id":"9eb04e46-e5fa-486b-9fbd-952aec939cd2","system_id":"levelo_inurba_marseille","lat":43.29565,"lon":5.39971,"is_reserved":false,"is_disabled":false,"rental_uris":{"android":"levelo://app?vid=9eb04e46-e5fa-486b-9fbd-952aec939cd2","ios":"levelo://app?vid=9eb04e46-e5fa-486b-9fbd-952aec939cd2"},"vehicle_type_id":"4","last_reported":1731615014,"current_range_meters":16800,"station_id":"ce4bh312rcd13ifvqdj0","pricing_plan_id":"cebpf4jnsgd1na2vs0mg"},{"bike_id":"8e12737c-b68e-4dc9-a8c9-536f660541a7","system_id":"levelo_inurba_marseille","lat":43.28455,"lon":5.35901,"is_reserved":false,"is_disabled":false,"rental_uris":{"android":"levelo://app?vid=8e12737c-b68e-4dc9-a8c9-536f660541a7","ios":"levelo://app?vid=8e12737c-b68e-4dc9-a8c9-536f660541a7"},"vehicle_type_id":"4","last_reported":1731615014,"current_range_meters":19600,"station_id":"ce4bhah2rcd13ifvqei0","pricing_plan_id":"cebpf4jnsgd1na2vs0mg"},{"bike_id":"37f52798-cde3-4570-a5d2-b0908bfd3884","system_id":"levelo_inurba_marseille","lat":43.25084,"lon":5.39513,"is_reserved":false,"is_disabled":false,"rental_uris":{"android":"levelo://app?vid=37f52798-cde3-4570-a5d2-b0908bfd3884","ios":"levelo://app?vid=37f52798-cde3-4570-a5d2-b0908bfd3884"},"vehicle_type_id":"4","last_reported":1731615014,"current_range_meters":24000,"station_id":"ce4bhm12rcd13ifvqgkg","pricing_plan_id":"cebpf4jnsgd1na2vs0mg"},{"bike_id":"cfd4cbce-1cd8-4d55-ba0c-7ddb1923aa1d","system_id":"levelo_inurba_marseille","lat":43.29676,"lon":5.37295,"is_reserved":false,"is_disabled":false,"rental_uris":{"android":"levelo://app?vid=cfd4cbce-1cd8-4d55-ba0c-7ddb1923aa1d","ios":"levelo://app?vid=cfd4cbce-1cd8-4d55-ba0c-7ddb1923aa1d"},"vehicle_type_id":"4","last_reported":1731615014,"current_range_meters":4800,"station_id":"ce4bgk12rcd13ifvqbj0","pricing_plan_id":"cebpf4jnsgd1na2vs0mg"},{"bike_id":"8c487dea-72dd-45c8-9a79-720151b0d48b","system_id":"levelo_inurba_marseille","lat":43.3108,"lon":5.38362,"is_reserved":false,"is_disabled":false,"rental_uris":{"android":"levelo://app?vid=8c487dea-72dd-45c8-9a79-720151b0d48b","ios":"levelo://app?vid=8c487dea-72dd-45c8-9a79-720151b0d48b"},"vehicle_type_id":"4","last_reported":1731615014,"current_range_meters":22400,"station_id":"ce4bgv92rcd13ifvqcr0","pricing_plan_id":"cebpf4jnsgd1na2vs0mg"},{"bike_id":"67acd962-61fe-4c41-93b6-69cf808e27bd","system_id":"levelo_inurba_marseille","lat":43.31996,"lon":5.38177,"is_reserved":false,"is_disabled":false,"rental_uris":{"android":"levelo://app?vid=67acd962-61fe-4c41-93b6-69cf808e27bd","ios":"levelo://app?vid=67acd962-61fe-4c41-93b6-69cf808e27bd"},"vehicle_type_id":"4","last_reported":1731615014,"current_range_meters":23200,"station_id":"ce4bhr12rcd13ifvqhpg","pricing_plan_id":"cebpf4jnsgd1na2vs0mg"},{"bike_id":"640207e3-5a4f-4e4a-b501-a9221acbed5f","system_id":"levelo_inurba_marseille","lat":43.30081,"lon":5.39076,"is_reserved":false,"is_disabled":false,"rental_uris":{"android":"levelo://app?vid=640207e3-5a4f-4e4a-b501-a9221acbed5f","ios":"levelo://app?vid=640207e3-5a4f-4e4a-b501-a9221acbed5f"},"vehicle_type_id":"4","last_reported":1731615014,"current_range_meters":21600,"station_id":"ce4bh192rcd13ifvqdb0","pricing_plan_id":"cebpf4jnsgd1na2vs0mg"},{"bike_id":"ae392e5f-25ce-4d0e-9ce3-1e2a8bf46846","system_id":"levelo_inurba_marseille","lat":43.27807,"lon":5.4071,"is_reserved":false,"is_disabled":false,"rental_uris":{"android":"levelo://app?vid=ae392e5f-25ce-4d0e-9ce3-1e2a8bf46846","ios":"levelo://app?vid=ae392e5f-25ce-4d0e-9ce3-1e2a8bf46846"},"vehicle_type_id":"4","last_reported":1731615014,"current_range_meters":29600,"station_id":"ce4bhnh2rcd13ifvqgtg","pricing_plan_id":"cebpf4jnsgd1na2vs0mg"},{"bike_id":"cb467d32-bc70-4425-a9b2-6a02a10bdeec","system_id":"levelo_inurba_marseille","lat":43.29095,"lon":5.38145,"is_reserved":false,"is_disabled":false,"rental_uris":{"android":"levelo://app?vid=cb467d32-bc70-4425-a9b2-6a02a10bdeec","ios":"levelo://app?vid=cb467d32-bc70-4425-a9b2-6a02a10bdeec"},"vehicle_type_id":"4","last_reported":1731615014,"current_range_meters":32000,"station_id":"ce4bh512rcd13ifvqe2g","pricing_plan_id":"cebpf4jnsgd1na2vs0mg"},{"bike_id":"af9cb82e-69ea-432a-90dc-068fecce9fe2","system_id":"levelo_inurba_marseille","lat":43.287292,"lon":5.361038,"is_reserved":false,"is_disabled":false,"rental_uris":{"android":"levelo://app?vid=af9cb82e-69ea-432a-90dc-068fecce9fe2","ios":"levelo://app?vid=af9cb82e-69ea-432a-90dc-068fecce9fe2"},"vehicle_type_id":"4","last_reported":1731615014,"current_range_meters":9200,"station_id":"cki0cbj6b192h4jlfktg","pricing_plan_id":"cebpf4jnsgd1na2vs0mg"},{"bike_id":"06a8209f-64d3-46bd-83d2-483209754eff","system_id":"levelo_inurba_marseille","lat":43.24181,"lon":5.39728,"is_reserved":false,"is_disabled":false,"rental_uris":{"android":"levelo://app?vid=06a8209f-64d3-46bd-83d2-483209754eff","ios":"levelo://app?vid=06a8209f-64d3-46bd-83d2-483209754eff"},"vehicle_type_id":"4","last_reported":1731615014,"current_range_meters":6800,"station_id":"ce4bhn12rcd13ifvqgpg","pricing_plan_id":"cebpf4jnsgd1na2vs0mg"},{"bike_id":"1311c692-6e9d-4afb-b7b0-20686564fe7a","system_id":"levelo_inurba_marseille","lat":43.337444,"lon":5.374475,"is_reserved":false,"is_disabled":false,"rental_uris":{"android":"levelo://app?vid=1311c692-6e9d-4afb-b7b0-20686564fe7a","ios":"levelo://app?vid=1311c692-6e9d-4afb-b7b0-20686564fe7a"},"vehicle_type_id":"4","last_reported":1731615014,"current_range_meters":31200,"station_id":"","pricing_plan_id":"cebpf4jnsgd1na2vs0mg"},{"bike_id":"db1e028f-e002-4d9e-8869-9e460843a241","system_id":"levelo_inurba_marseille","lat":43.30326,"lon":5.40432,"is_reserved":false,"is_disabled":false,"rental_uris":{"android":"levelo://app?vid=db1e028f-e002-4d9e-8869-9e460843a241","ios":"levelo://app?vid=db1e028f-e002-4d9e-8869-9e460843a241"},"vehicle_type_id":"4","last_reported":1731615014,"current_range_meters":38000,"station_id":"ce4bh012rcd13ifvqd10","pricing_plan_id":"cebpf4jnsgd1na2vs0mg"},{"bike_id":"db79510e-58e6-4d69-a4d0-b02a58fdb1f1","system_id":"levelo_inurba_marseille","lat":43.23957,"lon":5.36628,"is_reserved":false,"is_disabled":false,"rental_uris":{"android":"levelo://app?vid=db79510e-58e6-4d69-a4d0-b02a58fdb1f1","ios":"levelo://app?vid=db79510e-58e6-4d69-a4d0-b02a58fdb1f1"},"vehicle_type_id":"4","last_reported":1731615014,"current_range_meters":36000,"station_id":"ce4bhi12rcd13ifvqfp0","pricing_plan_id":"cebpf4jnsgd1na2vs0mg"},{"bike_id":"abefe260-acd8-4795-8867-0823dbbf0c80","system_id":"levelo_inurba_marseille","lat":43.30135,"lon":5.38781,"is_reserved":false,"is_disabled":false,"rental_uris":{"android":"levelo://app?vid=abefe260-acd8-4795-8867-0823dbbf0c80","ios":"levelo://app?vid=abefe260-acd8-4795-8867-0823dbbf0c80"},"vehicle_type_id":"4","last_reported":1731615014,"current_range_meters":26800,"station_id":"ce4bghh2rcd13ifvqb60","pricing_plan_id":"cebpf4jnsgd1na2vs0mg"},{"bike_id":"70d20d8f-1109-4c5b-86e9-c9e4cb8476ac","system_id":"levelo_inurba_marseille","lat":43.29867,"lon":5.39732,"is_reserved":false,"is_disabled":false,"rental_uris":{"android":"levelo://app?vid=70d20d8f-1109-4c5b-86e9-c9e4cb8476ac","ios":"levelo://app?vid=70d20d8f-1109-4c5b-86e9-c9e4cb8476ac"},"vehicle_type_id":"4","last_reported":1731615014,"current_range_meters":10000,"station_id":"ce4bh0h2rcd13ifvqd50","pricing_plan_id":"cebpf4jnsgd1na2vs0mg"},{"bike_id":"2d8097f0-c649-4d2e-9561-9261c865e927","system_id":"levelo_inurba_marseille","lat":43.282629,"lon":5.350659,"is_reserved":false,"is_disabled":false,"rental_uris":{"android":"levelo://app?vid=2d8097f0-c649-4d2e-9561-9261c865e927","ios":"levelo://app?vid=2d8097f0-c649-4d2e-9561-9261c865e927"},"vehicle_type_id":"4","last_reported":1731615014,"current_range_meters":6400,"station_id":"ce4bhbp2rcd13ifvqerg","pricing_plan_id":"cebpf4jnsgd1na2vs0mg"},{"bike_id":"f6e63c56-e76b-4e7f-9c35-ff272f3e7c44","system_id":"levelo_inurba_marseille","lat":43.27811,"lon":5.40711,"is_reserved":false,"is_disabled":false,"rental_uris":{"android":"levelo://app?vid=f6e63c56-e76b-4e7f-9c35-ff272f3e7c44","ios":"levelo://app?vid=f6e63c56-e76b-4e7f-9c35-ff272f3e7c44"},"vehicle_type_id":"4","last_reported":1731615014,"current_range_meters":38000,"station_id":"ce4bhnh2rcd13ifvqgtg","pricing_plan_id":"cebpf4jnsgd1na2vs0mg"},{"bike_id":"89a4f3a7-f5e2-48e0-bc38-fa0b2051d76a","system_id":"levelo_inurba_marseille","lat":43.31235,"lon":5.36869,"is_reserved":false,"is_disabled":false,"rental_uris":{"android":"levelo://app?vid=89a4f3a7-f5e2-48e0-bc38-fa0b2051d76a","ios":"levelo://app?vid=89a4f3a7-f5e2-48e0-bc38-fa0b2051d76a"},"vehicle_type_id":"4","last_reported":1731615014,"current_range_meters":14800,"station_id":"ce4bgl92rcd13ifvqbq0","pricing_plan_id":"cebpf4jnsgd1na2vs0mg"},{"bike_id":"1db7e47b-80a0-46fa-b3dc-cc5c159bde15","system_id":"levelo_inurba_marseille","lat":43.31086,"lon":5.42439,"is_reserved":false,"is_disabled":false,"rental_uris":{"android":"levelo://app?vid=1db7e47b-80a0-46fa-b3dc-cc5c159bde15","ios":"levelo://app?vid=1db7e47b-80a0-46fa-b3dc-cc5c159bde15"},"vehicle_type_id":"4","last_reported":1731615014,"current_range_meters":25600,"station_id":"ce4bhp92rcd13ifvqhag","pricing_plan_id":"cebpf4jnsgd1na2vs0mg"},{"bike_id":"977af0f2-6f76-437b-ad78-b52e22da1904","system_id":"levelo_inurba_marseille","lat":43.28479,"lon":5.38417,"is_reserved":false,"is_disabled":false,"rental_uris":{"android":"levelo://app?vid=977af0f2-6f76-437b-ad78-b52e22da1904","ios":"levelo://app?vid=977af0f2-6f76-437b-ad78-b52e22da1904"},"vehicle_type_id":"4","last_reported":1731615014,"current_range_meters":6800,"station_id":"ce4bh512rcd13ifvqe3g","pricing_plan_id":"cebpf4jnsgd1na2vs0mg"},{"bike_id":"66b660be-48e6-4f9a-a51b-52751d520bbc","system_id":"levelo_inurba_marseille","lat":43.29264,"lon":5.38439,"is_reserved":false,"is_disabled":false,"rental_uris":{"android":"levelo://app?vid=66b660be-48e6-4f9a-a51b-52751d520bbc","ios":"levelo://app?vid=66b660be-48e6-4f9a-a51b-52751d520bbc"},"vehicle_type_id":"4","last_reported":1731615014,"current_range_meters":32000,"station_id":"ce4bh692rcd13ifvqea0","pricing_plan_id":"cebpf4jnsgd1na2vs0mg"},{"bike_id":"a6b8c285-acc9-4039-9531-1aae39136a33","system_id":"levelo_inurba_marseille","lat":43.312042,"lon":5.367348,"is_reserved":false,"is_disabled":false,"rental_uris":{"android":"levelo://app?vid=a6b8c285-acc9-4039-9531-1aae39136a33","ios":"levelo://app?vid=a6b8c285-acc9-4039-9531-1aae39136a33"},"vehicle_type_id":"4","last_reported":1731615014,"current_range_meters":22400,"station_id":"","pricing_plan_id":"cebpf4jnsgd1na2vs0mg"},{"bike_id":"969fc660-e18c-47b7-beed-36ead3f43ca6","system_id":"levelo_inurba_marseille","lat":43.28459,"lon":5.35889,"is_reserved":false,"is_disabled":false,"rental_uris":{"android":"levelo://app?vid=969fc660-e18c-47b7-beed-36ead3f43ca6","ios":"levelo://app?vid=969fc660-e18c-47b7-beed-36ead3f43ca6"},"vehicle_type_id":"4","last_reported":1731615014,"current_range_meters":14000,"station_id":"ce4bhah2rcd13ifvqei0","pricing_plan_id":"cebpf4jnsgd1na2vs0mg"},{"bike_id":"c5d0194e-34c9-4d5b-9425-62c78e5d0cfb","system_id":"levelo_inurba_marseille","lat":43.24179,"lon":5.39729,"is_reserved":false,"is_disabled":false,"rental_uris":{"android":"levelo://app?vid=c5d0194e-34c9-4d5b-9425-62c78e5d0cfb","ios":"levelo://app?vid=c5d0194e-34c9-4d5b-9425-62c78e5d0cfb"},"vehicle_type_id":"4","last_reported":1731615014,"current_range_meters":8400,"station_id":"ce4bhn12rcd13ifvqgpg","pricing_plan_id":"cebpf4jnsgd1na2vs0mg"},{"bike_id":"31e215c2-7dd6-45e6-9b1e-64fa63bf89c1","system_id":"levelo_inurba_marseille","lat":43.2509,"lon":5.39506,"is_reserved":false,"is_disabled":false,"rental_uris":{"android":"levelo://app?vid=31e215c2-7dd6-45e6-9b1e-64fa63bf89c1","ios":"levelo://app?vid=31e215c2-7dd6-45e6-9b1e-64fa63bf89c1"},"vehicle_type_id":"4","last_reported":1731615014,"current_range_meters":5600,"station_id":"ce4bhm12rcd13ifvqgkg","pricing_plan_id":"cebpf4jnsgd1na2vs0mg"},{"bike_id":"3c4efd2f-3952-4f43-bc5f-5c06153b1ebb","system_id":"levelo_inurba_marseille","lat":43.30324,"lon":5.40431,"is_reserved":false,"is_disabled":false,"rental_uris":{"android":"levelo://app?vid=3c4efd2f-3952-4f43-bc5f-5c06153b1ebb","ios":"levelo://app?vid=3c4efd2f-3952-4f43-bc5f-5c06153b1ebb"},"vehicle_type_id":"4","last_reported":1731615014,"current_range_meters":19600,"station_id":"ce4bh012rcd13ifvqd10","pricing_plan_id":"cebpf4jnsgd1na2vs0mg"},{"bike_id":"b9916238-6860-4e40-a31b-eb86b789d0e1","system_id":"levelo_inurba_marseille","lat":43.24169,"lon":5.39744,"is_reserved":false,"is_disabled":false,"rental_uris":{"android":"levelo://app?vid=b9916238-6860-4e40-a31b-eb86b789d0e1","ios":"levelo://app?vid=b9916238-6860-4e40-a31b-eb86b789d0e1"},"vehicle_type_id":"4","last_reported":1731615014,"current_range_meters":28000,"station_id":"ce4bhn12rcd13ifvqgpg","pricing_plan_id":"cebpf4jnsgd1na2vs0mg"},{"bike_id":"9e8a2197-2591-41ec-b7ea-aa0a532fba54","system_id":"levelo_inurba_marseille","lat":43.29976,"lon":5.38489,"is_reserved":false,"is_disabled":false,"rental_uris":{"android":"levelo://app?vid=9e8a2197-2591-41ec-b7ea-aa0a532fba54","ios":"levelo://app?vid=9e8a2197-2591-41ec-b7ea-aa0a532fba54"},"vehicle_type_id":"4","last_reported":1731615014,"current_range_meters":38800,"station_id":"ce4bgj92rcd13ifvqbd0","pricing_plan_id":"cebpf4jnsgd1na2vs0mg"},{"bike_id":"d9e1dd85-c394-4dd3-9340-e027e6a5fde3","system_id":"levelo_inurba_marseille","lat":43.279936,"lon":5.399987,"is_reserved":false,"is_disabled":false,"rental_uris":{"android":"levelo://app?vid=d9e1dd85-c394-4dd3-9340-e027e6a5fde3","ios":"levelo://app?vid=d9e1dd85-c394-4dd3-9340-e027e6a5fde3"},"vehicle_type_id":"4","last_reported":1731615014,"current_range_meters":38800,"station_id":"ce4bho92rcd13ifvqh4g","pricing_plan_id":"cebpf4jnsgd1na2vs0mg"},{"bike_id":"879f740e-39af-4607-a7ca-8badcfb5ddec","system_id":"levelo_inurba_marseille","lat":43.29907,"lon":5.38157,"is_reserved":false,"is_disabled":false,"rental_uris":{"android":"levelo://app?vid=879f740e-39af-4607-a7ca-8badcfb5ddec","ios":"levelo://app?vid=879f740e-39af-4607-a7ca-8badcfb5ddec"},"vehicle_type_id":"4","last_reported":1731615014,"current_range_meters":35600,"station_id":"ce4bgj12rcd13ifvqbc0","pricing_plan_id":"cebpf4jnsgd1na2vs0mg"},{"bike_id":"02cc09a1-e677-4fdb-b09e-6c4d27131bb4","system_id":"levelo_inurba_marseille","lat":43.28929,"lon":5.38388,"is_reserved":false,"is_disabled":false,"rental_uris":{"android":"levelo://app?vid=02cc09a1-e677-4fdb-b09e-6c4d27131bb4","ios":"levelo://app?vid=02cc09a1-e677-4fdb-b09e-6c4d27131bb4"},"vehicle_type_id":"4","last_reported":1731615014,"current_range_meters":38800,"station_id":"ce4bh612rcd13ifvqe6g","pricing_plan_id":"cebpf4jnsgd1na2vs0mg"},{"bike_id":"1ae8fe75-00ad-479b-a755-74d45d76bfbe","system_id":"levelo_inurba_marseille","lat":43.24171,"lon":5.36405,"is_reserved":false,"is_disabled":false,"rental_uris":{"android":"levelo://app?vid=1ae8fe75-00ad-479b-a755-74d45d76bfbe","ios":"levelo://app?vid=1ae8fe75-00ad-479b-a755-74d45d76bfbe"},"vehicle_type_id":"4","last_reported":1731615014,"current_range_meters":16400,"station_id":"cpo36qri1sfpv3e86is0","pricing_plan_id":"cebpf4jnsgd1na2vs0mg"},{"bike_id":"3f518df0-4e56-4830-bee8-54f4ac0b257e","system_id":"levelo_inurba_marseille","lat":43.30931,"lon":5.4014,"is_reserved":false,"is_disabled":false,"rental_uris":{"android":"levelo://app?vid=3f518df0-4e56-4830-bee8-54f4ac0b257e","ios":"levelo://app?vid=3f518df0-4e56-4830-bee8-54f4ac0b257e"},"vehicle_type_id":"4","last_reported":1731615014,"current_range_meters":19600,"station_id":"ce4bgvp2rcd13ifvqct0","pricing_plan_id":"cebpf4jnsgd1na2vs0mg"},{"bike_id":"92ac4858-87d6-4ceb-8f6e-004635a816a8","system_id":"levelo_inurba_marseille","lat":43.27788,"lon":5.40729,"is_reserved":false,"is_disabled":false,"rental_uris":{"android":"levelo://app?vid=92ac4858-87d6-4ceb-8f6e-004635a816a8","ios":"levelo://app?vid=92ac4858-87d6-4ceb-8f6e-004635a816a8"},"vehicle_type_id":"4","last_reported":1731615014,"current_range_meters":38800,"station_id":"ce4bhnh2rcd13ifvqgtg","pricing_plan_id":"cebpf4jnsgd1na2vs0mg"},{"bike_id":"2ced9380-2bb8-42f2-9c61-94ee116cfefc","system_id":"levelo_inurba_marseille","lat":43.29532,"lon":5.38542,"is_reserved":false,"is_disabled":false,"rental_uris":{"android":"levelo://app?vid=2ced9380-2bb8-42f2-9c61-94ee116cfefc","ios":"levelo://app?vid=2ced9380-2bb8-42f2-9c61-94ee116cfefc"},"vehicle_type_id":"4","last_reported":1731615014,"current_range_meters":14000,"station_id":"ce4bgih2rcd13ifvqba0","pricing_plan_id":"cebpf4jnsgd1na2vs0mg"},{"bike_id":"44281496-ebb0-475b-9830-51a1115552ab","system_id":"levelo_inurba_marseille","lat":43.28404,"lon":5.37512,"is_reserved":false,"is_disabled":false,"rental_uris":{"android":"levelo://app?vid=44281496-ebb0-475b-9830-51a1115552ab","ios":"levelo://app?vid=44281496-ebb0-475b-9830-51a1115552ab"},"vehicle_type_id":"4","last_reported":1731615014,"current_range_meters":17600,"station_id":"ce4bh412rcd13ifvqds0","pricing_plan_id":"cebpf4jnsgd1na2vs0mg"},{"bike_id":"895b3294-8579-452a-8a7a-814c6066fe69","system_id":"levelo_inurba_marseille","lat":43.293,"lon":5.37431,"is_reserved":false,"is_disabled":false,"rental_uris":{"android":"levelo://app?vid=895b3294-8579-452a-8a7a-814c6066fe69","ios":"levelo://app?vid=895b3294-8579-452a-8a7a-814c6066fe69"},"vehicle_type_id":"4","last_reported":1731615014,"current_range_meters":38400,"station_id":"ce4bgi12rcd13ifvqb70","pricing_plan_id":"cebpf4jnsgd1na2vs0mg"},{"bike_id":"f287e58a-4557-43ed-9b8b-02891fb288f4","system_id":"levelo_inurba_marseille","lat":43.30464,"lon":5.3791,"is_reserved":false,"is_disabled":false,"rental_uris":{"android":"levelo://app?vid=f287e58a-4557-43ed-9b8b-02891fb288f4","ios":"levelo://app?vid=f287e58a-4557-43ed-9b8b-02891fb288f4"},"vehicle_type_id":"4","last_reported":1731615014,"current_range_meters":9600,"station_id":"ce4bgup2rcd13ifvqcn0","pricing_plan_id":"cebpf4jnsgd1na2vs0mg"},{"bike_id":"16c431de-b128-4380-a727-8a0a0eba5b1b","system_id":"levelo_inurba_marseille","lat":43.24386,"lon":5.37061,"is_reserved":false,"is_disabled":false,"rental_uris":{"android":"levelo://app?vid=16c431de-b128-4380-a727-8a0a0eba5b1b","ios":"levelo://app?vid=16c431de-b128-4380-a727-8a0a0eba5b1b"},"vehicle_type_id":"4","last_reported":1731615014,"current_range_meters":38800,"station_id":"ce4bhhh2rcd13ifvqfk0","pricing_plan_id":"cebpf4jnsgd1na2vs0mg"},{"bike_id":"aab8a1f0-76d7-4e5b-ba70-89c208bd8ccd","system_id":"levelo_inurba_marseille","lat":43.28,"lon":5.41661,"is_reserved":false,"is_disabled":false,"rental_uris":{"android":"levelo://app?vid=aab8a1f0-76d7-4e5b-ba70-89c208bd8ccd","ios":"levelo://app?vid=aab8a1f0-76d7-4e5b-ba70-89c208bd8ccd"},"vehicle_type_id":"4","last_reported":1731615014,"current_range_meters":8400,"station_id":"ce4bho12rcd13ifvqh1g","pricing_plan_id":"cebpf4jnsgd1na2vs0mg"},{"bike_id":"89b008d7-a688-4b2b-bb1b-6499fee8f750","system_id":"levelo_inurba_marseille","lat":43.30701,"lon":5.37326,"is_reserved":false,"is_disabled":false,"rental_uris":{"android":"levelo://app?vid=89b008d7-a688-4b2b-bb1b-6499fee8f750","ios":"levelo://app?vid=89b008d7-a688-4b2b-bb1b-6499fee8f750"},"vehicle_type_id":"4","last_reported":1731615014,"current_range_meters":8400,"station_id":"","pricing_plan_id":"cebpf4jnsgd1na2vs0mg"},{"bike_id":"674b0e8f-8c9e-4c11-a204-160fb5dcf762","system_id":"levelo_inurba_marseille","lat":43.2439,"lon":5.37054,"is_reserved":false,"is_disabled":false,"rental_uris":{"android":"levelo://app?vid=674b0e8f-8c9e-4c11-a204-160fb5dcf762","ios":"levelo://app?vid=674b0e8f-8c9e-4c11-a204-160fb5dcf762"},"vehicle_type_id":"4","last_reported":1731615014,"current_range_meters":30800,"station_id":"ce4bhhh2rcd13ifvqfk0","pricing_plan_id":"cebpf4jnsgd1na2vs0mg"},{"bike_id":"a4ecdf7a-1207-4333-b11f-1af427326dcc","system_id":"levelo_inurba_marseille","lat":43.29911,"lon":5.3813,"is_reserved":false,"is_disabled":false,"rental_uris":{"android":"levelo://app?vid=a4ecdf7a-1207-4333-b11f-1af427326dcc","ios":"levelo://app?vid=a4ecdf7a-1207-4333-b11f-1af427326dcc"},"vehicle_type_id":"4","last_reported":1731615014,"current_range_meters":38800,"station_id":"ce4bgj12rcd13ifvqbc0","pricing_plan_id":"cebpf4jnsgd1na2vs0mg"},{"bike_id":"0f433459-e074-4293-bfa5-3b5b113abeb1","system_id":"levelo_inurba_marseille","lat":43.33724,"lon":5.39183,"is_reserved":false,"is_disabled":false,"rental_uris":{"android":"levelo://app?vid=0f433459-e074-4293-bfa5-3b5b113abeb1","ios":"levelo://app?vid=0f433459-e074-4293-bfa5-3b5b113abeb1"},"vehicle_type_id":"4","last_reported":1731615014,"current_range_meters":38800,"station_id":"ce4bhr92rcd13ifvqhsg","pricing_plan_id":"cebpf4jnsgd1na2vs0mg"},{"bike_id":"dddbafec-5add-4483-bd69-45a8b146840f","system_id":"levelo_inurba_marseille","lat":43.25,"lon":5.38924,"is_reserved":false,"is_disabled":false,"rental_uris":{"android":"levelo://app?vid=dddbafec-5add-4483-bd69-45a8b146840f","ios":"levelo://app?vid=dddbafec-5add-4483-bd69-45a8b146840f"},"vehicle_type_id":"4","last_reported":1731615014,"current_range_meters":38000,"station_id":"ce4bhgp2rcd13ifvqfd0","pricing_plan_id":"cebpf4jnsgd1na2vs0mg"},{"bike_id":"16eab57e-1302-4f75-8821-c3e034ea98ff","system_id":"levelo_inurba_marseille","lat":43.30802,"lon":5.4352,"is_reserved":false,"is_disabled":false,"rental_uris":{"android":"levelo://app?vid=16eab57e-1302-4f75-8821-c3e034ea98ff","ios":"levelo://app?vid=16eab57e-1302-4f75-8821-c3e034ea98ff"},"vehicle_type_id":"4","last_reported":1731615014,"current_range_meters":33200,"station_id":"ce4bhph2rcd13ifvqheg","pricing_plan_id":"cebpf4jnsgd1na2vs0mg"},{"bike_id":"2886128d-fbbb-438c-87be-d5561cf18777","system_id":"levelo_inurba_marseille","lat":43.31337,"lon":5.397,"is_reserved":false,"is_disabled":false,"rental_uris":{"android":"levelo://app?vid=2886128d-fbbb-438c-87be-d5561cf18777","ios":"levelo://app?vid=2886128d-fbbb-438c-87be-d5561cf18777"},"vehicle_type_id":"4","last_reported":1731615014,"current_range_meters":4000,"station_id":"ce4bgvp2rcd13ifvqcu0","pricing_plan_id":"cebpf4jnsgd1na2vs0mg"},{"bike_id":"96674bee-af63-4238-a3aa-64395f1ee328","system_id":"levelo_inurba_marseille","lat":43.280482,"lon":5.369191,"is_reserved":false,"is_disabled":false,"rental_uris":{"android":"levelo://app?vid=96674bee-af63-4238-a3aa-64395f1ee328","ios":"levelo://app?vid=96674bee-af63-4238-a3aa-64395f1ee328"},"vehicle_type_id":"4","last_reported":1731615014,"current_range_meters":16800,"station_id":"ce4bha12rcd13ifvqef0","pricing_plan_id":"cebpf4jnsgd1na2vs0mg"},{"bike_id":"2203b108-108b-4a58-891d-b34bc5f6ffd2","system_id":"levelo_inurba_marseille","lat":43.302617,"lon":5.400793,"is_reserved":false,"is_disabled":false,"rental_uris":{"android":"levelo://app?vid=2203b108-108b-4a58-891d-b34bc5f6ffd2","ios":"levelo://app?vid=2203b108-108b-4a58-891d-b34bc5f6ffd2"},"vehicle_type_id":"4","last_reported":1731615014,"current_range_meters":38800,"station_id":"ce4bgvh2rcd13ifvqcs0","pricing_plan_id":"cebpf4jnsgd1na2vs0mg"},{"bike_id":"be49b76f-029a-47f9-bb53-d792b241f780","system_id":"levelo_inurba_marseille","lat":43.28719,"lon":5.36086,"is_reserved":false,"is_disabled":false,"rental_uris":{"android":"levelo://app?vid=be49b76f-029a-47f9-bb53-d792b241f780","ios":"levelo://app?vid=be49b76f-029a-47f9-bb53-d792b241f780"},"vehicle_type_id":"4","last_reported":1731615014,"current_range_meters":25200,"station_id":"cki0cbj6b192h4jlfktg","pricing_plan_id":"cebpf4jnsgd1na2vs0mg"},{"bike_id":"680566ba-fd93-45cf-b5a6-439f8df76b76","system_id":"levelo_inurba_marseille","lat":43.27374,"lon":5.36255,"is_reserved":false,"is_disabled":false,"rental_uris":{"android":"levelo://app?vid=680566ba-fd93-45cf-b5a6-439f8df76b76","ios":"levelo://app?vid=680566ba-fd93-45cf-b5a6-439f8df76b76"},"vehicle_type_id":"4","last_reported":1731615014,"current_range_meters":39200,"station_id":"ce4bhbh2rcd13ifvqeo0","pricing_plan_id":"cebpf4jnsgd1na2vs0mg"},{"bike_id":"b448c76e-6a85-4e4e-8af8-7d9249501502","system_id":"levelo_inurba_marseille","lat":43.337444,"lon":5.374475,"is_reserved":false,"is_disabled":false,"rental_uris":{"android":"levelo://app?vid=b448c76e-6a85-4e4e-8af8-7d9249501502","ios":"levelo://app?vid=b448c76e-6a85-4e4e-8af8-7d9249501502"},"vehicle_type_id":"4","last_reported":1731615014,"current_range_meters":31200,"station_id":"","pricing_plan_id":"cebpf4jnsgd1na2vs0mg"},{"bike_id":"d672156f-f409-4096-80a0-6d6c55d560f5","system_id":"levelo_inurba_marseille","lat":43.32119,"lon":5.36778,"is_reserved":false,"is_disabled":false,"rental_uris":{"android":"levelo://app?vid=d672156f-f409-4096-80a0-6d6c55d560f5","ios":"levelo://app?vid=d672156f-f409-4096-80a0-6d6c55d560f5"},"vehicle_type_id":"4","last_reported":1731615014,"current_range_meters":38800,"station_id":"ce4bhrh2rcd13ifvqhug","pricing_plan_id":"cebpf4jnsgd1na2vs0mg"},{"bike_id":"2f1efe36-41b2-4a6f-aa98-b326b5712fe6","system_id":"levelo_inurba_marseille","lat":43.29902,"lon":5.43663,"is_reserved":false,"is_disabled":false,"rental_uris":{"android":"levelo://app?vid=2f1efe36-41b2-4a6f-aa98-b326b5712fe6","ios":"levelo://app?vid=2f1efe36-41b2-4a6f-aa98-b326b5712fe6"},"vehicle_type_id":"4","last_reported":1731615014,"current_range_meters":27600,"station_id":"ce4bhpp2rcd13ifvqhfg","pricing_plan_id":"cebpf4jnsgd1na2vs0mg"},{"bike_id":"d58f65dd-ac9a-4d5f-8e95-607953d85486","system_id":"levelo_inurba_marseille","lat":43.29416,"lon":5.38624,"is_reserved":false,"is_disabled":false,"rental_uris":{"android":"levelo://app?vid=d58f65dd-ac9a-4d5f-8e95-607953d85486","ios":"levelo://app?vid=d58f65dd-ac9a-4d5f-8e95-607953d85486"},"vehicle_type_id":"4","last_reported":1731615014,"current_range_meters":36800,"station_id":"ce4bh2h2rcd13ifvqdh0","pricing_plan_id":"cebpf4jnsgd1na2vs0mg"},