{"last_updated":1761250279,"ttl":60,"version":"2.2","data":{"bikes":[{"bike_id":"dd20b52b-85a0-4775-a515-79686d351f1e","system_id":"levelo_inurba_marseille","lat":43.29487,"lon":5.43305,"is_reserved":false,"is_disabled":false,"rental_uris":{"android":"levelo://app?vid=dd20b52b-85a0-4775-a515-79686d351f1e","ios":"levelo://app?vid=dd20b52b-85a0-4775-a515-79686d351f1e"},"vehicle_type_id":"4","last_reported":1761250279,"current_range_meters":2800,"station_id":"st_d3j5ugp08ojc73fj9d10","pricing_plan_id":"cebpf4jnsgd1na2vs0mg"},{"bike_id":"d65d9625-ef13-4d75-883f-41b358c39977","system_id":"levelo_inurba_marseille","lat":43.29572,"lon":5.39957,"is_reserved":false,"is_disabled":false,"rental_uris":{"android":"levelo://app?vid=d65d9625-ef13-4d75-883f-41b358c39977","ios":"levelo://app?vid=d65d9625-ef13-4d75-883f-41b358c39977"},"vehicle_type_id":"4","last_reported":1761250279,"current_range_meters":2800,"station_id":"ce4bh312rcd13ifvqdj0","pricing_plan_id":"cebpf4jnsgd1na2vs0mg"},{"bike_id":"afa9d4e6-2d79-4372-97f9-12e37a471663","system_id":"levelo_inurba_marseille","lat":43.28431,"lon":5.39183,"is_reserved":false,"is_disabled":false,"rental_uris":{"android":"levelo://app?vid=afa9d4e6-2d79-4372-97f9-12e37a471663","ios":"levelo://app?vid=afa9d4e6-2d79-4372-97f9-12e37a471663"},"vehicle_type_id":"4","last_reported":1761250279,"current_range_meters":3200,"station_id":"ce4bhoh2rcd13ifvqh5g","pricing_plan_id":"cebpf4jnsgd1na2vs0mg"},{"bike_id":"f8ed5907-138c-40de-b2c5-4b1ca0e5626c","system_id":"levelo_inurba_marseille","lat":43.33077,"lon":5.37637,"is_reserved":false,"is_disabled":false,"rental_uris":{"android":"levelo://app?vid=f8ed5907-138c-40de-b2c5-4b1ca0e5626c","ios":"levelo://app?vid=f8ed5907-138c-40de-b2c5-4b1ca0e5626c"},"vehicle_type_id":"4","last_reported":1761250279,"current_range_meters":3200,"station_id":"","pricing_plan_id":"cebpf4jnsgd1na2vs0mg"},{"bike_id":"ac1df8dc-41e5-4954-977f-6f21ed12d11a","system_id":"levelo_inurba_marseille","lat":43.2175,"lon":5.3458,"is_reserved":false,"is_disabled":false,"rental_uris":{"android":"levelo://app?vid=ac1df8dc-41e5-4954-977f-6f21ed12d11a","ios":"levelo://app?vid=ac1df8dc-41e5-4954-977f-6f21ed12d11a"},"vehicle_type_id":"4","last_reported":1761250279,"current_range_meters":3600,"station_id":"st_cvj6r9ubvosntc0bgbag","pricing_plan_id":"cebpf4jnsgd1na2vs0mg"},{"bike_id":"960a0451-559a-41d1-af46-94a056047301","system_id":"levelo_inurba_marseille","lat":43.28568,"lon":5.39489,"is_reserved":false,"is_disabled":true,"rental_uris":{"android":"levelo://app?vid=960a0451-559a-41d1-af46-94a056047301","ios":"levelo://app?vid=960a0451-559a-41d1-af46-94a056047301"},"vehicle_type_id":"4","last_reported":1761250279,"current_range_meters":4000,"station_id":"ce4bh292rcd13ifvqdg0","pricing_plan_id":"cebpf4jnsgd1na2vs0mg"},{"bike_id":"c8ebb86e-7f2f-40d4-a498-9f05ba15d0f1","system_id":"levelo_inurba_marseille","lat":43.27833,"lon":5.40721,"is_reserved":false,"is_disabled":false,"rental_uris":{"android":"levelo://app?vid=c8ebb86e-7f2f-40d4-a498-9f05ba15d0f1","ios":"levelo://app?vid=c8ebb86e-7f2f-40d4-a498-9f05ba15d0f1"},"vehicle_type_id":"4","last_reported":1761250279,"current_range_meters":4000,"station_id":"ce4bhnh2rcd13ifvqgtg","pricing_plan_id":"cebpf4jnsgd1na2vs0mg"},{"bike_id":"bfbd735f-d5d5-424b-85a6-5f69ddd19044","system_id":"levelo_inurba_marseille","lat":43.28464,"lon":5.35896,"is_reserved":false,"is_disabled":false,"rental_uris":{"android":"levelo://app?vid=bfbd735f-d5d5-424b-85a6-5f69ddd19044","ios":"levelo://app?vid=bfbd735f-d5d5-424b-85a6-5f69ddd19044"},"vehicle_type_id":"4","last_reported":1761250279,"current_range_meters":4000,"station_id":"ce4bhah2rcd13ifvqei0","pricing_plan_id":"cebpf4jnsgd1na2vs0mg"},{"bike_id":"2a72e4da-0ae2-4966-85bd-99e80081dd73","system_id":"levelo_inurba_marseille","lat":43.298,"lon":5.40403,"is_reserved":false,"is_disabled":false,"rental_uris":{"android":"levelo://app?vid=2a72e4da-0ae2-4966-85bd-99e80081dd73","ios":"levelo://app?vid=2a72e4da-0ae2-4966-85bd-99e80081dd73"},"vehicle_type_id":"4","last_reported":1761250279,"current_range_meters":4400,"station_id":"ce4bh112rcd13ifvqd90","pricing_plan_id":"cebpf4jnsgd1na2vs0mg"},{"bike_id":"974a76dc-4cf0-4bef-aba9-126e20fc1633","system_id":"levelo_inurba_marseille","lat":43.29766,"lon":5.42775,"is_reserved":false,"is_disabled":false,"rental_uris":{"android":"levelo://app?vid=974a76dc-4cf0-4bef-aba9-126e20fc1633","ios":"levelo://app?vid=974a76dc-4cf0-4bef-aba9-126e20fc1633"},"vehicle_type_id":"4","last_reported":1761250279,"current_range_meters":4400,"station_id":"st_d3md5207bmas73dh9klg","pricing_plan_id":"cebpf4jnsgd1na2vs0mg"},{"bike_id":"92f5e2fc-5283-4d49-ab4c-822a23177483","system_id":"levelo_inurba_marseille","lat":43.32479,"lon":5.40841,"is_reserved":false,"is_disabled":false,"rental_uris":{"android":"levelo://app?vid=92f5e2fc-5283-4d49-ab4c-822a23177483","ios":"levelo://app?vid=92f5e2fc-5283-4d49-ab4c-822a23177483"},"vehicle_type_id":"4","last_reported":1761250279,"current_range_meters":4400,"station_id":"","pricing_plan_id":"cebpf4jnsgd1na2vs0mg"},{"bike_id":"3ac5e81d-0d2b-4a5b-9b23-1b1deebd2d63","system_id":"levelo_inurba_marseille","lat":43.30336,"lon":5.36912,"is_reserved":false,"is_disabled":true,"rental_uris":{"android":"levelo://app?vid=3ac5e81d-0d2b-4a5b-9b23-1b1deebd2d63","ios":"levelo://app?vid=3ac5e81d-0d2b-4a5b-9b23-1b1deebd2d63"},"vehicle_type_id":"4","last_reported":1761250279,"current_range_meters":4400,"station_id":"ce4bgqh2rcd13ifvqc5g","pricing_plan_id":"cebpf4jnsgd1na2vs0mg"},{"bike_id":"02f7835e-8895-43db-bc46-dc0659a292d5","system_id":"levelo_inurba_marseille","lat":43.29331,"lon":5.3707,"is_reserved":false,"is_disabled":false,"rental_uris":{"android":"levelo://app?vid=02f7835e-8895-43db-bc46-dc0659a292d5","ios":"levelo://app?vid=02f7835e-8895-43db-bc46-dc0659a292d5"},"vehicle_type_id":"4","last_reported":1761250279,"current_range_meters":4800,"station_id":"","pricing_plan_id":"cebpf4jnsgd1na2vs0mg"},{"bike_id":"fb603a6e-d69a-4d51-bfd9-ff2268695f70","system_id":"levelo_inurba_marseille","lat":43.31169,"lon":5.38706,"is_reserved":false,"is_disabled":false,"rental_uris":{"android":"levelo://app?vid=fb603a6e-d69a-4d51-bfd9-ff2268695f70","ios":"levelo://app?vid=fb603a6e-d69a-4d51-bfd9-ff2268695f70"},"vehicle_type_id":"4","last_reported":1761250279,"current_range_meters":5600,"station_id":"ce4bgv12rcd13ifvqcp0","pricing_plan_id":"cebpf4jnsgd1na2vs0mg"},{"bike_id":"669b4c3c-1532-43a1-9dab-fce76bc0163c","system_id":"levelo_inurba_marseille","lat":43.295616,"lon":5.398405,"is_reserved":false,"is_disabled":false,"rental_uris":{"android":"levelo://app?vid=669b4c3c-1532-43a1-9dab-fce76bc0163c","ios":"levelo://app?vid=669b4c3c-1532-43a1-9dab-fce76bc0163c"},"vehicle_type_id":"4","last_reported":1761250279,"current_range_meters":5600,"station_id":"ce4bh312rcd13ifvqdj0","pricing_plan_id":"cebpf4jnsgd1na2vs0mg"},{"bike_id":"e6f4e10e-6d72-487a-8252-3250c4b27f98","system_id":"levelo_inurba_marseille","lat":43.2119,"lon":5.35071,"is_reserved":false,"is_disabled":false,"rental_uris":{"android":"levelo://app?vid=e6f4e10e-6d72-487a-8252-3250c4b27f98","ios":"levelo://app?vid=e6f4e10e-6d72-487a-8252-3250c4b27f98"},"vehicle_type_id":"4","last_reported":1761250279,"current_range_meters":6000,"station_id":"st_cvj6sg6p6f1abm77japg","pricing_plan_id":"cebpf4jnsgd1na2vs0mg"},{"bike_id":"9284d93a-9b08-4b67-aa5a-3a9eb3e24f49","system_id":"levelo_inurba_marseille","lat":43.21749,"lon":5.34604,"is_reserved":false,"is_disabled":false,"rental_uris":{"android":"levelo://app?vid=9284d93a-9b08-4b67-aa5a-3a9eb3e24f49","ios":"levelo://app?vid=9284d93a-9b08-4b67-aa5a-3a9eb3e24f49"},"vehicle_type_id":"4","last_reported":1761250279,"current_range_meters":6000,"station_id":"st_cvj6r9ubvosntc0bgbag","pricing_plan_id":"cebpf4jnsgd1na2vs0mg"},{"bike_id":"4ee238a8-9f0a-4f56-9c22-b76fe02bdce8","system_id":"levelo_inurba_marseille","lat":43.295685,"lon":5.399732,"is_reserved":false,"is_disabled":false,"rental_uris":{"android":"levelo://app?vid=4ee238a8-9f0a-4f56-9c22-b76fe02bdce8","ios":"levelo://app?vid=4ee238a8-9f0a-4f56-9c22-b76fe02bdce8"},"vehicle_type_id":"4","last_reported":1761250279,"current_range_meters":6000,"station_id":"ce4bh312rcd13ifvqdj0","pricing_plan_id":"cebpf4jnsgd1na2vs0mg"},{"bike_id":"955acde1-aeb3-4cd7-93a7-b8d05b61f5e0","system_id":"levelo_inurba_marseille","lat":43.260318,"lon":5.375487,"is_reserved":false,"is_disabled":false,"rental_uris":{"android":"levelo://app?vid=955acde1-aeb3-4cd7-93a7-b8d05b61f5e0","ios":"levelo://app?vid=955acde1-aeb3-4cd7-93a7-b8d05b61f5e0"},"vehicle_type_id":"4","last_reported":1761250279,"current_range_meters":6000,"station_id":"ce4bhgh2rcd13ifvqfa0","pricing_plan_id":"cebpf4jnsgd1na2vs0mg"},{"bike_id":"de3d0665-7871-4028-a79c-1baf20b877dc","system_id":"levelo_inurba_marseille","lat":43.31166,"lon":5.38726,"is_reserved":false,"is_disabled":false,"rental_uris":{"android":"levelo://app?vid=de3d0665-7871-4028-a79c-1baf20b877dc","ios":"levelo://app?vid=de3d0665-7871-4028-a79c-1baf20b877dc"},"vehicle_type_id":"4","last_reported":1761250279,"current_range_meters":6000,"station_id":"ce4bgv12rcd13ifvqcp0","pricing_plan_id":"cebpf4jnsgd1na2vs0mg"},{"bike_id":"00657b3a-6445-42ff-a84e-a1d5080a9267","system_id":"levelo_inurba_marseille","lat":43.29558,"lon":5.38496,"is_reserved":false,"is_disabled":false,"rental_uris":{"android":"levelo://app?vid=00657b3a-6445-42ff-a84e-a1d5080a9267","ios":"levelo://app?vid=00657b3a-6445-42ff-a84e-a1d5080a9267"},"vehicle_type_id":"4","last_reported":1761250279,"current_range_meters":6400,"station_id":"","pricing_plan_id":"cebpf4jnsgd1na2vs0mg"},{"bike_id":"b18018be-b924-4201-8a37-d114184e160e","system_id":"levelo_inurba_marseille","lat":43.28482,"lon":5.38427,"is_reserved":false,"is_disabled":false,"rental_uris":{"android":"levelo://app?vid=b18018be-b924-4201-8a37-d114184e160e","ios":"levelo://app?vid=b18018be-b924-4201-8a37-d114184e160e"},"vehicle_type_id":"4","last_reported":1761250279,"current_range_meters":6400,"station_id":"ce4bh512rcd13ifvqe3g","pricing_plan_id":"cebpf4jnsgd1na2vs0mg"},{"bike_id":"e53fe089-9855-49fe-8287-8034c085e7a9","system_id":"levelo_inurba_marseille","lat":43.31175,"lon":5.38709,"is_reserved":false,"is_disabled":false,"rental_uris":{"android":"levelo://app?vid=e53fe089-9855-49fe-8287-8034c085e7a9","ios":"levelo://app?vid=e53fe089-9855-49fe-8287-8034c085e7a9"},"vehicle_type_id":"4","last_reported":1761250279,"current_range_meters":6400,"station_id":"ce4bgv12rcd13ifvqcp0","pricing_plan_id":"cebpf4jnsgd1na2vs0mg"},{"bike_id":"19a81ba3-8936-468a-9e73-f2451a2dbdad","system_id":"levelo_inurba_marseille","lat":43.2937,"lon":5.37584,"is_reserved":false,"is_disabled":false,"rental_uris":{"android":"levelo://app?vid=19a81ba3-8936-468a-9e73-f2451a2dbdad","ios":"levelo://app?vid=19a81ba3-8936-468a-9e73-f2451a2dbdad"},"vehicle_type_id":"4","last_reported":1761250279,"current_range_meters":6400,"station_id":"","pricing_plan_id":"cebpf4jnsgd1na2vs0mg"},{"bike_id":"f5ef09ee-b909-42ed-ad93-87a4daac9978","system_id":"levelo_inurba_marseille","lat":43.29021,"lon":5.38121,"is_reserved":false,"is_disabled":false,"rental_uris":{"android":"levelo://app?vid=f5ef09ee-b909-42ed-ad93-87a4daac9978","ios":"levelo://app?vid=f5ef09ee-b909-42ed-ad93-87a4daac9978"},"vehicle_type_id":"4","last_reported":1761250279,"current_range_meters":6400,"station_id":"ce4bh4p2rcd13ifvqe1g","pricing_plan_id":"cebpf4jnsgd1na2vs0mg"},{"bike_id":"d7ef83c0-eb7b-447e-835c-11a3b6bdbc7f","system_id":"levelo_inurba_marseille","lat":43.25719,"lon":5.4111,"is_reserved":false,"is_disabled":false,"rental_uris":{"android":"levelo://app?vid=d7ef83c0-eb7b-447e-835c-11a3b6bdbc7f","ios":"levelo://app?vid=d7ef83c0-eb7b-447e-835c-11a3b6bdbc7f"},"vehicle_type_id":"4","last_reported":1761250279,"current_range_meters":6400,"station_id":"ce4bhkp2rcd13ifvqgd0","pricing_plan_id":"cebpf4jnsgd1na2vs0mg"},{"bike_id":"82576c51-8b9b-43eb-aa43-fc4a18c9ea5b","system_id":"levelo_inurba_marseille","lat":43.21754,"lon":5.34596,"is_reserved":false,"is_disabled":false,"rental_uris":{"android":"levelo://app?vid=82576c51-8b9b-43eb-aa43-fc4a18c9ea5b","ios":"levelo://app?vid=82576c51-8b9b-43eb-aa43-fc4a18c9ea5b"},"vehicle_type_id":"4","last_reported":1761250279,"current_range_meters":6800,"station_id":"st_cvj6r9ubvosntc0bgbag","pricing_plan_id":"cebpf4jnsgd1na2vs0mg"},{"bike_id":"16ea86f8-d34c-4222-9d2d-e608ddd6d62e","system_id":"levelo_inurba_marseille","lat":43.33769,"lon":5.37466,"is_reserved":false,"is_disabled":false,"rental_uris":{"android":"levelo://app?vid=16ea86f8-d34c-4222-9d2d-e608ddd6d62e","ios":"levelo://app?vid=16ea86f8-d34c-4222-9d2d-e608ddd6d62e"},"vehicle_type_id":"4","last_reported":1761250279,"current_range_meters":6800,"station_id":"","pricing_plan_id":"cebpf4jnsgd1na2vs0mg"},{"bike_id":"8b8ffca4-ec07-449e-acf3-535112c05a45","system_id":"levelo_inurba_marseille","lat":43.30246,"lon":5.40048,"is_reserved":false,"is_disabled":false,"rental_uris":{"android":"levelo://app?vid=8b8ffca4-ec07-449e-acf3-535112c05a45","ios":"levelo://app?vid=8b8ffca4-ec07-449e-acf3-535112c05a45"},"vehicle_type_id":"4","last_reported":1761250279,"current_range_meters":6800,"station_id":"ce4bgvh2rcd13ifvqcs0","pricing_plan_id":"cebpf4jnsgd1na2vs0mg"},{"bike_id":"ff3ba630-dc04-489c-b422-8721b9ddc862","system_id":"levelo_inurba_marseille","lat":43.29827,"lon":5.37747,"is_reserved":false,"is_disabled":false,"rental_uris":{"android":"levelo://app?vid=ff3ba630-dc04-489c-b422-8721b9ddc862","ios":"levelo://app?vid=ff3ba630-dc04-489c-b422-8721b9ddc862"},"vehicle_type_id":"4","last_reported":1761250279,"current_range_meters":6800,"station_id":"","pricing_plan_id":"cebpf4jnsgd1na2vs0mg"},{"bike_id":"bcbbe766-eac8-4d4e-b1c5-91bafe30ced8","system_id":"levelo_inurba_marseille","lat":43.29194,"lon":5.39323,"is_reserved":false,"is_disabled":false,"rental_uris":{"android":"levelo://app?vid=bcbbe766-eac8-4d4e-b1c5-91bafe30ced8","ios":"levelo://app?vid=bcbbe766-eac8-4d4e-b1c5-91bafe30ced8"},"vehicle_type_id":"4","last_reported":1761250279,"current_range_meters":6800,"station_id":"ce4bh192rcd13ifvqdd0","pricing_plan_id":"cebpf4jnsgd1na2vs0mg"},{"bike_id":"3cdf801a-8990-4ea1-8c9a-5ed69f659890","system_id":"levelo_inurba_marseille","lat":43.28148,"lon":5.42636,"is_reserved":false,"is_disabled":false,"rental_uris":{"android":"levelo://app?vid=3cdf801a-8990-4ea1-8c9a-5ed69f659890","ios":"levelo://app?vid=3cdf801a-8990-4ea1-8c9a-5ed69f659890"},"vehicle_type_id":"4","last_reported":1761250279,"current_range_meters":6800,"station_id":"ce4bhnh2rcd13ifvqgug","pricing_plan_id":"cebpf4jnsgd1na2vs0mg"},{"bike_id":"0c0f289f-06bf-47d3-b6b6-8f2989a4888a","system_id":"levelo_inurba_marseille","lat":43.28104,"lon":5.37874,"is_reserved":false,"is_disabled":false,"rental_uris":{"android":"levelo://app?vid=0c0f289f-06bf-47d3-b6b6-8f2989a4888a","ios":"levelo://app?vid=0c0f289f-06bf-47d3-b6b6-8f2989a4888a"},"vehicle_type_id":"4","last_reported":1761250279,"current_range_meters":7200,"station_id":"ce4bha12rcd13ifvqee0","pricing_plan_id":"cebpf4jnsgd1na2vs0mg"},{"bike_id":"d69ec564-2935-44e0-b43b-36a0ae11f05d","system_id":"levelo_inurba_marseille","lat":43.30643,"lon":5.40054,"is_reserved":false,"is_disabled":false,"rental_uris":{"android":"levelo://app?vid=d69ec564-2935-44e0-b43b-36a0ae11f05d","ios":"levelo://app?vid=d69ec564-2935-44e0-b43b-36a0ae11f05d"},"vehicle_type_id":"4","last_reported":1761250279,"current_range_meters":7200,"station_id":"ce4bh112rcd13ifvqda0","pricing_plan_id":"cebpf4jnsgd1na2vs0mg"},{"bike_id":"f3efb067-32db-4fd5-a6c7-ed1c6ebbf69d","system_id":"levelo_inurba_marseille","lat":43.21207,"lon":5.35065,"is_reserved":false,"is_disabled":true,"rental_uris":{"android":"levelo://app?vid=f3efb067-32db-4fd5-a6c7-ed1c6ebbf69d","ios":"levelo://app?vid=f3efb067-32db-4fd5-a6c7-ed1c6ebbf69d"},"vehicle_type_id":"4","last_reported":1761250279,"current_range_meters":7200,"station_id":"st_cvj6sg6p6f1abm77japg","pricing_plan_id":"cebpf4jnsgd1na2vs0mg"},{"bike_id":"5385651e-5d96-4b05-9e5e-8383228be157","system_id":"levelo_inurba_marseille","lat":43.27934,"lon":5.38052,"is_reserved":false,"is_disabled":true,"rental_uris":{"android":"levelo://app?vid=5385651e-5d96-4b05-9e5e-8383228be157","ios":"levelo://app?vid=5385651e-5d96-4b05-9e5e-8383228be157"},"vehicle_type_id":"4","last_reported":1761250279,"current_range_meters":7200,"station_id":"ce4bhf92rcd13ifvqf50","pricing_plan_id":"cebpf4jnsgd1na2vs0mg"},{"bike_id":"37d01fc8-4b4d-4652-a489-1254eb9d4c80","system_id":"levelo_inurba_marseille","lat":43.34076,"lon":5.40411,"is_reserved":false,"is_disabled":false,"rental_uris":{"android":"levelo://app?vid=37d01fc8-4b4d-4652-a489-1254eb9d4c80","ios":"levelo://app?vid=37d01fc8-4b4d-4652-a489-1254eb9d4c80"},"vehicle_type_id":"4","last_reported":1761250279,"current_range_meters":7200,"station_id":"","pricing_plan_id":"cebpf4jnsgd1na2vs0mg"},{"bike_id":"3d9b2ec3-061a-4e85-bf39-5abc1f62e850","system_id":"levelo_inurba_marseille","lat":43.30431,"lon":5.3889,"is_reserved":false,"is_disabled":false,"rental_uris":{"android":"levelo://app?vid=3d9b2ec3-061a-4e85-bf39-5abc1f62e850","ios":"levelo://app?vid=3d9b2ec3-061a-4e85-bf39-5abc1f62e850"},"vehicle_type_id":"4","last_reported":1761250279,"current_range_meters":7200,"station_id":"ce4bgk12rcd13ifvqbi0","pricing_plan_id":"cebpf4jnsgd1na2vs0mg"},{"bike_id":"390c23fe-a0d2-4080-87ba-2228d9b2e783","system_id":"levelo_inurba_marseille","lat":43.29964,"lon":5.37167,"is_reserved":false,"is_disabled":false,"rental_uris":{"android":"levelo://app?vid=390c23fe-a0d2-4080-87ba-2228d9b2e783","ios":"levelo://app?vid=390c23fe-a0d2-4080-87ba-2228d9b2e783"},"vehicle_type_id":"4","last_reported":1761250279,"current_range_meters":8000,"station_id":"ce4bgr92rcd13ifvqc7g","pricing_plan_id":"cebpf4jnsgd1na2vs0mg"},{"bike_id":"3cb1bc4c-33ce-44da-a3c2-1895cb2d1499","system_id":"levelo_inurba_marseille","lat":43.27355,"lon":5.41505,"is_reserved":false,"is_disabled":false,"rental_uris":{"android":"levelo://app?vid=3cb1bc4c-33ce-44da-a3c2-1895cb2d1499","ios":"levelo://app?vid=3cb1bc4c-33ce-44da-a3c2-1895cb2d1499"},"vehicle_type_id":"4","last_reported":1761250279,"current_range_meters":8000,"station_id":"","pricing_plan_id":"cebpf4jnsgd1na2vs0mg"},{"bike_id":"68d81353-05ce-4ab0-bec5-22e11802c585","system_id":"levelo_inurba_marseille","lat":43.27203,"lon":5.39184,"is_reserved":false,"is_disabled":false,"rental_uris":{"android":"levelo://app?vid=68d81353-05ce-4ab0-bec5-22e11802c585","ios":"levelo://app?vid=68d81353-05ce-4ab0-bec5-22e11802c585"},"vehicle_type_id":"4","last_reported":1761250279,"current_range_meters":8000,"station_id":"ce4bhhp2rcd13ifvqfm0","pricing_plan_id":"cebpf4jnsgd1na2vs0mg"},{"bike_id":"066d7904-f782-44f2-ad3a-1c9e5c07d120","system_id":"levelo_inurba_marseille","lat":43.31995,"lon":5.38153,"is_reserved":false,"is_disabled":false,"rental_uris":{"android":"levelo://app?vid=066d7904-f782-44f2-ad3a-1c9e5c07d120","ios":"levelo://app?vid=066d7904-f782-44f2-ad3a-1c9e5c07d120"},"vehicle_type_id":"4","last_reported":1761250279,"current_range_meters":8000,"station_id":"ce4bhr12rcd13ifvqhpg","pricing_plan_id":"cebpf4jnsgd1na2vs0mg"},{"bike_id":"859d622b-dbdb-4c2e-a20c-094724e7fce5","system_id":"levelo_inurba_marseille","lat":43.29437,"lon":5.39747,"is_reserved":false,"is_disabled":false,"rental_uris":{"android":"levelo://app?vid=859d622b-dbdb-4c2e-a20c-094724e7fce5","ios":"levelo://app?vid=859d622b-dbdb-4c2e-a20c-094724e7fce5"},"vehicle_type_id":"4","last_reported":1761250279,"current_range_meters":8000,"station_id":"ce4bh3h2rcd13ifvqdo0","pricing_plan_id":"cebpf4jnsgd1na2vs0mg"},{"bike_id":"2087d38d-b561-42de-89f9-544970412313","system_id":"levelo_inurba_marseille","lat":43.26571,"lon":5.40326,"is_reserved":false,"is_disabled":false,"rental_uris":{"android":"levelo://app?vid=2087d38d-b561-42de-89f9-544970412313","ios":"levelo://app?vid=2087d38d-b561-42de-89f9-544970412313"},"vehicle_type_id":"4","last_reported":1761250279,"current_range_meters":8000,"station_id":"ce4bhmp2rcd13ifvqgng","pricing_plan_id":"cebpf4jnsgd1na2vs0mg"},{"bike_id":"3aa8c3e6-230d-4538-ac39-2b944611f536","system_id":"levelo_inurba_marseille","lat":43.31355,"lon":5.3673,"is_reserved":false,"is_disabled":true,"rental_uris":{"android":"levelo://app?vid=3aa8c3e6-230d-4538-ac39-2b944611f536","ios":"levelo://app?vid=3aa8c3e6-230d-4538-ac39-2b944611f536"},"vehicle_type_id":"4","last_reported":1761250279,"current_range_meters":8000,"station_id":"ce4bgr92rcd13ifvqc6g","pricing_plan_id":"cebpf4jnsgd1na2vs0mg"},{"bike_id":"aa5c39ca-5467-4d85-a1f8-b790dbb0979e","system_id":"levelo_inurba_marseille","lat":43.30717,"lon":5.37369,"is_reserved":false,"is_disabled":false,"rental_uris":{"android":"levelo://app?vid=aa5c39ca-5467-4d85-a1f8-b790dbb0979e","ios":"levelo://app?vid=aa5c39ca-5467-4d85-a1f8-b790dbb0979e"},"vehicle_type_id":"4","last_reported":1761250279,"current_range_meters":8400,"station_id":"","pricing_plan_id":"cebpf4jnsgd1na2vs0mg"},{"bike_id":"56f2039c-c6f0-4864-830c-ad093cc377b0","system_id":"levelo_inurba_marseille","lat":43.28404,"lon":5.37507,"is_reserved":false,"is_disabled":false,"rental_uris":{"android":"levelo://app?vid=56f2039c-c6f0-4864-830c-ad093cc377b0","ios":"levelo://app?vid=56f2039c-c6f0-4864-830c-ad093cc377b0"},"vehicle_type_id":"4","last_reported":1761250279,"current_range_meters":8800,"station_id":"ce4bh412rcd13ifvqds0","pricing_plan_id":"cebpf4jnsgd1na2vs0mg"},{"bike_id":"4bb426f6-b8ce-4574-9cef-f6524df74261","system_id":"levelo_inurba_marseille","lat":43.29257,"lon":5.38437,"is_reserved":false,"is_disabled":false,"rental_uris":{"android":"levelo://app?vid=4bb426f6-b8ce-4574-9cef-f6524df74261","ios":"levelo://app?vid=4bb426f6-b8ce-4574-9cef-f6524df74261"},"vehicle_type_id":"4","last_reported":1761250279,"current_range_meters":8800,"station_id":"ce4bh692rcd13ifvqea0","pricing_plan_id":"cebpf4jnsgd1na2vs0mg"},{"bike_id":"cd0cadb0-3b2e-465b-9d15-7d593ef08f95","system_id":"levelo_inurba_marseille","lat":43.26364,"lon":5.39664,"is_reserved":false,"is_disabled":false,"rental_uris":{"android":"levelo://app?vid=cd0cadb0-3b2e-465b-9d15-7d593ef08f95","ios":"levelo://app?vid=cd0cadb0-3b2e-465b-9d15-7d593ef08f95"},"vehicle_type_id":"4","last_reported":1761250279,"current_range_meters":8800,"station_id":"","pricing_plan_id":"cebpf4jnsgd1na2vs0mg"},{"bike_id":"07e992db-48e1-481b-a50e-3b491cfc1455","system_id":"levelo_inurba_marseille","lat":43.31991,"lon":5.41291,"is_reserved":false,"is_disabled":false,"rental_uris":{"android":"levelo://app?vid=07e992db-48e1-481b-a50e-3b491cfc1455","ios":"levelo://app?vid=07e992db-48e1-481b-a50e-3b491cfc1455"},"vehicle_type_id":"4","last_reported":1761250279,"current_range_meters":8800,"station_id":"","pricing_plan_id":"cebpf4jnsgd1na2vs0mg"},{"bike_id":"4eae2ec4-8862-466e-a3d9-395cca4276d0","system_id":"levelo_inurba_marseille","lat":43.30373,"lon":5.3761,"is_reserved":false,"is_disabled":false,"rental_uris":{"android":"levelo://app?vid=4eae2ec4-8862-466e-a3d9-395cca4276d0","ios":"levelo://app?vid=4eae2ec4-8862-466e-a3d9-395cca4276d0"},"vehicle_type_id":"4","last_reported":1761250279,"current_range_meters":8800,"station_id":"","pricing_plan_id":"cebpf4jnsgd1na2vs0mg"},{"bike_id":"483b2a92-aa21-4f8f-9e02-cad6f1a920de","system_id":"levelo_inurba_marseille","lat":43.30785,"lon":5.37643,"is_reserved":false,"is_disabled":false,"rental_uris":{"android":"levelo://app?vid=483b2a92-aa21-4f8f-9e02-cad6f1a920de","ios":"levelo://app?vid=483b2a92-aa21-4f8f-9e02-cad6f1a920de"},"vehicle_type_id":"4","last_reported":1761250279,"current_range_meters":8800,"station_id":"ce4bgv92rcd13ifvqcq0","pricing_plan_id":"cebpf4jnsgd1na2vs0mg"},{"bike_id":"6a662624-d03e-45d5-964b-74ea5f67d032","system_id":"levelo_inurba_marseille","lat":43.31121,"lon":5.37765,"is_reserved":false,"is_disabled":true,"rental_uris":{"android":"levelo://app?vid=6a662624-d03e-45d5-964b-74ea5f67d032","ios":"levelo://app?vid=6a662624-d03e-45d5-964b-74ea5f67d032"},"vehicle_type_id":"4","last_reported":1761250279,"current_range_meters":9200,"station_id":"ce4bgt92rcd13ifvqcg0","pricing_plan_id":"cebpf4jnsgd1na2vs0mg"},{"bike_id":"7fc01548-017b-4645-885b-0f0eb2471a24","system_id":"levelo_inurba_marseille","lat":43.25331,"lon":5.42173,"is_reserved":false,"is_disabled":false,"rental_uris":{"android":"levelo://app?vid=7fc01548-017b-4645-885b-0f0eb2471a24","ios":"levelo://app?vid=7fc01548-017b-4645-885b-0f0eb2471a24"},"vehicle_type_id":"4","last_reported":1761250279,"current_range_meters":9200,"station_id":"st_d2m65c5bi1j21697t3ng","pricing_plan_id":"cebpf4jnsgd1na2vs0mg"},{"bike_id":"7dc3a787-7b14-4505-8e32-0b28349ba8b9","system_id":"levelo_inurba_marseille","lat":43.287063,"lon":5.362525,"is_reserved":false,"is_disabled":false,"rental_uris":{"android":"levelo://app?vid=7dc3a787-7b14-4505-8e32-0b28349ba8b9","ios":"levelo://app?vid=7dc3a787-7b14-4505-8e32-0b28349ba8b9"},"vehicle_type_id":"4","last_reported":1761250279,"current_range_meters":9600,"station_id":"","pricing_plan_id":"cebpf4jnsgd1na2vs0mg"},{"bike_id":"7418a6fa-b222-4fe5-ac15-48906346fe96","system_id":"levelo_inurba_marseille","lat":43.25824,"lon":5.39448,"is_reserved":false,"is_disabled":false,"rental_uris":{"android":"levelo://app?vid=7418a6fa-b222-4fe5-ac15-48906346fe96","ios":"levelo://app?vid=7418a6fa-b222-4fe5-ac15-48906346fe96"},"vehicle_type_id":"4","last_reported":1761250279,"current_range_meters":9600,"station_id":"ce4bhip2rcd13ifvqft0","pricing_plan_id":"cebpf4jnsgd1na2vs0mg"},{"bike_id":"c8c0fa58-a519-4343-9887-b0c694f93aef","system_id":"levelo_inurba_marseille","lat":43.28854,"lon":5.42511,"is_reserved":false,"is_disabled":false,"rental_uris":{"android":"levelo://app?vid=c8c0fa58-a519-4343-9887-b0c694f93aef","ios":"levelo://app?vid=c8c0fa58-a519-4343-9887-b0c694f93aef"},"vehicle_type_id":"4","last_reported":1761250279,"current_range_meters":10000,"station_id":"st_d3b462108ojc7389ooeg","pricing_plan_id":"cebpf4jnsgd1na2vs0mg"},{"bike_id":"a6c8451c-f3a9-441b-82eb-cc51be3d60d9","system_id":"levelo_inurba_marseille","lat":43.31703,"lon":5.40467,"is_reserved":false,"is_disabled":false,"rental_uris":{"android":"levelo://app?vid=a6c8451c-f3a9-441b-82eb-cc51be3d60d9","ios":"levelo://app?vid=a6c8451c-f3a9-441b-82eb-cc51be3d60d9"},"vehicle_type_id":"4","last_reported":1761250279,"current_range_meters":10000,"station_id":"ce4bh012rcd13ifvqd00","pricing_plan_id":"cebpf4jnsgd1na2vs0mg"},{"bike_id":"ec9665a2-32ab-42b2-9bdf-cf94d158a9c2","system_id":"levelo_inurba_marseille","lat":43.30109,"lon":5.37096,"is_reserved":false,"is_disabled":false,"rental_uris":{"android":"levelo://app?vid=ec9665a2-32ab-42b2-9bdf-cf94d158a9c2","ios":"levelo://app?vid=ec9665a2-32ab-42b2-9bdf-cf94d158a9c2"},"vehicle_type_id":"4","last_reported":1761250279,"current_range_meters":11200,"station_id":"","pricing_plan_id":"cebpf4jnsgd1na2vs0mg"},{"bike_id":"b8d4622d-e021-4c00-9885-12837f3e6560","system_id":"levelo_inurba_marseille","lat":43.288506,"lon":5.393113,"is_reserved":false,"is_disabled":false,"rental_uris":{"android":"levelo://app?vid=b8d4622d-e021-4c00-9885-12837f3e6560","ios":"levelo://app?vid=b8d4622d-e021-4c00-9885-12837f3e6560"},"vehicle_type_id":"4","last_reported":1761250279,"current_range_meters":11200,"station_id":"ce4bh2p2rcd13ifvqdi0","pricing_plan_id":"cebpf4jnsgd1na2vs0mg"},{"bike_id":"32e7919e-26d8-4f7d-b229-086147816fa4","system_id":"levelo_inurba_marseille","lat":43.301286,"lon":5.38775,"is_reserved":false,"is_disabled":false,"rental_uris":{"android":"levelo://app?vid=32e7919e-26d8-4f7d-b229-086147816fa4","ios":"levelo://app?vid=32e7919e-26d8-4f7d-b229-086147816fa4"},"vehicle_type_id":"4","last_reported":1761250279,"current_range_meters":11200,"station_id":"","pricing_plan_id":"cebpf4jnsgd1na2vs0mg"},{"bike_id":"1aaa028d-93d8-4a20-8355-7a4b17d8620a","system_id":"levelo_inurba_marseille","lat":43.27629,"lon":5.39214,"is_reserved":false,"is_disabled":false,"rental_uris":{"android":"levelo://app?vid=1aaa028d-93d8-4a20-8355-7a4b17d8620a","ios":"levelo://app?vid=1aaa028d-93d8-4a20-8355-7a4b17d8620a"},"vehicle_type_id":"4","last_reported":1761250279,"current_range_meters":11200,"station_id":"","pricing_plan_id":"cebpf4jnsgd1na2vs0mg"},{"bike_id":"336a20d3-cc76-475a-86c4-c2f094728a8e","system_id":"levelo_inurba_marseille","lat":43.2781,"lon":5.40706,"is_reserved":false,"is_disabled":false,"rental_uris":{"android":"levelo://app?vid=336a20d3-cc76-475a-86c4-c2f094728a8e","ios":"levelo://app?vid=336a20d3-cc76-475a-86c4-c2f094728a8e"},"vehicle_type_id":"4","last_reported":1761250279,"current_range_meters":11200,"station_id":"ce4bhnh2rcd13ifvqgtg","pricing_plan_id":"cebpf4jnsgd1na2vs0mg"},{"bike_id":"0198280f-05b0-401c-b9f2-7586dff77353","system_id":"levelo_inurba_marseille","lat":43.28919,"lon":5.37785,"is_reserved":false,"is_disabled":false,"rental_uris":{"android":"levelo://app?vid=0198280f-05b0-401c-b9f2-7586dff77353","ios":"levelo://app?vid=0198280f-05b0-401c-b9f2-7586dff77353"},"vehicle_type_id":"4","last_reported":1761250279,"current_range_meters":11600,"station_id":"","pricing_plan_id":"cebpf4jnsgd1na2vs0mg"},{"bike_id":"ad301688-b14f-4af3-95f1-dcce66296b92","system_id":"levelo_inurba_marseille","lat":43.24075,"lon":5.3776,"is_reserved":false,"is_disabled":false,"rental_uris":{"android":"levelo://app?vid=ad301688-b14f-4af3-95f1-dcce66296b92","ios":"levelo://app?vid=ad301688-b14f-4af3-95f1-dcce66296b92"},"vehicle_type_id":"4","last_reported":1761250279,"current_range_meters":11600,"station_id":"ce4bhnp2rcd13ifvqgvg","pricing_plan_id":"cebpf4jnsgd1na2vs0mg"},{"bike_id":"123cc1e5-f4c3-4538-acd0-8b457da3e49f","system_id":"levelo_inurba_marseille","lat":43.28202,"lon":5.39044,"is_reserved":false,"is_disabled":false,"rental_uris":{"android":"levelo://app?vid=123cc1e5-f4c3-4538-acd0-8b457da3e49f","ios":"levelo://app?vid=123cc1e5-f4c3-4538-acd0-8b457da3e49f"},"vehicle_type_id":"4","last_reported":1761250279,"current_range_meters":12000,"station_id":"ce4bhn92rcd13ifvqgsg","pricing_plan_id":"cebpf4jnsgd1na2vs0mg"},{"bike_id":"11d22d39-b410-431e-9c11-bb7e76f0cb25","system_id":"levelo_inurba_marseille","lat":43.286926,"lon":5.399866,"is_reserved":false,"is_disabled":false,"rental_uris":{"android":"levelo://app?vid=11d22d39-b410-431e-9c11-bb7e76f0cb25","ios":"levelo://app?vid=11d22d39-b410-431e-9c11-bb7e76f0cb25"},"vehicle_type_id":"4","last_reported":1761250279,"current_range_meters":12000,"station_id":"ce4bho92rcd13ifvqh3g","pricing_plan_id":"cebpf4jnsgd1na2vs0mg"},{"bike_id":"91c55894-f90b-4c6a-9935-1ccd1665a401","system_id":"levelo_inurba_marseille","lat":43.2962,"lon":5.37716,"is_reserved":false,"is_disabled":true,"rental_uris":{"android":"levelo://app?vid=91c55894-f90b-4c6a-9935-1ccd1665a401","ios":"levelo://app?vid=91c55894-f90b-4c6a-9935-1ccd1665a401"},"vehicle_type_id":"4","last_reported":1761250279,"current_range_meters":12000,"station_id":"ce4bgi92rcd13ifvqb90","pricing_plan_id":"cebpf4jnsgd1na2vs0mg"},{"bike_id":"bda3ed1a-3199-4eb8-8229-577855d09dbb","system_id":"levelo_inurba_marseille","lat":43.3163,"lon":5.37876,"is_reserved":false,"is_disabled":false,"rental_uris":{"android":"levelo://app?vid=bda3ed1a-3199-4eb8-8229-577855d09dbb","ios":"levelo://app?vid=bda3ed1a-3199-4eb8-8229-577855d09dbb"},"vehicle_type_id":"4","last_reported":1761250279,"current_range_meters":12000,"station_id":"","pricing_plan_id":"cebpf4jnsgd1na2vs0mg"},{"bike_id":"f30d474c-592d-470d-816b-bf7526dcf767","system_id":"levelo_inurba_marseille","lat":43.30831,"lon":5.3811,"is_reserved":false,"is_disabled":false,"rental_uris":{"android":"levelo://app?vid=f30d474c-592d-470d-816b-bf7526dcf767","ios":"levelo://app?vid=f30d474c-592d-470d-816b-bf7526dcf767"},"vehicle_type_id":"4","last_reported":1761250279,"current_range_meters":12000,"station_id":"ce4bgt12rcd13ifvqce0","pricing_plan_id":"cebpf4jnsgd1na2vs0mg"},{"bike_id":"f4311ba3-7f0f-4f8e-a874-b0248cb41d85","system_id":"levelo_inurba_marseille","lat":43.28103,"lon":5.37826,"is_reserved":false,"is_disabled":false,"rental_uris":{"android":"levelo://app?vid=f4311ba3-7f0f-4f8e-a874-b0248cb41d85","ios":"levelo://app?vid=f4311ba3-7f0f-4f8e-a874-b0248cb41d85"},"vehicle_type_id":"4","last_reported":1761250279,"current_range_meters":12000,"station_id":"ce4bha12rcd13ifvqee0","pricing_plan_id":"cebpf4jnsgd1na2vs0mg"},{"bike_id":"02c072c4-e6ce-40d9-b0c7-68c9885c0e63","system_id":"levelo_inurba_marseille","lat":43.292603,"lon":5.384351,"is_reserved":false,"is_disabled":false,"rental_uris":{"android":"levelo://app?vid=02c072c4-e6ce-40d9-b0c7-68c9885c0e63","ios":"levelo://app?vid=02c072c4-e6ce-40d9-b0c7-68c9885c0e63"},"vehicle_type_id":"4","last_reported":1761250279,"current_range_meters":12400,"station_id":"ce4bh692rcd13ifvqea0","pricing_plan_id":"cebpf4jnsgd1na2vs0mg"},{"bike_id":"0a735343-9830-4018-a7b8-9b9977228a29","system_id":"levelo_inurba_marseille","lat":43.29309,"lon":5.37163,"is_reserved":false,"is_disabled":false,"rental_uris":{"android":"levelo://app?vid=0a735343-9830-4018-a7b8-9b9977228a29","ios":"levelo://app?vid=0a735343-9830-4018-a7b8-9b9977228a29"},"vehicle_type_id":"4","last_reported":1761250279,"current_range_meters":12400,"station_id":"ce4bgh92rcd13ifvqb40","pricing_plan_id":"cebpf4jnsgd1na2vs0mg"},{"bike_id":"d1913297-aa70-4d7d-b6e2-0b440eadab60","system_id":"levelo_inurba_marseille","lat":43.316254,"lon":5.405183,"is_reserved":false,"is_disabled":false,"rental_uris":{"android":"levelo://app?vid=d1913297-aa70-4d7d-b6e2-0b440eadab60","ios":"levelo://app?vid=d1913297-aa70-4d7d-b6e2-0b440eadab60"},"vehicle_type_id":"4","last_reported":1761250279,"current_range_meters":12400,"station_id":"ce4bh012rcd13ifvqd00","pricing_plan_id":"cebpf4jnsgd1na2vs0mg"},{"bike_id":"defa6609-d762-487c-ac72-0fa091ad62ef","system_id":"levelo_inurba_marseille","lat":43.2953,"lon":5.38549,"is_reserved":false,"is_disabled":false,"rental_uris":{"android":"levelo://app?vid=defa6609-d762-487c-ac72-0fa091ad62ef","ios":"levelo://app?vid=defa6609-d762-487c-ac72-0fa091ad62ef"},"vehicle_type_id":"4","last_reported":1761250279,"current_range_meters":12400,"station_id":"ce4bgih2rcd13ifvqba0","pricing_plan_id":"cebpf4jnsgd1na2vs0mg"},{"bike_id":"323bf2de-3bb4-4b4c-b330-b19ea807dbf5","system_id":"levelo_inurba_marseille","lat":43.32997,"lon":5.42952,"is_reserved":false,"is_disabled":false,"rental_uris":{"android":"levelo://app?vid=323bf2de-3bb4-4b4c-b330-b19ea807dbf5","ios":"levelo://app?vid=323bf2de-3bb4-4b4c-b330-b19ea807dbf5"},"vehicle_type_id":"4","last_reported":1761250279,"current_range_meters":12400,"station_id":"","pricing_plan_id":"cebpf4jnsgd1na2vs0mg"},{"bike_id":"546f15d1-98b7-4778-9273-37f000a6cecc","system_id":"levelo_inurba_marseille","lat":43.28269,"lon":5.35057,"is_reserved":false,"is_disabled":false,"rental_uris":{"android":"levelo://app?vid=546f15d1-98b7-4778-9273-37f000a6cecc","ios":"levelo://app?vid=546f15d1-98b7-4778-9273-37f000a6cecc"},"vehicle_type_id":"4","last_reported":1761250279,"current_range_meters":12400,"station_id":"ce4bhbp2rcd13ifvqerg","pricing_plan_id":"cebpf4jnsgd1na2vs0mg"},{"bike_id":"c4f3ce1c-eede-4af4-aa83-8c3f04e546bc","system_id":"levelo_inurba_marseille","lat":43.29267,"lon":5.38433,"is_reserved":false,"is_disabled":false,"rental_uris":{"android":"levelo://app?vid=c4f3ce1c-eede-4af4-aa83-8c3f04e546bc","ios":"levelo://app?vid=c4f3ce1c-eede-4af4-aa83-8c3f04e546bc"},"vehicle_type_id":"4","last_reported":1761250279,"current_range_meters":12400,"station_id":"ce4bh692rcd13ifvqea0","pricing_plan_id":"cebpf4jnsgd1na2vs0mg"},{"bike_id":"91808c87-bda8-4955-a0a1-9a1682749143","system_id":"levelo_inurba_marseille","lat":43.24065,"lon":5.3777,"is_reserved":false,"is_disabled":false,"rental_uris":{"android":"levelo://app?vid=91808c87-bda8-4955-a0a1-9a1682749143","ios":"levelo://app?vid=91808c87-bda8-4955-a0a1-9a1682749143"},"vehicle_type_id":"4","last_reported":1761250279,"current_range_meters":12400,"station_id":"ce4bhnp2rcd13ifvqgvg","pricing_plan_id":"cebpf4jnsgd1na2vs0mg"},{"bike_id":"df49b04b-5acb-4bc5-a72a-7d46e9749bc5","system_id":"levelo_inurba_marseille","lat":43.31995,"lon":5.38163,"is_reserved":false,"is_disabled":false,"rental_uris":{"android":"levelo://app?vid=df49b04b-5acb-4bc5-a72a-7d46e9749bc5","ios":"levelo://app?vid=df49b04b-5acb-4bc5-a72a-7d46e9749bc5"},"vehicle_type_id":"4","last_reported":1761250279,"current_range_meters":12800,"station_id":"ce4bhr12rcd13ifvqhpg","pricing_plan_id":"cebpf4jnsgd1na2vs0mg"},{"bike_id":"853b4d07-ba43-4f1d-9f34-91f5048439e4","system_id":"levelo_inurba_marseille","lat":43.31167,"lon":5.38708,"is_reserved":false,"is_disabled":false,"rental_uris":{"android":"levelo://app?vid=853b4d07-ba43-4f1d-9f34-91f5048439e4","ios":"levelo://app?vid=853b4d07-ba43-4f1d-9f34-91f5048439e4"},"vehicle_type_id":"4","last_reported":1761250279,"current_range_meters":12800,"station_id":"ce4bgv12rcd13ifvqcp0","pricing_plan_id":"cebpf4jnsgd1na2vs0mg"},{"bike_id":"24a11c21-7b10-418d-bff0-9d96ea02cfae","system_id":"levelo_inurba_marseille","lat":43.30786,"lon":5.37655,"is_reserved":false,"is_disabled":true,"rental_uris":{"android":"levelo://app?vid=24a11c21-7b10-418d-bff0-9d96ea02cfae","ios":"levelo://app?vid=24a11c21-7b10-418d-bff0-9d96ea02cfae"},"vehicle_type_id":"4","last_reported":1761250279,"current_range_meters":12800,"station_id":"ce4bgv92rcd13ifvqcq0","pricing_plan_id":"cebpf4jnsgd1na2vs0mg"},{"bike_id":"d2b9dc00-f2bd-4779-bb2a-55b57cdd0b04","system_id":"levelo_inurba_marseille","lat":43.28614,"lon":5.37065,"is_reserved":false,"is_disabled":false,"rental_uris":{"android":"levelo://app?vid=d2b9dc00-f2bd-4779-bb2a-55b57cdd0b04","ios":"levelo://app?vid=d2b9dc00-f2bd-4779-bb2a-55b57cdd0b04"},"vehicle_type_id":"4","last_reported":1761250279,"current_range_meters":12800,"station_id":"ce4bht12rcd13ifvqi60","pricing_plan_id":"cebpf4jnsgd1na2vs0mg"},{"bike_id":"a05c70ed-c6cf-4c33-8408-890497404537","system_id":"levelo_inurba_marseille","lat":43.29036,"lon":5.38606,"is_reserved":false,"is_disabled":false,"rental_uris":{"android":"levelo://app?vid=a05c70ed-c6cf-4c33-8408-890497404537","ios":"levelo://app?vid=a05c70ed-c6cf-4c33-8408-890497404537"},"vehicle_type_id":"4","last_reported":1761250279,"current_range_meters":12800,"station_id":"ce4bh4p2rcd13ifvqe0g","pricing_plan_id":"cebpf4jnsgd1na2vs0mg"},{"bike_id":"b284a5b8-145b-4b18-970a-f541b5c0ebef","system_id":"levelo_inurba_marseille","lat":43.28555,"lon":5.39451,"is_reserved":false,"is_disabled":false,"rental_uris":{"android":"levelo://app?vid=b284a5b8-145b-4b18-970a-f541b5c0ebef","ios":"levelo://app?vid=b284a5b8-145b-4b18-970a-f541b5c0ebef"},"vehicle_type_id":"4","last_reported":1761250279,"current_range_meters":12800,"station_id":"ce4bh292rcd13ifvqdg0","pricing_plan_id":"cebpf4jnsgd1na2vs0mg"},{"bike_id":"bd9d4d8d-ccf3-47b2-a87f-111405784a6a","system_id":"levelo_inurba_marseille","lat":43.28678,"lon":5.38671,"is_reserved":false,"is_disabled":false,"rental_uris":{"android":"levelo://app?vid=bd9d4d8d-ccf3-47b2-a87f-111405784a6a","ios":"levelo://app?vid=bd9d4d8d-ccf3-47b2-a87f-111405784a6a"},"vehicle_type_id":"4","last_reported":1761250279,"current_range_meters":12800,"station_id":"ce4bh492rcd13ifvqdug","pricing_plan_id":"cebpf4jnsgd1na2vs0mg"},{"bike_id":"3c313c1b-fb8e-42af-ac57-4a639bfffb1d","system_id":"levelo_inurba_marseille","lat":43.28107,"lon":5.37836,"is_reserved":false,"is_disabled":false,"rental_uris":{"android":"levelo://app?vid=3c313c1b-fb8e-42af-ac57-4a639bfffb1d","ios":"levelo://app?vid=3c313c1b-fb8e-42af-ac57-4a639bfffb1d"},"vehicle_type_id":"4","last_reported":1761250279,"current_range_meters":12800,"station_id":"ce4bha12rcd13ifvqee0","pricing_plan_id":"cebpf4jnsgd1na2vs0mg"},{"bike_id":"f0764640-ec1d-486f-9e1c-59043e66eb76","system_id":"levelo_inurba_marseille","lat":43.21734,"lon":5.34552,"is_reserved":false,"is_disabled":false,"rental_uris":{"android":"levelo://app?vid=f0764640-ec1d-486f-9e1c-59043e66eb76","ios":"levelo://app?vid=f0764640-ec1d-486f-9e1c-59043e66eb76"},"vehicle_type_id":"4","last_reported":1761250279,"current_range_meters":13600,"station_id":"st_cvj6r9ubvosntc0bgbag","pricing_plan_id":"cebpf4jnsgd1na2vs0mg"},{"bike_id":"13457cde-9500-4798-badb-bc49da17c62d","system_id":"levelo_inurba_marseille","lat":43.3146,"lon":5.37259,"is_reserved":false,"is_disabled":false,"rental_uris":{"android":"levelo://app?vid=13457cde-9500-4798-badb-bc49da17c62d","ios":"levelo://app?vid=13457cde-9500-4798-badb-bc49da17c62d"},"vehicle_type_id":"4","last_reported":1761250279,"current_range_meters":13600,"station_id":"ce4bgt12rcd13ifvqcd0","pricing_plan_id":"cebpf4jnsgd1na2vs0mg"},{"bike_id":"5cff9951-541f-411c-9169-d00d2bf3ec49","system_id":"levelo_inurba_marseille","lat":43.298477,"lon":5.362736,"is_reserved":false,"is_disabled":false,"rental_uris":{"android":"levelo://app?vid=5cff9951-541f-411c-9169-d00d2bf3ec49","ios":"levelo://app?vid=5cff9951-541f-411c-9169-d00d2bf3ec49"},"vehicle_type_id":"4","last_reported":1761250279,"current_range_meters":13600,"station_id":"ce4bgpp2rcd13ifvqc3g","pricing_plan_id":"cebpf4jnsgd1na2vs0mg"},{"bike_id":"bc1f2bd3-ccd1-4be4-aca7-5aecce1f63d4","system_id":"levelo_inurba_marseille","lat":43.29034,"lon":5.38634,"is_reserved":false,"is_disabled":false,"rental_uris":{"android":"levelo://app?vid=bc1f2bd3-ccd1-4be4-aca7-5aecce1f63d4","ios":"levelo://app?vid=bc1f2bd3-ccd1-4be4-aca7-5aecce1f63d4"},"vehicle_type_id":"4","last_reported":1761250279,"current_range_meters":13600,"station_id":"ce4bh4p2rcd13ifvqe0g","pricing_plan_id":"cebpf4jnsgd1na2vs0mg"},{"bike_id":"466c81f7-952d-4941-be62-2fd6e99cce46","system_id":"levelo_inurba_marseille","lat":43.30887,"lon":5.39646,"is_reserved":false,"is_disabled":false,"rental_uris":{"android":"levelo://app?vid=466c81f7-952d-4941-be62-2fd6e99cce46","ios":"levelo://app?vid=466c81f7-952d-4941-be62-2fd6e99cce46"},"vehicle_type_id":"4","last_reported":1761250279,"current_range_meters":13600,"station_id":"ce4bh012rcd13ifvqcv0","pricing_plan_id":"cebpf4jnsgd1na2vs0mg"},{"bike_id":"b4da4417-ee6d-402b-a5ec-bbd655503c9e","system_id":"levelo_inurba_marseille","lat":43.31318,"lon":5.3969,"is_reserved":false,"is_disabled":false,"rental_uris":{"android":"levelo://app?vid=b4da4417-ee6d-402b-a5ec-bbd655503c9e","ios":"levelo://app?vid=b4da4417-ee6d-402b-a5ec-bbd655503c9e"},"vehicle_type_id":"4","last_reported":1761250279,"current_range_meters":13600,"station_id":"ce4bgvp2rcd13ifvqcu0","pricing_plan_id":"cebpf4jnsgd1na2vs0mg"},{"bike_id":"66d74fcc-d46e-454f-bc5e-aafa4b6022d5","system_id":"levelo_inurba_marseille","lat":43.24944,"lon":5.40487,"is_reserved":false,"is_disabled":false,"rental_uris":{"android":"levelo://app?vid=66d74fcc-d46e-454f-bc5e-aafa4b6022d5","ios":"levelo://app?vid=66d74fcc-d46e-454f-bc5e-aafa4b6022d5"},"vehicle_type_id":"4","last_reported":1761250279,"current_range_meters":13600,"station_id":"st_d2ngiaodas8pm72gd1h0","pricing_plan_id":"cebpf4jnsgd1na2vs0mg"},{"bike_id":"50026b2a-a78d-44e8-8f60-133eb40ec70e","system_id":"levelo_inurba_marseille","lat":43.29011,"lon":5.37847,"is_reserved":false,"is_disabled":false,"rental_uris":{"android":"levelo://app?vid=50026b2a-a78d-44e8-8f60-133eb40ec70e","ios":"levelo://app?vid=50026b2a-a78d-44e8-8f60-133eb40ec70e"},"vehicle_type_id":"4","last_reported":1761250279,"current_range_meters":13600,"station_id":"ce4bh9p2rcd13ifvqed0","pricing_plan_id":"cebpf4jnsgd1na2vs0mg"},{"bike_id":"c19d5925-ebe0-4669-8607-362e91c51ddc","system_id":"levelo_inurba_marseille","lat":43.32051,"lon":5.41571,"is_reserved":false,"is_disabled":false,"rental_uris":{"android":"levelo://app?vid=c19d5925-ebe0-4669-8607-362e91c51ddc","ios":"levelo://app?vid=c19d5925-ebe0-4669-8607-362e91c51ddc"},"vehicle_type_id":"4","last_reported":1761250279,"current_range_meters":14000,"station_id":"ce4bhq92rcd13ifvqhkg","pricing_plan_id":"cebpf4jnsgd1na2vs0mg"},{"bike_id":"247b044e-7e84-419c-a5fb-856b27f30701","system_id":"levelo_inurba_marseille","lat":43.27063,"lon":5.42272,"is_reserved":false,"is_disabled":false,"rental_uris":{"android":"levelo://app?vid=247b044e-7e84-419c-a5fb-856b27f30701","ios":"levelo://app?vid=247b044e-7e84-419c-a5fb-856b27f30701"},"vehicle_type_id":"4","last_reported":1761250279,"current_range_meters":14000,"station_id":"ce4bhk92rcd13ifvqgb0","pricing_plan_id":"cebpf4jnsgd1na2vs0mg"},{"bike_id":"d78eb837-b102-4db4-b967-7e27e7618a15","system_id":"levelo_inurba_marseille","lat":43.22947,"lon":5.35372,"is_reserved":false,"is_disabled":false,"rental_uris":{"android":"levelo://app?vid=d78eb837-b102-4db4-b967-7e27e7618a15","ios":"levelo://app?vid=d78eb837-b102-4db4-b967-7e27e7618a15"},"vehicle_type_id":"4","last_reported":1761250279,"current_range_meters":14000,"station_id":"cpo3532slgdg3j2ikp40","pricing_plan_id":"cebpf4jnsgd1na2vs0mg"},{"bike_id":"e769906a-6115-425c-84a0-aab1fda48d3f","system_id":"levelo_inurba_marseille","lat":43.296521,"lon":5.375843,"is_reserved":false,"is_disabled":false,"rental_uris":{"android":"levelo://app?vid=e769906a-6115-425c-84a0-aab1fda48d3f","ios":"levelo://app?vid=e769906a-6115-425c-84a0-aab1fda48d3f"},"vehicle_type_id":"4","last_reported":1761250279,"current_range_meters":14400,"station_id":"","pricing_plan_id":"cebpf4jnsgd1na2vs0mg"},{"bike_id":"3e4783b6-28d8-4737-a4ef-6a1b0da02476","system_id":"levelo_inurba_marseille","lat":43.29454,"lon":5.40715,"is_reserved":false,"is_disabled":false,"rental_uris":{"android":"levelo://app?vid=3e4783b6-28d8-4737-a4ef-6a1b0da02476","ios":"levelo://app?vid=3e4783b6-28d8-4737-a4ef-6a1b0da02476"},"vehicle_type_id":"4","last_reported":1761250279,"current_range_meters":14400,"station_id":"","pricing_plan_id":"cebpf4jnsgd1na2vs0mg"},{"bike_id":"3c338306-051e-4864-9d5e-73d858887959","system_id":"levelo_inurba_marseille","lat":43.2885,"lon":5.3587,"is_reserved":false,"is_disabled":false,"rental_uris":{"android":"levelo://app?vid=3c338306-051e-4864-9d5e-73d858887959","ios":"levelo://app?vid=3c338306-051e-4864-9d5e-73d858887959"},"vehicle_type_id":"4","last_reported":1761250279,"current_range_meters":14400,"station_id":"ce4bhb12rcd13ifvqem0","pricing_plan_id":"cebpf4jnsgd1na2vs0mg"},{"bike_id":"2f3a068c-1bff-44a7-a352-fd6d916a00a0","system_id":"levelo_inurba_marseille","lat":43.3235,"lon":5.3888,"is_reserved":false,"is_disabled":false,"rental_uris":{"android":"levelo://app?vid=2f3a068c-1bff-44a7-a352-fd6d916a00a0","ios":"levelo://app?vid=2f3a068c-1bff-44a7-a352-fd6d916a00a0"},"vehicle_type_id":"4","last_reported":1761250279,"current_range_meters":14400,"station_id":"ce4bhqp2rcd13ifvqhog","pricing_plan_id":"cebpf4jnsgd1na2vs0mg"},{"bike_id":"b9764ed2-f91a-421e-b54e-d7527bd8af22","system_id":"levelo_inurba_marseille","lat":43.29811,"lon":5.36588,"is_reserved":false,"is_disabled":false,"rental_uris":{"android":"levelo://app?vid=b9764ed2-f91a-421e-b54e-d7527bd8af22","ios":"levelo://app?vid=b9764ed2-f91a-421e-b54e-d7527bd8af22"},"vehicle_type_id":"4","last_reported":1761250279,"current_range_meters":14400,"station_id":"","pricing_plan_id":"cebpf4jnsgd1na2vs0mg"},{"bike_id":"e23608a7-79c3-428d-8cba-f9c659a19500","system_id":"levelo_inurba_marseille","lat":43.24548,"lon":5.39511,"is_reserved":false,"is_disabled":false,"rental_uris":{"android":"levelo://app?vid=e23608a7-79c3-428d-8cba-f9c659a19500","ios":"levelo://app?vid=e23608a7-79c3-428d-8cba-f9c659a19500"},"vehicle_type_id":"4","last_reported":1761250279,"current_range_meters":14400,"station_id":"ce4bhlp2rcd13ifvqgjg","pricing_plan_id":"cebpf4jnsgd1na2vs0mg"},{"bike_id":"8bcacd78-80de-4026-af75-b37ebe3030fe","system_id":"levelo_inurba_marseille","lat":43.334756,"lon":5.404255,"is_reserved":false,"is_disabled":false,"rental_uris":{"android":"levelo://app?vid=8bcacd78-80de-4026-af75-b37ebe3030fe","ios":"levelo://app?vid=8bcacd78-80de-4026-af75-b37ebe3030fe"},"vehicle_type_id":"4","last_reported":1761250279,"current_range_meters":14400,"station_id":"","pricing_plan_id":"cebpf4jnsgd1na2vs0mg"},{"bike_id":"ba0d4b97-b595-43b5-b8a9-3159497b5c35","system_id":"levelo_inurba_marseille","lat":43.290313,"lon":5.386539,"is_reserved":false,"is_disabled":false,"rental_uris":{"android":"levelo://app?vid=ba0d4b97-b595-43b5-b8a9-3159497b5c35","ios":"levelo://app?vid=ba0d4b97-b595-43b5-b8a9-3159497b5c35"},"vehicle_type_id":"4","last_reported":1761250279,"current_range_meters":14400,"station_id":"ce4bh4p2rcd13ifvqe0g","pricing_plan_id":"cebpf4jnsgd1na2vs0mg"},{"bike_id":"3877e972-fe51-4197-a5b7-860377239f0f","system_id":"levelo_inurba_marseille","lat":43.24178,"lon":5.36384,"is_reserved":false,"is_disabled":false,"rental_uris":{"android":"levelo://app?vid=3877e972-fe51-4197-a5b7-860377239f0f","ios":"levelo://app?vid=3877e972-fe51-4197-a5b7-860377239f0f"},"vehicle_type_id":"4","last_reported":1761250279,"current_range_meters":14400,"station_id":"cpo36qri1sfpv3e86is0","pricing_plan_id":"cebpf4jnsgd1na2vs0mg"},{"bike_id":"55aee02d-9c96-45d2-9d31-4545665d3ece","system_id":"levelo_inurba_marseille","lat":43.24654,"lon":5.38906,"is_reserved":false,"is_disabled":false,"rental_uris":{"android":"levelo://app?vid=55aee02d-9c96-45d2-9d31-4545665d3ece","ios":"levelo://app?vid=55aee02d-9c96-45d2-9d31-4545665d3ece"},"vehicle_type_id":"4","last_reported":1761250279,"current_range_meters":14800,"station_id":"ce4bhg12rcd13ifvqf60","pricing_plan_id":"cebpf4jnsgd1na2vs0mg"},{"bike_id":"f42c71f2-2f87-4e94-97f5-997a2b88a744","system_id":"levelo_inurba_marseille","lat":43.30393,"lon":5.37358,"is_reserved":false,"is_disabled":false,"rental_uris":{"android":"levelo://app?vid=f42c71f2-2f87-4e94-97f5-997a2b88a744","ios":"levelo://app?vid=f42c71f2-2f87-4e94-97f5-997a2b88a744"},"vehicle_type_id":"4","last_reported":1761250279,"current_range_meters":14800,"station_id":"","pricing_plan_id":"cebpf4jnsgd1na2vs0mg"},{"bike_id":"4c25d73b-9299-45e6-81ec-b77fcd7dde3f","system_id":"levelo_inurba_marseille","lat":43.2872,"lon":5.37942,"is_reserved":false,"is_disabled":false,"rental_uris":{"android":"levelo://app?vid=4c25d73b-9299-45e6-81ec-b77fcd7dde3f","ios":"levelo://app?vid=4c25d73b-9299-45e6-81ec-b77fcd7dde3f"},"vehicle_type_id":"4","last_reported":1761250279,"current_range_meters":14800,"station_id":"ce4bh9p2rcd13ifvqec0","pricing_plan_id":"cebpf4jnsgd1na2vs0mg"},{"bike_id":"2a596ec3-9734-469b-975a-2974275fff6f","system_id":"levelo_inurba_marseille","lat":43.29529,"lon":5.38548,"is_reserved":false,"is_disabled":false,"rental_uris":{"android":"levelo://app?vid=2a596ec3-9734-469b-975a-2974275fff6f","ios":"levelo://app?vid=2a596ec3-9734-469b-975a-2974275fff6f"},"vehicle_type_id":"4","last_reported":1761250279,"current_range_meters":14800,"station_id":"ce4bgih2rcd13ifvqba0","pricing_plan_id":"cebpf4jnsgd1na2vs0mg"},{"bike_id":"3a7c302c-cc5f-4d7a-99e7-abf217acdee0","system_id":"levelo_inurba_marseille","lat":43.236695,"lon":5.365936,"is_reserved":false,"is_disabled":false,"rental_uris":{"android":"levelo://app?vid=3a7c302c-cc5f-4d7a-99e7-abf217acdee0","ios":"levelo://app?vid=3a7c302c-cc5f-4d7a-99e7-abf217acdee0"},"vehicle_type_id":"4","last_reported":1761250279,"current_range_meters":14800,"station_id":"ce4bh092rcd13ifvqd20","pricing_plan_id":"cebpf4jnsgd1na2vs0mg"},{"bike_id":"59a90fc2-6b65-44f9-97da-18a57f6bd3e0","system_id":"levelo_inurba_marseille","lat":43.25874,"lon":5.39908,"is_reserved":false,"is_disabled":false,"rental_uris":{"android":"levelo://app?vid=59a90fc2-6b65-44f9-97da-18a57f6bd3e0","ios":"levelo://app?vid=59a90fc2-6b65-44f9-97da-18a57f6bd3e0"},"vehicle_type_id":"4","last_reported":1761250279,"current_range_meters":15200,"station_id":"ce4bhl92rcd13ifvqghg","pricing_plan_id":"cebpf4jnsgd1na2vs0mg"},{"bike_id":"316c843e-0abd-49e3-b3e9-3f61b02a5647","system_id":"levelo_inurba_marseille","lat":43.28867,"lon":5.42516,"is_reserved":false,"is_disabled":false,"rental_uris":{"android":"levelo://app?vid=316c843e-0abd-49e3-b3e9-3f61b02a5647","ios":"levelo://app?vid=316c843e-0abd-49e3-b3e9-3f61b02a5647"},"vehicle_type_id":"4","last_reported":1761250279,"current_range_meters":15200,"station_id":"st_d3b462108ojc7389ooeg","pricing_plan_id":"cebpf4jnsgd1na2vs0mg"},{"bike_id":"782a020d-56e3-439f-b513-efca363d27f5","system_id":"levelo_inurba_marseille","lat":43.28432,"lon":5.391935,"is_reserved":false,"is_disabled":false,"rental_uris":{"android":"levelo://app?vid=782a020d-56e3-439f-b513-efca363d27f5","ios":"levelo://app?vid=782a020d-56e3-439f-b513-efca363d27f5"},"vehicle_type_id":"4","last_reported":1761250279,"current_range_meters":15200,"station_id":"ce4bhoh2rcd13ifvqh5g","pricing_plan_id":"cebpf4jnsgd1na2vs0mg"},{"bike_id":"5403bbb7-b780-4116-8b9d-0a9bd553ad20","system_id":"levelo_inurba_marseille","lat":43.24153,"lon":5.39782,"is_reserved":false,"is_disabled":false,"rental_uris":{"android":"levelo://app?vid=5403bbb7-b780-4116-8b9d-0a9bd553ad20","ios":"levelo://app?vid=5403bbb7-b780-4116-8b9d-0a9bd553ad20"},"vehicle_type_id":"4","last_reported":1761250279,"current_range_meters":15200,"station_id":"","pricing_plan_id":"cebpf4jnsgd1na2vs0mg"},{"bike_id":"5e44bff3-2591-4a2e-b8f9-fc03c46849b4","system_id":"levelo_inurba_marseille","lat":43.31169,"lon":5.38719,"is_reserved":false,"is_disabled":false,"rental_uris":{"android":"levelo://app?vid=5e44bff3-2591-4a2e-b8f9-fc03c46849b4","ios":"levelo://app?vid=5e44bff3-2591-4a2e-b8f9-fc03c46849b4"},"vehicle_type_id":"4","last_reported":1761250279,"current_range_meters":15200,"station_id":"ce4bgv12rcd13ifvqcp0","pricing_plan_id":"cebpf4jnsgd1na2vs0mg"},{"bike_id":"7c578ab6-d276-4307-9cb3-b7604ae2fb26","system_id":"levelo_inurba_marseille","lat":43.28371,"lon":5.38629,"is_reserved":false,"is_disabled":false,"rental_uris":{"android":"levelo://app?vid=7c578ab6-d276-4307-9cb3-b7604ae2fb26","ios":"levelo://app?vid=7c578ab6-d276-4307-9cb3-b7604ae2fb26"},"vehicle_type_id":"4","last_reported":1761250279,"current_range_meters":15200,"station_id":"ce4bh492rcd13ifvqdvg","pricing_plan_id":"cebpf4jnsgd1na2vs0mg"},{"bike_id":"25b2c7ba-fdce-4234-8dd0-f527bbadc63e","system_id":"levelo_inurba_marseille","lat":43.31072,"lon":5.38351,"is_reserved":false,"is_disabled":false,"rental_uris":{"android":"levelo://app?vid=25b2c7ba-fdce-4234-8dd0-f527bbadc63e","ios":"levelo://app?vid=25b2c7ba-fdce-4234-8dd0-f527bbadc63e"},"vehicle_type_id":"4","last_reported":1761250279,"current_range_meters":16000,"station_id":"ce4bgv92rcd13ifvqcr0","pricing_plan_id":"cebpf4jnsgd1na2vs0mg"},{"bike_id":"ab8375b4-7f5d-4b73-bfc0-78d1bc91447d","system_id":"levelo_inurba_marseille","lat":43.29536,"lon":5.38543,"is_reserved":false,"is_disabled":false,"rental_uris":{"android":"levelo://app?vid=ab8375b4-7f5d-4b73-bfc0-78d1bc91447d","ios":"levelo://app?vid=ab8375b4-7f5d-4b73-bfc0-78d1bc91447d"},"vehicle_type_id":"4","last_reported":1761250279,"current_range_meters":16000,"station_id":"ce4bgih2rcd13ifvqba0","pricing_plan_id":"cebpf4jnsgd1na2vs0mg"},{"bike_id":"83d833af-e5f6-4303-8e6a-c2cb5afde617","system_id":"levelo_inurba_marseille","lat":43.29269,"lon":5.38438,"is_reserved":false,"is_disabled":false,"rental_uris":{"android":"levelo://app?vid=83d833af-e5f6-4303-8e6a-c2cb5afde617","ios":"levelo://app?vid=83d833af-e5f6-4303-8e6a-c2cb5afde617"},"vehicle_type_id":"4","last_reported":1761250279,"current_range_meters":16000,"station_id":"ce4bh692rcd13ifvqea0","pricing_plan_id":"cebpf4jnsgd1na2vs0mg"},{"bike_id":"2e51ab34-6fc0-4206-b5a5-25fb630cf9db","system_id":"levelo_inurba_marseille","lat":43.290333,"lon":5.38647,"is_reserved":false,"is_disabled":false,"rental_uris":{"android":"levelo://app?vid=2e51ab34-6fc0-4206-b5a5-25fb630cf9db","ios":"levelo://app?vid=2e51ab34-6fc0-4206-b5a5-25fb630cf9db"},"vehicle_type_id":"4","last_reported":1761250279,"current_range_meters":16000,"station_id":"ce4bh4p2rcd13ifvqe0g","pricing_plan_id":"cebpf4jnsgd1na2vs0mg"},{"bike_id":"eab23f2c-0836-4a61-91c1-750fc95ef83c","system_id":"levelo_inurba_marseille","lat":43.29258,"lon":5.40916,"is_reserved":false,"is_disabled":false,"rental_uris":{"android":"levelo://app?vid=eab23f2c-0836-4a61-91c1-750fc95ef83c","ios":"levelo://app?vid=eab23f2c-0836-4a61-91c1-750fc95ef83c"},"vehicle_type_id":"4","last_reported":1761250279,"current_range_meters":16000,"station_id":"ce4bh192rcd13ifvqdc0","pricing_plan_id":"cebpf4jnsgd1na2vs0mg"},{"bike_id":"7f10cb41-4375-45db-98d0-5fae7c5c6b64","system_id":"levelo_inurba_marseille","lat":43.29052,"lon":5.35904,"is_reserved":false,"is_disabled":false,"rental_uris":{"android":"levelo://app?vid=7f10cb41-4375-45db-98d0-5fae7c5c6b64","ios":"levelo://app?vid=7f10cb41-4375-45db-98d0-5fae7c5c6b64"},"vehicle_type_id":"4","last_reported":1761250279,"current_range_meters":16000,"station_id":"ce4bha92rcd13ifvqeg0","pricing_plan_id":"cebpf4jnsgd1na2vs0mg"},{"bike_id":"dd8230b0-1e26-498e-ba75-bcf21e810dc3","system_id":"levelo_inurba_marseille","lat":43.29071,"lon":5.37159,"is_reserved":false,"is_disabled":false,"rental_uris":{"android":"levelo://app?vid=dd8230b0-1e26-498e-ba75-bcf21e810dc3","ios":"levelo://app?vid=dd8230b0-1e26-498e-ba75-bcf21e810dc3"},"vehicle_type_id":"4","last_reported":1761250279,"current_range_meters":16000,"station_id":"ce4bh5p2rcd13ifvqe4g","pricing_plan_id":"cebpf4jnsgd1na2vs0mg"},{"bike_id":"81203e93-15ed-41af-87ea-c2d0f92390d1","system_id":"levelo_inurba_marseille","lat":43.29265,"lon":5.38447,"is_reserved":false,"is_disabled":false,"rental_uris":{"android":"levelo://app?vid=81203e93-15ed-41af-87ea-c2d0f92390d1","ios":"levelo://app?vid=81203e93-15ed-41af-87ea-c2d0f92390d1"},"vehicle_type_id":"4","last_reported":1761250279,"current_range_meters":16000,"station_id":"ce4bh692rcd13ifvqea0","pricing_plan_id":"cebpf4jnsgd1na2vs0mg"},{"bike_id":"882401c7-6650-4fc0-a6a7-b8536ac70367","system_id":"levelo_inurba_marseille","lat":43.27072,"lon":5.42247,"is_reserved":false,"is_disabled":false,"rental_uris":{"android":"levelo://app?vid=882401c7-6650-4fc0-a6a7-b8536ac70367","ios":"levelo://app?vid=882401c7-6650-4fc0-a6a7-b8536ac70367"},"vehicle_type_id":"4","last_reported":1761250279,"current_range_meters":16000,"station_id":"ce4bhk92rcd13ifvqgb0","pricing_plan_id":"cebpf4jnsgd1na2vs0mg"},{"bike_id":"2ccd8d40-51ce-4f5d-9b0a-6f2f5eef1d12","system_id":"levelo_inurba_marseille","lat":43.29189,"lon":5.35808,"is_reserved":false,"is_disabled":false,"rental_uris":{"android":"levelo://app?vid=2ccd8d40-51ce-4f5d-9b0a-6f2f5eef1d12","ios":"levelo://app?vid=2ccd8d40-51ce-4f5d-9b0a-6f2f5eef1d12"},"vehicle_type_id":"4","last_reported":1761250279,"current_range_meters":16400,"station_id":"ce4bhb12rcd13ifvqel0","pricing_plan_id":"cebpf4jnsgd1na2vs0mg"},{"bike_id":"6bba42e7-643f-4758-bcb3-a98c7aab3261","system_id":"levelo_inurba_marseille","lat":43.29249,"lon":5.38426,"is_reserved":false,"is_disabled":false,"rental_uris":{"android":"levelo://app?vid=6bba42e7-643f-4758-bcb3-a98c7aab3261","ios":"levelo://app?vid=6bba42e7-643f-4758-bcb3-a98c7aab3261"},"vehicle_type_id":"4","last_reported":1761250279,"current_range_meters":16400,"station_id":"ce4bh692rcd13ifvqea0","pricing_plan_id":"cebpf4jnsgd1na2vs0mg"},{"bike_id":"e986eb56-ca00-4dbf-ada0-578bc3d8f529","system_id":"levelo_inurba_marseille","lat":43.27339,"lon":5.41452,"is_reserved":false,"is_disabled":false,"rental_uris":{"android":"levelo://app?vid=e986eb56-ca00-4dbf-ada0-578bc3d8f529","ios":"levelo://app?vid=e986eb56-ca00-4dbf-ada0-578bc3d8f529"},"vehicle_type_id":"4","last_reported":1761250279,"current_range_meters":16400,"station_id":"","pricing_plan_id":"cebpf4jnsgd1na2vs0mg"},{"bike_id":"e3bf6165-ff06-441c-a987-dbc233b13aa8","system_id":"levelo_inurba_marseille","lat":43.29306,"lon":5.37167,"is_reserved":false,"is_disabled":false,"rental_uris":{"android":"levelo://app?vid=e3bf6165-ff06-441c-a987-dbc233b13aa8","ios":"levelo://app?vid=e3bf6165-ff06-441c-a987-dbc233b13aa8"},"vehicle_type_id":"4","last_reported":1761250279,"current_range_meters":16400,"station_id":"ce4bgh92rcd13ifvqb40","pricing_plan_id":"cebpf4jnsgd1na2vs0mg"},{"bike_id":"c12a786b-d447-4373-876a-58fc20f19148","system_id":"levelo_inurba_marseille","lat":43.29903,"lon":5.4366,"is_reserved":false,"is_disabled":false,"rental_uris":{"android":"levelo://app?vid=c12a786b-d447-4373-876a-58fc20f19148","ios":"levelo://app?vid=c12a786b-d447-4373-876a-58fc20f19148"},"vehicle_type_id":"4","last_reported":1761250279,"current_range_meters":16400,"station_id":"ce4bhpp2rcd13ifvqhfg","pricing_plan_id":"cebpf4jnsgd1na2vs0mg"},{"bike_id":"d9ecb998-ceaa-4a39-8aba-9f0e44069447","system_id":"levelo_inurba_marseille","lat":43.32147,"lon":5.38731,"is_reserved":false,"is_disabled":false,"rental_uris":{"android":"levelo://app?vid=d9ecb998-ceaa-4a39-8aba-9f0e44069447","ios":"levelo://app?vid=d9ecb998-ceaa-4a39-8aba-9f0e44069447"},"vehicle_type_id":"4","last_reported":1761250279,"current_range_meters":16400,"station_id":"","pricing_plan_id":"cebpf4jnsgd1na2vs0mg"},{"bike_id":"126be4bc-91ae-4641-893b-1b51eeff641d","system_id":"levelo_inurba_marseille","lat":43.30891,"lon":5.39634,"is_reserved":false,"is_disabled":false,"rental_uris":{"android":"levelo://app?vid=126be4bc-91ae-4641-893b-1b51eeff641d","ios":"levelo://app?vid=126be4bc-91ae-4641-893b-1b51eeff641d"},"vehicle_type_id":"4","last_reported":1761250279,"current_range_meters":16800,"station_id":"ce4bh012rcd13ifvqcv0","pricing_plan_id":"cebpf4jnsgd1na2vs0mg"},{"bike_id":"d7ee83eb-ff8f-46b0-9925-8298dbedac1a","system_id":"levelo_inurba_marseille","lat":43.32246,"lon":5.38357,"is_reserved":false,"is_disabled":false,"rental_uris":{"android":"levelo://app?vid=d7ee83eb-ff8f-46b0-9925-8298dbedac1a","ios":"levelo://app?vid=d7ee83eb-ff8f-46b0-9925-8298dbedac1a"},"vehicle_type_id":"4","last_reported":1761250279,"current_range_meters":16800,"station_id":"ce4bhr12rcd13ifvqhqg","pricing_plan_id":"cebpf4jnsgd1na2vs0mg"},{"bike_id":"3cb7792b-43db-41f0-96a4-9a586e0436bb","system_id":"levelo_inurba_marseille","lat":43.286021,"lon":5.370631,"is_reserved":false,"is_disabled":false,"rental_uris":{"android":"levelo://app?vid=3cb7792b-43db-41f0-96a4-9a586e0436bb","ios":"levelo://app?vid=3cb7792b-43db-41f0-96a4-9a586e0436bb"},"vehicle_type_id":"4","last_reported":1761250279,"current_range_meters":16800,"station_id":"ce4bht12rcd13ifvqi60","pricing_plan_id":"cebpf4jnsgd1na2vs0mg"},{"bike_id":"2e516aa3-da3f-4cd4-8d7a-1dc8bf5d8ddd","system_id":"levelo_inurba_marseille","lat":43.3214,"lon":5.36784,"is_reserved":false,"is_disabled":false,"rental_uris":{"android":"levelo://app?vid=2e516aa3-da3f-4cd4-8d7a-1dc8bf5d8ddd","ios":"levelo://app?vid=2e516aa3-da3f-4cd4-8d7a-1dc8bf5d8ddd"},"vehicle_type_id":"4","last_reported":1761250279,"current_range_meters":16800,"station_id":"","pricing_plan_id":"cebpf4jnsgd1na2vs0mg"},{"bike_id":"24441694-1b85-40bf-b4cb-e2e4cc4c94d3","system_id":"levelo_inurba_marseille","lat":43.31118,"lon":5.37743,"is_reserved":false,"is_disabled":false,"rental_uris":{"android":"levelo://app?vid=24441694-1b85-40bf-b4cb-e2e4cc4c94d3","ios":"levelo://app?vid=24441694-1b85-40bf-b4cb-e2e4cc4c94d3"},"vehicle_type_id":"4","last_reported":1761250279,"current_range_meters":16800,"station_id":"ce4bgt92rcd13ifvqcg0","pricing_plan_id":"cebpf4jnsgd1na2vs0mg"},{"bike_id":"67684d67-b2f6-4d0b-9ff2-65b147dd8394","system_id":"levelo_inurba_marseille","lat":43.281744,"lon":5.378773,"is_reserved":false,"is_disabled":false,"rental_uris":{"android":"levelo://app?vid=67684d67-b2f6-4d0b-9ff2-65b147dd8394","ios":"levelo://app?vid=67684d67-b2f6-4d0b-9ff2-65b147dd8394"},"vehicle_type_id":"4","last_reported":1761250279,"current_range_meters":16800,"station_id":"ce4bha12rcd13ifvqee0","pricing_plan_id":"cebpf4jnsgd1na2vs0mg"},{"bike_id":"8edaa120-7a79-45eb-9ba1-df1e8a0d98a5","system_id":"levelo_inurba_marseille","lat":43.28427,"lon":5.37513,"is_reserved":false,"is_disabled":false,"rental_uris":{"android":"levelo://app?vid=8edaa120-7a79-45eb-9ba1-df1e8a0d98a5","ios":"levelo://app?vid=8edaa120-7a79-45eb-9ba1-df1e8a0d98a5"},"vehicle_type_id":"4","last_reported":1761250279,"current_range_meters":16800,"station_id":"ce4bh412rcd13ifvqds0","pricing_plan_id":"cebpf4jnsgd1na2vs0mg"},{"bike_id":"3d3afa6b-9644-47cc-9684-875ec823eca3","system_id":"levelo_inurba_marseille","lat":43.2866,"lon":5.386871,"is_reserved":false,"is_disabled":false,"rental_uris":{"android":"levelo://app?vid=3d3afa6b-9644-47cc-9684-875ec823eca3","ios":"levelo://app?vid=3d3afa6b-9644-47cc-9684-875ec823eca3"},"vehicle_type_id":"4","last_reported":1761250279,"current_range_meters":16800,"station_id":"ce4bh492rcd13ifvqdug","pricing_plan_id":"cebpf4jnsgd1na2vs0mg"},{"bike_id":"715d0666-8466-49d9-a4ed-2e59310b2d74","system_id":"levelo_inurba_marseille","lat":43.313569,"lon":5.384939,"is_reserved":false,"is_disabled":false,"rental_uris":{"android":"levelo://app?vid=715d0666-8466-49d9-a4ed-2e59310b2d74","ios":"levelo://app?vid=715d0666-8466-49d9-a4ed-2e59310b2d74"},"vehicle_type_id":"4","last_reported":1761250279,"current_range_meters":17200,"station_id":"ce4bgt92rcd13ifvqcf0","pricing_plan_id":"cebpf4jnsgd1na2vs0mg"},{"bike_id":"e8ceb4e1-93b2-43e9-bf1a-b8b5a7de8342","system_id":"levelo_inurba_marseille","lat":43.3089,"lon":5.39651,"is_reserved":false,"is_disabled":false,"rental_uris":{"android":"levelo://app?vid=e8ceb4e1-93b2-43e9-bf1a-b8b5a7de8342","ios":"levelo://app?vid=e8ceb4e1-93b2-43e9-bf1a-b8b5a7de8342"},"vehicle_type_id":"4","last_reported":1761250279,"current_range_meters":17200,"station_id":"ce4bh012rcd13ifvqcv0","pricing_plan_id":"cebpf4jnsgd1na2vs0mg"},{"bike_id":"4bb99ab7-f9cd-4fa5-b387-e243bec85e12","system_id":"levelo_inurba_marseille","lat":43.23803,"lon":5.36624,"is_reserved":false,"is_disabled":false,"rental_uris":{"android":"levelo://app?vid=4bb99ab7-f9cd-4fa5-b387-e243bec85e12","ios":"levelo://app?vid=4bb99ab7-f9cd-4fa5-b387-e243bec85e12"},"vehicle_type_id":"4","last_reported":1761250279,"current_range_meters":17200,"station_id":"st_d3nk18o9ro0c73en2l3g","pricing_plan_id":"cebpf4jnsgd1na2vs0mg"},{"bike_id":"169d93d0-a464-4dc5-a2e0-e71310d74f7a","system_id":"levelo_inurba_marseille","lat":43.3064,"lon":5.40092,"is_reserved":false,"is_disabled":false,"rental_uris":{"android":"levelo://app?vid=169d93d0-a464-4dc5-a2e0-e71310d74f7a","ios":"levelo://app?vid=169d93d0-a464-4dc5-a2e0-e71310d74f7a"},"vehicle_type_id":"4","last_reported":1761250279,"current_range_meters":17200,"station_id":"ce4bh112rcd13ifvqda0","pricing_plan_id":"cebpf4jnsgd1na2vs0mg"},{"bike_id":"82a6ac02-8c08-4f93-844a-981cd0f715d0","system_id":"levelo_inurba_marseille","lat":43.25525,"lon":5.37651,"is_reserved":false,"is_disabled":false,"rental_uris":{"android":"levelo://app?vid=82a6ac02-8c08-4f93-844a-981cd0f715d0","ios":"levelo://app?vid=82a6ac02-8c08-4f93-844a-981cd0f715d0"},"vehicle_type_id":"4","last_reported":1761250279,"current_range_meters":17200,"station_id":"ce4bhh12rcd13ifvqff0","pricing_plan_id":"cebpf4jnsgd1na2vs0mg"},{"bike_id":"285ac1ec-4bc9-4d4e-864f-c47375842394","system_id":"levelo_inurba_marseille","lat":43.30424,"lon":5.39744,"is_reserved":false,"is_disabled":false,"rental_uris":{"android":"levelo://app?vid=285ac1ec-4bc9-4d4e-864f-c47375842394","ios":"levelo://app?vid=285ac1ec-4bc9-4d4e-864f-c47375842394"},"vehicle_type_id":"4","last_reported":1761250279,"current_range_meters":17200,"station_id":"ce4bh092rcd13ifvqd20","pricing_plan_id":"cebpf4jnsgd1na2vs0mg"},{"bike_id":"0c216ec5-2d75-4ee4-a223-b0d23bee74b5","system_id":"levelo_inurba_marseille","lat":43.24641,"lon":5.38877,"is_reserved":false,"is_disabled":false,"rental_uris":{"android":"levelo://app?vid=0c216ec5-2d75-4ee4-a223-b0d23bee74b5","ios":"levelo://app?vid=0c216ec5-2d75-4ee4-a223-b0d23bee74b5"},"vehicle_type_id":"4","last_reported":1761250279,"current_range_meters":17200,"station_id":"ce4bhg12rcd13ifvqf60","pricing_plan_id":"cebpf4jnsgd1na2vs0mg"},{"bike_id":"f98272e2-777c-44c7-a06c-55a3d2e52bc0","system_id":"levelo_inurba_marseille","lat":43.29549,"lon":5.38549,"is_reserved":false,"is_disabled":false,"rental_uris":{"android":"levelo://app?vid=f98272e2-777c-44c7-a06c-55a3d2e52bc0","ios":"levelo://app?vid=f98272e2-777c-44c7-a06c-55a3d2e52bc0"},"vehicle_type_id":"4","last_reported":1761250279,"current_range_meters":17200,"station_id":"ce4bgih2rcd13ifvqba0","pricing_plan_id":"cebpf4jnsgd1na2vs0mg"},{"bike_id":"30069b25-b221-47a9-bc79-423da0fc51cf","system_id":"levelo_inurba_marseille","lat":43.29309,"lon":5.37156,"is_reserved":false,"is_disabled":false,"rental_uris":{"android":"levelo://app?vid=30069b25-b221-47a9-bc79-423da0fc51cf","ios":"levelo://app?vid=30069b25-b221-47a9-bc79-423da0fc51cf"},"vehicle_type_id":"4","last_reported":1761250279,"current_range_meters":17200,"station_id":"ce4bgh92rcd13ifvqb40","pricing_plan_id":"cebpf4jnsgd1na2vs0mg"},{"bike_id":"ef096c7f-2d04-45e7-91e4-52578045f579","system_id":"levelo_inurba_marseille","lat":43.2319,"lon":5.39984,"is_reserved":false,"is_disabled":true,"rental_uris":{"android":"levelo://app?vid=ef096c7f-2d04-45e7-91e4-52578045f579","ios":"levelo://app?vid=ef096c7f-2d04-45e7-91e4-52578045f579"},"vehicle_type_id":"4","last_reported":1761250279,"current_range_meters":17600,"station_id":"ce4bhn12rcd13ifvqgqg","pricing_plan_id":"cebpf4jnsgd1na2vs0mg"},{"bike_id":"f8c755d7-1bb8-4fcd-bb3f-74aeb49951cc","system_id":"levelo_inurba_marseille","lat":43.31381,"lon":5.37897,"is_reserved":false,"is_disabled":false,"rental_uris":{"android":"levelo://app?vid=f8c755d7-1bb8-4fcd-bb3f-74aeb49951cc","ios":"levelo://app?vid=f8c755d7-1bb8-4fcd-bb3f-74aeb49951cc"},"vehicle_type_id":"4","last_reported":1761250279,"current_range_meters":17600,"station_id":"","pricing_plan_id":"cebpf4jnsgd1na2vs0mg"},{"bike_id":"75552eb5-38a2-43ca-9291-cacb859b6f73","system_id":"levelo_inurba_marseille","lat":43.284215,"lon":5.349847,"is_reserved":false,"is_disabled":false,"rental_uris":{"android":"levelo://app?vid=75552eb5-38a2-43ca-9291-cacb859b6f73","ios":"levelo://app?vid=75552eb5-38a2-43ca-9291-cacb859b6f73"},"vehicle_type_id":"4","last_reported":1761250279,"current_range_meters":17600,"station_id":"","pricing_plan_id":"cebpf4jnsgd1na2vs0mg"},{"bike_id":"2a38ccd6-cd1f-4334-ba24-1d75d0150e1d","system_id":"levelo_inurba_marseille","lat":43.31128,"lon":5.37769,"is_reserved":false,"is_disabled":false,"rental_uris":{"android":"levelo://app?vid=2a38ccd6-cd1f-4334-ba24-1d75d0150e1d","ios":"levelo://app?vid=2a38ccd6-cd1f-4334-ba24-1d75d0150e1d"},"vehicle_type_id":"4","last_reported":1761250279,"current_range_meters":17600,"station_id":"ce4bgt92rcd13ifvqcg0","pricing_plan_id":"cebpf4jnsgd1na2vs0mg"},{"bike_id":"61cf6d21-5395-4fad-a0fc-bcd9f2fca6d4","system_id":"levelo_inurba_marseille","lat":43.288519,"lon":5.378847,"is_reserved":false,"is_disabled":false,"rental_uris":{"android":"levelo://app?vid=61cf6d21-5395-4fad-a0fc-bcd9f2fca6d4","ios":"levelo://app?vid=61cf6d21-5395-4fad-a0fc-bcd9f2fca6d4"},"vehicle_type_id":"4","last_reported":1761250279,"current_range_meters":17600,"station_id":"ce4bh9p2rcd13ifvqec0","pricing_plan_id":"cebpf4jnsgd1na2vs0mg"},{"bike_id":"84c6511c-08a6-4aa3-9d4a-2ba3f27a8985","system_id":"levelo_inurba_marseille","lat":43.29538,"lon":5.38553,"is_reserved":false,"is_disabled":false,"rental_uris":{"android":"levelo://app?vid=84c6511c-08a6-4aa3-9d4a-2ba3f27a8985","ios":"levelo://app?vid=84c6511c-08a6-4aa3-9d4a-2ba3f27a8985"},"vehicle_type_id":"4","last_reported":1761250279,"current_range_meters":17600,"station_id":"ce4bgih2rcd13ifvqba0","pricing_plan_id":"cebpf4jnsgd1na2vs0mg"},{"bike_id":"502fea4f-6102-44b9-b43f-52dd65266bfd","system_id":"levelo_inurba_marseille","lat":43.30592,"lon":5.39334,"is_reserved":false,"is_disabled":false,"rental_uris":{"android":"levelo://app?vid=502fea4f-6102-44b9-b43f-52dd65266bfd","ios":"levelo://app?vid=502fea4f-6102-44b9-b43f-52dd65266bfd"},"vehicle_type_id":"4","last_reported":1761250279,"current_range_meters":17600,"station_id":"ce4bh0p2rcd13ifvqd80","pricing_plan_id":"cebpf4jnsgd1na2vs0mg"},{"bike_id":"bb897963-cb50-41b0-84a8-35a05d3159e7","system_id":"levelo_inurba_marseille","lat":43.31121,"lon":5.37755,"is_reserved":false,"is_disabled":false,"rental_uris":{"android":"levelo://app?vid=bb897963-cb50-41b0-84a8-35a05d3159e7","ios":"levelo://app?vid=bb897963-cb50-41b0-84a8-35a05d3159e7"},"vehicle_type_id":"4","last_reported":1761250279,"current_range_meters":18000,"station_id":"ce4bgt92rcd13ifvqcg0","pricing_plan_id":"cebpf4jnsgd1na2vs0mg"},{"bike_id":"a0a3e2e6-f6d9-4e27-a510-a2aa84830e78","system_id":"levelo_inurba_marseille","lat":43.30882,"lon":5.37831,"is_reserved":false,"is_disabled":false,"rental_uris":{"android":"levelo://app?vid=a0a3e2e6-f6d9-4e27-a510-a2aa84830e78","ios":"levelo://app?vid=a0a3e2e6-f6d9-4e27-a510-a2aa84830e78"},"vehicle_type_id":"4","last_reported":1761250279,"current_range_meters":18000,"station_id":"","pricing_plan_id":"cebpf4jnsgd1na2vs0mg"},{"bike_id":"47f09c0c-92a9-44eb-a23c-69934b3ff134","system_id":"levelo_inurba_marseille","lat":43.30108,"lon":5.43129,"is_reserved":false,"is_disabled":false,"rental_uris":{"android":"levelo://app?vid=47f09c0c-92a9-44eb-a23c-69934b3ff134","ios":"levelo://app?vid=47f09c0c-92a9-44eb-a23c-69934b3ff134"},"vehicle_type_id":"4","last_reported":1761250279,"current_range_meters":18000,"station_id":"st_d3js3co5814s73ftftug","pricing_plan_id":"cebpf4jnsgd1na2vs0mg"},{"bike_id":"75765de9-f740-4f58-8f2f-b0e28986759f","system_id":"levelo_inurba_marseille","lat":43.30952,"lon":5.39234,"is_reserved":false,"is_disabled":false,"rental_uris":{"android":"levelo://app?vid=75765de9-f740-4f58-8f2f-b0e28986759f","ios":"levelo://app?vid=75765de9-f740-4f58-8f2f-b0e28986759f"},"vehicle_type_id":"4","last_reported":1761250279,"current_range_meters":18000,"station_id":"","pricing_plan_id":"cebpf4jnsgd1na2vs0mg"},{"bike_id":"77124793-d73a-43ea-8840-1a1b5476fa23","system_id":"levelo_inurba_marseille","lat":43.31044,"lon":5.38055,"is_reserved":false,"is_disabled":false,"rental_uris":{"android":"levelo://app?vid=77124793-d73a-43ea-8840-1a1b5476fa23","ios":"levelo://app?vid=77124793-d73a-43ea-8840-1a1b5476fa23"},"vehicle_type_id":"4","last_reported":1761250279,"current_range_meters":18000,"station_id":"","pricing_plan_id":"cebpf4jnsgd1na2vs0mg"},{"bike_id":"f7ad8d92-1eb3-4374-ae58-2d0d64fb53e4","system_id":"levelo_inurba_marseille","lat":43.29024,"lon":5.38639,"is_reserved":false,"is_disabled":false,"rental_uris":{"android":"levelo://app?vid=f7ad8d92-1eb3-4374-ae58-2d0d64fb53e4","ios":"levelo://app?vid=f7ad8d92-1eb3-4374-ae58-2d0d64fb53e4"},"vehicle_type_id":"4","last_reported":1761250279,"current_range_meters":18800,"station_id":"ce4bh4p2rcd13ifvqe0g","pricing_plan_id":"cebpf4jnsgd1na2vs0mg"},{"bike_id":"475144be-fac0-4ecf-939a-97f9bc0d3d8c","system_id":"levelo_inurba_marseille","lat":43.29553,"lon":5.42291,"is_reserved":false,"is_disabled":false,"rental_uris":{"android":"levelo://app?vid=475144be-fac0-4ecf-939a-97f9bc0d3d8c","ios":"levelo://app?vid=475144be-fac0-4ecf-939a-97f9bc0d3d8c"},"vehicle_type_id":"4","last_reported":1761250279,"current_range_meters":18800,"station_id":"ce4bhph2rcd13ifvqhdg","pricing_plan_id":"cebpf4jnsgd1na2vs0mg"},{"bike_id":"ade2c72f-fd95-408c-bb15-248c19e41170","system_id":"levelo_inurba_marseille","lat":43.284084,"lon":5.349827,"is_reserved":false,"is_disabled":false,"rental_uris":{"android":"levelo://app?vid=ade2c72f-fd95-408c-bb15-248c19e41170","ios":"levelo://app?vid=ade2c72f-fd95-408c-bb15-248c19e41170"},"vehicle_type_id":"4","last_reported":1761250279,"current_range_meters":18800,"station_id":"ce4bhbh2rcd13ifvqepg","pricing_plan_id":"cebpf4jnsgd1na2vs0mg"},{"bike_id":"bc87dea4-79a3-4ed3-aacd-3d26accd672a","system_id":"levelo_inurba_marseille","lat":43.29021,"lon":5.38628,"is_reserved":false,"is_disabled":false,"rental_uris":{"android":"levelo://app?vid=bc87dea4-79a3-4ed3-aacd-3d26accd672a","ios":"levelo://app?vid=bc87dea4-79a3-4ed3-aacd-3d26accd672a"},"vehicle_type_id":"4","last_reported":1761250279,"current_range_meters":19200,"station_id":"ce4bh4p2rcd13ifvqe0g","pricing_plan_id":"cebpf4jnsgd1na2vs0mg"},{"bike_id":"bc18986f-720e-4fb1-8991-ac16da488f75","system_id":"levelo_inurba_marseille","lat":43.27917,"lon":5.39567,"is_reserved":false,"is_disabled":false,"rental_uris":{"android":"levelo://app?vid=bc18986f-720e-4fb1-8991-ac16da488f75","ios":"levelo://app?vid=bc18986f-720e-4fb1-8991-ac16da488f75"},"vehicle_type_id":"4","last_reported":1761250279,"current_range_meters":19200,"station_id":"ce4bhf92rcd13ifvqf40","pricing_plan_id":"cebpf4jnsgd1na2vs0mg"},{"bike_id":"249615da-bae2-4bb3-9506-b338b9fb85b7","system_id":"levelo_inurba_marseille","lat":43.297135,"lon":5.376962,"is_reserved":false,"is_disabled":true,"rental_uris":{"android":"levelo://app?vid=249615da-bae2-4bb3-9506-b338b9fb85b7","ios":"levelo://app?vid=249615da-bae2-4bb3-9506-b338b9fb85b7"},"vehicle_type_id":"4","last_reported":1761250279,"current_range_meters":19200,"station_id":"ce4bgkh2rcd13ifvqbl0","pricing_plan_id":"cebpf4jnsgd1na2vs0mg"},{"bike_id":"1e04bd5e-dba9-4c39-b5e3-df33312b1ae1","system_id":"levelo_inurba_marseille","lat":43.270632,"lon":5.383129,"is_reserved":false,"is_disabled":false,"rental_uris":{"android":"levelo://app?vid=1e04bd5e-dba9-4c39-b5e3-df33312b1ae1","ios":"levelo://app?vid=1e04bd5e-dba9-4c39-b5e3-df33312b1ae1"},"vehicle_type_id":"4","last_reported":1761250279,"current_range_meters":19200,"station_id":"st_d3n2fo6cfp8s73cte1j0","pricing_plan_id":"cebpf4jnsgd1na2vs0mg"},{"bike_id":"c7da3e35-2daf-4af2-ba5c-a17e49c031cc","system_id":"levelo_inurba_marseille","lat":43.25586,"lon":5.38226,"is_reserved":false,"is_disabled":false,"rental_uris":{"android":"levelo://app?vid=c7da3e35-2daf-4af2-ba5c-a17e49c031cc","ios":"levelo://app?vid=c7da3e35-2daf-4af2-ba5c-a17e49c031cc"},"vehicle_type_id":"4","last_reported":1761250279,"current_range_meters":19200,"station_id":"ce4bhih2rcd13ifvqfs0","pricing_plan_id":"cebpf4jnsgd1na2vs0mg"},{"bike_id":"e4d9d28d-de5d-4eba-b45f-0315c6967297","system_id":"levelo_inurba_marseille","lat":43.2509,"lon":5.39509,"is_reserved":false,"is_disabled":false,"rental_uris":{"android":"levelo://app?vid=e4d9d28d-de5d-4eba-b45f-0315c6967297","ios":"levelo://app?vid=e4d9d28d-de5d-4eba-b45f-0315c6967297"},"vehicle_type_id":"4","last_reported":1761250279,"current_range_meters":19200,"station_id":"ce4bhm12rcd13ifvqgkg","pricing_plan_id":"cebpf4jnsgd1na2vs0mg"},{"bike_id":"dde114a4-8805-4784-b02d-0d744116457b","system_id":"levelo_inurba_marseille","lat":43.2294,"lon":5.35381,"is_reserved":false,"is_disabled":false,"rental_uris":{"android":"levelo://app?vid=dde114a4-8805-4784-b02d-0d744116457b","ios":"levelo://app?vid=dde114a4-8805-4784-b02d-0d744116457b"},"vehicle_type_id":"4","last_reported":1761250279,"current_range_meters":19200,"station_id":"cpo3532slgdg3j2ikp40","pricing_plan_id":"cebpf4jnsgd1na2vs0mg"},{"bike_id":"41e21137-1e1a-4741-b195-1b98dc043b19","system_id":"levelo_inurba_marseille","lat":43.23962,"lon":5.36626,"is_reserved":false,"is_disabled":false,"rental_uris":{"android":"levelo://app?vid=41e21137-1e1a-4741-b195-1b98dc043b19","ios":"levelo://app?vid=41e21137-1e1a-4741-b195-1b98dc043b19"},"vehicle_type_id":"4","last_reported":1761250279,"current_range_meters":19600,"station_id":"ce4bhi12rcd13ifvqfp0","pricing_plan_id":"cebpf4jnsgd1na2vs0mg"},{"bike_id":"686ed95d-7280-4003-93cd-b29850a8ff37","system_id":"levelo_inurba_marseille","lat":43.301712,"lon":5.375412,"is_reserved":false,"is_disabled":false,"rental_uris":{"android":"levelo://app?vid=686ed95d-7280-4003-93cd-b29850a8ff37","ios":"levelo://app?vid=686ed95d-7280-4003-93cd-b29850a8ff37"},"vehicle_type_id":"4","last_reported":1761250279,"current_range_meters":19600,"station_id":"ce4bguh2rcd13ifvqcj0","pricing_plan_id":"cebpf4jnsgd1na2vs0mg"},{"bike_id":"9ae86c9c-591c-4afa-81d2-046a80c00715","system_id":"levelo_inurba_marseille","lat":43.29534,"lon":5.3854,"is_reserved":false,"is_disabled":false,"rental_uris":{"android":"levelo://app?vid=9ae86c9c-591c-4afa-81d2-046a80c00715","ios":"levelo://app?vid=9ae86c9c-591c-4afa-81d2-046a80c00715"},"vehicle_type_id":"4","last_reported":1761250279,"current_range_meters":19600,"station_id":"ce4bgih2rcd13ifvqba0","pricing_plan_id":"cebpf4jnsgd1na2vs0mg"},{"bike_id":"45e2bc20-c1aa-4135-a212-24bd1aa6499b","system_id":"levelo_inurba_marseille","lat":43.31338,"lon":5.39684,"is_reserved":false,"is_disabled":false,"rental_uris":{"android":"levelo://app?vid=45e2bc20-c1aa-4135-a212-24bd1aa6499b","ios":"levelo://app?vid=45e2bc20-c1aa-4135-a212-24bd1aa6499b"},"vehicle_type_id":"4","last_reported":1761250279,"current_range_meters":19600,"station_id":"ce4bgvp2rcd13ifvqcu0","pricing_plan_id":"cebpf4jnsgd1na2vs0mg"},{"bike_id":"4f5c5045-2f2c-4ab7-ad8b-eeba1d52fe66","system_id":"levelo_inurba_marseille","lat":43.31576,"lon":5.3721,"is_reserved":false,"is_disabled":false,"rental_uris":{"android":"levelo://app?vid=4f5c5045-2f2c-4ab7-ad8b-eeba1d52fe66","ios":"levelo://app?vid=4f5c5045-2f2c-4ab7-ad8b-eeba1d52fe66"},"vehicle_type_id":"4","last_reported":1761250279,"current_range_meters":19600,"station_id":"","pricing_plan_id":"cebpf4jnsgd1na2vs0mg"},{"bike_id":"0bee0626-b9a8-413e-bed7-d82dc19927df","system_id":"levelo_inurba_marseille","lat":43.31481,"lon":5.37303,"is_reserved":false,"is_disabled":false,"rental_uris":{"android":"levelo://app?vid=0bee0626-b9a8-413e-bed7-d82dc19927df","ios":"levelo://app?vid=0bee0626-b9a8-413e-bed7-d82dc19927df"},"vehicle_type_id":"4","last_reported":1761250279,"current_range_meters":19600,"station_id":"ce4bgt12rcd13ifvqcd0","pricing_plan_id":"cebpf4jnsgd1na2vs0mg"},{"bike_id":"e4118114-d541-4fb1-a4d2-f6456724e6fe","system_id":"levelo_inurba_marseille","lat":43.29531,"lon":5.38546,"is_reserved":false,"is_disabled":false,"rental_uris":{"android":"levelo://app?vid=e4118114-d541-4fb1-a4d2-f6456724e6fe","ios":"levelo://app?vid=e4118114-d541-4fb1-a4d2-f6456724e6fe"},"vehicle_type_id":"4","last_reported":1761250279,"current_range_meters":19600,"station_id":"ce4bgih2rcd13ifvqba0","pricing_plan_id":"cebpf4jnsgd1na2vs0mg"},{"bike_id":"3ca631e8-ee58-4447-9ffa-10b8c34e15a6","system_id":"levelo_inurba_marseille","lat":43.31174,"lon":5.38706,"is_reserved":false,"is_disabled":false,"rental_uris":{"android":"levelo://app?vid=3ca631e8-ee58-4447-9ffa-10b8c34e15a6","ios":"levelo://app?vid=3ca631e8-ee58-4447-9ffa-10b8c34e15a6"},"vehicle_type_id":"4","last_reported":1761250279,"current_range_meters":19600,"station_id":"ce4bgv12rcd13ifvqcp0","pricing_plan_id":"cebpf4jnsgd1na2vs0mg"},{"bike_id":"0048fdab-ab05-4de8-a8d8-55525be0d790","system_id":"levelo_inurba_marseille","lat":43.29198,"lon":5.39335,"is_reserved":false,"is_disabled":false,"rental_uris":{"android":"levelo://app?vid=0048fdab-ab05-4de8-a8d8-55525be0d790","ios":"levelo://app?vid=0048fdab-ab05-4de8-a8d8-55525be0d790"},"vehicle_type_id":"4","last_reported":1761250279,"current_range_meters":19600,"station_id":"ce4bh192rcd13ifvqdd0","pricing_plan_id":"cebpf4jnsgd1na2vs0mg"},{"bike_id":"e6f897b5-99e4-4a18-b61d-7e251afcfda8","system_id":"levelo_inurba_marseille","lat":43.29533,"lon":5.38535,"is_reserved":false,"is_disabled":false,"rental_uris":{"android":"levelo://app?vid=e6f897b5-99e4-4a18-b61d-7e251afcfda8","ios":"levelo://app?vid=e6f897b5-99e4-4a18-b61d-7e251afcfda8"},"vehicle_type_id":"4","last_reported":1761250279,"current_range_meters":20000,"station_id":"ce4bgih2rcd13ifvqba0","pricing_plan_id":"cebpf4jnsgd1na2vs0mg"},{"bike_id":"51f5c8c2-4020-440f-b660-182f7627d50e","system_id":"levelo_inurba_marseille","lat":43.27077,"lon":5.42266,"is_reserved":false,"is_disabled":true,"rental_uris":{"android":"levelo://app?vid=51f5c8c2-4020-440f-b660-182f7627d50e","ios":"levelo://app?vid=51f5c8c2-4020-440f-b660-182f7627d50e"},"vehicle_type_id":"4","last_reported":1761250279,"current_range_meters":20000,"station_id":"ce4bhk92rcd13ifvqgb0","pricing_plan_id":"cebpf4jnsgd1na2vs0mg"},{"bike_id":"17585014-36d0-4d96-ab97-1812e8c7fbe7","system_id":"levelo_inurba_marseille","lat":43.31667,"lon":5.38241,"is_reserved":false,"is_disabled":false,"rental_uris":{"android":"levelo://app?vid=17585014-36d0-4d96-ab97-1812e8c7fbe7","ios":"levelo://app?vid=17585014-36d0-4d96-ab97-1812e8c7fbe7"},"vehicle_type_id":"4","last_reported":1761250279,"current_range_meters":20000,"station_id":"","pricing_plan_id":"cebpf4jnsgd1na2vs0mg"},{"bike_id":"75eebb0f-2447-4bf8-b846-45b5b359059b","system_id":"levelo_inurba_marseille","lat":43.33769,"lon":5.37496,"is_reserved":false,"is_disabled":false,"rental_uris":{"android":"levelo://app?vid=75eebb0f-2447-4bf8-b846-45b5b359059b","ios":"levelo://app?vid=75eebb0f-2447-4bf8-b846-45b5b359059b"},"vehicle_type_id":"4","last_reported":1761250279,"current_range_meters":20000,"station_id":"","pricing_plan_id":"cebpf4jnsgd1na2vs0mg"},{"bike_id":"b8c97daa-9d25-46f3-82b1-f49b563fc2e4","system_id":"levelo_inurba_marseille","lat":43.2407,"lon":5.37772,"is_reserved":false,"is_disabled":false,"rental_uris":{"android":"levelo://app?vid=b8c97daa-9d25-46f3-82b1-f49b563fc2e4","ios":"levelo://app?vid=b8c97daa-9d25-46f3-82b1-f49b563fc2e4"},"vehicle_type_id":"4","last_reported":1761250279,"current_range_meters":20000,"station_id":"ce4bhnp2rcd13ifvqgvg","pricing_plan_id":"cebpf4jnsgd1na2vs0mg"},{"bike_id":"443169f7-d846-40c9-a7aa-fda85a0c675f","system_id":"levelo_inurba_marseille","lat":43.26193,"lon":5.3745,"is_reserved":false,"is_disabled":false,"rental_uris":{"android":"levelo://app?vid=443169f7-d846-40c9-a7aa-fda85a0c675f","ios":"levelo://app?vid=443169f7-d846-40c9-a7aa-fda85a0c675f"},"vehicle_type_id":"4","last_reported":1761250279,"current_range_meters":20000,"station_id":"ce4bhgp2rcd13ifvqfc0","pricing_plan_id":"cebpf4jnsgd1na2vs0mg"},{"bike_id":"2087b646-f196-4c5f-b880-88d0df9000fb","system_id":"levelo_inurba_marseille","lat":43.28164,"lon":5.42647,"is_reserved":false,"is_disabled":false,"rental_uris":{"android":"levelo://app?vid=2087b646-f196-4c5f-b880-88d0df9000fb","ios":"levelo://app?vid=2087b646-f196-4c5f-b880-88d0df9000fb"},"vehicle_type_id":"4","last_reported":1761250279,"current_range_meters":20000,"station_id":"ce4bhnh2rcd13ifvqgug","pricing_plan_id":"cebpf4jnsgd1na2vs0mg"},{"bike_id":"9ae01fb1-ec3b-4073-ab21-37ea7e38f9b7","system_id":"levelo_inurba_marseille","lat":43.29561,"lon":5.38517,"is_reserved":false,"is_disabled":false,"rental_uris":{"android":"levelo://app?vid=9ae01fb1-ec3b-4073-ab21-37ea7e38f9b7","ios":"levelo://app?vid=9ae01fb1-ec3b-4073-ab21-37ea7e38f9b7"},"vehicle_type_id":"4","last_reported":1761250279,"current_range_meters":20000,"station_id":"ce4bgih2rcd13ifvqba0","pricing_plan_id":"cebpf4jnsgd1na2vs0mg"},{"bike_id":"803e7e5e-954b-4a9e-916e-f4fe88233fe6","system_id":"levelo_inurba_marseille","lat":43.31166,"lon":5.38723,"is_reserved":false,"is_disabled":false,"rental_uris":{"android":"levelo://app?vid=803e7e5e-954b-4a9e-916e-f4fe88233fe6","ios":"levelo://app?vid=803e7e5e-954b-4a9e-916e-f4fe88233fe6"},"vehicle_type_id":"4","last_reported":1761250279,"current_range_meters":20000,"station_id":"ce4bgv12rcd13ifvqcp0","pricing_plan_id":"cebpf4jnsgd1na2vs0mg"},{"bike_id":"d73517f6-d19d-4528-bcf2-10d7aba64146","system_id":"levelo_inurba_marseille","lat":43.28532,"lon":5.44102,"is_reserved":false,"is_disabled":false,"rental_uris":{"android":"levelo://app?vid=d73517f6-d19d-4528-bcf2-10d7aba64146","ios":"levelo://app?vid=d73517f6-d19d-4528-bcf2-10d7aba64146"},"vehicle_type_id":"4","last_reported":1761250279,"current_range_meters":20000,"station_id":"st_d3j3df2ikq2c7380ej80","pricing_plan_id":"cebpf4jnsgd1na2vs0mg"},{"bike_id":"9d964ec4-c537-4f1d-b21c-451d3f46b1bf","system_id":"levelo_inurba_marseille","lat":43.29904,"lon":5.3786,"is_reserved":false,"is_disabled":false,"rental_uris":{"android":"levelo://app?vid=9d964ec4-c537-4f1d-b21c-451d3f46b1bf","ios":"levelo://app?vid=9d964ec4-c537-4f1d-b21c-451d3f46b1bf"},"vehicle_type_id":"4","last_reported":1761250279,"current_range_meters":20000,"station_id":"","pricing_plan_id":"cebpf4jnsgd1na2vs0mg"},{"bike_id":"63c87f00-281e-488c-8de7-07531f690bfd","system_id":"levelo_inurba_marseille","lat":43.30587,"lon":5.39352,"is_reserved":false,"is_disabled":false,"rental_uris":{"android":"levelo://app?vid=63c87f00-281e-488c-8de7-07531f690bfd","ios":"levelo://app?vid=63c87f00-281e-488c-8de7-07531f690bfd"},"vehicle_type_id":"4","last_reported":1761250279,"current_range_meters":20000,"station_id":"ce4bh0p2rcd13ifvqd80","pricing_plan_id":"cebpf4jnsgd1na2vs0mg"},{"bike_id":"ca2e7e4d-ecf9-4e15-9d04-fe192f60a29c","system_id":"levelo_inurba_marseille","lat":43.29055,"lon":5.35899,"is_reserved":false,"is_disabled":false,"rental_uris":{"android":"levelo://app?vid=ca2e7e4d-ecf9-4e15-9d04-fe192f60a29c","ios":"levelo://app?vid=ca2e7e4d-ecf9-4e15-9d04-fe192f60a29c"},"vehicle_type_id":"4","last_reported":1761250279,"current_range_meters":20000,"station_id":"ce4bha92rcd13ifvqeg0","pricing_plan_id":"cebpf4jnsgd1na2vs0mg"},{"bike_id":"9b2296fc-ca6d-4d31-a88a-f05fbee1212f","system_id":"levelo_inurba_marseille","lat":43.28713,"lon":5.37407,"is_reserved":false,"is_disabled":false,"rental_uris":{"android":"levelo://app?vid=9b2296fc-ca6d-4d31-a88a-f05fbee1212f","ios":"levelo://app?vid=9b2296fc-ca6d-4d31-a88a-f05fbee1212f"},"vehicle_type_id":"4","last_reported":1761250279,"current_range_meters":20400,"station_id":"ce4bh3p2rcd13ifvqdq0","pricing_plan_id":"cebpf4jnsgd1na2vs0mg"},{"bike_id":"be88eaa4-e674-44f9-9199-3901304dd644","system_id":"levelo_inurba_marseille","lat":43.21752,"lon":5.34594,"is_reserved":false,"is_disabled":false,"rental_uris":{"android":"levelo://app?vid=be88eaa4-e674-44f9-9199-3901304dd644","ios":"levelo://app?vid=be88eaa4-e674-44f9-9199-3901304dd644"},"vehicle_type_id":"4","last_reported":1761250279,"current_range_meters":20400,"station_id":"st_cvj6r9ubvosntc0bgbag","pricing_plan_id":"cebpf4jnsgd1na2vs0mg"},{"bike_id":"6bb9dc57-5792-4922-bf25-15b0e5cda6e8","system_id":"levelo_inurba_marseille","lat":43.24069,"lon":5.37771,"is_reserved":false,"is_disabled":false,"rental_uris":{"android":"levelo://app?vid=6bb9dc57-5792-4922-bf25-15b0e5cda6e8","ios":"levelo://app?vid=6bb9dc57-5792-4922-bf25-15b0e5cda6e8"},"vehicle_type_id":"4","last_reported":1761250279,"current_range_meters":20400,"station_id":"ce4bhnp2rcd13ifvqgvg","pricing_plan_id":"cebpf4jnsgd1na2vs0mg"},{"bike_id":"417d2345-c4c6-4ccd-bc5c-2eafc961607b","system_id":"levelo_inurba_marseille","lat":43.25478,"lon":5.3769,"is_reserved":false,"is_disabled":false,"rental_uris":{"android":"levelo://app?vid=417d2345-c4c6-4ccd-bc5c-2eafc961607b","ios":"levelo://app?vid=417d2345-c4c6-4ccd-bc5c-2eafc961607b"},"vehicle_type_id":"4","last_reported":1761250279,"current_range_meters":20400,"station_id":"ce4bhh12rcd13ifvqff0","pricing_plan_id":"cebpf4jnsgd1na2vs0mg"},{"bike_id":"57b679af-c7e3-4aef-aaf7-dad7584c2820","system_id":"levelo_inurba_marseille","lat":43.25523,"lon":5.3763,"is_reserved":false,"is_disabled":false,"rental_uris":{"android":"levelo://app?vid=57b679af-c7e3-4aef-aaf7-dad7584c2820","ios":"levelo://app?vid=57b679af-c7e3-4aef-aaf7-dad7584c2820"},"vehicle_type_id":"4","last_reported":1761250279,"current_range_meters":20400,"station_id":"ce4bhh12rcd13ifvqff0","pricing_plan_id":"cebpf4jnsgd1na2vs0mg"},{"bike_id":"32f9d327-6633-4227-9dae-36de2ef8dec4","system_id":"levelo_inurba_marseille","lat":43.29571,"lon":5.38496,"is_reserved":false,"is_disabled":false,"rental_uris":{"android":"levelo://app?vid=32f9d327-6633-4227-9dae-36de2ef8dec4","ios":"levelo://app?vid=32f9d327-6633-4227-9dae-36de2ef8dec4"},"vehicle_type_id":"4","last_reported":1761250279,"current_range_meters":20400,"station_id":"","pricing_plan_id":"cebpf4jnsgd1na2vs0mg"},{"bike_id":"12a8899d-726e-4bec-a828-51722de4d812","system_id":"levelo_inurba_marseille","lat":43.29167,"lon":5.37147,"is_reserved":false,"is_disabled":false,"rental_uris":{"android":"levelo://app?vid=12a8899d-726e-4bec-a828-51722de4d812","ios":"levelo://app?vid=12a8899d-726e-4bec-a828-51722de4d812"},"vehicle_type_id":"4","last_reported":1761250279,"current_range_meters":20400,"station_id":"ce4bha92rcd13ifvqeh0","pricing_plan_id":"cebpf4jnsgd1na2vs0mg"},{"bike_id":"167a8122-6139-4bf0-9b76-7f929a7ec60a","system_id":"levelo_inurba_marseille","lat":43.28566,"lon":5.39496,"is_reserved":false,"is_disabled":false,"rental_uris":{"android":"levelo://app?vid=167a8122-6139-4bf0-9b76-7f929a7ec60a","ios":"levelo://app?vid=167a8122-6139-4bf0-9b76-7f929a7ec60a"},"vehicle_type_id":"4","last_reported":1761250279,"current_range_meters":20800,"station_id":"ce4bh292rcd13ifvqdg0","pricing_plan_id":"cebpf4jnsgd1na2vs0mg"},{"bike_id":"8d881a98-71e9-421e-9e11-c692cd36b6d1","system_id":"levelo_inurba_marseille","lat":43.278076,"lon":5.407147,"is_reserved":false,"is_disabled":false,"rental_uris":{"android":"levelo://app?vid=8d881a98-71e9-421e-9e11-c692cd36b6d1","ios":"levelo://app?vid=8d881a98-71e9-421e-9e11-c692cd36b6d1"},"vehicle_type_id":"4","last_reported":1761250279,"current_range_meters":20800,"station_id":"ce4bhnh2rcd13ifvqgtg","pricing_plan_id":"cebpf4jnsgd1na2vs0mg"},{"bike_id":"a17b91b5-e929-4e68-b8af-821aa426dd28","system_id":"levelo_inurba_marseille","lat":43.30148,"lon":5.38763,"is_reserved":false,"is_disabled":false,"rental_uris":{"android":"levelo://app?vid=a17b91b5-e929-4e68-b8af-821aa426dd28","ios":"levelo://app?vid=a17b91b5-e929-4e68-b8af-821aa426dd28"},"vehicle_type_id":"4","last_reported":1761250279,"current_range_meters":20800,"station_id":"ce4bghh2rcd13ifvqb60","pricing_plan_id":"cebpf4jnsgd1na2vs0mg"},{"bike_id":"348e7f1a-e0aa-4d12-90e2-0854b9c22a5c","system_id":"levelo_inurba_marseille","lat":43.26561,"lon":5.40321,"is_reserved":false,"is_disabled":false,"rental_uris":{"android":"levelo://app?vid=348e7f1a-e0aa-4d12-90e2-0854b9c22a5c","ios":"levelo://app?vid=348e7f1a-e0aa-4d12-90e2-0854b9c22a5c"},"vehicle_type_id":"4","last_reported":1761250279,"current_range_meters":20800,"station_id":"ce4bhmp2rcd13ifvqgng","pricing_plan_id":"cebpf4jnsgd1na2vs0mg"},{"bike_id":"a226f85a-9b8d-4151-b0e4-fc44f53407ee","system_id":"levelo_inurba_marseille","lat":43.27074,"lon":5.4228,"is_reserved":false,"is_disabled":false,"rental_uris":{"android":"levelo://app?vid=a226f85a-9b8d-4151-b0e4-fc44f53407ee","ios":"levelo://app?vid=a226f85a-9b8d-4151-b0e4-fc44f53407ee"},"vehicle_type_id":"4","last_reported":1761250279,"current_range_meters":20800,"station_id":"ce4bhk92rcd13ifvqgb0","pricing_plan_id":"cebpf4jnsgd1na2vs0mg"},{"bike_id":"3a2a7af8-28b0-4a6a-ade0-3c54ec348456","system_id":"levelo_inurba_marseille","lat":43.30593,"lon":5.3936,"is_reserved":false,"is_disabled":false,"rental_uris":{"android":"levelo://app?vid=3a2a7af8-28b0-4a6a-ade0-3c54ec348456","ios":"levelo://app?vid=3a2a7af8-28b0-4a6a-ade0-3c54ec348456"},"vehicle_type_id":"4","last_reported":1761250279,"current_range_meters":20800,"station_id":"ce4bh0p2rcd13ifvqd80","pricing_plan_id":"cebpf4jnsgd1na2vs0mg"},{"bike_id":"a523e4d5-3644-4f62-a1d9-5ea926fd2cc8","system_id":"levelo_inurba_marseille","lat":43.311797,"lon":5.387219,"is_reserved":false,"is_disabled":false,"rental_uris":{"android":"levelo://app?vid=a523e4d5-3644-4f62-a1d9-5ea926fd2cc8","ios":"levelo://app?vid=a523e4d5-3644-4f62-a1d9-5ea926fd2cc8"},"vehicle_type_id":"4","last_reported":1761250279,"current_range_meters":20800,"station_id":"ce4bgv12rcd13ifvqcp0","pricing_plan_id":"cebpf4jnsgd1na2vs0mg"},{"bike_id":"931dee3e-7144-4c49-9bed-d4dfbb779116","system_id":"levelo_inurba_marseille","lat":43.29171,"lon":5.37167,"is_reserved":false,"is_disabled":false,"rental_uris":{"android":"levelo://app?vid=931dee3e-7144-4c49-9bed-d4dfbb779116","ios":"levelo://app?vid=931dee3e-7144-4c49-9bed-d4dfbb779116"},"vehicle_type_id":"4","last_reported":1761250279,"current_range_meters":20800,"station_id":"ce4bha92rcd13ifvqeh0","pricing_plan_id":"cebpf4jnsgd1na2vs0mg"},{"bike_id":"4b9e7562-9522-4e30-8e7d-2c8520ef9dc6","system_id":"levelo_inurba_marseille","lat":43.25081,"lon":5.39497,"is_reserved":false,"is_disabled":false,"rental_uris":{"android":"levelo://app?vid=4b9e7562-9522-4e30-8e7d-2c8520ef9dc6","ios":"levelo://app?vid=4b9e7562-9522-4e30-8e7d-2c8520ef9dc6"},"vehicle_type_id":"4","last_reported":1761250279,"current_range_meters":21600,"station_id":"ce4bhm12rcd13ifvqgkg","pricing_plan_id":"cebpf4jnsgd1na2vs0mg"},{"bike_id":"ee969381-3565-4506-9da6-3548dafa882d","system_id":"levelo_inurba_marseille","lat":43.32639,"lon":5.40984,"is_reserved":false,"is_disabled":false,"rental_uris":{"android":"levelo://app?vid=ee969381-3565-4506-9da6-3548dafa882d","ios":"levelo://app?vid=ee969381-3565-4506-9da6-3548dafa882d"},"vehicle_type_id":"4","last_reported":1761250279,"current_range_meters":21600,"station_id":"ce4bhpp2rcd13ifvqhgg","pricing_plan_id":"cebpf4jnsgd1na2vs0mg"},{"bike_id":"1ff5ed0f-2a79-45a2-905f-643edf75a268","system_id":"levelo_inurba_marseille","lat":43.240718,"lon":5.377565,"is_reserved":false,"is_disabled":false,"rental_uris":{"android":"levelo://app?vid=1ff5ed0f-2a79-45a2-905f-643edf75a268","ios":"levelo://app?vid=1ff5ed0f-2a79-45a2-905f-643edf75a268"},"vehicle_type_id":"4","last_reported":1761250279,"current_range_meters":21600,"station_id":"ce4bhnp2rcd13ifvqgvg","pricing_plan_id":"cebpf4jnsgd1na2vs0mg"},{"bike_id":"e776888a-1228-43f9-a161-8c4ecc054762","system_id":"levelo_inurba_marseille","lat":43.29525,"lon":5.39031,"is_reserved":false,"is_disabled":false,"rental_uris":{"android":"levelo://app?vid=e776888a-1228-43f9-a161-8c4ecc054762","ios":"levelo://app?vid=e776888a-1228-43f9-a161-8c4ecc054762"},"vehicle_type_id":"4","last_reported":1761250279,"current_range_meters":21600,"station_id":"ce4bh3p2rcd13ifvqdp0","pricing_plan_id":"cebpf4jnsgd1na2vs0mg"},{"bike_id":"37d7af54-88ad-4b96-90ce-e02c0aeb4bc9","system_id":"levelo_inurba_marseille","lat":43.289503,"lon":5.366343,"is_reserved":false,"is_disabled":true,"rental_uris":{"android":"levelo://app?vid=37d7af54-88ad-4b96-90ce-e02c0aeb4bc9","ios":"levelo://app?vid=37d7af54-88ad-4b96-90ce-e02c0aeb4bc9"},"vehicle_type_id":"4","last_reported":1761250279,"current_range_meters":21600,"station_id":"ce4bhap2rcd13ifvqek0","pricing_plan_id":"cebpf4jnsgd1na2vs0mg"},{"bike_id":"ab1dc6bf-d651-4056-ad23-b67254daea0b","system_id":"levelo_inurba_marseille","lat":43.337509,"lon":5.375088,"is_reserved":false,"is_disabled":false,"rental_uris":{"android":"levelo://app?vid=ab1dc6bf-d651-4056-ad23-b67254daea0b","ios":"levelo://app?vid=ab1dc6bf-d651-4056-ad23-b67254daea0b"},"vehicle_type_id":"4","last_reported":1761250279,"current_range_meters":21600,"station_id":"","pricing_plan_id":"cebpf4jnsgd1na2vs0mg"},{"bike_id":"55e3b968-e4bf-492a-862d-3075e6a79a88","system_id":"levelo_inurba_marseille","lat":43.29494,"lon":5.43306,"is_reserved":false,"is_disabled":false,"rental_uris":{"android":"levelo://app?vid=55e3b968-e4bf-492a-862d-3075e6a79a88","ios":"levelo://app?vid=55e3b968-e4bf-492a-862d-3075e6a79a88"},"vehicle_type_id":"4","last_reported":1761250279,"current_range_meters":21600,"station_id":"st_d3j5ugp08ojc73fj9d10","pricing_plan_id":"cebpf4jnsgd1na2vs0mg"},{"bike_id":"8e92164c-deff-4fbd-9f4e-43ff81933572","system_id":"levelo_inurba_marseille","lat":43.298172,"lon":5.420192,"is_reserved":false,"is_disabled":false,"rental_uris":{"android":"levelo://app?vid=8e92164c-deff-4fbd-9f4e-43ff81933572","ios":"levelo://app?vid=8e92164c-deff-4fbd-9f4e-43ff81933572"},"vehicle_type_id":"4","last_reported":1761250279,"current_range_meters":21600,"station_id":"","pricing_plan_id":"cebpf4jnsgd1na2vs0mg"},{"bike_id":"8c8fb62c-ad3c-4fec-8adf-4fb548759c23","system_id":"levelo_inurba_marseille","lat":43.33022,"lon":5.39032,"is_reserved":false,"is_disabled":false,"rental_uris":{"android":"levelo://app?vid=8c8fb62c-ad3c-4fec-8adf-4fb548759c23","ios":"levelo://app?vid=8c8fb62c-ad3c-4fec-8adf-4fb548759c23"},"vehicle_type_id":"4","last_reported":1761250279,"current_range_meters":21600,"station_id":"ce4bhr92rcd13ifvqhrg","pricing_plan_id":"cebpf4jnsgd1na2vs0mg"},{"bike_id":"1eba066b-5f0c-4cf0-9fa7-3e17e3b09a29","system_id":"levelo_inurba_marseille","lat":43.2952,"lon":5.39031,"is_reserved":false,"is_disabled":false,"rental_uris":{"android":"levelo://app?vid=1eba066b-5f0c-4cf0-9fa7-3e17e3b09a29","ios":"levelo://app?vid=1eba066b-5f0c-4cf0-9fa7-3e17e3b09a29"},"vehicle_type_id":"4","last_reported":1761250279,"current_range_meters":21600,"station_id":"ce4bh3p2rcd13ifvqdp0","pricing_plan_id":"cebpf4jnsgd1na2vs0mg"},{"bike_id":"f403df9f-a552-493f-8a4f-1d5c0b3eb8c7","system_id":"levelo_inurba_marseille","lat":43.25918,"lon":5.40871,"is_reserved":false,"is_disabled":true,"rental_uris":{"android":"levelo://app?vid=f403df9f-a552-493f-8a4f-1d5c0b3eb8c7","ios":"levelo://app?vid=f403df9f-a552-493f-8a4f-1d5c0b3eb8c7"},"vehicle_type_id":"4","last_reported":1761250279,"current_range_meters":22000,"station_id":"ce4bhm92rcd13ifvqglg","pricing_plan_id":"cebpf4jnsgd1na2vs0mg"},