{"last_updated":1752477338,"ttl":60,"version":"2.2","data":{"bikes":[{"bike_id":"feb1ed1d-b0db-45cc-9e1b-7311a8d72058","system_id":"levelo_inurba_marseille","lat":43.33747,"lon":5.37463,"is_reserved":false,"is_disabled":false,"rental_uris":{"android":"levelo://app?vid=feb1ed1d-b0db-45cc-9e1b-7311a8d72058","ios":"levelo://app?vid=feb1ed1d-b0db-45cc-9e1b-7311a8d72058"},"vehicle_type_id":"1","last_reported":1752477339,"current_range_meters":38800,"station_id":"","pricing_plan_id":"cebpf4jnsgd1na2vs0mg"},{"bike_id":"87991947-21b8-4b64-b6d4-5bae920498b7","system_id":"levelo_inurba_marseille","lat":43.30935,"lon":5.39051,"is_reserved":false,"is_disabled":true,"rental_uris":{"android":"levelo://app?vid=87991947-21b8-4b64-b6d4-5bae920498b7","ios":"levelo://app?vid=87991947-21b8-4b64-b6d4-5bae920498b7"},"vehicle_type_id":"4","last_reported":1752477339,"current_range_meters":2800,"station_id":"ce4bgup2rcd13ifvqco0","pricing_plan_id":"cebpf4jnsgd1na2vs0mg"},{"bike_id":"8929c1bf-fd4d-44e4-aa66-b3eb6538c998","system_id":"levelo_inurba_marseille","lat":43.28577,"lon":5.42926,"is_reserved":false,"is_disabled":false,"rental_uris":{"android":"levelo://app?vid=8929c1bf-fd4d-44e4-aa66-b3eb6538c998","ios":"levelo://app?vid=8929c1bf-fd4d-44e4-aa66-b3eb6538c998"},"vehicle_type_id":"4","last_reported":1752477339,"current_range_meters":3200,"station_id":"","pricing_plan_id":"cebpf4jnsgd1na2vs0mg"},{"bike_id":"ab6729f5-c69c-441b-9e53-d40655a2b80d","system_id":"levelo_inurba_marseille","lat":43.3135,"lon":5.384957,"is_reserved":false,"is_disabled":true,"rental_uris":{"android":"levelo://app?vid=ab6729f5-c69c-441b-9e53-d40655a2b80d","ios":"levelo://app?vid=ab6729f5-c69c-441b-9e53-d40655a2b80d"},"vehicle_type_id":"4","last_reported":1752477339,"current_range_meters":3200,"station_id":"ce4bgt92rcd13ifvqcf0","pricing_plan_id":"cebpf4jnsgd1na2vs0mg"},{"bike_id":"df61839a-7a72-4634-9960-e8ea0d9a8d35","system_id":"levelo_inurba_marseille","lat":43.239474,"lon":5.366089,"is_reserved":false,"is_disabled":true,"rental_uris":{"android":"levelo://app?vid=df61839a-7a72-4634-9960-e8ea0d9a8d35","ios":"levelo://app?vid=df61839a-7a72-4634-9960-e8ea0d9a8d35"},"vehicle_type_id":"4","last_reported":1752477339,"current_range_meters":3200,"station_id":"","pricing_plan_id":"cebpf4jnsgd1na2vs0mg"},{"bike_id":"0075684b-a504-453b-9132-a72c307964f4","system_id":"levelo_inurba_marseille","lat":43.32109,"lon":5.3678,"is_reserved":false,"is_disabled":false,"rental_uris":{"android":"levelo://app?vid=0075684b-a504-453b-9132-a72c307964f4","ios":"levelo://app?vid=0075684b-a504-453b-9132-a72c307964f4"},"vehicle_type_id":"4","last_reported":1752477339,"current_range_meters":3200,"station_id":"ce4bhrh2rcd13ifvqhug","pricing_plan_id":"cebpf4jnsgd1na2vs0mg"},{"bike_id":"7167a468-01a0-49a7-ad43-9d9c61beee03","system_id":"levelo_inurba_marseille","lat":43.30577,"lon":5.38368,"is_reserved":false,"is_disabled":false,"rental_uris":{"android":"levelo://app?vid=7167a468-01a0-49a7-ad43-9d9c61beee03","ios":"levelo://app?vid=7167a468-01a0-49a7-ad43-9d9c61beee03"},"vehicle_type_id":"4","last_reported":1752477339,"current_range_meters":3600,"station_id":"","pricing_plan_id":"cebpf4jnsgd1na2vs0mg"},{"bike_id":"7e0fa203-85bf-429d-be47-b342965d6d3d","system_id":"levelo_inurba_marseille","lat":43.28629,"lon":5.37087,"is_reserved":false,"is_disabled":false,"rental_uris":{"android":"levelo://app?vid=7e0fa203-85bf-429d-be47-b342965d6d3d","ios":"levelo://app?vid=7e0fa203-85bf-429d-be47-b342965d6d3d"},"vehicle_type_id":"4","last_reported":1752477339,"current_range_meters":4000,"station_id":"ce4bht12rcd13ifvqi60","pricing_plan_id":"cebpf4jnsgd1na2vs0mg"},{"bike_id":"dbba3321-20c7-4989-a7b5-ea9ab2c4b3e8","system_id":"levelo_inurba_marseille","lat":43.261935,"lon":5.374477,"is_reserved":false,"is_disabled":true,"rental_uris":{"android":"levelo://app?vid=dbba3321-20c7-4989-a7b5-ea9ab2c4b3e8","ios":"levelo://app?vid=dbba3321-20c7-4989-a7b5-ea9ab2c4b3e8"},"vehicle_type_id":"4","last_reported":1752477339,"current_range_meters":4400,"station_id":"ce4bhgp2rcd13ifvqfc0","pricing_plan_id":"cebpf4jnsgd1na2vs0mg"},{"bike_id":"256a60b5-e452-42e2-ae50-71902e33e6d7","system_id":"levelo_inurba_marseille","lat":43.262008,"lon":5.379321,"is_reserved":false,"is_disabled":false,"rental_uris":{"android":"levelo://app?vid=256a60b5-e452-42e2-ae50-71902e33e6d7","ios":"levelo://app?vid=256a60b5-e452-42e2-ae50-71902e33e6d7"},"vehicle_type_id":"4","last_reported":1752477339,"current_range_meters":4400,"station_id":"ce4bhjp2rcd13ifvqg90","pricing_plan_id":"cebpf4jnsgd1na2vs0mg"},{"bike_id":"696aca5a-f985-42f2-b5f7-74ca3a442dcb","system_id":"levelo_inurba_marseille","lat":43.3095,"lon":5.37156,"is_reserved":false,"is_disabled":false,"rental_uris":{"android":"levelo://app?vid=696aca5a-f985-42f2-b5f7-74ca3a442dcb","ios":"levelo://app?vid=696aca5a-f985-42f2-b5f7-74ca3a442dcb"},"vehicle_type_id":"4","last_reported":1752477339,"current_range_meters":6000,"station_id":"","pricing_plan_id":"cebpf4jnsgd1na2vs0mg"},{"bike_id":"c943f36c-53e9-4486-b306-d9d59d955d5c","system_id":"levelo_inurba_marseille","lat":43.30424,"lon":5.397466,"is_reserved":false,"is_disabled":false,"rental_uris":{"android":"levelo://app?vid=c943f36c-53e9-4486-b306-d9d59d955d5c","ios":"levelo://app?vid=c943f36c-53e9-4486-b306-d9d59d955d5c"},"vehicle_type_id":"4","last_reported":1752477339,"current_range_meters":6000,"station_id":"ce4bh092rcd13ifvqd20","pricing_plan_id":"cebpf4jnsgd1na2vs0mg"},{"bike_id":"6070c3be-7535-4c90-8ef1-277f2efabd61","system_id":"levelo_inurba_marseille","lat":43.29256,"lon":5.40067,"is_reserved":false,"is_disabled":false,"rental_uris":{"android":"levelo://app?vid=6070c3be-7535-4c90-8ef1-277f2efabd61","ios":"levelo://app?vid=6070c3be-7535-4c90-8ef1-277f2efabd61"},"vehicle_type_id":"4","last_reported":1752477339,"current_range_meters":6400,"station_id":"ce4bh312rcd13ifvqdk0","pricing_plan_id":"cebpf4jnsgd1na2vs0mg"},{"bike_id":"96d54fdb-5835-4cd8-9827-093c0b08e4ca","system_id":"levelo_inurba_marseille","lat":43.211893,"lon":5.350776,"is_reserved":false,"is_disabled":false,"rental_uris":{"android":"levelo://app?vid=96d54fdb-5835-4cd8-9827-093c0b08e4ca","ios":"levelo://app?vid=96d54fdb-5835-4cd8-9827-093c0b08e4ca"},"vehicle_type_id":"4","last_reported":1752477339,"current_range_meters":6800,"station_id":"st_cvj6sg6p6f1abm77japg","pricing_plan_id":"cebpf4jnsgd1na2vs0mg"},{"bike_id":"a8f795a3-5a85-4eba-bd2f-79edaf4c0542","system_id":"levelo_inurba_marseille","lat":43.23143,"lon":5.43726,"is_reserved":false,"is_disabled":false,"rental_uris":{"android":"levelo://app?vid=a8f795a3-5a85-4eba-bd2f-79edaf4c0542","ios":"levelo://app?vid=a8f795a3-5a85-4eba-bd2f-79edaf4c0542"},"vehicle_type_id":"4","last_reported":1752477339,"current_range_meters":6800,"station_id":"ce4bhmp2rcd13ifvqgog","pricing_plan_id":"cebpf4jnsgd1na2vs0mg"},{"bike_id":"470d1e9d-8c05-40b8-a6b2-039f183b9f6a","system_id":"levelo_inurba_marseille","lat":43.23196,"lon":5.3555,"is_reserved":false,"is_disabled":true,"rental_uris":{"android":"levelo://app?vid=470d1e9d-8c05-40b8-a6b2-039f183b9f6a","ios":"levelo://app?vid=470d1e9d-8c05-40b8-a6b2-039f183b9f6a"},"vehicle_type_id":"4","last_reported":1752477339,"current_range_meters":6800,"station_id":"ce4bhu92rcd13ifvqi70","pricing_plan_id":"cebpf4jnsgd1na2vs0mg"},{"bike_id":"44dd919c-32df-4fe9-8b1c-c9988fb68d5b","system_id":"levelo_inurba_marseille","lat":43.269489,"lon":5.402899,"is_reserved":false,"is_disabled":true,"rental_uris":{"android":"levelo://app?vid=44dd919c-32df-4fe9-8b1c-c9988fb68d5b","ios":"levelo://app?vid=44dd919c-32df-4fe9-8b1c-c9988fb68d5b"},"vehicle_type_id":"4","last_reported":1752477339,"current_range_meters":7200,"station_id":"cjm6bp8fraef2m0cb0m0","pricing_plan_id":"cebpf4jnsgd1na2vs0mg"},{"bike_id":"988407eb-f287-4ddc-bcab-367922ef6fc0","system_id":"levelo_inurba_marseille","lat":43.297733,"lon":5.38974,"is_reserved":false,"is_disabled":false,"rental_uris":{"android":"levelo://app?vid=988407eb-f287-4ddc-bcab-367922ef6fc0","ios":"levelo://app?vid=988407eb-f287-4ddc-bcab-367922ef6fc0"},"vehicle_type_id":"4","last_reported":1752477339,"current_range_meters":7200,"station_id":"","pricing_plan_id":"cebpf4jnsgd1na2vs0mg"},{"bike_id":"77f25772-7624-4eeb-9279-c5dceab45101","system_id":"levelo_inurba_marseille","lat":43.314851,"lon":5.373102,"is_reserved":false,"is_disabled":false,"rental_uris":{"android":"levelo://app?vid=77f25772-7624-4eeb-9279-c5dceab45101","ios":"levelo://app?vid=77f25772-7624-4eeb-9279-c5dceab45101"},"vehicle_type_id":"4","last_reported":1752477339,"current_range_meters":7200,"station_id":"ce4bgt12rcd13ifvqcd0","pricing_plan_id":"cebpf4jnsgd1na2vs0mg"},{"bike_id":"0b0f1962-1ccb-4bc3-895b-70f8484b3602","system_id":"levelo_inurba_marseille","lat":43.287363,"lon":5.36103,"is_reserved":false,"is_disabled":true,"rental_uris":{"android":"levelo://app?vid=0b0f1962-1ccb-4bc3-895b-70f8484b3602","ios":"levelo://app?vid=0b0f1962-1ccb-4bc3-895b-70f8484b3602"},"vehicle_type_id":"4","last_reported":1752477339,"current_range_meters":7200,"station_id":"cki0cbj6b192h4jlfktg","pricing_plan_id":"cebpf4jnsgd1na2vs0mg"},{"bike_id":"b546fde5-c916-4714-b3b3-316d003149f8","system_id":"levelo_inurba_marseille","lat":43.3113,"lon":5.37746,"is_reserved":false,"is_disabled":false,"rental_uris":{"android":"levelo://app?vid=b546fde5-c916-4714-b3b3-316d003149f8","ios":"levelo://app?vid=b546fde5-c916-4714-b3b3-316d003149f8"},"vehicle_type_id":"4","last_reported":1752477339,"current_range_meters":8000,"station_id":"ce4bgt92rcd13ifvqcg0","pricing_plan_id":"cebpf4jnsgd1na2vs0mg"},{"bike_id":"5d522e77-ec27-4fd6-a510-ea7d6f16223a","system_id":"levelo_inurba_marseille","lat":43.27597,"lon":5.370913,"is_reserved":false,"is_disabled":false,"rental_uris":{"android":"levelo://app?vid=5d522e77-ec27-4fd6-a510-ea7d6f16223a","ios":"levelo://app?vid=5d522e77-ec27-4fd6-a510-ea7d6f16223a"},"vehicle_type_id":"4","last_reported":1752477339,"current_range_meters":8000,"station_id":"","pricing_plan_id":"cebpf4jnsgd1na2vs0mg"},{"bike_id":"257c51a0-a7f9-42c5-bde9-728731160062","system_id":"levelo_inurba_marseille","lat":43.29191,"lon":5.39309,"is_reserved":false,"is_disabled":true,"rental_uris":{"android":"levelo://app?vid=257c51a0-a7f9-42c5-bde9-728731160062","ios":"levelo://app?vid=257c51a0-a7f9-42c5-bde9-728731160062"},"vehicle_type_id":"4","last_reported":1752477339,"current_range_meters":8000,"station_id":"ce4bh192rcd13ifvqdd0","pricing_plan_id":"cebpf4jnsgd1na2vs0mg"},{"bike_id":"6dd3191b-b740-4337-aed4-7b685ff90cc9","system_id":"levelo_inurba_marseille","lat":43.33617,"lon":5.41001,"is_reserved":false,"is_disabled":false,"rental_uris":{"android":"levelo://app?vid=6dd3191b-b740-4337-aed4-7b685ff90cc9","ios":"levelo://app?vid=6dd3191b-b740-4337-aed4-7b685ff90cc9"},"vehicle_type_id":"4","last_reported":1752477339,"current_range_meters":8000,"station_id":"ce4bhqh2rcd13ifvqhmg","pricing_plan_id":"cebpf4jnsgd1na2vs0mg"},{"bike_id":"85393d34-9643-4a9c-82a9-02d3fa5aa782","system_id":"levelo_inurba_marseille","lat":43.29846,"lon":5.36276,"is_reserved":false,"is_disabled":false,"rental_uris":{"android":"levelo://app?vid=85393d34-9643-4a9c-82a9-02d3fa5aa782","ios":"levelo://app?vid=85393d34-9643-4a9c-82a9-02d3fa5aa782"},"vehicle_type_id":"4","last_reported":1752477339,"current_range_meters":8000,"station_id":"ce4bgpp2rcd13ifvqc3g","pricing_plan_id":"cebpf4jnsgd1na2vs0mg"},{"bike_id":"bcfeb0b0-b94e-4e71-a216-f8eb5e1c603f","system_id":"levelo_inurba_marseille","lat":43.31116,"lon":5.377678,"is_reserved":false,"is_disabled":false,"rental_uris":{"android":"levelo://app?vid=bcfeb0b0-b94e-4e71-a216-f8eb5e1c603f","ios":"levelo://app?vid=bcfeb0b0-b94e-4e71-a216-f8eb5e1c603f"},"vehicle_type_id":"4","last_reported":1752477339,"current_range_meters":8400,"station_id":"ce4bgt92rcd13ifvqcg0","pricing_plan_id":"cebpf4jnsgd1na2vs0mg"},{"bike_id":"f79a201f-2376-4565-8a84-7d95cbfcc4ee","system_id":"levelo_inurba_marseille","lat":43.30322,"lon":5.4043,"is_reserved":false,"is_disabled":false,"rental_uris":{"android":"levelo://app?vid=f79a201f-2376-4565-8a84-7d95cbfcc4ee","ios":"levelo://app?vid=f79a201f-2376-4565-8a84-7d95cbfcc4ee"},"vehicle_type_id":"4","last_reported":1752477339,"current_range_meters":8800,"station_id":"ce4bh012rcd13ifvqd10","pricing_plan_id":"cebpf4jnsgd1na2vs0mg"},{"bike_id":"9a8b0931-f754-41b1-83c6-b9eee7982ee0","system_id":"levelo_inurba_marseille","lat":43.30361,"lon":5.418845,"is_reserved":false,"is_disabled":false,"rental_uris":{"android":"levelo://app?vid=9a8b0931-f754-41b1-83c6-b9eee7982ee0","ios":"levelo://app?vid=9a8b0931-f754-41b1-83c6-b9eee7982ee0"},"vehicle_type_id":"4","last_reported":1752477339,"current_range_meters":8800,"station_id":"ce4bhop2rcd13ifvqh7g","pricing_plan_id":"cebpf4jnsgd1na2vs0mg"},{"bike_id":"1e68cf7f-f679-49ec-9fa4-c8fe322ba3d2","system_id":"levelo_inurba_marseille","lat":43.29279,"lon":5.40112,"is_reserved":false,"is_disabled":false,"rental_uris":{"android":"levelo://app?vid=1e68cf7f-f679-49ec-9fa4-c8fe322ba3d2","ios":"levelo://app?vid=1e68cf7f-f679-49ec-9fa4-c8fe322ba3d2"},"vehicle_type_id":"4","last_reported":1752477339,"current_range_meters":8800,"station_id":"ce4bh312rcd13ifvqdk0","pricing_plan_id":"cebpf4jnsgd1na2vs0mg"},{"bike_id":"6d0f324e-faeb-40fe-9b92-8ecf75a44032","system_id":"levelo_inurba_marseille","lat":43.23153,"lon":5.43725,"is_reserved":false,"is_disabled":false,"rental_uris":{"android":"levelo://app?vid=6d0f324e-faeb-40fe-9b92-8ecf75a44032","ios":"levelo://app?vid=6d0f324e-faeb-40fe-9b92-8ecf75a44032"},"vehicle_type_id":"4","last_reported":1752477339,"current_range_meters":8800,"station_id":"ce4bhmp2rcd13ifvqgog","pricing_plan_id":"cebpf4jnsgd1na2vs0mg"},{"bike_id":"a00e4269-cad5-4295-b9f7-93d50be9843e","system_id":"levelo_inurba_marseille","lat":43.2827,"lon":5.35083,"is_reserved":false,"is_disabled":false,"rental_uris":{"android":"levelo://app?vid=a00e4269-cad5-4295-b9f7-93d50be9843e","ios":"levelo://app?vid=a00e4269-cad5-4295-b9f7-93d50be9843e"},"vehicle_type_id":"4","last_reported":1752477339,"current_range_meters":8800,"station_id":"ce4bhbp2rcd13ifvqerg","pricing_plan_id":"cebpf4jnsgd1na2vs0mg"},{"bike_id":"87ecb514-9a2c-409a-b82e-e1638cbabb13","system_id":"levelo_inurba_marseille","lat":43.311176,"lon":5.377554,"is_reserved":false,"is_disabled":false,"rental_uris":{"android":"levelo://app?vid=87ecb514-9a2c-409a-b82e-e1638cbabb13","ios":"levelo://app?vid=87ecb514-9a2c-409a-b82e-e1638cbabb13"},"vehicle_type_id":"4","last_reported":1752477339,"current_range_meters":8800,"station_id":"ce4bgt92rcd13ifvqcg0","pricing_plan_id":"cebpf4jnsgd1na2vs0mg"},{"bike_id":"a80f60b4-d12b-4f7e-9113-e33d67969237","system_id":"levelo_inurba_marseille","lat":43.29373,"lon":5.37851,"is_reserved":false,"is_disabled":false,"rental_uris":{"android":"levelo://app?vid=a80f60b4-d12b-4f7e-9113-e33d67969237","ios":"levelo://app?vid=a80f60b4-d12b-4f7e-9113-e33d67969237"},"vehicle_type_id":"4","last_reported":1752477339,"current_range_meters":9200,"station_id":"ce4bgjh2rcd13ifvqbf0","pricing_plan_id":"cebpf4jnsgd1na2vs0mg"},{"bike_id":"096a0ddd-fe8e-4298-9ec6-c8b6d3c5c4dd","system_id":"levelo_inurba_marseille","lat":43.3096,"lon":5.39028,"is_reserved":false,"is_disabled":false,"rental_uris":{"android":"levelo://app?vid=096a0ddd-fe8e-4298-9ec6-c8b6d3c5c4dd","ios":"levelo://app?vid=096a0ddd-fe8e-4298-9ec6-c8b6d3c5c4dd"},"vehicle_type_id":"4","last_reported":1752477339,"current_range_meters":9200,"station_id":"ce4bgup2rcd13ifvqco0","pricing_plan_id":"cebpf4jnsgd1na2vs0mg"},{"bike_id":"ed9eaf18-5a04-4fa5-90d4-cb736f76c267","system_id":"levelo_inurba_marseille","lat":43.30324,"lon":5.40432,"is_reserved":false,"is_disabled":false,"rental_uris":{"android":"levelo://app?vid=ed9eaf18-5a04-4fa5-90d4-cb736f76c267","ios":"levelo://app?vid=ed9eaf18-5a04-4fa5-90d4-cb736f76c267"},"vehicle_type_id":"4","last_reported":1752477339,"current_range_meters":9200,"station_id":"ce4bh012rcd13ifvqd10","pricing_plan_id":"cebpf4jnsgd1na2vs0mg"},{"bike_id":"8b37f03f-f226-4bbc-8648-b109da7ba145","system_id":"levelo_inurba_marseille","lat":43.30536,"lon":5.366999,"is_reserved":false,"is_disabled":false,"rental_uris":{"android":"levelo://app?vid=8b37f03f-f226-4bbc-8648-b109da7ba145","ios":"levelo://app?vid=8b37f03f-f226-4bbc-8648-b109da7ba145"},"vehicle_type_id":"4","last_reported":1752477339,"current_range_meters":9200,"station_id":"","pricing_plan_id":"cebpf4jnsgd1na2vs0mg"},{"bike_id":"f23760ff-ab61-4853-aa67-28aac93822c1","system_id":"levelo_inurba_marseille","lat":43.337444,"lon":5.374475,"is_reserved":false,"is_disabled":false,"rental_uris":{"android":"levelo://app?vid=f23760ff-ab61-4853-aa67-28aac93822c1","ios":"levelo://app?vid=f23760ff-ab61-4853-aa67-28aac93822c1"},"vehicle_type_id":"4","last_reported":1752477339,"current_range_meters":9200,"station_id":"","pricing_plan_id":"cebpf4jnsgd1na2vs0mg"},{"bike_id":"4e668ccc-52b2-4670-93cb-9c8695885132","system_id":"levelo_inurba_marseille","lat":43.32364,"lon":5.38883,"is_reserved":false,"is_disabled":false,"rental_uris":{"android":"levelo://app?vid=4e668ccc-52b2-4670-93cb-9c8695885132","ios":"levelo://app?vid=4e668ccc-52b2-4670-93cb-9c8695885132"},"vehicle_type_id":"4","last_reported":1752477339,"current_range_meters":9600,"station_id":"ce4bhqp2rcd13ifvqhog","pricing_plan_id":"cebpf4jnsgd1na2vs0mg"},{"bike_id":"4e18f6a0-cf0a-4e54-823e-14d073e25d70","system_id":"levelo_inurba_marseille","lat":43.28034,"lon":5.36943,"is_reserved":false,"is_disabled":true,"rental_uris":{"android":"levelo://app?vid=4e18f6a0-cf0a-4e54-823e-14d073e25d70","ios":"levelo://app?vid=4e18f6a0-cf0a-4e54-823e-14d073e25d70"},"vehicle_type_id":"4","last_reported":1752477339,"current_range_meters":9600,"station_id":"ce4bha12rcd13ifvqef0","pricing_plan_id":"cebpf4jnsgd1na2vs0mg"},{"bike_id":"a974a1e6-292d-4c9a-b3ec-cbaf1ee16b8c","system_id":"levelo_inurba_marseille","lat":43.30923,"lon":5.37992,"is_reserved":false,"is_disabled":false,"rental_uris":{"android":"levelo://app?vid=a974a1e6-292d-4c9a-b3ec-cbaf1ee16b8c","ios":"levelo://app?vid=a974a1e6-292d-4c9a-b3ec-cbaf1ee16b8c"},"vehicle_type_id":"4","last_reported":1752477339,"current_range_meters":9600,"station_id":"","pricing_plan_id":"cebpf4jnsgd1na2vs0mg"},{"bike_id":"58ae3798-06af-41ec-accf-cd213bd6f15a","system_id":"levelo_inurba_marseille","lat":43.303,"lon":5.36888,"is_reserved":false,"is_disabled":false,"rental_uris":{"android":"levelo://app?vid=58ae3798-06af-41ec-accf-cd213bd6f15a","ios":"levelo://app?vid=58ae3798-06af-41ec-accf-cd213bd6f15a"},"vehicle_type_id":"4","last_reported":1752477339,"current_range_meters":10000,"station_id":"ce4bgqh2rcd13ifvqc5g","pricing_plan_id":"cebpf4jnsgd1na2vs0mg"},{"bike_id":"6dd5347a-8512-41c8-8f48-b0b8c31c14f5","system_id":"levelo_inurba_marseille","lat":43.28841,"lon":5.35814,"is_reserved":false,"is_disabled":false,"rental_uris":{"android":"levelo://app?vid=6dd5347a-8512-41c8-8f48-b0b8c31c14f5","ios":"levelo://app?vid=6dd5347a-8512-41c8-8f48-b0b8c31c14f5"},"vehicle_type_id":"4","last_reported":1752477339,"current_range_meters":10000,"station_id":"ce4bhb12rcd13ifvqem0","pricing_plan_id":"cebpf4jnsgd1na2vs0mg"},{"bike_id":"e046713e-9768-4943-b2fa-c4a766bdc31a","system_id":"levelo_inurba_marseille","lat":43.29294,"lon":5.37455,"is_reserved":false,"is_disabled":false,"rental_uris":{"android":"levelo://app?vid=e046713e-9768-4943-b2fa-c4a766bdc31a","ios":"levelo://app?vid=e046713e-9768-4943-b2fa-c4a766bdc31a"},"vehicle_type_id":"4","last_reported":1752477339,"current_range_meters":10000,"station_id":"ce4bgi12rcd13ifvqb70","pricing_plan_id":"cebpf4jnsgd1na2vs0mg"},{"bike_id":"62fac614-47b6-4ccf-9920-6cea6ff3d419","system_id":"levelo_inurba_marseille","lat":43.23056,"lon":5.35496,"is_reserved":false,"is_disabled":false,"rental_uris":{"android":"levelo://app?vid=62fac614-47b6-4ccf-9920-6cea6ff3d419","ios":"levelo://app?vid=62fac614-47b6-4ccf-9920-6cea6ff3d419"},"vehicle_type_id":"4","last_reported":1752477339,"current_range_meters":10000,"station_id":"cpo3342slgdg3j2ifvpg","pricing_plan_id":"cebpf4jnsgd1na2vs0mg"},{"bike_id":"59bd944e-8158-4d03-98d6-e97af0707782","system_id":"levelo_inurba_marseille","lat":43.211936,"lon":5.350646,"is_reserved":false,"is_disabled":false,"rental_uris":{"android":"levelo://app?vid=59bd944e-8158-4d03-98d6-e97af0707782","ios":"levelo://app?vid=59bd944e-8158-4d03-98d6-e97af0707782"},"vehicle_type_id":"4","last_reported":1752477339,"current_range_meters":10000,"station_id":"st_cvj6sg6p6f1abm77japg","pricing_plan_id":"cebpf4jnsgd1na2vs0mg"},{"bike_id":"0eadb807-73f6-424a-bcd7-3b07bd18ff50","system_id":"levelo_inurba_marseille","lat":43.32118,"lon":5.36748,"is_reserved":false,"is_disabled":false,"rental_uris":{"android":"levelo://app?vid=0eadb807-73f6-424a-bcd7-3b07bd18ff50","ios":"levelo://app?vid=0eadb807-73f6-424a-bcd7-3b07bd18ff50"},"vehicle_type_id":"4","last_reported":1752477339,"current_range_meters":10000,"station_id":"ce4bhrh2rcd13ifvqhug","pricing_plan_id":"cebpf4jnsgd1na2vs0mg"},{"bike_id":"bd6600f4-1058-4041-b41e-b1fea56f6cb4","system_id":"levelo_inurba_marseille","lat":43.28423,"lon":5.375,"is_reserved":false,"is_disabled":false,"rental_uris":{"android":"levelo://app?vid=bd6600f4-1058-4041-b41e-b1fea56f6cb4","ios":"levelo://app?vid=bd6600f4-1058-4041-b41e-b1fea56f6cb4"},"vehicle_type_id":"4","last_reported":1752477339,"current_range_meters":10000,"station_id":"ce4bh412rcd13ifvqds0","pricing_plan_id":"cebpf4jnsgd1na2vs0mg"},{"bike_id":"601412b0-6528-47af-965e-1711a93589ae","system_id":"levelo_inurba_marseille","lat":43.295453,"lon":5.422847,"is_reserved":false,"is_disabled":false,"rental_uris":{"android":"levelo://app?vid=601412b0-6528-47af-965e-1711a93589ae","ios":"levelo://app?vid=601412b0-6528-47af-965e-1711a93589ae"},"vehicle_type_id":"4","last_reported":1752477339,"current_range_meters":10800,"station_id":"ce4bhph2rcd13ifvqhdg","pricing_plan_id":"cebpf4jnsgd1na2vs0mg"},{"bike_id":"08d804b1-df6f-4e13-8de0-b91da5966c34","system_id":"levelo_inurba_marseille","lat":43.32351,"lon":5.40597,"is_reserved":false,"is_disabled":false,"rental_uris":{"android":"levelo://app?vid=08d804b1-df6f-4e13-8de0-b91da5966c34","ios":"levelo://app?vid=08d804b1-df6f-4e13-8de0-b91da5966c34"},"vehicle_type_id":"4","last_reported":1752477339,"current_range_meters":10800,"station_id":"ce4bhq92rcd13ifvqhjg","pricing_plan_id":"cebpf4jnsgd1na2vs0mg"},{"bike_id":"e2ce6e8a-ef9f-4211-8776-042780e4931d","system_id":"levelo_inurba_marseille","lat":43.28442,"lon":5.34995,"is_reserved":false,"is_disabled":false,"rental_uris":{"android":"levelo://app?vid=e2ce6e8a-ef9f-4211-8776-042780e4931d","ios":"levelo://app?vid=e2ce6e8a-ef9f-4211-8776-042780e4931d"},"vehicle_type_id":"4","last_reported":1752477339,"current_range_meters":10800,"station_id":"ce4bhbh2rcd13ifvqepg","pricing_plan_id":"cebpf4jnsgd1na2vs0mg"},{"bike_id":"7048b274-bb73-4f78-bd84-2dffe4927289","system_id":"levelo_inurba_marseille","lat":43.29795,"lon":5.39346,"is_reserved":false,"is_disabled":true,"rental_uris":{"android":"levelo://app?vid=7048b274-bb73-4f78-bd84-2dffe4927289","ios":"levelo://app?vid=7048b274-bb73-4f78-bd84-2dffe4927289"},"vehicle_type_id":"4","last_reported":1752477339,"current_range_meters":10800,"station_id":"chh1huq6cuj3fo74tm60","pricing_plan_id":"cebpf4jnsgd1na2vs0mg"},{"bike_id":"22060ed4-4224-4eb8-b34f-7fe6bdc84783","system_id":"levelo_inurba_marseille","lat":43.31487,"lon":5.37313,"is_reserved":false,"is_disabled":false,"rental_uris":{"android":"levelo://app?vid=22060ed4-4224-4eb8-b34f-7fe6bdc84783","ios":"levelo://app?vid=22060ed4-4224-4eb8-b34f-7fe6bdc84783"},"vehicle_type_id":"4","last_reported":1752477339,"current_range_meters":10800,"station_id":"ce4bgt12rcd13ifvqcd0","pricing_plan_id":"cebpf4jnsgd1na2vs0mg"},{"bike_id":"1366d683-1ebd-44a1-9e66-5d68d4b85ee8","system_id":"levelo_inurba_marseille","lat":43.257214,"lon":5.411109,"is_reserved":false,"is_disabled":false,"rental_uris":{"android":"levelo://app?vid=1366d683-1ebd-44a1-9e66-5d68d4b85ee8","ios":"levelo://app?vid=1366d683-1ebd-44a1-9e66-5d68d4b85ee8"},"vehicle_type_id":"4","last_reported":1752477339,"current_range_meters":11200,"station_id":"ce4bhkp2rcd13ifvqgd0","pricing_plan_id":"cebpf4jnsgd1na2vs0mg"},{"bike_id":"c6831e47-16b3-420c-b036-b32c6f9f7658","system_id":"levelo_inurba_marseille","lat":43.24165,"lon":5.39403,"is_reserved":false,"is_disabled":false,"rental_uris":{"android":"levelo://app?vid=c6831e47-16b3-420c-b036-b32c6f9f7658","ios":"levelo://app?vid=c6831e47-16b3-420c-b036-b32c6f9f7658"},"vehicle_type_id":"4","last_reported":1752477339,"current_range_meters":11200,"station_id":"","pricing_plan_id":"cebpf4jnsgd1na2vs0mg"},{"bike_id":"a44f68aa-b920-4eb6-845e-df1183944a6b","system_id":"levelo_inurba_marseille","lat":43.28557,"lon":5.35048,"is_reserved":false,"is_disabled":true,"rental_uris":{"android":"levelo://app?vid=a44f68aa-b920-4eb6-845e-df1183944a6b","ios":"levelo://app?vid=a44f68aa-b920-4eb6-845e-df1183944a6b"},"vehicle_type_id":"4","last_reported":1752477339,"current_range_meters":11200,"station_id":"","pricing_plan_id":"cebpf4jnsgd1na2vs0mg"},{"bike_id":"cc156819-87ca-4dea-8770-67c478874879","system_id":"levelo_inurba_marseille","lat":43.23198,"lon":5.39974,"is_reserved":false,"is_disabled":false,"rental_uris":{"android":"levelo://app?vid=cc156819-87ca-4dea-8770-67c478874879","ios":"levelo://app?vid=cc156819-87ca-4dea-8770-67c478874879"},"vehicle_type_id":"4","last_reported":1752477339,"current_range_meters":11200,"station_id":"ce4bhn12rcd13ifvqgqg","pricing_plan_id":"cebpf4jnsgd1na2vs0mg"},{"bike_id":"a834463f-4682-43a4-9371-a36c6d67dff8","system_id":"levelo_inurba_marseille","lat":43.28252,"lon":5.35057,"is_reserved":false,"is_disabled":false,"rental_uris":{"android":"levelo://app?vid=a834463f-4682-43a4-9371-a36c6d67dff8","ios":"levelo://app?vid=a834463f-4682-43a4-9371-a36c6d67dff8"},"vehicle_type_id":"4","last_reported":1752477339,"current_range_meters":11600,"station_id":"ce4bhbp2rcd13ifvqerg","pricing_plan_id":"cebpf4jnsgd1na2vs0mg"},{"bike_id":"c044c2f8-9565-4907-88cd-4c666a325b96","system_id":"levelo_inurba_marseille","lat":43.30308,"lon":5.36914,"is_reserved":false,"is_disabled":false,"rental_uris":{"android":"levelo://app?vid=c044c2f8-9565-4907-88cd-4c666a325b96","ios":"levelo://app?vid=c044c2f8-9565-4907-88cd-4c666a325b96"},"vehicle_type_id":"4","last_reported":1752477339,"current_range_meters":11600,"station_id":"ce4bgqh2rcd13ifvqc5g","pricing_plan_id":"cebpf4jnsgd1na2vs0mg"},{"bike_id":"4c7b8b0f-88b0-4aff-9ba3-6dc72c40a219","system_id":"levelo_inurba_marseille","lat":43.257255,"lon":5.411076,"is_reserved":false,"is_disabled":false,"rental_uris":{"android":"levelo://app?vid=4c7b8b0f-88b0-4aff-9ba3-6dc72c40a219","ios":"levelo://app?vid=4c7b8b0f-88b0-4aff-9ba3-6dc72c40a219"},"vehicle_type_id":"4","last_reported":1752477339,"current_range_meters":12000,"station_id":"ce4bhkp2rcd13ifvqgd0","pricing_plan_id":"cebpf4jnsgd1na2vs0mg"},{"bike_id":"4a363f4c-7fdb-40d4-a5e1-7ce76340cec0","system_id":"levelo_inurba_marseille","lat":43.2926,"lon":5.40894,"is_reserved":false,"is_disabled":false,"rental_uris":{"android":"levelo://app?vid=4a363f4c-7fdb-40d4-a5e1-7ce76340cec0","ios":"levelo://app?vid=4a363f4c-7fdb-40d4-a5e1-7ce76340cec0"},"vehicle_type_id":"4","last_reported":1752477339,"current_range_meters":12000,"station_id":"ce4bh192rcd13ifvqdc0","pricing_plan_id":"cebpf4jnsgd1na2vs0mg"},{"bike_id":"0327ba3d-56c5-40a2-9b87-fb20780bb2cf","system_id":"levelo_inurba_marseille","lat":43.28479,"lon":5.38454,"is_reserved":false,"is_disabled":false,"rental_uris":{"android":"levelo://app?vid=0327ba3d-56c5-40a2-9b87-fb20780bb2cf","ios":"levelo://app?vid=0327ba3d-56c5-40a2-9b87-fb20780bb2cf"},"vehicle_type_id":"4","last_reported":1752477339,"current_range_meters":12000,"station_id":"ce4bh512rcd13ifvqe3g","pricing_plan_id":"cebpf4jnsgd1na2vs0mg"},{"bike_id":"1c197dec-ba6f-40e3-8d8c-14d0a0949eaf","system_id":"levelo_inurba_marseille","lat":43.28419,"lon":5.34998,"is_reserved":false,"is_disabled":false,"rental_uris":{"android":"levelo://app?vid=1c197dec-ba6f-40e3-8d8c-14d0a0949eaf","ios":"levelo://app?vid=1c197dec-ba6f-40e3-8d8c-14d0a0949eaf"},"vehicle_type_id":"4","last_reported":1752477339,"current_range_meters":12400,"station_id":"ce4bhbh2rcd13ifvqepg","pricing_plan_id":"cebpf4jnsgd1na2vs0mg"},{"bike_id":"1a469edf-5352-481f-91e3-cfaef6ee1547","system_id":"levelo_inurba_marseille","lat":43.211918,"lon":5.350727,"is_reserved":false,"is_disabled":false,"rental_uris":{"android":"levelo://app?vid=1a469edf-5352-481f-91e3-cfaef6ee1547","ios":"levelo://app?vid=1a469edf-5352-481f-91e3-cfaef6ee1547"},"vehicle_type_id":"4","last_reported":1752477339,"current_range_meters":12400,"station_id":"st_cvj6sg6p6f1abm77japg","pricing_plan_id":"cebpf4jnsgd1na2vs0mg"},{"bike_id":"58375fde-ca97-4dab-be52-59caf98323d3","system_id":"levelo_inurba_marseille","lat":43.265543,"lon":5.372857,"is_reserved":false,"is_disabled":true,"rental_uris":{"android":"levelo://app?vid=58375fde-ca97-4dab-be52-59caf98323d3","ios":"levelo://app?vid=58375fde-ca97-4dab-be52-59caf98323d3"},"vehicle_type_id":"4","last_reported":1752477339,"current_range_meters":12400,"station_id":"ce4bhg12rcd13ifvqf70","pricing_plan_id":"cebpf4jnsgd1na2vs0mg"},{"bike_id":"6d32cc95-68b1-4524-99d6-e9b2bdf7501a","system_id":"levelo_inurba_marseille","lat":43.29594,"lon":5.38109,"is_reserved":false,"is_disabled":false,"rental_uris":{"android":"levelo://app?vid=6d32cc95-68b1-4524-99d6-e9b2bdf7501a","ios":"levelo://app?vid=6d32cc95-68b1-4524-99d6-e9b2bdf7501a"},"vehicle_type_id":"4","last_reported":1752477339,"current_range_meters":12400,"station_id":"ce4bgl12rcd13ifvqbo0","pricing_plan_id":"cebpf4jnsgd1na2vs0mg"},{"bike_id":"79ac9d5c-87ca-42a3-a25e-34606432c125","system_id":"levelo_inurba_marseille","lat":43.211933,"lon":5.350664,"is_reserved":false,"is_disabled":false,"rental_uris":{"android":"levelo://app?vid=79ac9d5c-87ca-42a3-a25e-34606432c125","ios":"levelo://app?vid=79ac9d5c-87ca-42a3-a25e-34606432c125"},"vehicle_type_id":"4","last_reported":1752477339,"current_range_meters":12400,"station_id":"st_cvj6sg6p6f1abm77japg","pricing_plan_id":"cebpf4jnsgd1na2vs0mg"},{"bike_id":"2373493c-3f5d-4c0e-964f-28aaeea09104","system_id":"levelo_inurba_marseille","lat":43.31321,"lon":5.39729,"is_reserved":false,"is_disabled":false,"rental_uris":{"android":"levelo://app?vid=2373493c-3f5d-4c0e-964f-28aaeea09104","ios":"levelo://app?vid=2373493c-3f5d-4c0e-964f-28aaeea09104"},"vehicle_type_id":"4","last_reported":1752477339,"current_range_meters":12400,"station_id":"ce4bgvp2rcd13ifvqcu0","pricing_plan_id":"cebpf4jnsgd1na2vs0mg"},{"bike_id":"9d31d9a3-9360-47cc-9360-3d8ed75b64a4","system_id":"levelo_inurba_marseille","lat":43.32904,"lon":5.36705,"is_reserved":false,"is_disabled":false,"rental_uris":{"android":"levelo://app?vid=9d31d9a3-9360-47cc-9360-3d8ed75b64a4","ios":"levelo://app?vid=9d31d9a3-9360-47cc-9360-3d8ed75b64a4"},"vehicle_type_id":"4","last_reported":1752477339,"current_range_meters":12400,"station_id":"","pricing_plan_id":"cebpf4jnsgd1na2vs0mg"},{"bike_id":"1700fcd6-30ad-4b74-a158-50e5dcb60b9b","system_id":"levelo_inurba_marseille","lat":43.2894,"lon":5.366274,"is_reserved":false,"is_disabled":true,"rental_uris":{"android":"levelo://app?vid=1700fcd6-30ad-4b74-a158-50e5dcb60b9b","ios":"levelo://app?vid=1700fcd6-30ad-4b74-a158-50e5dcb60b9b"},"vehicle_type_id":"4","last_reported":1752477339,"current_range_meters":12400,"station_id":"ce4bhap2rcd13ifvqek0","pricing_plan_id":"cebpf4jnsgd1na2vs0mg"},{"bike_id":"b2464811-ed1c-444d-b5b2-f0f5cb56794f","system_id":"levelo_inurba_marseille","lat":43.28704,"lon":5.35191,"is_reserved":false,"is_disabled":true,"rental_uris":{"android":"levelo://app?vid=b2464811-ed1c-444d-b5b2-f0f5cb56794f","ios":"levelo://app?vid=b2464811-ed1c-444d-b5b2-f0f5cb56794f"},"vehicle_type_id":"4","last_reported":1752477339,"current_range_meters":12800,"station_id":"","pricing_plan_id":"cebpf4jnsgd1na2vs0mg"},{"bike_id":"7d8c67ad-3e66-42f9-8c6e-098cca666cf3","system_id":"levelo_inurba_marseille","lat":43.3236,"lon":5.36762,"is_reserved":false,"is_disabled":false,"rental_uris":{"android":"levelo://app?vid=7d8c67ad-3e66-42f9-8c6e-098cca666cf3","ios":"levelo://app?vid=7d8c67ad-3e66-42f9-8c6e-098cca666cf3"},"vehicle_type_id":"4","last_reported":1752477339,"current_range_meters":12800,"station_id":"ce4bhsh2rcd13ifvqi2g","pricing_plan_id":"cebpf4jnsgd1na2vs0mg"},{"bike_id":"53a7c5a0-bf42-4a71-a975-ed65973eff06","system_id":"levelo_inurba_marseille","lat":43.30226,"lon":5.400545,"is_reserved":false,"is_disabled":false,"rental_uris":{"android":"levelo://app?vid=53a7c5a0-bf42-4a71-a975-ed65973eff06","ios":"levelo://app?vid=53a7c5a0-bf42-4a71-a975-ed65973eff06"},"vehicle_type_id":"4","last_reported":1752477339,"current_range_meters":12800,"station_id":"","pricing_plan_id":"cebpf4jnsgd1na2vs0mg"},{"bike_id":"79724c7a-8951-4858-8e03-5dd8592df824","system_id":"levelo_inurba_marseille","lat":43.30318,"lon":5.36913,"is_reserved":false,"is_disabled":false,"rental_uris":{"android":"levelo://app?vid=79724c7a-8951-4858-8e03-5dd8592df824","ios":"levelo://app?vid=79724c7a-8951-4858-8e03-5dd8592df824"},"vehicle_type_id":"4","last_reported":1752477339,"current_range_meters":13600,"station_id":"ce4bgqh2rcd13ifvqc5g","pricing_plan_id":"cebpf4jnsgd1na2vs0mg"},{"bike_id":"7b60e2b3-fe60-4caf-8d3e-4c917054d448","system_id":"levelo_inurba_marseille","lat":43.284227,"lon":5.34992,"is_reserved":false,"is_disabled":true,"rental_uris":{"android":"levelo://app?vid=7b60e2b3-fe60-4caf-8d3e-4c917054d448","ios":"levelo://app?vid=7b60e2b3-fe60-4caf-8d3e-4c917054d448"},"vehicle_type_id":"4","last_reported":1752477339,"current_range_meters":13600,"station_id":"ce4bhbh2rcd13ifvqepg","pricing_plan_id":"cebpf4jnsgd1na2vs0mg"},{"bike_id":"28f6661f-fa05-4b8f-8f5e-cb4158aac2c7","system_id":"levelo_inurba_marseille","lat":43.293808,"lon":5.378553,"is_reserved":false,"is_disabled":false,"rental_uris":{"android":"levelo://app?vid=28f6661f-fa05-4b8f-8f5e-cb4158aac2c7","ios":"levelo://app?vid=28f6661f-fa05-4b8f-8f5e-cb4158aac2c7"},"vehicle_type_id":"4","last_reported":1752477339,"current_range_meters":13600,"station_id":"ce4bgjh2rcd13ifvqbf0","pricing_plan_id":"cebpf4jnsgd1na2vs0mg"},{"bike_id":"b053f929-7efb-49cd-9959-74ef096980bb","system_id":"levelo_inurba_marseille","lat":43.33746,"lon":5.37465,"is_reserved":false,"is_disabled":false,"rental_uris":{"android":"levelo://app?vid=b053f929-7efb-49cd-9959-74ef096980bb","ios":"levelo://app?vid=b053f929-7efb-49cd-9959-74ef096980bb"},"vehicle_type_id":"4","last_reported":1752477339,"current_range_meters":13600,"station_id":"","pricing_plan_id":"cebpf4jnsgd1na2vs0mg"},{"bike_id":"a18169ac-e65a-49b0-b67b-60034da00a8e","system_id":"levelo_inurba_marseille","lat":43.278192,"lon":5.407126,"is_reserved":false,"is_disabled":false,"rental_uris":{"android":"levelo://app?vid=a18169ac-e65a-49b0-b67b-60034da00a8e","ios":"levelo://app?vid=a18169ac-e65a-49b0-b67b-60034da00a8e"},"vehicle_type_id":"4","last_reported":1752477339,"current_range_meters":14000,"station_id":"ce4bhnh2rcd13ifvqgtg","pricing_plan_id":"cebpf4jnsgd1na2vs0mg"},{"bike_id":"002e6944-aa53-41b5-94a1-97e8a1b31e28","system_id":"levelo_inurba_marseille","lat":43.31479,"lon":5.3729,"is_reserved":false,"is_disabled":false,"rental_uris":{"android":"levelo://app?vid=002e6944-aa53-41b5-94a1-97e8a1b31e28","ios":"levelo://app?vid=002e6944-aa53-41b5-94a1-97e8a1b31e28"},"vehicle_type_id":"4","last_reported":1752477339,"current_range_meters":14000,"station_id":"ce4bgt12rcd13ifvqcd0","pricing_plan_id":"cebpf4jnsgd1na2vs0mg"},{"bike_id":"2ec427da-b403-4a7e-86be-3f48ba535d18","system_id":"levelo_inurba_marseille","lat":43.211904,"lon":5.350779,"is_reserved":false,"is_disabled":false,"rental_uris":{"android":"levelo://app?vid=2ec427da-b403-4a7e-86be-3f48ba535d18","ios":"levelo://app?vid=2ec427da-b403-4a7e-86be-3f48ba535d18"},"vehicle_type_id":"4","last_reported":1752477339,"current_range_meters":14400,"station_id":"st_cvj6sg6p6f1abm77japg","pricing_plan_id":"cebpf4jnsgd1na2vs0mg"},{"bike_id":"350baf57-19b6-4304-9c57-75c381c047e9","system_id":"levelo_inurba_marseille","lat":43.30318,"lon":5.36903,"is_reserved":false,"is_disabled":false,"rental_uris":{"android":"levelo://app?vid=350baf57-19b6-4304-9c57-75c381c047e9","ios":"levelo://app?vid=350baf57-19b6-4304-9c57-75c381c047e9"},"vehicle_type_id":"4","last_reported":1752477339,"current_range_meters":14400,"station_id":"ce4bgqh2rcd13ifvqc5g","pricing_plan_id":"cebpf4jnsgd1na2vs0mg"},{"bike_id":"91e36618-f857-45af-ac89-91d909da2db3","system_id":"levelo_inurba_marseille","lat":43.294193,"lon":5.386046,"is_reserved":false,"is_disabled":true,"rental_uris":{"android":"levelo://app?vid=91e36618-f857-45af-ac89-91d909da2db3","ios":"levelo://app?vid=91e36618-f857-45af-ac89-91d909da2db3"},"vehicle_type_id":"4","last_reported":1752477339,"current_range_meters":14400,"station_id":"ce4bh2h2rcd13ifvqdh0","pricing_plan_id":"cebpf4jnsgd1na2vs0mg"},{"bike_id":"f5a47db5-6fb2-46bd-a2de-efa4ad13bf60","system_id":"levelo_inurba_marseille","lat":43.21191,"lon":5.35067,"is_reserved":false,"is_disabled":false,"rental_uris":{"android":"levelo://app?vid=f5a47db5-6fb2-46bd-a2de-efa4ad13bf60","ios":"levelo://app?vid=f5a47db5-6fb2-46bd-a2de-efa4ad13bf60"},"vehicle_type_id":"4","last_reported":1752477339,"current_range_meters":14400,"station_id":"st_cvj6sg6p6f1abm77japg","pricing_plan_id":"cebpf4jnsgd1na2vs0mg"},{"bike_id":"45583b9b-98ff-4d18-a778-0d792c89bae3","system_id":"levelo_inurba_marseille","lat":43.28571,"lon":5.394932,"is_reserved":false,"is_disabled":false,"rental_uris":{"android":"levelo://app?vid=45583b9b-98ff-4d18-a778-0d792c89bae3","ios":"levelo://app?vid=45583b9b-98ff-4d18-a778-0d792c89bae3"},"vehicle_type_id":"4","last_reported":1752477339,"current_range_meters":14800,"station_id":"ce4bh292rcd13ifvqdg0","pricing_plan_id":"cebpf4jnsgd1na2vs0mg"},{"bike_id":"e91ced2f-2041-4b38-8446-0d5d97adec95","system_id":"levelo_inurba_marseille","lat":43.255793,"lon":5.382228,"is_reserved":false,"is_disabled":true,"rental_uris":{"android":"levelo://app?vid=e91ced2f-2041-4b38-8446-0d5d97adec95","ios":"levelo://app?vid=e91ced2f-2041-4b38-8446-0d5d97adec95"},"vehicle_type_id":"4","last_reported":1752477339,"current_range_meters":14800,"station_id":"ce4bhih2rcd13ifvqfs0","pricing_plan_id":"cebpf4jnsgd1na2vs0mg"},{"bike_id":"1aedaa42-1f03-48cc-8e38-d983e72f730b","system_id":"levelo_inurba_marseille","lat":43.27025,"lon":5.42252,"is_reserved":false,"is_disabled":false,"rental_uris":{"android":"levelo://app?vid=1aedaa42-1f03-48cc-8e38-d983e72f730b","ios":"levelo://app?vid=1aedaa42-1f03-48cc-8e38-d983e72f730b"},"vehicle_type_id":"4","last_reported":1752477339,"current_range_meters":14800,"station_id":"","pricing_plan_id":"cebpf4jnsgd1na2vs0mg"},{"bike_id":"40392a3b-1d10-4dd5-b1d6-6477ad9a4c60","system_id":"levelo_inurba_marseille","lat":43.29078,"lon":5.38137,"is_reserved":false,"is_disabled":false,"rental_uris":{"android":"levelo://app?vid=40392a3b-1d10-4dd5-b1d6-6477ad9a4c60","ios":"levelo://app?vid=40392a3b-1d10-4dd5-b1d6-6477ad9a4c60"},"vehicle_type_id":"4","last_reported":1752477339,"current_range_meters":14800,"station_id":"ce4bh512rcd13ifvqe2g","pricing_plan_id":"cebpf4jnsgd1na2vs0mg"},{"bike_id":"42c970b8-526e-4a38-b59c-65adacac7d63","system_id":"levelo_inurba_marseille","lat":43.30328,"lon":5.40434,"is_reserved":false,"is_disabled":false,"rental_uris":{"android":"levelo://app?vid=42c970b8-526e-4a38-b59c-65adacac7d63","ios":"levelo://app?vid=42c970b8-526e-4a38-b59c-65adacac7d63"},"vehicle_type_id":"4","last_reported":1752477339,"current_range_meters":14800,"station_id":"ce4bh012rcd13ifvqd10","pricing_plan_id":"cebpf4jnsgd1na2vs0mg"},{"bike_id":"e83439d2-4642-48a2-8689-7a894582417f","system_id":"levelo_inurba_marseille","lat":43.21197,"lon":5.35039,"is_reserved":false,"is_disabled":false,"rental_uris":{"android":"levelo://app?vid=e83439d2-4642-48a2-8689-7a894582417f","ios":"levelo://app?vid=e83439d2-4642-48a2-8689-7a894582417f"},"vehicle_type_id":"4","last_reported":1752477339,"current_range_meters":14800,"station_id":"st_cvj6sg6p6f1abm77japg","pricing_plan_id":"cebpf4jnsgd1na2vs0mg"},{"bike_id":"8a01e88a-8371-4085-9838-47ae11897cd3","system_id":"levelo_inurba_marseille","lat":43.28141,"lon":5.42622,"is_reserved":false,"is_disabled":true,"rental_uris":{"android":"levelo://app?vid=8a01e88a-8371-4085-9838-47ae11897cd3","ios":"levelo://app?vid=8a01e88a-8371-4085-9838-47ae11897cd3"},"vehicle_type_id":"4","last_reported":1752477339,"current_range_meters":14800,"station_id":"ce4bhnh2rcd13ifvqgug","pricing_plan_id":"cebpf4jnsgd1na2vs0mg"},{"bike_id":"c8c4de1a-846f-4f5b-aace-9fb14bf7ad52","system_id":"levelo_inurba_marseille","lat":43.2119,"lon":5.35072,"is_reserved":false,"is_disabled":false,"rental_uris":{"android":"levelo://app?vid=c8c4de1a-846f-4f5b-aace-9fb14bf7ad52","ios":"levelo://app?vid=c8c4de1a-846f-4f5b-aace-9fb14bf7ad52"},"vehicle_type_id":"4","last_reported":1752477339,"current_range_meters":14800,"station_id":"st_cvj6sg6p6f1abm77japg","pricing_plan_id":"cebpf4jnsgd1na2vs0mg"},{"bike_id":"a7f0e8f4-40b5-4b11-86e1-3b45c1c87d1b","system_id":"levelo_inurba_marseille","lat":43.24065,"lon":5.37738,"is_reserved":false,"is_disabled":false,"rental_uris":{"android":"levelo://app?vid=a7f0e8f4-40b5-4b11-86e1-3b45c1c87d1b","ios":"levelo://app?vid=a7f0e8f4-40b5-4b11-86e1-3b45c1c87d1b"},"vehicle_type_id":"4","last_reported":1752477339,"current_range_meters":15200,"station_id":"ce4bhnp2rcd13ifvqgvg","pricing_plan_id":"cebpf4jnsgd1na2vs0mg"},{"bike_id":"f7cf9aab-0ed3-4931-a48c-8d0743d0c0b9","system_id":"levelo_inurba_marseille","lat":43.22925,"lon":5.35377,"is_reserved":false,"is_disabled":true,"rental_uris":{"android":"levelo://app?vid=f7cf9aab-0ed3-4931-a48c-8d0743d0c0b9","ios":"levelo://app?vid=f7cf9aab-0ed3-4931-a48c-8d0743d0c0b9"},"vehicle_type_id":"4","last_reported":1752477339,"current_range_meters":15200,"station_id":"cpo3532slgdg3j2ikp40","pricing_plan_id":"cebpf4jnsgd1na2vs0mg"},{"bike_id":"4c15aebe-18ab-4353-a234-87063157bf88","system_id":"levelo_inurba_marseille","lat":43.24168,"lon":5.39722,"is_reserved":false,"is_disabled":false,"rental_uris":{"android":"levelo://app?vid=4c15aebe-18ab-4353-a234-87063157bf88","ios":"levelo://app?vid=4c15aebe-18ab-4353-a234-87063157bf88"},"vehicle_type_id":"4","last_reported":1752477339,"current_range_meters":15200,"station_id":"ce4bhn12rcd13ifvqgpg","pricing_plan_id":"cebpf4jnsgd1na2vs0mg"},{"bike_id":"b6771d12-4d0b-4004-8d85-15a22b02cf35","system_id":"levelo_inurba_marseille","lat":43.25575,"lon":5.382273,"is_reserved":false,"is_disabled":false,"rental_uris":{"android":"levelo://app?vid=b6771d12-4d0b-4004-8d85-15a22b02cf35","ios":"levelo://app?vid=b6771d12-4d0b-4004-8d85-15a22b02cf35"},"vehicle_type_id":"4","last_reported":1752477339,"current_range_meters":15200,"station_id":"ce4bhih2rcd13ifvqfs0","pricing_plan_id":"cebpf4jnsgd1na2vs0mg"},{"bike_id":"c9ff2100-8b0a-498d-a646-f7288590f021","system_id":"levelo_inurba_marseille","lat":43.31191,"lon":5.39419,"is_reserved":false,"is_disabled":false,"rental_uris":{"android":"levelo://app?vid=c9ff2100-8b0a-498d-a646-f7288590f021","ios":"levelo://app?vid=c9ff2100-8b0a-498d-a646-f7288590f021"},"vehicle_type_id":"4","last_reported":1752477339,"current_range_meters":15200,"station_id":"","pricing_plan_id":"cebpf4jnsgd1na2vs0mg"},{"bike_id":"088e6b1d-8a81-47e0-9ad0-36233ed399c0","system_id":"levelo_inurba_marseille","lat":43.279243,"lon":5.395706,"is_reserved":false,"is_disabled":true,"rental_uris":{"android":"levelo://app?vid=088e6b1d-8a81-47e0-9ad0-36233ed399c0","ios":"levelo://app?vid=088e6b1d-8a81-47e0-9ad0-36233ed399c0"},"vehicle_type_id":"4","last_reported":1752477339,"current_range_meters":15200,"station_id":"ce4bhf92rcd13ifvqf40","pricing_plan_id":"cebpf4jnsgd1na2vs0mg"},{"bike_id":"697d5fc4-b988-4a4e-8323-c1ce5ed61a61","system_id":"levelo_inurba_marseille","lat":43.211919,"lon":5.350727,"is_reserved":false,"is_disabled":false,"rental_uris":{"android":"levelo://app?vid=697d5fc4-b988-4a4e-8323-c1ce5ed61a61","ios":"levelo://app?vid=697d5fc4-b988-4a4e-8323-c1ce5ed61a61"},"vehicle_type_id":"4","last_reported":1752477339,"current_range_meters":16000,"station_id":"st_cvj6sg6p6f1abm77japg","pricing_plan_id":"cebpf4jnsgd1na2vs0mg"},{"bike_id":"e1928b01-bff5-4cea-b60c-f8d9223daef3","system_id":"levelo_inurba_marseille","lat":43.270772,"lon":5.422806,"is_reserved":false,"is_disabled":false,"rental_uris":{"android":"levelo://app?vid=e1928b01-bff5-4cea-b60c-f8d9223daef3","ios":"levelo://app?vid=e1928b01-bff5-4cea-b60c-f8d9223daef3"},"vehicle_type_id":"4","last_reported":1752477339,"current_range_meters":16000,"station_id":"ce4bhk92rcd13ifvqgb0","pricing_plan_id":"cebpf4jnsgd1na2vs0mg"},{"bike_id":"b1f565f2-83c4-4631-9b4d-1d683a0261ef","system_id":"levelo_inurba_marseille","lat":43.211884,"lon":5.350794,"is_reserved":false,"is_disabled":false,"rental_uris":{"android":"levelo://app?vid=b1f565f2-83c4-4631-9b4d-1d683a0261ef","ios":"levelo://app?vid=b1f565f2-83c4-4631-9b4d-1d683a0261ef"},"vehicle_type_id":"4","last_reported":1752477339,"current_range_meters":16000,"station_id":"st_cvj6sg6p6f1abm77japg","pricing_plan_id":"cebpf4jnsgd1na2vs0mg"},{"bike_id":"6ac174d4-75c5-4a9c-9699-97cd631c6e65","system_id":"levelo_inurba_marseille","lat":43.25458,"lon":5.39931,"is_reserved":false,"is_disabled":false,"rental_uris":{"android":"levelo://app?vid=6ac174d4-75c5-4a9c-9699-97cd631c6e65","ios":"levelo://app?vid=6ac174d4-75c5-4a9c-9699-97cd631c6e65"},"vehicle_type_id":"4","last_reported":1752477339,"current_range_meters":16000,"station_id":"","pricing_plan_id":"cebpf4jnsgd1na2vs0mg"},{"bike_id":"a4d07f45-19f9-4df9-9728-be6623530a64","system_id":"levelo_inurba_marseille","lat":43.23724,"lon":5.38864,"is_reserved":false,"is_disabled":false,"rental_uris":{"android":"levelo://app?vid=a4d07f45-19f9-4df9-9728-be6623530a64","ios":"levelo://app?vid=a4d07f45-19f9-4df9-9728-be6623530a64"},"vehicle_type_id":"4","last_reported":1752477339,"current_range_meters":16000,"station_id":"","pricing_plan_id":"cebpf4jnsgd1na2vs0mg"},{"bike_id":"616c4df9-cf66-476f-9f6b-73e008f4cb8b","system_id":"levelo_inurba_marseille","lat":43.29573,"lon":5.37515,"is_reserved":false,"is_disabled":false,"rental_uris":{"android":"levelo://app?vid=616c4df9-cf66-476f-9f6b-73e008f4cb8b","ios":"levelo://app?vid=616c4df9-cf66-476f-9f6b-73e008f4cb8b"},"vehicle_type_id":"4","last_reported":1752477339,"current_range_meters":16000,"station_id":"ce4bgh92rcd13ifvqb50","pricing_plan_id":"cebpf4jnsgd1na2vs0mg"},{"bike_id":"31c710b8-59c4-4592-9629-b8ad795fae60","system_id":"levelo_inurba_marseille","lat":43.302489,"lon":5.400879,"is_reserved":false,"is_disabled":true,"rental_uris":{"android":"levelo://app?vid=31c710b8-59c4-4592-9629-b8ad795fae60","ios":"levelo://app?vid=31c710b8-59c4-4592-9629-b8ad795fae60"},"vehicle_type_id":"4","last_reported":1752477339,"current_range_meters":16400,"station_id":"ce4bgvh2rcd13ifvqcs0","pricing_plan_id":"cebpf4jnsgd1na2vs0mg"},{"bike_id":"f6c58816-4bde-415d-8ff9-447bd6aeed4c","system_id":"levelo_inurba_marseille","lat":43.30454,"lon":5.37904,"is_reserved":false,"is_disabled":false,"rental_uris":{"android":"levelo://app?vid=f6c58816-4bde-415d-8ff9-447bd6aeed4c","ios":"levelo://app?vid=f6c58816-4bde-415d-8ff9-447bd6aeed4c"},"vehicle_type_id":"4","last_reported":1752477339,"current_range_meters":16400,"station_id":"ce4bgup2rcd13ifvqcn0","pricing_plan_id":"cebpf4jnsgd1na2vs0mg"},{"bike_id":"12d48e4d-a291-49bb-ab45-967804b53d7b","system_id":"levelo_inurba_marseille","lat":43.27622,"lon":5.36086,"is_reserved":false,"is_disabled":true,"rental_uris":{"android":"levelo://app?vid=12d48e4d-a291-49bb-ab45-967804b53d7b","ios":"levelo://app?vid=12d48e4d-a291-49bb-ab45-967804b53d7b"},"vehicle_type_id":"4","last_reported":1752477339,"current_range_meters":16400,"station_id":"ce4bgj92rcd13ifvqbe0","pricing_plan_id":"cebpf4jnsgd1na2vs0mg"},{"bike_id":"e1442ff3-c767-4bb3-901d-e5f60873ad13","system_id":"levelo_inurba_marseille","lat":43.23142,"lon":5.40016,"is_reserved":false,"is_disabled":false,"rental_uris":{"android":"levelo://app?vid=e1442ff3-c767-4bb3-901d-e5f60873ad13","ios":"levelo://app?vid=e1442ff3-c767-4bb3-901d-e5f60873ad13"},"vehicle_type_id":"4","last_reported":1752477339,"current_range_meters":16400,"station_id":"ce4bhn12rcd13ifvqgqg","pricing_plan_id":"cebpf4jnsgd1na2vs0mg"},{"bike_id":"2c81c752-b139-48bc-a4ee-7fa7f8526278","system_id":"levelo_inurba_marseille","lat":43.21748,"lon":5.34603,"is_reserved":false,"is_disabled":true,"rental_uris":{"android":"levelo://app?vid=2c81c752-b139-48bc-a4ee-7fa7f8526278","ios":"levelo://app?vid=2c81c752-b139-48bc-a4ee-7fa7f8526278"},"vehicle_type_id":"4","last_reported":1752477339,"current_range_meters":16400,"station_id":"st_cvj6r9ubvosntc0bgbag","pricing_plan_id":"cebpf4jnsgd1na2vs0mg"},{"bike_id":"23a0fc67-4c39-4b74-8a86-2903d79b1606","system_id":"levelo_inurba_marseille","lat":43.231915,"lon":5.35555,"is_reserved":false,"is_disabled":false,"rental_uris":{"android":"levelo://app?vid=23a0fc67-4c39-4b74-8a86-2903d79b1606","ios":"levelo://app?vid=23a0fc67-4c39-4b74-8a86-2903d79b1606"},"vehicle_type_id":"4","last_reported":1752477339,"current_range_meters":16400,"station_id":"ce4bhu92rcd13ifvqi70","pricing_plan_id":"cebpf4jnsgd1na2vs0mg"},{"bike_id":"1578a68a-cc35-4839-ba7b-f3c58a0a0b0f","system_id":"levelo_inurba_marseille","lat":43.25108,"lon":5.4032,"is_reserved":false,"is_disabled":false,"rental_uris":{"android":"levelo://app?vid=1578a68a-cc35-4839-ba7b-f3c58a0a0b0f","ios":"levelo://app?vid=1578a68a-cc35-4839-ba7b-f3c58a0a0b0f"},"vehicle_type_id":"4","last_reported":1752477339,"current_range_meters":16400,"station_id":"ce4bhlh2rcd13ifvqgig","pricing_plan_id":"cebpf4jnsgd1na2vs0mg"},{"bike_id":"5f48d587-f9d0-43e5-b0b2-bf2fb17b1a3c","system_id":"levelo_inurba_marseille","lat":43.294197,"lon":5.386028,"is_reserved":false,"is_disabled":true,"rental_uris":{"android":"levelo://app?vid=5f48d587-f9d0-43e5-b0b2-bf2fb17b1a3c","ios":"levelo://app?vid=5f48d587-f9d0-43e5-b0b2-bf2fb17b1a3c"},"vehicle_type_id":"4","last_reported":1752477339,"current_range_meters":16400,"station_id":"ce4bh2h2rcd13ifvqdh0","pricing_plan_id":"cebpf4jnsgd1na2vs0mg"},{"bike_id":"2ec8126e-617b-4cce-b853-80d34e2082cb","system_id":"levelo_inurba_marseille","lat":43.278251,"lon":5.406953,"is_reserved":false,"is_disabled":false,"rental_uris":{"android":"levelo://app?vid=2ec8126e-617b-4cce-b853-80d34e2082cb","ios":"levelo://app?vid=2ec8126e-617b-4cce-b853-80d34e2082cb"},"vehicle_type_id":"4","last_reported":1752477339,"current_range_meters":16400,"station_id":"ce4bhnh2rcd13ifvqgtg","pricing_plan_id":"cebpf4jnsgd1na2vs0mg"},{"bike_id":"c84ea5f2-3824-4cff-8f89-3f362c6b10e3","system_id":"levelo_inurba_marseille","lat":43.296335,"lon":5.3815,"is_reserved":false,"is_disabled":false,"rental_uris":{"android":"levelo://app?vid=c84ea5f2-3824-4cff-8f89-3f362c6b10e3","ios":"levelo://app?vid=c84ea5f2-3824-4cff-8f89-3f362c6b10e3"},"vehicle_type_id":"4","last_reported":1752477339,"current_range_meters":16400,"station_id":"ce4bgjp2rcd13ifvqbh0","pricing_plan_id":"cebpf4jnsgd1na2vs0mg"},{"bike_id":"ec290900-2bab-4ce3-84b6-947a7c3ca1da","system_id":"levelo_inurba_marseille","lat":43.23146,"lon":5.43721,"is_reserved":false,"is_disabled":false,"rental_uris":{"android":"levelo://app?vid=ec290900-2bab-4ce3-84b6-947a7c3ca1da","ios":"levelo://app?vid=ec290900-2bab-4ce3-84b6-947a7c3ca1da"},"vehicle_type_id":"4","last_reported":1752477339,"current_range_meters":16800,"station_id":"ce4bhmp2rcd13ifvqgog","pricing_plan_id":"cebpf4jnsgd1na2vs0mg"},{"bike_id":"d4d09814-bfb5-45f2-8280-ce5d7b12bead","system_id":"levelo_inurba_marseille","lat":43.279404,"lon":5.410419,"is_reserved":false,"is_disabled":false,"rental_uris":{"android":"levelo://app?vid=d4d09814-bfb5-45f2-8280-ce5d7b12bead","ios":"levelo://app?vid=d4d09814-bfb5-45f2-8280-ce5d7b12bead"},"vehicle_type_id":"4","last_reported":1752477339,"current_range_meters":16800,"station_id":"ce4bhnp2rcd13ifvqh0g","pricing_plan_id":"cebpf4jnsgd1na2vs0mg"},{"bike_id":"aa260077-cb0d-43c9-8e67-329c1b69779f","system_id":"levelo_inurba_marseille","lat":43.212116,"lon":5.350635,"is_reserved":false,"is_disabled":false,"rental_uris":{"android":"levelo://app?vid=aa260077-cb0d-43c9-8e67-329c1b69779f","ios":"levelo://app?vid=aa260077-cb0d-43c9-8e67-329c1b69779f"},"vehicle_type_id":"4","last_reported":1752477339,"current_range_meters":16800,"station_id":"st_cvj6sg6p6f1abm77japg","pricing_plan_id":"cebpf4jnsgd1na2vs0mg"},{"bike_id":"08e67338-a2ff-42fc-a939-92ad435f118e","system_id":"levelo_inurba_marseille","lat":43.27674,"lon":5.35714,"is_reserved":false,"is_disabled":false,"rental_uris":{"android":"levelo://app?vid=08e67338-a2ff-42fc-a939-92ad435f118e","ios":"levelo://app?vid=08e67338-a2ff-42fc-a939-92ad435f118e"},"vehicle_type_id":"4","last_reported":1752477339,"current_range_meters":16800,"station_id":"","pricing_plan_id":"cebpf4jnsgd1na2vs0mg"},{"bike_id":"2efb7021-4b12-4c60-9b9e-255aa9eaf858","system_id":"levelo_inurba_marseille","lat":43.31131,"lon":5.377423,"is_reserved":false,"is_disabled":false,"rental_uris":{"android":"levelo://app?vid=2efb7021-4b12-4c60-9b9e-255aa9eaf858","ios":"levelo://app?vid=2efb7021-4b12-4c60-9b9e-255aa9eaf858"},"vehicle_type_id":"4","last_reported":1752477339,"current_range_meters":17200,"station_id":"ce4bgt92rcd13ifvqcg0","pricing_plan_id":"cebpf4jnsgd1na2vs0mg"},{"bike_id":"7dfdc2c3-57a0-4a69-ae23-de970b88e6dd","system_id":"levelo_inurba_marseille","lat":43.25733,"lon":5.41089,"is_reserved":false,"is_disabled":false,"rental_uris":{"android":"levelo://app?vid=7dfdc2c3-57a0-4a69-ae23-de970b88e6dd","ios":"levelo://app?vid=7dfdc2c3-57a0-4a69-ae23-de970b88e6dd"},"vehicle_type_id":"4","last_reported":1752477339,"current_range_meters":17200,"station_id":"ce4bhkp2rcd13ifvqgd0","pricing_plan_id":"cebpf4jnsgd1na2vs0mg"},{"bike_id":"c360f436-24ad-4fcf-bb7c-639b861b27b7","system_id":"levelo_inurba_marseille","lat":43.295516,"lon":5.422891,"is_reserved":false,"is_disabled":false,"rental_uris":{"android":"levelo://app?vid=c360f436-24ad-4fcf-bb7c-639b861b27b7","ios":"levelo://app?vid=c360f436-24ad-4fcf-bb7c-639b861b27b7"},"vehicle_type_id":"4","last_reported":1752477339,"current_range_meters":17200,"station_id":"ce4bhph2rcd13ifvqhdg","pricing_plan_id":"cebpf4jnsgd1na2vs0mg"},{"bike_id":"0be8b6ff-89df-4994-876a-5f9632d04ae6","system_id":"levelo_inurba_marseille","lat":43.251044,"lon":5.403291,"is_reserved":false,"is_disabled":false,"rental_uris":{"android":"levelo://app?vid=0be8b6ff-89df-4994-876a-5f9632d04ae6","ios":"levelo://app?vid=0be8b6ff-89df-4994-876a-5f9632d04ae6"},"vehicle_type_id":"4","last_reported":1752477339,"current_range_meters":17200,"station_id":"ce4bhlh2rcd13ifvqgig","pricing_plan_id":"cebpf4jnsgd1na2vs0mg"},{"bike_id":"7ce50aa9-fb46-499f-bf35-1bc8f67c6be2","system_id":"levelo_inurba_marseille","lat":43.26942,"lon":5.40256,"is_reserved":false,"is_disabled":false,"rental_uris":{"android":"levelo://app?vid=7ce50aa9-fb46-499f-bf35-1bc8f67c6be2","ios":"levelo://app?vid=7ce50aa9-fb46-499f-bf35-1bc8f67c6be2"},"vehicle_type_id":"4","last_reported":1752477339,"current_range_meters":17200,"station_id":"cjm6bp8fraef2m0cb0m0","pricing_plan_id":"cebpf4jnsgd1na2vs0mg"},{"bike_id":"ff273063-b26e-410d-a8db-735ccf894b50","system_id":"levelo_inurba_marseille","lat":43.24081,"lon":5.37759,"is_reserved":false,"is_disabled":false,"rental_uris":{"android":"levelo://app?vid=ff273063-b26e-410d-a8db-735ccf894b50","ios":"levelo://app?vid=ff273063-b26e-410d-a8db-735ccf894b50"},"vehicle_type_id":"4","last_reported":1752477339,"current_range_meters":17200,"station_id":"ce4bhnp2rcd13ifvqgvg","pricing_plan_id":"cebpf4jnsgd1na2vs0mg"},{"bike_id":"2c5a0a8d-b80f-43a1-91ae-93c8cb7cac46","system_id":"levelo_inurba_marseille","lat":43.290249,"lon":5.381227,"is_reserved":false,"is_disabled":false,"rental_uris":{"android":"levelo://app?vid=2c5a0a8d-b80f-43a1-91ae-93c8cb7cac46","ios":"levelo://app?vid=2c5a0a8d-b80f-43a1-91ae-93c8cb7cac46"},"vehicle_type_id":"4","last_reported":1752477339,"current_range_meters":17200,"station_id":"","pricing_plan_id":"cebpf4jnsgd1na2vs0mg"},{"bike_id":"c2857b8a-2544-48ae-936c-90bab1dd6ab6","system_id":"levelo_inurba_marseille","lat":43.21198,"lon":5.35063,"is_reserved":false,"is_disabled":false,"rental_uris":{"android":"levelo://app?vid=c2857b8a-2544-48ae-936c-90bab1dd6ab6","ios":"levelo://app?vid=c2857b8a-2544-48ae-936c-90bab1dd6ab6"},"vehicle_type_id":"4","last_reported":1752477339,"current_range_meters":17200,"station_id":"st_cvj6sg6p6f1abm77japg","pricing_plan_id":"cebpf4jnsgd1na2vs0mg"},{"bike_id":"bbbd7405-0e12-4512-b62c-d8d1cbbecf09","system_id":"levelo_inurba_marseille","lat":43.30008,"lon":5.38504,"is_reserved":false,"is_disabled":false,"rental_uris":{"android":"levelo://app?vid=bbbd7405-0e12-4512-b62c-d8d1cbbecf09","ios":"levelo://app?vid=bbbd7405-0e12-4512-b62c-d8d1cbbecf09"},"vehicle_type_id":"4","last_reported":1752477339,"current_range_meters":17200,"station_id":"ce4bgj92rcd13ifvqbd0","pricing_plan_id":"cebpf4jnsgd1na2vs0mg"},{"bike_id":"9b59b22f-5f4b-432f-be59-c16459c4633a","system_id":"levelo_inurba_marseille","lat":43.2802,"lon":5.36945,"is_reserved":false,"is_disabled":false,"rental_uris":{"android":"levelo://app?vid=9b59b22f-5f4b-432f-be59-c16459c4633a","ios":"levelo://app?vid=9b59b22f-5f4b-432f-be59-c16459c4633a"},"vehicle_type_id":"4","last_reported":1752477339,"current_range_meters":17600,"station_id":"ce4bha12rcd13ifvqef0","pricing_plan_id":"cebpf4jnsgd1na2vs0mg"},{"bike_id":"b1158bc5-1de7-463b-b2c1-1d87c9d2ed36","system_id":"levelo_inurba_marseille","lat":43.27953,"lon":5.38732,"is_reserved":false,"is_disabled":true,"rental_uris":{"android":"levelo://app?vid=b1158bc5-1de7-463b-b2c1-1d87c9d2ed36","ios":"levelo://app?vid=b1158bc5-1de7-463b-b2c1-1d87c9d2ed36"},"vehicle_type_id":"4","last_reported":1752477339,"current_range_meters":17600,"station_id":"ce4bhg12rcd13ifvqf80","pricing_plan_id":"cebpf4jnsgd1na2vs0mg"},{"bike_id":"ce7e0f9d-fa84-4dc1-9d84-21a2c2d40a27","system_id":"levelo_inurba_marseille","lat":43.240764,"lon":5.377632,"is_reserved":false,"is_disabled":false,"rental_uris":{"android":"levelo://app?vid=ce7e0f9d-fa84-4dc1-9d84-21a2c2d40a27","ios":"levelo://app?vid=ce7e0f9d-fa84-4dc1-9d84-21a2c2d40a27"},"vehicle_type_id":"4","last_reported":1752477339,"current_range_meters":17600,"station_id":"ce4bhnp2rcd13ifvqgvg","pricing_plan_id":"cebpf4jnsgd1na2vs0mg"},{"bike_id":"00fc1402-4dd5-4160-81c9-e4ee05f4960b","system_id":"levelo_inurba_marseille","lat":43.22509,"lon":5.34785,"is_reserved":false,"is_disabled":false,"rental_uris":{"android":"levelo://app?vid=00fc1402-4dd5-4160-81c9-e4ee05f4960b","ios":"levelo://app?vid=00fc1402-4dd5-4160-81c9-e4ee05f4960b"},"vehicle_type_id":"4","last_reported":1752477339,"current_range_meters":17600,"station_id":"st_cvj5dfep6f1abm77gieg","pricing_plan_id":"cebpf4jnsgd1na2vs0mg"},{"bike_id":"a0bccd63-fec9-42bd-8616-2760e21fc28b","system_id":"levelo_inurba_marseille","lat":43.257195,"lon":5.411145,"is_reserved":false,"is_disabled":false,"rental_uris":{"android":"levelo://app?vid=a0bccd63-fec9-42bd-8616-2760e21fc28b","ios":"levelo://app?vid=a0bccd63-fec9-42bd-8616-2760e21fc28b"},"vehicle_type_id":"4","last_reported":1752477339,"current_range_meters":17600,"station_id":"ce4bhkp2rcd13ifvqgd0","pricing_plan_id":"cebpf4jnsgd1na2vs0mg"},{"bike_id":"6dbffb45-a2dd-45bf-8763-9f137a0050f0","system_id":"levelo_inurba_marseille","lat":43.25719,"lon":5.41106,"is_reserved":false,"is_disabled":false,"rental_uris":{"android":"levelo://app?vid=6dbffb45-a2dd-45bf-8763-9f137a0050f0","ios":"levelo://app?vid=6dbffb45-a2dd-45bf-8763-9f137a0050f0"},"vehicle_type_id":"4","last_reported":1752477339,"current_range_meters":18000,"station_id":"ce4bhkp2rcd13ifvqgd0","pricing_plan_id":"cebpf4jnsgd1na2vs0mg"},{"bike_id":"fd45ce6f-4b8c-407a-91aa-8c33650e607a","system_id":"levelo_inurba_marseille","lat":43.28003,"lon":5.41662,"is_reserved":false,"is_disabled":false,"rental_uris":{"android":"levelo://app?vid=fd45ce6f-4b8c-407a-91aa-8c33650e607a","ios":"levelo://app?vid=fd45ce6f-4b8c-407a-91aa-8c33650e607a"},"vehicle_type_id":"4","last_reported":1752477339,"current_range_meters":18000,"station_id":"ce4bho12rcd13ifvqh1g","pricing_plan_id":"cebpf4jnsgd1na2vs0mg"},{"bike_id":"44e10618-e1b8-4569-bc24-980853c4bf04","system_id":"levelo_inurba_marseille","lat":43.22934,"lon":5.35372,"is_reserved":false,"is_disabled":true,"rental_uris":{"android":"levelo://app?vid=44e10618-e1b8-4569-bc24-980853c4bf04","ios":"levelo://app?vid=44e10618-e1b8-4569-bc24-980853c4bf04"},"vehicle_type_id":"4","last_reported":1752477339,"current_range_meters":18000,"station_id":"cpo3532slgdg3j2ikp40","pricing_plan_id":"cebpf4jnsgd1na2vs0mg"},{"bike_id":"dc214cbe-44e7-41d0-abbf-23227b370da2","system_id":"levelo_inurba_marseille","lat":43.2784,"lon":5.40697,"is_reserved":false,"is_disabled":false,"rental_uris":{"android":"levelo://app?vid=dc214cbe-44e7-41d0-abbf-23227b370da2","ios":"levelo://app?vid=dc214cbe-44e7-41d0-abbf-23227b370da2"},"vehicle_type_id":"4","last_reported":1752477339,"current_range_meters":18000,"station_id":"ce4bhnh2rcd13ifvqgtg","pricing_plan_id":"cebpf4jnsgd1na2vs0mg"},{"bike_id":"d0f90c24-dd03-411b-9731-55305f76b7c8","system_id":"levelo_inurba_marseille","lat":43.21194,"lon":5.35077,"is_reserved":false,"is_disabled":false,"rental_uris":{"android":"levelo://app?vid=d0f90c24-dd03-411b-9731-55305f76b7c8","ios":"levelo://app?vid=d0f90c24-dd03-411b-9731-55305f76b7c8"},"vehicle_type_id":"4","last_reported":1752477339,"current_range_meters":18000,"station_id":"st_cvj6sg6p6f1abm77japg","pricing_plan_id":"cebpf4jnsgd1na2vs0mg"},{"bike_id":"8c3a661a-d9b9-4888-8437-6d02eabbdf12","system_id":"levelo_inurba_marseille","lat":43.28034,"lon":5.369435,"is_reserved":false,"is_disabled":false,"rental_uris":{"android":"levelo://app?vid=8c3a661a-d9b9-4888-8437-6d02eabbdf12","ios":"levelo://app?vid=8c3a661a-d9b9-4888-8437-6d02eabbdf12"},"vehicle_type_id":"4","last_reported":1752477339,"current_range_meters":18000,"station_id":"ce4bha12rcd13ifvqef0","pricing_plan_id":"cebpf4jnsgd1na2vs0mg"},{"bike_id":"f10941ce-d19a-4475-b0ba-1c38d332727e","system_id":"levelo_inurba_marseille","lat":43.32149,"lon":5.38703,"is_reserved":false,"is_disabled":false,"rental_uris":{"android":"levelo://app?vid=f10941ce-d19a-4475-b0ba-1c38d332727e","ios":"levelo://app?vid=f10941ce-d19a-4475-b0ba-1c38d332727e"},"vehicle_type_id":"4","last_reported":1752477339,"current_range_meters":18000,"station_id":"","pricing_plan_id":"cebpf4jnsgd1na2vs0mg"},{"bike_id":"849c5c7d-f7c3-4ca0-a317-04b6dedd1de1","system_id":"levelo_inurba_marseille","lat":43.28151,"lon":5.42639,"is_reserved":false,"is_disabled":false,"rental_uris":{"android":"levelo://app?vid=849c5c7d-f7c3-4ca0-a317-04b6dedd1de1","ios":"levelo://app?vid=849c5c7d-f7c3-4ca0-a317-04b6dedd1de1"},"vehicle_type_id":"4","last_reported":1752477339,"current_range_meters":18000,"station_id":"ce4bhnh2rcd13ifvqgug","pricing_plan_id":"cebpf4jnsgd1na2vs0mg"},{"bike_id":"e0b88937-0cb8-4374-8110-357b6a1974b9","system_id":"levelo_inurba_marseille","lat":43.24072,"lon":5.37749,"is_reserved":false,"is_disabled":false,"rental_uris":{"android":"levelo://app?vid=e0b88937-0cb8-4374-8110-357b6a1974b9","ios":"levelo://app?vid=e0b88937-0cb8-4374-8110-357b6a1974b9"},"vehicle_type_id":"4","last_reported":1752477339,"current_range_meters":18000,"station_id":"ce4bhnp2rcd13ifvqgvg","pricing_plan_id":"cebpf4jnsgd1na2vs0mg"},{"bike_id":"da75db8b-8943-4abe-858e-79fbcfcae3a3","system_id":"levelo_inurba_marseille","lat":43.24079,"lon":5.37753,"is_reserved":false,"is_disabled":false,"rental_uris":{"android":"levelo://app?vid=da75db8b-8943-4abe-858e-79fbcfcae3a3","ios":"levelo://app?vid=da75db8b-8943-4abe-858e-79fbcfcae3a3"},"vehicle_type_id":"4","last_reported":1752477339,"current_range_meters":18000,"station_id":"ce4bhnp2rcd13ifvqgvg","pricing_plan_id":"cebpf4jnsgd1na2vs0mg"},{"bike_id":"bf976dea-2087-4873-9438-8538a5d0d64e","system_id":"levelo_inurba_marseille","lat":43.27204,"lon":5.39186,"is_reserved":false,"is_disabled":false,"rental_uris":{"android":"levelo://app?vid=bf976dea-2087-4873-9438-8538a5d0d64e","ios":"levelo://app?vid=bf976dea-2087-4873-9438-8538a5d0d64e"},"vehicle_type_id":"4","last_reported":1752477339,"current_range_meters":18000,"station_id":"ce4bhhp2rcd13ifvqfm0","pricing_plan_id":"cebpf4jnsgd1na2vs0mg"},{"bike_id":"b1185ede-9b9a-4a2c-8fba-43d98d3f0449","system_id":"levelo_inurba_marseille","lat":43.2795,"lon":5.41035,"is_reserved":false,"is_disabled":false,"rental_uris":{"android":"levelo://app?vid=b1185ede-9b9a-4a2c-8fba-43d98d3f0449","ios":"levelo://app?vid=b1185ede-9b9a-4a2c-8fba-43d98d3f0449"},"vehicle_type_id":"4","last_reported":1752477339,"current_range_meters":18000,"station_id":"ce4bhnp2rcd13ifvqh0g","pricing_plan_id":"cebpf4jnsgd1na2vs0mg"},{"bike_id":"bdb7d0b2-8378-440c-bb45-d2e975efdc67","system_id":"levelo_inurba_marseille","lat":43.229363,"lon":5.353818,"is_reserved":false,"is_disabled":false,"rental_uris":{"android":"levelo://app?vid=bdb7d0b2-8378-440c-bb45-d2e975efdc67","ios":"levelo://app?vid=bdb7d0b2-8378-440c-bb45-d2e975efdc67"},"vehicle_type_id":"4","last_reported":1752477339,"current_range_meters":18800,"station_id":"cpo3532slgdg3j2ikp40","pricing_plan_id":"cebpf4jnsgd1na2vs0mg"},{"bike_id":"52cb12ce-7568-4969-9d5b-e929fc857857","system_id":"levelo_inurba_marseille","lat":43.29088,"lon":5.37982,"is_reserved":false,"is_disabled":true,"rental_uris":{"android":"levelo://app?vid=52cb12ce-7568-4969-9d5b-e929fc857857","ios":"levelo://app?vid=52cb12ce-7568-4969-9d5b-e929fc857857"},"vehicle_type_id":"4","last_reported":1752477339,"current_range_meters":18800,"station_id":"","pricing_plan_id":"cebpf4jnsgd1na2vs0mg"},{"bike_id":"6c6d4d9a-6141-481c-9c1a-8e61054bdc43","system_id":"levelo_inurba_marseille","lat":43.24785,"lon":5.41839,"is_reserved":false,"is_disabled":false,"rental_uris":{"android":"levelo://app?vid=6c6d4d9a-6141-481c-9c1a-8e61054bdc43","ios":"levelo://app?vid=6c6d4d9a-6141-481c-9c1a-8e61054bdc43"},"vehicle_type_id":"4","last_reported":1752477339,"current_range_meters":18800,"station_id":"","pricing_plan_id":"cebpf4jnsgd1na2vs0mg"},{"bike_id":"6ad77e3e-b64b-46c5-aacd-f441bffa9a51","system_id":"levelo_inurba_marseille","lat":43.251094,"lon":5.403358,"is_reserved":false,"is_disabled":false,"rental_uris":{"android":"levelo://app?vid=6ad77e3e-b64b-46c5-aacd-f441bffa9a51","ios":"levelo://app?vid=6ad77e3e-b64b-46c5-aacd-f441bffa9a51"},"vehicle_type_id":"4","last_reported":1752477339,"current_range_meters":18800,"station_id":"ce4bhlh2rcd13ifvqgig","pricing_plan_id":"cebpf4jnsgd1na2vs0mg"},{"bike_id":"57c3286d-90c5-4d43-891f-621967318055","system_id":"levelo_inurba_marseille","lat":43.29565,"lon":5.37505,"is_reserved":false,"is_disabled":false,"rental_uris":{"android":"levelo://app?vid=57c3286d-90c5-4d43-891f-621967318055","ios":"levelo://app?vid=57c3286d-90c5-4d43-891f-621967318055"},"vehicle_type_id":"4","last_reported":1752477339,"current_range_meters":18800,"station_id":"ce4bgh92rcd13ifvqb50","pricing_plan_id":"cebpf4jnsgd1na2vs0mg"},{"bike_id":"5c604cee-8163-4508-b1f3-ec8c5d644770","system_id":"levelo_inurba_marseille","lat":43.23184,"lon":5.35536,"is_reserved":false,"is_disabled":false,"rental_uris":{"android":"levelo://app?vid=5c604cee-8163-4508-b1f3-ec8c5d644770","ios":"levelo://app?vid=5c604cee-8163-4508-b1f3-ec8c5d644770"},"vehicle_type_id":"4","last_reported":1752477339,"current_range_meters":18800,"station_id":"ce4bhu92rcd13ifvqi70","pricing_plan_id":"cebpf4jnsgd1na2vs0mg"},{"bike_id":"48a72147-d63a-4fad-9403-9184689656c8","system_id":"levelo_inurba_marseille","lat":43.243987,"lon":5.370674,"is_reserved":false,"is_disabled":true,"rental_uris":{"android":"levelo://app?vid=48a72147-d63a-4fad-9403-9184689656c8","ios":"levelo://app?vid=48a72147-d63a-4fad-9403-9184689656c8"},"vehicle_type_id":"4","last_reported":1752477339,"current_range_meters":18800,"station_id":"ce4bhhh2rcd13ifvqfk0","pricing_plan_id":"cebpf4jnsgd1na2vs0mg"},{"bike_id":"bf36ea9b-f2e9-491d-a2b2-a15590b00abe","system_id":"levelo_inurba_marseille","lat":43.28849,"lon":5.35831,"is_reserved":false,"is_disabled":false,"rental_uris":{"android":"levelo://app?vid=bf36ea9b-f2e9-491d-a2b2-a15590b00abe","ios":"levelo://app?vid=bf36ea9b-f2e9-491d-a2b2-a15590b00abe"},"vehicle_type_id":"4","last_reported":1752477339,"current_range_meters":18800,"station_id":"ce4bhb12rcd13ifvqem0","pricing_plan_id":"cebpf4jnsgd1na2vs0mg"},{"bike_id":"3d97286a-2837-4fff-8ee7-1808e83e9dfe","system_id":"levelo_inurba_marseille","lat":43.3042,"lon":5.39741,"is_reserved":false,"is_disabled":false,"rental_uris":{"android":"levelo://app?vid=3d97286a-2837-4fff-8ee7-1808e83e9dfe","ios":"levelo://app?vid=3d97286a-2837-4fff-8ee7-1808e83e9dfe"},"vehicle_type_id":"4","last_reported":1752477339,"current_range_meters":18800,"station_id":"ce4bh092rcd13ifvqd20","pricing_plan_id":"cebpf4jnsgd1na2vs0mg"},{"bike_id":"f6618e0c-2b00-4ee7-8d7c-c845eca6b5fb","system_id":"levelo_inurba_marseille","lat":43.315347,"lon":5.380355,"is_reserved":false,"is_disabled":false,"rental_uris":{"android":"levelo://app?vid=f6618e0c-2b00-4ee7-8d7c-c845eca6b5fb","ios":"levelo://app?vid=f6618e0c-2b00-4ee7-8d7c-c845eca6b5fb"},"vehicle_type_id":"4","last_reported":1752477339,"current_range_meters":19200,"station_id":"ce4bhsp2rcd13ifvqi50","pricing_plan_id":"cebpf4jnsgd1na2vs0mg"},{"bike_id":"11106e69-89ed-4341-b4bb-b14fbe08d9c6","system_id":"levelo_inurba_marseille","lat":43.28556,"lon":5.394926,"is_reserved":false,"is_disabled":false,"rental_uris":{"android":"levelo://app?vid=11106e69-89ed-4341-b4bb-b14fbe08d9c6","ios":"levelo://app?vid=11106e69-89ed-4341-b4bb-b14fbe08d9c6"},"vehicle_type_id":"4","last_reported":1752477339,"current_range_meters":19200,"station_id":"ce4bh292rcd13ifvqdg0","pricing_plan_id":"cebpf4jnsgd1na2vs0mg"},{"bike_id":"f2e49c32-f10c-4e91-93ab-4ab9167f079f","system_id":"levelo_inurba_marseille","lat":43.26022,"lon":5.39447,"is_reserved":false,"is_disabled":false,"rental_uris":{"android":"levelo://app?vid=f2e49c32-f10c-4e91-93ab-4ab9167f079f","ios":"levelo://app?vid=f2e49c32-f10c-4e91-93ab-4ab9167f079f"},"vehicle_type_id":"4","last_reported":1752477339,"current_range_meters":19200,"station_id":"","pricing_plan_id":"cebpf4jnsgd1na2vs0mg"},{"bike_id":"0f6e2d1e-1402-4217-bd46-d4dccc77d350","system_id":"levelo_inurba_marseille","lat":43.292633,"lon":5.366037,"is_reserved":false,"is_disabled":true,"rental_uris":{"android":"levelo://app?vid=0f6e2d1e-1402-4217-bd46-d4dccc77d350","ios":"levelo://app?vid=0f6e2d1e-1402-4217-bd46-d4dccc77d350"},"vehicle_type_id":"4","last_reported":1752477339,"current_range_meters":19200,"station_id":"","pricing_plan_id":"cebpf4jnsgd1na2vs0mg"},{"bike_id":"abd54454-eac9-4f10-9247-3e0bb034a891","system_id":"levelo_inurba_marseille","lat":43.28238,"lon":5.35045,"is_reserved":false,"is_disabled":false,"rental_uris":{"android":"levelo://app?vid=abd54454-eac9-4f10-9247-3e0bb034a891","ios":"levelo://app?vid=abd54454-eac9-4f10-9247-3e0bb034a891"},"vehicle_type_id":"4","last_reported":1752477339,"current_range_meters":19200,"station_id":"ce4bhbp2rcd13ifvqerg","pricing_plan_id":"cebpf4jnsgd1na2vs0mg"},{"bike_id":"b211c38b-8c37-4f04-b2fa-0f21bedeb117","system_id":"levelo_inurba_marseille","lat":43.28157,"lon":5.42639,"is_reserved":false,"is_disabled":false,"rental_uris":{"android":"levelo://app?vid=b211c38b-8c37-4f04-b2fa-0f21bedeb117","ios":"levelo://app?vid=b211c38b-8c37-4f04-b2fa-0f21bedeb117"},"vehicle_type_id":"4","last_reported":1752477339,"current_range_meters":19200,"station_id":"ce4bhnh2rcd13ifvqgug","pricing_plan_id":"cebpf4jnsgd1na2vs0mg"},{"bike_id":"3d96a0b2-7e26-4948-825e-5bcbaed24017","system_id":"levelo_inurba_marseille","lat":43.29998,"lon":5.37168,"is_reserved":false,"is_disabled":false,"rental_uris":{"android":"levelo://app?vid=3d96a0b2-7e26-4948-825e-5bcbaed24017","ios":"levelo://app?vid=3d96a0b2-7e26-4948-825e-5bcbaed24017"},"vehicle_type_id":"4","last_reported":1752477339,"current_range_meters":19200,"station_id":"ce4bgr92rcd13ifvqc7g","pricing_plan_id":"cebpf4jnsgd1na2vs0mg"},{"bike_id":"c3eb31c9-e106-4cd2-bb91-f2d0ee3e7a6f","system_id":"levelo_inurba_marseille","lat":43.24028,"lon":5.36252,"is_reserved":false,"is_disabled":false,"rental_uris":{"android":"levelo://app?vid=c3eb31c9-e106-4cd2-bb91-f2d0ee3e7a6f","ios":"levelo://app?vid=c3eb31c9-e106-4cd2-bb91-f2d0ee3e7a6f"},"vehicle_type_id":"4","last_reported":1752477339,"current_range_meters":19200,"station_id":"","pricing_plan_id":"cebpf4jnsgd1na2vs0mg"},{"bike_id":"d7345bd6-482c-45c1-a31f-8da9edb02a99","system_id":"levelo_inurba_marseille","lat":43.31538,"lon":5.3803,"is_reserved":false,"is_disabled":false,"rental_uris":{"android":"levelo://app?vid=d7345bd6-482c-45c1-a31f-8da9edb02a99","ios":"levelo://app?vid=d7345bd6-482c-45c1-a31f-8da9edb02a99"},"vehicle_type_id":"4","last_reported":1752477339,"current_range_meters":19200,"station_id":"ce4bhsp2rcd13ifvqi50","pricing_plan_id":"cebpf4jnsgd1na2vs0mg"},{"bike_id":"7cd861ea-9075-47f2-9deb-2015aa500b74","system_id":"levelo_inurba_marseille","lat":43.299715,"lon":5.384742,"is_reserved":false,"is_disabled":true,"rental_uris":{"android":"levelo://app?vid=7cd861ea-9075-47f2-9deb-2015aa500b74","ios":"levelo://app?vid=7cd861ea-9075-47f2-9deb-2015aa500b74"},"vehicle_type_id":"4","last_reported":1752477339,"current_range_meters":19600,"station_id":"","pricing_plan_id":"cebpf4jnsgd1na2vs0mg"},{"bike_id":"2ab7d655-face-469d-b1de-b3156f48f484","system_id":"levelo_inurba_marseille","lat":43.28003,"lon":5.416739,"is_reserved":false,"is_disabled":false,"rental_uris":{"android":"levelo://app?vid=2ab7d655-face-469d-b1de-b3156f48f484","ios":"levelo://app?vid=2ab7d655-face-469d-b1de-b3156f48f484"},"vehicle_type_id":"4","last_reported":1752477339,"current_range_meters":19600,"station_id":"ce4bho12rcd13ifvqh1g","pricing_plan_id":"cebpf4jnsgd1na2vs0mg"},{"bike_id":"7eaeb775-7c92-4f38-9d5e-21c9e06595c4","system_id":"levelo_inurba_marseille","lat":43.240742,"lon":5.377512,"is_reserved":false,"is_disabled":false,"rental_uris":{"android":"levelo://app?vid=7eaeb775-7c92-4f38-9d5e-21c9e06595c4","ios":"levelo://app?vid=7eaeb775-7c92-4f38-9d5e-21c9e06595c4"},"vehicle_type_id":"4","last_reported":1752477339,"current_range_meters":19600,"station_id":"ce4bhnp2rcd13ifvqgvg","pricing_plan_id":"cebpf4jnsgd1na2vs0mg"},{"bike_id":"1aaa7e29-8268-4a68-b982-06e4cb580b86","system_id":"levelo_inurba_marseille","lat":43.33604,"lon":5.41003,"is_reserved":false,"is_disabled":false,"rental_uris":{"android":"levelo://app?vid=1aaa7e29-8268-4a68-b982-06e4cb580b86","ios":"levelo://app?vid=1aaa7e29-8268-4a68-b982-06e4cb580b86"},"vehicle_type_id":"4","last_reported":1752477339,"current_range_meters":19600,"station_id":"ce4bhqh2rcd13ifvqhmg","pricing_plan_id":"cebpf4jnsgd1na2vs0mg"},{"bike_id":"09a93a64-fbb1-49a9-be1f-f86a34310e71","system_id":"levelo_inurba_marseille","lat":43.2119,"lon":5.350779,"is_reserved":false,"is_disabled":false,"rental_uris":{"android":"levelo://app?vid=09a93a64-fbb1-49a9-be1f-f86a34310e71","ios":"levelo://app?vid=09a93a64-fbb1-49a9-be1f-f86a34310e71"},"vehicle_type_id":"4","last_reported":1752477339,"current_range_meters":19600,"station_id":"st_cvj6sg6p6f1abm77japg","pricing_plan_id":"cebpf4jnsgd1na2vs0mg"},{"bike_id":"6d759733-8785-4e8a-bb14-bad01a7758f4","system_id":"levelo_inurba_marseille","lat":43.25709,"lon":5.41111,"is_reserved":false,"is_disabled":false,"rental_uris":{"android":"levelo://app?vid=6d759733-8785-4e8a-bb14-bad01a7758f4","ios":"levelo://app?vid=6d759733-8785-4e8a-bb14-bad01a7758f4"},"vehicle_type_id":"4","last_reported":1752477339,"current_range_meters":20000,"station_id":"ce4bhkp2rcd13ifvqgd0","pricing_plan_id":"cebpf4jnsgd1na2vs0mg"},{"bike_id":"21785024-7ee6-4c16-aad4-a00db07e4a43","system_id":"levelo_inurba_marseille","lat":43.29686,"lon":5.37274,"is_reserved":false,"is_disabled":false,"rental_uris":{"android":"levelo://app?vid=21785024-7ee6-4c16-aad4-a00db07e4a43","ios":"levelo://app?vid=21785024-7ee6-4c16-aad4-a00db07e4a43"},"vehicle_type_id":"4","last_reported":1752477339,"current_range_meters":20000,"station_id":"ce4bgk12rcd13ifvqbj0","pricing_plan_id":"cebpf4jnsgd1na2vs0mg"},{"bike_id":"b240e759-208a-4da0-84b3-070a79f0b6c0","system_id":"levelo_inurba_marseille","lat":43.25117,"lon":5.40308,"is_reserved":false,"is_disabled":false,"rental_uris":{"android":"levelo://app?vid=b240e759-208a-4da0-84b3-070a79f0b6c0","ios":"levelo://app?vid=b240e759-208a-4da0-84b3-070a79f0b6c0"},"vehicle_type_id":"4","last_reported":1752477339,"current_range_meters":20000,"station_id":"ce4bhlh2rcd13ifvqgig","pricing_plan_id":"cebpf4jnsgd1na2vs0mg"},{"bike_id":"5aa2bba2-e4cd-42c2-8607-846f1ff90c5c","system_id":"levelo_inurba_marseille","lat":43.273214,"lon":5.390946,"is_reserved":false,"is_disabled":true,"rental_uris":{"android":"levelo://app?vid=5aa2bba2-e4cd-42c2-8607-846f1ff90c5c","ios":"levelo://app?vid=5aa2bba2-e4cd-42c2-8607-846f1ff90c5c"},"vehicle_type_id":"4","last_reported":1752477339,"current_range_meters":20000,"station_id":"ce4bhgp2rcd13ifvqfe0","pricing_plan_id":"cebpf4jnsgd1na2vs0mg"},{"bike_id":"b6d21ae6-cd0a-41f0-8ea5-6d51267f4b48","system_id":"levelo_inurba_marseille","lat":43.32365,"lon":5.38874,"is_reserved":false,"is_disabled":false,"rental_uris":{"android":"levelo://app?vid=b6d21ae6-cd0a-41f0-8ea5-6d51267f4b48","ios":"levelo://app?vid=b6d21ae6-cd0a-41f0-8ea5-6d51267f4b48"},"vehicle_type_id":"4","last_reported":1752477339,"current_range_meters":20000,"station_id":"ce4bhqp2rcd13ifvqhog","pricing_plan_id":"cebpf4jnsgd1na2vs0mg"},{"bike_id":"62936865-b560-4edf-91f6-dc3cbff51cec","system_id":"levelo_inurba_marseille","lat":43.272426,"lon":5.36263,"is_reserved":false,"is_disabled":false,"rental_uris":{"android":"levelo://app?vid=62936865-b560-4edf-91f6-dc3cbff51cec","ios":"levelo://app?vid=62936865-b560-4edf-91f6-dc3cbff51cec"},"vehicle_type_id":"4","last_reported":1752477339,"current_range_meters":20000,"station_id":"","pricing_plan_id":"cebpf4jnsgd1na2vs0mg"},{"bike_id":"de3c7479-ad03-448f-a78e-88898eddd51a","system_id":"levelo_inurba_marseille","lat":43.329623,"lon":5.397475,"is_reserved":false,"is_disabled":false,"rental_uris":{"android":"levelo://app?vid=de3c7479-ad03-448f-a78e-88898eddd51a","ios":"levelo://app?vid=de3c7479-ad03-448f-a78e-88898eddd51a"},"vehicle_type_id":"4","last_reported":1752477339,"current_range_meters":20400,"station_id":"","pricing_plan_id":"cebpf4jnsgd1na2vs0mg"},{"bike_id":"903197e4-3da2-471b-9537-d88bae7e31c4","system_id":"levelo_inurba_marseille","lat":43.264883,"lon":5.395504,"is_reserved":false,"is_disabled":true,"rental_uris":{"android":"levelo://app?vid=903197e4-3da2-471b-9537-d88bae7e31c4","ios":"levelo://app?vid=903197e4-3da2-471b-9537-d88bae7e31c4"},"vehicle_type_id":"4","last_reported":1752477339,"current_range_meters":20400,"station_id":"ce4bhi12rcd13ifvqfq0","pricing_plan_id":"cebpf4jnsgd1na2vs0mg"},{"bike_id":"9744d0cf-6e17-456f-8da4-e73da1115c94","system_id":"levelo_inurba_marseille","lat":43.29425,"lon":5.38634,"is_reserved":false,"is_disabled":true,"rental_uris":{"android":"levelo://app?vid=9744d0cf-6e17-456f-8da4-e73da1115c94","ios":"levelo://app?vid=9744d0cf-6e17-456f-8da4-e73da1115c94"},"vehicle_type_id":"4","last_reported":1752477339,"current_range_meters":20400,"station_id":"","pricing_plan_id":"cebpf4jnsgd1na2vs0mg"},{"bike_id":"c721e394-5d5d-4900-9e11-2bd1a6cf3eea","system_id":"levelo_inurba_marseille","lat":43.251081,"lon":5.403228,"is_reserved":false,"is_disabled":false,"rental_uris":{"android":"levelo://app?vid=c721e394-5d5d-4900-9e11-2bd1a6cf3eea","ios":"levelo://app?vid=c721e394-5d5d-4900-9e11-2bd1a6cf3eea"},"vehicle_type_id":"4","last_reported":1752477339,"current_range_meters":20400,"station_id":"ce4bhlh2rcd13ifvqgig","pricing_plan_id":"cebpf4jnsgd1na2vs0mg"},{"bike_id":"a36d0c8c-71d8-4486-822f-41e7754a7203","system_id":"levelo_inurba_marseille","lat":43.292634,"lon":5.384339,"is_reserved":false,"is_disabled":false,"rental_uris":{"android":"levelo://app?vid=a36d0c8c-71d8-4486-822f-41e7754a7203","ios":"levelo://app?vid=a36d0c8c-71d8-4486-822f-41e7754a7203"},"vehicle_type_id":"4","last_reported":1752477339,"current_range_meters":20400,"station_id":"","pricing_plan_id":"cebpf4jnsgd1na2vs0mg"},{"bike_id":"28a0d5c9-af70-4194-8b1e-e42c84fb2c50","system_id":"levelo_inurba_marseille","lat":43.292624,"lon":5.40916,"is_reserved":false,"is_disabled":false,"rental_uris":{"android":"levelo://app?vid=28a0d5c9-af70-4194-8b1e-e42c84fb2c50","ios":"levelo://app?vid=28a0d5c9-af70-4194-8b1e-e42c84fb2c50"},"vehicle_type_id":"4","last_reported":1752477339,"current_range_meters":20400,"station_id":"","pricing_plan_id":"cebpf4jnsgd1na2vs0mg"},{"bike_id":"9c39830b-ce85-4249-8871-2a47f21d4c8a","system_id":"levelo_inurba_marseille","lat":43.31475,"lon":5.37302,"is_reserved":false,"is_disabled":false,"rental_uris":{"android":"levelo://app?vid=9c39830b-ce85-4249-8871-2a47f21d4c8a","ios":"levelo://app?vid=9c39830b-ce85-4249-8871-2a47f21d4c8a"},"vehicle_type_id":"4","last_reported":1752477339,"current_range_meters":20400,"station_id":"ce4bgt12rcd13ifvqcd0","pricing_plan_id":"cebpf4jnsgd1na2vs0mg"},{"bike_id":"6d2c507f-bb73-4391-b4b5-c07d2bcc6661","system_id":"levelo_inurba_marseille","lat":43.301968,"lon":5.366045,"is_reserved":false,"is_disabled":false,"rental_uris":{"android":"levelo://app?vid=6d2c507f-bb73-4391-b4b5-c07d2bcc6661","ios":"levelo://app?vid=6d2c507f-bb73-4391-b4b5-c07d2bcc6661"},"vehicle_type_id":"4","last_reported":1752477339,"current_range_meters":20400,"station_id":"ce4bgrh2rcd13ifvqc8g","pricing_plan_id":"cebpf4jnsgd1na2vs0mg"},{"bike_id":"d49b7cf8-af85-42ed-bbc8-bede339dae41","system_id":"levelo_inurba_marseille","lat":43.261993,"lon":5.379318,"is_reserved":false,"is_disabled":false,"rental_uris":{"android":"levelo://app?vid=d49b7cf8-af85-42ed-bbc8-bede339dae41","ios":"levelo://app?vid=d49b7cf8-af85-42ed-bbc8-bede339dae41"},"vehicle_type_id":"4","last_reported":1752477339,"current_range_meters":20800,"station_id":"","pricing_plan_id":"cebpf4jnsgd1na2vs0mg"},{"bike_id":"7344a727-b91f-481e-b08a-0f3465e83901","system_id":"levelo_inurba_marseille","lat":43.276747,"lon":5.416913,"is_reserved":false,"is_disabled":false,"rental_uris":{"android":"levelo://app?vid=7344a727-b91f-481e-b08a-0f3465e83901","ios":"levelo://app?vid=7344a727-b91f-481e-b08a-0f3465e83901"},"vehicle_type_id":"4","last_reported":1752477339,"current_range_meters":20800,"station_id":"","pricing_plan_id":"cebpf4jnsgd1na2vs0mg"},{"bike_id":"a7a99eea-be7d-4e82-bd62-17471838aa1b","system_id":"levelo_inurba_marseille","lat":43.25939,"lon":5.40898,"is_reserved":false,"is_disabled":false,"rental_uris":{"android":"levelo://app?vid=a7a99eea-be7d-4e82-bd62-17471838aa1b","ios":"levelo://app?vid=a7a99eea-be7d-4e82-bd62-17471838aa1b"},"vehicle_type_id":"4","last_reported":1752477339,"current_range_meters":20800,"station_id":"ce4bhm92rcd13ifvqglg","pricing_plan_id":"cebpf4jnsgd1na2vs0mg"},{"bike_id":"f8e08a0b-9785-41dc-861f-64465e1a97db","system_id":"levelo_inurba_marseille","lat":43.28425,"lon":5.37519,"is_reserved":false,"is_disabled":false,"rental_uris":{"android":"levelo://app?vid=f8e08a0b-9785-41dc-861f-64465e1a97db","ios":"levelo://app?vid=f8e08a0b-9785-41dc-861f-64465e1a97db"},"vehicle_type_id":"4","last_reported":1752477339,"current_range_meters":20800,"station_id":"ce4bh412rcd13ifvqds0","pricing_plan_id":"cebpf4jnsgd1na2vs0mg"},{"bike_id":"ed3a226b-4ec7-465a-b998-9c1369112c1f","system_id":"levelo_inurba_marseille","lat":43.23132,"lon":5.43709,"is_reserved":false,"is_disabled":false,"rental_uris":{"android":"levelo://app?vid=ed3a226b-4ec7-465a-b998-9c1369112c1f","ios":"levelo://app?vid=ed3a226b-4ec7-465a-b998-9c1369112c1f"},"vehicle_type_id":"4","last_reported":1752477339,"current_range_meters":20800,"station_id":"ce4bhmp2rcd13ifvqgog","pricing_plan_id":"cebpf4jnsgd1na2vs0mg"},{"bike_id":"57e65e27-7542-4c21-8ba1-cece6c6890fa","system_id":"levelo_inurba_marseille","lat":43.30336,"lon":5.40422,"is_reserved":false,"is_disabled":false,"rental_uris":{"android":"levelo://app?vid=57e65e27-7542-4c21-8ba1-cece6c6890fa","ios":"levelo://app?vid=57e65e27-7542-4c21-8ba1-cece6c6890fa"},"vehicle_type_id":"4","last_reported":1752477339,"current_range_meters":21600,"station_id":"ce4bh012rcd13ifvqd10","pricing_plan_id":"cebpf4jnsgd1na2vs0mg"},{"bike_id":"70e99ac6-c5f8-4a24-b517-2afb9240895c","system_id":"levelo_inurba_marseille","lat":43.241548,"lon":5.396955,"is_reserved":false,"is_disabled":false,"rental_uris":{"android":"levelo://app?vid=70e99ac6-c5f8-4a24-b517-2afb9240895c","ios":"levelo://app?vid=70e99ac6-c5f8-4a24-b517-2afb9240895c"},"vehicle_type_id":"4","last_reported":1752477339,"current_range_meters":21600,"station_id":"ce4bhn12rcd13ifvqgpg","pricing_plan_id":"cebpf4jnsgd1na2vs0mg"},{"bike_id":"0711a733-06d0-4a53-b27f-74814461f560","system_id":"levelo_inurba_marseille","lat":43.257223,"lon":5.41097,"is_reserved":false,"is_disabled":false,"rental_uris":{"android":"levelo://app?vid=0711a733-06d0-4a53-b27f-74814461f560","ios":"levelo://app?vid=0711a733-06d0-4a53-b27f-74814461f560"},"vehicle_type_id":"4","last_reported":1752477339,"current_range_meters":21600,"station_id":"ce4bhkp2rcd13ifvqgd0","pricing_plan_id":"cebpf4jnsgd1na2vs0mg"},{"bike_id":"d4a35763-cd68-4119-93e5-ee92dbacf514","system_id":"levelo_inurba_marseille","lat":43.31705,"lon":5.40462,"is_reserved":false,"is_disabled":false,"rental_uris":{"android":"levelo://app?vid=d4a35763-cd68-4119-93e5-ee92dbacf514","ios":"levelo://app?vid=d4a35763-cd68-4119-93e5-ee92dbacf514"},"vehicle_type_id":"4","last_reported":1752477339,"current_range_meters":21600,"station_id":"ce4bh012rcd13ifvqd00","pricing_plan_id":"cebpf4jnsgd1na2vs0mg"},{"bike_id":"d3a45db7-9dd0-4152-b0f0-dc09b14f2c21","system_id":"levelo_inurba_marseille","lat":43.257159,"lon":5.411147,"is_reserved":false,"is_disabled":false,"rental_uris":{"android":"levelo://app?vid=d3a45db7-9dd0-4152-b0f0-dc09b14f2c21","ios":"levelo://app?vid=d3a45db7-9dd0-4152-b0f0-dc09b14f2c21"},"vehicle_type_id":"4","last_reported":1752477339,"current_range_meters":22000,"station_id":"ce4bhkp2rcd13ifvqgd0","pricing_plan_id":"cebpf4jnsgd1na2vs0mg"},{"bike_id":"60f4989a-f43e-4b33-9550-d5c22e71d545","system_id":"levelo_inurba_marseille","lat":43.24387,"lon":5.37062,"is_reserved":false,"is_disabled":false,"rental_uris":{"android":"levelo://app?vid=60f4989a-f43e-4b33-9550-d5c22e71d545","ios":"levelo://app?vid=60f4989a-f43e-4b33-9550-d5c22e71d545"},"vehicle_type_id":"4","last_reported":1752477339,"current_range_meters":21600,"station_id":"ce4bhhh2rcd13ifvqfk0","pricing_plan_id":"cebpf4jnsgd1na2vs0mg"},{"bike_id":"4852acc5-0cd4-4ac5-bd4c-3f245414b4fd","system_id":"levelo_inurba_marseille","lat":43.21197,"lon":5.35095,"is_reserved":false,"is_disabled":false,"rental_uris":{"android":"levelo://app?vid=4852acc5-0cd4-4ac5-bd4c-3f245414b4fd","ios":"levelo://app?vid=4852acc5-0cd4-4ac5-bd4c-3f245414b4fd"},"vehicle_type_id":"4","last_reported":1752477339,"current_range_meters":22000,"station_id":"st_cvj6sg6p6f1abm77japg","pricing_plan_id":"cebpf4jnsgd1na2vs0mg"},{"bike_id":"521961d3-d69f-4aac-a0f6-56d4bfc9fc06","system_id":"levelo_inurba_marseille","lat":43.29302,"lon":5.37119,"is_reserved":false,"is_disabled":true,"rental_uris":{"android":"levelo://app?vid=521961d3-d69f-4aac-a0f6-56d4bfc9fc06","ios":"levelo://app?vid=521961d3-d69f-4aac-a0f6-56d4bfc9fc06"},"vehicle_type_id":"4","last_reported":1752477339,"current_range_meters":22000,"station_id":"ce4bgh92rcd13ifvqb40","pricing_plan_id":"cebpf4jnsgd1na2vs0mg"},{"bike_id":"b899f22e-5828-4407-bcf7-8129df4150d0","system_id":"levelo_inurba_marseille","lat":43.315347,"lon":5.380273,"is_reserved":false,"is_disabled":false,"rental_uris":{"android":"levelo://app?vid=b899f22e-5828-4407-bcf7-8129df4150d0","ios":"levelo://app?vid=b899f22e-5828-4407-bcf7-8129df4150d0"},"vehicle_type_id":"4","last_reported":1752477339,"current_range_meters":22000,"station_id":"ce4bhsp2rcd13ifvqi50","pricing_plan_id":"cebpf4jnsgd1na2vs0mg"},{"bike_id":"c7dbe4eb-3b06-4d3b-a379-3341959baef4","system_id":"levelo_inurba_marseille","lat":43.2902,"lon":5.3866,"is_reserved":false,"is_disabled":true,"rental_uris":{"android":"levelo://app?vid=c7dbe4eb-3b06-4d3b-a379-3341959baef4","ios":"levelo://app?vid=c7dbe4eb-3b06-4d3b-a379-3341959baef4"},"vehicle_type_id":"4","last_reported":1752477339,"current_range_meters":22400,"station_id":"ce4bh4p2rcd13ifvqe0g","pricing_plan_id":"cebpf4jnsgd1na2vs0mg"},{"bike_id":"9ec7ded0-07a0-4052-88cd-c68cfaa8fdd7","system_id":"levelo_inurba_marseille","lat":43.217453,"lon":5.346055,"is_reserved":false,"is_disabled":true,"rental_uris":{"android":"levelo://app?vid=9ec7ded0-07a0-4052-88cd-c68cfaa8fdd7","ios":"levelo://app?vid=9ec7ded0-07a0-4052-88cd-c68cfaa8fdd7"},"vehicle_type_id":"4","last_reported":1752477339,"current_range_meters":22400,"station_id":"st_cvj6r9ubvosntc0bgbag","pricing_plan_id":"cebpf4jnsgd1na2vs0mg"},{"bike_id":"18c1f988-2144-4ca0-9922-2654b2d9091d","system_id":"levelo_inurba_marseille","lat":43.29679,"lon":5.366473,"is_reserved":false,"is_disabled":false,"rental_uris":{"android":"levelo://app?vid=18c1f988-2144-4ca0-9922-2654b2d9091d","ios":"levelo://app?vid=18c1f988-2144-4ca0-9922-2654b2d9091d"},"vehicle_type_id":"4","last_reported":1752477339,"current_range_meters":22400,"station_id":"ce4bgn12rcd13ifvqbt0","pricing_plan_id":"cebpf4jnsgd1na2vs0mg"},{"bike_id":"7f4f900d-7800-4b0a-a6ba-c36587dfe931","system_id":"levelo_inurba_marseille","lat":43.29248,"lon":5.38434,"is_reserved":false,"is_disabled":true,"rental_uris":{"android":"levelo://app?vid=7f4f900d-7800-4b0a-a6ba-c36587dfe931","ios":"levelo://app?vid=7f4f900d-7800-4b0a-a6ba-c36587dfe931"},"vehicle_type_id":"4","last_reported":1752477339,"current_range_meters":22400,"station_id":"ce4bh692rcd13ifvqea0","pricing_plan_id":"cebpf4jnsgd1na2vs0mg"},{"bike_id":"9fb70799-5442-4d30-8084-38bb2ddf6289","system_id":"levelo_inurba_marseille","lat":43.309085,"lon":5.36845,"is_reserved":false,"is_disabled":false,"rental_uris":{"android":"levelo://app?vid=9fb70799-5442-4d30-8084-38bb2ddf6289","ios":"levelo://app?vid=9fb70799-5442-4d30-8084-38bb2ddf6289"},"vehicle_type_id":"4","last_reported":1752477339,"current_range_meters":22400,"station_id":"ce4bgn92rcd13ifvqbvg","pricing_plan_id":"cebpf4jnsgd1na2vs0mg"},{"bike_id":"0d483f45-c298-433c-a27a-160b4af9451a","system_id":"levelo_inurba_marseille","lat":43.289702,"lon":5.378392,"is_reserved":false,"is_disabled":false,"rental_uris":{"android":"levelo://app?vid=0d483f45-c298-433c-a27a-160b4af9451a","ios":"levelo://app?vid=0d483f45-c298-433c-a27a-160b4af9451a"},"vehicle_type_id":"4","last_reported":1752477339,"current_range_meters":22400,"station_id":"ce4bh9p2rcd13ifvqed0","pricing_plan_id":"cebpf4jnsgd1na2vs0mg"},{"bike_id":"64f5f3a6-b036-4214-8068-ac28d2c06a3c","system_id":"levelo_inurba_marseille","lat":43.30456,"lon":5.37899,"is_reserved":false,"is_disabled":false,"rental_uris":{"android":"levelo://app?vid=64f5f3a6-b036-4214-8068-ac28d2c06a3c","ios":"levelo://app?vid=64f5f3a6-b036-4214-8068-ac28d2c06a3c"},"vehicle_type_id":"4","last_reported":1752477339,"current_range_meters":22400,"station_id":"ce4bgup2rcd13ifvqcn0","pricing_plan_id":"cebpf4jnsgd1na2vs0mg"},{"bike_id":"1a0bb78b-55e4-4841-879e-a3ac74ae8d4f","system_id":"levelo_inurba_marseille","lat":43.31709,"lon":5.3775,"is_reserved":false,"is_disabled":false,"rental_uris":{"android":"levelo://app?vid=1a0bb78b-55e4-4841-879e-a3ac74ae8d4f","ios":"levelo://app?vid=1a0bb78b-55e4-4841-879e-a3ac74ae8d4f"},"vehicle_type_id":"4","last_reported":1752477339,"current_range_meters":22400,"station_id":"ce4bgth2rcd13ifvqch0","pricing_plan_id":"cebpf4jnsgd1na2vs0mg"},{"bike_id":"b1d6dad2-d3a6-4d12-9072-cb12788e8f1a","system_id":"levelo_inurba_marseille","lat":43.29529,"lon":5.37477,"is_reserved":false,"is_disabled":false,"rental_uris":{"android":"levelo://app?vid=b1d6dad2-d3a6-4d12-9072-cb12788e8f1a","ios":"levelo://app?vid=b1d6dad2-d3a6-4d12-9072-cb12788e8f1a"},"vehicle_type_id":"4","last_reported":1752477339,"current_range_meters":22800,"station_id":"ce4bgkp2rcd13ifvqbmg","pricing_plan_id":"cebpf4jnsgd1na2vs0mg"},{"bike_id":"c58beacf-a84d-4e0b-97d7-84aedd34c221","system_id":"levelo_inurba_marseille","lat":43.29035,"lon":5.39965,"is_reserved":false,"is_disabled":false,"rental_uris":{"android":"levelo://app?vid=c58beacf-a84d-4e0b-97d7-84aedd34c221","ios":"levelo://app?vid=c58beacf-a84d-4e0b-97d7-84aedd34c221"},"vehicle_type_id":"4","last_reported":1752477339,"current_range_meters":22800,"station_id":"ce4bh392rcd13ifvqdm0","pricing_plan_id":"cebpf4jnsgd1na2vs0mg"},{"bike_id":"b438ecfa-490d-40fd-8a84-b62a4bee4aa7","system_id":"levelo_inurba_marseille","lat":43.281051,"lon":5.378215,"is_reserved":false,"is_disabled":false,"rental_uris":{"android":"levelo://app?vid=b438ecfa-490d-40fd-8a84-b62a4bee4aa7","ios":"levelo://app?vid=b438ecfa-490d-40fd-8a84-b62a4bee4aa7"},"vehicle_type_id":"4","last_reported":1752477339,"current_range_meters":22800,"station_id":"ce4bha12rcd13ifvqee0","pricing_plan_id":"cebpf4jnsgd1na2vs0mg"},{"bike_id":"e6b4fc2e-1ec5-409c-9468-5f8a99520fbb","system_id":"levelo_inurba_marseille","lat":43.26792,"lon":5.39405,"is_reserved":false,"is_disabled":false,"rental_uris":{"android":"levelo://app?vid=e6b4fc2e-1ec5-409c-9468-5f8a99520fbb","ios":"levelo://app?vid=e6b4fc2e-1ec5-409c-9468-5f8a99520fbb"},"vehicle_type_id":"4","last_reported":1752477339,"current_range_meters":22800,"station_id":"ce4bhh12rcd13ifvqfg0","pricing_plan_id":"cebpf4jnsgd1na2vs0mg"},{"bike_id":"afd0f8e4-f574-4569-a6f6-6f3484e5a9b5","system_id":"levelo_inurba_marseille","lat":43.31071,"lon":5.38348,"is_reserved":false,"is_disabled":false,"rental_uris":{"android":"levelo://app?vid=afd0f8e4-f574-4569-a6f6-6f3484e5a9b5","ios":"levelo://app?vid=afd0f8e4-f574-4569-a6f6-6f3484e5a9b5"},"vehicle_type_id":"4","last_reported":1752477339,"current_range_meters":22800,"station_id":"ce4bgv92rcd13ifvqcr0","pricing_plan_id":"cebpf4jnsgd1na2vs0mg"},{"bike_id":"7c9dd713-4a18-42e3-96d2-69c4b14de4e4","system_id":"levelo_inurba_marseille","lat":43.29737,"lon":5.37701,"is_reserved":false,"is_disabled":false,"rental_uris":{"android":"levelo://app?vid=7c9dd713-4a18-42e3-96d2-69c4b14de4e4","ios":"levelo://app?vid=7c9dd713-4a18-42e3-96d2-69c4b14de4e4"},"vehicle_type_id":"4","last_reported":1752477339,"current_range_meters":22800,"station_id":"ce4bgkh2rcd13ifvqbl0","pricing_plan_id":"cebpf4jnsgd1na2vs0mg"},{"bike_id":"368f94ca-6441-4331-befd-36b9476bd27c","system_id":"levelo_inurba_marseille","lat":43.30805,"lon":5.38157,"is_reserved":false,"is_disabled":false,"rental_uris":{"android":"levelo://app?vid=368f94ca-6441-4331-befd-36b9476bd27c","ios":"levelo://app?vid=368f94ca-6441-4331-befd-36b9476bd27c"},"vehicle_type_id":"4","last_reported":1752477339,"current_range_meters":22400,"station_id":"ce4bgt12rcd13ifvqce0","pricing_plan_id":"cebpf4jnsgd1na2vs0mg"},{"bike_id":"afb0c3e5-019a-490a-bcc5-2077b3ab54fa","system_id":"levelo_inurba_marseille","lat":43.286759,"lon":5.38663,"is_reserved":false,"is_disabled":false,"rental_uris":{"android":"levelo://app?vid=afb0c3e5-019a-490a-bcc5-2077b3ab54fa","ios":"levelo://app?vid=afb0c3e5-019a-490a-bcc5-2077b3ab54fa"},"vehicle_type_id":"4","last_reported":1752477339,"current_range_meters":22800,"station_id":"ce4bh492rcd13ifvqdug","pricing_plan_id":"cebpf4jnsgd1na2vs0mg"},{"bike_id":"eb8796b6-ef48-428b-ae4c-0f9961028b90","system_id":"levelo_inurba_marseille","lat":43.278358,"lon":5.392011,"is_reserved":false,"is_disabled":false,"rental_uris":{"android":"levelo://app?vid=eb8796b6-ef48-428b-ae4c-0f9961028b90","ios":"levelo://app?vid=eb8796b6-ef48-428b-ae4c-0f9961028b90"},"vehicle_type_id":"4","last_reported":1752477339,"current_range_meters":22800,"station_id":"ce4bhjp2rcd13ifvqga0","pricing_plan_id":"cebpf4jnsgd1na2vs0mg"},{"bike_id":"a5b1565c-cb7c-4a21-9a8b-c65ec7f0843d","system_id":"levelo_inurba_marseille","lat":43.25493,"lon":5.37647,"is_reserved":false,"is_disabled":false,"rental_uris":{"android":"levelo://app?vid=a5b1565c-cb7c-4a21-9a8b-c65ec7f0843d","ios":"levelo://app?vid=a5b1565c-cb7c-4a21-9a8b-c65ec7f0843d"},"vehicle_type_id":"4","last_reported":1752477339,"current_range_meters":22400,"station_id":"ce4bhh12rcd13ifvqff0","pricing_plan_id":"cebpf4jnsgd1na2vs0mg"},{"bike_id":"2d20d04c-847b-4085-a58f-d98f887283c8","system_id":"levelo_inurba_marseille","lat":43.292262,"lon":5.360553,"is_reserved":false,"is_disabled":false,"rental_uris":{"android":"levelo://app?vid=2d20d04c-847b-4085-a58f-d98f887283c8","ios":"levelo://app?vid=2d20d04c-847b-4085-a58f-d98f887283c8"},"vehicle_type_id":"4","last_reported":1752477339,"current_range_meters":23200,"station_id":"","pricing_plan_id":"cebpf4jnsgd1na2vs0mg"},{"bike_id":"9846ab09-e95d-46c3-9a2e-75071891ddd3","system_id":"levelo_inurba_marseille","lat":43.24403,"lon":5.37047,"is_reserved":false,"is_disabled":false,"rental_uris":{"android":"levelo://app?vid=9846ab09-e95d-46c3-9a2e-75071891ddd3","ios":"levelo://app?vid=9846ab09-e95d-46c3-9a2e-75071891ddd3"},"vehicle_type_id":"4","last_reported":1752477339,"current_range_meters":23200,"station_id":"ce4bhhh2rcd13ifvqfk0","pricing_plan_id":"cebpf4jnsgd1na2vs0mg"},{"bike_id":"a9601b05-c4a6-4e94-8088-2d301c7d7c24","system_id":"levelo_inurba_marseille","lat":43.29632,"lon":5.40595,"is_reserved":false,"is_disabled":false,"rental_uris":{"android":"levelo://app?vid=a9601b05-c4a6-4e94-8088-2d301c7d7c24","ios":"levelo://app?vid=a9601b05-c4a6-4e94-8088-2d301c7d7c24"},"vehicle_type_id":"4","last_reported":1752477339,"current_range_meters":23200,"station_id":"ce4bh0h2rcd13ifvqd60","pricing_plan_id":"cebpf4jnsgd1na2vs0mg"},{"bike_id":"c599d0e6-4f14-4281-a1fd-b8b1bb66057b","system_id":"levelo_inurba_marseille","lat":43.321075,"lon":5.367697,"is_reserved":false,"is_disabled":false,"rental_uris":{"android":"levelo://app?vid=c599d0e6-4f14-4281-a1fd-b8b1bb66057b","ios":"levelo://app?vid=c599d0e6-4f14-4281-a1fd-b8b1bb66057b"},"vehicle_type_id":"4","last_reported":1752477339,"current_range_meters":23200,"station_id":"ce4bhrh2rcd13ifvqhug","pricing_plan_id":"cebpf4jnsgd1na2vs0mg"},{"bike_id":"e875ba05-0311-438b-a1ff-af174969b660","system_id":"levelo_inurba_marseille","lat":43.27946,"lon":5.41033,"is_reserved":false,"is_disabled":true,"rental_uris":{"android":"levelo://app?vid=e875ba05-0311-438b-a1ff-af174969b660","ios":"levelo://app?vid=e875ba05-0311-438b-a1ff-af174969b660"},"vehicle_type_id":"4","last_reported":1752477339,"current_range_meters":23200,"station_id":"ce4bhnp2rcd13ifvqh0g","pricing_plan_id":"cebpf4jnsgd1na2vs0mg"},{"bike_id":"143925b4-f6c0-4873-9a5e-998493772a13","system_id":"levelo_inurba_marseille","lat":43.336076,"lon":5.410327,"is_reserved":false,"is_disabled":false,"rental_uris":{"android":"levelo://app?vid=143925b4-f6c0-4873-9a5e-998493772a13","ios":"levelo://app?vid=143925b4-f6c0-4873-9a5e-998493772a13"},"vehicle_type_id":"4","last_reported":1752477339,"current_range_meters":23200,"station_id":"ce4bhqh2rcd13ifvqhmg","pricing_plan_id":"cebpf4jnsgd1na2vs0mg"},{"bike_id":"fa5683f7-17f8-43cb-8cf9-13e28d22ea66","system_id":"levelo_inurba_marseille","lat":43.31483,"lon":5.37304,"is_reserved":false,"is_disabled":false,"rental_uris":{"android":"levelo://app?vid=fa5683f7-17f8-43cb-8cf9-13e28d22ea66","ios":"levelo://app?vid=fa5683f7-17f8-43cb-8cf9-13e28d22ea66"},"vehicle_type_id":"4","last_reported":1752477339,"current_range_meters":23200,"station_id":"ce4bgt12rcd13ifvqcd0","pricing_plan_id":"cebpf4jnsgd1na2vs0mg"},{"bike_id":"4c4f2875-da2c-464a-8f26-fdba204d9d82","system_id":"levelo_inurba_marseille","lat":43.28414,"lon":5.37515,"is_reserved":false,"is_disabled":false,"rental_uris":{"android":"levelo://app?vid=4c4f2875-da2c-464a-8f26-fdba204d9d82","ios":"levelo://app?vid=4c4f2875-da2c-464a-8f26-fdba204d9d82"},"vehicle_type_id":"4","last_reported":1752477339,"current_range_meters":23200,"station_id":"ce4bh412rcd13ifvqds0","pricing_plan_id":"cebpf4jnsgd1na2vs0mg"},{"bike_id":"9f444994-5b28-4f25-89fb-57f480dcc631","system_id":"levelo_inurba_marseille","lat":43.30307,"lon":5.36882,"is_reserved":false,"is_disabled":false,"rental_uris":{"android":"levelo://app?vid=9f444994-5b28-4f25-89fb-57f480dcc631","ios":"levelo://app?vid=9f444994-5b28-4f25-89fb-57f480dcc631"},"vehicle_type_id":"4","last_reported":1752477339,"current_range_meters":24000,"station_id":"ce4bgqh2rcd13ifvqc5g","pricing_plan_id":"cebpf4jnsgd1na2vs0mg"},