{"last_updated":1736179847,"ttl":60,"version":"2.2","data":{"bikes":[{"bike_id":"1f8e464b-810b-4d0d-88d1-dd40437892bd","system_id":"levelo_inurba_marseille","lat":43.29542,"lon":5.39415,"is_reserved":false,"is_disabled":false,"rental_uris":{"android":"levelo://app?vid=1f8e464b-810b-4d0d-88d1-dd40437892bd","ios":"levelo://app?vid=1f8e464b-810b-4d0d-88d1-dd40437892bd"},"vehicle_type_id":"4","last_reported":1736179847,"current_range_meters":28400,"station_id":"ce4bh292rcd13ifvqdf0","pricing_plan_id":"cebpf4jnsgd1na2vs0mg"},{"bike_id":"6f4ff734-c3ff-465e-8d64-3ddbc0d07422","system_id":"levelo_inurba_marseille","lat":43.27664,"lon":5.38883,"is_reserved":false,"is_disabled":false,"rental_uris":{"android":"levelo://app?vid=6f4ff734-c3ff-465e-8d64-3ddbc0d07422","ios":"levelo://app?vid=6f4ff734-c3ff-465e-8d64-3ddbc0d07422"},"vehicle_type_id":"4","last_reported":1736179847,"current_range_meters":33600,"station_id":"ce4bhi12rcd13ifvqfo0","pricing_plan_id":"cebpf4jnsgd1na2vs0mg"},{"bike_id":"eab8fa68-5664-4786-8ae7-c43d42aa8d90","system_id":"levelo_inurba_marseille","lat":43.28031,"lon":5.36951,"is_reserved":false,"is_disabled":false,"rental_uris":{"android":"levelo://app?vid=eab8fa68-5664-4786-8ae7-c43d42aa8d90","ios":"levelo://app?vid=eab8fa68-5664-4786-8ae7-c43d42aa8d90"},"vehicle_type_id":"4","last_reported":1736179847,"current_range_meters":32000,"station_id":"ce4bha12rcd13ifvqef0","pricing_plan_id":"cebpf4jnsgd1na2vs0mg"},{"bike_id":"b570cc0e-254b-46f8-bac7-42f2486d6d4d","system_id":"levelo_inurba_marseille","lat":43.24658,"lon":5.38886,"is_reserved":false,"is_disabled":false,"rental_uris":{"android":"levelo://app?vid=b570cc0e-254b-46f8-bac7-42f2486d6d4d","ios":"levelo://app?vid=b570cc0e-254b-46f8-bac7-42f2486d6d4d"},"vehicle_type_id":"4","last_reported":1736179847,"current_range_meters":38800,"station_id":"ce4bhg12rcd13ifvqf60","pricing_plan_id":"cebpf4jnsgd1na2vs0mg"},{"bike_id":"e6e04223-7392-4eda-8306-7771efe8f77c","system_id":"levelo_inurba_marseille","lat":43.31363,"lon":5.36717,"is_reserved":false,"is_disabled":false,"rental_uris":{"android":"levelo://app?vid=e6e04223-7392-4eda-8306-7771efe8f77c","ios":"levelo://app?vid=e6e04223-7392-4eda-8306-7771efe8f77c"},"vehicle_type_id":"4","last_reported":1736179847,"current_range_meters":38800,"station_id":"ce4bgr92rcd13ifvqc6g","pricing_plan_id":"cebpf4jnsgd1na2vs0mg"},{"bike_id":"8baafc05-6d13-4acf-a656-9c87b9caf8e8","system_id":"levelo_inurba_marseille","lat":43.31994,"lon":5.38154,"is_reserved":false,"is_disabled":false,"rental_uris":{"android":"levelo://app?vid=8baafc05-6d13-4acf-a656-9c87b9caf8e8","ios":"levelo://app?vid=8baafc05-6d13-4acf-a656-9c87b9caf8e8"},"vehicle_type_id":"4","last_reported":1736179847,"current_range_meters":30400,"station_id":"ce4bhr12rcd13ifvqhpg","pricing_plan_id":"cebpf4jnsgd1na2vs0mg"},{"bike_id":"0153ae28-9422-4039-87f8-952c80b8c9cc","system_id":"levelo_inurba_marseille","lat":43.2733,"lon":5.3911,"is_reserved":false,"is_disabled":true,"rental_uris":{"android":"levelo://app?vid=0153ae28-9422-4039-87f8-952c80b8c9cc","ios":"levelo://app?vid=0153ae28-9422-4039-87f8-952c80b8c9cc"},"vehicle_type_id":"4","last_reported":1736179847,"current_range_meters":36000,"station_id":"ce4bhgp2rcd13ifvqfe0","pricing_plan_id":"cebpf4jnsgd1na2vs0mg"},{"bike_id":"35fa3510-16ea-4f42-9993-aa370f3a0b60","system_id":"levelo_inurba_marseille","lat":43.2954,"lon":5.3853,"is_reserved":false,"is_disabled":false,"rental_uris":{"android":"levelo://app?vid=35fa3510-16ea-4f42-9993-aa370f3a0b60","ios":"levelo://app?vid=35fa3510-16ea-4f42-9993-aa370f3a0b60"},"vehicle_type_id":"4","last_reported":1736179847,"current_range_meters":14800,"station_id":"ce4bgih2rcd13ifvqba0","pricing_plan_id":"cebpf4jnsgd1na2vs0mg"},{"bike_id":"3b3fa9d1-7470-4b0e-8075-f55b3263c82a","system_id":"levelo_inurba_marseille","lat":43.2978,"lon":5.37099,"is_reserved":false,"is_disabled":false,"rental_uris":{"android":"levelo://app?vid=3b3fa9d1-7470-4b0e-8075-f55b3263c82a","ios":"levelo://app?vid=3b3fa9d1-7470-4b0e-8075-f55b3263c82a"},"vehicle_type_id":"4","last_reported":1736179847,"current_range_meters":24000,"station_id":"ce4bgop2rcd13ifvqc1g","pricing_plan_id":"cebpf4jnsgd1na2vs0mg"},{"bike_id":"e8f7458c-cf19-43d7-a972-43547ad9fe30","system_id":"levelo_inurba_marseille","lat":43.27167,"lon":5.41005,"is_reserved":false,"is_disabled":false,"rental_uris":{"android":"levelo://app?vid=e8f7458c-cf19-43d7-a972-43547ad9fe30","ios":"levelo://app?vid=e8f7458c-cf19-43d7-a972-43547ad9fe30"},"vehicle_type_id":"4","last_reported":1736179847,"current_range_meters":7200,"station_id":"ce4bhl12rcd13ifvqgf0","pricing_plan_id":"cebpf4jnsgd1na2vs0mg"},{"bike_id":"795f0bf4-6cb2-4181-a990-1a76c6d73ea0","system_id":"levelo_inurba_marseille","lat":43.27947,"lon":5.41049,"is_reserved":false,"is_disabled":true,"rental_uris":{"android":"levelo://app?vid=795f0bf4-6cb2-4181-a990-1a76c6d73ea0","ios":"levelo://app?vid=795f0bf4-6cb2-4181-a990-1a76c6d73ea0"},"vehicle_type_id":"4","last_reported":1736179847,"current_range_meters":38800,"station_id":"ce4bhnp2rcd13ifvqh0g","pricing_plan_id":"cebpf4jnsgd1na2vs0mg"},{"bike_id":"f9c24d68-b89f-45de-995e-0128065ded3d","system_id":"levelo_inurba_marseille","lat":43.27833,"lon":5.39204,"is_reserved":false,"is_disabled":false,"rental_uris":{"android":"levelo://app?vid=f9c24d68-b89f-45de-995e-0128065ded3d","ios":"levelo://app?vid=f9c24d68-b89f-45de-995e-0128065ded3d"},"vehicle_type_id":"4","last_reported":1736179847,"current_range_meters":32800,"station_id":"ce4bhjp2rcd13ifvqga0","pricing_plan_id":"cebpf4jnsgd1na2vs0mg"},{"bike_id":"2e3020fc-739e-484f-aff1-968aa18f2ac1","system_id":"levelo_inurba_marseille","lat":43.2802,"lon":5.41659,"is_reserved":false,"is_disabled":true,"rental_uris":{"android":"levelo://app?vid=2e3020fc-739e-484f-aff1-968aa18f2ac1","ios":"levelo://app?vid=2e3020fc-739e-484f-aff1-968aa18f2ac1"},"vehicle_type_id":"4","last_reported":1736179847,"current_range_meters":38800,"station_id":"ce4bho12rcd13ifvqh1g","pricing_plan_id":"cebpf4jnsgd1na2vs0mg"},{"bike_id":"050e0f27-6e51-4b1d-9bac-d619185bb990","system_id":"levelo_inurba_marseille","lat":43.29926,"lon":5.36548,"is_reserved":false,"is_disabled":false,"rental_uris":{"android":"levelo://app?vid=050e0f27-6e51-4b1d-9bac-d619185bb990","ios":"levelo://app?vid=050e0f27-6e51-4b1d-9bac-d619185bb990"},"vehicle_type_id":"4","last_reported":1736179847,"current_range_meters":18000,"station_id":"ce4bgm92rcd13ifvqbr0","pricing_plan_id":"cebpf4jnsgd1na2vs0mg"},{"bike_id":"67aacbad-9c0b-4309-a1cb-6c98bdb0fd64","system_id":"levelo_inurba_marseille","lat":43.2978,"lon":5.38096,"is_reserved":false,"is_disabled":false,"rental_uris":{"android":"levelo://app?vid=67aacbad-9c0b-4309-a1cb-6c98bdb0fd64","ios":"levelo://app?vid=67aacbad-9c0b-4309-a1cb-6c98bdb0fd64"},"vehicle_type_id":"4","last_reported":1736179847,"current_range_meters":34000,"station_id":"ce4bgip2rcd13ifvqbb0","pricing_plan_id":"cebpf4jnsgd1na2vs0mg"},{"bike_id":"c6c5246a-6c57-426f-a7e1-dc372ef756c9","system_id":"levelo_inurba_marseille","lat":43.28461,"lon":5.35893,"is_reserved":false,"is_disabled":false,"rental_uris":{"android":"levelo://app?vid=c6c5246a-6c57-426f-a7e1-dc372ef756c9","ios":"levelo://app?vid=c6c5246a-6c57-426f-a7e1-dc372ef756c9"},"vehicle_type_id":"4","last_reported":1736179847,"current_range_meters":12800,"station_id":"ce4bhah2rcd13ifvqei0","pricing_plan_id":"cebpf4jnsgd1na2vs0mg"},{"bike_id":"eea7f446-395e-439b-98c4-8ddb4952436d","system_id":"levelo_inurba_marseille","lat":43.29053,"lon":5.39971,"is_reserved":false,"is_disabled":true,"rental_uris":{"android":"levelo://app?vid=eea7f446-395e-439b-98c4-8ddb4952436d","ios":"levelo://app?vid=eea7f446-395e-439b-98c4-8ddb4952436d"},"vehicle_type_id":"4","last_reported":1736179847,"current_range_meters":22400,"station_id":"ce4bh392rcd13ifvqdm0","pricing_plan_id":"cebpf4jnsgd1na2vs0mg"},{"bike_id":"f5171357-5775-441a-bdb3-f3356edf63b1","system_id":"levelo_inurba_marseille","lat":43.28683,"lon":5.38678,"is_reserved":false,"is_disabled":false,"rental_uris":{"android":"levelo://app?vid=f5171357-5775-441a-bdb3-f3356edf63b1","ios":"levelo://app?vid=f5171357-5775-441a-bdb3-f3356edf63b1"},"vehicle_type_id":"4","last_reported":1736179847,"current_range_meters":38800,"station_id":"ce4bh492rcd13ifvqdug","pricing_plan_id":"cebpf4jnsgd1na2vs0mg"},{"bike_id":"7785ab47-fc21-464f-82e3-4fad2439c0ee","system_id":"levelo_inurba_marseille","lat":43.29827,"lon":5.43689,"is_reserved":false,"is_disabled":false,"rental_uris":{"android":"levelo://app?vid=7785ab47-fc21-464f-82e3-4fad2439c0ee","ios":"levelo://app?vid=7785ab47-fc21-464f-82e3-4fad2439c0ee"},"vehicle_type_id":"4","last_reported":1736179847,"current_range_meters":19600,"station_id":"","pricing_plan_id":"cebpf4jnsgd1na2vs0mg"},{"bike_id":"abc11b98-a7eb-43b2-a0bf-160a5063b646","system_id":"levelo_inurba_marseille","lat":43.291,"lon":5.38146,"is_reserved":false,"is_disabled":false,"rental_uris":{"android":"levelo://app?vid=abc11b98-a7eb-43b2-a0bf-160a5063b646","ios":"levelo://app?vid=abc11b98-a7eb-43b2-a0bf-160a5063b646"},"vehicle_type_id":"4","last_reported":1736179847,"current_range_meters":38000,"station_id":"ce4bh512rcd13ifvqe2g","pricing_plan_id":"cebpf4jnsgd1na2vs0mg"},{"bike_id":"910918f2-7702-42b6-a113-5cf6097ed7d7","system_id":"levelo_inurba_marseille","lat":43.28457,"lon":5.35886,"is_reserved":false,"is_disabled":false,"rental_uris":{"android":"levelo://app?vid=910918f2-7702-42b6-a113-5cf6097ed7d7","ios":"levelo://app?vid=910918f2-7702-42b6-a113-5cf6097ed7d7"},"vehicle_type_id":"4","last_reported":1736179847,"current_range_meters":24400,"station_id":"ce4bhah2rcd13ifvqei0","pricing_plan_id":"cebpf4jnsgd1na2vs0mg"},{"bike_id":"dcc4fe27-d317-4341-9f5c-4182603b761f","system_id":"levelo_inurba_marseille","lat":43.29551,"lon":5.38546,"is_reserved":false,"is_disabled":false,"rental_uris":{"android":"levelo://app?vid=dcc4fe27-d317-4341-9f5c-4182603b761f","ios":"levelo://app?vid=dcc4fe27-d317-4341-9f5c-4182603b761f"},"vehicle_type_id":"4","last_reported":1736179847,"current_range_meters":38800,"station_id":"ce4bgih2rcd13ifvqba0","pricing_plan_id":"cebpf4jnsgd1na2vs0mg"},{"bike_id":"f3e7dc9d-7d8c-4a2f-af03-535fe123d124","system_id":"levelo_inurba_marseille","lat":43.281555,"lon":5.426472,"is_reserved":false,"is_disabled":false,"rental_uris":{"android":"levelo://app?vid=f3e7dc9d-7d8c-4a2f-af03-535fe123d124","ios":"levelo://app?vid=f3e7dc9d-7d8c-4a2f-af03-535fe123d124"},"vehicle_type_id":"4","last_reported":1736179847,"current_range_meters":38800,"station_id":"ce4bhnh2rcd13ifvqgug","pricing_plan_id":"cebpf4jnsgd1na2vs0mg"},{"bike_id":"9b5bc232-4a0a-4dc9-a37f-fe6b036d0d0d","system_id":"levelo_inurba_marseille","lat":43.27067,"lon":5.42277,"is_reserved":false,"is_disabled":false,"rental_uris":{"android":"levelo://app?vid=9b5bc232-4a0a-4dc9-a37f-fe6b036d0d0d","ios":"levelo://app?vid=9b5bc232-4a0a-4dc9-a37f-fe6b036d0d0d"},"vehicle_type_id":"4","last_reported":1736179847,"current_range_meters":9200,"station_id":"ce4bhk92rcd13ifvqgb0","pricing_plan_id":"cebpf4jnsgd1na2vs0mg"},{"bike_id":"75539ff0-fe32-4da7-83df-96fa72019050","system_id":"levelo_inurba_marseille","lat":43.31115,"lon":5.42429,"is_reserved":false,"is_disabled":false,"rental_uris":{"android":"levelo://app?vid=75539ff0-fe32-4da7-83df-96fa72019050","ios":"levelo://app?vid=75539ff0-fe32-4da7-83df-96fa72019050"},"vehicle_type_id":"4","last_reported":1736179847,"current_range_meters":38000,"station_id":"ce4bhp92rcd13ifvqhag","pricing_plan_id":"cebpf4jnsgd1na2vs0mg"},{"bike_id":"c023aed8-c4af-47de-bf55-7ec6cfb1c879","system_id":"levelo_inurba_marseille","lat":43.261937,"lon":5.374675,"is_reserved":false,"is_disabled":true,"rental_uris":{"android":"levelo://app?vid=c023aed8-c4af-47de-bf55-7ec6cfb1c879","ios":"levelo://app?vid=c023aed8-c4af-47de-bf55-7ec6cfb1c879"},"vehicle_type_id":"4","last_reported":1736179847,"current_range_meters":30800,"station_id":"ce4bhgp2rcd13ifvqfc0","pricing_plan_id":"cebpf4jnsgd1na2vs0mg"},{"bike_id":"da4e182b-7c44-47b0-b77c-4339bc027c76","system_id":"levelo_inurba_marseille","lat":43.29537,"lon":5.38536,"is_reserved":false,"is_disabled":false,"rental_uris":{"android":"levelo://app?vid=da4e182b-7c44-47b0-b77c-4339bc027c76","ios":"levelo://app?vid=da4e182b-7c44-47b0-b77c-4339bc027c76"},"vehicle_type_id":"4","last_reported":1736179847,"current_range_meters":38800,"station_id":"ce4bgih2rcd13ifvqba0","pricing_plan_id":"cebpf4jnsgd1na2vs0mg"},{"bike_id":"ebf65e80-1869-4c83-a4e9-e1600f07fee4","system_id":"levelo_inurba_marseille","lat":43.23184,"lon":5.39939,"is_reserved":false,"is_disabled":false,"rental_uris":{"android":"levelo://app?vid=ebf65e80-1869-4c83-a4e9-e1600f07fee4","ios":"levelo://app?vid=ebf65e80-1869-4c83-a4e9-e1600f07fee4"},"vehicle_type_id":"4","last_reported":1736179847,"current_range_meters":39200,"station_id":"ce4bhn12rcd13ifvqgqg","pricing_plan_id":"cebpf4jnsgd1na2vs0mg"},{"bike_id":"ad036647-e9f4-4246-953d-37ee6601db50","system_id":"levelo_inurba_marseille","lat":43.24673,"lon":5.38189,"is_reserved":false,"is_disabled":false,"rental_uris":{"android":"levelo://app?vid=ad036647-e9f4-4246-953d-37ee6601db50","ios":"levelo://app?vid=ad036647-e9f4-4246-953d-37ee6601db50"},"vehicle_type_id":"4","last_reported":1736179847,"current_range_meters":21600,"station_id":"ce4bhih2rcd13ifvqfr0","pricing_plan_id":"cebpf4jnsgd1na2vs0mg"},{"bike_id":"a7cb0021-ae95-4f8c-93ac-432da59baa7b","system_id":"levelo_inurba_marseille","lat":43.2572,"lon":5.41115,"is_reserved":false,"is_disabled":false,"rental_uris":{"android":"levelo://app?vid=a7cb0021-ae95-4f8c-93ac-432da59baa7b","ios":"levelo://app?vid=a7cb0021-ae95-4f8c-93ac-432da59baa7b"},"vehicle_type_id":"4","last_reported":1736179847,"current_range_meters":5600,"station_id":"ce4bhkp2rcd13ifvqgd0","pricing_plan_id":"cebpf4jnsgd1na2vs0mg"},{"bike_id":"c0224545-f8d7-4908-9052-545a5ab43b28","system_id":"levelo_inurba_marseille","lat":43.29874,"lon":5.36253,"is_reserved":false,"is_disabled":false,"rental_uris":{"android":"levelo://app?vid=c0224545-f8d7-4908-9052-545a5ab43b28","ios":"levelo://app?vid=c0224545-f8d7-4908-9052-545a5ab43b28"},"vehicle_type_id":"4","last_reported":1736179847,"current_range_meters":37600,"station_id":"ce4bgpp2rcd13ifvqc3g","pricing_plan_id":"cebpf4jnsgd1na2vs0mg"},{"bike_id":"4fa82101-8f0f-474a-87e8-9b999b3b1983","system_id":"levelo_inurba_marseille","lat":43.3121,"lon":5.36875,"is_reserved":false,"is_disabled":false,"rental_uris":{"android":"levelo://app?vid=4fa82101-8f0f-474a-87e8-9b999b3b1983","ios":"levelo://app?vid=4fa82101-8f0f-474a-87e8-9b999b3b1983"},"vehicle_type_id":"4","last_reported":1736179847,"current_range_meters":38000,"station_id":"ce4bgl92rcd13ifvqbq0","pricing_plan_id":"cebpf4jnsgd1na2vs0mg"},{"bike_id":"8d1d45c2-4f7f-463d-b590-b188e899fb32","system_id":"levelo_inurba_marseille","lat":43.28421,"lon":5.34978,"is_reserved":false,"is_disabled":false,"rental_uris":{"android":"levelo://app?vid=8d1d45c2-4f7f-463d-b590-b188e899fb32","ios":"levelo://app?vid=8d1d45c2-4f7f-463d-b590-b188e899fb32"},"vehicle_type_id":"4","last_reported":1736179847,"current_range_meters":22400,"station_id":"ce4bhbh2rcd13ifvqepg","pricing_plan_id":"cebpf4jnsgd1na2vs0mg"},{"bike_id":"87e7b60a-6b9d-45cc-ae35-c097b6f4182b","system_id":"levelo_inurba_marseille","lat":43.26052,"lon":5.39386,"is_reserved":false,"is_disabled":false,"rental_uris":{"android":"levelo://app?vid=87e7b60a-6b9d-45cc-ae35-c097b6f4182b","ios":"levelo://app?vid=87e7b60a-6b9d-45cc-ae35-c097b6f4182b"},"vehicle_type_id":"4","last_reported":1736179847,"current_range_meters":17600,"station_id":"ce4bhh92rcd13ifvqfj0","pricing_plan_id":"cebpf4jnsgd1na2vs0mg"},{"bike_id":"75d3e57a-b9bf-4f80-9f61-2812f05e5b86","system_id":"levelo_inurba_marseille","lat":43.28157,"lon":5.42639,"is_reserved":false,"is_disabled":false,"rental_uris":{"android":"levelo://app?vid=75d3e57a-b9bf-4f80-9f61-2812f05e5b86","ios":"levelo://app?vid=75d3e57a-b9bf-4f80-9f61-2812f05e5b86"},"vehicle_type_id":"4","last_reported":1736179847,"current_range_meters":15200,"station_id":"ce4bhnh2rcd13ifvqgug","pricing_plan_id":"cebpf4jnsgd1na2vs0mg"},{"bike_id":"6ba4ce7c-1dc8-4564-8042-2968392de3bb","system_id":"levelo_inurba_marseille","lat":43.303206,"lon":5.369,"is_reserved":false,"is_disabled":false,"rental_uris":{"android":"levelo://app?vid=6ba4ce7c-1dc8-4564-8042-2968392de3bb","ios":"levelo://app?vid=6ba4ce7c-1dc8-4564-8042-2968392de3bb"},"vehicle_type_id":"4","last_reported":1736179847,"current_range_meters":38800,"station_id":"ce4bgqh2rcd13ifvqc5g","pricing_plan_id":"cebpf4jnsgd1na2vs0mg"},{"bike_id":"f950f68e-763d-458f-8358-255933d8bbd3","system_id":"levelo_inurba_marseille","lat":43.27895,"lon":5.38005,"is_reserved":false,"is_disabled":false,"rental_uris":{"android":"levelo://app?vid=f950f68e-763d-458f-8358-255933d8bbd3","ios":"levelo://app?vid=f950f68e-763d-458f-8358-255933d8bbd3"},"vehicle_type_id":"4","last_reported":1736179847,"current_range_meters":38800,"station_id":"ce4bhf92rcd13ifvqf50","pricing_plan_id":"cebpf4jnsgd1na2vs0mg"},{"bike_id":"d1fc2dd2-0c34-4df5-8f03-8f3cc0decdf6","system_id":"levelo_inurba_marseille","lat":43.30096,"lon":5.39076,"is_reserved":false,"is_disabled":false,"rental_uris":{"android":"levelo://app?vid=d1fc2dd2-0c34-4df5-8f03-8f3cc0decdf6","ios":"levelo://app?vid=d1fc2dd2-0c34-4df5-8f03-8f3cc0decdf6"},"vehicle_type_id":"4","last_reported":1736179847,"current_range_meters":20400,"station_id":"ce4bh192rcd13ifvqdb0","pricing_plan_id":"cebpf4jnsgd1na2vs0mg"},{"bike_id":"acc1ab7e-0fac-4d85-98c1-a4f278fd4c17","system_id":"levelo_inurba_marseille","lat":43.24552,"lon":5.395,"is_reserved":false,"is_disabled":false,"rental_uris":{"android":"levelo://app?vid=acc1ab7e-0fac-4d85-98c1-a4f278fd4c17","ios":"levelo://app?vid=acc1ab7e-0fac-4d85-98c1-a4f278fd4c17"},"vehicle_type_id":"4","last_reported":1736179847,"current_range_meters":24400,"station_id":"ce4bhlp2rcd13ifvqgjg","pricing_plan_id":"cebpf4jnsgd1na2vs0mg"},{"bike_id":"8a6c05d0-a1bf-40b6-bceb-133adb8ca423","system_id":"levelo_inurba_marseille","lat":43.28571,"lon":5.39502,"is_reserved":false,"is_disabled":false,"rental_uris":{"android":"levelo://app?vid=8a6c05d0-a1bf-40b6-bceb-133adb8ca423","ios":"levelo://app?vid=8a6c05d0-a1bf-40b6-bceb-133adb8ca423"},"vehicle_type_id":"4","last_reported":1736179847,"current_range_meters":38000,"station_id":"ce4bh292rcd13ifvqdg0","pricing_plan_id":"cebpf4jnsgd1na2vs0mg"},{"bike_id":"bd9a5e69-9375-4681-85c6-f32545f9d273","system_id":"levelo_inurba_marseille","lat":43.32476,"lon":5.3657,"is_reserved":false,"is_disabled":false,"rental_uris":{"android":"levelo://app?vid=bd9a5e69-9375-4681-85c6-f32545f9d273","ios":"levelo://app?vid=bd9a5e69-9375-4681-85c6-f32545f9d273"},"vehicle_type_id":"4","last_reported":1736179847,"current_range_meters":35200,"station_id":"ce4bhs12rcd13ifvqhvg","pricing_plan_id":"cebpf4jnsgd1na2vs0mg"},{"bike_id":"56e4e1b5-9e13-43a2-864c-71b304a89ef7","system_id":"levelo_inurba_marseille","lat":43.30136,"lon":5.37425,"is_reserved":false,"is_disabled":false,"rental_uris":{"android":"levelo://app?vid=56e4e1b5-9e13-43a2-864c-71b304a89ef7","ios":"levelo://app?vid=56e4e1b5-9e13-43a2-864c-71b304a89ef7"},"vehicle_type_id":"4","last_reported":1736179847,"current_range_meters":17600,"station_id":"ce4bgs92rcd13ifvqcc0","pricing_plan_id":"cebpf4jnsgd1na2vs0mg"},{"bike_id":"fdd0383d-38ed-4ef5-8052-fa499741b3db","system_id":"levelo_inurba_marseille","lat":43.29529,"lon":5.38528,"is_reserved":false,"is_disabled":false,"rental_uris":{"android":"levelo://app?vid=fdd0383d-38ed-4ef5-8052-fa499741b3db","ios":"levelo://app?vid=fdd0383d-38ed-4ef5-8052-fa499741b3db"},"vehicle_type_id":"4","last_reported":1736179847,"current_range_meters":28800,"station_id":"ce4bgih2rcd13ifvqba0","pricing_plan_id":"cebpf4jnsgd1na2vs0mg"},{"bike_id":"d0fc37e9-7f53-4d94-b12b-589a84c31e42","system_id":"levelo_inurba_marseille","lat":43.28922,"lon":5.38405,"is_reserved":false,"is_disabled":false,"rental_uris":{"android":"levelo://app?vid=d0fc37e9-7f53-4d94-b12b-589a84c31e42","ios":"levelo://app?vid=d0fc37e9-7f53-4d94-b12b-589a84c31e42"},"vehicle_type_id":"4","last_reported":1736179847,"current_range_meters":8400,"station_id":"ce4bh612rcd13ifvqe6g","pricing_plan_id":"cebpf4jnsgd1na2vs0mg"},{"bike_id":"6df4001c-2cbd-460a-8a1a-91496e0a14d1","system_id":"levelo_inurba_marseille","lat":43.25815,"lon":5.39423,"is_reserved":false,"is_disabled":false,"rental_uris":{"android":"levelo://app?vid=6df4001c-2cbd-460a-8a1a-91496e0a14d1","ios":"levelo://app?vid=6df4001c-2cbd-460a-8a1a-91496e0a14d1"},"vehicle_type_id":"4","last_reported":1736179847,"current_range_meters":28000,"station_id":"ce4bhip2rcd13ifvqft0","pricing_plan_id":"cebpf4jnsgd1na2vs0mg"},{"bike_id":"1c8566e1-e9e5-47b1-84c3-686a41788fcd","system_id":"levelo_inurba_marseille","lat":43.25497,"lon":5.37653,"is_reserved":false,"is_disabled":false,"rental_uris":{"android":"levelo://app?vid=1c8566e1-e9e5-47b1-84c3-686a41788fcd","ios":"levelo://app?vid=1c8566e1-e9e5-47b1-84c3-686a41788fcd"},"vehicle_type_id":"4","last_reported":1736179847,"current_range_meters":38800,"station_id":"ce4bhh12rcd13ifvqff0","pricing_plan_id":"cebpf4jnsgd1na2vs0mg"},{"bike_id":"c8626cdf-0625-4a6c-92f3-83c0aaa907b3","system_id":"levelo_inurba_marseille","lat":43.29914,"lon":5.37477,"is_reserved":false,"is_disabled":false,"rental_uris":{"android":"levelo://app?vid=c8626cdf-0625-4a6c-92f3-83c0aaa907b3","ios":"levelo://app?vid=c8626cdf-0625-4a6c-92f3-83c0aaa907b3"},"vehicle_type_id":"4","last_reported":1736179847,"current_range_meters":38400,"station_id":"ce4bgjh2rcd13ifvqbg0","pricing_plan_id":"cebpf4jnsgd1na2vs0mg"},{"bike_id":"199ca4ba-b74f-4867-85d7-0a77aa4cc872","system_id":"levelo_inurba_marseille","lat":43.29019,"lon":5.38636,"is_reserved":false,"is_disabled":false,"rental_uris":{"android":"levelo://app?vid=199ca4ba-b74f-4867-85d7-0a77aa4cc872","ios":"levelo://app?vid=199ca4ba-b74f-4867-85d7-0a77aa4cc872"},"vehicle_type_id":"4","last_reported":1736179847,"current_range_meters":38000,"station_id":"ce4bh4p2rcd13ifvqe0g","pricing_plan_id":"cebpf4jnsgd1na2vs0mg"},{"bike_id":"63bd3b2e-de6c-440c-a33a-0b0199490745","system_id":"levelo_inurba_marseille","lat":43.31687,"lon":5.40472,"is_reserved":false,"is_disabled":false,"rental_uris":{"android":"levelo://app?vid=63bd3b2e-de6c-440c-a33a-0b0199490745","ios":"levelo://app?vid=63bd3b2e-de6c-440c-a33a-0b0199490745"},"vehicle_type_id":"4","last_reported":1736179847,"current_range_meters":10800,"station_id":"ce4bh012rcd13ifvqd00","pricing_plan_id":"cebpf4jnsgd1na2vs0mg"},{"bike_id":"a23e7dd5-84cc-4eca-9236-90b42c7ed41b","system_id":"levelo_inurba_marseille","lat":43.32344,"lon":5.40617,"is_reserved":false,"is_disabled":true,"rental_uris":{"android":"levelo://app?vid=a23e7dd5-84cc-4eca-9236-90b42c7ed41b","ios":"levelo://app?vid=a23e7dd5-84cc-4eca-9236-90b42c7ed41b"},"vehicle_type_id":"4","last_reported":1736179847,"current_range_meters":16800,"station_id":"ce4bhq92rcd13ifvqhjg","pricing_plan_id":"cebpf4jnsgd1na2vs0mg"},{"bike_id":"59cbeaea-0cef-429a-8f24-c50c21406242","system_id":"levelo_inurba_marseille","lat":43.29969,"lon":5.38494,"is_reserved":false,"is_disabled":false,"rental_uris":{"android":"levelo://app?vid=59cbeaea-0cef-429a-8f24-c50c21406242","ios":"levelo://app?vid=59cbeaea-0cef-429a-8f24-c50c21406242"},"vehicle_type_id":"4","last_reported":1736179847,"current_range_meters":24000,"station_id":"ce4bgj92rcd13ifvqbd0","pricing_plan_id":"cebpf4jnsgd1na2vs0mg"},{"bike_id":"00723653-7c6d-4430-afe1-970b8f38138c","system_id":"levelo_inurba_marseille","lat":43.28455,"lon":5.35886,"is_reserved":false,"is_disabled":false,"rental_uris":{"android":"levelo://app?vid=00723653-7c6d-4430-afe1-970b8f38138c","ios":"levelo://app?vid=00723653-7c6d-4430-afe1-970b8f38138c"},"vehicle_type_id":"4","last_reported":1736179847,"current_range_meters":18800,"station_id":"ce4bhah2rcd13ifvqei0","pricing_plan_id":"cebpf4jnsgd1na2vs0mg"},{"bike_id":"9669dc8c-1791-487a-9408-15fb0241bc54","system_id":"levelo_inurba_marseille","lat":43.31331,"lon":5.39686,"is_reserved":false,"is_disabled":false,"rental_uris":{"android":"levelo://app?vid=9669dc8c-1791-487a-9408-15fb0241bc54","ios":"levelo://app?vid=9669dc8c-1791-487a-9408-15fb0241bc54"},"vehicle_type_id":"4","last_reported":1736179847,"current_range_meters":32000,"station_id":"ce4bgvp2rcd13ifvqcu0","pricing_plan_id":"cebpf4jnsgd1na2vs0mg"},{"bike_id":"db973fb0-a7a7-419f-905d-9711a91dd280","system_id":"levelo_inurba_marseille","lat":43.25721,"lon":5.41106,"is_reserved":false,"is_disabled":true,"rental_uris":{"android":"levelo://app?vid=db973fb0-a7a7-419f-905d-9711a91dd280","ios":"levelo://app?vid=db973fb0-a7a7-419f-905d-9711a91dd280"},"vehicle_type_id":"4","last_reported":1736179847,"current_range_meters":38800,"station_id":"ce4bhkp2rcd13ifvqgd0","pricing_plan_id":"cebpf4jnsgd1na2vs0mg"},{"bike_id":"dbef11d5-dda6-4aa4-a588-fb01a26de98a","system_id":"levelo_inurba_marseille","lat":43.28415,"lon":5.34994,"is_reserved":false,"is_disabled":false,"rental_uris":{"android":"levelo://app?vid=dbef11d5-dda6-4aa4-a588-fb01a26de98a","ios":"levelo://app?vid=dbef11d5-dda6-4aa4-a588-fb01a26de98a"},"vehicle_type_id":"4","last_reported":1736179847,"current_range_meters":24000,"station_id":"ce4bhbh2rcd13ifvqepg","pricing_plan_id":"cebpf4jnsgd1na2vs0mg"},{"bike_id":"f8142e8a-f886-4c5e-b399-88d8fa1c1d32","system_id":"levelo_inurba_marseille","lat":43.24669,"lon":5.38175,"is_reserved":false,"is_disabled":false,"rental_uris":{"android":"levelo://app?vid=f8142e8a-f886-4c5e-b399-88d8fa1c1d32","ios":"levelo://app?vid=f8142e8a-f886-4c5e-b399-88d8fa1c1d32"},"vehicle_type_id":"4","last_reported":1736179847,"current_range_meters":22000,"station_id":"ce4bhih2rcd13ifvqfr0","pricing_plan_id":"cebpf4jnsgd1na2vs0mg"},{"bike_id":"04284143-2834-49a9-97bf-7ff57a2fbe0d","system_id":"levelo_inurba_marseille","lat":43.31324,"lon":5.39691,"is_reserved":false,"is_disabled":false,"rental_uris":{"android":"levelo://app?vid=04284143-2834-49a9-97bf-7ff57a2fbe0d","ios":"levelo://app?vid=04284143-2834-49a9-97bf-7ff57a2fbe0d"},"vehicle_type_id":"4","last_reported":1736179847,"current_range_meters":30800,"station_id":"ce4bgvp2rcd13ifvqcu0","pricing_plan_id":"cebpf4jnsgd1na2vs0mg"},{"bike_id":"3339d050-09a6-4aa9-9ed5-b1e4247a1a00","system_id":"levelo_inurba_marseille","lat":43.23961,"lon":5.36629,"is_reserved":false,"is_disabled":false,"rental_uris":{"android":"levelo://app?vid=3339d050-09a6-4aa9-9ed5-b1e4247a1a00","ios":"levelo://app?vid=3339d050-09a6-4aa9-9ed5-b1e4247a1a00"},"vehicle_type_id":"4","last_reported":1736179847,"current_range_meters":4000,"station_id":"ce4bhi12rcd13ifvqfp0","pricing_plan_id":"cebpf4jnsgd1na2vs0mg"},{"bike_id":"0a9c3f6d-1ee4-4242-ab1b-2fc933875b46","system_id":"levelo_inurba_marseille","lat":43.28463,"lon":5.35862,"is_reserved":false,"is_disabled":false,"rental_uris":{"android":"levelo://app?vid=0a9c3f6d-1ee4-4242-ab1b-2fc933875b46","ios":"levelo://app?vid=0a9c3f6d-1ee4-4242-ab1b-2fc933875b46"},"vehicle_type_id":"4","last_reported":1736179847,"current_range_meters":35200,"station_id":"ce4bhah2rcd13ifvqei0","pricing_plan_id":"cebpf4jnsgd1na2vs0mg"},{"bike_id":"70bfb69f-712e-40a7-9a70-88e082c6ca06","system_id":"levelo_inurba_marseille","lat":43.32263,"lon":5.38236,"is_reserved":false,"is_disabled":false,"rental_uris":{"android":"levelo://app?vid=70bfb69f-712e-40a7-9a70-88e082c6ca06","ios":"levelo://app?vid=70bfb69f-712e-40a7-9a70-88e082c6ca06"},"vehicle_type_id":"4","last_reported":1736179847,"current_range_meters":38800,"station_id":"ce4bhr12rcd13ifvqhqg","pricing_plan_id":"cebpf4jnsgd1na2vs0mg"},{"bike_id":"5a231d4e-1469-4389-a9bc-0d65fec09d5f","system_id":"levelo_inurba_marseille","lat":43.28323,"lon":5.43298,"is_reserved":false,"is_disabled":false,"rental_uris":{"android":"levelo://app?vid=5a231d4e-1469-4389-a9bc-0d65fec09d5f","ios":"levelo://app?vid=5a231d4e-1469-4389-a9bc-0d65fec09d5f"},"vehicle_type_id":"4","last_reported":1736179847,"current_range_meters":8800,"station_id":"","pricing_plan_id":"cebpf4jnsgd1na2vs0mg"},{"bike_id":"72ba6ce2-d9a3-485f-bbb7-84ccd2d299dc","system_id":"levelo_inurba_marseille","lat":43.2558,"lon":5.38235,"is_reserved":false,"is_disabled":false,"rental_uris":{"android":"levelo://app?vid=72ba6ce2-d9a3-485f-bbb7-84ccd2d299dc","ios":"levelo://app?vid=72ba6ce2-d9a3-485f-bbb7-84ccd2d299dc"},"vehicle_type_id":"4","last_reported":1736179847,"current_range_meters":20400,"station_id":"ce4bhih2rcd13ifvqfs0","pricing_plan_id":"cebpf4jnsgd1na2vs0mg"},{"bike_id":"bc9bb4d7-2fdc-4d34-b0a0-ed77a3035abd","system_id":"levelo_inurba_marseille","lat":43.31712,"lon":5.37782,"is_reserved":false,"is_disabled":false,"rental_uris":{"android":"levelo://app?vid=bc9bb4d7-2fdc-4d34-b0a0-ed77a3035abd","ios":"levelo://app?vid=bc9bb4d7-2fdc-4d34-b0a0-ed77a3035abd"},"vehicle_type_id":"4","last_reported":1736179847,"current_range_meters":2800,"station_id":"ce4bgth2rcd13ifvqch0","pricing_plan_id":"cebpf4jnsgd1na2vs0mg"},{"bike_id":"d3141903-e94b-45e4-9a5e-bb06fa870302","system_id":"levelo_inurba_marseille","lat":43.3026,"lon":5.40044,"is_reserved":false,"is_disabled":false,"rental_uris":{"android":"levelo://app?vid=d3141903-e94b-45e4-9a5e-bb06fa870302","ios":"levelo://app?vid=d3141903-e94b-45e4-9a5e-bb06fa870302"},"vehicle_type_id":"4","last_reported":1736179847,"current_range_meters":4400,"station_id":"ce4bgvh2rcd13ifvqcs0","pricing_plan_id":"cebpf4jnsgd1na2vs0mg"},{"bike_id":"7b78d5e2-5142-402d-a4f8-0f3037a6c533","system_id":"levelo_inurba_marseille","lat":43.26947,"lon":5.38619,"is_reserved":false,"is_disabled":true,"rental_uris":{"android":"levelo://app?vid=7b78d5e2-5142-402d-a4f8-0f3037a6c533","ios":"levelo://app?vid=7b78d5e2-5142-402d-a4f8-0f3037a6c533"},"vehicle_type_id":"4","last_reported":1736179847,"current_range_meters":36800,"station_id":"ce4bhh92rcd13ifvqfh0","pricing_plan_id":"cebpf4jnsgd1na2vs0mg"},{"bike_id":"9596718b-abf0-428f-a9e3-2b575480b322","system_id":"levelo_inurba_marseille","lat":43.29961,"lon":5.38485,"is_reserved":false,"is_disabled":false,"rental_uris":{"android":"levelo://app?vid=9596718b-abf0-428f-a9e3-2b575480b322","ios":"levelo://app?vid=9596718b-abf0-428f-a9e3-2b575480b322"},"vehicle_type_id":"4","last_reported":1736179847,"current_range_meters":6000,"station_id":"ce4bgj92rcd13ifvqbd0","pricing_plan_id":"cebpf4jnsgd1na2vs0mg"},{"bike_id":"8fb05e6a-092d-462e-85a2-61ef07bee838","system_id":"levelo_inurba_marseille","lat":43.281578,"lon":5.426388,"is_reserved":false,"is_disabled":false,"rental_uris":{"android":"levelo://app?vid=8fb05e6a-092d-462e-85a2-61ef07bee838","ios":"levelo://app?vid=8fb05e6a-092d-462e-85a2-61ef07bee838"},"vehicle_type_id":"4","last_reported":1736179847,"current_range_meters":25200,"station_id":"ce4bhnh2rcd13ifvqgug","pricing_plan_id":"cebpf4jnsgd1na2vs0mg"},{"bike_id":"d0d21930-fe1d-478b-8251-bcf89564599d","system_id":"levelo_inurba_marseille","lat":43.295509,"lon":5.422785,"is_reserved":false,"is_disabled":false,"rental_uris":{"android":"levelo://app?vid=d0d21930-fe1d-478b-8251-bcf89564599d","ios":"levelo://app?vid=d0d21930-fe1d-478b-8251-bcf89564599d"},"vehicle_type_id":"4","last_reported":1736179847,"current_range_meters":24000,"station_id":"ce4bhph2rcd13ifvqhdg","pricing_plan_id":"cebpf4jnsgd1na2vs0mg"},{"bike_id":"ccca37ed-42cb-4ce0-b130-ded03c6d0d90","system_id":"levelo_inurba_marseille","lat":43.31222,"lon":5.36891,"is_reserved":false,"is_disabled":false,"rental_uris":{"android":"levelo://app?vid=ccca37ed-42cb-4ce0-b130-ded03c6d0d90","ios":"levelo://app?vid=ccca37ed-42cb-4ce0-b130-ded03c6d0d90"},"vehicle_type_id":"4","last_reported":1736179847,"current_range_meters":24800,"station_id":"ce4bgl92rcd13ifvqbq0","pricing_plan_id":"cebpf4jnsgd1na2vs0mg"},{"bike_id":"f4b754db-0e7a-44b2-87e4-56f08e5aa731","system_id":"levelo_inurba_marseille","lat":43.29872,"lon":5.39761,"is_reserved":false,"is_disabled":false,"rental_uris":{"android":"levelo://app?vid=f4b754db-0e7a-44b2-87e4-56f08e5aa731","ios":"levelo://app?vid=f4b754db-0e7a-44b2-87e4-56f08e5aa731"},"vehicle_type_id":"4","last_reported":1736179847,"current_range_meters":16400,"station_id":"ce4bh0h2rcd13ifvqd50","pricing_plan_id":"cebpf4jnsgd1na2vs0mg"},{"bike_id":"79246dd0-4f0c-4574-bc3e-ae384b2d4072","system_id":"levelo_inurba_marseille","lat":43.26192,"lon":5.37452,"is_reserved":false,"is_disabled":false,"rental_uris":{"android":"levelo://app?vid=79246dd0-4f0c-4574-bc3e-ae384b2d4072","ios":"levelo://app?vid=79246dd0-4f0c-4574-bc3e-ae384b2d4072"},"vehicle_type_id":"4","last_reported":1736179847,"current_range_meters":31200,"station_id":"ce4bhgp2rcd13ifvqfc0","pricing_plan_id":"cebpf4jnsgd1na2vs0mg"},{"bike_id":"eafd231e-19c4-44bd-9970-9d22742fdca6","system_id":"levelo_inurba_marseille","lat":43.27684,"lon":5.38897,"is_reserved":false,"is_disabled":false,"rental_uris":{"android":"levelo://app?vid=eafd231e-19c4-44bd-9970-9d22742fdca6","ios":"levelo://app?vid=eafd231e-19c4-44bd-9970-9d22742fdca6"},"vehicle_type_id":"4","last_reported":1736179847,"current_range_meters":39200,"station_id":"ce4bhi12rcd13ifvqfo0","pricing_plan_id":"cebpf4jnsgd1na2vs0mg"},{"bike_id":"5cad4397-d7fe-427d-9b9c-8acb185fe024","system_id":"levelo_inurba_marseille","lat":43.250845,"lon":5.395231,"is_reserved":false,"is_disabled":false,"rental_uris":{"android":"levelo://app?vid=5cad4397-d7fe-427d-9b9c-8acb185fe024","ios":"levelo://app?vid=5cad4397-d7fe-427d-9b9c-8acb185fe024"},"vehicle_type_id":"4","last_reported":1736179847,"current_range_meters":38800,"station_id":"ce4bhm12rcd13ifvqgkg","pricing_plan_id":"cebpf4jnsgd1na2vs0mg"},{"bike_id":"21253e64-f320-409e-b311-0513ac1cb7e8","system_id":"levelo_inurba_marseille","lat":43.31704,"lon":5.37756,"is_reserved":false,"is_disabled":false,"rental_uris":{"android":"levelo://app?vid=21253e64-f320-409e-b311-0513ac1cb7e8","ios":"levelo://app?vid=21253e64-f320-409e-b311-0513ac1cb7e8"},"vehicle_type_id":"4","last_reported":1736179847,"current_range_meters":32400,"station_id":"ce4bgth2rcd13ifvqch0","pricing_plan_id":"cebpf4jnsgd1na2vs0mg"},{"bike_id":"a5484267-8df2-433f-b0b4-6d17ece69370","system_id":"levelo_inurba_marseille","lat":43.3024,"lon":5.40085,"is_reserved":false,"is_disabled":false,"rental_uris":{"android":"levelo://app?vid=a5484267-8df2-433f-b0b4-6d17ece69370","ios":"levelo://app?vid=a5484267-8df2-433f-b0b4-6d17ece69370"},"vehicle_type_id":"4","last_reported":1736179847,"current_range_meters":7200,"station_id":"ce4bgvh2rcd13ifvqcs0","pricing_plan_id":"cebpf4jnsgd1na2vs0mg"},{"bike_id":"8785ddf2-7225-4c15-a282-1f8baeace2a7","system_id":"levelo_inurba_marseille","lat":43.26063,"lon":5.394,"is_reserved":false,"is_disabled":false,"rental_uris":{"android":"levelo://app?vid=8785ddf2-7225-4c15-a282-1f8baeace2a7","ios":"levelo://app?vid=8785ddf2-7225-4c15-a282-1f8baeace2a7"},"vehicle_type_id":"4","last_reported":1736179847,"current_range_meters":22000,"station_id":"ce4bhh92rcd13ifvqfj0","pricing_plan_id":"cebpf4jnsgd1na2vs0mg"},{"bike_id":"4d7727df-ac8f-431e-a279-50fc8c6a1628","system_id":"levelo_inurba_marseille","lat":43.31519,"lon":5.37269,"is_reserved":false,"is_disabled":false,"rental_uris":{"android":"levelo://app?vid=4d7727df-ac8f-431e-a279-50fc8c6a1628","ios":"levelo://app?vid=4d7727df-ac8f-431e-a279-50fc8c6a1628"},"vehicle_type_id":"4","last_reported":1736179847,"current_range_meters":38800,"station_id":"","pricing_plan_id":"cebpf4jnsgd1na2vs0mg"},{"bike_id":"747f3461-8cfe-4d75-9871-b676cbfcfa12","system_id":"levelo_inurba_marseille","lat":43.28366,"lon":5.38637,"is_reserved":false,"is_disabled":false,"rental_uris":{"android":"levelo://app?vid=747f3461-8cfe-4d75-9871-b676cbfcfa12","ios":"levelo://app?vid=747f3461-8cfe-4d75-9871-b676cbfcfa12"},"vehicle_type_id":"4","last_reported":1736179847,"current_range_meters":39200,"station_id":"ce4bh492rcd13ifvqdvg","pricing_plan_id":"cebpf4jnsgd1na2vs0mg"},{"bike_id":"1715fbf8-d462-4357-80d4-4ba6f13000ac","system_id":"levelo_inurba_marseille","lat":43.29093,"lon":5.38124,"is_reserved":false,"is_disabled":false,"rental_uris":{"android":"levelo://app?vid=1715fbf8-d462-4357-80d4-4ba6f13000ac","ios":"levelo://app?vid=1715fbf8-d462-4357-80d4-4ba6f13000ac"},"vehicle_type_id":"4","last_reported":1736179847,"current_range_meters":31200,"station_id":"ce4bh512rcd13ifvqe2g","pricing_plan_id":"cebpf4jnsgd1na2vs0mg"},{"bike_id":"a464612e-405b-448d-980d-a2e9f7e99460","system_id":"levelo_inurba_marseille","lat":43.30259,"lon":5.4008,"is_reserved":false,"is_disabled":false,"rental_uris":{"android":"levelo://app?vid=a464612e-405b-448d-980d-a2e9f7e99460","ios":"levelo://app?vid=a464612e-405b-448d-980d-a2e9f7e99460"},"vehicle_type_id":"4","last_reported":1736179847,"current_range_meters":38400,"station_id":"ce4bgvh2rcd13ifvqcs0","pricing_plan_id":"cebpf4jnsgd1na2vs0mg"},{"bike_id":"18eda470-ba40-4d8b-b3b6-fa1352b431c0","system_id":"levelo_inurba_marseille","lat":43.30355,"lon":5.41857,"is_reserved":false,"is_disabled":false,"rental_uris":{"android":"levelo://app?vid=18eda470-ba40-4d8b-b3b6-fa1352b431c0","ios":"levelo://app?vid=18eda470-ba40-4d8b-b3b6-fa1352b431c0"},"vehicle_type_id":"4","last_reported":1736179847,"current_range_meters":27600,"station_id":"ce4bhop2rcd13ifvqh7g","pricing_plan_id":"cebpf4jnsgd1na2vs0mg"},{"bike_id":"ab8e6289-e51b-4fb2-bc15-28b673029b14","system_id":"levelo_inurba_marseille","lat":43.30319,"lon":5.40432,"is_reserved":false,"is_disabled":false,"rental_uris":{"android":"levelo://app?vid=ab8e6289-e51b-4fb2-bc15-28b673029b14","ios":"levelo://app?vid=ab8e6289-e51b-4fb2-bc15-28b673029b14"},"vehicle_type_id":"4","last_reported":1736179847,"current_range_meters":33600,"station_id":"ce4bh012rcd13ifvqd10","pricing_plan_id":"cebpf4jnsgd1na2vs0mg"},{"bike_id":"a2fad600-bcdc-4fe2-b5cf-418b8c47104e","system_id":"levelo_inurba_marseille","lat":43.24652,"lon":5.38892,"is_reserved":false,"is_disabled":false,"rental_uris":{"android":"levelo://app?vid=a2fad600-bcdc-4fe2-b5cf-418b8c47104e","ios":"levelo://app?vid=a2fad600-bcdc-4fe2-b5cf-418b8c47104e"},"vehicle_type_id":"4","last_reported":1736179847,"current_range_meters":28000,"station_id":"ce4bhg12rcd13ifvqf60","pricing_plan_id":"cebpf4jnsgd1na2vs0mg"},{"bike_id":"03e103e3-5075-4dd0-88ff-21ad5a89a520","system_id":"levelo_inurba_marseille","lat":43.25492,"lon":5.3765,"is_reserved":false,"is_disabled":false,"rental_uris":{"android":"levelo://app?vid=03e103e3-5075-4dd0-88ff-21ad5a89a520","ios":"levelo://app?vid=03e103e3-5075-4dd0-88ff-21ad5a89a520"},"vehicle_type_id":"4","last_reported":1736179847,"current_range_meters":25600,"station_id":"ce4bhh12rcd13ifvqff0","pricing_plan_id":"cebpf4jnsgd1na2vs0mg"},{"bike_id":"ef8b07f4-ee76-4b88-b7ec-0f67491fe1ff","system_id":"levelo_inurba_marseille","lat":43.25093,"lon":5.39502,"is_reserved":false,"is_disabled":false,"rental_uris":{"android":"levelo://app?vid=ef8b07f4-ee76-4b88-b7ec-0f67491fe1ff","ios":"levelo://app?vid=ef8b07f4-ee76-4b88-b7ec-0f67491fe1ff"},"vehicle_type_id":"4","last_reported":1736179847,"current_range_meters":38800,"station_id":"ce4bhm12rcd13ifvqgkg","pricing_plan_id":"cebpf4jnsgd1na2vs0mg"},{"bike_id":"2d4069a8-2e1f-4c49-a2ca-a013dccec575","system_id":"levelo_inurba_marseille","lat":43.32338,"lon":5.40622,"is_reserved":false,"is_disabled":false,"rental_uris":{"android":"levelo://app?vid=2d4069a8-2e1f-4c49-a2ca-a013dccec575","ios":"levelo://app?vid=2d4069a8-2e1f-4c49-a2ca-a013dccec575"},"vehicle_type_id":"4","last_reported":1736179847,"current_range_meters":36400,"station_id":"ce4bhq92rcd13ifvqhjg","pricing_plan_id":"cebpf4jnsgd1na2vs0mg"},{"bike_id":"6a595de3-0911-46a9-bdbf-4cca5437105e","system_id":"levelo_inurba_marseille","lat":43.23207,"lon":5.35526,"is_reserved":false,"is_disabled":false,"rental_uris":{"android":"levelo://app?vid=6a595de3-0911-46a9-bdbf-4cca5437105e","ios":"levelo://app?vid=6a595de3-0911-46a9-bdbf-4cca5437105e"},"vehicle_type_id":"4","last_reported":1736179847,"current_range_meters":20800,"station_id":"ce4bhu92rcd13ifvqi70","pricing_plan_id":"cebpf4jnsgd1na2vs0mg"},{"bike_id":"641d8acc-50b2-4173-ab23-c70f2a11d28e","system_id":"levelo_inurba_marseille","lat":43.28143,"lon":5.42614,"is_reserved":false,"is_disabled":true,"rental_uris":{"android":"levelo://app?vid=641d8acc-50b2-4173-ab23-c70f2a11d28e","ios":"levelo://app?vid=641d8acc-50b2-4173-ab23-c70f2a11d28e"},"vehicle_type_id":"4","last_reported":1736179847,"current_range_meters":27200,"station_id":"ce4bhnh2rcd13ifvqgug","pricing_plan_id":"cebpf4jnsgd1na2vs0mg"},{"bike_id":"84de9fbf-bd7a-4163-ae74-e3672ca59db4","system_id":"levelo_inurba_marseille","lat":43.29626,"lon":5.37157,"is_reserved":false,"is_disabled":false,"rental_uris":{"android":"levelo://app?vid=84de9fbf-bd7a-4163-ae74-e3672ca59db4","ios":"levelo://app?vid=84de9fbf-bd7a-4163-ae74-e3672ca59db4"},"vehicle_type_id":"4","last_reported":1736179847,"current_range_meters":27600,"station_id":"ce4bgnh2rcd13ifvqc0g","pricing_plan_id":"cebpf4jnsgd1na2vs0mg"},{"bike_id":"15e503f5-1d52-42d6-a98f-33a61fd8b554","system_id":"levelo_inurba_marseille","lat":43.28454,"lon":5.35901,"is_reserved":false,"is_disabled":true,"rental_uris":{"android":"levelo://app?vid=15e503f5-1d52-42d6-a98f-33a61fd8b554","ios":"levelo://app?vid=15e503f5-1d52-42d6-a98f-33a61fd8b554"},"vehicle_type_id":"4","last_reported":1736179847,"current_range_meters":21600,"station_id":"ce4bhah2rcd13ifvqei0","pricing_plan_id":"cebpf4jnsgd1na2vs0mg"},{"bike_id":"91311e8a-9196-42b4-a945-bf070bb189b7","system_id":"levelo_inurba_marseille","lat":43.31084,"lon":5.42432,"is_reserved":false,"is_disabled":false,"rental_uris":{"android":"levelo://app?vid=91311e8a-9196-42b4-a945-bf070bb189b7","ios":"levelo://app?vid=91311e8a-9196-42b4-a945-bf070bb189b7"},"vehicle_type_id":"4","last_reported":1736179847,"current_range_meters":20400,"station_id":"ce4bhp92rcd13ifvqhag","pricing_plan_id":"cebpf4jnsgd1na2vs0mg"},{"bike_id":"475c7906-5c1b-4837-8df1-12679ca4213e","system_id":"levelo_inurba_marseille","lat":43.27423,"lon":5.39417,"is_reserved":false,"is_disabled":false,"rental_uris":{"android":"levelo://app?vid=475c7906-5c1b-4837-8df1-12679ca4213e","ios":"levelo://app?vid=475c7906-5c1b-4837-8df1-12679ca4213e"},"vehicle_type_id":"4","last_reported":1736179847,"current_range_meters":18800,"station_id":"ce4bhdp2rcd13ifvqf20","pricing_plan_id":"cebpf4jnsgd1na2vs0mg"},{"bike_id":"88fbd2f9-edba-4674-927d-ce8a9c56a0e7","system_id":"levelo_inurba_marseille","lat":43.2813,"lon":5.42625,"is_reserved":false,"is_disabled":false,"rental_uris":{"android":"levelo://app?vid=88fbd2f9-edba-4674-927d-ce8a9c56a0e7","ios":"levelo://app?vid=88fbd2f9-edba-4674-927d-ce8a9c56a0e7"},"vehicle_type_id":"4","last_reported":1736179847,"current_range_meters":27600,"station_id":"ce4bhnh2rcd13ifvqgug","pricing_plan_id":"cebpf4jnsgd1na2vs0mg"},{"bike_id":"61a0e366-59dc-4344-9007-3379e8066fbb","system_id":"levelo_inurba_marseille","lat":43.30419,"lon":5.41278,"is_reserved":false,"is_disabled":false,"rental_uris":{"android":"levelo://app?vid=61a0e366-59dc-4344-9007-3379e8066fbb","ios":"levelo://app?vid=61a0e366-59dc-4344-9007-3379e8066fbb"},"vehicle_type_id":"4","last_reported":1736179847,"current_range_meters":38800,"station_id":"ce4bhop2rcd13ifvqh8g","pricing_plan_id":"cebpf4jnsgd1na2vs0mg"},{"bike_id":"c91420cb-3b23-4a0f-ac7b-178ddee4dd94","system_id":"levelo_inurba_marseille","lat":43.30604,"lon":5.37211,"is_reserved":false,"is_disabled":false,"rental_uris":{"android":"levelo://app?vid=c91420cb-3b23-4a0f-ac7b-178ddee4dd94","ios":"levelo://app?vid=c91420cb-3b23-4a0f-ac7b-178ddee4dd94"},"vehicle_type_id":"4","last_reported":1736179847,"current_range_meters":16800,"station_id":"ce4bgqh2rcd13ifvqc4g","pricing_plan_id":"cebpf4jnsgd1na2vs0mg"},{"bike_id":"ed579c87-36b9-42dd-a4d0-f6df3594cb7d","system_id":"levelo_inurba_marseille","lat":43.27369,"lon":5.36258,"is_reserved":false,"is_disabled":false,"rental_uris":{"android":"levelo://app?vid=ed579c87-36b9-42dd-a4d0-f6df3594cb7d","ios":"levelo://app?vid=ed579c87-36b9-42dd-a4d0-f6df3594cb7d"},"vehicle_type_id":"4","last_reported":1736179847,"current_range_meters":16800,"station_id":"ce4bhbh2rcd13ifvqeo0","pricing_plan_id":"cebpf4jnsgd1na2vs0mg"},{"bike_id":"237eb7a7-7331-4631-9377-6cdbdc6e4e98","system_id":"levelo_inurba_marseille","lat":43.26538,"lon":5.39021,"is_reserved":false,"is_disabled":true,"rental_uris":{"android":"levelo://app?vid=237eb7a7-7331-4631-9377-6cdbdc6e4e98","ios":"levelo://app?vid=237eb7a7-7331-4631-9377-6cdbdc6e4e98"},"vehicle_type_id":"4","last_reported":1736179847,"current_range_meters":35600,"station_id":"ce4bhe12rcd13ifvqf30","pricing_plan_id":"cebpf4jnsgd1na2vs0mg"},{"bike_id":"e5f98af8-0571-4a66-8fbd-fea359ab31f7","system_id":"levelo_inurba_marseille","lat":43.27056,"lon":5.40259,"is_reserved":false,"is_disabled":true,"rental_uris":{"android":"levelo://app?vid=e5f98af8-0571-4a66-8fbd-fea359ab31f7","ios":"levelo://app?vid=e5f98af8-0571-4a66-8fbd-fea359ab31f7"},"vehicle_type_id":"4","last_reported":1736179847,"current_range_meters":1200,"station_id":"ce4bhk92rcd13ifvqgc0","pricing_plan_id":"cebpf4jnsgd1na2vs0mg"},{"bike_id":"ad530e24-5ded-44eb-84fc-9badf36abc57","system_id":"levelo_inurba_marseille","lat":43.30087,"lon":5.39051,"is_reserved":false,"is_disabled":false,"rental_uris":{"android":"levelo://app?vid=ad530e24-5ded-44eb-84fc-9badf36abc57","ios":"levelo://app?vid=ad530e24-5ded-44eb-84fc-9badf36abc57"},"vehicle_type_id":"4","last_reported":1736179847,"current_range_meters":38400,"station_id":"ce4bh192rcd13ifvqdb0","pricing_plan_id":"cebpf4jnsgd1na2vs0mg"},{"bike_id":"f72bc202-65c3-48d4-84be-fd7cacb541fe","system_id":"levelo_inurba_marseille","lat":43.30593,"lon":5.39365,"is_reserved":false,"is_disabled":true,"rental_uris":{"android":"levelo://app?vid=f72bc202-65c3-48d4-84be-fd7cacb541fe","ios":"levelo://app?vid=f72bc202-65c3-48d4-84be-fd7cacb541fe"},"vehicle_type_id":"4","last_reported":1736179847,"current_range_meters":38000,"station_id":"ce4bh0p2rcd13ifvqd80","pricing_plan_id":"cebpf4jnsgd1na2vs0mg"},{"bike_id":"983a939f-0c90-4b41-8e07-1ba37a328643","system_id":"levelo_inurba_marseille","lat":43.24181,"lon":5.36404,"is_reserved":false,"is_disabled":false,"rental_uris":{"android":"levelo://app?vid=983a939f-0c90-4b41-8e07-1ba37a328643","ios":"levelo://app?vid=983a939f-0c90-4b41-8e07-1ba37a328643"},"vehicle_type_id":"4","last_reported":1736179847,"current_range_meters":15200,"station_id":"cpo36qri1sfpv3e86is0","pricing_plan_id":"cebpf4jnsgd1na2vs0mg"},{"bike_id":"66598c6d-17b8-4c5c-8a32-40fe324e52f3","system_id":"levelo_inurba_marseille","lat":43.31117,"lon":5.37772,"is_reserved":false,"is_disabled":true,"rental_uris":{"android":"levelo://app?vid=66598c6d-17b8-4c5c-8a32-40fe324e52f3","ios":"levelo://app?vid=66598c6d-17b8-4c5c-8a32-40fe324e52f3"},"vehicle_type_id":"4","last_reported":1736179847,"current_range_meters":32000,"station_id":"ce4bgt92rcd13ifvqcg0","pricing_plan_id":"cebpf4jnsgd1na2vs0mg"},{"bike_id":"20826b65-5ff0-4d0a-b7cd-bb903e1760ff","system_id":"levelo_inurba_marseille","lat":43.30243,"lon":5.40074,"is_reserved":false,"is_disabled":false,"rental_uris":{"android":"levelo://app?vid=20826b65-5ff0-4d0a-b7cd-bb903e1760ff","ios":"levelo://app?vid=20826b65-5ff0-4d0a-b7cd-bb903e1760ff"},"vehicle_type_id":"4","last_reported":1736179847,"current_range_meters":16400,"station_id":"ce4bgvh2rcd13ifvqcs0","pricing_plan_id":"cebpf4jnsgd1na2vs0mg"},{"bike_id":"dc80a52a-f2fa-4e2a-9e2a-b913aee07db6","system_id":"levelo_inurba_marseille","lat":43.31328,"lon":5.39704,"is_reserved":false,"is_disabled":false,"rental_uris":{"android":"levelo://app?vid=dc80a52a-f2fa-4e2a-9e2a-b913aee07db6","ios":"levelo://app?vid=dc80a52a-f2fa-4e2a-9e2a-b913aee07db6"},"vehicle_type_id":"4","last_reported":1736179847,"current_range_meters":39200,"station_id":"ce4bgvp2rcd13ifvqcu0","pricing_plan_id":"cebpf4jnsgd1na2vs0mg"},{"bike_id":"7162857b-97e9-48bf-beff-37d11268f5e3","system_id":"levelo_inurba_marseille","lat":43.294254,"lon":5.37403,"is_reserved":false,"is_disabled":false,"rental_uris":{"android":"levelo://app?vid=7162857b-97e9-48bf-beff-37d11268f5e3","ios":"levelo://app?vid=7162857b-97e9-48bf-beff-37d11268f5e3"},"vehicle_type_id":"4","last_reported":1736179847,"current_range_meters":9200,"station_id":"ce4bhb12rcd13ifvqem0","pricing_plan_id":"cebpf4jnsgd1na2vs0mg"},{"bike_id":"1bb28c03-a2da-4530-b4b9-75fdcfee2172","system_id":"levelo_inurba_marseille","lat":43.2828,"lon":5.40225,"is_reserved":false,"is_disabled":false,"rental_uris":{"android":"levelo://app?vid=1bb28c03-a2da-4530-b4b9-75fdcfee2172","ios":"levelo://app?vid=1bb28c03-a2da-4530-b4b9-75fdcfee2172"},"vehicle_type_id":"4","last_reported":1736179847,"current_range_meters":37600,"station_id":"ce4bh292rcd13ifvqdf0","pricing_plan_id":"cebpf4jnsgd1na2vs0mg"},{"bike_id":"cca2f7c7-45e7-4f8a-80d9-cffca2b70c93","system_id":"levelo_inurba_marseille","lat":43.26697,"lon":5.38246,"is_reserved":false,"is_disabled":true,"rental_uris":{"android":"levelo://app?vid=cca2f7c7-45e7-4f8a-80d9-cffca2b70c93","ios":"levelo://app?vid=cca2f7c7-45e7-4f8a-80d9-cffca2b70c93"},"vehicle_type_id":"4","last_reported":1736179847,"current_range_meters":36000,"station_id":"ce4bhg92rcd13ifvqf90","pricing_plan_id":"cebpf4jnsgd1na2vs0mg"},{"bike_id":"8788ad0b-5fbe-42aa-9647-16ddfbec9d31","system_id":"levelo_inurba_marseille","lat":43.28455,"lon":5.3589,"is_reserved":false,"is_disabled":true,"rental_uris":{"android":"levelo://app?vid=8788ad0b-5fbe-42aa-9647-16ddfbec9d31","ios":"levelo://app?vid=8788ad0b-5fbe-42aa-9647-16ddfbec9d31"},"vehicle_type_id":"4","last_reported":1736179847,"current_range_meters":400,"station_id":"ce4bhah2rcd13ifvqei0","pricing_plan_id":"cebpf4jnsgd1na2vs0mg"},{"bike_id":"1743ab96-959d-4291-b001-42800e81e10c","system_id":"levelo_inurba_marseille","lat":43.3014,"lon":5.37404,"is_reserved":false,"is_disabled":false,"rental_uris":{"android":"levelo://app?vid=1743ab96-959d-4291-b001-42800e81e10c","ios":"levelo://app?vid=1743ab96-959d-4291-b001-42800e81e10c"},"vehicle_type_id":"4","last_reported":1736179847,"current_range_meters":36000,"station_id":"ce4bgs92rcd13ifvqcc0","pricing_plan_id":"cebpf4jnsgd1na2vs0mg"},{"bike_id":"51f7ef40-fb4b-4f6b-95b4-c8ac85a80932","system_id":"levelo_inurba_marseille","lat":43.25081,"lon":5.39512,"is_reserved":false,"is_disabled":false,"rental_uris":{"android":"levelo://app?vid=51f7ef40-fb4b-4f6b-95b4-c8ac85a80932","ios":"levelo://app?vid=51f7ef40-fb4b-4f6b-95b4-c8ac85a80932"},"vehicle_type_id":"4","last_reported":1736179847,"current_range_meters":32800,"station_id":"ce4bhm12rcd13ifvqgkg","pricing_plan_id":"cebpf4jnsgd1na2vs0mg"},{"bike_id":"0a967f6d-fd0e-4773-80c2-1aa9d073824b","system_id":"levelo_inurba_marseille","lat":43.25324,"lon":5.39453,"is_reserved":false,"is_disabled":false,"rental_uris":{"android":"levelo://app?vid=0a967f6d-fd0e-4773-80c2-1aa9d073824b","ios":"levelo://app?vid=0a967f6d-fd0e-4773-80c2-1aa9d073824b"},"vehicle_type_id":"4","last_reported":1736179847,"current_range_meters":33200,"station_id":"ce4bhm12rcd13ifvqgkg","pricing_plan_id":"cebpf4jnsgd1na2vs0mg"},{"bike_id":"182c8827-ad8b-4aa6-9862-5b2da55309dc","system_id":"levelo_inurba_marseille","lat":43.29212,"lon":5.36024,"is_reserved":false,"is_disabled":false,"rental_uris":{"android":"levelo://app?vid=182c8827-ad8b-4aa6-9862-5b2da55309dc","ios":"levelo://app?vid=182c8827-ad8b-4aa6-9862-5b2da55309dc"},"vehicle_type_id":"4","last_reported":1736179847,"current_range_meters":35600,"station_id":"ce4bhbh2rcd13ifvqeqg","pricing_plan_id":"cebpf4jnsgd1na2vs0mg"},{"bike_id":"0386d4fc-32df-4aa8-b977-72a1d44d1123","system_id":"levelo_inurba_marseille","lat":43.28037,"lon":5.36949,"is_reserved":false,"is_disabled":false,"rental_uris":{"android":"levelo://app?vid=0386d4fc-32df-4aa8-b977-72a1d44d1123","ios":"levelo://app?vid=0386d4fc-32df-4aa8-b977-72a1d44d1123"},"vehicle_type_id":"4","last_reported":1736179847,"current_range_meters":32800,"station_id":"ce4bha12rcd13ifvqef0","pricing_plan_id":"cebpf4jnsgd1na2vs0mg"},{"bike_id":"a7471de7-084b-4a75-a689-a2ad35fe5bb2","system_id":"levelo_inurba_marseille","lat":43.27569,"lon":5.38428,"is_reserved":false,"is_disabled":false,"rental_uris":{"android":"levelo://app?vid=a7471de7-084b-4a75-a689-a2ad35fe5bb2","ios":"levelo://app?vid=a7471de7-084b-4a75-a689-a2ad35fe5bb2"},"vehicle_type_id":"4","last_reported":1736179847,"current_range_meters":34800,"station_id":"ce4bhh92rcd13ifvqfi0","pricing_plan_id":"cebpf4jnsgd1na2vs0mg"},{"bike_id":"865a75ae-d1fe-49dc-a6a2-eeaee7d48b3c","system_id":"levelo_inurba_marseille","lat":43.31166,"lon":5.38724,"is_reserved":false,"is_disabled":false,"rental_uris":{"android":"levelo://app?vid=865a75ae-d1fe-49dc-a6a2-eeaee7d48b3c","ios":"levelo://app?vid=865a75ae-d1fe-49dc-a6a2-eeaee7d48b3c"},"vehicle_type_id":"4","last_reported":1736179847,"current_range_meters":38800,"station_id":"ce4bgv12rcd13ifvqcp0","pricing_plan_id":"cebpf4jnsgd1na2vs0mg"},{"bike_id":"5ae5e8bc-3e5d-44b3-b3b3-d5eaed6a0f9f","system_id":"levelo_inurba_marseille","lat":43.25583,"lon":5.3821,"is_reserved":false,"is_disabled":false,"rental_uris":{"android":"levelo://app?vid=5ae5e8bc-3e5d-44b3-b3b3-d5eaed6a0f9f","ios":"levelo://app?vid=5ae5e8bc-3e5d-44b3-b3b3-d5eaed6a0f9f"},"vehicle_type_id":"4","last_reported":1736179847,"current_range_meters":38800,"station_id":"ce4bhih2rcd13ifvqfs0","pricing_plan_id":"cebpf4jnsgd1na2vs0mg"},{"bike_id":"fb7c89ec-bb55-48e5-b276-5d5c88ab7648","system_id":"levelo_inurba_marseille","lat":43.27071,"lon":5.42271,"is_reserved":false,"is_disabled":false,"rental_uris":{"android":"levelo://app?vid=fb7c89ec-bb55-48e5-b276-5d5c88ab7648","ios":"levelo://app?vid=fb7c89ec-bb55-48e5-b276-5d5c88ab7648"},"vehicle_type_id":"4","last_reported":1736179847,"current_range_meters":19600,"station_id":"ce4bhk92rcd13ifvqgb0","pricing_plan_id":"cebpf4jnsgd1na2vs0mg"},{"bike_id":"a654bcd9-87ff-4423-9dec-90165872ac51","system_id":"levelo_inurba_marseille","lat":43.25496,"lon":5.37649,"is_reserved":false,"is_disabled":true,"rental_uris":{"android":"levelo://app?vid=a654bcd9-87ff-4423-9dec-90165872ac51","ios":"levelo://app?vid=a654bcd9-87ff-4423-9dec-90165872ac51"},"vehicle_type_id":"4","last_reported":1736179847,"current_range_meters":800,"station_id":"ce4bhh12rcd13ifvqff0","pricing_plan_id":"cebpf4jnsgd1na2vs0mg"},{"bike_id":"69b556b4-bc3d-4ef4-bb4b-65a2e6427433","system_id":"levelo_inurba_marseille","lat":43.28458,"lon":5.35884,"is_reserved":false,"is_disabled":false,"rental_uris":{"android":"levelo://app?vid=69b556b4-bc3d-4ef4-bb4b-65a2e6427433","ios":"levelo://app?vid=69b556b4-bc3d-4ef4-bb4b-65a2e6427433"},"vehicle_type_id":"4","last_reported":1736179847,"current_range_meters":37600,"station_id":"ce4bhah2rcd13ifvqei0","pricing_plan_id":"cebpf4jnsgd1na2vs0mg"},{"bike_id":"041f8815-0a22-448d-9741-71537ad972c7","system_id":"levelo_inurba_marseille","lat":43.26511,"lon":5.39534,"is_reserved":false,"is_disabled":false,"rental_uris":{"android":"levelo://app?vid=041f8815-0a22-448d-9741-71537ad972c7","ios":"levelo://app?vid=041f8815-0a22-448d-9741-71537ad972c7"},"vehicle_type_id":"4","last_reported":1736179847,"current_range_meters":36800,"station_id":"ce4bhi12rcd13ifvqfq0","pricing_plan_id":"cebpf4jnsgd1na2vs0mg"},{"bike_id":"36af314e-7345-4ecf-8072-f8e1552d0cef","system_id":"levelo_inurba_marseille","lat":43.29265,"lon":5.38425,"is_reserved":false,"is_disabled":false,"rental_uris":{"android":"levelo://app?vid=36af314e-7345-4ecf-8072-f8e1552d0cef","ios":"levelo://app?vid=36af314e-7345-4ecf-8072-f8e1552d0cef"},"vehicle_type_id":"4","last_reported":1736179847,"current_range_meters":23200,"station_id":"ce4bh692rcd13ifvqea0","pricing_plan_id":"cebpf4jnsgd1na2vs0mg"},{"bike_id":"583935a9-66ac-4274-8425-07ab27dfb415","system_id":"levelo_inurba_marseille","lat":43.29633,"lon":5.37161,"is_reserved":false,"is_disabled":false,"rental_uris":{"android":"levelo://app?vid=583935a9-66ac-4274-8425-07ab27dfb415","ios":"levelo://app?vid=583935a9-66ac-4274-8425-07ab27dfb415"},"vehicle_type_id":"4","last_reported":1736179847,"current_range_meters":35600,"station_id":"ce4bgnh2rcd13ifvqc0g","pricing_plan_id":"cebpf4jnsgd1na2vs0mg"},{"bike_id":"24bccac7-1e4b-45e8-bc23-0feeff5509f0","system_id":"levelo_inurba_marseille","lat":43.26499,"lon":5.39533,"is_reserved":false,"is_disabled":true,"rental_uris":{"android":"levelo://app?vid=24bccac7-1e4b-45e8-bc23-0feeff5509f0","ios":"levelo://app?vid=24bccac7-1e4b-45e8-bc23-0feeff5509f0"},"vehicle_type_id":"4","last_reported":1736179847,"current_range_meters":0,"station_id":"ce4bhi12rcd13ifvqfq0","pricing_plan_id":"cebpf4jnsgd1na2vs0mg"},{"bike_id":"534b3624-3ea7-4996-bbfe-fee592ccc4c4","system_id":"levelo_inurba_marseille","lat":43.29803,"lon":5.38089,"is_reserved":false,"is_disabled":false,"rental_uris":{"android":"levelo://app?vid=534b3624-3ea7-4996-bbfe-fee592ccc4c4","ios":"levelo://app?vid=534b3624-3ea7-4996-bbfe-fee592ccc4c4"},"vehicle_type_id":"4","last_reported":1736179847,"current_range_meters":33200,"station_id":"ce4bgip2rcd13ifvqbb0","pricing_plan_id":"cebpf4jnsgd1na2vs0mg"},{"bike_id":"7082a147-72ba-427b-b7d0-01f4c79523c2","system_id":"levelo_inurba_marseille","lat":43.33257,"lon":5.35895,"is_reserved":false,"is_disabled":false,"rental_uris":{"android":"levelo://app?vid=7082a147-72ba-427b-b7d0-01f4c79523c2","ios":"levelo://app?vid=7082a147-72ba-427b-b7d0-01f4c79523c2"},"vehicle_type_id":"4","last_reported":1736179847,"current_range_meters":20000,"station_id":"","pricing_plan_id":"cebpf4jnsgd1na2vs0mg"},{"bike_id":"bef25d87-17c3-4f54-a3dc-254250067e65","system_id":"levelo_inurba_marseille","lat":43.26577,"lon":5.39012,"is_reserved":false,"is_disabled":false,"rental_uris":{"android":"levelo://app?vid=bef25d87-17c3-4f54-a3dc-254250067e65","ios":"levelo://app?vid=bef25d87-17c3-4f54-a3dc-254250067e65"},"vehicle_type_id":"4","last_reported":1736179847,"current_range_meters":9600,"station_id":"ce4bhe12rcd13ifvqf30","pricing_plan_id":"cebpf4jnsgd1na2vs0mg"},{"bike_id":"7e002570-9c3e-4fa9-9750-748c4cbbad84","system_id":"levelo_inurba_marseille","lat":43.29733,"lon":5.37684,"is_reserved":false,"is_disabled":false,"rental_uris":{"android":"levelo://app?vid=7e002570-9c3e-4fa9-9750-748c4cbbad84","ios":"levelo://app?vid=7e002570-9c3e-4fa9-9750-748c4cbbad84"},"vehicle_type_id":"4","last_reported":1736179847,"current_range_meters":39200,"station_id":"ce4bgkh2rcd13ifvqbl0","pricing_plan_id":"cebpf4jnsgd1na2vs0mg"},{"bike_id":"ab62ff0d-1a7a-45cf-9d99-99d7da9e0b58","system_id":"levelo_inurba_marseille","lat":43.29887,"lon":5.36325,"is_reserved":false,"is_disabled":false,"rental_uris":{"android":"levelo://app?vid=ab62ff0d-1a7a-45cf-9d99-99d7da9e0b58","ios":"levelo://app?vid=ab62ff0d-1a7a-45cf-9d99-99d7da9e0b58"},"vehicle_type_id":"4","last_reported":1736179847,"current_range_meters":34800,"station_id":"","pricing_plan_id":"cebpf4jnsgd1na2vs0mg"},{"bike_id":"9ae4bc54-424f-45a8-8da2-901af7214741","system_id":"levelo_inurba_marseille","lat":43.27061,"lon":5.42258,"is_reserved":false,"is_disabled":false,"rental_uris":{"android":"levelo://app?vid=9ae4bc54-424f-45a8-8da2-901af7214741","ios":"levelo://app?vid=9ae4bc54-424f-45a8-8da2-901af7214741"},"vehicle_type_id":"4","last_reported":1736179847,"current_range_meters":18800,"station_id":"ce4bhk92rcd13ifvqgb0","pricing_plan_id":"cebpf4jnsgd1na2vs0mg"},{"bike_id":"d45d0089-5e8c-41ac-a04c-9866c8dc94cc","system_id":"levelo_inurba_marseille","lat":43.23198,"lon":5.35543,"is_reserved":false,"is_disabled":false,"rental_uris":{"android":"levelo://app?vid=d45d0089-5e8c-41ac-a04c-9866c8dc94cc","ios":"levelo://app?vid=d45d0089-5e8c-41ac-a04c-9866c8dc94cc"},"vehicle_type_id":"4","last_reported":1736179847,"current_range_meters":7200,"station_id":"ce4bhu92rcd13ifvqi70","pricing_plan_id":"cebpf4jnsgd1na2vs0mg"},{"bike_id":"f3526378-088b-4009-977f-9d1196175369","system_id":"levelo_inurba_marseille","lat":43.28039,"lon":5.36947,"is_reserved":false,"is_disabled":false,"rental_uris":{"android":"levelo://app?vid=f3526378-088b-4009-977f-9d1196175369","ios":"levelo://app?vid=f3526378-088b-4009-977f-9d1196175369"},"vehicle_type_id":"4","last_reported":1736179847,"current_range_meters":38800,"station_id":"ce4bha12rcd13ifvqef0","pricing_plan_id":"cebpf4jnsgd1na2vs0mg"},{"bike_id":"b5de95e0-8f34-41aa-a5fc-c4e76e03a994","system_id":"levelo_inurba_marseille","lat":43.28082,"lon":5.3967,"is_reserved":false,"is_disabled":true,"rental_uris":{"android":"levelo://app?vid=b5de95e0-8f34-41aa-a5fc-c4e76e03a994","ios":"levelo://app?vid=b5de95e0-8f34-41aa-a5fc-c4e76e03a994"},"vehicle_type_id":"4","last_reported":1736179847,"current_range_meters":27200,"station_id":"ce4bho12rcd13ifvqh2g","pricing_plan_id":"cebpf4jnsgd1na2vs0mg"},{"bike_id":"aa33a53e-f806-43a8-ad7e-8e2bd9644426","system_id":"levelo_inurba_marseille","lat":43.32345,"lon":5.40629,"is_reserved":false,"is_disabled":true,"rental_uris":{"android":"levelo://app?vid=aa33a53e-f806-43a8-ad7e-8e2bd9644426","ios":"levelo://app?vid=aa33a53e-f806-43a8-ad7e-8e2bd9644426"},"vehicle_type_id":"4","last_reported":1736179847,"current_range_meters":0,"station_id":"ce4bhq92rcd13ifvqhjg","pricing_plan_id":"cebpf4jnsgd1na2vs0mg"},{"bike_id":"6d1d397b-1776-44d9-95c4-b65da798f285","system_id":"levelo_inurba_marseille","lat":43.32007,"lon":5.38145,"is_reserved":false,"is_disabled":false,"rental_uris":{"android":"levelo://app?vid=6d1d397b-1776-44d9-95c4-b65da798f285","ios":"levelo://app?vid=6d1d397b-1776-44d9-95c4-b65da798f285"},"vehicle_type_id":"4","last_reported":1736179847,"current_range_meters":18000,"station_id":"ce4bhr12rcd13ifvqhpg","pricing_plan_id":"cebpf4jnsgd1na2vs0mg"},{"bike_id":"c41d0ba6-c785-4773-bdce-9417d0b449d4","system_id":"levelo_inurba_marseille","lat":43.27881,"lon":5.38004,"is_reserved":false,"is_disabled":false,"rental_uris":{"android":"levelo://app?vid=c41d0ba6-c785-4773-bdce-9417d0b449d4","ios":"levelo://app?vid=c41d0ba6-c785-4773-bdce-9417d0b449d4"},"vehicle_type_id":"4","last_reported":1736179847,"current_range_meters":39200,"station_id":"ce4bhf92rcd13ifvqf50","pricing_plan_id":"cebpf4jnsgd1na2vs0mg"},{"bike_id":"8df41abf-ed14-4589-9867-b5613d43a037","system_id":"levelo_inurba_marseille","lat":43.32492,"lon":5.36554,"is_reserved":false,"is_disabled":false,"rental_uris":{"android":"levelo://app?vid=8df41abf-ed14-4589-9867-b5613d43a037","ios":"levelo://app?vid=8df41abf-ed14-4589-9867-b5613d43a037"},"vehicle_type_id":"4","last_reported":1736179847,"current_range_meters":37600,"station_id":"ce4bhs12rcd13ifvqhvg","pricing_plan_id":"cebpf4jnsgd1na2vs0mg"},{"bike_id":"72aa27b6-580e-44c5-9bd2-168553fdc64a","system_id":"levelo_inurba_marseille","lat":43.29023,"lon":5.37588,"is_reserved":false,"is_disabled":true,"rental_uris":{"android":"levelo://app?vid=72aa27b6-580e-44c5-9bd2-168553fdc64a","ios":"levelo://app?vid=72aa27b6-580e-44c5-9bd2-168553fdc64a"},"vehicle_type_id":"4","last_reported":1736179847,"current_range_meters":4000,"station_id":"ce4bh692rcd13ifvqe90","pricing_plan_id":"cebpf4jnsgd1na2vs0mg"},{"bike_id":"7fcb071a-b87a-4373-aa79-3352ec4b751c","system_id":"levelo_inurba_marseille","lat":43.26549,"lon":5.3729,"is_reserved":false,"is_disabled":false,"rental_uris":{"android":"levelo://app?vid=7fcb071a-b87a-4373-aa79-3352ec4b751c","ios":"levelo://app?vid=7fcb071a-b87a-4373-aa79-3352ec4b751c"},"vehicle_type_id":"4","last_reported":1736179847,"current_range_meters":15200,"station_id":"ce4bhg12rcd13ifvqf70","pricing_plan_id":"cebpf4jnsgd1na2vs0mg"},{"bike_id":"cc391db6-73fa-43d8-af17-7cff3bb71989","system_id":"levelo_inurba_marseille","lat":43.29546,"lon":5.42278,"is_reserved":false,"is_disabled":false,"rental_uris":{"android":"levelo://app?vid=cc391db6-73fa-43d8-af17-7cff3bb71989","ios":"levelo://app?vid=cc391db6-73fa-43d8-af17-7cff3bb71989"},"vehicle_type_id":"4","last_reported":1736179847,"current_range_meters":16400,"station_id":"ce4bhph2rcd13ifvqhdg","pricing_plan_id":"cebpf4jnsgd1na2vs0mg"},{"bike_id":"a38b5223-6379-4cf3-bfa2-6106403e3200","system_id":"levelo_inurba_marseille","lat":43.29181,"lon":5.39323,"is_reserved":false,"is_disabled":false,"rental_uris":{"android":"levelo://app?vid=a38b5223-6379-4cf3-bfa2-6106403e3200","ios":"levelo://app?vid=a38b5223-6379-4cf3-bfa2-6106403e3200"},"vehicle_type_id":"4","last_reported":1736179847,"current_range_meters":39200,"station_id":"ce4bh192rcd13ifvqdd0","pricing_plan_id":"cebpf4jnsgd1na2vs0mg"},{"bike_id":"d0541b38-8e7e-4e1e-8666-5868b43eb4cc","system_id":"levelo_inurba_marseille","lat":43.25104,"lon":5.40325,"is_reserved":false,"is_disabled":false,"rental_uris":{"android":"levelo://app?vid=d0541b38-8e7e-4e1e-8666-5868b43eb4cc","ios":"levelo://app?vid=d0541b38-8e7e-4e1e-8666-5868b43eb4cc"},"vehicle_type_id":"4","last_reported":1736179847,"current_range_meters":38000,"station_id":"ce4bhlh2rcd13ifvqgig","pricing_plan_id":"cebpf4jnsgd1na2vs0mg"},{"bike_id":"e80c4447-7567-4beb-b8f2-9a99e5a9fcea","system_id":"levelo_inurba_marseille","lat":43.24064,"lon":5.37758,"is_reserved":false,"is_disabled":true,"rental_uris":{"android":"levelo://app?vid=e80c4447-7567-4beb-b8f2-9a99e5a9fcea","ios":"levelo://app?vid=e80c4447-7567-4beb-b8f2-9a99e5a9fcea"},"vehicle_type_id":"4","last_reported":1736179847,"current_range_meters":2000,"station_id":"ce4bhnp2rcd13ifvqgvg","pricing_plan_id":"cebpf4jnsgd1na2vs0mg"},{"bike_id":"8c935c29-bdd7-4656-85bc-58bc26f1ce0f","system_id":"levelo_inurba_marseille","lat":43.29632,"lon":5.37693,"is_reserved":false,"is_disabled":false,"rental_uris":{"android":"levelo://app?vid=8c935c29-bdd7-4656-85bc-58bc26f1ce0f","ios":"levelo://app?vid=8c935c29-bdd7-4656-85bc-58bc26f1ce0f"},"vehicle_type_id":"4","last_reported":1736179847,"current_range_meters":28000,"station_id":"ce4bgi92rcd13ifvqb90","pricing_plan_id":"cebpf4jnsgd1na2vs0mg"},{"bike_id":"0ecdae0f-93d6-4a39-a5db-faf0dc718d4f","system_id":"levelo_inurba_marseille","lat":43.31708,"lon":5.37757,"is_reserved":false,"is_disabled":false,"rental_uris":{"android":"levelo://app?vid=0ecdae0f-93d6-4a39-a5db-faf0dc718d4f","ios":"levelo://app?vid=0ecdae0f-93d6-4a39-a5db-faf0dc718d4f"},"vehicle_type_id":"4","last_reported":1736179847,"current_range_meters":35200,"station_id":"ce4bgth2rcd13ifvqch0","pricing_plan_id":"cebpf4jnsgd1na2vs0mg"},{"bike_id":"e58034d3-a319-4a36-a89c-5f7e9f1908f9","system_id":"levelo_inurba_marseille","lat":43.27664,"lon":5.38884,"is_reserved":false,"is_disabled":false,"rental_uris":{"android":"levelo://app?vid=e58034d3-a319-4a36-a89c-5f7e9f1908f9","ios":"levelo://app?vid=e58034d3-a319-4a36-a89c-5f7e9f1908f9"},"vehicle_type_id":"4","last_reported":1736179847,"current_range_meters":35600,"station_id":"ce4bhi12rcd13ifvqfo0","pricing_plan_id":"cebpf4jnsgd1na2vs0mg"},{"bike_id":"8a474426-cd46-4cf8-9edc-ef843a0ca02e","system_id":"levelo_inurba_marseille","lat":43.26531,"lon":5.39065,"is_reserved":false,"is_disabled":true,"rental_uris":{"android":"levelo://app?vid=8a474426-cd46-4cf8-9edc-ef843a0ca02e","ios":"levelo://app?vid=8a474426-cd46-4cf8-9edc-ef843a0ca02e"},"vehicle_type_id":"4","last_reported":1736179847,"current_range_meters":33600,"station_id":"","pricing_plan_id":"cebpf4jnsgd1na2vs0mg"},{"bike_id":"b8e8befc-076e-4a84-a746-24b09895b81b","system_id":"levelo_inurba_marseille","lat":43.25587,"lon":5.38217,"is_reserved":false,"is_disabled":false,"rental_uris":{"android":"levelo://app?vid=b8e8befc-076e-4a84-a746-24b09895b81b","ios":"levelo://app?vid=b8e8befc-076e-4a84-a746-24b09895b81b"},"vehicle_type_id":"4","last_reported":1736179847,"current_range_meters":36800,"station_id":"ce4bhih2rcd13ifvqfs0","pricing_plan_id":"cebpf4jnsgd1na2vs0mg"},{"bike_id":"bbf998ea-d252-4590-8711-16d78ff4b07c","system_id":"levelo_inurba_marseille","lat":43.24645,"lon":5.38876,"is_reserved":false,"is_disabled":false,"rental_uris":{"android":"levelo://app?vid=bbf998ea-d252-4590-8711-16d78ff4b07c","ios":"levelo://app?vid=bbf998ea-d252-4590-8711-16d78ff4b07c"},"vehicle_type_id":"4","last_reported":1736179847,"current_range_meters":29600,"station_id":"ce4bhg12rcd13ifvqf60","pricing_plan_id":"cebpf4jnsgd1na2vs0mg"},{"bike_id":"3d176b4b-21bc-48ee-9cea-c89950c2982f","system_id":"levelo_inurba_marseille","lat":43.27998,"lon":5.41664,"is_reserved":false,"is_disabled":false,"rental_uris":{"android":"levelo://app?vid=3d176b4b-21bc-48ee-9cea-c89950c2982f","ios":"levelo://app?vid=3d176b4b-21bc-48ee-9cea-c89950c2982f"},"vehicle_type_id":"4","last_reported":1736179847,"current_range_meters":36000,"station_id":"ce4bho12rcd13ifvqh1g","pricing_plan_id":"cebpf4jnsgd1na2vs0mg"},{"bike_id":"86931e0c-5dc5-4ead-bea6-174b9910bbee","system_id":"levelo_inurba_marseille","lat":43.31201,"lon":5.36858,"is_reserved":false,"is_disabled":false,"rental_uris":{"android":"levelo://app?vid=86931e0c-5dc5-4ead-bea6-174b9910bbee","ios":"levelo://app?vid=86931e0c-5dc5-4ead-bea6-174b9910bbee"},"vehicle_type_id":"4","last_reported":1736179847,"current_range_meters":5600,"station_id":"ce4bgl92rcd13ifvqbq0","pricing_plan_id":"cebpf4jnsgd1na2vs0mg"},{"bike_id":"763d809c-6cc4-4a2c-82d5-6735fde15a10","system_id":"levelo_inurba_marseille","lat":43.29414,"lon":5.38619,"is_reserved":false,"is_disabled":false,"rental_uris":{"android":"levelo://app?vid=763d809c-6cc4-4a2c-82d5-6735fde15a10","ios":"levelo://app?vid=763d809c-6cc4-4a2c-82d5-6735fde15a10"},"vehicle_type_id":"4","last_reported":1736179847,"current_range_meters":32000,"station_id":"ce4bh2h2rcd13ifvqdh0","pricing_plan_id":"cebpf4jnsgd1na2vs0mg"},{"bike_id":"8a55e93e-20cd-4325-86ca-0d586d6479ce","system_id":"levelo_inurba_marseille","lat":43.32554,"lon":5.4144,"is_reserved":false,"is_disabled":false,"rental_uris":{"android":"levelo://app?vid=8a55e93e-20cd-4325-86ca-0d586d6479ce","ios":"levelo://app?vid=8a55e93e-20cd-4325-86ca-0d586d6479ce"},"vehicle_type_id":"4","last_reported":1736179847,"current_range_meters":38800,"station_id":"ce4bhq12rcd13ifvqhhg","pricing_plan_id":"cebpf4jnsgd1na2vs0mg"},{"bike_id":"f5a4a49b-f269-4ec2-b80a-e579bf67a966","system_id":"levelo_inurba_marseille","lat":43.295219,"lon":5.361514,"is_reserved":false,"is_disabled":true,"rental_uris":{"android":"levelo://app?vid=f5a4a49b-f269-4ec2-b80a-e579bf67a966","ios":"levelo://app?vid=f5a4a49b-f269-4ec2-b80a-e579bf67a966"},"vehicle_type_id":"4","last_reported":1736179847,"current_range_meters":30000,"station_id":"","pricing_plan_id":"cebpf4jnsgd1na2vs0mg"},{"bike_id":"664044e6-e824-440a-a874-8e818a3a1b1b","system_id":"levelo_inurba_marseille","lat":43.28568,"lon":5.39499,"is_reserved":false,"is_disabled":true,"rental_uris":{"android":"levelo://app?vid=664044e6-e824-440a-a874-8e818a3a1b1b","ios":"levelo://app?vid=664044e6-e824-440a-a874-8e818a3a1b1b"},"vehicle_type_id":"4","last_reported":1736179847,"current_range_meters":38000,"station_id":"ce4bh292rcd13ifvqdg0","pricing_plan_id":"cebpf4jnsgd1na2vs0mg"},{"bike_id":"6f78dd3b-371a-43cc-b108-6bbc6a567b57","system_id":"levelo_inurba_marseille","lat":43.29631,"lon":5.37153,"is_reserved":false,"is_disabled":false,"rental_uris":{"android":"levelo://app?vid=6f78dd3b-371a-43cc-b108-6bbc6a567b57","ios":"levelo://app?vid=6f78dd3b-371a-43cc-b108-6bbc6a567b57"},"vehicle_type_id":"4","last_reported":1736179847,"current_range_meters":25200,"station_id":"ce4bgnh2rcd13ifvqc0g","pricing_plan_id":"cebpf4jnsgd1na2vs0mg"},{"bike_id":"d36b2f93-6b04-4052-b04b-20abc2353251","system_id":"levelo_inurba_marseille","lat":43.29786,"lon":5.37095,"is_reserved":false,"is_disabled":false,"rental_uris":{"android":"levelo://app?vid=d36b2f93-6b04-4052-b04b-20abc2353251","ios":"levelo://app?vid=d36b2f93-6b04-4052-b04b-20abc2353251"},"vehicle_type_id":"4","last_reported":1736179847,"current_range_meters":32800,"station_id":"ce4bgop2rcd13ifvqc1g","pricing_plan_id":"cebpf4jnsgd1na2vs0mg"},{"bike_id":"fdc4c2de-fe3e-4387-988f-b8eef005af75","system_id":"levelo_inurba_marseille","lat":43.31479,"lon":5.37306,"is_reserved":false,"is_disabled":false,"rental_uris":{"android":"levelo://app?vid=fdc4c2de-fe3e-4387-988f-b8eef005af75","ios":"levelo://app?vid=fdc4c2de-fe3e-4387-988f-b8eef005af75"},"vehicle_type_id":"4","last_reported":1736179847,"current_range_meters":25200,"station_id":"ce4bgt12rcd13ifvqcd0","pricing_plan_id":"cebpf4jnsgd1na2vs0mg"},{"bike_id":"1ce0c9eb-449e-4588-a05e-66465251a319","system_id":"levelo_inurba_marseille","lat":43.297963,"lon":5.38091,"is_reserved":false,"is_disabled":false,"rental_uris":{"android":"levelo://app?vid=1ce0c9eb-449e-4588-a05e-66465251a319","ios":"levelo://app?vid=1ce0c9eb-449e-4588-a05e-66465251a319"},"vehicle_type_id":"4","last_reported":1736179847,"current_range_meters":38800,"station_id":"ce4bgip2rcd13ifvqbb0","pricing_plan_id":"cebpf4jnsgd1na2vs0mg"},{"bike_id":"4ccc7d47-65ce-4231-bf69-026f47cbdbc7","system_id":"levelo_inurba_marseille","lat":43.30324,"lon":5.4042,"is_reserved":false,"is_disabled":false,"rental_uris":{"android":"levelo://app?vid=4ccc7d47-65ce-4231-bf69-026f47cbdbc7","ios":"levelo://app?vid=4ccc7d47-65ce-4231-bf69-026f47cbdbc7"},"vehicle_type_id":"4","last_reported":1736179847,"current_range_meters":38000,"station_id":"ce4bh012rcd13ifvqd10","pricing_plan_id":"cebpf4jnsgd1na2vs0mg"},{"bike_id":"0bcfea18-61ca-412d-bded-b63f59943884","system_id":"levelo_inurba_marseille","lat":43.28616,"lon":5.351003,"is_reserved":false,"is_disabled":true,"rental_uris":{"android":"levelo://app?vid=0bcfea18-61ca-412d-bded-b63f59943884","ios":"levelo://app?vid=0bcfea18-61ca-412d-bded-b63f59943884"},"vehicle_type_id":"4","last_reported":1736179847,"current_range_meters":32800,"station_id":"ce4bhch2rcd13ifvqeug","pricing_plan_id":"cebpf4jnsgd1na2vs0mg"},{"bike_id":"01844f2c-8e2d-4e7b-84eb-c284d12438cb","system_id":"levelo_inurba_marseille","lat":43.28074,"lon":5.39645,"is_reserved":false,"is_disabled":false,"rental_uris":{"android":"levelo://app?vid=01844f2c-8e2d-4e7b-84eb-c284d12438cb","ios":"levelo://app?vid=01844f2c-8e2d-4e7b-84eb-c284d12438cb"},"vehicle_type_id":"4","last_reported":1736179847,"current_range_meters":39200,"station_id":"ce4bho12rcd13ifvqh2g","pricing_plan_id":"cebpf4jnsgd1na2vs0mg"},{"bike_id":"6abef6a9-caf5-451a-afc9-43df477f8261","system_id":"levelo_inurba_marseille","lat":43.28668,"lon":5.3635,"is_reserved":false,"is_disabled":false,"rental_uris":{"android":"levelo://app?vid=6abef6a9-caf5-451a-afc9-43df477f8261","ios":"levelo://app?vid=6abef6a9-caf5-451a-afc9-43df477f8261"},"vehicle_type_id":"4","last_reported":1736179847,"current_range_meters":20800,"station_id":"ce4bhah2rcd13ifvqej0","pricing_plan_id":"cebpf4jnsgd1na2vs0mg"},{"bike_id":"414a0497-0469-49d7-8aa3-79fce197c4bb","system_id":"levelo_inurba_marseille","lat":43.31223,"lon":5.36882,"is_reserved":false,"is_disabled":false,"rental_uris":{"android":"levelo://app?vid=414a0497-0469-49d7-8aa3-79fce197c4bb","ios":"levelo://app?vid=414a0497-0469-49d7-8aa3-79fce197c4bb"},"vehicle_type_id":"4","last_reported":1736179847,"current_range_meters":38800,"station_id":"ce4bgl92rcd13ifvqbq0","pricing_plan_id":"cebpf4jnsgd1na2vs0mg"},{"bike_id":"03630410-cff2-41ca-8ab4-df6ebc45a627","system_id":"levelo_inurba_marseille","lat":43.301575,"lon":5.380967,"is_reserved":false,"is_disabled":true,"rental_uris":{"android":"levelo://app?vid=03630410-cff2-41ca-8ab4-df6ebc45a627","ios":"levelo://app?vid=03630410-cff2-41ca-8ab4-df6ebc45a627"},"vehicle_type_id":"4","last_reported":1736179847,"current_range_meters":36800,"station_id":"ce4bgjp2rcd13ifvqbh0","pricing_plan_id":"cebpf4jnsgd1na2vs0mg"},{"bike_id":"848571f8-713d-43b7-8532-226899c73429","system_id":"levelo_inurba_marseille","lat":43.24172,"lon":5.39727,"is_reserved":false,"is_disabled":false,"rental_uris":{"android":"levelo://app?vid=848571f8-713d-43b7-8532-226899c73429","ios":"levelo://app?vid=848571f8-713d-43b7-8532-226899c73429"},"vehicle_type_id":"4","last_reported":1736179847,"current_range_meters":39200,"station_id":"ce4bhn12rcd13ifvqgpg","pricing_plan_id":"cebpf4jnsgd1na2vs0mg"},{"bike_id":"266d97a0-8b6a-4815-8e1e-a29e516886ab","system_id":"levelo_inurba_marseille","lat":43.32361,"lon":5.36762,"is_reserved":false,"is_disabled":false,"rental_uris":{"android":"levelo://app?vid=266d97a0-8b6a-4815-8e1e-a29e516886ab","ios":"levelo://app?vid=266d97a0-8b6a-4815-8e1e-a29e516886ab"},"vehicle_type_id":"4","last_reported":1736179847,"current_range_meters":27200,"station_id":"ce4bhsh2rcd13ifvqi2g","pricing_plan_id":"cebpf4jnsgd1na2vs0mg"},{"bike_id":"bc5b5855-1cf6-4cdc-af1a-e3906d45046d","system_id":"levelo_inurba_marseille","lat":43.25,"lon":5.389285,"is_reserved":false,"is_disabled":false,"rental_uris":{"android":"levelo://app?vid=bc5b5855-1cf6-4cdc-af1a-e3906d45046d","ios":"levelo://app?vid=bc5b5855-1cf6-4cdc-af1a-e3906d45046d"},"vehicle_type_id":"4","last_reported":1736179847,"current_range_meters":27600,"station_id":"ce4bhgp2rcd13ifvqfd0","pricing_plan_id":"cebpf4jnsgd1na2vs0mg"},{"bike_id":"2937c8f0-6f06-4c7f-8240-41ad44bc55fa","system_id":"levelo_inurba_marseille","lat":43.23194,"lon":5.39993,"is_reserved":false,"is_disabled":false,"rental_uris":{"android":"levelo://app?vid=2937c8f0-6f06-4c7f-8240-41ad44bc55fa","ios":"levelo://app?vid=2937c8f0-6f06-4c7f-8240-41ad44bc55fa"},"vehicle_type_id":"4","last_reported":1736179847,"current_range_meters":16000,"station_id":"ce4bhn12rcd13ifvqgqg","pricing_plan_id":"cebpf4jnsgd1na2vs0mg"},{"bike_id":"830bfba3-f702-497a-b875-b7575665296c","system_id":"levelo_inurba_marseille","lat":43.289379,"lon":5.396314,"is_reserved":false,"is_disabled":false,"rental_uris":{"android":"levelo://app?vid=830bfba3-f702-497a-b875-b7575665296c","ios":"levelo://app?vid=830bfba3-f702-497a-b875-b7575665296c"},"vehicle_type_id":"4","last_reported":1736179847,"current_range_meters":32400,"station_id":"ce4bh3h2rcd13ifvqdn0","pricing_plan_id":"cebpf4jnsgd1na2vs0mg"},{"bike_id":"efaac073-0042-47ef-98ca-9e2ef1fc5fd4","system_id":"levelo_inurba_marseille","lat":43.32335,"lon":5.40614,"is_reserved":false,"is_disabled":false,"rental_uris":{"android":"levelo://app?vid=efaac073-0042-47ef-98ca-9e2ef1fc5fd4","ios":"levelo://app?vid=efaac073-0042-47ef-98ca-9e2ef1fc5fd4"},"vehicle_type_id":"4","last_reported":1736179847,"current_range_meters":28000,"station_id":"ce4bhq92rcd13ifvqhjg","pricing_plan_id":"cebpf4jnsgd1na2vs0mg"},{"bike_id":"f49298c6-b208-404d-bb0c-160ccbda2eed","system_id":"levelo_inurba_marseille","lat":43.27993,"lon":5.40016,"is_reserved":false,"is_disabled":true,"rental_uris":{"android":"levelo://app?vid=f49298c6-b208-404d-bb0c-160ccbda2eed","ios":"levelo://app?vid=f49298c6-b208-404d-bb0c-160ccbda2eed"},"vehicle_type_id":"4","last_reported":1736179847,"current_range_meters":35200,"station_id":"ce4bho92rcd13ifvqh4g","pricing_plan_id":"cebpf4jnsgd1na2vs0mg"},{"bike_id":"d014f699-d84d-436b-b3bf-8c059d18ea89","system_id":"levelo_inurba_marseille","lat":43.229246,"lon":5.353891,"is_reserved":false,"is_disabled":false,"rental_uris":{"android":"levelo://app?vid=d014f699-d84d-436b-b3bf-8c059d18ea89","ios":"levelo://app?vid=d014f699-d84d-436b-b3bf-8c059d18ea89"},"vehicle_type_id":"4","last_reported":1736179847,"current_range_meters":11200,"station_id":"cpo3532slgdg3j2ikp40","pricing_plan_id":"cebpf4jnsgd1na2vs0mg"},{"bike_id":"fc6818e2-9c10-4020-916c-666f3cfcff4c","system_id":"levelo_inurba_marseille","lat":43.27332,"lon":5.39094,"is_reserved":false,"is_disabled":false,"rental_uris":{"android":"levelo://app?vid=fc6818e2-9c10-4020-916c-666f3cfcff4c","ios":"levelo://app?vid=fc6818e2-9c10-4020-916c-666f3cfcff4c"},"vehicle_type_id":"4","last_reported":1736179847,"current_range_meters":35200,"station_id":"ce4bhgp2rcd13ifvqfe0","pricing_plan_id":"cebpf4jnsgd1na2vs0mg"},{"bike_id":"b4a7e467-a6f4-4369-8250-a7c230e3ae57","system_id":"levelo_inurba_marseille","lat":43.25587,"lon":5.38224,"is_reserved":false,"is_disabled":false,"rental_uris":{"android":"levelo://app?vid=b4a7e467-a6f4-4369-8250-a7c230e3ae57","ios":"levelo://app?vid=b4a7e467-a6f4-4369-8250-a7c230e3ae57"},"vehicle_type_id":"4","last_reported":1736179847,"current_range_meters":37600,"station_id":"ce4bhih2rcd13ifvqfs0","pricing_plan_id":"cebpf4jnsgd1na2vs0mg"},{"bike_id":"955387a8-4a47-4691-946f-78754c88504b","system_id":"levelo_inurba_marseille","lat":43.23179,"lon":5.35537,"is_reserved":false,"is_disabled":false,"rental_uris":{"android":"levelo://app?vid=955387a8-4a47-4691-946f-78754c88504b","ios":"levelo://app?vid=955387a8-4a47-4691-946f-78754c88504b"},"vehicle_type_id":"4","last_reported":1736179847,"current_range_meters":38800,"station_id":"ce4bhu92rcd13ifvqi70","pricing_plan_id":"cebpf4jnsgd1na2vs0mg"},{"bike_id":"ef72cdb4-465d-4178-b952-49906f159c48","system_id":"levelo_inurba_marseille","lat":43.28126,"lon":5.426,"is_reserved":false,"is_disabled":false,"rental_uris":{"android":"levelo://app?vid=ef72cdb4-465d-4178-b952-49906f159c48","ios":"levelo://app?vid=ef72cdb4-465d-4178-b952-49906f159c48"},"vehicle_type_id":"4","last_reported":1736179847,"current_range_meters":38800,"station_id":"ce4bhnh2rcd13ifvqgug","pricing_plan_id":"cebpf4jnsgd1na2vs0mg"},{"bike_id":"f949af9a-2683-4ec9-b4bf-168b31b3bcb2","system_id":"levelo_inurba_marseille","lat":43.24668,"lon":5.38893,"is_reserved":false,"is_disabled":false,"rental_uris":{"android":"levelo://app?vid=f949af9a-2683-4ec9-b4bf-168b31b3bcb2","ios":"levelo://app?vid=f949af9a-2683-4ec9-b4bf-168b31b3bcb2"},"vehicle_type_id":"4","last_reported":1736179847,"current_range_meters":22800,"station_id":"ce4bhg12rcd13ifvqf60","pricing_plan_id":"cebpf4jnsgd1na2vs0mg"},{"bike_id":"5716fd4e-02bd-4a7d-b0ae-b602c555354f","system_id":"levelo_inurba_marseille","lat":43.291,"lon":5.38138,"is_reserved":false,"is_disabled":true,"rental_uris":{"android":"levelo://app?vid=5716fd4e-02bd-4a7d-b0ae-b602c555354f","ios":"levelo://app?vid=5716fd4e-02bd-4a7d-b0ae-b602c555354f"},"vehicle_type_id":"4","last_reported":1736179847,"current_range_meters":0,"station_id":"ce4bh512rcd13ifvqe2g","pricing_plan_id":"cebpf4jnsgd1na2vs0mg"},{"bike_id":"822ae0eb-3959-4d25-8e64-a6f4cdbd6401","system_id":"levelo_inurba_marseille","lat":43.2957,"lon":5.375,"is_reserved":false,"is_disabled":false,"rental_uris":{"android":"levelo://app?vid=822ae0eb-3959-4d25-8e64-a6f4cdbd6401","ios":"levelo://app?vid=822ae0eb-3959-4d25-8e64-a6f4cdbd6401"},"vehicle_type_id":"4","last_reported":1736179847,"current_range_meters":38000,"station_id":"ce4bgh92rcd13ifvqb50","pricing_plan_id":"cebpf4jnsgd1na2vs0mg"},{"bike_id":"e7b4e768-5ca8-4bca-a5f2-e9d9e1fef9dd","system_id":"levelo_inurba_marseille","lat":43.29617,"lon":5.37741,"is_reserved":false,"is_disabled":false,"rental_uris":{"android":"levelo://app?vid=e7b4e768-5ca8-4bca-a5f2-e9d9e1fef9dd","ios":"levelo://app?vid=e7b4e768-5ca8-4bca-a5f2-e9d9e1fef9dd"},"vehicle_type_id":"4","last_reported":1736179847,"current_range_meters":38000,"station_id":"ce4bgi92rcd13ifvqb90","pricing_plan_id":"cebpf4jnsgd1na2vs0mg"},{"bike_id":"ef5cc2e8-1a70-4afa-862e-f71bb23abdb3","system_id":"levelo_inurba_marseille","lat":43.30797,"lon":5.4352,"is_reserved":false,"is_disabled":false,"rental_uris":{"android":"levelo://app?vid=ef5cc2e8-1a70-4afa-862e-f71bb23abdb3","ios":"levelo://app?vid=ef5cc2e8-1a70-4afa-862e-f71bb23abdb3"},"vehicle_type_id":"4","last_reported":1736179847,"current_range_meters":18000,"station_id":"ce4bhph2rcd13ifvqheg","pricing_plan_id":"cebpf4jnsgd1na2vs0mg"},{"bike_id":"a0f52a77-2968-414d-8f71-291812cb835e","system_id":"levelo_inurba_marseille","lat":43.25719,"lon":5.411,"is_reserved":false,"is_disabled":false,"rental_uris":{"android":"levelo://app?vid=a0f52a77-2968-414d-8f71-291812cb835e","ios":"levelo://app?vid=a0f52a77-2968-414d-8f71-291812cb835e"},"vehicle_type_id":"4","last_reported":1736179847,"current_range_meters":27600,"station_id":"ce4bhkp2rcd13ifvqgd0","pricing_plan_id":"cebpf4jnsgd1na2vs0mg"},{"bike_id":"79a57d82-25d7-4438-9590-ec42c1b5d03b","system_id":"levelo_inurba_marseille","lat":43.29629,"lon":5.37182,"is_reserved":false,"is_disabled":false,"rental_uris":{"android":"levelo://app?vid=79a57d82-25d7-4438-9590-ec42c1b5d03b","ios":"levelo://app?vid=79a57d82-25d7-4438-9590-ec42c1b5d03b"},"vehicle_type_id":"4","last_reported":1736179847,"current_range_meters":38800,"station_id":"ce4bgnh2rcd13ifvqc0g","pricing_plan_id":"cebpf4jnsgd1na2vs0mg"},{"bike_id":"fe27e831-10e1-4544-bf6c-8256bdd0142f","system_id":"levelo_inurba_marseille","lat":43.26683,"lon":5.3827,"is_reserved":false,"is_disabled":false,"rental_uris":{"android":"levelo://app?vid=fe27e831-10e1-4544-bf6c-8256bdd0142f","ios":"levelo://app?vid=fe27e831-10e1-4544-bf6c-8256bdd0142f"},"vehicle_type_id":"4","last_reported":1736179847,"current_range_meters":39200,"station_id":"ce4bhg92rcd13ifvqf90","pricing_plan_id":"cebpf4jnsgd1na2vs0mg"},{"bike_id":"1307f9da-ff9b-48a7-93be-7ab8cbbfc9be","system_id":"levelo_inurba_marseille","lat":43.25083,"lon":5.39509,"is_reserved":false,"is_disabled":false,"rental_uris":{"android":"levelo://app?vid=1307f9da-ff9b-48a7-93be-7ab8cbbfc9be","ios":"levelo://app?vid=1307f9da-ff9b-48a7-93be-7ab8cbbfc9be"},"vehicle_type_id":"4","last_reported":1736179847,"current_range_meters":38800,"station_id":"ce4bhm12rcd13ifvqgkg","pricing_plan_id":"cebpf4jnsgd1na2vs0mg"},{"bike_id":"fea4564a-05f7-4de4-9f9c-5fac0fb56d4f","system_id":"levelo_inurba_marseille","lat":43.29531,"lon":5.38538,"is_reserved":false,"is_disabled":false,"rental_uris":{"android":"levelo://app?vid=fea4564a-05f7-4de4-9f9c-5fac0fb56d4f","ios":"levelo://app?vid=fea4564a-05f7-4de4-9f9c-5fac0fb56d4f"},"vehicle_type_id":"4","last_reported":1736179847,"current_range_meters":38800,"station_id":"ce4bgih2rcd13ifvqba0","pricing_plan_id":"cebpf4jnsgd1na2vs0mg"},{"bike_id":"6bf284d0-b147-4190-b61c-84f9d0b234dd","system_id":"levelo_inurba_marseille","lat":43.29599,"lon":5.38105,"is_reserved":false,"is_disabled":false,"rental_uris":{"android":"levelo://app?vid=6bf284d0-b147-4190-b61c-84f9d0b234dd","ios":"levelo://app?vid=6bf284d0-b147-4190-b61c-84f9d0b234dd"},"vehicle_type_id":"4","last_reported":1736179847,"current_range_meters":38800,"station_id":"ce4bgl12rcd13ifvqbo0","pricing_plan_id":"cebpf4jnsgd1na2vs0mg"},{"bike_id":"e4fb0db6-c070-4f7c-b34e-a54f29d45562","system_id":"levelo_inurba_marseille","lat":43.27989,"lon":5.41663,"is_reserved":false,"is_disabled":false,"rental_uris":{"android":"levelo://app?vid=e4fb0db6-c070-4f7c-b34e-a54f29d45562","ios":"levelo://app?vid=e4fb0db6-c070-4f7c-b34e-a54f29d45562"},"vehicle_type_id":"4","last_reported":1736179847,"current_range_meters":9200,"station_id":"ce4bho12rcd13ifvqh1g","pricing_plan_id":"cebpf4jnsgd1na2vs0mg"},{"bike_id":"ee7f9e43-dd85-4396-be87-535c098723c9","system_id":"levelo_inurba_marseille","lat":43.30964,"lon":5.39048,"is_reserved":false,"is_disabled":false,"rental_uris":{"android":"levelo://app?vid=ee7f9e43-dd85-4396-be87-535c098723c9","ios":"levelo://app?vid=ee7f9e43-dd85-4396-be87-535c098723c9"},"vehicle_type_id":"4","last_reported":1736179847,"current_range_meters":23200,"station_id":"ce4bgup2rcd13ifvqco0","pricing_plan_id":"cebpf4jnsgd1na2vs0mg"},{"bike_id":"5ccd9219-bb74-4866-8ab3-e0b8d4a98a85","system_id":"levelo_inurba_marseille","lat":43.24683,"lon":5.38142,"is_reserved":false,"is_disabled":false,"rental_uris":{"android":"levelo://app?vid=5ccd9219-bb74-4866-8ab3-e0b8d4a98a85","ios":"levelo://app?vid=5ccd9219-bb74-4866-8ab3-e0b8d4a98a85"},"vehicle_type_id":"4","last_reported":1736179847,"current_range_meters":36400,"station_id":"ce4bhih2rcd13ifvqfr0","pricing_plan_id":"cebpf4jnsgd1na2vs0mg"},{"bike_id":"70d1fae7-1346-4be5-88c1-c1dd75c31512","system_id":"levelo_inurba_marseille","lat":43.26082,"lon":5.3937,"is_reserved":false,"is_disabled":false,"rental_uris":{"android":"levelo://app?vid=70d1fae7-1346-4be5-88c1-c1dd75c31512","ios":"levelo://app?vid=70d1fae7-1346-4be5-88c1-c1dd75c31512"},"vehicle_type_id":"4","last_reported":1736179847,"current_range_meters":24800,"station_id":"ce4bhh92rcd13ifvqfj0","pricing_plan_id":"cebpf4jnsgd1na2vs0mg"},{"bike_id":"0ac58852-3b58-46f1-b228-69b9ab9a1823","system_id":"levelo_inurba_marseille","lat":43.26057,"lon":5.39397,"is_reserved":false,"is_disabled":false,"rental_uris":{"android":"levelo://app?vid=0ac58852-3b58-46f1-b228-69b9ab9a1823","ios":"levelo://app?vid=0ac58852-3b58-46f1-b228-69b9ab9a1823"},"vehicle_type_id":"4","last_reported":1736179847,"current_range_meters":33200,"station_id":"ce4bhh92rcd13ifvqfj0","pricing_plan_id":"cebpf4jnsgd1na2vs0mg"},{"bike_id":"ea7bebe3-4aff-4a01-b28d-c9b866182ae3","system_id":"levelo_inurba_marseille","lat":43.30799,"lon":5.39209,"is_reserved":false,"is_disabled":true,"rental_uris":{"android":"levelo://app?vid=ea7bebe3-4aff-4a01-b28d-c9b866182ae3","ios":"levelo://app?vid=ea7bebe3-4aff-4a01-b28d-c9b866182ae3"},"vehicle_type_id":"4","last_reported":1736179847,"current_range_meters":32400,"station_id":"","pricing_plan_id":"cebpf4jnsgd1na2vs0mg"},{"bike_id":"e141d2df-91c9-417c-b7cb-50cc7039fd90","system_id":"levelo_inurba_marseille","lat":43.29003,"lon":5.35617,"is_reserved":false,"is_disabled":false,"rental_uris":{"android":"levelo://app?vid=e141d2df-91c9-417c-b7cb-50cc7039fd90","ios":"levelo://app?vid=e141d2df-91c9-417c-b7cb-50cc7039fd90"},"vehicle_type_id":"4","last_reported":1736179847,"current_range_meters":26000,"station_id":"ce4bhb92rcd13ifvqen0","pricing_plan_id":"cebpf4jnsgd1na2vs0mg"},{"bike_id":"85687334-95ac-406a-a34f-25d9cb7266f4","system_id":"levelo_inurba_marseille","lat":43.30605,"lon":5.37224,"is_reserved":false,"is_disabled":false,"rental_uris":{"android":"levelo://app?vid=85687334-95ac-406a-a34f-25d9cb7266f4","ios":"levelo://app?vid=85687334-95ac-406a-a34f-25d9cb7266f4"},"vehicle_type_id":"4","last_reported":1736179847,"current_range_meters":30800,"station_id":"ce4bgqh2rcd13ifvqc4g","pricing_plan_id":"cebpf4jnsgd1na2vs0mg"},{"bike_id":"a8304853-007a-4c87-bbb4-ac3c77fb92b1","system_id":"levelo_inurba_marseille","lat":43.2863,"lon":5.35106,"is_reserved":false,"is_disabled":false,"rental_uris":{"android":"levelo://app?vid=a8304853-007a-4c87-bbb4-ac3c77fb92b1","ios":"levelo://app?vid=a8304853-007a-4c87-bbb4-ac3c77fb92b1"},"vehicle_type_id":"4","last_reported":1736179847,"current_range_meters":14400,"station_id":"ce4bhch2rcd13ifvqeug","pricing_plan_id":"cebpf4jnsgd1na2vs0mg"},{"bike_id":"ae905b0a-199e-4bf8-b31d-c5a81f8fd661","system_id":"levelo_inurba_marseille","lat":43.28657,"lon":5.36354,"is_reserved":false,"is_disabled":false,"rental_uris":{"android":"levelo://app?vid=ae905b0a-199e-4bf8-b31d-c5a81f8fd661","ios":"levelo://app?vid=ae905b0a-199e-4bf8-b31d-c5a81f8fd661"},"vehicle_type_id":"4","last_reported":1736179847,"current_range_meters":35200,"station_id":"ce4bhah2rcd13ifvqej0","pricing_plan_id":"cebpf4jnsgd1na2vs0mg"},{"bike_id":"1317a7a9-0f27-439f-96c3-f32bde5d695d","system_id":"levelo_inurba_marseille","lat":43.28433,"lon":5.34989,"is_reserved":false,"is_disabled":false,"rental_uris":{"android":"levelo://app?vid=1317a7a9-0f27-439f-96c3-f32bde5d695d","ios":"levelo://app?vid=1317a7a9-0f27-439f-96c3-f32bde5d695d"},"vehicle_type_id":"4","last_reported":1736179847,"current_range_meters":32400,"station_id":"ce4bhbh2rcd13ifvqepg","pricing_plan_id":"cebpf4jnsgd1na2vs0mg"},{"bike_id":"16a99e0d-cf17-4a2d-a756-bcc93246f21d","system_id":"levelo_inurba_marseille","lat":43.30144,"lon":5.39875,"is_reserved":false,"is_disabled":false,"rental_uris":{"android":"levelo://app?vid=16a99e0d-cf17-4a2d-a756-bcc93246f21d","ios":"levelo://app?vid=16a99e0d-cf17-4a2d-a756-bcc93246f21d"},"vehicle_type_id":"4","last_reported":1736179847,"current_range_meters":4000,"station_id":"ce4bh0h2rcd13ifvqd40","pricing_plan_id":"cebpf4jnsgd1na2vs0mg"},{"bike_id":"b5717ce3-da5f-4048-b7e0-59b04300fd0f","system_id":"levelo_inurba_marseille","lat":43.28928,"lon":5.384,"is_reserved":false,"is_disabled":false,"rental_uris":{"android":"levelo://app?vid=b5717ce3-da5f-4048-b7e0-59b04300fd0f","ios":"levelo://app?vid=b5717ce3-da5f-4048-b7e0-59b04300fd0f"},"vehicle_type_id":"4","last_reported":1736179847,"current_range_meters":22400,"station_id":"ce4bh612rcd13ifvqe6g","pricing_plan_id":"cebpf4jnsgd1na2vs0mg"},{"bike_id":"4123aba5-06eb-42a4-9196-c0536401746a","system_id":"levelo_inurba_marseille","lat":43.2892,"lon":5.384,"is_reserved":false,"is_disabled":false,"rental_uris":{"android":"levelo://app?vid=4123aba5-06eb-42a4-9196-c0536401746a","ios":"levelo://app?vid=4123aba5-06eb-42a4-9196-c0536401746a"},"vehicle_type_id":"4","last_reported":1736179847,"current_range_meters":38800,"station_id":"ce4bh612rcd13ifvqe6g","pricing_plan_id":"cebpf4jnsgd1na2vs0mg"},{"bike_id":"84b371ee-4bf4-40ea-94fc-2139d1cd1772","system_id":"levelo_inurba_marseille","lat":43.3147,"lon":5.37261,"is_reserved":false,"is_disabled":false,"rental_uris":{"android":"levelo://app?vid=84b371ee-4bf4-40ea-94fc-2139d1cd1772","ios":"levelo://app?vid=84b371ee-4bf4-40ea-94fc-2139d1cd1772"},"vehicle_type_id":"4","last_reported":1736179847,"current_range_meters":38800,"station_id":"ce4bgt12rcd13ifvqcd0","pricing_plan_id":"cebpf4jnsgd1na2vs0mg"},{"bike_id":"68718a12-ff84-4ece-9441-164a64035f89","system_id":"levelo_inurba_marseille","lat":43.24833,"lon":5.37434,"is_reserved":false,"is_disabled":false,"rental_uris":{"android":"levelo://app?vid=68718a12-ff84-4ece-9441-164a64035f89","ios":"levelo://app?vid=68718a12-ff84-4ece-9441-164a64035f89"},"vehicle_type_id":"4","last_reported":1736179847,"current_range_meters":18000,"station_id":"ce4bhgh2rcd13ifvqfb0","pricing_plan_id":"cebpf4jnsgd1na2vs0mg"},{"bike_id":"c0dc70b5-7c75-445b-b0f4-4b587622760b","system_id":"levelo_inurba_marseille","lat":43.29096,"lon":5.38143,"is_reserved":false,"is_disabled":false,"rental_uris":{"android":"levelo://app?vid=c0dc70b5-7c75-445b-b0f4-4b587622760b","ios":"levelo://app?vid=c0dc70b5-7c75-445b-b0f4-4b587622760b"},"vehicle_type_id":"4","last_reported":1736179847,"current_range_meters":35200,"station_id":"ce4bh512rcd13ifvqe2g","pricing_plan_id":"cebpf4jnsgd1na2vs0mg"},{"bike_id":"aad4a535-b699-4598-8dc1-ecd244317ca1","system_id":"levelo_inurba_marseille","lat":43.23189,"lon":5.39986,"is_reserved":false,"is_disabled":false,"rental_uris":{"android":"levelo://app?vid=aad4a535-b699-4598-8dc1-ecd244317ca1","ios":"levelo://app?vid=aad4a535-b699-4598-8dc1-ecd244317ca1"},"vehicle_type_id":"4","last_reported":1736179847,"current_range_meters":14800,"station_id":"ce4bhn12rcd13ifvqgqg","pricing_plan_id":"cebpf4jnsgd1na2vs0mg"},{"bike_id":"7b807114-36e3-4d66-b672-f4e26a4f0744","system_id":"levelo_inurba_marseille","lat":43.30608,"lon":5.37247,"is_reserved":false,"is_disabled":false,"rental_uris":{"android":"levelo://app?vid=7b807114-36e3-4d66-b672-f4e26a4f0744","ios":"levelo://app?vid=7b807114-36e3-4d66-b672-f4e26a4f0744"},"vehicle_type_id":"4","last_reported":1736179847,"current_range_meters":9200,"station_id":"ce4bgqh2rcd13ifvqc4g","pricing_plan_id":"cebpf4jnsgd1na2vs0mg"},{"bike_id":"502640b0-6cb7-4c6d-90ec-2af993602272","system_id":"levelo_inurba_marseille","lat":43.3128,"lon":5.40145,"is_reserved":false,"is_disabled":false,"rental_uris":{"android":"levelo://app?vid=502640b0-6cb7-4c6d-90ec-2af993602272","ios":"levelo://app?vid=502640b0-6cb7-4c6d-90ec-2af993602272"},"vehicle_type_id":"4","last_reported":1736179847,"current_range_meters":30400,"station_id":"ce4bh092rcd13ifvqd30","pricing_plan_id":"cebpf4jnsgd1na2vs0mg"},{"bike_id":"d8b6ad16-2edf-48ee-aba4-9801c618dedc","system_id":"levelo_inurba_marseille","lat":43.24068,"lon":5.37734,"is_reserved":false,"is_disabled":true,"rental_uris":{"android":"levelo://app?vid=d8b6ad16-2edf-48ee-aba4-9801c618dedc","ios":"levelo://app?vid=d8b6ad16-2edf-48ee-aba4-9801c618dedc"},"vehicle_type_id":"4","last_reported":1736179847,"current_range_meters":37600,"station_id":"ce4bhnp2rcd13ifvqgvg","pricing_plan_id":"cebpf4jnsgd1na2vs0mg"},{"bike_id":"ad6a3624-3479-4903-b62b-8609c0dd2c65","system_id":"levelo_inurba_marseille","lat":43.30392,"lon":5.39716,"is_reserved":false,"is_disabled":false,"rental_uris":{"android":"levelo://app?vid=ad6a3624-3479-4903-b62b-8609c0dd2c65","ios":"levelo://app?vid=ad6a3624-3479-4903-b62b-8609c0dd2c65"},"vehicle_type_id":"4","last_reported":1736179847,"current_range_meters":38400,"station_id":"ce4bh092rcd13ifvqd20","pricing_plan_id":"cebpf4jnsgd1na2vs0mg"},{"bike_id":"31c232b1-d7e0-413a-9ceb-11ed19279d35","system_id":"levelo_inurba_marseille","lat":43.27315,"lon":5.3907,"is_reserved":false,"is_disabled":false,"rental_uris":{"android":"levelo://app?vid=31c232b1-d7e0-413a-9ceb-11ed19279d35","ios":"levelo://app?vid=31c232b1-d7e0-413a-9ceb-11ed19279d35"},"vehicle_type_id":"4","last_reported":1736179847,"current_range_meters":13600,"station_id":"ce4bhgp2rcd13ifvqfe0","pricing_plan_id":"cebpf4jnsgd1na2vs0mg"},{"bike_id":"e42ce9e2-4827-4399-a604-236e4b9f28b1","system_id":"levelo_inurba_marseille","lat":43.2455,"lon":5.39529,"is_reserved":false,"is_disabled":false,"rental_uris":{"android":"levelo://app?vid=e42ce9e2-4827-4399-a604-236e4b9f28b1","ios":"levelo://app?vid=e42ce9e2-4827-4399-a604-236e4b9f28b1"},"vehicle_type_id":"4","last_reported":1736179847,"current_range_meters":38800,"station_id":"ce4bhlp2rcd13ifvqgjg","pricing_plan_id":"cebpf4jnsgd1na2vs0mg"},{"bike_id":"ea7db1c7-a90b-415c-a265-91f4b751ba54","system_id":"levelo_inurba_marseille","lat":43.24074,"lon":5.37753,"is_reserved":false,"is_disabled":true,"rental_uris":{"android":"levelo://app?vid=ea7db1c7-a90b-415c-a265-91f4b751ba54","ios":"levelo://app?vid=ea7db1c7-a90b-415c-a265-91f4b751ba54"},"vehicle_type_id":"4","last_reported":1736179847,"current_range_meters":38800,"station_id":"ce4bhnp2rcd13ifvqgvg","pricing_plan_id":"cebpf4jnsgd1na2vs0mg"},{"bike_id":"99790035-9bf5-4bf2-a057-a65ccdc6484e","system_id":"levelo_inurba_marseille","lat":43.31323,"lon":5.39681,"is_reserved":false,"is_disabled":false,"rental_uris":{"android":"levelo://app?vid=99790035-9bf5-4bf2-a057-a65ccdc6484e","ios":"levelo://app?vid=99790035-9bf5-4bf2-a057-a65ccdc6484e"},"vehicle_type_id":"4","last_reported":1736179847,"current_range_meters":37600,"station_id":"ce4bgvp2rcd13ifvqcu0","pricing_plan_id":"cebpf4jnsgd1na2vs0mg"},{"bike_id":"d28ca21f-50a3-436f-8e9e-95c17d961216","system_id":"levelo_inurba_marseille","lat":43.25879,"lon":5.39903,"is_reserved":false,"is_disabled":false,"rental_uris":{"android":"levelo://app?vid=d28ca21f-50a3-436f-8e9e-95c17d961216","ios":"levelo://app?vid=d28ca21f-50a3-436f-8e9e-95c17d961216"},"vehicle_type_id":"4","last_reported":1736179847,"current_range_meters":19200,"station_id":"ce4bhl92rcd13ifvqghg","pricing_plan_id":"cebpf4jnsgd1na2vs0mg"},{"bike_id":"c1450a19-505d-43e7-962b-0b3c73271fd6","system_id":"levelo_inurba_marseille","lat":43.31712,"lon":5.37735,"is_reserved":false,"is_disabled":false,"rental_uris":{"android":"levelo://app?vid=c1450a19-505d-43e7-962b-0b3c73271fd6","ios":"levelo://app?vid=c1450a19-505d-43e7-962b-0b3c73271fd6"},"vehicle_type_id":"4","last_reported":1736179847,"current_range_meters":26800,"station_id":"ce4bgth2rcd13ifvqch0","pricing_plan_id":"cebpf4jnsgd1na2vs0mg"},{"bike_id":"c34186b6-c483-4279-b1ef-8c4ee6feb58d","system_id":"levelo_inurba_marseille","lat":43.24365,"lon":5.37054,"is_reserved":false,"is_disabled":false,"rental_uris":{"android":"levelo://app?vid=c34186b6-c483-4279-b1ef-8c4ee6feb58d","ios":"levelo://app?vid=c34186b6-c483-4279-b1ef-8c4ee6feb58d"},"vehicle_type_id":"4","last_reported":1736179847,"current_range_meters":38800,"station_id":"ce4bhhh2rcd13ifvqfk0","pricing_plan_id":"cebpf4jnsgd1na2vs0mg"},{"bike_id":"97a064ee-2668-4692-88e6-91bc25808f0e","system_id":"levelo_inurba_marseille","lat":43.28275,"lon":5.35065,"is_reserved":false,"is_disabled":true,"rental_uris":{"android":"levelo://app?vid=97a064ee-2668-4692-88e6-91bc25808f0e","ios":"levelo://app?vid=97a064ee-2668-4692-88e6-91bc25808f0e"},"vehicle_type_id":"4","last_reported":1736179847,"current_range_meters":7200,"station_id":"ce4bhbp2rcd13ifvqerg","pricing_plan_id":"cebpf4jnsgd1na2vs0mg"},{"bike_id":"b9516351-6483-4df6-a78a-d2015a4619f1","system_id":"levelo_inurba_marseille","lat":43.27991,"lon":5.40004,"is_reserved":false,"is_disabled":true,"rental_uris":{"android":"levelo://app?vid=b9516351-6483-4df6-a78a-d2015a4619f1","ios":"levelo://app?vid=b9516351-6483-4df6-a78a-d2015a4619f1"},"vehicle_type_id":"4","last_reported":1736179847,"current_range_meters":0,"station_id":"ce4bho92rcd13ifvqh4g","pricing_plan_id":"cebpf4jnsgd1na2vs0mg"},{"bike_id":"50f64418-800e-47f4-b480-c3adc3efc0ce","system_id":"levelo_inurba_marseille","lat":43.2955,"lon":5.42282,"is_reserved":false,"is_disabled":false,"rental_uris":{"android":"levelo://app?vid=50f64418-800e-47f4-b480-c3adc3efc0ce","ios":"levelo://app?vid=50f64418-800e-47f4-b480-c3adc3efc0ce"},"vehicle_type_id":"4","last_reported":1736179847,"current_range_meters":18800,"station_id":"ce4bhph2rcd13ifvqhdg","pricing_plan_id":"cebpf4jnsgd1na2vs0mg"},