{"last_updated":1714914412,"ttl":30,"version":"2.2","data":{"bikes":[{"bike_id":"83238e40-aed0-4c3c-840e-0d53f6ce86ef","system_id":"levelo_inurba_marseille","lat":43.312239,"lon":5.368562,"is_reserved":false,"is_disabled":false,"rental_uris":{"android":"levelo://app?vid=83238e40-aed0-4c3c-840e-0d53f6ce86ef","ios":"levelo://app?vid=83238e40-aed0-4c3c-840e-0d53f6ce86ef"},"vehicle_type_id":"4","last_reported":1714914412,"current_range_meters":26800,"station_id":"ce4bgl92rcd13ifvqbq0","pricing_plan_id":"cebpf4jnsgd1na2vs0mg"},{"bike_id":"d0bf17f5-5606-4ec6-8315-8556744ae454","system_id":"levelo_inurba_marseille","lat":43.309076,"lon":5.368465,"is_reserved":false,"is_disabled":false,"rental_uris":{"android":"levelo://app?vid=d0bf17f5-5606-4ec6-8315-8556744ae454","ios":"levelo://app?vid=d0bf17f5-5606-4ec6-8315-8556744ae454"},"vehicle_type_id":"4","last_reported":1714914412,"current_range_meters":31600,"station_id":"ce4bgn92rcd13ifvqbvg","pricing_plan_id":"cebpf4jnsgd1na2vs0mg"},{"bike_id":"84819771-838b-451e-b61f-aed8442b3369","system_id":"levelo_inurba_marseille","lat":43.309076,"lon":5.368465,"is_reserved":false,"is_disabled":false,"rental_uris":{"android":"levelo://app?vid=84819771-838b-451e-b61f-aed8442b3369","ios":"levelo://app?vid=84819771-838b-451e-b61f-aed8442b3369"},"vehicle_type_id":"4","last_reported":1714914412,"current_range_meters":24000,"station_id":"ce4bgn92rcd13ifvqbvg","pricing_plan_id":"cebpf4jnsgd1na2vs0mg"},{"bike_id":"1bacf459-f7bd-4735-a49b-d062581a09dd","system_id":"levelo_inurba_marseille","lat":43.309076,"lon":5.368465,"is_reserved":false,"is_disabled":false,"rental_uris":{"android":"levelo://app?vid=1bacf459-f7bd-4735-a49b-d062581a09dd","ios":"levelo://app?vid=1bacf459-f7bd-4735-a49b-d062581a09dd"},"vehicle_type_id":"4","last_reported":1714914412,"current_range_meters":23600,"station_id":"ce4bgn92rcd13ifvqbvg","pricing_plan_id":"cebpf4jnsgd1na2vs0mg"},{"bike_id":"d9d990db-99b1-44f0-b31f-3a6244327994","system_id":"levelo_inurba_marseille","lat":43.31483,"lon":5.37308,"is_reserved":false,"is_disabled":false,"rental_uris":{"android":"levelo://app?vid=d9d990db-99b1-44f0-b31f-3a6244327994","ios":"levelo://app?vid=d9d990db-99b1-44f0-b31f-3a6244327994"},"vehicle_type_id":"4","last_reported":1714914412,"current_range_meters":27600,"station_id":"ce4bgt12rcd13ifvqcd0","pricing_plan_id":"cebpf4jnsgd1na2vs0mg"},{"bike_id":"f37b6a0b-f8a3-4303-89bc-a712b27d0d14","system_id":"levelo_inurba_marseille","lat":43.314811,"lon":5.373103,"is_reserved":false,"is_disabled":false,"rental_uris":{"android":"levelo://app?vid=f37b6a0b-f8a3-4303-89bc-a712b27d0d14","ios":"levelo://app?vid=f37b6a0b-f8a3-4303-89bc-a712b27d0d14"},"vehicle_type_id":"4","last_reported":1714914412,"current_range_meters":22400,"station_id":"ce4bgt12rcd13ifvqcd0","pricing_plan_id":"cebpf4jnsgd1na2vs0mg"},{"bike_id":"2d5ff0ce-8f36-43be-a58c-fa1cf0b2e917","system_id":"levelo_inurba_marseille","lat":43.31497,"lon":5.373,"is_reserved":false,"is_disabled":false,"rental_uris":{"android":"levelo://app?vid=2d5ff0ce-8f36-43be-a58c-fa1cf0b2e917","ios":"levelo://app?vid=2d5ff0ce-8f36-43be-a58c-fa1cf0b2e917"},"vehicle_type_id":"4","last_reported":1714914412,"current_range_meters":0,"station_id":"ce4bgt12rcd13ifvqcd0","pricing_plan_id":"cebpf4jnsgd1na2vs0mg"},{"bike_id":"6c270854-b66a-4192-ae12-cfaa198f5b8c","system_id":"levelo_inurba_marseille","lat":43.3149,"lon":5.37307,"is_reserved":false,"is_disabled":false,"rental_uris":{"android":"levelo://app?vid=6c270854-b66a-4192-ae12-cfaa198f5b8c","ios":"levelo://app?vid=6c270854-b66a-4192-ae12-cfaa198f5b8c"},"vehicle_type_id":"4","last_reported":1714914412,"current_range_meters":13600,"station_id":"ce4bgt12rcd13ifvqcd0","pricing_plan_id":"cebpf4jnsgd1na2vs0mg"},{"bike_id":"121a1107-2da0-431f-a603-6207deaf8084","system_id":"levelo_inurba_marseille","lat":43.314811,"lon":5.373103,"is_reserved":false,"is_disabled":false,"rental_uris":{"android":"levelo://app?vid=121a1107-2da0-431f-a603-6207deaf8084","ios":"levelo://app?vid=121a1107-2da0-431f-a603-6207deaf8084"},"vehicle_type_id":"4","last_reported":1714914412,"current_range_meters":2000,"station_id":"ce4bgt12rcd13ifvqcd0","pricing_plan_id":"cebpf4jnsgd1na2vs0mg"},{"bike_id":"a866c972-c41b-427c-b1c1-ee4516f5eee4","system_id":"levelo_inurba_marseille","lat":43.31493,"lon":5.37311,"is_reserved":false,"is_disabled":false,"rental_uris":{"android":"levelo://app?vid=a866c972-c41b-427c-b1c1-ee4516f5eee4","ios":"levelo://app?vid=a866c972-c41b-427c-b1c1-ee4516f5eee4"},"vehicle_type_id":"4","last_reported":1714914412,"current_range_meters":17200,"station_id":"ce4bgt12rcd13ifvqcd0","pricing_plan_id":"cebpf4jnsgd1na2vs0mg"},{"bike_id":"cfb9c43e-f4c2-45a6-be91-8a0da1d2df7c","system_id":"levelo_inurba_marseille","lat":43.314811,"lon":5.373104,"is_reserved":false,"is_disabled":false,"rental_uris":{"android":"levelo://app?vid=cfb9c43e-f4c2-45a6-be91-8a0da1d2df7c","ios":"levelo://app?vid=cfb9c43e-f4c2-45a6-be91-8a0da1d2df7c"},"vehicle_type_id":"4","last_reported":1714914412,"current_range_meters":16800,"station_id":"ce4bgt12rcd13ifvqcd0","pricing_plan_id":"cebpf4jnsgd1na2vs0mg"},{"bike_id":"289aba82-560b-4f2c-b096-4f6deafbfa86","system_id":"levelo_inurba_marseille","lat":43.305712,"lon":5.365641,"is_reserved":false,"is_disabled":false,"rental_uris":{"android":"levelo://app?vid=289aba82-560b-4f2c-b096-4f6deafbfa86","ios":"levelo://app?vid=289aba82-560b-4f2c-b096-4f6deafbfa86"},"vehicle_type_id":"4","last_reported":1714914412,"current_range_meters":6800,"station_id":"ce4bgs12rcd13ifvqcag","pricing_plan_id":"cebpf4jnsgd1na2vs0mg"},{"bike_id":"986e2cc4-cc0b-41f2-8e0b-040bd94c9b2b","system_id":"levelo_inurba_marseille","lat":43.30537,"lon":5.367345,"is_reserved":false,"is_disabled":false,"rental_uris":{"android":"levelo://app?vid=986e2cc4-cc0b-41f2-8e0b-040bd94c9b2b","ios":"levelo://app?vid=986e2cc4-cc0b-41f2-8e0b-040bd94c9b2b"},"vehicle_type_id":"4","last_reported":1714914412,"current_range_meters":17200,"station_id":"ce4bgrp2rcd13ifvqc9g","pricing_plan_id":"cebpf4jnsgd1na2vs0mg"},{"bike_id":"52833f75-fa9c-4a89-b5e6-8128491506b1","system_id":"levelo_inurba_marseille","lat":43.305514,"lon":5.365393,"is_reserved":false,"is_disabled":false,"rental_uris":{"android":"levelo://app?vid=52833f75-fa9c-4a89-b5e6-8128491506b1","ios":"levelo://app?vid=52833f75-fa9c-4a89-b5e6-8128491506b1"},"vehicle_type_id":"4","last_reported":1714914412,"current_range_meters":0,"station_id":"ce4bgs12rcd13ifvqcag","pricing_plan_id":"cebpf4jnsgd1na2vs0mg"},{"bike_id":"e1d91d49-3d6a-455b-9f1d-5bad8f5d0cfc","system_id":"levelo_inurba_marseille","lat":43.305714,"lon":5.365633,"is_reserved":false,"is_disabled":false,"rental_uris":{"android":"levelo://app?vid=e1d91d49-3d6a-455b-9f1d-5bad8f5d0cfc","ios":"levelo://app?vid=e1d91d49-3d6a-455b-9f1d-5bad8f5d0cfc"},"vehicle_type_id":"4","last_reported":1714914412,"current_range_meters":26400,"station_id":"ce4bgs12rcd13ifvqcag","pricing_plan_id":"cebpf4jnsgd1na2vs0mg"},{"bike_id":"098ca026-98f8-4ec7-973e-5c9f2d0abd15","system_id":"levelo_inurba_marseille","lat":43.32006,"lon":5.36547,"is_reserved":false,"is_disabled":false,"rental_uris":{"android":"levelo://app?vid=098ca026-98f8-4ec7-973e-5c9f2d0abd15","ios":"levelo://app?vid=098ca026-98f8-4ec7-973e-5c9f2d0abd15"},"vehicle_type_id":"4","last_reported":1714914412,"current_range_meters":15600,"station_id":"","pricing_plan_id":"cebpf4jnsgd1na2vs0mg"},{"bike_id":"cb79e0ce-2e3d-4c17-a092-d01c8b8deb6e","system_id":"levelo_inurba_marseille","lat":43.30537,"lon":5.367345,"is_reserved":false,"is_disabled":false,"rental_uris":{"android":"levelo://app?vid=cb79e0ce-2e3d-4c17-a092-d01c8b8deb6e","ios":"levelo://app?vid=cb79e0ce-2e3d-4c17-a092-d01c8b8deb6e"},"vehicle_type_id":"4","last_reported":1714914412,"current_range_meters":30800,"station_id":"ce4bgrp2rcd13ifvqc9g","pricing_plan_id":"cebpf4jnsgd1na2vs0mg"},{"bike_id":"17985713-caa9-42b9-b714-1fc3aea39a89","system_id":"levelo_inurba_marseille","lat":43.305989,"lon":5.37225,"is_reserved":false,"is_disabled":false,"rental_uris":{"android":"levelo://app?vid=17985713-caa9-42b9-b714-1fc3aea39a89","ios":"levelo://app?vid=17985713-caa9-42b9-b714-1fc3aea39a89"},"vehicle_type_id":"4","last_reported":1714914412,"current_range_meters":25600,"station_id":"ce4bgqh2rcd13ifvqc4g","pricing_plan_id":"cebpf4jnsgd1na2vs0mg"},{"bike_id":"cb08b696-6457-4729-9478-837f41f45622","system_id":"levelo_inurba_marseille","lat":43.305989,"lon":5.37225,"is_reserved":false,"is_disabled":false,"rental_uris":{"android":"levelo://app?vid=cb08b696-6457-4729-9478-837f41f45622","ios":"levelo://app?vid=cb08b696-6457-4729-9478-837f41f45622"},"vehicle_type_id":"4","last_reported":1714914412,"current_range_meters":26800,"station_id":"ce4bgqh2rcd13ifvqc4g","pricing_plan_id":"cebpf4jnsgd1na2vs0mg"},{"bike_id":"bb6463d2-dddf-401d-acc1-7f941dcc282e","system_id":"levelo_inurba_marseille","lat":43.305989,"lon":5.37225,"is_reserved":false,"is_disabled":false,"rental_uris":{"android":"levelo://app?vid=bb6463d2-dddf-401d-acc1-7f941dcc282e","ios":"levelo://app?vid=bb6463d2-dddf-401d-acc1-7f941dcc282e"},"vehicle_type_id":"4","last_reported":1714914412,"current_range_meters":30400,"station_id":"ce4bgqh2rcd13ifvqc4g","pricing_plan_id":"cebpf4jnsgd1na2vs0mg"},{"bike_id":"0181bf04-22c7-4b25-85d3-2a7aa07a8c5f","system_id":"levelo_inurba_marseille","lat":43.305989,"lon":5.37225,"is_reserved":false,"is_disabled":false,"rental_uris":{"android":"levelo://app?vid=0181bf04-22c7-4b25-85d3-2a7aa07a8c5f","ios":"levelo://app?vid=0181bf04-22c7-4b25-85d3-2a7aa07a8c5f"},"vehicle_type_id":"4","last_reported":1714914412,"current_range_meters":30400,"station_id":"ce4bgqh2rcd13ifvqc4g","pricing_plan_id":"cebpf4jnsgd1na2vs0mg"},{"bike_id":"fbe4636b-ab58-44ec-99de-b0ea737eef01","system_id":"levelo_inurba_marseille","lat":43.305989,"lon":5.37225,"is_reserved":false,"is_disabled":false,"rental_uris":{"android":"levelo://app?vid=fbe4636b-ab58-44ec-99de-b0ea737eef01","ios":"levelo://app?vid=fbe4636b-ab58-44ec-99de-b0ea737eef01"},"vehicle_type_id":"4","last_reported":1714914412,"current_range_meters":5200,"station_id":"ce4bgqh2rcd13ifvqc4g","pricing_plan_id":"cebpf4jnsgd1na2vs0mg"},{"bike_id":"0a77ca22-02dc-4955-aa84-16c121e1039b","system_id":"levelo_inurba_marseille","lat":43.307945,"lon":5.376487,"is_reserved":false,"is_disabled":false,"rental_uris":{"android":"levelo://app?vid=0a77ca22-02dc-4955-aa84-16c121e1039b","ios":"levelo://app?vid=0a77ca22-02dc-4955-aa84-16c121e1039b"},"vehicle_type_id":"4","last_reported":1714914412,"current_range_meters":0,"station_id":"ce4bgv92rcd13ifvqcq0","pricing_plan_id":"cebpf4jnsgd1na2vs0mg"},{"bike_id":"2c7a1916-afec-4f5b-8339-b889a3477dcc","system_id":"levelo_inurba_marseille","lat":43.317075,"lon":5.377367,"is_reserved":false,"is_disabled":false,"rental_uris":{"android":"levelo://app?vid=2c7a1916-afec-4f5b-8339-b889a3477dcc","ios":"levelo://app?vid=2c7a1916-afec-4f5b-8339-b889a3477dcc"},"vehicle_type_id":"4","last_reported":1714914412,"current_range_meters":2000,"station_id":"ce4bgth2rcd13ifvqch0","pricing_plan_id":"cebpf4jnsgd1na2vs0mg"},{"bike_id":"99e868c0-7b59-439b-b0f5-d685b850c670","system_id":"levelo_inurba_marseille","lat":43.30491,"lon":5.37349,"is_reserved":false,"is_disabled":false,"rental_uris":{"android":"levelo://app?vid=99e868c0-7b59-439b-b0f5-d685b850c670","ios":"levelo://app?vid=99e868c0-7b59-439b-b0f5-d685b850c670"},"vehicle_type_id":"4","last_reported":1714914412,"current_range_meters":26000,"station_id":"","pricing_plan_id":"cebpf4jnsgd1na2vs0mg"},{"bike_id":"c3c0c803-d135-4e0f-a88c-91cfb2e2eb6f","system_id":"levelo_inurba_marseille","lat":43.31921,"lon":5.37613,"is_reserved":false,"is_disabled":false,"rental_uris":{"android":"levelo://app?vid=c3c0c803-d135-4e0f-a88c-91cfb2e2eb6f","ios":"levelo://app?vid=c3c0c803-d135-4e0f-a88c-91cfb2e2eb6f"},"vehicle_type_id":"4","last_reported":1714914412,"current_range_meters":0,"station_id":"","pricing_plan_id":"cebpf4jnsgd1na2vs0mg"},{"bike_id":"4ab5672d-b6a8-4cf0-8451-386f2f7f2b6a","system_id":"levelo_inurba_marseille","lat":43.312494,"lon":5.379743,"is_reserved":false,"is_disabled":false,"rental_uris":{"android":"levelo://app?vid=4ab5672d-b6a8-4cf0-8451-386f2f7f2b6a","ios":"levelo://app?vid=4ab5672d-b6a8-4cf0-8451-386f2f7f2b6a"},"vehicle_type_id":"4","last_reported":1714914412,"current_range_meters":3600,"station_id":"","pricing_plan_id":"cebpf4jnsgd1na2vs0mg"},{"bike_id":"ab46632f-3119-46b2-b245-8bc03bf6f7db","system_id":"levelo_inurba_marseille","lat":43.301939,"lon":5.366286,"is_reserved":false,"is_disabled":false,"rental_uris":{"android":"levelo://app?vid=ab46632f-3119-46b2-b245-8bc03bf6f7db","ios":"levelo://app?vid=ab46632f-3119-46b2-b245-8bc03bf6f7db"},"vehicle_type_id":"4","last_reported":1714914412,"current_range_meters":14000,"station_id":"ce4bgrh2rcd13ifvqc8g","pricing_plan_id":"cebpf4jnsgd1na2vs0mg"},{"bike_id":"118754a8-217e-442a-84be-a5a69ece30ec","system_id":"levelo_inurba_marseille","lat":43.304606,"lon":5.379026,"is_reserved":false,"is_disabled":false,"rental_uris":{"android":"levelo://app?vid=118754a8-217e-442a-84be-a5a69ece30ec","ios":"levelo://app?vid=118754a8-217e-442a-84be-a5a69ece30ec"},"vehicle_type_id":"4","last_reported":1714914412,"current_range_meters":0,"station_id":"ce4bgup2rcd13ifvqcn0","pricing_plan_id":"cebpf4jnsgd1na2vs0mg"},{"bike_id":"1b36ce78-22de-4bc1-8332-0b964fdec04e","system_id":"levelo_inurba_marseille","lat":43.324771,"lon":5.36557,"is_reserved":false,"is_disabled":false,"rental_uris":{"android":"levelo://app?vid=1b36ce78-22de-4bc1-8332-0b964fdec04e","ios":"levelo://app?vid=1b36ce78-22de-4bc1-8332-0b964fdec04e"},"vehicle_type_id":"4","last_reported":1714914412,"current_range_meters":20000,"station_id":"ce4bhs12rcd13ifvqhvg","pricing_plan_id":"cebpf4jnsgd1na2vs0mg"},{"bike_id":"597411bf-9c7c-4a42-abaf-331dc492129a","system_id":"levelo_inurba_marseille","lat":43.304606,"lon":5.379026,"is_reserved":false,"is_disabled":false,"rental_uris":{"android":"levelo://app?vid=597411bf-9c7c-4a42-abaf-331dc492129a","ios":"levelo://app?vid=597411bf-9c7c-4a42-abaf-331dc492129a"},"vehicle_type_id":"4","last_reported":1714914412,"current_range_meters":24800,"station_id":"ce4bgup2rcd13ifvqcn0","pricing_plan_id":"cebpf4jnsgd1na2vs0mg"},{"bike_id":"8909905b-9e5a-4374-b2f5-fb360420b558","system_id":"levelo_inurba_marseille","lat":43.324771,"lon":5.36557,"is_reserved":false,"is_disabled":false,"rental_uris":{"android":"levelo://app?vid=8909905b-9e5a-4374-b2f5-fb360420b558","ios":"levelo://app?vid=8909905b-9e5a-4374-b2f5-fb360420b558"},"vehicle_type_id":"4","last_reported":1714914412,"current_range_meters":10000,"station_id":"ce4bhs12rcd13ifvqhvg","pricing_plan_id":"cebpf4jnsgd1na2vs0mg"},{"bike_id":"8a8b0ccb-ec4d-4b68-b8e2-9254ae8e32f3","system_id":"levelo_inurba_marseille","lat":43.32484,"lon":5.36559,"is_reserved":false,"is_disabled":false,"rental_uris":{"android":"levelo://app?vid=8a8b0ccb-ec4d-4b68-b8e2-9254ae8e32f3","ios":"levelo://app?vid=8a8b0ccb-ec4d-4b68-b8e2-9254ae8e32f3"},"vehicle_type_id":"4","last_reported":1714914412,"current_range_meters":0,"station_id":"ce4bhs12rcd13ifvqhvg","pricing_plan_id":"cebpf4jnsgd1na2vs0mg"},{"bike_id":"ea6f6a56-ea1d-48b1-83a0-e522f8a5450f","system_id":"levelo_inurba_marseille","lat":43.30143,"lon":5.37413,"is_reserved":false,"is_disabled":false,"rental_uris":{"android":"levelo://app?vid=ea6f6a56-ea1d-48b1-83a0-e522f8a5450f","ios":"levelo://app?vid=ea6f6a56-ea1d-48b1-83a0-e522f8a5450f"},"vehicle_type_id":"4","last_reported":1714914412,"current_range_meters":30000,"station_id":"ce4bgs92rcd13ifvqcc0","pricing_plan_id":"cebpf4jnsgd1na2vs0mg"},{"bike_id":"8a3ad619-195a-4d59-b03b-48ecefa7a3a8","system_id":"levelo_inurba_marseille","lat":43.313571,"lon":5.384829,"is_reserved":false,"is_disabled":false,"rental_uris":{"android":"levelo://app?vid=8a3ad619-195a-4d59-b03b-48ecefa7a3a8","ios":"levelo://app?vid=8a3ad619-195a-4d59-b03b-48ecefa7a3a8"},"vehicle_type_id":"4","last_reported":1714914412,"current_range_meters":10400,"station_id":"ce4bgt92rcd13ifvqcf0","pricing_plan_id":"cebpf4jnsgd1na2vs0mg"},{"bike_id":"034285ef-c710-4309-9fd7-1cb83a77e46b","system_id":"levelo_inurba_marseille","lat":43.313571,"lon":5.384829,"is_reserved":false,"is_disabled":false,"rental_uris":{"android":"levelo://app?vid=034285ef-c710-4309-9fd7-1cb83a77e46b","ios":"levelo://app?vid=034285ef-c710-4309-9fd7-1cb83a77e46b"},"vehicle_type_id":"4","last_reported":1714914412,"current_range_meters":24000,"station_id":"ce4bgt92rcd13ifvqcf0","pricing_plan_id":"cebpf4jnsgd1na2vs0mg"},{"bike_id":"7c74ce3a-6d64-431d-bf86-aaedcb3c2c19","system_id":"levelo_inurba_marseille","lat":43.299222,"lon":5.365554,"is_reserved":false,"is_disabled":false,"rental_uris":{"android":"levelo://app?vid=7c74ce3a-6d64-431d-bf86-aaedcb3c2c19","ios":"levelo://app?vid=7c74ce3a-6d64-431d-bf86-aaedcb3c2c19"},"vehicle_type_id":"4","last_reported":1714914412,"current_range_meters":0,"station_id":"ce4bgm92rcd13ifvqbr0","pricing_plan_id":"cebpf4jnsgd1na2vs0mg"},{"bike_id":"1051bbed-7f81-47cd-a0f7-367d9463548f","system_id":"levelo_inurba_marseille","lat":43.299222,"lon":5.365554,"is_reserved":false,"is_disabled":false,"rental_uris":{"android":"levelo://app?vid=1051bbed-7f81-47cd-a0f7-367d9463548f","ios":"levelo://app?vid=1051bbed-7f81-47cd-a0f7-367d9463548f"},"vehicle_type_id":"4","last_reported":1714914412,"current_range_meters":13600,"station_id":"ce4bgm92rcd13ifvqbr0","pricing_plan_id":"cebpf4jnsgd1na2vs0mg"},{"bike_id":"092d3af4-9bea-4770-b3bf-3a70ad4a047c","system_id":"levelo_inurba_marseille","lat":43.299222,"lon":5.365554,"is_reserved":false,"is_disabled":false,"rental_uris":{"android":"levelo://app?vid=092d3af4-9bea-4770-b3bf-3a70ad4a047c","ios":"levelo://app?vid=092d3af4-9bea-4770-b3bf-3a70ad4a047c"},"vehicle_type_id":"4","last_reported":1714914412,"current_range_meters":6400,"station_id":"ce4bgm92rcd13ifvqbr0","pricing_plan_id":"cebpf4jnsgd1na2vs0mg"},{"bike_id":"847bfe11-624c-467c-a9c5-0fc036cc0aef","system_id":"levelo_inurba_marseille","lat":43.298433,"lon":5.362774,"is_reserved":false,"is_disabled":false,"rental_uris":{"android":"levelo://app?vid=847bfe11-624c-467c-a9c5-0fc036cc0aef","ios":"levelo://app?vid=847bfe11-624c-467c-a9c5-0fc036cc0aef"},"vehicle_type_id":"4","last_reported":1714914412,"current_range_meters":18400,"station_id":"ce4bgpp2rcd13ifvqc3g","pricing_plan_id":"cebpf4jnsgd1na2vs0mg"},{"bike_id":"f2927cca-b103-41d8-a3b1-025a8d44ffbe","system_id":"levelo_inurba_marseille","lat":43.298433,"lon":5.362774,"is_reserved":false,"is_disabled":false,"rental_uris":{"android":"levelo://app?vid=f2927cca-b103-41d8-a3b1-025a8d44ffbe","ios":"levelo://app?vid=f2927cca-b103-41d8-a3b1-025a8d44ffbe"},"vehicle_type_id":"4","last_reported":1714914412,"current_range_meters":8800,"station_id":"ce4bgpp2rcd13ifvqc3g","pricing_plan_id":"cebpf4jnsgd1na2vs0mg"},{"bike_id":"dfbcc3d7-1028-4db4-acdb-00ac97fdd35a","system_id":"levelo_inurba_marseille","lat":43.298433,"lon":5.362774,"is_reserved":false,"is_disabled":false,"rental_uris":{"android":"levelo://app?vid=dfbcc3d7-1028-4db4-acdb-00ac97fdd35a","ios":"levelo://app?vid=dfbcc3d7-1028-4db4-acdb-00ac97fdd35a"},"vehicle_type_id":"4","last_reported":1714914412,"current_range_meters":0,"station_id":"ce4bgpp2rcd13ifvqc3g","pricing_plan_id":"cebpf4jnsgd1na2vs0mg"},{"bike_id":"8c490b36-50ef-4a54-bdaf-e895303575cc","system_id":"levelo_inurba_marseille","lat":43.298433,"lon":5.362774,"is_reserved":false,"is_disabled":false,"rental_uris":{"android":"levelo://app?vid=8c490b36-50ef-4a54-bdaf-e895303575cc","ios":"levelo://app?vid=8c490b36-50ef-4a54-bdaf-e895303575cc"},"vehicle_type_id":"4","last_reported":1714914412,"current_range_meters":25600,"station_id":"ce4bgpp2rcd13ifvqc3g","pricing_plan_id":"cebpf4jnsgd1na2vs0mg"},{"bike_id":"25c1fcd7-c808-4732-b677-8585de29dc3f","system_id":"levelo_inurba_marseille","lat":43.29839,"lon":5.36266,"is_reserved":false,"is_disabled":false,"rental_uris":{"android":"levelo://app?vid=25c1fcd7-c808-4732-b677-8585de29dc3f","ios":"levelo://app?vid=25c1fcd7-c808-4732-b677-8585de29dc3f"},"vehicle_type_id":"4","last_reported":1714914412,"current_range_meters":26400,"station_id":"ce4bgpp2rcd13ifvqc3g","pricing_plan_id":"cebpf4jnsgd1na2vs0mg"},{"bike_id":"2d18849e-032d-4d81-b5a4-9ad147339139","system_id":"levelo_inurba_marseille","lat":43.29824,"lon":5.36244,"is_reserved":false,"is_disabled":false,"rental_uris":{"android":"levelo://app?vid=2d18849e-032d-4d81-b5a4-9ad147339139","ios":"levelo://app?vid=2d18849e-032d-4d81-b5a4-9ad147339139"},"vehicle_type_id":"4","last_reported":1714914412,"current_range_meters":13600,"station_id":"ce4bgpp2rcd13ifvqc3g","pricing_plan_id":"cebpf4jnsgd1na2vs0mg"},{"bike_id":"173da4b8-9964-4de8-add7-c3fea288b4f9","system_id":"levelo_inurba_marseille","lat":43.296277,"lon":5.377108,"is_reserved":false,"is_disabled":false,"rental_uris":{"android":"levelo://app?vid=173da4b8-9964-4de8-add7-c3fea288b4f9","ios":"levelo://app?vid=173da4b8-9964-4de8-add7-c3fea288b4f9"},"vehicle_type_id":"4","last_reported":1714914412,"current_range_meters":0,"station_id":"ce4bgi92rcd13ifvqb90","pricing_plan_id":"cebpf4jnsgd1na2vs0mg"},{"bike_id":"775bef3e-6474-4a92-af2d-4d779adde2ba","system_id":"levelo_inurba_marseille","lat":43.298108,"lon":5.362898,"is_reserved":false,"is_disabled":false,"rental_uris":{"android":"levelo://app?vid=775bef3e-6474-4a92-af2d-4d779adde2ba","ios":"levelo://app?vid=775bef3e-6474-4a92-af2d-4d779adde2ba"},"vehicle_type_id":"4","last_reported":1714914412,"current_range_meters":21600,"station_id":"ce4bgpp2rcd13ifvqc3g","pricing_plan_id":"cebpf4jnsgd1na2vs0mg"},{"bike_id":"1ad5f14a-6757-400b-994f-105b1354e150","system_id":"levelo_inurba_marseille","lat":43.297774,"lon":5.370875,"is_reserved":false,"is_disabled":false,"rental_uris":{"android":"levelo://app?vid=1ad5f14a-6757-400b-994f-105b1354e150","ios":"levelo://app?vid=1ad5f14a-6757-400b-994f-105b1354e150"},"vehicle_type_id":"4","last_reported":1714914412,"current_range_meters":19200,"station_id":"ce4bgop2rcd13ifvqc1g","pricing_plan_id":"cebpf4jnsgd1na2vs0mg"},{"bike_id":"a5d151a4-4e28-4433-a27b-544ded128b2a","system_id":"levelo_inurba_marseille","lat":43.31511,"lon":5.38948,"is_reserved":false,"is_disabled":false,"rental_uris":{"android":"levelo://app?vid=a5d151a4-4e28-4433-a27b-544ded128b2a","ios":"levelo://app?vid=a5d151a4-4e28-4433-a27b-544ded128b2a"},"vehicle_type_id":"4","last_reported":1714914412,"current_range_meters":7200,"station_id":"","pricing_plan_id":"cebpf4jnsgd1na2vs0mg"},{"bike_id":"70f26652-12c4-4af3-8147-b2a3a9769243","system_id":"levelo_inurba_marseille","lat":43.29573,"lon":5.367355,"is_reserved":false,"is_disabled":false,"rental_uris":{"android":"levelo://app?vid=70f26652-12c4-4af3-8147-b2a3a9769243","ios":"levelo://app?vid=70f26652-12c4-4af3-8147-b2a3a9769243"},"vehicle_type_id":"4","last_reported":1714914412,"current_range_meters":17200,"station_id":"ce4bgph2rcd13ifvqc2g","pricing_plan_id":"cebpf4jnsgd1na2vs0mg"},{"bike_id":"40da99fc-27ed-443e-aee5-0b16bd92fde2","system_id":"levelo_inurba_marseille","lat":43.29573,"lon":5.367355,"is_reserved":false,"is_disabled":false,"rental_uris":{"android":"levelo://app?vid=40da99fc-27ed-443e-aee5-0b16bd92fde2","ios":"levelo://app?vid=40da99fc-27ed-443e-aee5-0b16bd92fde2"},"vehicle_type_id":"4","last_reported":1714914412,"current_range_meters":11200,"station_id":"ce4bgph2rcd13ifvqc2g","pricing_plan_id":"cebpf4jnsgd1na2vs0mg"},{"bike_id":"1f701b43-8046-441e-9b56-0afcde08550d","system_id":"levelo_inurba_marseille","lat":43.296131,"lon":5.370791,"is_reserved":false,"is_disabled":false,"rental_uris":{"android":"levelo://app?vid=1f701b43-8046-441e-9b56-0afcde08550d","ios":"levelo://app?vid=1f701b43-8046-441e-9b56-0afcde08550d"},"vehicle_type_id":"4","last_reported":1714914412,"current_range_meters":0,"station_id":"ce4bgnh2rcd13ifvqc0g","pricing_plan_id":"cebpf4jnsgd1na2vs0mg"},{"bike_id":"e297b14d-ea23-4b6c-a9a5-10dfca1e5a8e","system_id":"levelo_inurba_marseille","lat":43.296131,"lon":5.370773,"is_reserved":false,"is_disabled":false,"rental_uris":{"android":"levelo://app?vid=e297b14d-ea23-4b6c-a9a5-10dfca1e5a8e","ios":"levelo://app?vid=e297b14d-ea23-4b6c-a9a5-10dfca1e5a8e"},"vehicle_type_id":"4","last_reported":1714914412,"current_range_meters":9600,"station_id":"ce4bgnh2rcd13ifvqc0g","pricing_plan_id":"cebpf4jnsgd1na2vs0mg"},{"bike_id":"a61ede1b-5ada-42a4-a81a-28b3f7b6f99d","system_id":"levelo_inurba_marseille","lat":43.29573,"lon":5.367355,"is_reserved":false,"is_disabled":false,"rental_uris":{"android":"levelo://app?vid=a61ede1b-5ada-42a4-a81a-28b3f7b6f99d","ios":"levelo://app?vid=a61ede1b-5ada-42a4-a81a-28b3f7b6f99d"},"vehicle_type_id":"4","last_reported":1714914412,"current_range_meters":800,"station_id":"ce4bgph2rcd13ifvqc2g","pricing_plan_id":"cebpf4jnsgd1na2vs0mg"},{"bike_id":"f6618a01-8e8b-4350-b4a2-0d6e30502eee","system_id":"levelo_inurba_marseille","lat":43.296935,"lon":5.376544,"is_reserved":false,"is_disabled":false,"rental_uris":{"android":"levelo://app?vid=f6618a01-8e8b-4350-b4a2-0d6e30502eee","ios":"levelo://app?vid=f6618a01-8e8b-4350-b4a2-0d6e30502eee"},"vehicle_type_id":"4","last_reported":1714914412,"current_range_meters":16800,"station_id":"ce4bgkh2rcd13ifvqbl0","pricing_plan_id":"cebpf4jnsgd1na2vs0mg"},{"bike_id":"e8bda445-d0bb-43b5-99c6-2b1ccc4c8c35","system_id":"levelo_inurba_marseille","lat":43.299028,"lon":5.381509,"is_reserved":false,"is_disabled":false,"rental_uris":{"android":"levelo://app?vid=e8bda445-d0bb-43b5-99c6-2b1ccc4c8c35","ios":"levelo://app?vid=e8bda445-d0bb-43b5-99c6-2b1ccc4c8c35"},"vehicle_type_id":"4","last_reported":1714914412,"current_range_meters":0,"station_id":"ce4bgj12rcd13ifvqbc0","pricing_plan_id":"cebpf4jnsgd1na2vs0mg"},{"bike_id":"58588f55-118f-49c3-9b4a-2ddecd8e8961","system_id":"levelo_inurba_marseille","lat":43.30952,"lon":5.39031,"is_reserved":false,"is_disabled":false,"rental_uris":{"android":"levelo://app?vid=58588f55-118f-49c3-9b4a-2ddecd8e8961","ios":"levelo://app?vid=58588f55-118f-49c3-9b4a-2ddecd8e8961"},"vehicle_type_id":"4","last_reported":1714914412,"current_range_meters":18400,"station_id":"ce4bgup2rcd13ifvqco0","pricing_plan_id":"cebpf4jnsgd1na2vs0mg"},{"bike_id":"49144b57-230e-4bcc-b1fc-88e68bb37e85","system_id":"levelo_inurba_marseille","lat":43.309589,"lon":5.390258,"is_reserved":false,"is_disabled":false,"rental_uris":{"android":"levelo://app?vid=49144b57-230e-4bcc-b1fc-88e68bb37e85","ios":"levelo://app?vid=49144b57-230e-4bcc-b1fc-88e68bb37e85"},"vehicle_type_id":"4","last_reported":1714914412,"current_range_meters":26000,"station_id":"ce4bgup2rcd13ifvqco0","pricing_plan_id":"cebpf4jnsgd1na2vs0mg"},{"bike_id":"3a57ef19-b2a4-4c2e-a6ba-f602554b5a29","system_id":"levelo_inurba_marseille","lat":43.30951,"lon":5.39035,"is_reserved":false,"is_disabled":false,"rental_uris":{"android":"levelo://app?vid=3a57ef19-b2a4-4c2e-a6ba-f602554b5a29","ios":"levelo://app?vid=3a57ef19-b2a4-4c2e-a6ba-f602554b5a29"},"vehicle_type_id":"4","last_reported":1714914412,"current_range_meters":20000,"station_id":"ce4bgup2rcd13ifvqco0","pricing_plan_id":"cebpf4jnsgd1na2vs0mg"},{"bike_id":"31f2409a-c307-485b-a504-d78d58ea6aea","system_id":"levelo_inurba_marseille","lat":43.309589,"lon":5.390258,"is_reserved":false,"is_disabled":false,"rental_uris":{"android":"levelo://app?vid=31f2409a-c307-485b-a504-d78d58ea6aea","ios":"levelo://app?vid=31f2409a-c307-485b-a504-d78d58ea6aea"},"vehicle_type_id":"4","last_reported":1714914412,"current_range_meters":22000,"station_id":"ce4bgup2rcd13ifvqco0","pricing_plan_id":"cebpf4jnsgd1na2vs0mg"},{"bike_id":"3d315f48-dcba-402c-8802-9154e15291fb","system_id":"levelo_inurba_marseille","lat":43.309577,"lon":5.390383,"is_reserved":false,"is_disabled":false,"rental_uris":{"android":"levelo://app?vid=3d315f48-dcba-402c-8802-9154e15291fb","ios":"levelo://app?vid=3d315f48-dcba-402c-8802-9154e15291fb"},"vehicle_type_id":"4","last_reported":1714914412,"current_range_meters":0,"station_id":"ce4bgup2rcd13ifvqco0","pricing_plan_id":"cebpf4jnsgd1na2vs0mg"},{"bike_id":"a6273e01-fa52-4583-9f4e-704faf6a8248","system_id":"levelo_inurba_marseille","lat":43.30956,"lon":5.39041,"is_reserved":false,"is_disabled":false,"rental_uris":{"android":"levelo://app?vid=a6273e01-fa52-4583-9f4e-704faf6a8248","ios":"levelo://app?vid=a6273e01-fa52-4583-9f4e-704faf6a8248"},"vehicle_type_id":"4","last_reported":1714914412,"current_range_meters":20400,"station_id":"ce4bgup2rcd13ifvqco0","pricing_plan_id":"cebpf4jnsgd1na2vs0mg"},{"bike_id":"4e55dc77-a61f-4deb-87d5-558b1574e467","system_id":"levelo_inurba_marseille","lat":43.30958,"lon":5.39044,"is_reserved":false,"is_disabled":false,"rental_uris":{"android":"levelo://app?vid=4e55dc77-a61f-4deb-87d5-558b1574e467","ios":"levelo://app?vid=4e55dc77-a61f-4deb-87d5-558b1574e467"},"vehicle_type_id":"4","last_reported":1714914412,"current_range_meters":12400,"station_id":"ce4bgup2rcd13ifvqco0","pricing_plan_id":"cebpf4jnsgd1na2vs0mg"},{"bike_id":"cbd7dc33-b578-4c37-8b1c-6a24e2046c53","system_id":"levelo_inurba_marseille","lat":43.30959,"lon":5.39049,"is_reserved":false,"is_disabled":false,"rental_uris":{"android":"levelo://app?vid=cbd7dc33-b578-4c37-8b1c-6a24e2046c53","ios":"levelo://app?vid=cbd7dc33-b578-4c37-8b1c-6a24e2046c53"},"vehicle_type_id":"4","last_reported":1714914412,"current_range_meters":0,"station_id":"ce4bgup2rcd13ifvqco0","pricing_plan_id":"cebpf4jnsgd1na2vs0mg"},{"bike_id":"38f115d8-4dc9-4419-9af0-10a938ca7093","system_id":"levelo_inurba_marseille","lat":43.317557,"lon":5.390173,"is_reserved":false,"is_disabled":false,"rental_uris":{"android":"levelo://app?vid=38f115d8-4dc9-4419-9af0-10a938ca7093","ios":"levelo://app?vid=38f115d8-4dc9-4419-9af0-10a938ca7093"},"vehicle_type_id":"4","last_reported":1714914412,"current_range_meters":24000,"station_id":"ce4bhqp2rcd13ifvqhng","pricing_plan_id":"cebpf4jnsgd1na2vs0mg"},{"bike_id":"491008a8-c641-4bd8-af7c-530256ffc7bb","system_id":"levelo_inurba_marseille","lat":43.317557,"lon":5.390173,"is_reserved":false,"is_disabled":false,"rental_uris":{"android":"levelo://app?vid=491008a8-c641-4bd8-af7c-530256ffc7bb","ios":"levelo://app?vid=491008a8-c641-4bd8-af7c-530256ffc7bb"},"vehicle_type_id":"4","last_reported":1714914412,"current_range_meters":28800,"station_id":"ce4bhqp2rcd13ifvqhng","pricing_plan_id":"cebpf4jnsgd1na2vs0mg"},{"bike_id":"d0fcf921-b9a6-4004-acec-acaabd704dbe","system_id":"levelo_inurba_marseille","lat":43.317557,"lon":5.390173,"is_reserved":false,"is_disabled":false,"rental_uris":{"android":"levelo://app?vid=d0fcf921-b9a6-4004-acec-acaabd704dbe","ios":"levelo://app?vid=d0fcf921-b9a6-4004-acec-acaabd704dbe"},"vehicle_type_id":"4","last_reported":1714914412,"current_range_meters":0,"station_id":"ce4bhqp2rcd13ifvqhng","pricing_plan_id":"cebpf4jnsgd1na2vs0mg"},{"bike_id":"35b70ffc-51ea-402e-93f7-932f466d751f","system_id":"levelo_inurba_marseille","lat":43.317557,"lon":5.390173,"is_reserved":false,"is_disabled":false,"rental_uris":{"android":"levelo://app?vid=35b70ffc-51ea-402e-93f7-932f466d751f","ios":"levelo://app?vid=35b70ffc-51ea-402e-93f7-932f466d751f"},"vehicle_type_id":"4","last_reported":1714914412,"current_range_meters":31600,"station_id":"ce4bhqp2rcd13ifvqhng","pricing_plan_id":"cebpf4jnsgd1na2vs0mg"},{"bike_id":"2045d3c4-46b6-4939-b34a-ba22cb4a3c7b","system_id":"levelo_inurba_marseille","lat":43.295748,"lon":5.37522,"is_reserved":false,"is_disabled":false,"rental_uris":{"android":"levelo://app?vid=2045d3c4-46b6-4939-b34a-ba22cb4a3c7b","ios":"levelo://app?vid=2045d3c4-46b6-4939-b34a-ba22cb4a3c7b"},"vehicle_type_id":"4","last_reported":1714914412,"current_range_meters":2400,"station_id":"ce4bgh92rcd13ifvqb50","pricing_plan_id":"cebpf4jnsgd1na2vs0mg"},{"bike_id":"7c121561-3a3f-4fd0-a011-b51a30ff5dcb","system_id":"levelo_inurba_marseille","lat":43.296263,"lon":5.377094,"is_reserved":false,"is_disabled":false,"rental_uris":{"android":"levelo://app?vid=7c121561-3a3f-4fd0-a011-b51a30ff5dcb","ios":"levelo://app?vid=7c121561-3a3f-4fd0-a011-b51a30ff5dcb"},"vehicle_type_id":"4","last_reported":1714914412,"current_range_meters":24000,"station_id":"ce4bgi92rcd13ifvqb90","pricing_plan_id":"cebpf4jnsgd1na2vs0mg"},{"bike_id":"7d008e8d-47c5-48cf-bc9e-ec542619d537","system_id":"levelo_inurba_marseille","lat":43.296277,"lon":5.377108,"is_reserved":false,"is_disabled":false,"rental_uris":{"android":"levelo://app?vid=7d008e8d-47c5-48cf-bc9e-ec542619d537","ios":"levelo://app?vid=7d008e8d-47c5-48cf-bc9e-ec542619d537"},"vehicle_type_id":"4","last_reported":1714914412,"current_range_meters":0,"station_id":"ce4bgi92rcd13ifvqb90","pricing_plan_id":"cebpf4jnsgd1na2vs0mg"},{"bike_id":"5a450c04-7228-459b-bcfa-ab80d0ceff5a","system_id":"levelo_inurba_marseille","lat":43.29608,"lon":5.3772,"is_reserved":false,"is_disabled":false,"rental_uris":{"android":"levelo://app?vid=5a450c04-7228-459b-bcfa-ab80d0ceff5a","ios":"levelo://app?vid=5a450c04-7228-459b-bcfa-ab80d0ceff5a"},"vehicle_type_id":"4","last_reported":1714914412,"current_range_meters":0,"station_id":"ce4bgi92rcd13ifvqb90","pricing_plan_id":"cebpf4jnsgd1na2vs0mg"},{"bike_id":"f91015ff-39f2-4a5e-8597-44085cd12baf","system_id":"levelo_inurba_marseille","lat":43.29525,"lon":5.37508,"is_reserved":false,"is_disabled":false,"rental_uris":{"android":"levelo://app?vid=f91015ff-39f2-4a5e-8597-44085cd12baf","ios":"levelo://app?vid=f91015ff-39f2-4a5e-8597-44085cd12baf"},"vehicle_type_id":"4","last_reported":1714914412,"current_range_meters":0,"station_id":"ce4bgkp2rcd13ifvqbmg","pricing_plan_id":"cebpf4jnsgd1na2vs0mg"},{"bike_id":"392a573d-d2d2-42c9-a5fa-f0236ceea603","system_id":"levelo_inurba_marseille","lat":43.299724,"lon":5.384848,"is_reserved":false,"is_disabled":false,"rental_uris":{"android":"levelo://app?vid=392a573d-d2d2-42c9-a5fa-f0236ceea603","ios":"levelo://app?vid=392a573d-d2d2-42c9-a5fa-f0236ceea603"},"vehicle_type_id":"4","last_reported":1714914412,"current_range_meters":30400,"station_id":"ce4bgj92rcd13ifvqbd0","pricing_plan_id":"cebpf4jnsgd1na2vs0mg"},{"bike_id":"23f55ff5-9e52-4b26-a4cb-32035149fe7b","system_id":"levelo_inurba_marseille","lat":43.299717,"lon":5.384845,"is_reserved":false,"is_disabled":false,"rental_uris":{"android":"levelo://app?vid=23f55ff5-9e52-4b26-a4cb-32035149fe7b","ios":"levelo://app?vid=23f55ff5-9e52-4b26-a4cb-32035149fe7b"},"vehicle_type_id":"4","last_reported":1714914412,"current_range_meters":0,"station_id":"ce4bgj92rcd13ifvqbd0","pricing_plan_id":"cebpf4jnsgd1na2vs0mg"},{"bike_id":"4aea2e82-0cdf-4153-b564-ca9dc509ca6b","system_id":"levelo_inurba_marseille","lat":43.32363,"lon":5.38876,"is_reserved":false,"is_disabled":false,"rental_uris":{"android":"levelo://app?vid=4aea2e82-0cdf-4153-b564-ca9dc509ca6b","ios":"levelo://app?vid=4aea2e82-0cdf-4153-b564-ca9dc509ca6b"},"vehicle_type_id":"4","last_reported":1714914412,"current_range_meters":10800,"station_id":"ce4bhqp2rcd13ifvqhog","pricing_plan_id":"cebpf4jnsgd1na2vs0mg"},{"bike_id":"3626cecc-3bd7-4b94-a430-9363a451aeff","system_id":"levelo_inurba_marseille","lat":43.32364,"lon":5.38878,"is_reserved":false,"is_disabled":false,"rental_uris":{"android":"levelo://app?vid=3626cecc-3bd7-4b94-a430-9363a451aeff","ios":"levelo://app?vid=3626cecc-3bd7-4b94-a430-9363a451aeff"},"vehicle_type_id":"4","last_reported":1714914412,"current_range_meters":26000,"station_id":"ce4bhqp2rcd13ifvqhog","pricing_plan_id":"cebpf4jnsgd1na2vs0mg"},{"bike_id":"4176ad1d-d0ba-4624-b243-38b4c50f7116","system_id":"levelo_inurba_marseille","lat":43.32361,"lon":5.38881,"is_reserved":false,"is_disabled":false,"rental_uris":{"android":"levelo://app?vid=4176ad1d-d0ba-4624-b243-38b4c50f7116","ios":"levelo://app?vid=4176ad1d-d0ba-4624-b243-38b4c50f7116"},"vehicle_type_id":"4","last_reported":1714914412,"current_range_meters":800,"station_id":"ce4bhqp2rcd13ifvqhog","pricing_plan_id":"cebpf4jnsgd1na2vs0mg"},{"bike_id":"29fce6c8-8e91-438a-9e65-c5c110f5bd44","system_id":"levelo_inurba_marseille","lat":43.323653,"lon":5.388825,"is_reserved":false,"is_disabled":false,"rental_uris":{"android":"levelo://app?vid=29fce6c8-8e91-438a-9e65-c5c110f5bd44","ios":"levelo://app?vid=29fce6c8-8e91-438a-9e65-c5c110f5bd44"},"vehicle_type_id":"4","last_reported":1714914412,"current_range_meters":13600,"station_id":"ce4bhqp2rcd13ifvqhog","pricing_plan_id":"cebpf4jnsgd1na2vs0mg"},{"bike_id":"c168d4ea-235d-4dbb-9844-b3ebe44d593c","system_id":"levelo_inurba_marseille","lat":43.32367,"lon":5.388836,"is_reserved":false,"is_disabled":false,"rental_uris":{"android":"levelo://app?vid=c168d4ea-235d-4dbb-9844-b3ebe44d593c","ios":"levelo://app?vid=c168d4ea-235d-4dbb-9844-b3ebe44d593c"},"vehicle_type_id":"4","last_reported":1714914412,"current_range_meters":26400,"station_id":"ce4bhqp2rcd13ifvqhog","pricing_plan_id":"cebpf4jnsgd1na2vs0mg"},{"bike_id":"b11db906-28de-42cd-b6c4-7a2b7a5989ab","system_id":"levelo_inurba_marseille","lat":43.32366,"lon":5.38884,"is_reserved":false,"is_disabled":false,"rental_uris":{"android":"levelo://app?vid=b11db906-28de-42cd-b6c4-7a2b7a5989ab","ios":"levelo://app?vid=b11db906-28de-42cd-b6c4-7a2b7a5989ab"},"vehicle_type_id":"4","last_reported":1714914412,"current_range_meters":0,"station_id":"ce4bhqp2rcd13ifvqhog","pricing_plan_id":"cebpf4jnsgd1na2vs0mg"},{"bike_id":"4a39b302-b5a2-4539-b586-f66857dbb7c6","system_id":"levelo_inurba_marseille","lat":43.32367,"lon":5.38886,"is_reserved":false,"is_disabled":false,"rental_uris":{"android":"levelo://app?vid=4a39b302-b5a2-4539-b586-f66857dbb7c6","ios":"levelo://app?vid=4a39b302-b5a2-4539-b586-f66857dbb7c6"},"vehicle_type_id":"4","last_reported":1714914412,"current_range_meters":0,"station_id":"ce4bhqp2rcd13ifvqhog","pricing_plan_id":"cebpf4jnsgd1na2vs0mg"},{"bike_id":"98d87a27-b1a6-4043-aefb-2529fd5f5e5c","system_id":"levelo_inurba_marseille","lat":43.32367,"lon":5.388836,"is_reserved":false,"is_disabled":false,"rental_uris":{"android":"levelo://app?vid=98d87a27-b1a6-4043-aefb-2529fd5f5e5c","ios":"levelo://app?vid=98d87a27-b1a6-4043-aefb-2529fd5f5e5c"},"vehicle_type_id":"4","last_reported":1714914412,"current_range_meters":13200,"station_id":"ce4bhqp2rcd13ifvqhog","pricing_plan_id":"cebpf4jnsgd1na2vs0mg"},{"bike_id":"3388576d-7f4f-442c-98f0-09b55a568319","system_id":"levelo_inurba_marseille","lat":43.29602,"lon":5.381084,"is_reserved":false,"is_disabled":false,"rental_uris":{"android":"levelo://app?vid=3388576d-7f4f-442c-98f0-09b55a568319","ios":"levelo://app?vid=3388576d-7f4f-442c-98f0-09b55a568319"},"vehicle_type_id":"4","last_reported":1714914412,"current_range_meters":0,"station_id":"ce4bgl12rcd13ifvqbo0","pricing_plan_id":"cebpf4jnsgd1na2vs0mg"},{"bike_id":"0c702de5-b73c-4281-b005-3a30b580e5c0","system_id":"levelo_inurba_marseille","lat":43.29307,"lon":5.37173,"is_reserved":false,"is_disabled":false,"rental_uris":{"android":"levelo://app?vid=0c702de5-b73c-4281-b005-3a30b580e5c0","ios":"levelo://app?vid=0c702de5-b73c-4281-b005-3a30b580e5c0"},"vehicle_type_id":"4","last_reported":1714914412,"current_range_meters":0,"station_id":"ce4bgh92rcd13ifvqb40","pricing_plan_id":"cebpf4jnsgd1na2vs0mg"},{"bike_id":"d05f212d-f562-4fe4-a10c-a92ab8575d99","system_id":"levelo_inurba_marseille","lat":43.29278,"lon":5.36849,"is_reserved":false,"is_disabled":false,"rental_uris":{"android":"levelo://app?vid=d05f212d-f562-4fe4-a10c-a92ab8575d99","ios":"levelo://app?vid=d05f212d-f562-4fe4-a10c-a92ab8575d99"},"vehicle_type_id":"4","last_reported":1714914412,"current_range_meters":15200,"station_id":"ce4bhbp2rcd13ifvqesg","pricing_plan_id":"cebpf4jnsgd1na2vs0mg"},{"bike_id":"09f7cb5d-9edd-47d2-a04e-f1b90dc48fc4","system_id":"levelo_inurba_marseille","lat":43.292749,"lon":5.368402,"is_reserved":false,"is_disabled":false,"rental_uris":{"android":"levelo://app?vid=09f7cb5d-9edd-47d2-a04e-f1b90dc48fc4","ios":"levelo://app?vid=09f7cb5d-9edd-47d2-a04e-f1b90dc48fc4"},"vehicle_type_id":"4","last_reported":1714914412,"current_range_meters":21200,"station_id":"ce4bhbp2rcd13ifvqesg","pricing_plan_id":"cebpf4jnsgd1na2vs0mg"},{"bike_id":"8d731a0c-77b4-4c52-8655-0c29b8262d97","system_id":"levelo_inurba_marseille","lat":43.29303,"lon":5.37178,"is_reserved":false,"is_disabled":false,"rental_uris":{"android":"levelo://app?vid=8d731a0c-77b4-4c52-8655-0c29b8262d97","ios":"levelo://app?vid=8d731a0c-77b4-4c52-8655-0c29b8262d97"},"vehicle_type_id":"4","last_reported":1714914412,"current_range_meters":24800,"station_id":"ce4bgh92rcd13ifvqb40","pricing_plan_id":"cebpf4jnsgd1na2vs0mg"},{"bike_id":"ad2fce8a-69dc-4146-9bef-87c06d1ed1af","system_id":"levelo_inurba_marseille","lat":43.29274,"lon":5.36838,"is_reserved":false,"is_disabled":false,"rental_uris":{"android":"levelo://app?vid=ad2fce8a-69dc-4146-9bef-87c06d1ed1af","ios":"levelo://app?vid=ad2fce8a-69dc-4146-9bef-87c06d1ed1af"},"vehicle_type_id":"4","last_reported":1714914412,"current_range_meters":25600,"station_id":"ce4bhbp2rcd13ifvqesg","pricing_plan_id":"cebpf4jnsgd1na2vs0mg"},{"bike_id":"1051f8a2-a7de-44b1-9a0e-4a87012e323d","system_id":"levelo_inurba_marseille","lat":43.293249,"lon":5.371578,"is_reserved":false,"is_disabled":false,"rental_uris":{"android":"levelo://app?vid=1051f8a2-a7de-44b1-9a0e-4a87012e323d","ios":"levelo://app?vid=1051f8a2-a7de-44b1-9a0e-4a87012e323d"},"vehicle_type_id":"4","last_reported":1714914412,"current_range_meters":4000,"station_id":"ce4bgh92rcd13ifvqb40","pricing_plan_id":"cebpf4jnsgd1na2vs0mg"},{"bike_id":"9b6f602b-12a1-434e-8491-e36fd324a7c9","system_id":"levelo_inurba_marseille","lat":43.29601,"lon":5.381084,"is_reserved":false,"is_disabled":false,"rental_uris":{"android":"levelo://app?vid=9b6f602b-12a1-434e-8491-e36fd324a7c9","ios":"levelo://app?vid=9b6f602b-12a1-434e-8491-e36fd324a7c9"},"vehicle_type_id":"4","last_reported":1714914412,"current_range_meters":29200,"station_id":"ce4bgl12rcd13ifvqbo0","pricing_plan_id":"cebpf4jnsgd1na2vs0mg"},{"bike_id":"75098608-83b3-418a-ae8e-ebef59a496c5","system_id":"levelo_inurba_marseille","lat":43.29303,"lon":5.37455,"is_reserved":false,"is_disabled":false,"rental_uris":{"android":"levelo://app?vid=75098608-83b3-418a-ae8e-ebef59a496c5","ios":"levelo://app?vid=75098608-83b3-418a-ae8e-ebef59a496c5"},"vehicle_type_id":"4","last_reported":1714914412,"current_range_meters":0,"station_id":"ce4bgi12rcd13ifvqb70","pricing_plan_id":"cebpf4jnsgd1na2vs0mg"},{"bike_id":"084cac52-3ce3-4409-8a41-f75924786e9d","system_id":"levelo_inurba_marseille","lat":43.29303,"lon":5.37464,"is_reserved":false,"is_disabled":false,"rental_uris":{"android":"levelo://app?vid=084cac52-3ce3-4409-8a41-f75924786e9d","ios":"levelo://app?vid=084cac52-3ce3-4409-8a41-f75924786e9d"},"vehicle_type_id":"4","last_reported":1714914412,"current_range_meters":0,"station_id":"ce4bgi12rcd13ifvqb70","pricing_plan_id":"cebpf4jnsgd1na2vs0mg"},{"bike_id":"5a52af5f-6f81-42e6-bd9a-f21954126794","system_id":"levelo_inurba_marseille","lat":43.305994,"lon":5.393687,"is_reserved":false,"is_disabled":false,"rental_uris":{"android":"levelo://app?vid=5a52af5f-6f81-42e6-bd9a-f21954126794","ios":"levelo://app?vid=5a52af5f-6f81-42e6-bd9a-f21954126794"},"vehicle_type_id":"4","last_reported":1714914412,"current_range_meters":800,"station_id":"ce4bh0p2rcd13ifvqd80","pricing_plan_id":"cebpf4jnsgd1na2vs0mg"},{"bike_id":"7eb3dda2-c201-4e5a-8f13-aad568953d1a","system_id":"levelo_inurba_marseille","lat":43.29299,"lon":5.37449,"is_reserved":false,"is_disabled":false,"rental_uris":{"android":"levelo://app?vid=7eb3dda2-c201-4e5a-8f13-aad568953d1a","ios":"levelo://app?vid=7eb3dda2-c201-4e5a-8f13-aad568953d1a"},"vehicle_type_id":"4","last_reported":1714914412,"current_range_meters":7600,"station_id":"ce4bhi12rcd13ifvqfp0","pricing_plan_id":"cebpf4jnsgd1na2vs0mg"},{"bike_id":"f6a37a0b-df33-4b48-9be0-c645def8e333","system_id":"levelo_inurba_marseille","lat":43.293009,"lon":5.374584,"is_reserved":false,"is_disabled":false,"rental_uris":{"android":"levelo://app?vid=f6a37a0b-df33-4b48-9be0-c645def8e333","ios":"levelo://app?vid=f6a37a0b-df33-4b48-9be0-c645def8e333"},"vehicle_type_id":"4","last_reported":1714914412,"current_range_meters":0,"station_id":"ce4bgi12rcd13ifvqb70","pricing_plan_id":"cebpf4jnsgd1na2vs0mg"},{"bike_id":"85312a76-612e-4e4a-bc25-49dbb24cc15e","system_id":"levelo_inurba_marseille","lat":43.305994,"lon":5.393687,"is_reserved":false,"is_disabled":false,"rental_uris":{"android":"levelo://app?vid=85312a76-612e-4e4a-bc25-49dbb24cc15e","ios":"levelo://app?vid=85312a76-612e-4e4a-bc25-49dbb24cc15e"},"vehicle_type_id":"4","last_reported":1714914412,"current_range_meters":6000,"station_id":"ce4bh0p2rcd13ifvqd80","pricing_plan_id":"cebpf4jnsgd1na2vs0mg"},{"bike_id":"9d8400b6-c6b9-42ce-97e2-453c5a214c52","system_id":"levelo_inurba_marseille","lat":43.305994,"lon":5.393687,"is_reserved":false,"is_disabled":false,"rental_uris":{"android":"levelo://app?vid=9d8400b6-c6b9-42ce-97e2-453c5a214c52","ios":"levelo://app?vid=9d8400b6-c6b9-42ce-97e2-453c5a214c52"},"vehicle_type_id":"4","last_reported":1714914412,"current_range_meters":7200,"station_id":"ce4bh0p2rcd13ifvqd80","pricing_plan_id":"cebpf4jnsgd1na2vs0mg"},{"bike_id":"628b5fd2-0d02-4807-a4fe-15efa38a8a26","system_id":"levelo_inurba_marseille","lat":43.305994,"lon":5.393687,"is_reserved":false,"is_disabled":false,"rental_uris":{"android":"levelo://app?vid=628b5fd2-0d02-4807-a4fe-15efa38a8a26","ios":"levelo://app?vid=628b5fd2-0d02-4807-a4fe-15efa38a8a26"},"vehicle_type_id":"4","last_reported":1714914412,"current_range_meters":0,"station_id":"ce4bh0p2rcd13ifvqd80","pricing_plan_id":"cebpf4jnsgd1na2vs0mg"},{"bike_id":"1e8fccc0-570d-4088-9ec6-090087a7d7e1","system_id":"levelo_inurba_marseille","lat":43.305994,"lon":5.393687,"is_reserved":false,"is_disabled":false,"rental_uris":{"android":"levelo://app?vid=1e8fccc0-570d-4088-9ec6-090087a7d7e1","ios":"levelo://app?vid=1e8fccc0-570d-4088-9ec6-090087a7d7e1"},"vehicle_type_id":"4","last_reported":1714914412,"current_range_meters":16800,"station_id":"ce4bh0p2rcd13ifvqd80","pricing_plan_id":"cebpf4jnsgd1na2vs0mg"},{"bike_id":"63aba8d4-e344-4057-83ef-e05ea74d9330","system_id":"levelo_inurba_marseille","lat":43.303002,"lon":5.392142,"is_reserved":false,"is_disabled":false,"rental_uris":{"android":"levelo://app?vid=63aba8d4-e344-4057-83ef-e05ea74d9330","ios":"levelo://app?vid=63aba8d4-e344-4057-83ef-e05ea74d9330"},"vehicle_type_id":"4","last_reported":1714914412,"current_range_meters":1600,"station_id":"ce4bgkh2rcd13ifvqbk0","pricing_plan_id":"cebpf4jnsgd1na2vs0mg"},{"bike_id":"a3eebeff-2d9a-4cb5-9387-3a05283dce89","system_id":"levelo_inurba_marseille","lat":43.302992,"lon":5.392136,"is_reserved":false,"is_disabled":false,"rental_uris":{"android":"levelo://app?vid=a3eebeff-2d9a-4cb5-9387-3a05283dce89","ios":"levelo://app?vid=a3eebeff-2d9a-4cb5-9387-3a05283dce89"},"vehicle_type_id":"4","last_reported":1714914412,"current_range_meters":13600,"station_id":"ce4bgkh2rcd13ifvqbk0","pricing_plan_id":"cebpf4jnsgd1na2vs0mg"},{"bike_id":"3a26ec0c-59cc-4b43-81dd-5d6a95b3eb78","system_id":"levelo_inurba_marseille","lat":43.302992,"lon":5.392136,"is_reserved":false,"is_disabled":false,"rental_uris":{"android":"levelo://app?vid=3a26ec0c-59cc-4b43-81dd-5d6a95b3eb78","ios":"levelo://app?vid=3a26ec0c-59cc-4b43-81dd-5d6a95b3eb78"},"vehicle_type_id":"4","last_reported":1714914412,"current_range_meters":23600,"station_id":"ce4bgkh2rcd13ifvqbk0","pricing_plan_id":"cebpf4jnsgd1na2vs0mg"},{"bike_id":"0e372a8e-4de1-471c-8b28-33e747087519","system_id":"levelo_inurba_marseille","lat":43.292304,"lon":5.36055,"is_reserved":false,"is_disabled":false,"rental_uris":{"android":"levelo://app?vid=0e372a8e-4de1-471c-8b28-33e747087519","ios":"levelo://app?vid=0e372a8e-4de1-471c-8b28-33e747087519"},"vehicle_type_id":"4","last_reported":1714914412,"current_range_meters":28800,"station_id":"ce4bhbh2rcd13ifvqeqg","pricing_plan_id":"cebpf4jnsgd1na2vs0mg"},{"bike_id":"dc18e04a-044f-40ba-bbb5-e8bb9c020ebb","system_id":"levelo_inurba_marseille","lat":43.30085,"lon":5.390856,"is_reserved":false,"is_disabled":false,"rental_uris":{"android":"levelo://app?vid=dc18e04a-044f-40ba-bbb5-e8bb9c020ebb","ios":"levelo://app?vid=dc18e04a-044f-40ba-bbb5-e8bb9c020ebb"},"vehicle_type_id":"4","last_reported":1714914412,"current_range_meters":18800,"station_id":"ce4bh192rcd13ifvqdb0","pricing_plan_id":"cebpf4jnsgd1na2vs0mg"},{"bike_id":"19fc09ff-bb06-403f-95d8-126b9429d326","system_id":"levelo_inurba_marseille","lat":43.29228,"lon":5.36045,"is_reserved":false,"is_disabled":false,"rental_uris":{"android":"levelo://app?vid=19fc09ff-bb06-403f-95d8-126b9429d326","ios":"levelo://app?vid=19fc09ff-bb06-403f-95d8-126b9429d326"},"vehicle_type_id":"4","last_reported":1714914412,"current_range_meters":0,"station_id":"ce4bhbh2rcd13ifvqeqg","pricing_plan_id":"cebpf4jnsgd1na2vs0mg"},{"bike_id":"1c49310d-a1c0-440c-bd6c-63de4e74f250","system_id":"levelo_inurba_marseille","lat":43.292311,"lon":5.360731,"is_reserved":false,"is_disabled":false,"rental_uris":{"android":"levelo://app?vid=1c49310d-a1c0-440c-bd6c-63de4e74f250","ios":"levelo://app?vid=1c49310d-a1c0-440c-bd6c-63de4e74f250"},"vehicle_type_id":"4","last_reported":1714914412,"current_range_meters":17600,"station_id":"ce4bhbh2rcd13ifvqeqg","pricing_plan_id":"cebpf4jnsgd1na2vs0mg"},{"bike_id":"c82fb4b0-cb65-464c-a04d-08b4d12ff556","system_id":"levelo_inurba_marseille","lat":43.29529,"lon":5.385581,"is_reserved":false,"is_disabled":false,"rental_uris":{"android":"levelo://app?vid=c82fb4b0-cb65-464c-a04d-08b4d12ff556","ios":"levelo://app?vid=c82fb4b0-cb65-464c-a04d-08b4d12ff556"},"vehicle_type_id":"4","last_reported":1714914412,"current_range_meters":8000,"station_id":"ce4bgih2rcd13ifvqba0","pricing_plan_id":"cebpf4jnsgd1na2vs0mg"},{"bike_id":"1e831a25-795a-4d9f-96bc-ec977f7c1652","system_id":"levelo_inurba_marseille","lat":43.29219,"lon":5.36046,"is_reserved":false,"is_disabled":false,"rental_uris":{"android":"levelo://app?vid=1e831a25-795a-4d9f-96bc-ec977f7c1652","ios":"levelo://app?vid=1e831a25-795a-4d9f-96bc-ec977f7c1652"},"vehicle_type_id":"4","last_reported":1714914412,"current_range_meters":0,"station_id":"ce4bhbh2rcd13ifvqeqg","pricing_plan_id":"cebpf4jnsgd1na2vs0mg"},{"bike_id":"fd5d6575-6b80-4b6b-b1b3-402e63c9fb12","system_id":"levelo_inurba_marseille","lat":43.29215,"lon":5.36058,"is_reserved":false,"is_disabled":false,"rental_uris":{"android":"levelo://app?vid=fd5d6575-6b80-4b6b-b1b3-402e63c9fb12","ios":"levelo://app?vid=fd5d6575-6b80-4b6b-b1b3-402e63c9fb12"},"vehicle_type_id":"4","last_reported":1714914412,"current_range_meters":3600,"station_id":"ce4bhbh2rcd13ifvqeqg","pricing_plan_id":"cebpf4jnsgd1na2vs0mg"},{"bike_id":"ba603a1c-1a7c-41a2-9b07-7a254f9e0799","system_id":"levelo_inurba_marseille","lat":43.292164,"lon":5.360464,"is_reserved":false,"is_disabled":false,"rental_uris":{"android":"levelo://app?vid=ba603a1c-1a7c-41a2-9b07-7a254f9e0799","ios":"levelo://app?vid=ba603a1c-1a7c-41a2-9b07-7a254f9e0799"},"vehicle_type_id":"4","last_reported":1714914412,"current_range_meters":26400,"station_id":"ce4bhbh2rcd13ifvqeqg","pricing_plan_id":"cebpf4jnsgd1na2vs0mg"},{"bike_id":"d389f6a3-aeba-4748-8c37-6d8dd5ed21b2","system_id":"levelo_inurba_marseille","lat":43.298764,"lon":5.388973,"is_reserved":false,"is_disabled":false,"rental_uris":{"android":"levelo://app?vid=d389f6a3-aeba-4748-8c37-6d8dd5ed21b2","ios":"levelo://app?vid=d389f6a3-aeba-4748-8c37-6d8dd5ed21b2"},"vehicle_type_id":"4","last_reported":1714914412,"current_range_meters":11200,"station_id":"ce4bh392rcd13ifvqdl0","pricing_plan_id":"cebpf4jnsgd1na2vs0mg"},{"bike_id":"83a4a090-70f6-4680-8063-2b5365337912","system_id":"levelo_inurba_marseille","lat":43.298764,"lon":5.388973,"is_reserved":false,"is_disabled":false,"rental_uris":{"android":"levelo://app?vid=83a4a090-70f6-4680-8063-2b5365337912","ios":"levelo://app?vid=83a4a090-70f6-4680-8063-2b5365337912"},"vehicle_type_id":"4","last_reported":1714914412,"current_range_meters":0,"station_id":"ce4bh392rcd13ifvqdl0","pricing_plan_id":"cebpf4jnsgd1na2vs0mg"},{"bike_id":"bc8aa6ab-9c48-4999-8fd7-0823965898be","system_id":"levelo_inurba_marseille","lat":43.291675,"lon":5.371583,"is_reserved":false,"is_disabled":false,"rental_uris":{"android":"levelo://app?vid=bc8aa6ab-9c48-4999-8fd7-0823965898be","ios":"levelo://app?vid=bc8aa6ab-9c48-4999-8fd7-0823965898be"},"vehicle_type_id":"4","last_reported":1714914412,"current_range_meters":6400,"station_id":"ce4bha92rcd13ifvqeh0","pricing_plan_id":"cebpf4jnsgd1na2vs0mg"},{"bike_id":"d66e51ee-e7c6-4a70-a72e-c989e0abc5f4","system_id":"levelo_inurba_marseille","lat":43.291671,"lon":5.371575,"is_reserved":false,"is_disabled":false,"rental_uris":{"android":"levelo://app?vid=d66e51ee-e7c6-4a70-a72e-c989e0abc5f4","ios":"levelo://app?vid=d66e51ee-e7c6-4a70-a72e-c989e0abc5f4"},"vehicle_type_id":"4","last_reported":1714914412,"current_range_meters":12400,"station_id":"ce4bha92rcd13ifvqeh0","pricing_plan_id":"cebpf4jnsgd1na2vs0mg"},{"bike_id":"b806714e-a8f6-4a35-a3d6-8f4f9dee6735","system_id":"levelo_inurba_marseille","lat":43.292005,"lon":5.357875,"is_reserved":false,"is_disabled":false,"rental_uris":{"android":"levelo://app?vid=b806714e-a8f6-4a35-a3d6-8f4f9dee6735","ios":"levelo://app?vid=b806714e-a8f6-4a35-a3d6-8f4f9dee6735"},"vehicle_type_id":"4","last_reported":1714914412,"current_range_meters":31200,"station_id":"ce4bhb12rcd13ifvqel0","pricing_plan_id":"cebpf4jnsgd1na2vs0mg"},{"bike_id":"da62dfac-332f-4a1c-b037-b7bc9d12aa56","system_id":"levelo_inurba_marseille","lat":43.30889,"lon":5.39645,"is_reserved":false,"is_disabled":false,"rental_uris":{"android":"levelo://app?vid=da62dfac-332f-4a1c-b037-b7bc9d12aa56","ios":"levelo://app?vid=da62dfac-332f-4a1c-b037-b7bc9d12aa56"},"vehicle_type_id":"4","last_reported":1714914412,"current_range_meters":0,"station_id":"ce4bh012rcd13ifvqcv0","pricing_plan_id":"cebpf4jnsgd1na2vs0mg"},{"bike_id":"eb746233-cfaf-4ed0-a43e-82171e5be128","system_id":"levelo_inurba_marseille","lat":43.309047,"lon":5.396551,"is_reserved":false,"is_disabled":false,"rental_uris":{"android":"levelo://app?vid=eb746233-cfaf-4ed0-a43e-82171e5be128","ios":"levelo://app?vid=eb746233-cfaf-4ed0-a43e-82171e5be128"},"vehicle_type_id":"4","last_reported":1714914412,"current_range_meters":6000,"station_id":"ce4bh012rcd13ifvqcv0","pricing_plan_id":"cebpf4jnsgd1na2vs0mg"},{"bike_id":"cad7ee14-97c8-4daa-a183-27706262911f","system_id":"levelo_inurba_marseille","lat":43.309047,"lon":5.396551,"is_reserved":false,"is_disabled":false,"rental_uris":{"android":"levelo://app?vid=cad7ee14-97c8-4daa-a183-27706262911f","ios":"levelo://app?vid=cad7ee14-97c8-4daa-a183-27706262911f"},"vehicle_type_id":"4","last_reported":1714914412,"current_range_meters":10000,"station_id":"ce4bh012rcd13ifvqcv0","pricing_plan_id":"cebpf4jnsgd1na2vs0mg"},{"bike_id":"2dce3462-c071-4566-8295-60ef3139aa5e","system_id":"levelo_inurba_marseille","lat":43.294162,"lon":5.386292,"is_reserved":false,"is_disabled":false,"rental_uris":{"android":"levelo://app?vid=2dce3462-c071-4566-8295-60ef3139aa5e","ios":"levelo://app?vid=2dce3462-c071-4566-8295-60ef3139aa5e"},"vehicle_type_id":"4","last_reported":1714914412,"current_range_meters":3600,"station_id":"ce4bh2h2rcd13ifvqdh0","pricing_plan_id":"cebpf4jnsgd1na2vs0mg"},{"bike_id":"4adc805e-e1cc-445c-9535-5162d2f9a674","system_id":"levelo_inurba_marseille","lat":43.290631,"lon":5.359244,"is_reserved":false,"is_disabled":false,"rental_uris":{"android":"levelo://app?vid=4adc805e-e1cc-445c-9535-5162d2f9a674","ios":"levelo://app?vid=4adc805e-e1cc-445c-9535-5162d2f9a674"},"vehicle_type_id":"4","last_reported":1714914412,"current_range_meters":25600,"station_id":"ce4bha92rcd13ifvqeg0","pricing_plan_id":"cebpf4jnsgd1na2vs0mg"},{"bike_id":"27a262f0-9175-476b-826c-ab3a1e2bed56","system_id":"levelo_inurba_marseille","lat":43.290624,"lon":5.359245,"is_reserved":false,"is_disabled":false,"rental_uris":{"android":"levelo://app?vid=27a262f0-9175-476b-826c-ab3a1e2bed56","ios":"levelo://app?vid=27a262f0-9175-476b-826c-ab3a1e2bed56"},"vehicle_type_id":"4","last_reported":1714914412,"current_range_meters":31200,"station_id":"ce4bha92rcd13ifvqeg0","pricing_plan_id":"cebpf4jnsgd1na2vs0mg"},{"bike_id":"49db9a99-0d32-41ba-8914-72474a32c4eb","system_id":"levelo_inurba_marseille","lat":43.290103,"lon":5.372473,"is_reserved":false,"is_disabled":false,"rental_uris":{"android":"levelo://app?vid=49db9a99-0d32-41ba-8914-72474a32c4eb","ios":"levelo://app?vid=49db9a99-0d32-41ba-8914-72474a32c4eb"},"vehicle_type_id":"4","last_reported":1714914412,"current_range_meters":24800,"station_id":"","pricing_plan_id":"cebpf4jnsgd1na2vs0mg"},{"bike_id":"5a417f17-6e4a-4e4a-b21c-29a428a53c11","system_id":"levelo_inurba_marseille","lat":43.290631,"lon":5.359244,"is_reserved":false,"is_disabled":false,"rental_uris":{"android":"levelo://app?vid=5a417f17-6e4a-4e4a-b21c-29a428a53c11","ios":"levelo://app?vid=5a417f17-6e4a-4e4a-b21c-29a428a53c11"},"vehicle_type_id":"4","last_reported":1714914412,"current_range_meters":28800,"station_id":"ce4bha92rcd13ifvqeg0","pricing_plan_id":"cebpf4jnsgd1na2vs0mg"},{"bike_id":"d608af47-7df7-44ec-8f4b-579e11738c36","system_id":"levelo_inurba_marseille","lat":43.290631,"lon":5.359244,"is_reserved":false,"is_disabled":false,"rental_uris":{"android":"levelo://app?vid=d608af47-7df7-44ec-8f4b-579e11738c36","ios":"levelo://app?vid=d608af47-7df7-44ec-8f4b-579e11738c36"},"vehicle_type_id":"4","last_reported":1714914412,"current_range_meters":28000,"station_id":"ce4bha92rcd13ifvqeg0","pricing_plan_id":"cebpf4jnsgd1na2vs0mg"},{"bike_id":"a9726a99-372a-49c5-bb04-437b01c2913c","system_id":"levelo_inurba_marseille","lat":43.290624,"lon":5.359245,"is_reserved":false,"is_disabled":false,"rental_uris":{"android":"levelo://app?vid=a9726a99-372a-49c5-bb04-437b01c2913c","ios":"levelo://app?vid=a9726a99-372a-49c5-bb04-437b01c2913c"},"vehicle_type_id":"4","last_reported":1714914412,"current_range_meters":22400,"station_id":"ce4bha92rcd13ifvqeg0","pricing_plan_id":"cebpf4jnsgd1na2vs0mg"},{"bike_id":"c1fe59f9-500c-4f9d-b9f8-87b9a380803a","system_id":"levelo_inurba_marseille","lat":43.28946,"lon":5.36628,"is_reserved":false,"is_disabled":false,"rental_uris":{"android":"levelo://app?vid=c1fe59f9-500c-4f9d-b9f8-87b9a380803a","ios":"levelo://app?vid=c1fe59f9-500c-4f9d-b9f8-87b9a380803a"},"vehicle_type_id":"4","last_reported":1714914412,"current_range_meters":12400,"station_id":"ce4bhap2rcd13ifvqek0","pricing_plan_id":"cebpf4jnsgd1na2vs0mg"},{"bike_id":"9f0f963e-e4d3-470c-b9f0-d49a4f5d5c38","system_id":"levelo_inurba_marseille","lat":43.28943,"lon":5.36642,"is_reserved":false,"is_disabled":false,"rental_uris":{"android":"levelo://app?vid=9f0f963e-e4d3-470c-b9f0-d49a4f5d5c38","ios":"levelo://app?vid=9f0f963e-e4d3-470c-b9f0-d49a4f5d5c38"},"vehicle_type_id":"4","last_reported":1714914412,"current_range_meters":0,"station_id":"ce4bhap2rcd13ifvqek0","pricing_plan_id":"cebpf4jnsgd1na2vs0mg"},{"bike_id":"51a1f588-ca70-4f47-abca-17cd4de691cf","system_id":"levelo_inurba_marseille","lat":43.28942,"lon":5.36638,"is_reserved":false,"is_disabled":false,"rental_uris":{"android":"levelo://app?vid=51a1f588-ca70-4f47-abca-17cd4de691cf","ios":"levelo://app?vid=51a1f588-ca70-4f47-abca-17cd4de691cf"},"vehicle_type_id":"4","last_reported":1714914412,"current_range_meters":26000,"station_id":"ce4bhap2rcd13ifvqek0","pricing_plan_id":"cebpf4jnsgd1na2vs0mg"},{"bike_id":"91af52a6-2826-4751-82ad-97b950678c09","system_id":"levelo_inurba_marseille","lat":43.294162,"lon":5.386292,"is_reserved":false,"is_disabled":false,"rental_uris":{"android":"levelo://app?vid=91af52a6-2826-4751-82ad-97b950678c09","ios":"levelo://app?vid=91af52a6-2826-4751-82ad-97b950678c09"},"vehicle_type_id":"4","last_reported":1714914412,"current_range_meters":0,"station_id":"ce4bh2h2rcd13ifvqdh0","pricing_plan_id":"cebpf4jnsgd1na2vs0mg"},{"bike_id":"1a69219b-1b1c-4bf6-8047-0b0abbab9137","system_id":"levelo_inurba_marseille","lat":43.2894,"lon":5.36646,"is_reserved":false,"is_disabled":false,"rental_uris":{"android":"levelo://app?vid=1a69219b-1b1c-4bf6-8047-0b0abbab9137","ios":"levelo://app?vid=1a69219b-1b1c-4bf6-8047-0b0abbab9137"},"vehicle_type_id":"4","last_reported":1714914412,"current_range_meters":26000,"station_id":"ce4bhap2rcd13ifvqek0","pricing_plan_id":"cebpf4jnsgd1na2vs0mg"},{"bike_id":"802f1cc5-d865-4218-bc66-a7602189cd22","system_id":"levelo_inurba_marseille","lat":43.28939,"lon":5.36635,"is_reserved":false,"is_disabled":false,"rental_uris":{"android":"levelo://app?vid=802f1cc5-d865-4218-bc66-a7602189cd22","ios":"levelo://app?vid=802f1cc5-d865-4218-bc66-a7602189cd22"},"vehicle_type_id":"4","last_reported":1714914412,"current_range_meters":0,"station_id":"ce4bhap2rcd13ifvqek0","pricing_plan_id":"cebpf4jnsgd1na2vs0mg"},{"bike_id":"5a9899d7-dfb2-4f40-9e52-310d75c9423a","system_id":"levelo_inurba_marseille","lat":43.28939,"lon":5.36631,"is_reserved":false,"is_disabled":false,"rental_uris":{"android":"levelo://app?vid=5a9899d7-dfb2-4f40-9e52-310d75c9423a","ios":"levelo://app?vid=5a9899d7-dfb2-4f40-9e52-310d75c9423a"},"vehicle_type_id":"4","last_reported":1714914412,"current_range_meters":26000,"station_id":"ce4bhap2rcd13ifvqek0","pricing_plan_id":"cebpf4jnsgd1na2vs0mg"},{"bike_id":"18659ab3-07ec-48ef-859a-c4a77b78c50f","system_id":"levelo_inurba_marseille","lat":43.28942,"lon":5.364,"is_reserved":false,"is_disabled":false,"rental_uris":{"android":"levelo://app?vid=18659ab3-07ec-48ef-859a-c4a77b78c50f","ios":"levelo://app?vid=18659ab3-07ec-48ef-859a-c4a77b78c50f"},"vehicle_type_id":"4","last_reported":1714914412,"current_range_meters":0,"station_id":"ce4bhc92rcd13ifvqetg","pricing_plan_id":"cebpf4jnsgd1na2vs0mg"},{"bike_id":"f710b246-5805-421d-92de-869381bf55a3","system_id":"levelo_inurba_marseille","lat":43.289468,"lon":5.363719,"is_reserved":false,"is_disabled":false,"rental_uris":{"android":"levelo://app?vid=f710b246-5805-421d-92de-869381bf55a3","ios":"levelo://app?vid=f710b246-5805-421d-92de-869381bf55a3"},"vehicle_type_id":"4","last_reported":1714914412,"current_range_meters":17600,"station_id":"ce4bhc92rcd13ifvqetg","pricing_plan_id":"cebpf4jnsgd1na2vs0mg"},{"bike_id":"85968208-e41d-4d2d-991f-0216425a81e1","system_id":"levelo_inurba_marseille","lat":43.289379,"lon":5.364039,"is_reserved":false,"is_disabled":false,"rental_uris":{"android":"levelo://app?vid=85968208-e41d-4d2d-991f-0216425a81e1","ios":"levelo://app?vid=85968208-e41d-4d2d-991f-0216425a81e1"},"vehicle_type_id":"4","last_reported":1714914412,"current_range_meters":22400,"station_id":"ce4bhc92rcd13ifvqetg","pricing_plan_id":"cebpf4jnsgd1na2vs0mg"},{"bike_id":"7a9f29cc-939d-4a9c-9757-8890b7495098","system_id":"levelo_inurba_marseille","lat":43.289468,"lon":5.363719,"is_reserved":false,"is_disabled":false,"rental_uris":{"android":"levelo://app?vid=7a9f29cc-939d-4a9c-9757-8890b7495098","ios":"levelo://app?vid=7a9f29cc-939d-4a9c-9757-8890b7495098"},"vehicle_type_id":"4","last_reported":1714914412,"current_range_meters":27600,"station_id":"ce4bhc92rcd13ifvqetg","pricing_plan_id":"cebpf4jnsgd1na2vs0mg"},{"bike_id":"3fd791a7-e3c7-42e7-9c2e-f3015d8a4c6a","system_id":"levelo_inurba_marseille","lat":43.289468,"lon":5.363719,"is_reserved":false,"is_disabled":false,"rental_uris":{"android":"levelo://app?vid=3fd791a7-e3c7-42e7-9c2e-f3015d8a4c6a","ios":"levelo://app?vid=3fd791a7-e3c7-42e7-9c2e-f3015d8a4c6a"},"vehicle_type_id":"4","last_reported":1714914412,"current_range_meters":25600,"station_id":"ce4bhc92rcd13ifvqetg","pricing_plan_id":"cebpf4jnsgd1na2vs0mg"},{"bike_id":"aca26eb7-1603-446f-b4c8-c1e7e7d0f2cb","system_id":"levelo_inurba_marseille","lat":43.289368,"lon":5.363994,"is_reserved":false,"is_disabled":false,"rental_uris":{"android":"levelo://app?vid=aca26eb7-1603-446f-b4c8-c1e7e7d0f2cb","ios":"levelo://app?vid=aca26eb7-1603-446f-b4c8-c1e7e7d0f2cb"},"vehicle_type_id":"4","last_reported":1714914412,"current_range_meters":16800,"station_id":"ce4bhc92rcd13ifvqetg","pricing_plan_id":"cebpf4jnsgd1na2vs0mg"},{"bike_id":"93179e5b-8c63-4745-a0dd-7ff24fe08858","system_id":"levelo_inurba_marseille","lat":43.289468,"lon":5.363719,"is_reserved":false,"is_disabled":false,"rental_uris":{"android":"levelo://app?vid=93179e5b-8c63-4745-a0dd-7ff24fe08858","ios":"levelo://app?vid=93179e5b-8c63-4745-a0dd-7ff24fe08858"},"vehicle_type_id":"4","last_reported":1714914412,"current_range_meters":21600,"station_id":"ce4bhc92rcd13ifvqetg","pricing_plan_id":"cebpf4jnsgd1na2vs0mg"},{"bike_id":"25713a46-e080-4dd9-94db-aafbae6092c3","system_id":"levelo_inurba_marseille","lat":43.304296,"lon":5.397513,"is_reserved":false,"is_disabled":false,"rental_uris":{"android":"levelo://app?vid=25713a46-e080-4dd9-94db-aafbae6092c3","ios":"levelo://app?vid=25713a46-e080-4dd9-94db-aafbae6092c3"},"vehicle_type_id":"4","last_reported":1714914412,"current_range_meters":0,"station_id":"ce4bh092rcd13ifvqd20","pricing_plan_id":"cebpf4jnsgd1na2vs0mg"},{"bike_id":"77e90cd4-1459-405c-978c-6b6cb609e180","system_id":"levelo_inurba_marseille","lat":43.304296,"lon":5.397513,"is_reserved":false,"is_disabled":false,"rental_uris":{"android":"levelo://app?vid=77e90cd4-1459-405c-978c-6b6cb609e180","ios":"levelo://app?vid=77e90cd4-1459-405c-978c-6b6cb609e180"},"vehicle_type_id":"4","last_reported":1714914412,"current_range_meters":20800,"station_id":"ce4bh092rcd13ifvqd20","pricing_plan_id":"cebpf4jnsgd1na2vs0mg"},{"bike_id":"c7c0ac8c-af7b-49fc-99bc-30610ba7b719","system_id":"levelo_inurba_marseille","lat":43.290104,"lon":5.356111,"is_reserved":false,"is_disabled":false,"rental_uris":{"android":"levelo://app?vid=c7c0ac8c-af7b-49fc-99bc-30610ba7b719","ios":"levelo://app?vid=c7c0ac8c-af7b-49fc-99bc-30610ba7b719"},"vehicle_type_id":"4","last_reported":1714914412,"current_range_meters":2000,"station_id":"ce4bhb92rcd13ifvqen0","pricing_plan_id":"cebpf4jnsgd1na2vs0mg"},{"bike_id":"a1f10908-6e16-41eb-9f42-ddaa82c8bc32","system_id":"levelo_inurba_marseille","lat":43.29008,"lon":5.35609,"is_reserved":false,"is_disabled":false,"rental_uris":{"android":"levelo://app?vid=a1f10908-6e16-41eb-9f42-ddaa82c8bc32","ios":"levelo://app?vid=a1f10908-6e16-41eb-9f42-ddaa82c8bc32"},"vehicle_type_id":"4","last_reported":1714914412,"current_range_meters":0,"station_id":"ce4bhb92rcd13ifvqen0","pricing_plan_id":"cebpf4jnsgd1na2vs0mg"},{"bike_id":"c7b5fcf0-edd1-47e8-aa54-bab9f9b89216","system_id":"levelo_inurba_marseille","lat":43.29001,"lon":5.35617,"is_reserved":false,"is_disabled":false,"rental_uris":{"android":"levelo://app?vid=c7b5fcf0-edd1-47e8-aa54-bab9f9b89216","ios":"levelo://app?vid=c7b5fcf0-edd1-47e8-aa54-bab9f9b89216"},"vehicle_type_id":"4","last_reported":1714914412,"current_range_meters":22800,"station_id":"ce4bhb92rcd13ifvqen0","pricing_plan_id":"cebpf4jnsgd1na2vs0mg"},{"bike_id":"3072117c-e4b5-4077-a853-21f5ff45bd7c","system_id":"levelo_inurba_marseille","lat":43.330442,"lon":5.389148,"is_reserved":false,"is_disabled":false,"rental_uris":{"android":"levelo://app?vid=3072117c-e4b5-4077-a853-21f5ff45bd7c","ios":"levelo://app?vid=3072117c-e4b5-4077-a853-21f5ff45bd7c"},"vehicle_type_id":"4","last_reported":1714914412,"current_range_meters":15600,"station_id":"ce4bhr92rcd13ifvqhrg","pricing_plan_id":"cebpf4jnsgd1na2vs0mg"},{"bike_id":"306e9167-4260-49f2-b778-25382e9d912a","system_id":"levelo_inurba_marseille","lat":43.290104,"lon":5.356111,"is_reserved":false,"is_disabled":false,"rental_uris":{"android":"levelo://app?vid=306e9167-4260-49f2-b778-25382e9d912a","ios":"levelo://app?vid=306e9167-4260-49f2-b778-25382e9d912a"},"vehicle_type_id":"4","last_reported":1714914412,"current_range_meters":10000,"station_id":"ce4bhb92rcd13ifvqen0","pricing_plan_id":"cebpf4jnsgd1na2vs0mg"},{"bike_id":"046b1cc4-7118-4a50-83fb-9c5427b4ae04","system_id":"levelo_inurba_marseille","lat":43.289741,"lon":5.378306,"is_reserved":false,"is_disabled":false,"rental_uris":{"android":"levelo://app?vid=046b1cc4-7118-4a50-83fb-9c5427b4ae04","ios":"levelo://app?vid=046b1cc4-7118-4a50-83fb-9c5427b4ae04"},"vehicle_type_id":"4","last_reported":1714914412,"current_range_meters":7600,"station_id":"ce4bh9p2rcd13ifvqed0","pricing_plan_id":"cebpf4jnsgd1na2vs0mg"},{"bike_id":"35f86c37-f8ed-4e9b-a5d1-6c032de14145","system_id":"levelo_inurba_marseille","lat":43.330442,"lon":5.389148,"is_reserved":false,"is_disabled":false,"rental_uris":{"android":"levelo://app?vid=35f86c37-f8ed-4e9b-a5d1-6c032de14145","ios":"levelo://app?vid=35f86c37-f8ed-4e9b-a5d1-6c032de14145"},"vehicle_type_id":"4","last_reported":1714914412,"current_range_meters":19600,"station_id":"ce4bhr92rcd13ifvqhrg","pricing_plan_id":"cebpf4jnsgd1na2vs0mg"},{"bike_id":"7fe1ca1b-85ac-454f-a69e-53c569ded295","system_id":"levelo_inurba_marseille","lat":43.330442,"lon":5.389148,"is_reserved":false,"is_disabled":false,"rental_uris":{"android":"levelo://app?vid=7fe1ca1b-85ac-454f-a69e-53c569ded295","ios":"levelo://app?vid=7fe1ca1b-85ac-454f-a69e-53c569ded295"},"vehicle_type_id":"4","last_reported":1714914412,"current_range_meters":24400,"station_id":"ce4bhr92rcd13ifvqhrg","pricing_plan_id":"cebpf4jnsgd1na2vs0mg"},{"bike_id":"fb50930e-d9ab-4c58-9038-8b368f6ef1ce","system_id":"levelo_inurba_marseille","lat":43.33026,"lon":5.39045,"is_reserved":false,"is_disabled":false,"rental_uris":{"android":"levelo://app?vid=fb50930e-d9ab-4c58-9038-8b368f6ef1ce","ios":"levelo://app?vid=fb50930e-d9ab-4c58-9038-8b368f6ef1ce"},"vehicle_type_id":"4","last_reported":1714914412,"current_range_meters":14400,"station_id":"ce4bhr92rcd13ifvqhrg","pricing_plan_id":"cebpf4jnsgd1na2vs0mg"},{"bike_id":"9dfb7702-a4a7-4d8b-80b4-0ffba0e9ee6d","system_id":"levelo_inurba_marseille","lat":43.28856,"lon":5.358371,"is_reserved":false,"is_disabled":false,"rental_uris":{"android":"levelo://app?vid=9dfb7702-a4a7-4d8b-80b4-0ffba0e9ee6d","ios":"levelo://app?vid=9dfb7702-a4a7-4d8b-80b4-0ffba0e9ee6d"},"vehicle_type_id":"4","last_reported":1714914412,"current_range_meters":21200,"station_id":"ce4bhb12rcd13ifvqem0","pricing_plan_id":"cebpf4jnsgd1na2vs0mg"},{"bike_id":"6d2095b4-5c81-412f-a8bc-d143bf2fd710","system_id":"levelo_inurba_marseille","lat":43.288507,"lon":5.3585,"is_reserved":false,"is_disabled":false,"rental_uris":{"android":"levelo://app?vid=6d2095b4-5c81-412f-a8bc-d143bf2fd710","ios":"levelo://app?vid=6d2095b4-5c81-412f-a8bc-d143bf2fd710"},"vehicle_type_id":"4","last_reported":1714914412,"current_range_meters":0,"station_id":"ce4bhb12rcd13ifvqem0","pricing_plan_id":"cebpf4jnsgd1na2vs0mg"},{"bike_id":"299422ca-de63-4969-8189-6043cf6ea588","system_id":"levelo_inurba_marseille","lat":43.28856,"lon":5.358371,"is_reserved":false,"is_disabled":false,"rental_uris":{"android":"levelo://app?vid=299422ca-de63-4969-8189-6043cf6ea588","ios":"levelo://app?vid=299422ca-de63-4969-8189-6043cf6ea588"},"vehicle_type_id":"4","last_reported":1714914412,"current_range_meters":3600,"station_id":"ce4bhb12rcd13ifvqem0","pricing_plan_id":"cebpf4jnsgd1na2vs0mg"},{"bike_id":"22cf14a4-f3a1-429f-ad5d-16b162b67729","system_id":"levelo_inurba_marseille","lat":43.3375,"lon":5.37453,"is_reserved":false,"is_disabled":false,"rental_uris":{"android":"levelo://app?vid=22cf14a4-f3a1-429f-ad5d-16b162b67729","ios":"levelo://app?vid=22cf14a4-f3a1-429f-ad5d-16b162b67729"},"vehicle_type_id":"4","last_reported":1714914412,"current_range_meters":4400,"station_id":"","pricing_plan_id":"cebpf4jnsgd1na2vs0mg"},{"bike_id":"01b1b7bd-5dbd-4411-9455-bdf092035ec7","system_id":"levelo_inurba_marseille","lat":43.33747,"lon":5.3748,"is_reserved":false,"is_disabled":false,"rental_uris":{"android":"levelo://app?vid=01b1b7bd-5dbd-4411-9455-bdf092035ec7","ios":"levelo://app?vid=01b1b7bd-5dbd-4411-9455-bdf092035ec7"},"vehicle_type_id":"4","last_reported":1714914412,"current_range_meters":20800,"station_id":"","pricing_plan_id":"cebpf4jnsgd1na2vs0mg"},{"bike_id":"c2965c40-030a-407b-a472-fca5d0db2691","system_id":"levelo_inurba_marseille","lat":43.33747,"lon":5.37484,"is_reserved":false,"is_disabled":false,"rental_uris":{"android":"levelo://app?vid=c2965c40-030a-407b-a472-fca5d0db2691","ios":"levelo://app?vid=c2965c40-030a-407b-a472-fca5d0db2691"},"vehicle_type_id":"4","last_reported":1714914412,"current_range_meters":21200,"station_id":"","pricing_plan_id":"cebpf4jnsgd1na2vs0mg"},{"bike_id":"3c35a9b1-316d-4cba-bd56-c50fbdd3c8d2","system_id":"levelo_inurba_marseille","lat":43.306412,"lon":5.401035,"is_reserved":false,"is_disabled":false,"rental_uris":{"android":"levelo://app?vid=3c35a9b1-316d-4cba-bd56-c50fbdd3c8d2","ios":"levelo://app?vid=3c35a9b1-316d-4cba-bd56-c50fbdd3c8d2"},"vehicle_type_id":"4","last_reported":1714914412,"current_range_meters":0,"station_id":"ce4bh112rcd13ifvqda0","pricing_plan_id":"cebpf4jnsgd1na2vs0mg"},{"bike_id":"b7173264-767a-4600-82d6-2fe1ae1d4552","system_id":"levelo_inurba_marseille","lat":43.33755,"lon":5.37485,"is_reserved":false,"is_disabled":false,"rental_uris":{"android":"levelo://app?vid=b7173264-767a-4600-82d6-2fe1ae1d4552","ios":"levelo://app?vid=b7173264-767a-4600-82d6-2fe1ae1d4552"},"vehicle_type_id":"4","last_reported":1714914412,"current_range_meters":30800,"station_id":"","pricing_plan_id":"cebpf4jnsgd1na2vs0mg"},{"bike_id":"ca8ccd4d-487c-497a-8708-408020f6855c","system_id":"levelo_inurba_marseille","lat":43.337669,"lon":5.374325,"is_reserved":false,"is_disabled":false,"rental_uris":{"android":"levelo://app?vid=ca8ccd4d-487c-497a-8708-408020f6855c","ios":"levelo://app?vid=ca8ccd4d-487c-497a-8708-408020f6855c"},"vehicle_type_id":"4","last_reported":1714914412,"current_range_meters":18800,"station_id":"","pricing_plan_id":"cebpf4jnsgd1na2vs0mg"},{"bike_id":"51da26e4-9ed4-4568-abd3-82bf836c428a","system_id":"levelo_inurba_marseille","lat":43.286961,"lon":5.373785,"is_reserved":false,"is_disabled":false,"rental_uris":{"android":"levelo://app?vid=51da26e4-9ed4-4568-abd3-82bf836c428a","ios":"levelo://app?vid=51da26e4-9ed4-4568-abd3-82bf836c428a"},"vehicle_type_id":"4","last_reported":1714914412,"current_range_meters":14000,"station_id":"ce4bh3p2rcd13ifvqdq0","pricing_plan_id":"cebpf4jnsgd1na2vs0mg"},{"bike_id":"6fa4933d-b954-4589-8c8a-913965ee33d9","system_id":"levelo_inurba_marseille","lat":43.28701,"lon":5.37384,"is_reserved":false,"is_disabled":false,"rental_uris":{"android":"levelo://app?vid=6fa4933d-b954-4589-8c8a-913965ee33d9","ios":"levelo://app?vid=6fa4933d-b954-4589-8c8a-913965ee33d9"},"vehicle_type_id":"4","last_reported":1714914412,"current_range_meters":22000,"station_id":"ce4bh3p2rcd13ifvqdq0","pricing_plan_id":"cebpf4jnsgd1na2vs0mg"},{"bike_id":"f9eb50a5-e200-4c37-89ad-9fb5bc945635","system_id":"levelo_inurba_marseille","lat":43.286961,"lon":5.373785,"is_reserved":false,"is_disabled":false,"rental_uris":{"android":"levelo://app?vid=f9eb50a5-e200-4c37-89ad-9fb5bc945635","ios":"levelo://app?vid=f9eb50a5-e200-4c37-89ad-9fb5bc945635"},"vehicle_type_id":"4","last_reported":1714914412,"current_range_meters":5600,"station_id":"ce4bh3p2rcd13ifvqdq0","pricing_plan_id":"cebpf4jnsgd1na2vs0mg"},{"bike_id":"9277ac42-d05e-473e-9882-85afd4ea785e","system_id":"levelo_inurba_marseille","lat":43.286591,"lon":5.363346,"is_reserved":false,"is_disabled":false,"rental_uris":{"android":"levelo://app?vid=9277ac42-d05e-473e-9882-85afd4ea785e","ios":"levelo://app?vid=9277ac42-d05e-473e-9882-85afd4ea785e"},"vehicle_type_id":"4","last_reported":1714914412,"current_range_meters":24800,"station_id":"ce4bhah2rcd13ifvqej0","pricing_plan_id":"cebpf4jnsgd1na2vs0mg"},{"bike_id":"5ba73106-35ca-4007-823c-4ca0a3207940","system_id":"levelo_inurba_marseille","lat":43.302759,"lon":5.400793,"is_reserved":false,"is_disabled":false,"rental_uris":{"android":"levelo://app?vid=5ba73106-35ca-4007-823c-4ca0a3207940","ios":"levelo://app?vid=5ba73106-35ca-4007-823c-4ca0a3207940"},"vehicle_type_id":"4","last_reported":1714914412,"current_range_meters":24000,"station_id":"ce4bgvh2rcd13ifvqcs0","pricing_plan_id":"cebpf4jnsgd1na2vs0mg"},{"bike_id":"ac19dea2-60f1-4f3a-a06a-fcb22265daef","system_id":"levelo_inurba_marseille","lat":43.287999,"lon":5.382716,"is_reserved":false,"is_disabled":false,"rental_uris":{"android":"levelo://app?vid=ac19dea2-60f1-4f3a-a06a-fcb22265daef","ios":"levelo://app?vid=ac19dea2-60f1-4f3a-a06a-fcb22265daef"},"vehicle_type_id":"4","last_reported":1714914412,"current_range_meters":15600,"station_id":"","pricing_plan_id":"cebpf4jnsgd1na2vs0mg"},{"bike_id":"a446c410-4559-455d-83ed-178a190c60ec","system_id":"levelo_inurba_marseille","lat":43.316821,"lon":5.404737,"is_reserved":false,"is_disabled":false,"rental_uris":{"android":"levelo://app?vid=a446c410-4559-455d-83ed-178a190c60ec","ios":"levelo://app?vid=a446c410-4559-455d-83ed-178a190c60ec"},"vehicle_type_id":"4","last_reported":1714914412,"current_range_meters":12400,"station_id":"ce4bh012rcd13ifvqd00","pricing_plan_id":"cebpf4jnsgd1na2vs0mg"},{"bike_id":"c3e9f503-9b32-4379-adeb-5c6c4d234427","system_id":"levelo_inurba_marseille","lat":43.31702,"lon":5.40467,"is_reserved":false,"is_disabled":false,"rental_uris":{"android":"levelo://app?vid=c3e9f503-9b32-4379-adeb-5c6c4d234427","ios":"levelo://app?vid=c3e9f503-9b32-4379-adeb-5c6c4d234427"},"vehicle_type_id":"4","last_reported":1714914412,"current_range_meters":2400,"station_id":"ce4bh012rcd13ifvqd00","pricing_plan_id":"cebpf4jnsgd1na2vs0mg"},{"bike_id":"1fd3bb7f-a20f-48fe-8859-bed1edbf0290","system_id":"levelo_inurba_marseille","lat":43.316965,"lon":5.404738,"is_reserved":false,"is_disabled":false,"rental_uris":{"android":"levelo://app?vid=1fd3bb7f-a20f-48fe-8859-bed1edbf0290","ios":"levelo://app?vid=1fd3bb7f-a20f-48fe-8859-bed1edbf0290"},"vehicle_type_id":"4","last_reported":1714914412,"current_range_meters":29200,"station_id":"ce4bh012rcd13ifvqd00","pricing_plan_id":"cebpf4jnsgd1na2vs0mg"},{"bike_id":"63edd5bf-6af8-4144-bc67-6e8108e2a738","system_id":"levelo_inurba_marseille","lat":43.291994,"lon":5.392907,"is_reserved":false,"is_disabled":false,"rental_uris":{"android":"levelo://app?vid=63edd5bf-6af8-4144-bc67-6e8108e2a738","ios":"levelo://app?vid=63edd5bf-6af8-4144-bc67-6e8108e2a738"},"vehicle_type_id":"4","last_reported":1714914412,"current_range_meters":22800,"station_id":"ce4bh192rcd13ifvqdd0","pricing_plan_id":"cebpf4jnsgd1na2vs0mg"},{"bike_id":"1c796bb7-e6a0-4a56-8994-3bd27a84bb1d","system_id":"levelo_inurba_marseille","lat":43.284534,"lon":5.358662,"is_reserved":false,"is_disabled":false,"rental_uris":{"android":"levelo://app?vid=1c796bb7-e6a0-4a56-8994-3bd27a84bb1d","ios":"levelo://app?vid=1c796bb7-e6a0-4a56-8994-3bd27a84bb1d"},"vehicle_type_id":"4","last_reported":1714914412,"current_range_meters":6400,"station_id":"ce4bhah2rcd13ifvqei0","pricing_plan_id":"cebpf4jnsgd1na2vs0mg"},{"bike_id":"1b587120-cc0c-4b05-be63-0a1e462c021f","system_id":"levelo_inurba_marseille","lat":43.284534,"lon":5.358662,"is_reserved":false,"is_disabled":false,"rental_uris":{"android":"levelo://app?vid=1b587120-cc0c-4b05-be63-0a1e462c021f","ios":"levelo://app?vid=1b587120-cc0c-4b05-be63-0a1e462c021f"},"vehicle_type_id":"4","last_reported":1714914412,"current_range_meters":0,"station_id":"ce4bhah2rcd13ifvqei0","pricing_plan_id":"cebpf4jnsgd1na2vs0mg"},{"bike_id":"ee221e6b-a0b4-41f9-a38b-e16658cc60b9","system_id":"levelo_inurba_marseille","lat":43.29446,"lon":5.39745,"is_reserved":false,"is_disabled":false,"rental_uris":{"android":"levelo://app?vid=ee221e6b-a0b4-41f9-a38b-e16658cc60b9","ios":"levelo://app?vid=ee221e6b-a0b4-41f9-a38b-e16658cc60b9"},"vehicle_type_id":"4","last_reported":1714914412,"current_range_meters":0,"station_id":"ce4bh3h2rcd13ifvqdo0","pricing_plan_id":"cebpf4jnsgd1na2vs0mg"},{"bike_id":"e426ecbd-61b8-4789-ada3-62265250bad9","system_id":"levelo_inurba_marseille","lat":43.284534,"lon":5.358662,"is_reserved":false,"is_disabled":false,"rental_uris":{"android":"levelo://app?vid=e426ecbd-61b8-4789-ada3-62265250bad9","ios":"levelo://app?vid=e426ecbd-61b8-4789-ada3-62265250bad9"},"vehicle_type_id":"4","last_reported":1714914412,"current_range_meters":22400,"station_id":"ce4bhah2rcd13ifvqei0","pricing_plan_id":"cebpf4jnsgd1na2vs0mg"},{"bike_id":"13b6c6ce-0c88-437e-a177-637f961cfc9d","system_id":"levelo_inurba_marseille","lat":43.284534,"lon":5.358662,"is_reserved":false,"is_disabled":false,"rental_uris":{"android":"levelo://app?vid=13b6c6ce-0c88-437e-a177-637f961cfc9d","ios":"levelo://app?vid=13b6c6ce-0c88-437e-a177-637f961cfc9d"},"vehicle_type_id":"4","last_reported":1714914412,"current_range_meters":3600,"station_id":"ce4bhah2rcd13ifvqei0","pricing_plan_id":"cebpf4jnsgd1na2vs0mg"},{"bike_id":"739fbaa2-b697-4282-b0bd-cc4ed6739a3f","system_id":"levelo_inurba_marseille","lat":43.2944,"lon":5.39757,"is_reserved":false,"is_disabled":false,"rental_uris":{"android":"levelo://app?vid=739fbaa2-b697-4282-b0bd-cc4ed6739a3f","ios":"levelo://app?vid=739fbaa2-b697-4282-b0bd-cc4ed6739a3f"},"vehicle_type_id":"4","last_reported":1714914412,"current_range_meters":0,"station_id":"ce4bh3h2rcd13ifvqdo0","pricing_plan_id":"cebpf4jnsgd1na2vs0mg"},{"bike_id":"698c14bc-a250-49e0-b2f7-8d9ea341c2ad","system_id":"levelo_inurba_marseille","lat":43.294314,"lon":5.397498,"is_reserved":false,"is_disabled":false,"rental_uris":{"android":"levelo://app?vid=698c14bc-a250-49e0-b2f7-8d9ea341c2ad","ios":"levelo://app?vid=698c14bc-a250-49e0-b2f7-8d9ea341c2ad"},"vehicle_type_id":"4","last_reported":1714914412,"current_range_meters":2000,"station_id":"ce4bh3h2rcd13ifvqdo0","pricing_plan_id":"cebpf4jnsgd1na2vs0mg"},{"bike_id":"71d30e49-ac07-4f2f-9812-3c02f2ec0121","system_id":"levelo_inurba_marseille","lat":43.285848,"lon":5.350787,"is_reserved":false,"is_disabled":false,"rental_uris":{"android":"levelo://app?vid=71d30e49-ac07-4f2f-9812-3c02f2ec0121","ios":"levelo://app?vid=71d30e49-ac07-4f2f-9812-3c02f2ec0121"},"vehicle_type_id":"4","last_reported":1714914412,"current_range_meters":20000,"station_id":"ce4bhch2rcd13ifvqeug","pricing_plan_id":"cebpf4jnsgd1na2vs0mg"},{"bike_id":"93fdb550-70f8-4a36-b8df-c12a196a471d","system_id":"levelo_inurba_marseille","lat":43.28621,"lon":5.35104,"is_reserved":false,"is_disabled":false,"rental_uris":{"android":"levelo://app?vid=93fdb550-70f8-4a36-b8df-c12a196a471d","ios":"levelo://app?vid=93fdb550-70f8-4a36-b8df-c12a196a471d"},"vehicle_type_id":"4","last_reported":1714914412,"current_range_meters":12400,"station_id":"ce4bhch2rcd13ifvqeug","pricing_plan_id":"cebpf4jnsgd1na2vs0mg"},{"bike_id":"1e9151dc-cb8f-4107-b786-14190c503277","system_id":"levelo_inurba_marseille","lat":43.285856,"lon":5.350771,"is_reserved":false,"is_disabled":false,"rental_uris":{"android":"levelo://app?vid=1e9151dc-cb8f-4107-b786-14190c503277","ios":"levelo://app?vid=1e9151dc-cb8f-4107-b786-14190c503277"},"vehicle_type_id":"4","last_reported":1714914412,"current_range_meters":6400,"station_id":"ce4bhch2rcd13ifvqeug","pricing_plan_id":"cebpf4jnsgd1na2vs0mg"},{"bike_id":"a505032f-0222-4124-94b3-bf98204fd377","system_id":"levelo_inurba_marseille","lat":43.285848,"lon":5.350787,"is_reserved":false,"is_disabled":false,"rental_uris":{"android":"levelo://app?vid=a505032f-0222-4124-94b3-bf98204fd377","ios":"levelo://app?vid=a505032f-0222-4124-94b3-bf98204fd377"},"vehicle_type_id":"4","last_reported":1714914412,"current_range_meters":8800,"station_id":"ce4bhch2rcd13ifvqeug","pricing_plan_id":"cebpf4jnsgd1na2vs0mg"},{"bike_id":"f0b8c1f5-dc5c-4a53-8d17-94bf79a7cb4f","system_id":"levelo_inurba_marseille","lat":43.285848,"lon":5.350787,"is_reserved":false,"is_disabled":false,"rental_uris":{"android":"levelo://app?vid=f0b8c1f5-dc5c-4a53-8d17-94bf79a7cb4f","ios":"levelo://app?vid=f0b8c1f5-dc5c-4a53-8d17-94bf79a7cb4f"},"vehicle_type_id":"4","last_reported":1714914412,"current_range_meters":400,"station_id":"ce4bhch2rcd13ifvqeug","pricing_plan_id":"cebpf4jnsgd1na2vs0mg"},{"bike_id":"3c7adba3-d10e-4cbe-89d9-31ba1e672205","system_id":"levelo_inurba_marseille","lat":43.28617,"lon":5.35108,"is_reserved":false,"is_disabled":false,"rental_uris":{"android":"levelo://app?vid=3c7adba3-d10e-4cbe-89d9-31ba1e672205","ios":"levelo://app?vid=3c7adba3-d10e-4cbe-89d9-31ba1e672205"},"vehicle_type_id":"4","last_reported":1714914412,"current_range_meters":15200,"station_id":"ce4bhch2rcd13ifvqeug","pricing_plan_id":"cebpf4jnsgd1na2vs0mg"},{"bike_id":"273e31e4-0f7e-49d0-8638-dc76c0ae35bd","system_id":"levelo_inurba_marseille","lat":43.285848,"lon":5.350787,"is_reserved":false,"is_disabled":false,"rental_uris":{"android":"levelo://app?vid=273e31e4-0f7e-49d0-8638-dc76c0ae35bd","ios":"levelo://app?vid=273e31e4-0f7e-49d0-8638-dc76c0ae35bd"},"vehicle_type_id":"4","last_reported":1714914412,"current_range_meters":3600,"station_id":"ce4bhch2rcd13ifvqeug","pricing_plan_id":"cebpf4jnsgd1na2vs0mg"},{"bike_id":"08bfcac3-2bb8-4550-9c0b-702ffaaaa7d6","system_id":"levelo_inurba_marseille","lat":43.28617,"lon":5.35105,"is_reserved":false,"is_disabled":false,"rental_uris":{"android":"levelo://app?vid=08bfcac3-2bb8-4550-9c0b-702ffaaaa7d6","ios":"levelo://app?vid=08bfcac3-2bb8-4550-9c0b-702ffaaaa7d6"},"vehicle_type_id":"4","last_reported":1714914412,"current_range_meters":8400,"station_id":"ce4bhch2rcd13ifvqeug","pricing_plan_id":"cebpf4jnsgd1na2vs0mg"},{"bike_id":"3a3c8550-dc84-4c98-97c3-cd862d032290","system_id":"levelo_inurba_marseille","lat":43.285848,"lon":5.350787,"is_reserved":false,"is_disabled":false,"rental_uris":{"android":"levelo://app?vid=3a3c8550-dc84-4c98-97c3-cd862d032290","ios":"levelo://app?vid=3a3c8550-dc84-4c98-97c3-cd862d032290"},"vehicle_type_id":"4","last_reported":1714914412,"current_range_meters":13600,"station_id":"ce4bhch2rcd13ifvqeug","pricing_plan_id":"cebpf4jnsgd1na2vs0mg"},{"bike_id":"2108404f-1316-4a1f-bff9-5b5e0a824d99","system_id":"levelo_inurba_marseille","lat":43.285848,"lon":5.350787,"is_reserved":false,"is_disabled":false,"rental_uris":{"android":"levelo://app?vid=2108404f-1316-4a1f-bff9-5b5e0a824d99","ios":"levelo://app?vid=2108404f-1316-4a1f-bff9-5b5e0a824d99"},"vehicle_type_id":"4","last_reported":1714914412,"current_range_meters":16800,"station_id":"ce4bhch2rcd13ifvqeug","pricing_plan_id":"cebpf4jnsgd1na2vs0mg"},{"bike_id":"9aaba4af-3920-4527-a15b-3c9399479851","system_id":"levelo_inurba_marseille","lat":43.28617,"lon":5.35102,"is_reserved":false,"is_disabled":false,"rental_uris":{"android":"levelo://app?vid=9aaba4af-3920-4527-a15b-3c9399479851","ios":"levelo://app?vid=9aaba4af-3920-4527-a15b-3c9399479851"},"vehicle_type_id":"4","last_reported":1714914412,"current_range_meters":26000,"station_id":"ce4bhch2rcd13ifvqeug","pricing_plan_id":"cebpf4jnsgd1na2vs0mg"},{"bike_id":"c0f92431-0e88-439e-80dc-81b74e4bcb1f","system_id":"levelo_inurba_marseille","lat":43.28614,"lon":5.35105,"is_reserved":false,"is_disabled":false,"rental_uris":{"android":"levelo://app?vid=c0f92431-0e88-439e-80dc-81b74e4bcb1f","ios":"levelo://app?vid=c0f92431-0e88-439e-80dc-81b74e4bcb1f"},"vehicle_type_id":"4","last_reported":1714914412,"current_range_meters":24000,"station_id":"ce4bhch2rcd13ifvqeug","pricing_plan_id":"cebpf4jnsgd1na2vs0mg"},{"bike_id":"a09a0214-d5bd-4f14-ac8f-9ff113215a6e","system_id":"levelo_inurba_marseille","lat":43.28613,"lon":5.35108,"is_reserved":false,"is_disabled":false,"rental_uris":{"android":"levelo://app?vid=a09a0214-d5bd-4f14-ac8f-9ff113215a6e","ios":"levelo://app?vid=a09a0214-d5bd-4f14-ac8f-9ff113215a6e"},"vehicle_type_id":"4","last_reported":1714914412,"current_range_meters":3600,"station_id":"ce4bhch2rcd13ifvqeug","pricing_plan_id":"cebpf4jnsgd1na2vs0mg"},{"bike_id":"c0e4a321-c998-4319-9f20-671270fb87b4","system_id":"levelo_inurba_marseille","lat":43.28614,"lon":5.35104,"is_reserved":false,"is_disabled":false,"rental_uris":{"android":"levelo://app?vid=c0e4a321-c998-4319-9f20-671270fb87b4","ios":"levelo://app?vid=c0e4a321-c998-4319-9f20-671270fb87b4"},"vehicle_type_id":"4","last_reported":1714914412,"current_range_meters":12000,"station_id":"ce4bhch2rcd13ifvqeug","pricing_plan_id":"cebpf4jnsgd1na2vs0mg"},{"bike_id":"2f3e4a61-0986-4f4f-a4bd-242fdde135b5","system_id":"levelo_inurba_marseille","lat":43.285856,"lon":5.350771,"is_reserved":false,"is_disabled":false,"rental_uris":{"android":"levelo://app?vid=2f3e4a61-0986-4f4f-a4bd-242fdde135b5","ios":"levelo://app?vid=2f3e4a61-0986-4f4f-a4bd-242fdde135b5"},"vehicle_type_id":"4","last_reported":1714914412,"current_range_meters":0,"station_id":"ce4bhch2rcd13ifvqeug","pricing_plan_id":"cebpf4jnsgd1na2vs0mg"},{"bike_id":"7e406677-23d2-46a0-af1b-0c60df9538ea","system_id":"levelo_inurba_marseille","lat":43.28614,"lon":5.35103,"is_reserved":false,"is_disabled":false,"rental_uris":{"android":"levelo://app?vid=7e406677-23d2-46a0-af1b-0c60df9538ea","ios":"levelo://app?vid=7e406677-23d2-46a0-af1b-0c60df9538ea"},"vehicle_type_id":"4","last_reported":1714914412,"current_range_meters":26000,"station_id":"ce4bhch2rcd13ifvqeug","pricing_plan_id":"cebpf4jnsgd1na2vs0mg"},{"bike_id":"d1cde66f-969d-4195-96bd-3806aa4aa7bd","system_id":"levelo_inurba_marseille","lat":43.28615,"lon":5.35098,"is_reserved":false,"is_disabled":false,"rental_uris":{"android":"levelo://app?vid=d1cde66f-969d-4195-96bd-3806aa4aa7bd","ios":"levelo://app?vid=d1cde66f-969d-4195-96bd-3806aa4aa7bd"},"vehicle_type_id":"4","last_reported":1714914412,"current_range_meters":11200,"station_id":"ce4bhch2rcd13ifvqeug","pricing_plan_id":"cebpf4jnsgd1na2vs0mg"},{"bike_id":"68bfa99e-dd48-421c-8377-0676de36d912","system_id":"levelo_inurba_marseille","lat":43.28612,"lon":5.35105,"is_reserved":false,"is_disabled":false,"rental_uris":{"android":"levelo://app?vid=68bfa99e-dd48-421c-8377-0676de36d912","ios":"levelo://app?vid=68bfa99e-dd48-421c-8377-0676de36d912"},"vehicle_type_id":"4","last_reported":1714914412,"current_range_meters":11200,"station_id":"ce4bhch2rcd13ifvqeug","pricing_plan_id":"cebpf4jnsgd1na2vs0mg"},{"bike_id":"a8f11267-e3f4-4314-b6e3-6868ebd0102d","system_id":"levelo_inurba_marseille","lat":43.28613,"lon":5.35101,"is_reserved":false,"is_disabled":false,"rental_uris":{"android":"levelo://app?vid=a8f11267-e3f4-4314-b6e3-6868ebd0102d","ios":"levelo://app?vid=a8f11267-e3f4-4314-b6e3-6868ebd0102d"},"vehicle_type_id":"4","last_reported":1714914412,"current_range_meters":25600,"station_id":"ce4bhch2rcd13ifvqeug","pricing_plan_id":"cebpf4jnsgd1na2vs0mg"},{"bike_id":"d482cfe5-df3d-4600-9cee-b8ef46d41162","system_id":"levelo_inurba_marseille","lat":43.2861,"lon":5.3511,"is_reserved":false,"is_disabled":false,"rental_uris":{"android":"levelo://app?vid=d482cfe5-df3d-4600-9cee-b8ef46d41162","ios":"levelo://app?vid=d482cfe5-df3d-4600-9cee-b8ef46d41162"},"vehicle_type_id":"4","last_reported":1714914412,"current_range_meters":18400,"station_id":"ce4bhch2rcd13ifvqeug","pricing_plan_id":"cebpf4jnsgd1na2vs0mg"},{"bike_id":"ce8d3300-f431-48a8-8543-6a296c72d55a","system_id":"levelo_inurba_marseille","lat":43.2861,"lon":5.35107,"is_reserved":false,"is_disabled":false,"rental_uris":{"android":"levelo://app?vid=ce8d3300-f431-48a8-8543-6a296c72d55a","ios":"levelo://app?vid=ce8d3300-f431-48a8-8543-6a296c72d55a"},"vehicle_type_id":"4","last_reported":1714914412,"current_range_meters":16800,"station_id":"ce4bhch2rcd13ifvqeug","pricing_plan_id":"cebpf4jnsgd1na2vs0mg"},{"bike_id":"f0fa5ace-247f-4e60-ae7b-5389311ed38a","system_id":"levelo_inurba_marseille","lat":43.285856,"lon":5.350771,"is_reserved":false,"is_disabled":false,"rental_uris":{"android":"levelo://app?vid=f0fa5ace-247f-4e60-ae7b-5389311ed38a","ios":"levelo://app?vid=f0fa5ace-247f-4e60-ae7b-5389311ed38a"},"vehicle_type_id":"4","last_reported":1714914412,"current_range_meters":6800,"station_id":"ce4bhch2rcd13ifvqeug","pricing_plan_id":"cebpf4jnsgd1na2vs0mg"},{"bike_id":"2b2c3797-8ca3-4fed-8bef-6cf5f6331b41","system_id":"levelo_inurba_marseille","lat":43.28608,"lon":5.35108,"is_reserved":false,"is_disabled":false,"rental_uris":{"android":"levelo://app?vid=2b2c3797-8ca3-4fed-8bef-6cf5f6331b41","ios":"levelo://app?vid=2b2c3797-8ca3-4fed-8bef-6cf5f6331b41"},"vehicle_type_id":"4","last_reported":1714914412,"current_range_meters":0,"station_id":"ce4bhch2rcd13ifvqeug","pricing_plan_id":"cebpf4jnsgd1na2vs0mg"},{"bike_id":"24ed8290-2e8f-423b-ab0f-162682fe39be","system_id":"levelo_inurba_marseille","lat":43.285848,"lon":5.350787,"is_reserved":false,"is_disabled":false,"rental_uris":{"android":"levelo://app?vid=24ed8290-2e8f-423b-ab0f-162682fe39be","ios":"levelo://app?vid=24ed8290-2e8f-423b-ab0f-162682fe39be"},"vehicle_type_id":"4","last_reported":1714914412,"current_range_meters":21600,"station_id":"ce4bhch2rcd13ifvqeug","pricing_plan_id":"cebpf4jnsgd1na2vs0mg"},{"bike_id":"7a77ee08-ef99-43d2-9a85-cedd15b43495","system_id":"levelo_inurba_marseille","lat":43.285998,"lon":5.350963,"is_reserved":false,"is_disabled":false,"rental_uris":{"android":"levelo://app?vid=7a77ee08-ef99-43d2-9a85-cedd15b43495","ios":"levelo://app?vid=7a77ee08-ef99-43d2-9a85-cedd15b43495"},"vehicle_type_id":"4","last_reported":1714914412,"current_range_meters":6800,"station_id":"ce4bhch2rcd13ifvqeug","pricing_plan_id":"cebpf4jnsgd1na2vs0mg"},{"bike_id":"389ecd74-1544-4918-a846-bdafcfca9031","system_id":"levelo_inurba_marseille","lat":43.283998,"lon":5.375062,"is_reserved":false,"is_disabled":false,"rental_uris":{"android":"levelo://app?vid=389ecd74-1544-4918-a846-bdafcfca9031","ios":"levelo://app?vid=389ecd74-1544-4918-a846-bdafcfca9031"},"vehicle_type_id":"4","last_reported":1714914412,"current_range_meters":6800,"station_id":"ce4bh412rcd13ifvqds0","pricing_plan_id":"cebpf4jnsgd1na2vs0mg"},{"bike_id":"e3c953d0-0922-4a54-bc10-c50e72d06476","system_id":"levelo_inurba_marseille","lat":43.33717,"lon":5.391857,"is_reserved":false,"is_disabled":false,"rental_uris":{"android":"levelo://app?vid=e3c953d0-0922-4a54-bc10-c50e72d06476","ios":"levelo://app?vid=e3c953d0-0922-4a54-bc10-c50e72d06476"},"vehicle_type_id":"4","last_reported":1714914412,"current_range_meters":22000,"station_id":"ce4bhr92rcd13ifvqhsg","pricing_plan_id":"cebpf4jnsgd1na2vs0mg"},{"bike_id":"b5a0b189-c5df-4ace-a0ec-975cced52b12","system_id":"levelo_inurba_marseille","lat":43.319179,"lon":5.407725,"is_reserved":false,"is_disabled":false,"rental_uris":{"android":"levelo://app?vid=b5a0b189-c5df-4ace-a0ec-975cced52b12","ios":"levelo://app?vid=b5a0b189-c5df-4ace-a0ec-975cced52b12"},"vehicle_type_id":"4","last_reported":1714914412,"current_range_meters":28000,"station_id":"ce4bhq12rcd13ifvqhig","pricing_plan_id":"cebpf4jnsgd1na2vs0mg"},{"bike_id":"97f134f8-f166-46d4-aa0b-d9fc23574ed5","system_id":"levelo_inurba_marseille","lat":43.323464,"lon":5.406297,"is_reserved":false,"is_disabled":false,"rental_uris":{"android":"levelo://app?vid=97f134f8-f166-46d4-aa0b-d9fc23574ed5","ios":"levelo://app?vid=97f134f8-f166-46d4-aa0b-d9fc23574ed5"},"vehicle_type_id":"4","last_reported":1714914412,"current_range_meters":31200,"station_id":"ce4bhq92rcd13ifvqhjg","pricing_plan_id":"cebpf4jnsgd1na2vs0mg"},{"bike_id":"6059b312-b15d-4086-a16f-023054f17366","system_id":"levelo_inurba_marseille","lat":43.33717,"lon":5.391857,"is_reserved":false,"is_disabled":false,"rental_uris":{"android":"levelo://app?vid=6059b312-b15d-4086-a16f-023054f17366","ios":"levelo://app?vid=6059b312-b15d-4086-a16f-023054f17366"},"vehicle_type_id":"4","last_reported":1714914412,"current_range_meters":30800,"station_id":"ce4bhr92rcd13ifvqhsg","pricing_plan_id":"cebpf4jnsgd1na2vs0mg"},{"bike_id":"1148216d-3cf9-466a-a863-a8013f843238","system_id":"levelo_inurba_marseille","lat":43.337168,"lon":5.391825,"is_reserved":false,"is_disabled":false,"rental_uris":{"android":"levelo://app?vid=1148216d-3cf9-466a-a863-a8013f843238","ios":"levelo://app?vid=1148216d-3cf9-466a-a863-a8013f843238"},"vehicle_type_id":"4","last_reported":1714914412,"current_range_meters":26400,"station_id":"ce4bhr92rcd13ifvqhsg","pricing_plan_id":"cebpf4jnsgd1na2vs0mg"},{"bike_id":"c22b5bdc-3e4f-4c6c-81f4-34a07d5d5230","system_id":"levelo_inurba_marseille","lat":43.323464,"lon":5.406297,"is_reserved":false,"is_disabled":false,"rental_uris":{"android":"levelo://app?vid=c22b5bdc-3e4f-4c6c-81f4-34a07d5d5230","ios":"levelo://app?vid=c22b5bdc-3e4f-4c6c-81f4-34a07d5d5230"},"vehicle_type_id":"4","last_reported":1714914412,"current_range_meters":26400,"station_id":"ce4bhq92rcd13ifvqhjg","pricing_plan_id":"cebpf4jnsgd1na2vs0mg"},{"bike_id":"a5762256-c1cb-438d-b834-9baa723d7757","system_id":"levelo_inurba_marseille","lat":43.323464,"lon":5.406297,"is_reserved":false,"is_disabled":false,"rental_uris":{"android":"levelo://app?vid=a5762256-c1cb-438d-b834-9baa723d7757","ios":"levelo://app?vid=a5762256-c1cb-438d-b834-9baa723d7757"},"vehicle_type_id":"4","last_reported":1714914412,"current_range_meters":27200,"station_id":"ce4bhq92rcd13ifvqhjg","pricing_plan_id":"cebpf4jnsgd1na2vs0mg"},{"bike_id":"a0cd3279-0201-4e0b-9ffd-13db88ed7c6a","system_id":"levelo_inurba_marseille","lat":43.284793,"lon":5.384119,"is_reserved":false,"is_disabled":false,"rental_uris":{"android":"levelo://app?vid=a0cd3279-0201-4e0b-9ffd-13db88ed7c6a","ios":"levelo://app?vid=a0cd3279-0201-4e0b-9ffd-13db88ed7c6a"},"vehicle_type_id":"4","last_reported":1714914412,"current_range_meters":29600,"station_id":"ce4bh512rcd13ifvqe3g","pricing_plan_id":"cebpf4jnsgd1na2vs0mg"},{"bike_id":"b06fafab-5db3-4b84-abf1-62cef2d834dd","system_id":"levelo_inurba_marseille","lat":43.284214,"lon":5.349706,"is_reserved":false,"is_disabled":false,"rental_uris":{"android":"levelo://app?vid=b06fafab-5db3-4b84-abf1-62cef2d834dd","ios":"levelo://app?vid=b06fafab-5db3-4b84-abf1-62cef2d834dd"},"vehicle_type_id":"4","last_reported":1714914412,"current_range_meters":28400,"station_id":"ce4bhbh2rcd13ifvqepg","pricing_plan_id":"cebpf4jnsgd1na2vs0mg"},{"bike_id":"565214e3-36c2-41f7-89b1-7b5fb4cd31c7","system_id":"levelo_inurba_marseille","lat":43.284217,"lon":5.349697,"is_reserved":false,"is_disabled":false,"rental_uris":{"android":"levelo://app?vid=565214e3-36c2-41f7-89b1-7b5fb4cd31c7","ios":"levelo://app?vid=565214e3-36c2-41f7-89b1-7b5fb4cd31c7"},"vehicle_type_id":"4","last_reported":1714914412,"current_range_meters":31200,"station_id":"ce4bhbh2rcd13ifvqepg","pricing_plan_id":"cebpf4jnsgd1na2vs0mg"},{"bike_id":"3d309068-b882-4238-87cc-4932a4ab6851","system_id":"levelo_inurba_marseille","lat":43.284219,"lon":5.3497,"is_reserved":false,"is_disabled":false,"rental_uris":{"android":"levelo://app?vid=3d309068-b882-4238-87cc-4932a4ab6851","ios":"levelo://app?vid=3d309068-b882-4238-87cc-4932a4ab6851"},"vehicle_type_id":"4","last_reported":1714914412,"current_range_meters":22400,"station_id":"ce4bhbh2rcd13ifvqepg","pricing_plan_id":"cebpf4jnsgd1na2vs0mg"},{"bike_id":"0139a917-92ed-45cc-b348-e3e2556b6e15","system_id":"levelo_inurba_marseille","lat":43.284219,"lon":5.3497,"is_reserved":false,"is_disabled":false,"rental_uris":{"android":"levelo://app?vid=0139a917-92ed-45cc-b348-e3e2556b6e15","ios":"levelo://app?vid=0139a917-92ed-45cc-b348-e3e2556b6e15"},"vehicle_type_id":"4","last_reported":1714914412,"current_range_meters":21600,"station_id":"ce4bhbh2rcd13ifvqepg","pricing_plan_id":"cebpf4jnsgd1na2vs0mg"},{"bike_id":"12d6c724-ee9c-4726-9da3-4000d930e614","system_id":"levelo_inurba_marseille","lat":43.284219,"lon":5.3497,"is_reserved":false,"is_disabled":false,"rental_uris":{"android":"levelo://app?vid=12d6c724-ee9c-4726-9da3-4000d930e614","ios":"levelo://app?vid=12d6c724-ee9c-4726-9da3-4000d930e614"},"vehicle_type_id":"4","last_reported":1714914412,"current_range_meters":0,"station_id":"ce4bhbh2rcd13ifvqepg","pricing_plan_id":"cebpf4jnsgd1na2vs0mg"},{"bike_id":"42b19938-0bde-4b43-b913-bd5c4bbe75fa","system_id":"levelo_inurba_marseille","lat":43.284219,"lon":5.3497,"is_reserved":false,"is_disabled":false,"rental_uris":{"android":"levelo://app?vid=42b19938-0bde-4b43-b913-bd5c4bbe75fa","ios":"levelo://app?vid=42b19938-0bde-4b43-b913-bd5c4bbe75fa"},"vehicle_type_id":"4","last_reported":1714914412,"current_range_meters":21200,"station_id":"ce4bhbh2rcd13ifvqepg","pricing_plan_id":"cebpf4jnsgd1na2vs0mg"},{"bike_id":"330eab23-742e-43be-a83b-27ef7f3faf29","system_id":"levelo_inurba_marseille","lat":43.284219,"lon":5.3497,"is_reserved":false,"is_disabled":false,"rental_uris":{"android":"levelo://app?vid=330eab23-742e-43be-a83b-27ef7f3faf29","ios":"levelo://app?vid=330eab23-742e-43be-a83b-27ef7f3faf29"},"vehicle_type_id":"4","last_reported":1714914412,"current_range_meters":23200,"station_id":"ce4bhbh2rcd13ifvqepg","pricing_plan_id":"cebpf4jnsgd1na2vs0mg"},{"bike_id":"9ed05be6-8609-4e47-b946-fb116575cfbf","system_id":"levelo_inurba_marseille","lat":43.284219,"lon":5.3497,"is_reserved":false,"is_disabled":false,"rental_uris":{"android":"levelo://app?vid=9ed05be6-8609-4e47-b946-fb116575cfbf","ios":"levelo://app?vid=9ed05be6-8609-4e47-b946-fb116575cfbf"},"vehicle_type_id":"4","last_reported":1714914412,"current_range_meters":16800,"station_id":"ce4bhbh2rcd13ifvqepg","pricing_plan_id":"cebpf4jnsgd1na2vs0mg"},