{"last_updated":1743941794,"ttl":60,"version":"2.2","data":{"bikes":[{"bike_id":"64c87d3c-e74b-4b92-93b0-a945bccddc41","system_id":"levelo_inurba_marseille","lat":43.26574,"lon":5.39016,"is_reserved":false,"is_disabled":false,"rental_uris":{"android":"levelo://app?vid=64c87d3c-e74b-4b92-93b0-a945bccddc41","ios":"levelo://app?vid=64c87d3c-e74b-4b92-93b0-a945bccddc41"},"vehicle_type_id":"4","last_reported":1743941794,"current_range_meters":2800,"station_id":"ce4bhe12rcd13ifvqf30","pricing_plan_id":"cebpf4jnsgd1na2vs0mg"},{"bike_id":"c73a85e2-fb2d-4d21-bea0-c717ffa7bb89","system_id":"levelo_inurba_marseille","lat":43.30455,"lon":5.36719,"is_reserved":false,"is_disabled":true,"rental_uris":{"android":"levelo://app?vid=c73a85e2-fb2d-4d21-bea0-c717ffa7bb89","ios":"levelo://app?vid=c73a85e2-fb2d-4d21-bea0-c717ffa7bb89"},"vehicle_type_id":"4","last_reported":1743941794,"current_range_meters":2800,"station_id":"","pricing_plan_id":"cebpf4jnsgd1na2vs0mg"},{"bike_id":"1defc1df-ae91-4348-acec-4fe8714138d1","system_id":"levelo_inurba_marseille","lat":43.28444,"lon":5.39191,"is_reserved":false,"is_disabled":false,"rental_uris":{"android":"levelo://app?vid=1defc1df-ae91-4348-acec-4fe8714138d1","ios":"levelo://app?vid=1defc1df-ae91-4348-acec-4fe8714138d1"},"vehicle_type_id":"4","last_reported":1743941794,"current_range_meters":2800,"station_id":"ce4bhoh2rcd13ifvqh5g","pricing_plan_id":"cebpf4jnsgd1na2vs0mg"},{"bike_id":"e7bef693-f674-41f9-8773-80d7b09288ad","system_id":"levelo_inurba_marseille","lat":43.30425,"lon":5.3974,"is_reserved":false,"is_disabled":false,"rental_uris":{"android":"levelo://app?vid=e7bef693-f674-41f9-8773-80d7b09288ad","ios":"levelo://app?vid=e7bef693-f674-41f9-8773-80d7b09288ad"},"vehicle_type_id":"4","last_reported":1743941794,"current_range_meters":2800,"station_id":"ce4bh092rcd13ifvqd20","pricing_plan_id":"cebpf4jnsgd1na2vs0mg"},{"bike_id":"7b949115-2466-4a59-8d36-d5d62d17b7b1","system_id":"levelo_inurba_marseille","lat":43.33601,"lon":5.4104,"is_reserved":false,"is_disabled":false,"rental_uris":{"android":"levelo://app?vid=7b949115-2466-4a59-8d36-d5d62d17b7b1","ios":"levelo://app?vid=7b949115-2466-4a59-8d36-d5d62d17b7b1"},"vehicle_type_id":"4","last_reported":1743941794,"current_range_meters":2800,"station_id":"ce4bhqh2rcd13ifvqhmg","pricing_plan_id":"cebpf4jnsgd1na2vs0mg"},{"bike_id":"6b3cdd8d-8860-47ad-b78d-2f6a09e55f56","system_id":"levelo_inurba_marseille","lat":43.28416,"lon":5.34997,"is_reserved":false,"is_disabled":false,"rental_uris":{"android":"levelo://app?vid=6b3cdd8d-8860-47ad-b78d-2f6a09e55f56","ios":"levelo://app?vid=6b3cdd8d-8860-47ad-b78d-2f6a09e55f56"},"vehicle_type_id":"4","last_reported":1743941794,"current_range_meters":3200,"station_id":"ce4bhbh2rcd13ifvqepg","pricing_plan_id":"cebpf4jnsgd1na2vs0mg"},{"bike_id":"050a0ea3-f288-4335-82d4-1c0a70d44252","system_id":"levelo_inurba_marseille","lat":43.29576,"lon":5.37352,"is_reserved":false,"is_disabled":false,"rental_uris":{"android":"levelo://app?vid=050a0ea3-f288-4335-82d4-1c0a70d44252","ios":"levelo://app?vid=050a0ea3-f288-4335-82d4-1c0a70d44252"},"vehicle_type_id":"4","last_reported":1743941794,"current_range_meters":3200,"station_id":"","pricing_plan_id":"cebpf4jnsgd1na2vs0mg"},{"bike_id":"e7b956ce-2ab2-4301-8fd3-6312d753e8f6","system_id":"levelo_inurba_marseille","lat":43.246634,"lon":5.381738,"is_reserved":false,"is_disabled":true,"rental_uris":{"android":"levelo://app?vid=e7b956ce-2ab2-4301-8fd3-6312d753e8f6","ios":"levelo://app?vid=e7b956ce-2ab2-4301-8fd3-6312d753e8f6"},"vehicle_type_id":"4","last_reported":1743941794,"current_range_meters":3200,"station_id":"ce4bhih2rcd13ifvqfr0","pricing_plan_id":"cebpf4jnsgd1na2vs0mg"},{"bike_id":"fe0e02bc-b944-437e-b907-a1603bf6c05d","system_id":"levelo_inurba_marseille","lat":43.2175,"lon":5.34608,"is_reserved":false,"is_disabled":false,"rental_uris":{"android":"levelo://app?vid=fe0e02bc-b944-437e-b907-a1603bf6c05d","ios":"levelo://app?vid=fe0e02bc-b944-437e-b907-a1603bf6c05d"},"vehicle_type_id":"4","last_reported":1743941794,"current_range_meters":3200,"station_id":"st_cvj6r9ubvosntc0bgbag","pricing_plan_id":"cebpf4jnsgd1na2vs0mg"},{"bike_id":"0dfa53eb-2fed-42a7-83bf-00492f1ba0cf","system_id":"levelo_inurba_marseille","lat":43.29435,"lon":5.39751,"is_reserved":false,"is_disabled":false,"rental_uris":{"android":"levelo://app?vid=0dfa53eb-2fed-42a7-83bf-00492f1ba0cf","ios":"levelo://app?vid=0dfa53eb-2fed-42a7-83bf-00492f1ba0cf"},"vehicle_type_id":"4","last_reported":1743941794,"current_range_meters":3200,"station_id":"ce4bh3h2rcd13ifvqdo0","pricing_plan_id":"cebpf4jnsgd1na2vs0mg"},{"bike_id":"18bd5f9d-7aad-4e2f-9f8f-aa9166d28d71","system_id":"levelo_inurba_marseille","lat":43.21192,"lon":5.35099,"is_reserved":false,"is_disabled":false,"rental_uris":{"android":"levelo://app?vid=18bd5f9d-7aad-4e2f-9f8f-aa9166d28d71","ios":"levelo://app?vid=18bd5f9d-7aad-4e2f-9f8f-aa9166d28d71"},"vehicle_type_id":"4","last_reported":1743941794,"current_range_meters":3200,"station_id":"","pricing_plan_id":"cebpf4jnsgd1na2vs0mg"},{"bike_id":"0ba74bc3-9d2e-4f7a-ae77-a1d68dd95b34","system_id":"levelo_inurba_marseille","lat":43.3061,"lon":5.37231,"is_reserved":false,"is_disabled":false,"rental_uris":{"android":"levelo://app?vid=0ba74bc3-9d2e-4f7a-ae77-a1d68dd95b34","ios":"levelo://app?vid=0ba74bc3-9d2e-4f7a-ae77-a1d68dd95b34"},"vehicle_type_id":"4","last_reported":1743941794,"current_range_meters":3600,"station_id":"ce4bgqh2rcd13ifvqc4g","pricing_plan_id":"cebpf4jnsgd1na2vs0mg"},{"bike_id":"8fa92ff1-c2cb-4fa2-b3ce-e14c12ce1bf4","system_id":"levelo_inurba_marseille","lat":43.28163,"lon":5.42637,"is_reserved":false,"is_disabled":false,"rental_uris":{"android":"levelo://app?vid=8fa92ff1-c2cb-4fa2-b3ce-e14c12ce1bf4","ios":"levelo://app?vid=8fa92ff1-c2cb-4fa2-b3ce-e14c12ce1bf4"},"vehicle_type_id":"4","last_reported":1743941794,"current_range_meters":3600,"station_id":"ce4bhnh2rcd13ifvqgug","pricing_plan_id":"cebpf4jnsgd1na2vs0mg"},{"bike_id":"9be42105-57fa-4506-ad09-04570456b63b","system_id":"levelo_inurba_marseille","lat":43.23183,"lon":5.39983,"is_reserved":false,"is_disabled":false,"rental_uris":{"android":"levelo://app?vid=9be42105-57fa-4506-ad09-04570456b63b","ios":"levelo://app?vid=9be42105-57fa-4506-ad09-04570456b63b"},"vehicle_type_id":"4","last_reported":1743941794,"current_range_meters":3600,"station_id":"ce4bhn12rcd13ifvqgqg","pricing_plan_id":"cebpf4jnsgd1na2vs0mg"},{"bike_id":"feb6e46c-3fb2-45a9-a2fb-22ac62feb505","system_id":"levelo_inurba_marseille","lat":43.23059,"lon":5.35484,"is_reserved":false,"is_disabled":true,"rental_uris":{"android":"levelo://app?vid=feb6e46c-3fb2-45a9-a2fb-22ac62feb505","ios":"levelo://app?vid=feb6e46c-3fb2-45a9-a2fb-22ac62feb505"},"vehicle_type_id":"4","last_reported":1743941794,"current_range_meters":3600,"station_id":"cpo3342slgdg3j2ifvpg","pricing_plan_id":"cebpf4jnsgd1na2vs0mg"},{"bike_id":"c51fc595-3435-44e0-a237-2c22489900e2","system_id":"levelo_inurba_marseille","lat":43.2798,"lon":5.38717,"is_reserved":false,"is_disabled":false,"rental_uris":{"android":"levelo://app?vid=c51fc595-3435-44e0-a237-2c22489900e2","ios":"levelo://app?vid=c51fc595-3435-44e0-a237-2c22489900e2"},"vehicle_type_id":"4","last_reported":1743941794,"current_range_meters":3600,"station_id":"ce4bhg12rcd13ifvqf80","pricing_plan_id":"cebpf4jnsgd1na2vs0mg"},{"bike_id":"2b5e7ee6-35f1-4d9a-aa54-97acf6b5e93f","system_id":"levelo_inurba_marseille","lat":43.2417,"lon":5.36393,"is_reserved":false,"is_disabled":false,"rental_uris":{"android":"levelo://app?vid=2b5e7ee6-35f1-4d9a-aa54-97acf6b5e93f","ios":"levelo://app?vid=2b5e7ee6-35f1-4d9a-aa54-97acf6b5e93f"},"vehicle_type_id":"4","last_reported":1743941794,"current_range_meters":4000,"station_id":"cpo36qri1sfpv3e86is0","pricing_plan_id":"cebpf4jnsgd1na2vs0mg"},{"bike_id":"9a36e749-313f-43fc-ac90-b52b5015306e","system_id":"levelo_inurba_marseille","lat":43.21205,"lon":5.35066,"is_reserved":false,"is_disabled":false,"rental_uris":{"android":"levelo://app?vid=9a36e749-313f-43fc-ac90-b52b5015306e","ios":"levelo://app?vid=9a36e749-313f-43fc-ac90-b52b5015306e"},"vehicle_type_id":"4","last_reported":1743941794,"current_range_meters":4000,"station_id":"st_cvj6sg6p6f1abm77japg","pricing_plan_id":"cebpf4jnsgd1na2vs0mg"},{"bike_id":"3e49762c-f5f2-4be5-8001-03dfedd1c1e4","system_id":"levelo_inurba_marseille","lat":43.211892,"lon":5.350746,"is_reserved":false,"is_disabled":false,"rental_uris":{"android":"levelo://app?vid=3e49762c-f5f2-4be5-8001-03dfedd1c1e4","ios":"levelo://app?vid=3e49762c-f5f2-4be5-8001-03dfedd1c1e4"},"vehicle_type_id":"4","last_reported":1743941794,"current_range_meters":4000,"station_id":"st_cvj6sg6p6f1abm77japg","pricing_plan_id":"cebpf4jnsgd1na2vs0mg"},{"bike_id":"77e18c3b-958b-4617-939c-ee0d02b7a48d","system_id":"levelo_inurba_marseille","lat":43.28262,"lon":5.3508,"is_reserved":false,"is_disabled":false,"rental_uris":{"android":"levelo://app?vid=77e18c3b-958b-4617-939c-ee0d02b7a48d","ios":"levelo://app?vid=77e18c3b-958b-4617-939c-ee0d02b7a48d"},"vehicle_type_id":"4","last_reported":1743941794,"current_range_meters":4000,"station_id":"ce4bhbp2rcd13ifvqerg","pricing_plan_id":"cebpf4jnsgd1na2vs0mg"},{"bike_id":"314ec93b-af0d-44bd-9307-2ed06b7026ec","system_id":"levelo_inurba_marseille","lat":43.217499,"lon":5.346047,"is_reserved":false,"is_disabled":false,"rental_uris":{"android":"levelo://app?vid=314ec93b-af0d-44bd-9307-2ed06b7026ec","ios":"levelo://app?vid=314ec93b-af0d-44bd-9307-2ed06b7026ec"},"vehicle_type_id":"4","last_reported":1743941794,"current_range_meters":4400,"station_id":"st_cvj6r9ubvosntc0bgbag","pricing_plan_id":"cebpf4jnsgd1na2vs0mg"},{"bike_id":"a57d38c6-0339-476c-b1d7-6f59bcaf7a01","system_id":"levelo_inurba_marseille","lat":43.21194,"lon":5.35075,"is_reserved":false,"is_disabled":false,"rental_uris":{"android":"levelo://app?vid=a57d38c6-0339-476c-b1d7-6f59bcaf7a01","ios":"levelo://app?vid=a57d38c6-0339-476c-b1d7-6f59bcaf7a01"},"vehicle_type_id":"4","last_reported":1743941794,"current_range_meters":4400,"station_id":"st_cvj6sg6p6f1abm77japg","pricing_plan_id":"cebpf4jnsgd1na2vs0mg"},{"bike_id":"00cb19b4-d8e0-485f-a15a-3e8fa94a0c5e","system_id":"levelo_inurba_marseille","lat":43.23064,"lon":5.35497,"is_reserved":false,"is_disabled":false,"rental_uris":{"android":"levelo://app?vid=00cb19b4-d8e0-485f-a15a-3e8fa94a0c5e","ios":"levelo://app?vid=00cb19b4-d8e0-485f-a15a-3e8fa94a0c5e"},"vehicle_type_id":"4","last_reported":1743941794,"current_range_meters":4400,"station_id":"cpo3342slgdg3j2ifvpg","pricing_plan_id":"cebpf4jnsgd1na2vs0mg"},{"bike_id":"949110e7-2af8-4b1f-a874-e90c8f6465a3","system_id":"levelo_inurba_marseille","lat":43.31887,"lon":5.40738,"is_reserved":false,"is_disabled":false,"rental_uris":{"android":"levelo://app?vid=949110e7-2af8-4b1f-a874-e90c8f6465a3","ios":"levelo://app?vid=949110e7-2af8-4b1f-a874-e90c8f6465a3"},"vehicle_type_id":"4","last_reported":1743941794,"current_range_meters":4400,"station_id":"ce4bhq12rcd13ifvqhig","pricing_plan_id":"cebpf4jnsgd1na2vs0mg"},{"bike_id":"44f4733a-54c6-4404-8e26-15272a6bb51a","system_id":"levelo_inurba_marseille","lat":43.26213,"lon":5.37446,"is_reserved":false,"is_disabled":false,"rental_uris":{"android":"levelo://app?vid=44f4733a-54c6-4404-8e26-15272a6bb51a","ios":"levelo://app?vid=44f4733a-54c6-4404-8e26-15272a6bb51a"},"vehicle_type_id":"4","last_reported":1743941794,"current_range_meters":4400,"station_id":"ce4bhgp2rcd13ifvqfc0","pricing_plan_id":"cebpf4jnsgd1na2vs0mg"},{"bike_id":"69d81f2f-97bc-4c98-8c1c-7bfea1bf9f8e","system_id":"levelo_inurba_marseille","lat":43.31699,"lon":5.40462,"is_reserved":false,"is_disabled":false,"rental_uris":{"android":"levelo://app?vid=69d81f2f-97bc-4c98-8c1c-7bfea1bf9f8e","ios":"levelo://app?vid=69d81f2f-97bc-4c98-8c1c-7bfea1bf9f8e"},"vehicle_type_id":"4","last_reported":1743941794,"current_range_meters":4400,"station_id":"ce4bh012rcd13ifvqd00","pricing_plan_id":"cebpf4jnsgd1na2vs0mg"},{"bike_id":"69f8a740-a0ff-4635-87ad-9b7d7d0db53e","system_id":"levelo_inurba_marseille","lat":43.24647,"lon":5.38888,"is_reserved":false,"is_disabled":true,"rental_uris":{"android":"levelo://app?vid=69f8a740-a0ff-4635-87ad-9b7d7d0db53e","ios":"levelo://app?vid=69f8a740-a0ff-4635-87ad-9b7d7d0db53e"},"vehicle_type_id":"4","last_reported":1743941794,"current_range_meters":4400,"station_id":"ce4bhg12rcd13ifvqf60","pricing_plan_id":"cebpf4jnsgd1na2vs0mg"},{"bike_id":"ad27f15a-8e50-4c84-ac3e-652f6d0494f6","system_id":"levelo_inurba_marseille","lat":43.217438,"lon":5.345967,"is_reserved":false,"is_disabled":false,"rental_uris":{"android":"levelo://app?vid=ad27f15a-8e50-4c84-ac3e-652f6d0494f6","ios":"levelo://app?vid=ad27f15a-8e50-4c84-ac3e-652f6d0494f6"},"vehicle_type_id":"4","last_reported":1743941794,"current_range_meters":4400,"station_id":"st_cvj6r9ubvosntc0bgbag","pricing_plan_id":"cebpf4jnsgd1na2vs0mg"},{"bike_id":"15253513-56ea-43b5-bbed-efec5d5dbb4b","system_id":"levelo_inurba_marseille","lat":43.32354,"lon":5.36756,"is_reserved":false,"is_disabled":false,"rental_uris":{"android":"levelo://app?vid=15253513-56ea-43b5-bbed-efec5d5dbb4b","ios":"levelo://app?vid=15253513-56ea-43b5-bbed-efec5d5dbb4b"},"vehicle_type_id":"4","last_reported":1743941794,"current_range_meters":4400,"station_id":"ce4bhsh2rcd13ifvqi2g","pricing_plan_id":"cebpf4jnsgd1na2vs0mg"},{"bike_id":"2cbb6dc3-aafd-42a1-8326-324602b54fb8","system_id":"levelo_inurba_marseille","lat":43.231506,"lon":5.436982,"is_reserved":false,"is_disabled":false,"rental_uris":{"android":"levelo://app?vid=2cbb6dc3-aafd-42a1-8326-324602b54fb8","ios":"levelo://app?vid=2cbb6dc3-aafd-42a1-8326-324602b54fb8"},"vehicle_type_id":"4","last_reported":1743941794,"current_range_meters":4400,"station_id":"ce4bhmp2rcd13ifvqgog","pricing_plan_id":"cebpf4jnsgd1na2vs0mg"},{"bike_id":"3d56ab36-aaa6-4a4c-891b-63b97e495122","system_id":"levelo_inurba_marseille","lat":43.23062,"lon":5.35494,"is_reserved":false,"is_disabled":false,"rental_uris":{"android":"levelo://app?vid=3d56ab36-aaa6-4a4c-891b-63b97e495122","ios":"levelo://app?vid=3d56ab36-aaa6-4a4c-891b-63b97e495122"},"vehicle_type_id":"4","last_reported":1743941794,"current_range_meters":4800,"station_id":"cpo3342slgdg3j2ifvpg","pricing_plan_id":"cebpf4jnsgd1na2vs0mg"},{"bike_id":"e77a753b-4b3e-406d-afaa-d2e34cc4bf2c","system_id":"levelo_inurba_marseille","lat":43.28609,"lon":5.37048,"is_reserved":false,"is_disabled":false,"rental_uris":{"android":"levelo://app?vid=e77a753b-4b3e-406d-afaa-d2e34cc4bf2c","ios":"levelo://app?vid=e77a753b-4b3e-406d-afaa-d2e34cc4bf2c"},"vehicle_type_id":"4","last_reported":1743941794,"current_range_meters":4800,"station_id":"ce4bht12rcd13ifvqi60","pricing_plan_id":"cebpf4jnsgd1na2vs0mg"},{"bike_id":"2b816a0e-549f-4a7b-abe9-cb6d99352bcc","system_id":"levelo_inurba_marseille","lat":43.29306,"lon":5.37168,"is_reserved":false,"is_disabled":false,"rental_uris":{"android":"levelo://app?vid=2b816a0e-549f-4a7b-abe9-cb6d99352bcc","ios":"levelo://app?vid=2b816a0e-549f-4a7b-abe9-cb6d99352bcc"},"vehicle_type_id":"4","last_reported":1743941794,"current_range_meters":1200,"station_id":"ce4bgh92rcd13ifvqb40","pricing_plan_id":"cebpf4jnsgd1na2vs0mg"},{"bike_id":"6f816a4e-ff6e-4fef-8580-74c0f348b743","system_id":"levelo_inurba_marseille","lat":43.2321,"lon":5.39994,"is_reserved":false,"is_disabled":false,"rental_uris":{"android":"levelo://app?vid=6f816a4e-ff6e-4fef-8580-74c0f348b743","ios":"levelo://app?vid=6f816a4e-ff6e-4fef-8580-74c0f348b743"},"vehicle_type_id":"4","last_reported":1743941794,"current_range_meters":5600,"station_id":"ce4bhn12rcd13ifvqgqg","pricing_plan_id":"cebpf4jnsgd1na2vs0mg"},{"bike_id":"9934a692-7aac-4101-a681-1b7c4eb8d158","system_id":"levelo_inurba_marseille","lat":43.24388,"lon":5.3706,"is_reserved":false,"is_disabled":false,"rental_uris":{"android":"levelo://app?vid=9934a692-7aac-4101-a681-1b7c4eb8d158","ios":"levelo://app?vid=9934a692-7aac-4101-a681-1b7c4eb8d158"},"vehicle_type_id":"4","last_reported":1743941794,"current_range_meters":5600,"station_id":"ce4bhhh2rcd13ifvqfk0","pricing_plan_id":"cebpf4jnsgd1na2vs0mg"},{"bike_id":"1d0dc7ed-28a7-4ef8-bb77-8b9643cf46ca","system_id":"levelo_inurba_marseille","lat":43.28271,"lon":5.35069,"is_reserved":false,"is_disabled":false,"rental_uris":{"android":"levelo://app?vid=1d0dc7ed-28a7-4ef8-bb77-8b9643cf46ca","ios":"levelo://app?vid=1d0dc7ed-28a7-4ef8-bb77-8b9643cf46ca"},"vehicle_type_id":"4","last_reported":1743941794,"current_range_meters":5600,"station_id":"ce4bhbp2rcd13ifvqerg","pricing_plan_id":"cebpf4jnsgd1na2vs0mg"},{"bike_id":"92125200-41e3-4623-9a01-a47544d61349","system_id":"levelo_inurba_marseille","lat":43.23962,"lon":5.36628,"is_reserved":false,"is_disabled":false,"rental_uris":{"android":"levelo://app?vid=92125200-41e3-4623-9a01-a47544d61349","ios":"levelo://app?vid=92125200-41e3-4623-9a01-a47544d61349"},"vehicle_type_id":"4","last_reported":1743941794,"current_range_meters":5600,"station_id":"ce4bhi12rcd13ifvqfp0","pricing_plan_id":"cebpf4jnsgd1na2vs0mg"},{"bike_id":"51e5bd3c-288a-4ce7-9b4d-db18f40dda47","system_id":"levelo_inurba_marseille","lat":43.21749,"lon":5.34603,"is_reserved":false,"is_disabled":false,"rental_uris":{"android":"levelo://app?vid=51e5bd3c-288a-4ce7-9b4d-db18f40dda47","ios":"levelo://app?vid=51e5bd3c-288a-4ce7-9b4d-db18f40dda47"},"vehicle_type_id":"4","last_reported":1743941794,"current_range_meters":5600,"station_id":"st_cvj6r9ubvosntc0bgbag","pricing_plan_id":"cebpf4jnsgd1na2vs0mg"},{"bike_id":"fb0d4993-67fa-4314-9525-ef2ba9197c72","system_id":"levelo_inurba_marseille","lat":43.30321,"lon":5.4059,"is_reserved":false,"is_disabled":false,"rental_uris":{"android":"levelo://app?vid=fb0d4993-67fa-4314-9525-ef2ba9197c72","ios":"levelo://app?vid=fb0d4993-67fa-4314-9525-ef2ba9197c72"},"vehicle_type_id":"4","last_reported":1743941794,"current_range_meters":5600,"station_id":"","pricing_plan_id":"cebpf4jnsgd1na2vs0mg"},{"bike_id":"2f9bcb7a-d48e-4a29-84f3-a9f5dd728db7","system_id":"levelo_inurba_marseille","lat":43.26209,"lon":5.37444,"is_reserved":false,"is_disabled":false,"rental_uris":{"android":"levelo://app?vid=2f9bcb7a-d48e-4a29-84f3-a9f5dd728db7","ios":"levelo://app?vid=2f9bcb7a-d48e-4a29-84f3-a9f5dd728db7"},"vehicle_type_id":"4","last_reported":1743941794,"current_range_meters":5600,"station_id":"ce4bhgp2rcd13ifvqfc0","pricing_plan_id":"cebpf4jnsgd1na2vs0mg"},{"bike_id":"acb6510f-e728-4cd2-baee-6e4aa19932e9","system_id":"levelo_inurba_marseille","lat":43.25495,"lon":5.37652,"is_reserved":false,"is_disabled":false,"rental_uris":{"android":"levelo://app?vid=acb6510f-e728-4cd2-baee-6e4aa19932e9","ios":"levelo://app?vid=acb6510f-e728-4cd2-baee-6e4aa19932e9"},"vehicle_type_id":"4","last_reported":1743941794,"current_range_meters":5600,"station_id":"ce4bhh12rcd13ifvqff0","pricing_plan_id":"cebpf4jnsgd1na2vs0mg"},{"bike_id":"17fa5869-d236-459a-98b0-f170ffd94ca0","system_id":"levelo_inurba_marseille","lat":43.27564,"lon":5.38422,"is_reserved":false,"is_disabled":false,"rental_uris":{"android":"levelo://app?vid=17fa5869-d236-459a-98b0-f170ffd94ca0","ios":"levelo://app?vid=17fa5869-d236-459a-98b0-f170ffd94ca0"},"vehicle_type_id":"4","last_reported":1743941794,"current_range_meters":5600,"station_id":"ce4bhh92rcd13ifvqfi0","pricing_plan_id":"cebpf4jnsgd1na2vs0mg"},{"bike_id":"cb26abe7-dbbf-4163-a5ba-302d5933f79e","system_id":"levelo_inurba_marseille","lat":43.22934,"lon":5.35372,"is_reserved":false,"is_disabled":false,"rental_uris":{"android":"levelo://app?vid=cb26abe7-dbbf-4163-a5ba-302d5933f79e","ios":"levelo://app?vid=cb26abe7-dbbf-4163-a5ba-302d5933f79e"},"vehicle_type_id":"4","last_reported":1743941794,"current_range_meters":5600,"station_id":"cpo3532slgdg3j2ikp40","pricing_plan_id":"cebpf4jnsgd1na2vs0mg"},{"bike_id":"ac7a85da-6a1d-42f4-b3e0-decaec458451","system_id":"levelo_inurba_marseille","lat":43.22926,"lon":5.35378,"is_reserved":false,"is_disabled":true,"rental_uris":{"android":"levelo://app?vid=ac7a85da-6a1d-42f4-b3e0-decaec458451","ios":"levelo://app?vid=ac7a85da-6a1d-42f4-b3e0-decaec458451"},"vehicle_type_id":"4","last_reported":1743941794,"current_range_meters":5600,"station_id":"cpo3532slgdg3j2ikp40","pricing_plan_id":"cebpf4jnsgd1na2vs0mg"},{"bike_id":"9a7468f2-3a85-4d1d-a225-acdefa7cc529","system_id":"levelo_inurba_marseille","lat":43.24999,"lon":5.38926,"is_reserved":false,"is_disabled":false,"rental_uris":{"android":"levelo://app?vid=9a7468f2-3a85-4d1d-a225-acdefa7cc529","ios":"levelo://app?vid=9a7468f2-3a85-4d1d-a225-acdefa7cc529"},"vehicle_type_id":"4","last_reported":1743941794,"current_range_meters":5600,"station_id":"ce4bhgp2rcd13ifvqfd0","pricing_plan_id":"cebpf4jnsgd1na2vs0mg"},{"bike_id":"65c06576-4122-45d0-9a56-c9ddb6f06aaf","system_id":"levelo_inurba_marseille","lat":43.2417,"lon":5.36391,"is_reserved":false,"is_disabled":false,"rental_uris":{"android":"levelo://app?vid=65c06576-4122-45d0-9a56-c9ddb6f06aaf","ios":"levelo://app?vid=65c06576-4122-45d0-9a56-c9ddb6f06aaf"},"vehicle_type_id":"4","last_reported":1743941794,"current_range_meters":5600,"station_id":"cpo36qri1sfpv3e86is0","pricing_plan_id":"cebpf4jnsgd1na2vs0mg"},{"bike_id":"fb7a6658-65a4-4af9-acc1-679ce624548f","system_id":"levelo_inurba_marseille","lat":43.26223,"lon":5.40446,"is_reserved":false,"is_disabled":false,"rental_uris":{"android":"levelo://app?vid=fb7a6658-65a4-4af9-acc1-679ce624548f","ios":"levelo://app?vid=fb7a6658-65a4-4af9-acc1-679ce624548f"},"vehicle_type_id":"4","last_reported":1743941794,"current_range_meters":6000,"station_id":"ce4bhmh2rcd13ifvqgmg","pricing_plan_id":"cebpf4jnsgd1na2vs0mg"},{"bike_id":"4cc19296-3016-45f3-ac62-df06f448e7c0","system_id":"levelo_inurba_marseille","lat":43.27951,"lon":5.38689,"is_reserved":false,"is_disabled":false,"rental_uris":{"android":"levelo://app?vid=4cc19296-3016-45f3-ac62-df06f448e7c0","ios":"levelo://app?vid=4cc19296-3016-45f3-ac62-df06f448e7c0"},"vehicle_type_id":"4","last_reported":1743941794,"current_range_meters":6000,"station_id":"ce4bhg12rcd13ifvqf80","pricing_plan_id":"cebpf4jnsgd1na2vs0mg"},{"bike_id":"ded088b7-96ce-4c03-955b-7abe7fb21786","system_id":"levelo_inurba_marseille","lat":43.23152,"lon":5.43715,"is_reserved":false,"is_disabled":false,"rental_uris":{"android":"levelo://app?vid=ded088b7-96ce-4c03-955b-7abe7fb21786","ios":"levelo://app?vid=ded088b7-96ce-4c03-955b-7abe7fb21786"},"vehicle_type_id":"4","last_reported":1743941794,"current_range_meters":6000,"station_id":"ce4bhmp2rcd13ifvqgog","pricing_plan_id":"cebpf4jnsgd1na2vs0mg"},{"bike_id":"766f1251-e5f6-48c8-9787-2cabab56a1ab","system_id":"levelo_inurba_marseille","lat":43.27375,"lon":5.36254,"is_reserved":false,"is_disabled":false,"rental_uris":{"android":"levelo://app?vid=766f1251-e5f6-48c8-9787-2cabab56a1ab","ios":"levelo://app?vid=766f1251-e5f6-48c8-9787-2cabab56a1ab"},"vehicle_type_id":"4","last_reported":1743941794,"current_range_meters":6000,"station_id":"ce4bhbh2rcd13ifvqeo0","pricing_plan_id":"cebpf4jnsgd1na2vs0mg"},{"bike_id":"65fcd344-0153-47ea-b4b7-5ea541d1af20","system_id":"levelo_inurba_marseille","lat":43.29976,"lon":5.37175,"is_reserved":false,"is_disabled":false,"rental_uris":{"android":"levelo://app?vid=65fcd344-0153-47ea-b4b7-5ea541d1af20","ios":"levelo://app?vid=65fcd344-0153-47ea-b4b7-5ea541d1af20"},"vehicle_type_id":"4","last_reported":1743941794,"current_range_meters":6000,"station_id":"ce4bgr92rcd13ifvqc7g","pricing_plan_id":"cebpf4jnsgd1na2vs0mg"},{"bike_id":"8e8105ce-63e2-4441-9ebe-d6a09a08a22e","system_id":"levelo_inurba_marseille","lat":43.29668,"lon":5.36204,"is_reserved":false,"is_disabled":false,"rental_uris":{"android":"levelo://app?vid=8e8105ce-63e2-4441-9ebe-d6a09a08a22e","ios":"levelo://app?vid=8e8105ce-63e2-4441-9ebe-d6a09a08a22e"},"vehicle_type_id":"4","last_reported":1743941794,"current_range_meters":6000,"station_id":"","pricing_plan_id":"cebpf4jnsgd1na2vs0mg"},{"bike_id":"eb79d1f9-7c91-4ea2-b5f8-796189743e1a","system_id":"levelo_inurba_marseille","lat":43.33728,"lon":5.39169,"is_reserved":false,"is_disabled":false,"rental_uris":{"android":"levelo://app?vid=eb79d1f9-7c91-4ea2-b5f8-796189743e1a","ios":"levelo://app?vid=eb79d1f9-7c91-4ea2-b5f8-796189743e1a"},"vehicle_type_id":"4","last_reported":1743941794,"current_range_meters":6400,"station_id":"ce4bhr92rcd13ifvqhsg","pricing_plan_id":"cebpf4jnsgd1na2vs0mg"},{"bike_id":"5c3b5a6f-1eca-4cfb-96ce-128239218397","system_id":"levelo_inurba_marseille","lat":43.26567,"lon":5.39016,"is_reserved":false,"is_disabled":false,"rental_uris":{"android":"levelo://app?vid=5c3b5a6f-1eca-4cfb-96ce-128239218397","ios":"levelo://app?vid=5c3b5a6f-1eca-4cfb-96ce-128239218397"},"vehicle_type_id":"4","last_reported":1743941794,"current_range_meters":6400,"station_id":"ce4bhe12rcd13ifvqf30","pricing_plan_id":"cebpf4jnsgd1na2vs0mg"},{"bike_id":"e3b6ee45-447b-43f1-baed-84d207289c48","system_id":"levelo_inurba_marseille","lat":43.267877,"lon":5.383895,"is_reserved":false,"is_disabled":false,"rental_uris":{"android":"levelo://app?vid=e3b6ee45-447b-43f1-baed-84d207289c48","ios":"levelo://app?vid=e3b6ee45-447b-43f1-baed-84d207289c48"},"vehicle_type_id":"4","last_reported":1743941794,"current_range_meters":6800,"station_id":"ce4bhi12rcd13ifvqfo0","pricing_plan_id":"cebpf4jnsgd1na2vs0mg"},{"bike_id":"597e3cb0-7bf1-4c5c-814c-bff699977597","system_id":"levelo_inurba_marseille","lat":43.331574,"lon":5.381781,"is_reserved":false,"is_disabled":false,"rental_uris":{"android":"levelo://app?vid=597e3cb0-7bf1-4c5c-814c-bff699977597","ios":"levelo://app?vid=597e3cb0-7bf1-4c5c-814c-bff699977597"},"vehicle_type_id":"4","last_reported":1743941794,"current_range_meters":6800,"station_id":"","pricing_plan_id":"cebpf4jnsgd1na2vs0mg"},{"bike_id":"da2c0523-95d2-4536-9674-1400e7cb2212","system_id":"levelo_inurba_marseille","lat":43.24156,"lon":5.39726,"is_reserved":false,"is_disabled":false,"rental_uris":{"android":"levelo://app?vid=da2c0523-95d2-4536-9674-1400e7cb2212","ios":"levelo://app?vid=da2c0523-95d2-4536-9674-1400e7cb2212"},"vehicle_type_id":"4","last_reported":1743941794,"current_range_meters":6800,"station_id":"ce4bhn12rcd13ifvqgpg","pricing_plan_id":"cebpf4jnsgd1na2vs0mg"},{"bike_id":"72bf7179-d0ce-4574-88ef-9320fde316f7","system_id":"levelo_inurba_marseille","lat":43.23959,"lon":5.36649,"is_reserved":false,"is_disabled":false,"rental_uris":{"android":"levelo://app?vid=72bf7179-d0ce-4574-88ef-9320fde316f7","ios":"levelo://app?vid=72bf7179-d0ce-4574-88ef-9320fde316f7"},"vehicle_type_id":"4","last_reported":1743941794,"current_range_meters":6800,"station_id":"ce4bhi12rcd13ifvqfp0","pricing_plan_id":"cebpf4jnsgd1na2vs0mg"},{"bike_id":"6e2b3622-96ed-41b7-b121-88d1783009af","system_id":"levelo_inurba_marseille","lat":43.23152,"lon":5.43711,"is_reserved":false,"is_disabled":false,"rental_uris":{"android":"levelo://app?vid=6e2b3622-96ed-41b7-b121-88d1783009af","ios":"levelo://app?vid=6e2b3622-96ed-41b7-b121-88d1783009af"},"vehicle_type_id":"4","last_reported":1743941794,"current_range_meters":6800,"station_id":"ce4bhmp2rcd13ifvqgog","pricing_plan_id":"cebpf4jnsgd1na2vs0mg"},{"bike_id":"855744fa-431c-4144-abad-4dabbde4b10d","system_id":"levelo_inurba_marseille","lat":43.27373,"lon":5.36257,"is_reserved":false,"is_disabled":false,"rental_uris":{"android":"levelo://app?vid=855744fa-431c-4144-abad-4dabbde4b10d","ios":"levelo://app?vid=855744fa-431c-4144-abad-4dabbde4b10d"},"vehicle_type_id":"4","last_reported":1743941794,"current_range_meters":6800,"station_id":"ce4bhbh2rcd13ifvqeo0","pricing_plan_id":"cebpf4jnsgd1na2vs0mg"},{"bike_id":"94d5708b-6da2-4d4b-bad2-faf8a130a565","system_id":"levelo_inurba_marseille","lat":43.25499,"lon":5.37651,"is_reserved":false,"is_disabled":false,"rental_uris":{"android":"levelo://app?vid=94d5708b-6da2-4d4b-bad2-faf8a130a565","ios":"levelo://app?vid=94d5708b-6da2-4d4b-bad2-faf8a130a565"},"vehicle_type_id":"4","last_reported":1743941794,"current_range_meters":7200,"station_id":"ce4bhh12rcd13ifvqff0","pricing_plan_id":"cebpf4jnsgd1na2vs0mg"},{"bike_id":"b47d5853-1753-483a-ab48-22ac34ccda61","system_id":"levelo_inurba_marseille","lat":43.32543,"lon":5.4143,"is_reserved":false,"is_disabled":false,"rental_uris":{"android":"levelo://app?vid=b47d5853-1753-483a-ab48-22ac34ccda61","ios":"levelo://app?vid=b47d5853-1753-483a-ab48-22ac34ccda61"},"vehicle_type_id":"4","last_reported":1743941794,"current_range_meters":7200,"station_id":"ce4bhq12rcd13ifvqhhg","pricing_plan_id":"cebpf4jnsgd1na2vs0mg"},{"bike_id":"51fe45eb-be1d-43a8-b28c-348c762e5242","system_id":"levelo_inurba_marseille","lat":43.2842,"lon":5.34982,"is_reserved":false,"is_disabled":true,"rental_uris":{"android":"levelo://app?vid=51fe45eb-be1d-43a8-b28c-348c762e5242","ios":"levelo://app?vid=51fe45eb-be1d-43a8-b28c-348c762e5242"},"vehicle_type_id":"4","last_reported":1743941794,"current_range_meters":7200,"station_id":"ce4bhbh2rcd13ifvqepg","pricing_plan_id":"cebpf4jnsgd1na2vs0mg"},{"bike_id":"47987ea5-f3bd-41ea-ae13-7d6493cdc7e2","system_id":"levelo_inurba_marseille","lat":43.23071,"lon":5.35481,"is_reserved":false,"is_disabled":false,"rental_uris":{"android":"levelo://app?vid=47987ea5-f3bd-41ea-ae13-7d6493cdc7e2","ios":"levelo://app?vid=47987ea5-f3bd-41ea-ae13-7d6493cdc7e2"},"vehicle_type_id":"4","last_reported":1743941794,"current_range_meters":7200,"station_id":"cpo3342slgdg3j2ifvpg","pricing_plan_id":"cebpf4jnsgd1na2vs0mg"},{"bike_id":"79d2d39c-7e71-47a4-857e-2700150edb22","system_id":"levelo_inurba_marseille","lat":43.21755,"lon":5.34595,"is_reserved":false,"is_disabled":false,"rental_uris":{"android":"levelo://app?vid=79d2d39c-7e71-47a4-857e-2700150edb22","ios":"levelo://app?vid=79d2d39c-7e71-47a4-857e-2700150edb22"},"vehicle_type_id":"4","last_reported":1743941794,"current_range_meters":7200,"station_id":"st_cvj6r9ubvosntc0bgbag","pricing_plan_id":"cebpf4jnsgd1na2vs0mg"},{"bike_id":"53bc376f-e4d1-4ba2-b652-37ab1ceb6614","system_id":"levelo_inurba_marseille","lat":43.2739,"lon":5.36262,"is_reserved":false,"is_disabled":false,"rental_uris":{"android":"levelo://app?vid=53bc376f-e4d1-4ba2-b652-37ab1ceb6614","ios":"levelo://app?vid=53bc376f-e4d1-4ba2-b652-37ab1ceb6614"},"vehicle_type_id":"4","last_reported":1743941794,"current_range_meters":7200,"station_id":"ce4bhbh2rcd13ifvqeo0","pricing_plan_id":"cebpf4jnsgd1na2vs0mg"},{"bike_id":"9378cab7-1ef7-47d6-af28-c6473192be1a","system_id":"levelo_inurba_marseille","lat":43.3119,"lon":5.40753,"is_reserved":false,"is_disabled":false,"rental_uris":{"android":"levelo://app?vid=9378cab7-1ef7-47d6-af28-c6473192be1a","ios":"levelo://app?vid=9378cab7-1ef7-47d6-af28-c6473192be1a"},"vehicle_type_id":"4","last_reported":1743941794,"current_range_meters":7200,"station_id":"","pricing_plan_id":"cebpf4jnsgd1na2vs0mg"},{"bike_id":"84a2fa6e-c872-4baf-8ea4-4d0270d3b0ec","system_id":"levelo_inurba_marseille","lat":43.24166,"lon":5.36394,"is_reserved":false,"is_disabled":false,"rental_uris":{"android":"levelo://app?vid=84a2fa6e-c872-4baf-8ea4-4d0270d3b0ec","ios":"levelo://app?vid=84a2fa6e-c872-4baf-8ea4-4d0270d3b0ec"},"vehicle_type_id":"4","last_reported":1743941794,"current_range_meters":1600,"station_id":"cpo36qri1sfpv3e86is0","pricing_plan_id":"cebpf4jnsgd1na2vs0mg"},{"bike_id":"30b57730-cb66-4122-bd93-7dabcaba84e7","system_id":"levelo_inurba_marseille","lat":43.24873,"lon":5.40682,"is_reserved":false,"is_disabled":false,"rental_uris":{"android":"levelo://app?vid=30b57730-cb66-4122-bd93-7dabcaba84e7","ios":"levelo://app?vid=30b57730-cb66-4122-bd93-7dabcaba84e7"},"vehicle_type_id":"4","last_reported":1743941794,"current_range_meters":7200,"station_id":"","pricing_plan_id":"cebpf4jnsgd1na2vs0mg"},{"bike_id":"5b7b7b74-cba2-41ff-b62e-3bd12324b082","system_id":"levelo_inurba_marseille","lat":43.21748,"lon":5.34605,"is_reserved":false,"is_disabled":false,"rental_uris":{"android":"levelo://app?vid=5b7b7b74-cba2-41ff-b62e-3bd12324b082","ios":"levelo://app?vid=5b7b7b74-cba2-41ff-b62e-3bd12324b082"},"vehicle_type_id":"4","last_reported":1743941794,"current_range_meters":7200,"station_id":"st_cvj6r9ubvosntc0bgbag","pricing_plan_id":"cebpf4jnsgd1na2vs0mg"},{"bike_id":"bd55bf2b-08a1-4599-bc68-45447c84c93d","system_id":"levelo_inurba_marseille","lat":43.26787,"lon":5.39411,"is_reserved":false,"is_disabled":false,"rental_uris":{"android":"levelo://app?vid=bd55bf2b-08a1-4599-bc68-45447c84c93d","ios":"levelo://app?vid=bd55bf2b-08a1-4599-bc68-45447c84c93d"},"vehicle_type_id":"4","last_reported":1743941794,"current_range_meters":7200,"station_id":"ce4bhh12rcd13ifvqfg0","pricing_plan_id":"cebpf4jnsgd1na2vs0mg"},{"bike_id":"126b041e-f111-47c2-b7db-d5e4759694c2","system_id":"levelo_inurba_marseille","lat":43.27377,"lon":5.36242,"is_reserved":false,"is_disabled":false,"rental_uris":{"android":"levelo://app?vid=126b041e-f111-47c2-b7db-d5e4759694c2","ios":"levelo://app?vid=126b041e-f111-47c2-b7db-d5e4759694c2"},"vehicle_type_id":"4","last_reported":1743941794,"current_range_meters":8000,"station_id":"ce4bhbh2rcd13ifvqeo0","pricing_plan_id":"cebpf4jnsgd1na2vs0mg"},{"bike_id":"db29433a-c7f6-40d6-b0e1-3a1f0abf15ab","system_id":"levelo_inurba_marseille","lat":43.241712,"lon":5.364041,"is_reserved":false,"is_disabled":true,"rental_uris":{"android":"levelo://app?vid=db29433a-c7f6-40d6-b0e1-3a1f0abf15ab","ios":"levelo://app?vid=db29433a-c7f6-40d6-b0e1-3a1f0abf15ab"},"vehicle_type_id":"4","last_reported":1743941794,"current_range_meters":8000,"station_id":"ce4bh412rcd13ifvqdr0","pricing_plan_id":"cebpf4jnsgd1na2vs0mg"},{"bike_id":"fdfd01fc-093d-4c48-8c80-06fe1b4633e3","system_id":"levelo_inurba_marseille","lat":43.29262,"lon":5.38443,"is_reserved":false,"is_disabled":true,"rental_uris":{"android":"levelo://app?vid=fdfd01fc-093d-4c48-8c80-06fe1b4633e3","ios":"levelo://app?vid=fdfd01fc-093d-4c48-8c80-06fe1b4633e3"},"vehicle_type_id":"4","last_reported":1743941794,"current_range_meters":8000,"station_id":"ce4bh692rcd13ifvqea0","pricing_plan_id":"cebpf4jnsgd1na2vs0mg"},{"bike_id":"610c568a-218c-4dae-aa02-3dd38966684c","system_id":"levelo_inurba_marseille","lat":43.21193,"lon":5.35078,"is_reserved":false,"is_disabled":false,"rental_uris":{"android":"levelo://app?vid=610c568a-218c-4dae-aa02-3dd38966684c","ios":"levelo://app?vid=610c568a-218c-4dae-aa02-3dd38966684c"},"vehicle_type_id":"4","last_reported":1743941794,"current_range_meters":8000,"station_id":"st_cvj6sg6p6f1abm77japg","pricing_plan_id":"cebpf4jnsgd1na2vs0mg"},{"bike_id":"267eeb16-6453-4fb7-8038-3b408a6bb427","system_id":"levelo_inurba_marseille","lat":43.31424,"lon":5.36991,"is_reserved":false,"is_disabled":false,"rental_uris":{"android":"levelo://app?vid=267eeb16-6453-4fb7-8038-3b408a6bb427","ios":"levelo://app?vid=267eeb16-6453-4fb7-8038-3b408a6bb427"},"vehicle_type_id":"4","last_reported":1743941794,"current_range_meters":8000,"station_id":"","pricing_plan_id":"cebpf4jnsgd1na2vs0mg"},{"bike_id":"8bcbfd65-fe31-4f79-8ab6-3f3954af8f76","system_id":"levelo_inurba_marseille","lat":43.2738,"lon":5.36254,"is_reserved":false,"is_disabled":false,"rental_uris":{"android":"levelo://app?vid=8bcbfd65-fe31-4f79-8ab6-3f3954af8f76","ios":"levelo://app?vid=8bcbfd65-fe31-4f79-8ab6-3f3954af8f76"},"vehicle_type_id":"4","last_reported":1743941794,"current_range_meters":8000,"station_id":"ce4bhbh2rcd13ifvqeo0","pricing_plan_id":"cebpf4jnsgd1na2vs0mg"},{"bike_id":"1d787b89-5820-491c-a68f-894f08afc5e3","system_id":"levelo_inurba_marseille","lat":43.2439,"lon":5.37056,"is_reserved":false,"is_disabled":false,"rental_uris":{"android":"levelo://app?vid=1d787b89-5820-491c-a68f-894f08afc5e3","ios":"levelo://app?vid=1d787b89-5820-491c-a68f-894f08afc5e3"},"vehicle_type_id":"4","last_reported":1743941794,"current_range_meters":8000,"station_id":"ce4bhhh2rcd13ifvqfk0","pricing_plan_id":"cebpf4jnsgd1na2vs0mg"},{"bike_id":"c12b6a1f-085a-413f-a6ce-680e9afe7fd1","system_id":"levelo_inurba_marseille","lat":43.29795,"lon":5.38109,"is_reserved":false,"is_disabled":true,"rental_uris":{"android":"levelo://app?vid=c12b6a1f-085a-413f-a6ce-680e9afe7fd1","ios":"levelo://app?vid=c12b6a1f-085a-413f-a6ce-680e9afe7fd1"},"vehicle_type_id":"4","last_reported":1743941794,"current_range_meters":8000,"station_id":"ce4bgip2rcd13ifvqbb0","pricing_plan_id":"cebpf4jnsgd1na2vs0mg"},{"bike_id":"cf3f72b8-6109-4a06-889a-e76cf474ba10","system_id":"levelo_inurba_marseille","lat":43.25502,"lon":5.37651,"is_reserved":false,"is_disabled":false,"rental_uris":{"android":"levelo://app?vid=cf3f72b8-6109-4a06-889a-e76cf474ba10","ios":"levelo://app?vid=cf3f72b8-6109-4a06-889a-e76cf474ba10"},"vehicle_type_id":"4","last_reported":1743941794,"current_range_meters":8000,"station_id":"ce4bhh12rcd13ifvqff0","pricing_plan_id":"cebpf4jnsgd1na2vs0mg"},{"bike_id":"2e4d7bbf-cca2-492c-9e7d-d7532b294a63","system_id":"levelo_inurba_marseille","lat":43.27364,"lon":5.36254,"is_reserved":false,"is_disabled":false,"rental_uris":{"android":"levelo://app?vid=2e4d7bbf-cca2-492c-9e7d-d7532b294a63","ios":"levelo://app?vid=2e4d7bbf-cca2-492c-9e7d-d7532b294a63"},"vehicle_type_id":"4","last_reported":1743941794,"current_range_meters":8000,"station_id":"ce4bhbh2rcd13ifvqeo0","pricing_plan_id":"cebpf4jnsgd1na2vs0mg"},{"bike_id":"0285caab-1493-4e0b-b3ba-3eb4cd23dcb3","system_id":"levelo_inurba_marseille","lat":43.23971,"lon":5.36633,"is_reserved":false,"is_disabled":false,"rental_uris":{"android":"levelo://app?vid=0285caab-1493-4e0b-b3ba-3eb4cd23dcb3","ios":"levelo://app?vid=0285caab-1493-4e0b-b3ba-3eb4cd23dcb3"},"vehicle_type_id":"4","last_reported":1743941794,"current_range_meters":8000,"station_id":"ce4bhi12rcd13ifvqfp0","pricing_plan_id":"cebpf4jnsgd1na2vs0mg"},{"bike_id":"19973fef-a2ee-4612-a7a0-cf2dfa89b74d","system_id":"levelo_inurba_marseille","lat":43.21756,"lon":5.34606,"is_reserved":false,"is_disabled":false,"rental_uris":{"android":"levelo://app?vid=19973fef-a2ee-4612-a7a0-cf2dfa89b74d","ios":"levelo://app?vid=19973fef-a2ee-4612-a7a0-cf2dfa89b74d"},"vehicle_type_id":"4","last_reported":1743941794,"current_range_meters":8000,"station_id":"st_cvj6r9ubvosntc0bgbag","pricing_plan_id":"cebpf4jnsgd1na2vs0mg"},{"bike_id":"9105ce6d-e133-4bc7-97da-a36cdf0aa31c","system_id":"levelo_inurba_marseille","lat":43.29895,"lon":5.43669,"is_reserved":false,"is_disabled":false,"rental_uris":{"android":"levelo://app?vid=9105ce6d-e133-4bc7-97da-a36cdf0aa31c","ios":"levelo://app?vid=9105ce6d-e133-4bc7-97da-a36cdf0aa31c"},"vehicle_type_id":"4","last_reported":1743941794,"current_range_meters":8000,"station_id":"ce4bhpp2rcd13ifvqhfg","pricing_plan_id":"cebpf4jnsgd1na2vs0mg"},{"bike_id":"d038f6bc-94ee-4332-b7fd-8b03da226fc5","system_id":"levelo_inurba_marseille","lat":43.22947,"lon":5.35367,"is_reserved":false,"is_disabled":false,"rental_uris":{"android":"levelo://app?vid=d038f6bc-94ee-4332-b7fd-8b03da226fc5","ios":"levelo://app?vid=d038f6bc-94ee-4332-b7fd-8b03da226fc5"},"vehicle_type_id":"4","last_reported":1743941794,"current_range_meters":8000,"station_id":"cpo3532slgdg3j2ikp40","pricing_plan_id":"cebpf4jnsgd1na2vs0mg"},{"bike_id":"5519561e-6a78-4e38-8de4-84b7f76a38b0","system_id":"levelo_inurba_marseille","lat":43.30919,"lon":5.401625,"is_reserved":false,"is_disabled":true,"rental_uris":{"android":"levelo://app?vid=5519561e-6a78-4e38-8de4-84b7f76a38b0","ios":"levelo://app?vid=5519561e-6a78-4e38-8de4-84b7f76a38b0"},"vehicle_type_id":"4","last_reported":1743941794,"current_range_meters":8000,"station_id":"ce4bgvp2rcd13ifvqct0","pricing_plan_id":"cebpf4jnsgd1na2vs0mg"},{"bike_id":"45b4008f-54c1-4d17-8bbf-96f80d4fa84f","system_id":"levelo_inurba_marseille","lat":43.32091,"lon":5.36788,"is_reserved":false,"is_disabled":false,"rental_uris":{"android":"levelo://app?vid=45b4008f-54c1-4d17-8bbf-96f80d4fa84f","ios":"levelo://app?vid=45b4008f-54c1-4d17-8bbf-96f80d4fa84f"},"vehicle_type_id":"4","last_reported":1743941794,"current_range_meters":8000,"station_id":"ce4bhrh2rcd13ifvqhug","pricing_plan_id":"cebpf4jnsgd1na2vs0mg"},{"bike_id":"41c32cb9-50ea-44ca-ba30-7fc0899fa99c","system_id":"levelo_inurba_marseille","lat":43.28463,"lon":5.35878,"is_reserved":false,"is_disabled":false,"rental_uris":{"android":"levelo://app?vid=41c32cb9-50ea-44ca-ba30-7fc0899fa99c","ios":"levelo://app?vid=41c32cb9-50ea-44ca-ba30-7fc0899fa99c"},"vehicle_type_id":"4","last_reported":1743941794,"current_range_meters":8000,"station_id":"ce4bhah2rcd13ifvqei0","pricing_plan_id":"cebpf4jnsgd1na2vs0mg"},{"bike_id":"38e02afc-974b-4aee-a9d7-0602836855d4","system_id":"levelo_inurba_marseille","lat":43.24165,"lon":5.36394,"is_reserved":false,"is_disabled":false,"rental_uris":{"android":"levelo://app?vid=38e02afc-974b-4aee-a9d7-0602836855d4","ios":"levelo://app?vid=38e02afc-974b-4aee-a9d7-0602836855d4"},"vehicle_type_id":"4","last_reported":1743941794,"current_range_meters":8000,"station_id":"cpo36qri1sfpv3e86is0","pricing_plan_id":"cebpf4jnsgd1na2vs0mg"},{"bike_id":"ffed1c87-e8a8-4763-9984-02934a6e21bc","system_id":"levelo_inurba_marseille","lat":43.27373,"lon":5.36244,"is_reserved":false,"is_disabled":false,"rental_uris":{"android":"levelo://app?vid=ffed1c87-e8a8-4763-9984-02934a6e21bc","ios":"levelo://app?vid=ffed1c87-e8a8-4763-9984-02934a6e21bc"},"vehicle_type_id":"4","last_reported":1743941794,"current_range_meters":8000,"station_id":"ce4bhbh2rcd13ifvqeo0","pricing_plan_id":"cebpf4jnsgd1na2vs0mg"},{"bike_id":"0661c5d8-3d49-43d8-9b97-205424d5ecf2","system_id":"levelo_inurba_marseille","lat":43.27569,"lon":5.38427,"is_reserved":false,"is_disabled":false,"rental_uris":{"android":"levelo://app?vid=0661c5d8-3d49-43d8-9b97-205424d5ecf2","ios":"levelo://app?vid=0661c5d8-3d49-43d8-9b97-205424d5ecf2"},"vehicle_type_id":"4","last_reported":1743941794,"current_range_meters":8000,"station_id":"ce4bhh92rcd13ifvqfi0","pricing_plan_id":"cebpf4jnsgd1na2vs0mg"},{"bike_id":"4b7d46c2-9bc3-46d6-84c8-b76cd821ed12","system_id":"levelo_inurba_marseille","lat":43.2841,"lon":5.34996,"is_reserved":false,"is_disabled":false,"rental_uris":{"android":"levelo://app?vid=4b7d46c2-9bc3-46d6-84c8-b76cd821ed12","ios":"levelo://app?vid=4b7d46c2-9bc3-46d6-84c8-b76cd821ed12"},"vehicle_type_id":"4","last_reported":1743941794,"current_range_meters":8400,"station_id":"ce4bhbh2rcd13ifvqepg","pricing_plan_id":"cebpf4jnsgd1na2vs0mg"},{"bike_id":"301b6729-c45c-4915-8ef6-dadde3959d3d","system_id":"levelo_inurba_marseille","lat":43.26573,"lon":5.39007,"is_reserved":false,"is_disabled":true,"rental_uris":{"android":"levelo://app?vid=301b6729-c45c-4915-8ef6-dadde3959d3d","ios":"levelo://app?vid=301b6729-c45c-4915-8ef6-dadde3959d3d"},"vehicle_type_id":"4","last_reported":1743941794,"current_range_meters":8400,"station_id":"ce4bhe12rcd13ifvqf30","pricing_plan_id":"cebpf4jnsgd1na2vs0mg"},{"bike_id":"43718d37-b132-4a2d-9430-23101833a89e","system_id":"levelo_inurba_marseille","lat":43.30859,"lon":5.3809,"is_reserved":false,"is_disabled":false,"rental_uris":{"android":"levelo://app?vid=43718d37-b132-4a2d-9430-23101833a89e","ios":"levelo://app?vid=43718d37-b132-4a2d-9430-23101833a89e"},"vehicle_type_id":"4","last_reported":1743941794,"current_range_meters":8400,"station_id":"","pricing_plan_id":"cebpf4jnsgd1na2vs0mg"},{"bike_id":"4c25fb76-cd0e-4544-8837-d2585ee48375","system_id":"levelo_inurba_marseille","lat":43.29889,"lon":5.43657,"is_reserved":false,"is_disabled":false,"rental_uris":{"android":"levelo://app?vid=4c25fb76-cd0e-4544-8837-d2585ee48375","ios":"levelo://app?vid=4c25fb76-cd0e-4544-8837-d2585ee48375"},"vehicle_type_id":"4","last_reported":1743941794,"current_range_meters":8400,"station_id":"ce4bhpp2rcd13ifvqhfg","pricing_plan_id":"cebpf4jnsgd1na2vs0mg"},{"bike_id":"b726ec3b-8f9d-4312-85b1-1ef3f1acb769","system_id":"levelo_inurba_marseille","lat":43.25499,"lon":5.37652,"is_reserved":false,"is_disabled":false,"rental_uris":{"android":"levelo://app?vid=b726ec3b-8f9d-4312-85b1-1ef3f1acb769","ios":"levelo://app?vid=b726ec3b-8f9d-4312-85b1-1ef3f1acb769"},"vehicle_type_id":"4","last_reported":1743941794,"current_range_meters":8400,"station_id":"ce4bhh12rcd13ifvqff0","pricing_plan_id":"cebpf4jnsgd1na2vs0mg"},{"bike_id":"72ab5ae4-c45b-4b12-928d-904d18062df0","system_id":"levelo_inurba_marseille","lat":43.2738,"lon":5.36249,"is_reserved":false,"is_disabled":false,"rental_uris":{"android":"levelo://app?vid=72ab5ae4-c45b-4b12-928d-904d18062df0","ios":"levelo://app?vid=72ab5ae4-c45b-4b12-928d-904d18062df0"},"vehicle_type_id":"4","last_reported":1743941794,"current_range_meters":8400,"station_id":"ce4bhbh2rcd13ifvqeo0","pricing_plan_id":"cebpf4jnsgd1na2vs0mg"},{"bike_id":"7a935817-47e2-4cb3-8324-a647fdf3a140","system_id":"levelo_inurba_marseille","lat":43.29537,"lon":5.385441,"is_reserved":false,"is_disabled":true,"rental_uris":{"android":"levelo://app?vid=7a935817-47e2-4cb3-8324-a647fdf3a140","ios":"levelo://app?vid=7a935817-47e2-4cb3-8324-a647fdf3a140"},"vehicle_type_id":"4","last_reported":1743941794,"current_range_meters":8400,"station_id":"ce4bgih2rcd13ifvqba0","pricing_plan_id":"cebpf4jnsgd1na2vs0mg"},{"bike_id":"21fbe78f-0cdb-464b-90a2-7cac26cdac6d","system_id":"levelo_inurba_marseille","lat":43.23152,"lon":5.43715,"is_reserved":false,"is_disabled":false,"rental_uris":{"android":"levelo://app?vid=21fbe78f-0cdb-464b-90a2-7cac26cdac6d","ios":"levelo://app?vid=21fbe78f-0cdb-464b-90a2-7cac26cdac6d"},"vehicle_type_id":"4","last_reported":1743941794,"current_range_meters":8400,"station_id":"ce4bhmp2rcd13ifvqgog","pricing_plan_id":"cebpf4jnsgd1na2vs0mg"},{"bike_id":"619bed52-6ad3-4816-b72f-bebe3179f299","system_id":"levelo_inurba_marseille","lat":43.29704,"lon":5.36624,"is_reserved":false,"is_disabled":true,"rental_uris":{"android":"levelo://app?vid=619bed52-6ad3-4816-b72f-bebe3179f299","ios":"levelo://app?vid=619bed52-6ad3-4816-b72f-bebe3179f299"},"vehicle_type_id":"4","last_reported":1743941794,"current_range_meters":8800,"station_id":"ce4bgn12rcd13ifvqbt0","pricing_plan_id":"cebpf4jnsgd1na2vs0mg"},{"bike_id":"aeaafdce-072b-410b-bb71-bd5216dc505b","system_id":"levelo_inurba_marseille","lat":43.2313,"lon":5.40048,"is_reserved":false,"is_disabled":false,"rental_uris":{"android":"levelo://app?vid=aeaafdce-072b-410b-bb71-bd5216dc505b","ios":"levelo://app?vid=aeaafdce-072b-410b-bb71-bd5216dc505b"},"vehicle_type_id":"4","last_reported":1743941794,"current_range_meters":8800,"station_id":"","pricing_plan_id":"cebpf4jnsgd1na2vs0mg"},{"bike_id":"1d16e172-d477-4a96-8d7d-42ff6a622d2e","system_id":"levelo_inurba_marseille","lat":43.24698,"lon":5.4117,"is_reserved":false,"is_disabled":false,"rental_uris":{"android":"levelo://app?vid=1d16e172-d477-4a96-8d7d-42ff6a622d2e","ios":"levelo://app?vid=1d16e172-d477-4a96-8d7d-42ff6a622d2e"},"vehicle_type_id":"4","last_reported":1743941794,"current_range_meters":8800,"station_id":"","pricing_plan_id":"cebpf4jnsgd1na2vs0mg"},{"bike_id":"3fb1577c-c52a-4f1f-aa92-a43f195876b9","system_id":"levelo_inurba_marseille","lat":43.2406,"lon":5.37757,"is_reserved":false,"is_disabled":false,"rental_uris":{"android":"levelo://app?vid=3fb1577c-c52a-4f1f-aa92-a43f195876b9","ios":"levelo://app?vid=3fb1577c-c52a-4f1f-aa92-a43f195876b9"},"vehicle_type_id":"4","last_reported":1743941794,"current_range_meters":8800,"station_id":"ce4bhnp2rcd13ifvqgvg","pricing_plan_id":"cebpf4jnsgd1na2vs0mg"},{"bike_id":"b059c917-8031-400c-a661-5fbb963bff9d","system_id":"levelo_inurba_marseille","lat":43.21211,"lon":5.35061,"is_reserved":false,"is_disabled":false,"rental_uris":{"android":"levelo://app?vid=b059c917-8031-400c-a661-5fbb963bff9d","ios":"levelo://app?vid=b059c917-8031-400c-a661-5fbb963bff9d"},"vehicle_type_id":"4","last_reported":1743941794,"current_range_meters":8800,"station_id":"","pricing_plan_id":"cebpf4jnsgd1na2vs0mg"},{"bike_id":"a13ccb59-2c89-4796-b03f-5f77c1612565","system_id":"levelo_inurba_marseille","lat":43.27379,"lon":5.36249,"is_reserved":false,"is_disabled":false,"rental_uris":{"android":"levelo://app?vid=a13ccb59-2c89-4796-b03f-5f77c1612565","ios":"levelo://app?vid=a13ccb59-2c89-4796-b03f-5f77c1612565"},"vehicle_type_id":"4","last_reported":1743941794,"current_range_meters":8800,"station_id":"ce4bhbh2rcd13ifvqeo0","pricing_plan_id":"cebpf4jnsgd1na2vs0mg"},{"bike_id":"b70cced5-dc6e-4ac4-aef4-4cfbee9a2e11","system_id":"levelo_inurba_marseille","lat":43.2963,"lon":5.37709,"is_reserved":false,"is_disabled":true,"rental_uris":{"android":"levelo://app?vid=b70cced5-dc6e-4ac4-aef4-4cfbee9a2e11","ios":"levelo://app?vid=b70cced5-dc6e-4ac4-aef4-4cfbee9a2e11"},"vehicle_type_id":"4","last_reported":1743941794,"current_range_meters":8800,"station_id":"ce4bgi92rcd13ifvqb90","pricing_plan_id":"cebpf4jnsgd1na2vs0mg"},{"bike_id":"972cfbfd-ba97-48c4-b7fc-d90838fdd935","system_id":"levelo_inurba_marseille","lat":43.2827,"lon":5.35103,"is_reserved":false,"is_disabled":false,"rental_uris":{"android":"levelo://app?vid=972cfbfd-ba97-48c4-b7fc-d90838fdd935","ios":"levelo://app?vid=972cfbfd-ba97-48c4-b7fc-d90838fdd935"},"vehicle_type_id":"4","last_reported":1743941794,"current_range_meters":8800,"station_id":"ce4bhbp2rcd13ifvqerg","pricing_plan_id":"cebpf4jnsgd1na2vs0mg"},{"bike_id":"1622461e-25a5-4ec6-9188-643400d8cf0e","system_id":"levelo_inurba_marseille","lat":43.308015,"lon":5.435273,"is_reserved":false,"is_disabled":false,"rental_uris":{"android":"levelo://app?vid=1622461e-25a5-4ec6-9188-643400d8cf0e","ios":"levelo://app?vid=1622461e-25a5-4ec6-9188-643400d8cf0e"},"vehicle_type_id":"4","last_reported":1743941794,"current_range_meters":9200,"station_id":"ce4bhph2rcd13ifvqheg","pricing_plan_id":"cebpf4jnsgd1na2vs0mg"},{"bike_id":"e88afb4e-368c-47c8-b157-e76449c1f186","system_id":"levelo_inurba_marseille","lat":43.32484,"lon":5.365553,"is_reserved":false,"is_disabled":false,"rental_uris":{"android":"levelo://app?vid=e88afb4e-368c-47c8-b157-e76449c1f186","ios":"levelo://app?vid=e88afb4e-368c-47c8-b157-e76449c1f186"},"vehicle_type_id":"4","last_reported":1743941794,"current_range_meters":9200,"station_id":"ce4bhs12rcd13ifvqhvg","pricing_plan_id":"cebpf4jnsgd1na2vs0mg"},{"bike_id":"b0c91071-e0e1-4b9f-8897-848ff5955cb4","system_id":"levelo_inurba_marseille","lat":43.24402,"lon":5.37053,"is_reserved":false,"is_disabled":false,"rental_uris":{"android":"levelo://app?vid=b0c91071-e0e1-4b9f-8897-848ff5955cb4","ios":"levelo://app?vid=b0c91071-e0e1-4b9f-8897-848ff5955cb4"},"vehicle_type_id":"4","last_reported":1743941794,"current_range_meters":9200,"station_id":"ce4bhhh2rcd13ifvqfk0","pricing_plan_id":"cebpf4jnsgd1na2vs0mg"},{"bike_id":"e65aff63-a512-489b-8dbe-37929e6eff16","system_id":"levelo_inurba_marseille","lat":43.251617,"lon":5.387286,"is_reserved":false,"is_disabled":false,"rental_uris":{"android":"levelo://app?vid=e65aff63-a512-489b-8dbe-37929e6eff16","ios":"levelo://app?vid=e65aff63-a512-489b-8dbe-37929e6eff16"},"vehicle_type_id":"4","last_reported":1743941794,"current_range_meters":9200,"station_id":"ce4bhgp2rcd13ifvqfd0","pricing_plan_id":"cebpf4jnsgd1na2vs0mg"},{"bike_id":"d45e12a1-e0b1-434a-9664-ecd990299001","system_id":"levelo_inurba_marseille","lat":43.27609,"lon":5.36104,"is_reserved":false,"is_disabled":false,"rental_uris":{"android":"levelo://app?vid=d45e12a1-e0b1-434a-9664-ecd990299001","ios":"levelo://app?vid=d45e12a1-e0b1-434a-9664-ecd990299001"},"vehicle_type_id":"4","last_reported":1743941794,"current_range_meters":9200,"station_id":"ce4bgj92rcd13ifvqbe0","pricing_plan_id":"cebpf4jnsgd1na2vs0mg"},{"bike_id":"858fb709-b7e4-4582-a2f8-6963598292b8","system_id":"levelo_inurba_marseille","lat":43.27999,"lon":5.4001,"is_reserved":false,"is_disabled":false,"rental_uris":{"android":"levelo://app?vid=858fb709-b7e4-4582-a2f8-6963598292b8","ios":"levelo://app?vid=858fb709-b7e4-4582-a2f8-6963598292b8"},"vehicle_type_id":"4","last_reported":1743941794,"current_range_meters":8800,"station_id":"ce4bho92rcd13ifvqh4g","pricing_plan_id":"cebpf4jnsgd1na2vs0mg"},{"bike_id":"25cac0ac-e925-4256-90b0-fda8e32689e7","system_id":"levelo_inurba_marseille","lat":43.21201,"lon":5.35062,"is_reserved":false,"is_disabled":false,"rental_uris":{"android":"levelo://app?vid=25cac0ac-e925-4256-90b0-fda8e32689e7","ios":"levelo://app?vid=25cac0ac-e925-4256-90b0-fda8e32689e7"},"vehicle_type_id":"4","last_reported":1743941794,"current_range_meters":9200,"station_id":"st_cvj6sg6p6f1abm77japg","pricing_plan_id":"cebpf4jnsgd1na2vs0mg"},{"bike_id":"6b0389f2-e1b9-4fe7-8a3d-0e902519a3c0","system_id":"levelo_inurba_marseille","lat":43.28412,"lon":5.34977,"is_reserved":false,"is_disabled":false,"rental_uris":{"android":"levelo://app?vid=6b0389f2-e1b9-4fe7-8a3d-0e902519a3c0","ios":"levelo://app?vid=6b0389f2-e1b9-4fe7-8a3d-0e902519a3c0"},"vehicle_type_id":"4","last_reported":1743941794,"current_range_meters":9200,"station_id":"ce4bhbh2rcd13ifvqepg","pricing_plan_id":"cebpf4jnsgd1na2vs0mg"},{"bike_id":"6b652b17-4709-4398-8896-6b070cee45a3","system_id":"levelo_inurba_marseille","lat":43.31512,"lon":5.38045,"is_reserved":false,"is_disabled":false,"rental_uris":{"android":"levelo://app?vid=6b652b17-4709-4398-8896-6b070cee45a3","ios":"levelo://app?vid=6b652b17-4709-4398-8896-6b070cee45a3"},"vehicle_type_id":"4","last_reported":1743941794,"current_range_meters":9600,"station_id":"ce4bhsp2rcd13ifvqi50","pricing_plan_id":"cebpf4jnsgd1na2vs0mg"},{"bike_id":"36a4517f-79a0-4298-a368-b9c55fc5d42d","system_id":"levelo_inurba_marseille","lat":43.22927,"lon":5.35372,"is_reserved":false,"is_disabled":false,"rental_uris":{"android":"levelo://app?vid=36a4517f-79a0-4298-a368-b9c55fc5d42d","ios":"levelo://app?vid=36a4517f-79a0-4298-a368-b9c55fc5d42d"},"vehicle_type_id":"4","last_reported":1743941794,"current_range_meters":9600,"station_id":"cpo3532slgdg3j2ikp40","pricing_plan_id":"cebpf4jnsgd1na2vs0mg"},{"bike_id":"1bf28fcd-357a-43a7-b215-31bb2951a59c","system_id":"levelo_inurba_marseille","lat":43.29558,"lon":5.4228,"is_reserved":false,"is_disabled":false,"rental_uris":{"android":"levelo://app?vid=1bf28fcd-357a-43a7-b215-31bb2951a59c","ios":"levelo://app?vid=1bf28fcd-357a-43a7-b215-31bb2951a59c"},"vehicle_type_id":"4","last_reported":1743941794,"current_range_meters":9600,"station_id":"ce4bhph2rcd13ifvqhdg","pricing_plan_id":"cebpf4jnsgd1na2vs0mg"},{"bike_id":"bc269792-32ec-441b-bd50-1f617444aca0","system_id":"levelo_inurba_marseille","lat":43.24387,"lon":5.37061,"is_reserved":false,"is_disabled":false,"rental_uris":{"android":"levelo://app?vid=bc269792-32ec-441b-bd50-1f617444aca0","ios":"levelo://app?vid=bc269792-32ec-441b-bd50-1f617444aca0"},"vehicle_type_id":"4","last_reported":1743941794,"current_range_meters":9600,"station_id":"ce4bhhh2rcd13ifvqfk0","pricing_plan_id":"cebpf4jnsgd1na2vs0mg"},{"bike_id":"4f7c2cc0-5ad1-402b-80a6-41908fad589f","system_id":"levelo_inurba_marseille","lat":43.22951,"lon":5.35366,"is_reserved":false,"is_disabled":false,"rental_uris":{"android":"levelo://app?vid=4f7c2cc0-5ad1-402b-80a6-41908fad589f","ios":"levelo://app?vid=4f7c2cc0-5ad1-402b-80a6-41908fad589f"},"vehicle_type_id":"4","last_reported":1743941794,"current_range_meters":9600,"station_id":"cpo3532slgdg3j2ikp40","pricing_plan_id":"cebpf4jnsgd1na2vs0mg"},{"bike_id":"71dc840a-2175-4b66-91da-3b59357cee99","system_id":"levelo_inurba_marseille","lat":43.27374,"lon":5.36251,"is_reserved":false,"is_disabled":false,"rental_uris":{"android":"levelo://app?vid=71dc840a-2175-4b66-91da-3b59357cee99","ios":"levelo://app?vid=71dc840a-2175-4b66-91da-3b59357cee99"},"vehicle_type_id":"4","last_reported":1743941794,"current_range_meters":9600,"station_id":"ce4bhbh2rcd13ifvqeo0","pricing_plan_id":"cebpf4jnsgd1na2vs0mg"},{"bike_id":"28ff0676-fcea-4037-9515-74beb9cff6fd","system_id":"levelo_inurba_marseille","lat":43.24388,"lon":5.37066,"is_reserved":false,"is_disabled":false,"rental_uris":{"android":"levelo://app?vid=28ff0676-fcea-4037-9515-74beb9cff6fd","ios":"levelo://app?vid=28ff0676-fcea-4037-9515-74beb9cff6fd"},"vehicle_type_id":"4","last_reported":1743941794,"current_range_meters":9600,"station_id":"ce4bhhh2rcd13ifvqfk0","pricing_plan_id":"cebpf4jnsgd1na2vs0mg"},{"bike_id":"21f8acc6-ad6e-4601-b104-7de5e76cb194","system_id":"levelo_inurba_marseille","lat":43.281531,"lon":5.426497,"is_reserved":false,"is_disabled":false,"rental_uris":{"android":"levelo://app?vid=21f8acc6-ad6e-4601-b104-7de5e76cb194","ios":"levelo://app?vid=21f8acc6-ad6e-4601-b104-7de5e76cb194"},"vehicle_type_id":"4","last_reported":1743941794,"current_range_meters":9600,"station_id":"ce4bhnh2rcd13ifvqgug","pricing_plan_id":"cebpf4jnsgd1na2vs0mg"},{"bike_id":"1af7d4de-8d57-4107-9189-d18c5d7cfef7","system_id":"levelo_inurba_marseille","lat":43.21757,"lon":5.34604,"is_reserved":false,"is_disabled":false,"rental_uris":{"android":"levelo://app?vid=1af7d4de-8d57-4107-9189-d18c5d7cfef7","ios":"levelo://app?vid=1af7d4de-8d57-4107-9189-d18c5d7cfef7"},"vehicle_type_id":"4","last_reported":1743941794,"current_range_meters":9600,"station_id":"st_cvj6r9ubvosntc0bgbag","pricing_plan_id":"cebpf4jnsgd1na2vs0mg"},{"bike_id":"c28606bd-52a1-4ab8-89d9-5f36e83bdb9d","system_id":"levelo_inurba_marseille","lat":43.21744,"lon":5.34605,"is_reserved":false,"is_disabled":false,"rental_uris":{"android":"levelo://app?vid=c28606bd-52a1-4ab8-89d9-5f36e83bdb9d","ios":"levelo://app?vid=c28606bd-52a1-4ab8-89d9-5f36e83bdb9d"},"vehicle_type_id":"4","last_reported":1743941794,"current_range_meters":10000,"station_id":"st_cvj6r9ubvosntc0bgbag","pricing_plan_id":"cebpf4jnsgd1na2vs0mg"},{"bike_id":"b598b6b8-69a3-4491-bd9b-eb0a2b32b0cf","system_id":"levelo_inurba_marseille","lat":43.31029,"lon":5.37968,"is_reserved":false,"is_disabled":false,"rental_uris":{"android":"levelo://app?vid=b598b6b8-69a3-4491-bd9b-eb0a2b32b0cf","ios":"levelo://app?vid=b598b6b8-69a3-4491-bd9b-eb0a2b32b0cf"},"vehicle_type_id":"4","last_reported":1743941794,"current_range_meters":10000,"station_id":"","pricing_plan_id":"cebpf4jnsgd1na2vs0mg"},{"bike_id":"00393ee2-317d-4e98-a30d-fd25773ef49f","system_id":"levelo_inurba_marseille","lat":43.35237,"lon":5.35785,"is_reserved":false,"is_disabled":false,"rental_uris":{"android":"levelo://app?vid=00393ee2-317d-4e98-a30d-fd25773ef49f","ios":"levelo://app?vid=00393ee2-317d-4e98-a30d-fd25773ef49f"},"vehicle_type_id":"4","last_reported":1743941794,"current_range_meters":10000,"station_id":"","pricing_plan_id":"cebpf4jnsgd1na2vs0mg"},{"bike_id":"9c9e91df-e133-414a-8295-3f6a292805f6","system_id":"levelo_inurba_marseille","lat":43.23188,"lon":5.35565,"is_reserved":false,"is_disabled":true,"rental_uris":{"android":"levelo://app?vid=9c9e91df-e133-414a-8295-3f6a292805f6","ios":"levelo://app?vid=9c9e91df-e133-414a-8295-3f6a292805f6"},"vehicle_type_id":"4","last_reported":1743941794,"current_range_meters":10000,"station_id":"ce4bhu92rcd13ifvqi70","pricing_plan_id":"cebpf4jnsgd1na2vs0mg"},{"bike_id":"08af8848-62cb-4828-92f8-13e4351276a2","system_id":"levelo_inurba_marseille","lat":43.28413,"lon":5.34999,"is_reserved":false,"is_disabled":false,"rental_uris":{"android":"levelo://app?vid=08af8848-62cb-4828-92f8-13e4351276a2","ios":"levelo://app?vid=08af8848-62cb-4828-92f8-13e4351276a2"},"vehicle_type_id":"4","last_reported":1743941794,"current_range_meters":10000,"station_id":"ce4bhbh2rcd13ifvqepg","pricing_plan_id":"cebpf4jnsgd1na2vs0mg"},{"bike_id":"9e870f17-7734-420d-bcba-c8fe8efed10d","system_id":"levelo_inurba_marseille","lat":43.28407,"lon":5.34988,"is_reserved":false,"is_disabled":false,"rental_uris":{"android":"levelo://app?vid=9e870f17-7734-420d-bcba-c8fe8efed10d","ios":"levelo://app?vid=9e870f17-7734-420d-bcba-c8fe8efed10d"},"vehicle_type_id":"4","last_reported":1743941794,"current_range_meters":10000,"station_id":"ce4bhbh2rcd13ifvqepg","pricing_plan_id":"cebpf4jnsgd1na2vs0mg"},{"bike_id":"6023584e-870f-454d-88b0-bf3dc0e21fbe","system_id":"levelo_inurba_marseille","lat":43.243984,"lon":5.370553,"is_reserved":false,"is_disabled":true,"rental_uris":{"android":"levelo://app?vid=6023584e-870f-454d-88b0-bf3dc0e21fbe","ios":"levelo://app?vid=6023584e-870f-454d-88b0-bf3dc0e21fbe"},"vehicle_type_id":"4","last_reported":1743941794,"current_range_meters":10000,"station_id":"ce4bhhh2rcd13ifvqfk0","pricing_plan_id":"cebpf4jnsgd1na2vs0mg"},{"bike_id":"33bf81d2-bcf6-4e68-b9e7-94139225717b","system_id":"levelo_inurba_marseille","lat":43.26024,"lon":5.37557,"is_reserved":false,"is_disabled":false,"rental_uris":{"android":"levelo://app?vid=33bf81d2-bcf6-4e68-b9e7-94139225717b","ios":"levelo://app?vid=33bf81d2-bcf6-4e68-b9e7-94139225717b"},"vehicle_type_id":"4","last_reported":1743941794,"current_range_meters":10800,"station_id":"ce4bhgh2rcd13ifvqfa0","pricing_plan_id":"cebpf4jnsgd1na2vs0mg"},{"bike_id":"abde5d83-9b30-4b2f-8a88-f914ca452329","system_id":"levelo_inurba_marseille","lat":43.3121,"lon":5.386828,"is_reserved":false,"is_disabled":false,"rental_uris":{"android":"levelo://app?vid=abde5d83-9b30-4b2f-8a88-f914ca452329","ios":"levelo://app?vid=abde5d83-9b30-4b2f-8a88-f914ca452329"},"vehicle_type_id":"4","last_reported":1743941794,"current_range_meters":10800,"station_id":"ce4bgv12rcd13ifvqcp0","pricing_plan_id":"cebpf4jnsgd1na2vs0mg"},{"bike_id":"414afd3d-5c32-4d43-b642-031e0ea52620","system_id":"levelo_inurba_marseille","lat":43.25498,"lon":5.37664,"is_reserved":false,"is_disabled":false,"rental_uris":{"android":"levelo://app?vid=414afd3d-5c32-4d43-b642-031e0ea52620","ios":"levelo://app?vid=414afd3d-5c32-4d43-b642-031e0ea52620"},"vehicle_type_id":"4","last_reported":1743941794,"current_range_meters":10800,"station_id":"ce4bhh12rcd13ifvqff0","pricing_plan_id":"cebpf4jnsgd1na2vs0mg"},{"bike_id":"ceba594e-ff69-4140-828e-f8a961103e51","system_id":"levelo_inurba_marseille","lat":43.241699,"lon":5.364078,"is_reserved":false,"is_disabled":false,"rental_uris":{"android":"levelo://app?vid=ceba594e-ff69-4140-828e-f8a961103e51","ios":"levelo://app?vid=ceba594e-ff69-4140-828e-f8a961103e51"},"vehicle_type_id":"4","last_reported":1743941794,"current_range_meters":10800,"station_id":"cpo36qri1sfpv3e86is0","pricing_plan_id":"cebpf4jnsgd1na2vs0mg"},{"bike_id":"7fd0635d-68ad-4ce6-a52b-daef56987b4b","system_id":"levelo_inurba_marseille","lat":43.30858,"lon":5.38561,"is_reserved":false,"is_disabled":false,"rental_uris":{"android":"levelo://app?vid=7fd0635d-68ad-4ce6-a52b-daef56987b4b","ios":"levelo://app?vid=7fd0635d-68ad-4ce6-a52b-daef56987b4b"},"vehicle_type_id":"4","last_reported":1743941794,"current_range_meters":10800,"station_id":"","pricing_plan_id":"cebpf4jnsgd1na2vs0mg"},{"bike_id":"0db79626-80f8-4250-8bc9-558f5d952fb2","system_id":"levelo_inurba_marseille","lat":43.23174,"lon":5.43689,"is_reserved":false,"is_disabled":false,"rental_uris":{"android":"levelo://app?vid=0db79626-80f8-4250-8bc9-558f5d952fb2","ios":"levelo://app?vid=0db79626-80f8-4250-8bc9-558f5d952fb2"},"vehicle_type_id":"4","last_reported":1743941794,"current_range_meters":10800,"station_id":"ce4bhmp2rcd13ifvqgog","pricing_plan_id":"cebpf4jnsgd1na2vs0mg"},{"bike_id":"136b6e45-ee21-453e-aa22-e07947db9071","system_id":"levelo_inurba_marseille","lat":43.2317,"lon":5.43649,"is_reserved":false,"is_disabled":true,"rental_uris":{"android":"levelo://app?vid=136b6e45-ee21-453e-aa22-e07947db9071","ios":"levelo://app?vid=136b6e45-ee21-453e-aa22-e07947db9071"},"vehicle_type_id":"4","last_reported":1743941794,"current_range_meters":10800,"station_id":"ce4bhmp2rcd13ifvqgog","pricing_plan_id":"cebpf4jnsgd1na2vs0mg"},{"bike_id":"f3a79e60-7519-4b1a-997c-3b5ee21060f0","system_id":"levelo_inurba_marseille","lat":43.25496,"lon":5.3765,"is_reserved":false,"is_disabled":false,"rental_uris":{"android":"levelo://app?vid=f3a79e60-7519-4b1a-997c-3b5ee21060f0","ios":"levelo://app?vid=f3a79e60-7519-4b1a-997c-3b5ee21060f0"},"vehicle_type_id":"4","last_reported":1743941794,"current_range_meters":11200,"station_id":"ce4bhh12rcd13ifvqff0","pricing_plan_id":"cebpf4jnsgd1na2vs0mg"},{"bike_id":"f8321878-9e9a-4e56-8919-d9cad8905f3c","system_id":"levelo_inurba_marseille","lat":43.305435,"lon":5.365292,"is_reserved":false,"is_disabled":true,"rental_uris":{"android":"levelo://app?vid=f8321878-9e9a-4e56-8919-d9cad8905f3c","ios":"levelo://app?vid=f8321878-9e9a-4e56-8919-d9cad8905f3c"},"vehicle_type_id":"4","last_reported":1743941794,"current_range_meters":11200,"station_id":"ce4bgs12rcd13ifvqcag","pricing_plan_id":"cebpf4jnsgd1na2vs0mg"},{"bike_id":"b71b02b1-12bc-45c4-a8aa-ef79cda3221c","system_id":"levelo_inurba_marseille","lat":43.21757,"lon":5.34605,"is_reserved":false,"is_disabled":false,"rental_uris":{"android":"levelo://app?vid=b71b02b1-12bc-45c4-a8aa-ef79cda3221c","ios":"levelo://app?vid=b71b02b1-12bc-45c4-a8aa-ef79cda3221c"},"vehicle_type_id":"4","last_reported":1743941794,"current_range_meters":11200,"station_id":"st_cvj6r9ubvosntc0bgbag","pricing_plan_id":"cebpf4jnsgd1na2vs0mg"},{"bike_id":"5b26f200-5b49-4d8a-93a2-ce335b258e0d","system_id":"levelo_inurba_marseille","lat":43.28414,"lon":5.35,"is_reserved":false,"is_disabled":false,"rental_uris":{"android":"levelo://app?vid=5b26f200-5b49-4d8a-93a2-ce335b258e0d","ios":"levelo://app?vid=5b26f200-5b49-4d8a-93a2-ce335b258e0d"},"vehicle_type_id":"4","last_reported":1743941794,"current_range_meters":11200,"station_id":"ce4bhbh2rcd13ifvqepg","pricing_plan_id":"cebpf4jnsgd1na2vs0mg"},{"bike_id":"8f6dc4df-021c-4b49-b773-41ad9c5221cf","system_id":"levelo_inurba_marseille","lat":43.31079,"lon":5.37142,"is_reserved":false,"is_disabled":false,"rental_uris":{"android":"levelo://app?vid=8f6dc4df-021c-4b49-b773-41ad9c5221cf","ios":"levelo://app?vid=8f6dc4df-021c-4b49-b773-41ad9c5221cf"},"vehicle_type_id":"4","last_reported":1743941794,"current_range_meters":11200,"station_id":"","pricing_plan_id":"cebpf4jnsgd1na2vs0mg"},{"bike_id":"e4f10b9f-1f64-48d7-9bf6-bee82aa9df6d","system_id":"levelo_inurba_marseille","lat":43.25502,"lon":5.37652,"is_reserved":false,"is_disabled":false,"rental_uris":{"android":"levelo://app?vid=e4f10b9f-1f64-48d7-9bf6-bee82aa9df6d","ios":"levelo://app?vid=e4f10b9f-1f64-48d7-9bf6-bee82aa9df6d"},"vehicle_type_id":"4","last_reported":1743941794,"current_range_meters":11200,"station_id":"ce4bhh12rcd13ifvqff0","pricing_plan_id":"cebpf4jnsgd1na2vs0mg"},{"bike_id":"c1eb280b-aae9-48bd-bd47-36bd712edc92","system_id":"levelo_inurba_marseille","lat":43.27389,"lon":5.36274,"is_reserved":false,"is_disabled":false,"rental_uris":{"android":"levelo://app?vid=c1eb280b-aae9-48bd-bd47-36bd712edc92","ios":"levelo://app?vid=c1eb280b-aae9-48bd-bd47-36bd712edc92"},"vehicle_type_id":"4","last_reported":1743941794,"current_range_meters":11200,"station_id":"ce4bhbh2rcd13ifvqeo0","pricing_plan_id":"cebpf4jnsgd1na2vs0mg"},{"bike_id":"1f9006c0-6130-498f-9399-ca1c8ff0c462","system_id":"levelo_inurba_marseille","lat":43.32097,"lon":5.36787,"is_reserved":false,"is_disabled":false,"rental_uris":{"android":"levelo://app?vid=1f9006c0-6130-498f-9399-ca1c8ff0c462","ios":"levelo://app?vid=1f9006c0-6130-498f-9399-ca1c8ff0c462"},"vehicle_type_id":"4","last_reported":1743941794,"current_range_meters":11200,"station_id":"ce4bhrh2rcd13ifvqhug","pricing_plan_id":"cebpf4jnsgd1na2vs0mg"},{"bike_id":"6aedeed0-963b-42b2-a86d-b02d552969da","system_id":"levelo_inurba_marseille","lat":43.29258,"lon":5.40896,"is_reserved":false,"is_disabled":false,"rental_uris":{"android":"levelo://app?vid=6aedeed0-963b-42b2-a86d-b02d552969da","ios":"levelo://app?vid=6aedeed0-963b-42b2-a86d-b02d552969da"},"vehicle_type_id":"4","last_reported":1743941794,"current_range_meters":11600,"station_id":"ce4bh192rcd13ifvqdc0","pricing_plan_id":"cebpf4jnsgd1na2vs0mg"},{"bike_id":"3bf5d9ad-e9b1-49fa-83fa-32db8c03a158","system_id":"levelo_inurba_marseille","lat":43.24384,"lon":5.37054,"is_reserved":false,"is_disabled":false,"rental_uris":{"android":"levelo://app?vid=3bf5d9ad-e9b1-49fa-83fa-32db8c03a158","ios":"levelo://app?vid=3bf5d9ad-e9b1-49fa-83fa-32db8c03a158"},"vehicle_type_id":"4","last_reported":1743941794,"current_range_meters":11600,"station_id":"ce4bhhh2rcd13ifvqfk0","pricing_plan_id":"cebpf4jnsgd1na2vs0mg"},{"bike_id":"8908f5a3-3568-458d-bd58-b80b0bebbfd4","system_id":"levelo_inurba_marseille","lat":43.21754,"lon":5.34595,"is_reserved":false,"is_disabled":false,"rental_uris":{"android":"levelo://app?vid=8908f5a3-3568-458d-bd58-b80b0bebbfd4","ios":"levelo://app?vid=8908f5a3-3568-458d-bd58-b80b0bebbfd4"},"vehicle_type_id":"4","last_reported":1743941794,"current_range_meters":11600,"station_id":"st_cvj6r9ubvosntc0bgbag","pricing_plan_id":"cebpf4jnsgd1na2vs0mg"},{"bike_id":"eabbef24-ea14-42c7-9651-aa71753deea0","system_id":"levelo_inurba_marseille","lat":43.26056,"lon":5.37551,"is_reserved":false,"is_disabled":false,"rental_uris":{"android":"levelo://app?vid=eabbef24-ea14-42c7-9651-aa71753deea0","ios":"levelo://app?vid=eabbef24-ea14-42c7-9651-aa71753deea0"},"vehicle_type_id":"4","last_reported":1743941794,"current_range_meters":11600,"station_id":"ce4bhgh2rcd13ifvqfa0","pricing_plan_id":"cebpf4jnsgd1na2vs0mg"},{"bike_id":"aab17747-ef50-479d-87f4-f5d51b95e7cd","system_id":"levelo_inurba_marseille","lat":43.27369,"lon":5.36261,"is_reserved":false,"is_disabled":false,"rental_uris":{"android":"levelo://app?vid=aab17747-ef50-479d-87f4-f5d51b95e7cd","ios":"levelo://app?vid=aab17747-ef50-479d-87f4-f5d51b95e7cd"},"vehicle_type_id":"4","last_reported":1743941794,"current_range_meters":11600,"station_id":"ce4bhbh2rcd13ifvqeo0","pricing_plan_id":"cebpf4jnsgd1na2vs0mg"},{"bike_id":"67a01fd5-0edb-4cbc-9e46-03213dac2452","system_id":"levelo_inurba_marseille","lat":43.29554,"lon":5.42274,"is_reserved":false,"is_disabled":false,"rental_uris":{"android":"levelo://app?vid=67a01fd5-0edb-4cbc-9e46-03213dac2452","ios":"levelo://app?vid=67a01fd5-0edb-4cbc-9e46-03213dac2452"},"vehicle_type_id":"4","last_reported":1743941794,"current_range_meters":12000,"station_id":"ce4bhph2rcd13ifvqhdg","pricing_plan_id":"cebpf4jnsgd1na2vs0mg"},{"bike_id":"ec7b38d9-33ed-4b73-a04e-529303997e2f","system_id":"levelo_inurba_marseille","lat":43.23195,"lon":5.35555,"is_reserved":false,"is_disabled":false,"rental_uris":{"android":"levelo://app?vid=ec7b38d9-33ed-4b73-a04e-529303997e2f","ios":"levelo://app?vid=ec7b38d9-33ed-4b73-a04e-529303997e2f"},"vehicle_type_id":"4","last_reported":1743941794,"current_range_meters":12000,"station_id":"ce4bhu92rcd13ifvqi70","pricing_plan_id":"cebpf4jnsgd1na2vs0mg"},{"bike_id":"c9bcb9ed-89fa-4f1d-bf29-12fb5d644696","system_id":"levelo_inurba_marseille","lat":43.28039,"lon":5.41667,"is_reserved":false,"is_disabled":false,"rental_uris":{"android":"levelo://app?vid=c9bcb9ed-89fa-4f1d-bf29-12fb5d644696","ios":"levelo://app?vid=c9bcb9ed-89fa-4f1d-bf29-12fb5d644696"},"vehicle_type_id":"4","last_reported":1743941794,"current_range_meters":12000,"station_id":"ce4bho12rcd13ifvqh1g","pricing_plan_id":"cebpf4jnsgd1na2vs0mg"},{"bike_id":"cafb96dc-8af2-479c-b58d-00fa13bbb430","system_id":"levelo_inurba_marseille","lat":43.27381,"lon":5.36251,"is_reserved":false,"is_disabled":false,"rental_uris":{"android":"levelo://app?vid=cafb96dc-8af2-479c-b58d-00fa13bbb430","ios":"levelo://app?vid=cafb96dc-8af2-479c-b58d-00fa13bbb430"},"vehicle_type_id":"4","last_reported":1743941794,"current_range_meters":12000,"station_id":"ce4bhbh2rcd13ifvqeo0","pricing_plan_id":"cebpf4jnsgd1na2vs0mg"},{"bike_id":"c3e6d442-6282-4c88-9f90-93d85aff9e76","system_id":"levelo_inurba_marseille","lat":43.28282,"lon":5.4274,"is_reserved":false,"is_disabled":false,"rental_uris":{"android":"levelo://app?vid=c3e6d442-6282-4c88-9f90-93d85aff9e76","ios":"levelo://app?vid=c3e6d442-6282-4c88-9f90-93d85aff9e76"},"vehicle_type_id":"4","last_reported":1743941794,"current_range_meters":12000,"station_id":"","pricing_plan_id":"cebpf4jnsgd1na2vs0mg"},{"bike_id":"1f501dd1-17f1-4e60-a7d9-309a922f65a4","system_id":"levelo_inurba_marseille","lat":43.28272,"lon":5.3508,"is_reserved":false,"is_disabled":false,"rental_uris":{"android":"levelo://app?vid=1f501dd1-17f1-4e60-a7d9-309a922f65a4","ios":"levelo://app?vid=1f501dd1-17f1-4e60-a7d9-309a922f65a4"},"vehicle_type_id":"4","last_reported":1743941794,"current_range_meters":12000,"station_id":"ce4bhbp2rcd13ifvqerg","pricing_plan_id":"cebpf4jnsgd1na2vs0mg"},{"bike_id":"3421c882-3fa1-44aa-ba15-70b406af94eb","system_id":"levelo_inurba_marseille","lat":43.231961,"lon":5.355511,"is_reserved":false,"is_disabled":false,"rental_uris":{"android":"levelo://app?vid=3421c882-3fa1-44aa-ba15-70b406af94eb","ios":"levelo://app?vid=3421c882-3fa1-44aa-ba15-70b406af94eb"},"vehicle_type_id":"4","last_reported":1743941794,"current_range_meters":12000,"station_id":"ce4bhu92rcd13ifvqi70","pricing_plan_id":"cebpf4jnsgd1na2vs0mg"},{"bike_id":"5d40b06b-f88c-438b-a124-c6e520eec699","system_id":"levelo_inurba_marseille","lat":43.27396,"lon":5.36253,"is_reserved":false,"is_disabled":false,"rental_uris":{"android":"levelo://app?vid=5d40b06b-f88c-438b-a124-c6e520eec699","ios":"levelo://app?vid=5d40b06b-f88c-438b-a124-c6e520eec699"},"vehicle_type_id":"4","last_reported":1743941794,"current_range_meters":12000,"station_id":"ce4bhbh2rcd13ifvqeo0","pricing_plan_id":"cebpf4jnsgd1na2vs0mg"},{"bike_id":"b7604dfb-d021-4e47-8430-554b32ba87ec","system_id":"levelo_inurba_marseille","lat":43.23153,"lon":5.43708,"is_reserved":false,"is_disabled":false,"rental_uris":{"android":"levelo://app?vid=b7604dfb-d021-4e47-8430-554b32ba87ec","ios":"levelo://app?vid=b7604dfb-d021-4e47-8430-554b32ba87ec"},"vehicle_type_id":"4","last_reported":1743941794,"current_range_meters":12000,"station_id":"ce4bhmp2rcd13ifvqgog","pricing_plan_id":"cebpf4jnsgd1na2vs0mg"},{"bike_id":"19379d7b-b3b4-46ff-9af1-6370bf06ecc3","system_id":"levelo_inurba_marseille","lat":43.28985,"lon":5.35612,"is_reserved":false,"is_disabled":true,"rental_uris":{"android":"levelo://app?vid=19379d7b-b3b4-46ff-9af1-6370bf06ecc3","ios":"levelo://app?vid=19379d7b-b3b4-46ff-9af1-6370bf06ecc3"},"vehicle_type_id":"4","last_reported":1743941794,"current_range_meters":12000,"station_id":"ce4bhb92rcd13ifvqen0","pricing_plan_id":"cebpf4jnsgd1na2vs0mg"},{"bike_id":"7d2dde4f-5a6a-4005-a47e-231c9dacefe3","system_id":"levelo_inurba_marseille","lat":43.30798,"lon":5.43524,"is_reserved":false,"is_disabled":false,"rental_uris":{"android":"levelo://app?vid=7d2dde4f-5a6a-4005-a47e-231c9dacefe3","ios":"levelo://app?vid=7d2dde4f-5a6a-4005-a47e-231c9dacefe3"},"vehicle_type_id":"4","last_reported":1743941794,"current_range_meters":12400,"station_id":"ce4bhph2rcd13ifvqheg","pricing_plan_id":"cebpf4jnsgd1na2vs0mg"},{"bike_id":"774b6a29-accb-48a8-9c1d-70166f816a55","system_id":"levelo_inurba_marseille","lat":43.29006,"lon":5.35608,"is_reserved":false,"is_disabled":false,"rental_uris":{"android":"levelo://app?vid=774b6a29-accb-48a8-9c1d-70166f816a55","ios":"levelo://app?vid=774b6a29-accb-48a8-9c1d-70166f816a55"},"vehicle_type_id":"4","last_reported":1743941794,"current_range_meters":12400,"station_id":"ce4bhb92rcd13ifvqen0","pricing_plan_id":"cebpf4jnsgd1na2vs0mg"},{"bike_id":"37f814b9-403f-40ad-b071-2087efed3713","system_id":"levelo_inurba_marseille","lat":43.23195,"lon":5.35556,"is_reserved":false,"is_disabled":false,"rental_uris":{"android":"levelo://app?vid=37f814b9-403f-40ad-b071-2087efed3713","ios":"levelo://app?vid=37f814b9-403f-40ad-b071-2087efed3713"},"vehicle_type_id":"4","last_reported":1743941794,"current_range_meters":12400,"station_id":"ce4bhu92rcd13ifvqi70","pricing_plan_id":"cebpf4jnsgd1na2vs0mg"},{"bike_id":"c2c27c97-cdb9-4118-84ef-b2dc6e9357e6","system_id":"levelo_inurba_marseille","lat":43.30615,"lon":5.37146,"is_reserved":false,"is_disabled":false,"rental_uris":{"android":"levelo://app?vid=c2c27c97-cdb9-4118-84ef-b2dc6e9357e6","ios":"levelo://app?vid=c2c27c97-cdb9-4118-84ef-b2dc6e9357e6"},"vehicle_type_id":"4","last_reported":1743941794,"current_range_meters":12400,"station_id":"","pricing_plan_id":"cebpf4jnsgd1na2vs0mg"},{"bike_id":"f7e3b8fa-9062-4469-bcee-58c5aa5cfb6e","system_id":"levelo_inurba_marseille","lat":43.295363,"lon":5.385471,"is_reserved":false,"is_disabled":true,"rental_uris":{"android":"levelo://app?vid=f7e3b8fa-9062-4469-bcee-58c5aa5cfb6e","ios":"levelo://app?vid=f7e3b8fa-9062-4469-bcee-58c5aa5cfb6e"},"vehicle_type_id":"4","last_reported":1743941794,"current_range_meters":12400,"station_id":"ce4bgih2rcd13ifvqba0","pricing_plan_id":"cebpf4jnsgd1na2vs0mg"},{"bike_id":"d2f67da6-5332-4476-849e-630e290f0636","system_id":"levelo_inurba_marseille","lat":43.29604,"lon":5.38096,"is_reserved":false,"is_disabled":false,"rental_uris":{"android":"levelo://app?vid=d2f67da6-5332-4476-849e-630e290f0636","ios":"levelo://app?vid=d2f67da6-5332-4476-849e-630e290f0636"},"vehicle_type_id":"4","last_reported":1743941794,"current_range_meters":12400,"station_id":"ce4bgl12rcd13ifvqbo0","pricing_plan_id":"cebpf4jnsgd1na2vs0mg"},{"bike_id":"50317419-391b-4e14-b07f-d621f8e2722c","system_id":"levelo_inurba_marseille","lat":43.28276,"lon":5.35052,"is_reserved":false,"is_disabled":false,"rental_uris":{"android":"levelo://app?vid=50317419-391b-4e14-b07f-d621f8e2722c","ios":"levelo://app?vid=50317419-391b-4e14-b07f-d621f8e2722c"},"vehicle_type_id":"4","last_reported":1743941794,"current_range_meters":12800,"station_id":"ce4bhbp2rcd13ifvqerg","pricing_plan_id":"cebpf4jnsgd1na2vs0mg"},{"bike_id":"6ee85d75-9576-48a6-9ea1-92da0dac2d73","system_id":"levelo_inurba_marseille","lat":43.30807,"lon":5.43526,"is_reserved":false,"is_disabled":false,"rental_uris":{"android":"levelo://app?vid=6ee85d75-9576-48a6-9ea1-92da0dac2d73","ios":"levelo://app?vid=6ee85d75-9576-48a6-9ea1-92da0dac2d73"},"vehicle_type_id":"4","last_reported":1743941794,"current_range_meters":12800,"station_id":"ce4bhph2rcd13ifvqheg","pricing_plan_id":"cebpf4jnsgd1na2vs0mg"},{"bike_id":"a409c3f0-8991-4228-afb5-57b19bb06658","system_id":"levelo_inurba_marseille","lat":43.32401,"lon":5.38997,"is_reserved":false,"is_disabled":false,"rental_uris":{"android":"levelo://app?vid=a409c3f0-8991-4228-afb5-57b19bb06658","ios":"levelo://app?vid=a409c3f0-8991-4228-afb5-57b19bb06658"},"vehicle_type_id":"4","last_reported":1743941794,"current_range_meters":12800,"station_id":"","pricing_plan_id":"cebpf4jnsgd1na2vs0mg"},{"bike_id":"c1200e5d-04a6-4f92-8d83-c57e5aa0aa04","system_id":"levelo_inurba_marseille","lat":43.26788,"lon":5.39407,"is_reserved":false,"is_disabled":false,"rental_uris":{"android":"levelo://app?vid=c1200e5d-04a6-4f92-8d83-c57e5aa0aa04","ios":"levelo://app?vid=c1200e5d-04a6-4f92-8d83-c57e5aa0aa04"},"vehicle_type_id":"4","last_reported":1743941794,"current_range_meters":12800,"station_id":"ce4bhh12rcd13ifvqfg0","pricing_plan_id":"cebpf4jnsgd1na2vs0mg"},{"bike_id":"c5a180ee-9b66-4c05-bdde-4100257c7dd0","system_id":"levelo_inurba_marseille","lat":43.21767,"lon":5.34591,"is_reserved":false,"is_disabled":false,"rental_uris":{"android":"levelo://app?vid=c5a180ee-9b66-4c05-bdde-4100257c7dd0","ios":"levelo://app?vid=c5a180ee-9b66-4c05-bdde-4100257c7dd0"},"vehicle_type_id":"4","last_reported":1743941794,"current_range_meters":12800,"station_id":"st_cvj6r9ubvosntc0bgbag","pricing_plan_id":"cebpf4jnsgd1na2vs0mg"},{"bike_id":"67fd447e-8026-4428-84e0-15bdbf62b967","system_id":"levelo_inurba_marseille","lat":43.2842,"lon":5.3499,"is_reserved":false,"is_disabled":false,"rental_uris":{"android":"levelo://app?vid=67fd447e-8026-4428-84e0-15bdbf62b967","ios":"levelo://app?vid=67fd447e-8026-4428-84e0-15bdbf62b967"},"vehicle_type_id":"4","last_reported":1743941794,"current_range_meters":12800,"station_id":"ce4bhbh2rcd13ifvqepg","pricing_plan_id":"cebpf4jnsgd1na2vs0mg"},{"bike_id":"a9f98156-72b2-47e5-89fb-c425821de340","system_id":"levelo_inurba_marseille","lat":43.24387,"lon":5.37064,"is_reserved":false,"is_disabled":false,"rental_uris":{"android":"levelo://app?vid=a9f98156-72b2-47e5-89fb-c425821de340","ios":"levelo://app?vid=a9f98156-72b2-47e5-89fb-c425821de340"},"vehicle_type_id":"4","last_reported":1743941794,"current_range_meters":12800,"station_id":"ce4bhhh2rcd13ifvqfk0","pricing_plan_id":"cebpf4jnsgd1na2vs0mg"},{"bike_id":"e0a3f2d8-cfd9-42df-808f-8fa1abe2ba8f","system_id":"levelo_inurba_marseille","lat":43.211954,"lon":5.350756,"is_reserved":false,"is_disabled":true,"rental_uris":{"android":"levelo://app?vid=e0a3f2d8-cfd9-42df-808f-8fa1abe2ba8f","ios":"levelo://app?vid=e0a3f2d8-cfd9-42df-808f-8fa1abe2ba8f"},"vehicle_type_id":"4","last_reported":1743941794,"current_range_meters":13600,"station_id":"st_cvj6sg6p6f1abm77japg","pricing_plan_id":"cebpf4jnsgd1na2vs0mg"},{"bike_id":"e3ac454e-3e15-4e93-8eab-7bb7998f0d1e","system_id":"levelo_inurba_marseille","lat":43.320396,"lon":5.415738,"is_reserved":false,"is_disabled":false,"rental_uris":{"android":"levelo://app?vid=e3ac454e-3e15-4e93-8eab-7bb7998f0d1e","ios":"levelo://app?vid=e3ac454e-3e15-4e93-8eab-7bb7998f0d1e"},"vehicle_type_id":"4","last_reported":1743941794,"current_range_meters":13600,"station_id":"ce4bhq92rcd13ifvqhkg","pricing_plan_id":"cebpf4jnsgd1na2vs0mg"},{"bike_id":"e332aab8-1fe3-40e9-8086-1f7d5ff35118","system_id":"levelo_inurba_marseille","lat":43.33156,"lon":5.38174,"is_reserved":false,"is_disabled":false,"rental_uris":{"android":"levelo://app?vid=e332aab8-1fe3-40e9-8086-1f7d5ff35118","ios":"levelo://app?vid=e332aab8-1fe3-40e9-8086-1f7d5ff35118"},"vehicle_type_id":"4","last_reported":1743941794,"current_range_meters":13600,"station_id":"","pricing_plan_id":"cebpf4jnsgd1na2vs0mg"},{"bike_id":"2f73db1d-d88a-4ee0-af49-5127f513333a","system_id":"levelo_inurba_marseille","lat":43.26569,"lon":5.37291,"is_reserved":false,"is_disabled":false,"rental_uris":{"android":"levelo://app?vid=2f73db1d-d88a-4ee0-af49-5127f513333a","ios":"levelo://app?vid=2f73db1d-d88a-4ee0-af49-5127f513333a"},"vehicle_type_id":"4","last_reported":1743941794,"current_range_meters":13600,"station_id":"ce4bhg12rcd13ifvqf70","pricing_plan_id":"cebpf4jnsgd1na2vs0mg"},{"bike_id":"8a38320c-a733-4cf5-8c8e-152497fe8f8f","system_id":"levelo_inurba_marseille","lat":43.28177,"lon":5.42664,"is_reserved":false,"is_disabled":false,"rental_uris":{"android":"levelo://app?vid=8a38320c-a733-4cf5-8c8e-152497fe8f8f","ios":"levelo://app?vid=8a38320c-a733-4cf5-8c8e-152497fe8f8f"},"vehicle_type_id":"4","last_reported":1743941794,"current_range_meters":13600,"station_id":"ce4bhnh2rcd13ifvqgug","pricing_plan_id":"cebpf4jnsgd1na2vs0mg"},{"bike_id":"4308a4e0-fa24-4c3a-94d8-db9aa39aa4ec","system_id":"levelo_inurba_marseille","lat":43.27378,"lon":5.36261,"is_reserved":false,"is_disabled":false,"rental_uris":{"android":"levelo://app?vid=4308a4e0-fa24-4c3a-94d8-db9aa39aa4ec","ios":"levelo://app?vid=4308a4e0-fa24-4c3a-94d8-db9aa39aa4ec"},"vehicle_type_id":"4","last_reported":1743941794,"current_range_meters":13600,"station_id":"ce4bhbh2rcd13ifvqeo0","pricing_plan_id":"cebpf4jnsgd1na2vs0mg"},{"bike_id":"63e1d95c-79be-4b82-a868-e312bf827ceb","system_id":"levelo_inurba_marseille","lat":43.29031,"lon":5.38651,"is_reserved":false,"is_disabled":true,"rental_uris":{"android":"levelo://app?vid=63e1d95c-79be-4b82-a868-e312bf827ceb","ios":"levelo://app?vid=63e1d95c-79be-4b82-a868-e312bf827ceb"},"vehicle_type_id":"4","last_reported":1743941794,"current_range_meters":13600,"station_id":"ce4bh4p2rcd13ifvqe0g","pricing_plan_id":"cebpf4jnsgd1na2vs0mg"},{"bike_id":"73272853-088e-4b39-8e6e-94fe10fc353c","system_id":"levelo_inurba_marseille","lat":43.3377,"lon":5.37491,"is_reserved":false,"is_disabled":false,"rental_uris":{"android":"levelo://app?vid=73272853-088e-4b39-8e6e-94fe10fc353c","ios":"levelo://app?vid=73272853-088e-4b39-8e6e-94fe10fc353c"},"vehicle_type_id":"4","last_reported":1743941794,"current_range_meters":13600,"station_id":"","pricing_plan_id":"cebpf4jnsgd1na2vs0mg"},{"bike_id":"63563121-e017-4c69-ba22-7f201e7788e0","system_id":"levelo_inurba_marseille","lat":43.24393,"lon":5.37064,"is_reserved":false,"is_disabled":false,"rental_uris":{"android":"levelo://app?vid=63563121-e017-4c69-ba22-7f201e7788e0","ios":"levelo://app?vid=63563121-e017-4c69-ba22-7f201e7788e0"},"vehicle_type_id":"4","last_reported":1743941794,"current_range_meters":13600,"station_id":"ce4bhhh2rcd13ifvqfk0","pricing_plan_id":"cebpf4jnsgd1na2vs0mg"},{"bike_id":"fefe83d6-22ae-4bdc-9846-80fca8c3f8b6","system_id":"levelo_inurba_marseille","lat":43.26216,"lon":5.40444,"is_reserved":false,"is_disabled":false,"rental_uris":{"android":"levelo://app?vid=fefe83d6-22ae-4bdc-9846-80fca8c3f8b6","ios":"levelo://app?vid=fefe83d6-22ae-4bdc-9846-80fca8c3f8b6"},"vehicle_type_id":"4","last_reported":1743941794,"current_range_meters":13600,"station_id":"ce4bhmh2rcd13ifvqgmg","pricing_plan_id":"cebpf4jnsgd1na2vs0mg"},{"bike_id":"288267db-bf40-4b2f-98cd-1abc9da268aa","system_id":"levelo_inurba_marseille","lat":43.25494,"lon":5.37677,"is_reserved":false,"is_disabled":false,"rental_uris":{"android":"levelo://app?vid=288267db-bf40-4b2f-98cd-1abc9da268aa","ios":"levelo://app?vid=288267db-bf40-4b2f-98cd-1abc9da268aa"},"vehicle_type_id":"4","last_reported":1743941794,"current_range_meters":13600,"station_id":"ce4bhh12rcd13ifvqff0","pricing_plan_id":"cebpf4jnsgd1na2vs0mg"},{"bike_id":"34b2130b-d323-41e8-8122-29ce05cddf84","system_id":"levelo_inurba_marseille","lat":43.29629,"lon":5.371884,"is_reserved":false,"is_disabled":false,"rental_uris":{"android":"levelo://app?vid=34b2130b-d323-41e8-8122-29ce05cddf84","ios":"levelo://app?vid=34b2130b-d323-41e8-8122-29ce05cddf84"},"vehicle_type_id":"4","last_reported":1743941794,"current_range_meters":14000,"station_id":"ce4bhh12rcd13ifvqfg0","pricing_plan_id":"cebpf4jnsgd1na2vs0mg"},{"bike_id":"e4d4dc7a-abcd-4c1d-8017-887f937d011f","system_id":"levelo_inurba_marseille","lat":43.2958,"lon":5.39973,"is_reserved":false,"is_disabled":true,"rental_uris":{"android":"levelo://app?vid=e4d4dc7a-abcd-4c1d-8017-887f937d011f","ios":"levelo://app?vid=e4d4dc7a-abcd-4c1d-8017-887f937d011f"},"vehicle_type_id":"4","last_reported":1743941794,"current_range_meters":14000,"station_id":"ce4bh312rcd13ifvqdj0","pricing_plan_id":"cebpf4jnsgd1na2vs0mg"},{"bike_id":"eb036402-0cb4-4e3c-8d1e-0b7a29d2ba31","system_id":"levelo_inurba_marseille","lat":43.34159,"lon":5.40905,"is_reserved":false,"is_disabled":false,"rental_uris":{"android":"levelo://app?vid=eb036402-0cb4-4e3c-8d1e-0b7a29d2ba31","ios":"levelo://app?vid=eb036402-0cb4-4e3c-8d1e-0b7a29d2ba31"},"vehicle_type_id":"4","last_reported":1743941794,"current_range_meters":14000,"station_id":"ce4bhqh2rcd13ifvqhlg","pricing_plan_id":"cebpf4jnsgd1na2vs0mg"},{"bike_id":"07c70779-485e-4f30-96f9-ae110958213e","system_id":"levelo_inurba_marseille","lat":43.217426,"lon":5.346025,"is_reserved":false,"is_disabled":false,"rental_uris":{"android":"levelo://app?vid=07c70779-485e-4f30-96f9-ae110958213e","ios":"levelo://app?vid=07c70779-485e-4f30-96f9-ae110958213e"},"vehicle_type_id":"4","last_reported":1743941794,"current_range_meters":14000,"station_id":"st_cvj6r9ubvosntc0bgbag","pricing_plan_id":"cebpf4jnsgd1na2vs0mg"},{"bike_id":"7d21cbd4-3b06-441b-b285-8fc24c4e7656","system_id":"levelo_inurba_marseille","lat":43.28273,"lon":5.35071,"is_reserved":false,"is_disabled":false,"rental_uris":{"android":"levelo://app?vid=7d21cbd4-3b06-441b-b285-8fc24c4e7656","ios":"levelo://app?vid=7d21cbd4-3b06-441b-b285-8fc24c4e7656"},"vehicle_type_id":"4","last_reported":1743941794,"current_range_meters":14000,"station_id":"ce4bhbp2rcd13ifvqerg","pricing_plan_id":"cebpf4jnsgd1na2vs0mg"},{"bike_id":"d553dd87-8cd1-4b81-808e-8aeb82a0fa0c","system_id":"levelo_inurba_marseille","lat":43.28036,"lon":5.36934,"is_reserved":false,"is_disabled":true,"rental_uris":{"android":"levelo://app?vid=d553dd87-8cd1-4b81-808e-8aeb82a0fa0c","ios":"levelo://app?vid=d553dd87-8cd1-4b81-808e-8aeb82a0fa0c"},"vehicle_type_id":"4","last_reported":1743941794,"current_range_meters":14000,"station_id":"ce4bha12rcd13ifvqef0","pricing_plan_id":"cebpf4jnsgd1na2vs0mg"},{"bike_id":"32abf96e-1251-4492-af5f-a64e6fe215ff","system_id":"levelo_inurba_marseille","lat":43.23193,"lon":5.35554,"is_reserved":false,"is_disabled":false,"rental_uris":{"android":"levelo://app?vid=32abf96e-1251-4492-af5f-a64e6fe215ff","ios":"levelo://app?vid=32abf96e-1251-4492-af5f-a64e6fe215ff"},"vehicle_type_id":"4","last_reported":1743941794,"current_range_meters":14000,"station_id":"ce4bhu92rcd13ifvqi70","pricing_plan_id":"cebpf4jnsgd1na2vs0mg"},{"bike_id":"0249219e-61f3-4c51-8503-3f742df1147e","system_id":"levelo_inurba_marseille","lat":43.27361,"lon":5.36249,"is_reserved":false,"is_disabled":false,"rental_uris":{"android":"levelo://app?vid=0249219e-61f3-4c51-8503-3f742df1147e","ios":"levelo://app?vid=0249219e-61f3-4c51-8503-3f742df1147e"},"vehicle_type_id":"4","last_reported":1743941794,"current_range_meters":14400,"station_id":"ce4bhbh2rcd13ifvqeo0","pricing_plan_id":"cebpf4jnsgd1na2vs0mg"},{"bike_id":"73da4ec2-07ab-49b0-840e-487dd77ca4ac","system_id":"levelo_inurba_marseille","lat":43.21199,"lon":5.35069,"is_reserved":false,"is_disabled":false,"rental_uris":{"android":"levelo://app?vid=73da4ec2-07ab-49b0-840e-487dd77ca4ac","ios":"levelo://app?vid=73da4ec2-07ab-49b0-840e-487dd77ca4ac"},"vehicle_type_id":"4","last_reported":1743941794,"current_range_meters":14400,"station_id":"","pricing_plan_id":"cebpf4jnsgd1na2vs0mg"},{"bike_id":"c1d5ae72-db7a-419e-9656-90a0dbebf090","system_id":"levelo_inurba_marseille","lat":43.23199,"lon":5.35538,"is_reserved":false,"is_disabled":false,"rental_uris":{"android":"levelo://app?vid=c1d5ae72-db7a-419e-9656-90a0dbebf090","ios":"levelo://app?vid=c1d5ae72-db7a-419e-9656-90a0dbebf090"},"vehicle_type_id":"4","last_reported":1743941794,"current_range_meters":14400,"station_id":"ce4bhu92rcd13ifvqi70","pricing_plan_id":"cebpf4jnsgd1na2vs0mg"},{"bike_id":"b2e6d730-1ae9-4dd3-ab0c-1de601c116c2","system_id":"levelo_inurba_marseille","lat":43.25089,"lon":5.39518,"is_reserved":false,"is_disabled":false,"rental_uris":{"android":"levelo://app?vid=b2e6d730-1ae9-4dd3-ab0c-1de601c116c2","ios":"levelo://app?vid=b2e6d730-1ae9-4dd3-ab0c-1de601c116c2"},"vehicle_type_id":"4","last_reported":1743941794,"current_range_meters":14400,"station_id":"ce4bhm12rcd13ifvqgkg","pricing_plan_id":"cebpf4jnsgd1na2vs0mg"},{"bike_id":"135c5aee-98e8-4576-997d-509a7cf65f4f","system_id":"levelo_inurba_marseille","lat":43.26561,"lon":5.37296,"is_reserved":false,"is_disabled":false,"rental_uris":{"android":"levelo://app?vid=135c5aee-98e8-4576-997d-509a7cf65f4f","ios":"levelo://app?vid=135c5aee-98e8-4576-997d-509a7cf65f4f"},"vehicle_type_id":"4","last_reported":1743941794,"current_range_meters":14400,"station_id":"ce4bhg12rcd13ifvqf70","pricing_plan_id":"cebpf4jnsgd1na2vs0mg"},{"bike_id":"d6c3d7f4-760c-422c-8667-25e15a7934b3","system_id":"levelo_inurba_marseille","lat":43.307882,"lon":5.374468,"is_reserved":false,"is_disabled":false,"rental_uris":{"android":"levelo://app?vid=d6c3d7f4-760c-422c-8667-25e15a7934b3","ios":"levelo://app?vid=d6c3d7f4-760c-422c-8667-25e15a7934b3"},"vehicle_type_id":"4","last_reported":1743941794,"current_range_meters":14800,"station_id":"","pricing_plan_id":"cebpf4jnsgd1na2vs0mg"},{"bike_id":"c8e48806-f354-4d9d-a3b0-d25f4c65b4ee","system_id":"levelo_inurba_marseille","lat":43.25498,"lon":5.37652,"is_reserved":false,"is_disabled":false,"rental_uris":{"android":"levelo://app?vid=c8e48806-f354-4d9d-a3b0-d25f4c65b4ee","ios":"levelo://app?vid=c8e48806-f354-4d9d-a3b0-d25f4c65b4ee"},"vehicle_type_id":"4","last_reported":1743941794,"current_range_meters":14800,"station_id":"ce4bhh12rcd13ifvqff0","pricing_plan_id":"cebpf4jnsgd1na2vs0mg"},{"bike_id":"34fdd18e-69b5-4615-b934-961632cd6ff8","system_id":"levelo_inurba_marseille","lat":43.26209,"lon":5.37443,"is_reserved":false,"is_disabled":false,"rental_uris":{"android":"levelo://app?vid=34fdd18e-69b5-4615-b934-961632cd6ff8","ios":"levelo://app?vid=34fdd18e-69b5-4615-b934-961632cd6ff8"},"vehicle_type_id":"4","last_reported":1743941794,"current_range_meters":14800,"station_id":"ce4bhgp2rcd13ifvqfc0","pricing_plan_id":"cebpf4jnsgd1na2vs0mg"},{"bike_id":"3919c91b-0f45-42e3-a407-6478d43bfeab","system_id":"levelo_inurba_marseille","lat":43.23061,"lon":5.35492,"is_reserved":false,"is_disabled":false,"rental_uris":{"android":"levelo://app?vid=3919c91b-0f45-42e3-a407-6478d43bfeab","ios":"levelo://app?vid=3919c91b-0f45-42e3-a407-6478d43bfeab"},"vehicle_type_id":"4","last_reported":1743941794,"current_range_meters":14800,"station_id":"cpo3342slgdg3j2ifvpg","pricing_plan_id":"cebpf4jnsgd1na2vs0mg"},{"bike_id":"8cfd8938-ab02-4f88-9086-591f1be1afd7","system_id":"levelo_inurba_marseille","lat":43.2306,"lon":5.3549,"is_reserved":false,"is_disabled":true,"rental_uris":{"android":"levelo://app?vid=8cfd8938-ab02-4f88-9086-591f1be1afd7","ios":"levelo://app?vid=8cfd8938-ab02-4f88-9086-591f1be1afd7"},"vehicle_type_id":"4","last_reported":1743941794,"current_range_meters":15200,"station_id":"cpo3342slgdg3j2ifvpg","pricing_plan_id":"cebpf4jnsgd1na2vs0mg"},{"bike_id":"a959694d-18ce-4d80-917f-23c91ed81065","system_id":"levelo_inurba_marseille","lat":43.29897,"lon":5.43655,"is_reserved":false,"is_disabled":false,"rental_uris":{"android":"levelo://app?vid=a959694d-18ce-4d80-917f-23c91ed81065","ios":"levelo://app?vid=a959694d-18ce-4d80-917f-23c91ed81065"},"vehicle_type_id":"4","last_reported":1743941794,"current_range_meters":15200,"station_id":"ce4bhpp2rcd13ifvqhfg","pricing_plan_id":"cebpf4jnsgd1na2vs0mg"},{"bike_id":"6d3e1306-b658-4473-a494-76dce8f31aa4","system_id":"levelo_inurba_marseille","lat":43.28269,"lon":5.35085,"is_reserved":false,"is_disabled":false,"rental_uris":{"android":"levelo://app?vid=6d3e1306-b658-4473-a494-76dce8f31aa4","ios":"levelo://app?vid=6d3e1306-b658-4473-a494-76dce8f31aa4"},"vehicle_type_id":"4","last_reported":1743941794,"current_range_meters":15200,"station_id":"ce4bhbp2rcd13ifvqerg","pricing_plan_id":"cebpf4jnsgd1na2vs0mg"},{"bike_id":"013e580e-e391-4b96-9aed-5f0527e81f77","system_id":"levelo_inurba_marseille","lat":43.2396,"lon":5.3663,"is_reserved":false,"is_disabled":false,"rental_uris":{"android":"levelo://app?vid=013e580e-e391-4b96-9aed-5f0527e81f77","ios":"levelo://app?vid=013e580e-e391-4b96-9aed-5f0527e81f77"},"vehicle_type_id":"4","last_reported":1743941794,"current_range_meters":15200,"station_id":"ce4bhi12rcd13ifvqfp0","pricing_plan_id":"cebpf4jnsgd1na2vs0mg"},{"bike_id":"3708345f-b17f-4510-b233-e0403df18890","system_id":"levelo_inurba_marseille","lat":43.28266,"lon":5.35068,"is_reserved":false,"is_disabled":false,"rental_uris":{"android":"levelo://app?vid=3708345f-b17f-4510-b233-e0403df18890","ios":"levelo://app?vid=3708345f-b17f-4510-b233-e0403df18890"},"vehicle_type_id":"4","last_reported":1743941794,"current_range_meters":15200,"station_id":"ce4bhbp2rcd13ifvqerg","pricing_plan_id":"cebpf4jnsgd1na2vs0mg"},{"bike_id":"f84b956f-2981-462e-8cf6-186374de0c37","system_id":"levelo_inurba_marseille","lat":43.31723,"lon":5.43711,"is_reserved":false,"is_disabled":false,"rental_uris":{"android":"levelo://app?vid=f84b956f-2981-462e-8cf6-186374de0c37","ios":"levelo://app?vid=f84b956f-2981-462e-8cf6-186374de0c37"},"vehicle_type_id":"4","last_reported":1743941794,"current_range_meters":15200,"station_id":"ce4bhp92rcd13ifvqhcg","pricing_plan_id":"cebpf4jnsgd1na2vs0mg"},{"bike_id":"d0d11395-1d31-4975-80c5-5e6b692fbcc7","system_id":"levelo_inurba_marseille","lat":43.27379,"lon":5.36258,"is_reserved":false,"is_disabled":false,"rental_uris":{"android":"levelo://app?vid=d0d11395-1d31-4975-80c5-5e6b692fbcc7","ios":"levelo://app?vid=d0d11395-1d31-4975-80c5-5e6b692fbcc7"},"vehicle_type_id":"4","last_reported":1743941794,"current_range_meters":15200,"station_id":"ce4bhbh2rcd13ifvqeo0","pricing_plan_id":"cebpf4jnsgd1na2vs0mg"},{"bike_id":"a1a74f1b-fb44-455f-8438-c57f314bba18","system_id":"levelo_inurba_marseille","lat":43.21178,"lon":5.35108,"is_reserved":false,"is_disabled":false,"rental_uris":{"android":"levelo://app?vid=a1a74f1b-fb44-455f-8438-c57f314bba18","ios":"levelo://app?vid=a1a74f1b-fb44-455f-8438-c57f314bba18"},"vehicle_type_id":"4","last_reported":1743941794,"current_range_meters":15200,"station_id":"","pricing_plan_id":"cebpf4jnsgd1na2vs0mg"},{"bike_id":"94a9c223-e257-47a8-8d43-6e3ca6a07ab0","system_id":"levelo_inurba_marseille","lat":43.31375,"lon":5.3668,"is_reserved":false,"is_disabled":false,"rental_uris":{"android":"levelo://app?vid=94a9c223-e257-47a8-8d43-6e3ca6a07ab0","ios":"levelo://app?vid=94a9c223-e257-47a8-8d43-6e3ca6a07ab0"},"vehicle_type_id":"4","last_reported":1743941794,"current_range_meters":14800,"station_id":"ce4bgr92rcd13ifvqc6g","pricing_plan_id":"cebpf4jnsgd1na2vs0mg"},{"bike_id":"cdbcd26d-a39f-477b-9477-56110573c530","system_id":"levelo_inurba_marseille","lat":43.27059,"lon":5.40261,"is_reserved":false,"is_disabled":false,"rental_uris":{"android":"levelo://app?vid=cdbcd26d-a39f-477b-9477-56110573c530","ios":"levelo://app?vid=cdbcd26d-a39f-477b-9477-56110573c530"},"vehicle_type_id":"4","last_reported":1743941794,"current_range_meters":16000,"station_id":"ce4bhk92rcd13ifvqgc0","pricing_plan_id":"cebpf4jnsgd1na2vs0mg"},{"bike_id":"12726428-0e1e-433c-8851-3bfc411a6f5c","system_id":"levelo_inurba_marseille","lat":43.21191,"lon":5.35076,"is_reserved":false,"is_disabled":false,"rental_uris":{"android":"levelo://app?vid=12726428-0e1e-433c-8851-3bfc411a6f5c","ios":"levelo://app?vid=12726428-0e1e-433c-8851-3bfc411a6f5c"},"vehicle_type_id":"4","last_reported":1743941794,"current_range_meters":16000,"station_id":"st_cvj6sg6p6f1abm77japg","pricing_plan_id":"cebpf4jnsgd1na2vs0mg"},{"bike_id":"d3983ca7-febd-4083-8640-0f06c54db196","system_id":"levelo_inurba_marseille","lat":43.32103,"lon":5.36769,"is_reserved":false,"is_disabled":false,"rental_uris":{"android":"levelo://app?vid=d3983ca7-febd-4083-8640-0f06c54db196","ios":"levelo://app?vid=d3983ca7-febd-4083-8640-0f06c54db196"},"vehicle_type_id":"4","last_reported":1743941794,"current_range_meters":16000,"station_id":"ce4bhrh2rcd13ifvqhug","pricing_plan_id":"cebpf4jnsgd1na2vs0mg"},{"bike_id":"5422483a-eee0-479a-9073-9aa9fc88787e","system_id":"levelo_inurba_marseille","lat":43.2738,"lon":5.36251,"is_reserved":false,"is_disabled":false,"rental_uris":{"android":"levelo://app?vid=5422483a-eee0-479a-9073-9aa9fc88787e","ios":"levelo://app?vid=5422483a-eee0-479a-9073-9aa9fc88787e"},"vehicle_type_id":"4","last_reported":1743941794,"current_range_meters":16000,"station_id":"ce4bhbh2rcd13ifvqeo0","pricing_plan_id":"cebpf4jnsgd1na2vs0mg"},{"bike_id":"4ca885ad-bf65-4540-b5d0-1baba23daec6","system_id":"levelo_inurba_marseille","lat":43.22504,"lon":5.34782,"is_reserved":false,"is_disabled":false,"rental_uris":{"android":"levelo://app?vid=4ca885ad-bf65-4540-b5d0-1baba23daec6","ios":"levelo://app?vid=4ca885ad-bf65-4540-b5d0-1baba23daec6"},"vehicle_type_id":"4","last_reported":1743941794,"current_range_meters":16000,"station_id":"ce4bh612rcd13ifvqe6g","pricing_plan_id":"cebpf4jnsgd1na2vs0mg"},{"bike_id":"a41f0a99-97b9-49f7-8cf1-21979369e74a","system_id":"levelo_inurba_marseille","lat":43.28416,"lon":5.34984,"is_reserved":false,"is_disabled":false,"rental_uris":{"android":"levelo://app?vid=a41f0a99-97b9-49f7-8cf1-21979369e74a","ios":"levelo://app?vid=a41f0a99-97b9-49f7-8cf1-21979369e74a"},"vehicle_type_id":"4","last_reported":1743941794,"current_range_meters":16400,"station_id":"ce4bhbh2rcd13ifvqepg","pricing_plan_id":"cebpf4jnsgd1na2vs0mg"},{"bike_id":"750bc9c2-8244-4f27-a571-77c62d7d6b92","system_id":"levelo_inurba_marseille","lat":43.31274,"lon":5.37746,"is_reserved":false,"is_disabled":false,"rental_uris":{"android":"levelo://app?vid=750bc9c2-8244-4f27-a571-77c62d7d6b92","ios":"levelo://app?vid=750bc9c2-8244-4f27-a571-77c62d7d6b92"},"vehicle_type_id":"4","last_reported":1743941794,"current_range_meters":16400,"station_id":"","pricing_plan_id":"cebpf4jnsgd1na2vs0mg"},{"bike_id":"1145dafd-2d63-45d4-95e7-cc211cf26bab","system_id":"levelo_inurba_marseille","lat":43.24394,"lon":5.37065,"is_reserved":false,"is_disabled":false,"rental_uris":{"android":"levelo://app?vid=1145dafd-2d63-45d4-95e7-cc211cf26bab","ios":"levelo://app?vid=1145dafd-2d63-45d4-95e7-cc211cf26bab"},"vehicle_type_id":"4","last_reported":1743941794,"current_range_meters":16400,"station_id":"ce4bhhh2rcd13ifvqfk0","pricing_plan_id":"cebpf4jnsgd1na2vs0mg"},{"bike_id":"cfdc4af5-7f97-474c-880e-68054a1b8bd4","system_id":"levelo_inurba_marseille","lat":43.29209,"lon":5.39324,"is_reserved":false,"is_disabled":false,"rental_uris":{"android":"levelo://app?vid=cfdc4af5-7f97-474c-880e-68054a1b8bd4","ios":"levelo://app?vid=cfdc4af5-7f97-474c-880e-68054a1b8bd4"},"vehicle_type_id":"4","last_reported":1743941794,"current_range_meters":16400,"station_id":"ce4bh192rcd13ifvqdd0","pricing_plan_id":"cebpf4jnsgd1na2vs0mg"},{"bike_id":"d3940f6d-6c26-4ccb-aa36-1b12f0ca6ef4","system_id":"levelo_inurba_marseille","lat":43.31479,"lon":5.39027,"is_reserved":false,"is_disabled":false,"rental_uris":{"android":"levelo://app?vid=d3940f6d-6c26-4ccb-aa36-1b12f0ca6ef4","ios":"levelo://app?vid=d3940f6d-6c26-4ccb-aa36-1b12f0ca6ef4"},"vehicle_type_id":"4","last_reported":1743941794,"current_range_meters":16400,"station_id":"","pricing_plan_id":"cebpf4jnsgd1na2vs0mg"},