{"last_updated":1749650973,"ttl":60,"version":"2.2","data":{"bikes":[{"bike_id":"1d70ec26-5c19-4b81-ab6b-fe5f4d6d66f6","system_id":"levelo_inurba_marseille","lat":43.29281,"lon":5.40156,"is_reserved":false,"is_disabled":false,"rental_uris":{"android":"levelo://app?vid=1d70ec26-5c19-4b81-ab6b-fe5f4d6d66f6","ios":"levelo://app?vid=1d70ec26-5c19-4b81-ab6b-fe5f4d6d66f6"},"vehicle_type_id":"4","last_reported":1749650973,"current_range_meters":2800,"station_id":"ce4bh312rcd13ifvqdk0","pricing_plan_id":"cebpf4jnsgd1na2vs0mg"},{"bike_id":"779d92a2-5c7f-49bf-9b89-81bc943b50d3","system_id":"levelo_inurba_marseille","lat":43.27384,"lon":5.36258,"is_reserved":false,"is_disabled":false,"rental_uris":{"android":"levelo://app?vid=779d92a2-5c7f-49bf-9b89-81bc943b50d3","ios":"levelo://app?vid=779d92a2-5c7f-49bf-9b89-81bc943b50d3"},"vehicle_type_id":"4","last_reported":1749650973,"current_range_meters":2800,"station_id":"ce4bhbh2rcd13ifvqeo0","pricing_plan_id":"cebpf4jnsgd1na2vs0mg"},{"bike_id":"a1207061-d1d4-452c-bb95-71b04b61d34a","system_id":"levelo_inurba_marseille","lat":43.26958,"lon":5.38669,"is_reserved":false,"is_disabled":false,"rental_uris":{"android":"levelo://app?vid=a1207061-d1d4-452c-bb95-71b04b61d34a","ios":"levelo://app?vid=a1207061-d1d4-452c-bb95-71b04b61d34a"},"vehicle_type_id":"4","last_reported":1749650973,"current_range_meters":3200,"station_id":"ce4bhh92rcd13ifvqfh0","pricing_plan_id":"cebpf4jnsgd1na2vs0mg"},{"bike_id":"12b21b44-2694-4c10-bfba-958b395558ae","system_id":"levelo_inurba_marseille","lat":43.30592,"lon":5.39362,"is_reserved":false,"is_disabled":false,"rental_uris":{"android":"levelo://app?vid=12b21b44-2694-4c10-bfba-958b395558ae","ios":"levelo://app?vid=12b21b44-2694-4c10-bfba-958b395558ae"},"vehicle_type_id":"4","last_reported":1749650973,"current_range_meters":3200,"station_id":"ce4bh0p2rcd13ifvqd80","pricing_plan_id":"cebpf4jnsgd1na2vs0mg"},{"bike_id":"21604b64-71bb-4a73-9d09-4da37d4fc4ba","system_id":"levelo_inurba_marseille","lat":43.30146,"lon":5.38098,"is_reserved":false,"is_disabled":false,"rental_uris":{"android":"levelo://app?vid=21604b64-71bb-4a73-9d09-4da37d4fc4ba","ios":"levelo://app?vid=21604b64-71bb-4a73-9d09-4da37d4fc4ba"},"vehicle_type_id":"4","last_reported":1749650973,"current_range_meters":3200,"station_id":"ce4bgjp2rcd13ifvqbh0","pricing_plan_id":"cebpf4jnsgd1na2vs0mg"},{"bike_id":"71a6ad24-4e18-4bd8-917d-5666aa0c4d76","system_id":"levelo_inurba_marseille","lat":43.33751,"lon":5.37492,"is_reserved":false,"is_disabled":false,"rental_uris":{"android":"levelo://app?vid=71a6ad24-4e18-4bd8-917d-5666aa0c4d76","ios":"levelo://app?vid=71a6ad24-4e18-4bd8-917d-5666aa0c4d76"},"vehicle_type_id":"4","last_reported":1749650973,"current_range_meters":3200,"station_id":"","pricing_plan_id":"cebpf4jnsgd1na2vs0mg"},{"bike_id":"b65faf28-e578-40e7-a103-397912a2c281","system_id":"levelo_inurba_marseille","lat":43.29567,"lon":5.37593,"is_reserved":false,"is_disabled":false,"rental_uris":{"android":"levelo://app?vid=b65faf28-e578-40e7-a103-397912a2c281","ios":"levelo://app?vid=b65faf28-e578-40e7-a103-397912a2c281"},"vehicle_type_id":"4","last_reported":1749650973,"current_range_meters":3200,"station_id":"","pricing_plan_id":"cebpf4jnsgd1na2vs0mg"},{"bike_id":"4159ea36-2b66-4d12-ac5e-8f0b34ead65b","system_id":"levelo_inurba_marseille","lat":43.302084,"lon":5.376236,"is_reserved":false,"is_disabled":false,"rental_uris":{"android":"levelo://app?vid=4159ea36-2b66-4d12-ac5e-8f0b34ead65b","ios":"levelo://app?vid=4159ea36-2b66-4d12-ac5e-8f0b34ead65b"},"vehicle_type_id":"4","last_reported":1749650973,"current_range_meters":3600,"station_id":"ce4bguh2rcd13ifvqcj0","pricing_plan_id":"cebpf4jnsgd1na2vs0mg"},{"bike_id":"ec31f33f-f9e8-47df-8188-958df10000f6","system_id":"levelo_inurba_marseille","lat":43.29537,"lon":5.38549,"is_reserved":false,"is_disabled":true,"rental_uris":{"android":"levelo://app?vid=ec31f33f-f9e8-47df-8188-958df10000f6","ios":"levelo://app?vid=ec31f33f-f9e8-47df-8188-958df10000f6"},"vehicle_type_id":"4","last_reported":1749650973,"current_range_meters":3600,"station_id":"ce4bgih2rcd13ifvqba0","pricing_plan_id":"cebpf4jnsgd1na2vs0mg"},{"bike_id":"037c2bdf-52a2-4493-bf01-752a14a8d74f","system_id":"levelo_inurba_marseille","lat":43.284515,"lon":5.349659,"is_reserved":false,"is_disabled":false,"rental_uris":{"android":"levelo://app?vid=037c2bdf-52a2-4493-bf01-752a14a8d74f","ios":"levelo://app?vid=037c2bdf-52a2-4493-bf01-752a14a8d74f"},"vehicle_type_id":"4","last_reported":1749650973,"current_range_meters":3600,"station_id":"ce4bhbh2rcd13ifvqepg","pricing_plan_id":"cebpf4jnsgd1na2vs0mg"},{"bike_id":"3882ff98-9f02-4672-bb5b-a157198eeb5a","system_id":"levelo_inurba_marseille","lat":43.31179,"lon":5.36819,"is_reserved":false,"is_disabled":false,"rental_uris":{"android":"levelo://app?vid=3882ff98-9f02-4672-bb5b-a157198eeb5a","ios":"levelo://app?vid=3882ff98-9f02-4672-bb5b-a157198eeb5a"},"vehicle_type_id":"4","last_reported":1749650973,"current_range_meters":4000,"station_id":"","pricing_plan_id":"cebpf4jnsgd1na2vs0mg"},{"bike_id":"ec86933b-cdb2-47c6-b887-c6193e0064cb","system_id":"levelo_inurba_marseille","lat":43.27379,"lon":5.36254,"is_reserved":false,"is_disabled":false,"rental_uris":{"android":"levelo://app?vid=ec86933b-cdb2-47c6-b887-c6193e0064cb","ios":"levelo://app?vid=ec86933b-cdb2-47c6-b887-c6193e0064cb"},"vehicle_type_id":"4","last_reported":1749650973,"current_range_meters":4400,"station_id":"ce4bhbh2rcd13ifvqeo0","pricing_plan_id":"cebpf4jnsgd1na2vs0mg"},{"bike_id":"0f70d38c-bae0-43b6-bc79-061e326961dd","system_id":"levelo_inurba_marseille","lat":43.240805,"lon":5.377543,"is_reserved":false,"is_disabled":false,"rental_uris":{"android":"levelo://app?vid=0f70d38c-bae0-43b6-bc79-061e326961dd","ios":"levelo://app?vid=0f70d38c-bae0-43b6-bc79-061e326961dd"},"vehicle_type_id":"4","last_reported":1749650973,"current_range_meters":4400,"station_id":"","pricing_plan_id":"cebpf4jnsgd1na2vs0mg"},{"bike_id":"038f7813-def6-48e8-a004-af5f5bcf9ade","system_id":"levelo_inurba_marseille","lat":43.30557,"lon":5.36691,"is_reserved":false,"is_disabled":false,"rental_uris":{"android":"levelo://app?vid=038f7813-def6-48e8-a004-af5f5bcf9ade","ios":"levelo://app?vid=038f7813-def6-48e8-a004-af5f5bcf9ade"},"vehicle_type_id":"4","last_reported":1749650973,"current_range_meters":4800,"station_id":"ce4bgrp2rcd13ifvqc9g","pricing_plan_id":"cebpf4jnsgd1na2vs0mg"},{"bike_id":"633b520d-34d1-413c-82a6-ea484a5315b3","system_id":"levelo_inurba_marseille","lat":43.30429,"lon":5.39745,"is_reserved":false,"is_disabled":false,"rental_uris":{"android":"levelo://app?vid=633b520d-34d1-413c-82a6-ea484a5315b3","ios":"levelo://app?vid=633b520d-34d1-413c-82a6-ea484a5315b3"},"vehicle_type_id":"4","last_reported":1749650973,"current_range_meters":4800,"station_id":"ce4bh092rcd13ifvqd20","pricing_plan_id":"cebpf4jnsgd1na2vs0mg"},{"bike_id":"790cb3cb-196e-4ed5-9637-7ac7ee0f8547","system_id":"levelo_inurba_marseille","lat":43.32065,"lon":5.41557,"is_reserved":false,"is_disabled":false,"rental_uris":{"android":"levelo://app?vid=790cb3cb-196e-4ed5-9637-7ac7ee0f8547","ios":"levelo://app?vid=790cb3cb-196e-4ed5-9637-7ac7ee0f8547"},"vehicle_type_id":"4","last_reported":1749650973,"current_range_meters":5600,"station_id":"ce4bhq92rcd13ifvqhkg","pricing_plan_id":"cebpf4jnsgd1na2vs0mg"},{"bike_id":"0a2cd4f2-b24c-4afc-88b0-5cb6f6a00646","system_id":"levelo_inurba_marseille","lat":43.24647,"lon":5.43587,"is_reserved":false,"is_disabled":true,"rental_uris":{"android":"levelo://app?vid=0a2cd4f2-b24c-4afc-88b0-5cb6f6a00646","ios":"levelo://app?vid=0a2cd4f2-b24c-4afc-88b0-5cb6f6a00646"},"vehicle_type_id":"4","last_reported":1749650973,"current_range_meters":5600,"station_id":"","pricing_plan_id":"cebpf4jnsgd1na2vs0mg"},{"bike_id":"769dd841-4301-4bd6-8d97-53ad9dde7090","system_id":"levelo_inurba_marseille","lat":43.25505,"lon":5.37651,"is_reserved":false,"is_disabled":false,"rental_uris":{"android":"levelo://app?vid=769dd841-4301-4bd6-8d97-53ad9dde7090","ios":"levelo://app?vid=769dd841-4301-4bd6-8d97-53ad9dde7090"},"vehicle_type_id":"4","last_reported":1749650973,"current_range_meters":5600,"station_id":"ce4bhh12rcd13ifvqff0","pricing_plan_id":"cebpf4jnsgd1na2vs0mg"},{"bike_id":"17cc72af-37c3-44e7-92b4-6d4786563103","system_id":"levelo_inurba_marseille","lat":43.32538,"lon":5.41431,"is_reserved":false,"is_disabled":false,"rental_uris":{"android":"levelo://app?vid=17cc72af-37c3-44e7-92b4-6d4786563103","ios":"levelo://app?vid=17cc72af-37c3-44e7-92b4-6d4786563103"},"vehicle_type_id":"4","last_reported":1749650973,"current_range_meters":5600,"station_id":"ce4bhq12rcd13ifvqhhg","pricing_plan_id":"cebpf4jnsgd1na2vs0mg"},{"bike_id":"22d22fd8-908c-4e3c-96ce-9c3693463536","system_id":"levelo_inurba_marseille","lat":43.27618,"lon":5.36114,"is_reserved":false,"is_disabled":false,"rental_uris":{"android":"levelo://app?vid=22d22fd8-908c-4e3c-96ce-9c3693463536","ios":"levelo://app?vid=22d22fd8-908c-4e3c-96ce-9c3693463536"},"vehicle_type_id":"4","last_reported":1749650973,"current_range_meters":5600,"station_id":"ce4bgj92rcd13ifvqbe0","pricing_plan_id":"cebpf4jnsgd1na2vs0mg"},{"bike_id":"9370294e-c4e4-406d-9321-1cbcd95c622f","system_id":"levelo_inurba_marseille","lat":43.286499,"lon":5.351135,"is_reserved":false,"is_disabled":false,"rental_uris":{"android":"levelo://app?vid=9370294e-c4e4-406d-9321-1cbcd95c622f","ios":"levelo://app?vid=9370294e-c4e4-406d-9321-1cbcd95c622f"},"vehicle_type_id":"4","last_reported":1749650973,"current_range_meters":6400,"station_id":"ce4bhb12rcd13ifvqel0","pricing_plan_id":"cebpf4jnsgd1na2vs0mg"},{"bike_id":"8cf4c8bc-17ef-43a1-8370-f763103aff73","system_id":"levelo_inurba_marseille","lat":43.26558,"lon":5.37291,"is_reserved":false,"is_disabled":true,"rental_uris":{"android":"levelo://app?vid=8cf4c8bc-17ef-43a1-8370-f763103aff73","ios":"levelo://app?vid=8cf4c8bc-17ef-43a1-8370-f763103aff73"},"vehicle_type_id":"4","last_reported":1749650973,"current_range_meters":6400,"station_id":"ce4bhg12rcd13ifvqf70","pricing_plan_id":"cebpf4jnsgd1na2vs0mg"},{"bike_id":"39d32260-51d5-455a-ba53-6471389bd255","system_id":"levelo_inurba_marseille","lat":43.31968,"lon":5.37593,"is_reserved":false,"is_disabled":false,"rental_uris":{"android":"levelo://app?vid=39d32260-51d5-455a-ba53-6471389bd255","ios":"levelo://app?vid=39d32260-51d5-455a-ba53-6471389bd255"},"vehicle_type_id":"4","last_reported":1749650973,"current_range_meters":6400,"station_id":"","pricing_plan_id":"cebpf4jnsgd1na2vs0mg"},{"bike_id":"0eadd241-5fb7-43e7-ae02-43c2c7400eab","system_id":"levelo_inurba_marseille","lat":43.273135,"lon":5.390835,"is_reserved":false,"is_disabled":false,"rental_uris":{"android":"levelo://app?vid=0eadd241-5fb7-43e7-ae02-43c2c7400eab","ios":"levelo://app?vid=0eadd241-5fb7-43e7-ae02-43c2c7400eab"},"vehicle_type_id":"4","last_reported":1749650973,"current_range_meters":6400,"station_id":"ce4bhgp2rcd13ifvqfe0","pricing_plan_id":"cebpf4jnsgd1na2vs0mg"},{"bike_id":"1e532920-9e26-4275-b7c0-535f652566f3","system_id":"levelo_inurba_marseille","lat":43.3137,"lon":5.3674,"is_reserved":false,"is_disabled":false,"rental_uris":{"android":"levelo://app?vid=1e532920-9e26-4275-b7c0-535f652566f3","ios":"levelo://app?vid=1e532920-9e26-4275-b7c0-535f652566f3"},"vehicle_type_id":"4","last_reported":1749650973,"current_range_meters":6400,"station_id":"ce4bgr92rcd13ifvqc6g","pricing_plan_id":"cebpf4jnsgd1na2vs0mg"},{"bike_id":"25c80d0b-2760-4281-82b6-d193b227a8e7","system_id":"levelo_inurba_marseille","lat":43.29532,"lon":5.38551,"is_reserved":false,"is_disabled":false,"rental_uris":{"android":"levelo://app?vid=25c80d0b-2760-4281-82b6-d193b227a8e7","ios":"levelo://app?vid=25c80d0b-2760-4281-82b6-d193b227a8e7"},"vehicle_type_id":"4","last_reported":1749650973,"current_range_meters":6400,"station_id":"ce4bgih2rcd13ifvqba0","pricing_plan_id":"cebpf4jnsgd1na2vs0mg"},{"bike_id":"96eddb8e-65fd-4693-80fc-1f9f8d9ef3cc","system_id":"levelo_inurba_marseille","lat":43.30926,"lon":5.40147,"is_reserved":false,"is_disabled":false,"rental_uris":{"android":"levelo://app?vid=96eddb8e-65fd-4693-80fc-1f9f8d9ef3cc","ios":"levelo://app?vid=96eddb8e-65fd-4693-80fc-1f9f8d9ef3cc"},"vehicle_type_id":"4","last_reported":1749650973,"current_range_meters":6800,"station_id":"ce4bgvp2rcd13ifvqct0","pricing_plan_id":"cebpf4jnsgd1na2vs0mg"},{"bike_id":"87bad186-0fd0-4e7a-924d-dbd6635567db","system_id":"levelo_inurba_marseille","lat":43.29567,"lon":5.37579,"is_reserved":false,"is_disabled":false,"rental_uris":{"android":"levelo://app?vid=87bad186-0fd0-4e7a-924d-dbd6635567db","ios":"levelo://app?vid=87bad186-0fd0-4e7a-924d-dbd6635567db"},"vehicle_type_id":"4","last_reported":1749650973,"current_range_meters":6800,"station_id":"ce4bgh92rcd13ifvqb50","pricing_plan_id":"cebpf4jnsgd1na2vs0mg"},{"bike_id":"bb9abe73-0458-4df0-be23-ab48d1b1fdd4","system_id":"levelo_inurba_marseille","lat":43.28399,"lon":5.34981,"is_reserved":false,"is_disabled":false,"rental_uris":{"android":"levelo://app?vid=bb9abe73-0458-4df0-be23-ab48d1b1fdd4","ios":"levelo://app?vid=bb9abe73-0458-4df0-be23-ab48d1b1fdd4"},"vehicle_type_id":"4","last_reported":1749650973,"current_range_meters":6800,"station_id":"ce4bhbh2rcd13ifvqepg","pricing_plan_id":"cebpf4jnsgd1na2vs0mg"},{"bike_id":"a9334c0d-cdfc-464f-8eab-e98192ed3454","system_id":"levelo_inurba_marseille","lat":43.29195,"lon":5.39959,"is_reserved":false,"is_disabled":false,"rental_uris":{"android":"levelo://app?vid=a9334c0d-cdfc-464f-8eab-e98192ed3454","ios":"levelo://app?vid=a9334c0d-cdfc-464f-8eab-e98192ed3454"},"vehicle_type_id":"4","last_reported":1749650973,"current_range_meters":6800,"station_id":"","pricing_plan_id":"cebpf4jnsgd1na2vs0mg"},{"bike_id":"08eec760-c028-411f-a3d1-bbaeaee353bd","system_id":"levelo_inurba_marseille","lat":43.25012,"lon":5.3893,"is_reserved":false,"is_disabled":false,"rental_uris":{"android":"levelo://app?vid=08eec760-c028-411f-a3d1-bbaeaee353bd","ios":"levelo://app?vid=08eec760-c028-411f-a3d1-bbaeaee353bd"},"vehicle_type_id":"4","last_reported":1749650973,"current_range_meters":6800,"station_id":"ce4bhgp2rcd13ifvqfd0","pricing_plan_id":"cebpf4jnsgd1na2vs0mg"},{"bike_id":"c3709ec4-2f62-49e5-ad64-7519a95689bf","system_id":"levelo_inurba_marseille","lat":43.27971,"lon":5.38737,"is_reserved":false,"is_disabled":false,"rental_uris":{"android":"levelo://app?vid=c3709ec4-2f62-49e5-ad64-7519a95689bf","ios":"levelo://app?vid=c3709ec4-2f62-49e5-ad64-7519a95689bf"},"vehicle_type_id":"4","last_reported":1749650973,"current_range_meters":6800,"station_id":"ce4bhg12rcd13ifvqf80","pricing_plan_id":"cebpf4jnsgd1na2vs0mg"},{"bike_id":"52a945f7-6b11-468e-9883-d81b45a48e67","system_id":"levelo_inurba_marseille","lat":43.30426,"lon":5.39765,"is_reserved":false,"is_disabled":false,"rental_uris":{"android":"levelo://app?vid=52a945f7-6b11-468e-9883-d81b45a48e67","ios":"levelo://app?vid=52a945f7-6b11-468e-9883-d81b45a48e67"},"vehicle_type_id":"4","last_reported":1749650973,"current_range_meters":6800,"station_id":"ce4bh092rcd13ifvqd20","pricing_plan_id":"cebpf4jnsgd1na2vs0mg"},{"bike_id":"efdc2ca0-ec41-45c4-98c9-1c47b1e977de","system_id":"levelo_inurba_marseille","lat":43.27316,"lon":5.39082,"is_reserved":false,"is_disabled":false,"rental_uris":{"android":"levelo://app?vid=efdc2ca0-ec41-45c4-98c9-1c47b1e977de","ios":"levelo://app?vid=efdc2ca0-ec41-45c4-98c9-1c47b1e977de"},"vehicle_type_id":"4","last_reported":1749650973,"current_range_meters":6800,"station_id":"ce4bhgp2rcd13ifvqfe0","pricing_plan_id":"cebpf4jnsgd1na2vs0mg"},{"bike_id":"a42e8575-59d9-42bd-9771-2885ef68dcf0","system_id":"levelo_inurba_marseille","lat":43.30539,"lon":5.36541,"is_reserved":false,"is_disabled":false,"rental_uris":{"android":"levelo://app?vid=a42e8575-59d9-42bd-9771-2885ef68dcf0","ios":"levelo://app?vid=a42e8575-59d9-42bd-9771-2885ef68dcf0"},"vehicle_type_id":"4","last_reported":1749650973,"current_range_meters":7200,"station_id":"ce4bgs12rcd13ifvqcag","pricing_plan_id":"cebpf4jnsgd1na2vs0mg"},{"bike_id":"852b8ed7-b6d1-430c-9313-3b7af5120209","system_id":"levelo_inurba_marseille","lat":43.23186,"lon":5.39995,"is_reserved":false,"is_disabled":false,"rental_uris":{"android":"levelo://app?vid=852b8ed7-b6d1-430c-9313-3b7af5120209","ios":"levelo://app?vid=852b8ed7-b6d1-430c-9313-3b7af5120209"},"vehicle_type_id":"4","last_reported":1749650973,"current_range_meters":7200,"station_id":"ce4bhn12rcd13ifvqgqg","pricing_plan_id":"cebpf4jnsgd1na2vs0mg"},{"bike_id":"6e63e174-177f-45b4-9993-d29e8d8f52a5","system_id":"levelo_inurba_marseille","lat":43.22933,"lon":5.35384,"is_reserved":false,"is_disabled":false,"rental_uris":{"android":"levelo://app?vid=6e63e174-177f-45b4-9993-d29e8d8f52a5","ios":"levelo://app?vid=6e63e174-177f-45b4-9993-d29e8d8f52a5"},"vehicle_type_id":"4","last_reported":1749650973,"current_range_meters":7200,"station_id":"cpo3532slgdg3j2ikp40","pricing_plan_id":"cebpf4jnsgd1na2vs0mg"},{"bike_id":"580d432f-8b33-4bba-9132-0158b5b5d91a","system_id":"levelo_inurba_marseille","lat":43.30541,"lon":5.36706,"is_reserved":false,"is_disabled":false,"rental_uris":{"android":"levelo://app?vid=580d432f-8b33-4bba-9132-0158b5b5d91a","ios":"levelo://app?vid=580d432f-8b33-4bba-9132-0158b5b5d91a"},"vehicle_type_id":"4","last_reported":1749650973,"current_range_meters":7200,"station_id":"ce4bgrp2rcd13ifvqc9g","pricing_plan_id":"cebpf4jnsgd1na2vs0mg"},{"bike_id":"cec9c75f-bde7-40eb-b593-49ff6ff220c9","system_id":"levelo_inurba_marseille","lat":43.28412,"lon":5.35005,"is_reserved":false,"is_disabled":false,"rental_uris":{"android":"levelo://app?vid=cec9c75f-bde7-40eb-b593-49ff6ff220c9","ios":"levelo://app?vid=cec9c75f-bde7-40eb-b593-49ff6ff220c9"},"vehicle_type_id":"4","last_reported":1749650973,"current_range_meters":7200,"station_id":"ce4bhbh2rcd13ifvqepg","pricing_plan_id":"cebpf4jnsgd1na2vs0mg"},{"bike_id":"125bd855-10ed-4a56-9707-403f3a8b58a0","system_id":"levelo_inurba_marseille","lat":43.33107,"lon":5.40509,"is_reserved":false,"is_disabled":false,"rental_uris":{"android":"levelo://app?vid=125bd855-10ed-4a56-9707-403f3a8b58a0","ios":"levelo://app?vid=125bd855-10ed-4a56-9707-403f3a8b58a0"},"vehicle_type_id":"4","last_reported":1749650973,"current_range_meters":7200,"station_id":"","pricing_plan_id":"cebpf4jnsgd1na2vs0mg"},{"bike_id":"4165c93c-2412-4170-aa75-3d5f983a804e","system_id":"levelo_inurba_marseille","lat":43.279,"lon":5.38012,"is_reserved":false,"is_disabled":false,"rental_uris":{"android":"levelo://app?vid=4165c93c-2412-4170-aa75-3d5f983a804e","ios":"levelo://app?vid=4165c93c-2412-4170-aa75-3d5f983a804e"},"vehicle_type_id":"4","last_reported":1749650973,"current_range_meters":8000,"station_id":"ce4bhf92rcd13ifvqf50","pricing_plan_id":"cebpf4jnsgd1na2vs0mg"},{"bike_id":"edb2fba3-972d-4f3f-a8ac-8e66a7c522ad","system_id":"levelo_inurba_marseille","lat":43.2791,"lon":5.38012,"is_reserved":false,"is_disabled":false,"rental_uris":{"android":"levelo://app?vid=edb2fba3-972d-4f3f-a8ac-8e66a7c522ad","ios":"levelo://app?vid=edb2fba3-972d-4f3f-a8ac-8e66a7c522ad"},"vehicle_type_id":"4","last_reported":1749650973,"current_range_meters":8000,"station_id":"ce4bhf92rcd13ifvqf50","pricing_plan_id":"cebpf4jnsgd1na2vs0mg"},{"bike_id":"00793cc7-3aa4-4db5-b4eb-b976b8442b97","system_id":"levelo_inurba_marseille","lat":43.308001,"lon":5.435214,"is_reserved":false,"is_disabled":false,"rental_uris":{"android":"levelo://app?vid=00793cc7-3aa4-4db5-b4eb-b976b8442b97","ios":"levelo://app?vid=00793cc7-3aa4-4db5-b4eb-b976b8442b97"},"vehicle_type_id":"4","last_reported":1749650973,"current_range_meters":8400,"station_id":"ce4bhph2rcd13ifvqheg","pricing_plan_id":"cebpf4jnsgd1na2vs0mg"},{"bike_id":"7591d4b0-84bc-42c3-92d0-7d8ab57c0843","system_id":"levelo_inurba_marseille","lat":43.23197,"lon":5.35565,"is_reserved":false,"is_disabled":false,"rental_uris":{"android":"levelo://app?vid=7591d4b0-84bc-42c3-92d0-7d8ab57c0843","ios":"levelo://app?vid=7591d4b0-84bc-42c3-92d0-7d8ab57c0843"},"vehicle_type_id":"4","last_reported":1749650973,"current_range_meters":8400,"station_id":"ce4bhu92rcd13ifvqi70","pricing_plan_id":"cebpf4jnsgd1na2vs0mg"},{"bike_id":"5077581b-cebb-46fc-ba69-4fa8272d4810","system_id":"levelo_inurba_marseille","lat":43.21374,"lon":5.3556,"is_reserved":false,"is_disabled":false,"rental_uris":{"android":"levelo://app?vid=5077581b-cebb-46fc-ba69-4fa8272d4810","ios":"levelo://app?vid=5077581b-cebb-46fc-ba69-4fa8272d4810"},"vehicle_type_id":"4","last_reported":1749650973,"current_range_meters":8400,"station_id":"","pricing_plan_id":"cebpf4jnsgd1na2vs0mg"},{"bike_id":"259b3bb7-470d-4511-af68-f5ff118b0b70","system_id":"levelo_inurba_marseille","lat":43.33022,"lon":5.3905,"is_reserved":false,"is_disabled":false,"rental_uris":{"android":"levelo://app?vid=259b3bb7-470d-4511-af68-f5ff118b0b70","ios":"levelo://app?vid=259b3bb7-470d-4511-af68-f5ff118b0b70"},"vehicle_type_id":"4","last_reported":1749650973,"current_range_meters":8400,"station_id":"ce4bhr92rcd13ifvqhrg","pricing_plan_id":"cebpf4jnsgd1na2vs0mg"},{"bike_id":"18759061-77d6-468f-98a8-b5bab7d472b0","system_id":"levelo_inurba_marseille","lat":43.26576,"lon":5.39053,"is_reserved":false,"is_disabled":true,"rental_uris":{"android":"levelo://app?vid=18759061-77d6-468f-98a8-b5bab7d472b0","ios":"levelo://app?vid=18759061-77d6-468f-98a8-b5bab7d472b0"},"vehicle_type_id":"4","last_reported":1749650973,"current_range_meters":8400,"station_id":"ce4bhe12rcd13ifvqf30","pricing_plan_id":"cebpf4jnsgd1na2vs0mg"},{"bike_id":"3cc6e8ad-9bf5-42e2-b7b1-5099067732f4","system_id":"levelo_inurba_marseille","lat":43.23188,"lon":5.39984,"is_reserved":false,"is_disabled":false,"rental_uris":{"android":"levelo://app?vid=3cc6e8ad-9bf5-42e2-b7b1-5099067732f4","ios":"levelo://app?vid=3cc6e8ad-9bf5-42e2-b7b1-5099067732f4"},"vehicle_type_id":"4","last_reported":1749650973,"current_range_meters":8400,"station_id":"ce4bhn12rcd13ifvqgqg","pricing_plan_id":"cebpf4jnsgd1na2vs0mg"},{"bike_id":"617e300c-f170-4241-aad7-9da3843d69bb","system_id":"levelo_inurba_marseille","lat":43.28724,"lon":5.37939,"is_reserved":false,"is_disabled":false,"rental_uris":{"android":"levelo://app?vid=617e300c-f170-4241-aad7-9da3843d69bb","ios":"levelo://app?vid=617e300c-f170-4241-aad7-9da3843d69bb"},"vehicle_type_id":"4","last_reported":1749650973,"current_range_meters":8400,"station_id":"ce4bh9p2rcd13ifvqec0","pricing_plan_id":"cebpf4jnsgd1na2vs0mg"},{"bike_id":"a5ecf98c-b21a-4eac-8879-563d209b3f9d","system_id":"levelo_inurba_marseille","lat":43.298645,"lon":5.397247,"is_reserved":false,"is_disabled":false,"rental_uris":{"android":"levelo://app?vid=a5ecf98c-b21a-4eac-8879-563d209b3f9d","ios":"levelo://app?vid=a5ecf98c-b21a-4eac-8879-563d209b3f9d"},"vehicle_type_id":"4","last_reported":1749650973,"current_range_meters":8800,"station_id":"ce4bh0h2rcd13ifvqd50","pricing_plan_id":"cebpf4jnsgd1na2vs0mg"},{"bike_id":"a3c7dcdd-82aa-4119-b500-ef5e9bfa769d","system_id":"levelo_inurba_marseille","lat":43.29841,"lon":5.36268,"is_reserved":false,"is_disabled":false,"rental_uris":{"android":"levelo://app?vid=a3c7dcdd-82aa-4119-b500-ef5e9bfa769d","ios":"levelo://app?vid=a3c7dcdd-82aa-4119-b500-ef5e9bfa769d"},"vehicle_type_id":"4","last_reported":1749650973,"current_range_meters":8800,"station_id":"ce4bgpp2rcd13ifvqc3g","pricing_plan_id":"cebpf4jnsgd1na2vs0mg"},{"bike_id":"ca27e12a-1f2d-4cf2-be29-12a2b9ff1547","system_id":"levelo_inurba_marseille","lat":43.31718,"lon":5.42402,"is_reserved":false,"is_disabled":false,"rental_uris":{"android":"levelo://app?vid=ca27e12a-1f2d-4cf2-be29-12a2b9ff1547","ios":"levelo://app?vid=ca27e12a-1f2d-4cf2-be29-12a2b9ff1547"},"vehicle_type_id":"4","last_reported":1749650973,"current_range_meters":8800,"station_id":"ce4bhp92rcd13ifvqhbg","pricing_plan_id":"cebpf4jnsgd1na2vs0mg"},{"bike_id":"0ba39b70-b235-4701-88b8-ebef0c128562","system_id":"levelo_inurba_marseille","lat":43.29276,"lon":5.37634,"is_reserved":false,"is_disabled":false,"rental_uris":{"android":"levelo://app?vid=0ba39b70-b235-4701-88b8-ebef0c128562","ios":"levelo://app?vid=0ba39b70-b235-4701-88b8-ebef0c128562"},"vehicle_type_id":"4","last_reported":1749650973,"current_range_meters":9200,"station_id":"ce4bgi12rcd13ifvqb80","pricing_plan_id":"cebpf4jnsgd1na2vs0mg"},{"bike_id":"325adbf7-3210-4f42-9fa3-23c5b94ad930","system_id":"levelo_inurba_marseille","lat":43.28706,"lon":5.37947,"is_reserved":false,"is_disabled":false,"rental_uris":{"android":"levelo://app?vid=325adbf7-3210-4f42-9fa3-23c5b94ad930","ios":"levelo://app?vid=325adbf7-3210-4f42-9fa3-23c5b94ad930"},"vehicle_type_id":"4","last_reported":1749650973,"current_range_meters":9200,"station_id":"ce4bh9p2rcd13ifvqec0","pricing_plan_id":"cebpf4jnsgd1na2vs0mg"},{"bike_id":"ad5fea89-943a-4619-9edc-0ace3e829ee1","system_id":"levelo_inurba_marseille","lat":43.325352,"lon":5.414489,"is_reserved":false,"is_disabled":false,"rental_uris":{"android":"levelo://app?vid=ad5fea89-943a-4619-9edc-0ace3e829ee1","ios":"levelo://app?vid=ad5fea89-943a-4619-9edc-0ace3e829ee1"},"vehicle_type_id":"4","last_reported":1749650973,"current_range_meters":9200,"station_id":"ce4bhq12rcd13ifvqhhg","pricing_plan_id":"cebpf4jnsgd1na2vs0mg"},{"bike_id":"6f540a13-4196-45e1-a87e-cef425fc1b8b","system_id":"levelo_inurba_marseille","lat":43.29091,"lon":5.38132,"is_reserved":false,"is_disabled":false,"rental_uris":{"android":"levelo://app?vid=6f540a13-4196-45e1-a87e-cef425fc1b8b","ios":"levelo://app?vid=6f540a13-4196-45e1-a87e-cef425fc1b8b"},"vehicle_type_id":"4","last_reported":1749650973,"current_range_meters":8800,"station_id":"ce4bh512rcd13ifvqe2g","pricing_plan_id":"cebpf4jnsgd1na2vs0mg"},{"bike_id":"15890935-4206-46eb-aaf6-abddc419f332","system_id":"levelo_inurba_marseille","lat":43.29978,"lon":5.3849,"is_reserved":false,"is_disabled":true,"rental_uris":{"android":"levelo://app?vid=15890935-4206-46eb-aaf6-abddc419f332","ios":"levelo://app?vid=15890935-4206-46eb-aaf6-abddc419f332"},"vehicle_type_id":"4","last_reported":1749650973,"current_range_meters":9200,"station_id":"ce4bgj92rcd13ifvqbd0","pricing_plan_id":"cebpf4jnsgd1na2vs0mg"},{"bike_id":"f099f1d3-8f7a-4cc3-a178-0fbb1ea0f192","system_id":"levelo_inurba_marseille","lat":43.29038,"lon":5.38162,"is_reserved":false,"is_disabled":true,"rental_uris":{"android":"levelo://app?vid=f099f1d3-8f7a-4cc3-a178-0fbb1ea0f192","ios":"levelo://app?vid=f099f1d3-8f7a-4cc3-a178-0fbb1ea0f192"},"vehicle_type_id":"4","last_reported":1749650973,"current_range_meters":9200,"station_id":"ce4bh4p2rcd13ifvqe1g","pricing_plan_id":"cebpf4jnsgd1na2vs0mg"},{"bike_id":"57ae981b-f992-4b9e-bd1e-447b95ce922f","system_id":"levelo_inurba_marseille","lat":43.30731,"lon":5.38085,"is_reserved":false,"is_disabled":false,"rental_uris":{"android":"levelo://app?vid=57ae981b-f992-4b9e-bd1e-447b95ce922f","ios":"levelo://app?vid=57ae981b-f992-4b9e-bd1e-447b95ce922f"},"vehicle_type_id":"4","last_reported":1749650973,"current_range_meters":9200,"station_id":"","pricing_plan_id":"cebpf4jnsgd1na2vs0mg"},{"bike_id":"ab5d796b-6f87-4b6e-a5bd-6ac051fcacd1","system_id":"levelo_inurba_marseille","lat":43.32493,"lon":5.36564,"is_reserved":false,"is_disabled":false,"rental_uris":{"android":"levelo://app?vid=ab5d796b-6f87-4b6e-a5bd-6ac051fcacd1","ios":"levelo://app?vid=ab5d796b-6f87-4b6e-a5bd-6ac051fcacd1"},"vehicle_type_id":"4","last_reported":1749650973,"current_range_meters":9200,"station_id":"ce4bhs12rcd13ifvqhvg","pricing_plan_id":"cebpf4jnsgd1na2vs0mg"},{"bike_id":"1e20f032-0f6a-40b2-ad29-e4d2225496fa","system_id":"levelo_inurba_marseille","lat":43.30287,"lon":5.37056,"is_reserved":false,"is_disabled":false,"rental_uris":{"android":"levelo://app?vid=1e20f032-0f6a-40b2-ad29-e4d2225496fa","ios":"levelo://app?vid=1e20f032-0f6a-40b2-ad29-e4d2225496fa"},"vehicle_type_id":"4","last_reported":1749650973,"current_range_meters":9600,"station_id":"","pricing_plan_id":"cebpf4jnsgd1na2vs0mg"},{"bike_id":"2fbb888e-edde-4583-8f6e-03fe58916d90","system_id":"levelo_inurba_marseille","lat":43.21205,"lon":5.35062,"is_reserved":false,"is_disabled":false,"rental_uris":{"android":"levelo://app?vid=2fbb888e-edde-4583-8f6e-03fe58916d90","ios":"levelo://app?vid=2fbb888e-edde-4583-8f6e-03fe58916d90"},"vehicle_type_id":"4","last_reported":1749650973,"current_range_meters":9600,"station_id":"st_cvj6sg6p6f1abm77japg","pricing_plan_id":"cebpf4jnsgd1na2vs0mg"},{"bike_id":"ddadf304-9a44-4e49-b459-d4a693e91ad7","system_id":"levelo_inurba_marseille","lat":43.29796,"lon":5.39352,"is_reserved":false,"is_disabled":false,"rental_uris":{"android":"levelo://app?vid=ddadf304-9a44-4e49-b459-d4a693e91ad7","ios":"levelo://app?vid=ddadf304-9a44-4e49-b459-d4a693e91ad7"},"vehicle_type_id":"4","last_reported":1749650973,"current_range_meters":9600,"station_id":"chh1huq6cuj3fo74tm60","pricing_plan_id":"cebpf4jnsgd1na2vs0mg"},{"bike_id":"4005c274-b967-4005-810c-42c83ca88050","system_id":"levelo_inurba_marseille","lat":43.29122,"lon":5.38221,"is_reserved":false,"is_disabled":true,"rental_uris":{"android":"levelo://app?vid=4005c274-b967-4005-810c-42c83ca88050","ios":"levelo://app?vid=4005c274-b967-4005-810c-42c83ca88050"},"vehicle_type_id":"4","last_reported":1749650973,"current_range_meters":10000,"station_id":"ce4bh512rcd13ifvqe2g","pricing_plan_id":"cebpf4jnsgd1na2vs0mg"},{"bike_id":"a5d8bf67-e00f-4b3f-8720-d6497651122a","system_id":"levelo_inurba_marseille","lat":43.28412,"lon":5.3498,"is_reserved":false,"is_disabled":false,"rental_uris":{"android":"levelo://app?vid=a5d8bf67-e00f-4b3f-8720-d6497651122a","ios":"levelo://app?vid=a5d8bf67-e00f-4b3f-8720-d6497651122a"},"vehicle_type_id":"4","last_reported":1749650973,"current_range_meters":10000,"station_id":"ce4bhbh2rcd13ifvqepg","pricing_plan_id":"cebpf4jnsgd1na2vs0mg"},{"bike_id":"e9fc649c-b458-4b7e-bfff-7dbc7289e452","system_id":"levelo_inurba_marseille","lat":43.29092,"lon":5.38128,"is_reserved":false,"is_disabled":false,"rental_uris":{"android":"levelo://app?vid=e9fc649c-b458-4b7e-bfff-7dbc7289e452","ios":"levelo://app?vid=e9fc649c-b458-4b7e-bfff-7dbc7289e452"},"vehicle_type_id":"4","last_reported":1749650973,"current_range_meters":10000,"station_id":"ce4bh512rcd13ifvqe2g","pricing_plan_id":"cebpf4jnsgd1na2vs0mg"},{"bike_id":"6e50e2e7-35b2-4c39-90fb-669ca2610c88","system_id":"levelo_inurba_marseille","lat":43.29261,"lon":5.40912,"is_reserved":false,"is_disabled":false,"rental_uris":{"android":"levelo://app?vid=6e50e2e7-35b2-4c39-90fb-669ca2610c88","ios":"levelo://app?vid=6e50e2e7-35b2-4c39-90fb-669ca2610c88"},"vehicle_type_id":"4","last_reported":1749650973,"current_range_meters":10000,"station_id":"ce4bh192rcd13ifvqdc0","pricing_plan_id":"cebpf4jnsgd1na2vs0mg"},{"bike_id":"5f08a65b-2782-4fca-9b21-3611ebcae917","system_id":"levelo_inurba_marseille","lat":43.30887,"lon":5.37198,"is_reserved":false,"is_disabled":false,"rental_uris":{"android":"levelo://app?vid=5f08a65b-2782-4fca-9b21-3611ebcae917","ios":"levelo://app?vid=5f08a65b-2782-4fca-9b21-3611ebcae917"},"vehicle_type_id":"4","last_reported":1749650973,"current_range_meters":10000,"station_id":"ce4bguh2rcd13ifvqckg","pricing_plan_id":"cebpf4jnsgd1na2vs0mg"},{"bike_id":"699c08fe-84f9-4f48-b92c-a02fbf245ef0","system_id":"levelo_inurba_marseille","lat":43.3018,"lon":5.36625,"is_reserved":false,"is_disabled":false,"rental_uris":{"android":"levelo://app?vid=699c08fe-84f9-4f48-b92c-a02fbf245ef0","ios":"levelo://app?vid=699c08fe-84f9-4f48-b92c-a02fbf245ef0"},"vehicle_type_id":"4","last_reported":1749650973,"current_range_meters":10000,"station_id":"ce4bgrh2rcd13ifvqc8g","pricing_plan_id":"cebpf4jnsgd1na2vs0mg"},{"bike_id":"14257a63-b996-4ed4-ad15-5919c9c559e3","system_id":"levelo_inurba_marseille","lat":43.32097,"lon":5.36777,"is_reserved":false,"is_disabled":false,"rental_uris":{"android":"levelo://app?vid=14257a63-b996-4ed4-ad15-5919c9c559e3","ios":"levelo://app?vid=14257a63-b996-4ed4-ad15-5919c9c559e3"},"vehicle_type_id":"4","last_reported":1749650973,"current_range_meters":10000,"station_id":"ce4bhrh2rcd13ifvqhug","pricing_plan_id":"cebpf4jnsgd1na2vs0mg"},{"bike_id":"f5db53c2-39c8-4781-b30f-b57c98968b37","system_id":"levelo_inurba_marseille","lat":43.294234,"lon":5.385949,"is_reserved":false,"is_disabled":true,"rental_uris":{"android":"levelo://app?vid=f5db53c2-39c8-4781-b30f-b57c98968b37","ios":"levelo://app?vid=f5db53c2-39c8-4781-b30f-b57c98968b37"},"vehicle_type_id":"4","last_reported":1749650973,"current_range_meters":10800,"station_id":"ce4bh2h2rcd13ifvqdh0","pricing_plan_id":"cebpf4jnsgd1na2vs0mg"},{"bike_id":"acecc9dd-9f66-4fc9-b678-7dfbfc49612a","system_id":"levelo_inurba_marseille","lat":43.30378,"lon":5.42492,"is_reserved":false,"is_disabled":false,"rental_uris":{"android":"levelo://app?vid=acecc9dd-9f66-4fc9-b678-7dfbfc49612a","ios":"levelo://app?vid=acecc9dd-9f66-4fc9-b678-7dfbfc49612a"},"vehicle_type_id":"4","last_reported":1749650973,"current_range_meters":10800,"station_id":"ce4bhoh2rcd13ifvqh6g","pricing_plan_id":"cebpf4jnsgd1na2vs0mg"},{"bike_id":"7c36ab5f-1606-4972-98b7-432569989cba","system_id":"levelo_inurba_marseille","lat":43.32366,"lon":5.38878,"is_reserved":false,"is_disabled":false,"rental_uris":{"android":"levelo://app?vid=7c36ab5f-1606-4972-98b7-432569989cba","ios":"levelo://app?vid=7c36ab5f-1606-4972-98b7-432569989cba"},"vehicle_type_id":"4","last_reported":1749650973,"current_range_meters":10800,"station_id":"ce4bhqp2rcd13ifvqhog","pricing_plan_id":"cebpf4jnsgd1na2vs0mg"},{"bike_id":"5ffc5d75-9066-40cf-9730-75b3d557a59f","system_id":"levelo_inurba_marseille","lat":43.298977,"lon":5.378537,"is_reserved":false,"is_disabled":false,"rental_uris":{"android":"levelo://app?vid=5ffc5d75-9066-40cf-9730-75b3d557a59f","ios":"levelo://app?vid=5ffc5d75-9066-40cf-9730-75b3d557a59f"},"vehicle_type_id":"4","last_reported":1749650973,"current_range_meters":10800,"station_id":"","pricing_plan_id":"cebpf4jnsgd1na2vs0mg"},{"bike_id":"0ed9996a-d9be-4775-8204-d23533d99e93","system_id":"levelo_inurba_marseille","lat":43.29791,"lon":5.39346,"is_reserved":false,"is_disabled":false,"rental_uris":{"android":"levelo://app?vid=0ed9996a-d9be-4775-8204-d23533d99e93","ios":"levelo://app?vid=0ed9996a-d9be-4775-8204-d23533d99e93"},"vehicle_type_id":"4","last_reported":1749650973,"current_range_meters":10800,"station_id":"chh1huq6cuj3fo74tm60","pricing_plan_id":"cebpf4jnsgd1na2vs0mg"},{"bike_id":"98179eda-1938-4fa3-a281-b48929b18df6","system_id":"levelo_inurba_marseille","lat":43.2942,"lon":5.38626,"is_reserved":false,"is_disabled":false,"rental_uris":{"android":"levelo://app?vid=98179eda-1938-4fa3-a281-b48929b18df6","ios":"levelo://app?vid=98179eda-1938-4fa3-a281-b48929b18df6"},"vehicle_type_id":"4","last_reported":1749650973,"current_range_meters":10800,"station_id":"ce4bh2h2rcd13ifvqdh0","pricing_plan_id":"cebpf4jnsgd1na2vs0mg"},{"bike_id":"0923e79e-3960-4eec-9027-38089346fe3a","system_id":"levelo_inurba_marseille","lat":43.23175,"lon":5.35551,"is_reserved":false,"is_disabled":false,"rental_uris":{"android":"levelo://app?vid=0923e79e-3960-4eec-9027-38089346fe3a","ios":"levelo://app?vid=0923e79e-3960-4eec-9027-38089346fe3a"},"vehicle_type_id":"4","last_reported":1749650973,"current_range_meters":10800,"station_id":"ce4bhu92rcd13ifvqi70","pricing_plan_id":"cebpf4jnsgd1na2vs0mg"},{"bike_id":"262903a9-22b9-4b2d-96c2-2e5dbd155090","system_id":"levelo_inurba_marseille","lat":43.32488,"lon":5.36586,"is_reserved":false,"is_disabled":false,"rental_uris":{"android":"levelo://app?vid=262903a9-22b9-4b2d-96c2-2e5dbd155090","ios":"levelo://app?vid=262903a9-22b9-4b2d-96c2-2e5dbd155090"},"vehicle_type_id":"4","last_reported":1749650973,"current_range_meters":11200,"station_id":"ce4bhs12rcd13ifvqhvg","pricing_plan_id":"cebpf4jnsgd1na2vs0mg"},{"bike_id":"a6a9aa78-7299-47ac-a784-76282a099506","system_id":"levelo_inurba_marseille","lat":43.30149,"lon":5.38086,"is_reserved":false,"is_disabled":true,"rental_uris":{"android":"levelo://app?vid=a6a9aa78-7299-47ac-a784-76282a099506","ios":"levelo://app?vid=a6a9aa78-7299-47ac-a784-76282a099506"},"vehicle_type_id":"4","last_reported":1749650973,"current_range_meters":11200,"station_id":"ce4bgjp2rcd13ifvqbh0","pricing_plan_id":"cebpf4jnsgd1na2vs0mg"},{"bike_id":"332868da-c886-4414-be32-c12c0115f343","system_id":"levelo_inurba_marseille","lat":43.27891,"lon":5.38007,"is_reserved":false,"is_disabled":false,"rental_uris":{"android":"levelo://app?vid=332868da-c886-4414-be32-c12c0115f343","ios":"levelo://app?vid=332868da-c886-4414-be32-c12c0115f343"},"vehicle_type_id":"4","last_reported":1749650973,"current_range_meters":11200,"station_id":"ce4bhf92rcd13ifvqf50","pricing_plan_id":"cebpf4jnsgd1na2vs0mg"},{"bike_id":"84f5a926-1dd6-4535-b647-2764ce0ca103","system_id":"levelo_inurba_marseille","lat":43.3211,"lon":5.36769,"is_reserved":false,"is_disabled":false,"rental_uris":{"android":"levelo://app?vid=84f5a926-1dd6-4535-b647-2764ce0ca103","ios":"levelo://app?vid=84f5a926-1dd6-4535-b647-2764ce0ca103"},"vehicle_type_id":"4","last_reported":1749650973,"current_range_meters":11200,"station_id":"ce4bhrh2rcd13ifvqhug","pricing_plan_id":"cebpf4jnsgd1na2vs0mg"},{"bike_id":"2e7bcf76-77eb-42a2-9ae3-8c7b16b8103f","system_id":"levelo_inurba_marseille","lat":43.32101,"lon":5.368026,"is_reserved":false,"is_disabled":false,"rental_uris":{"android":"levelo://app?vid=2e7bcf76-77eb-42a2-9ae3-8c7b16b8103f","ios":"levelo://app?vid=2e7bcf76-77eb-42a2-9ae3-8c7b16b8103f"},"vehicle_type_id":"4","last_reported":1749650973,"current_range_meters":11200,"station_id":"ce4bhrh2rcd13ifvqhug","pricing_plan_id":"cebpf4jnsgd1na2vs0mg"},{"bike_id":"e2dc6530-ead0-4d72-a45b-912ddf009d5d","system_id":"levelo_inurba_marseille","lat":43.31327,"lon":5.39708,"is_reserved":false,"is_disabled":false,"rental_uris":{"android":"levelo://app?vid=e2dc6530-ead0-4d72-a45b-912ddf009d5d","ios":"levelo://app?vid=e2dc6530-ead0-4d72-a45b-912ddf009d5d"},"vehicle_type_id":"4","last_reported":1749650973,"current_range_meters":10800,"station_id":"ce4bgvp2rcd13ifvqcu0","pricing_plan_id":"cebpf4jnsgd1na2vs0mg"},{"bike_id":"da6dc774-d371-45c0-8ba6-b26f56b8a77b","system_id":"levelo_inurba_marseille","lat":43.31329,"lon":5.3969,"is_reserved":false,"is_disabled":false,"rental_uris":{"android":"levelo://app?vid=da6dc774-d371-45c0-8ba6-b26f56b8a77b","ios":"levelo://app?vid=da6dc774-d371-45c0-8ba6-b26f56b8a77b"},"vehicle_type_id":"4","last_reported":1749650973,"current_range_meters":11600,"station_id":"ce4bgvp2rcd13ifvqcu0","pricing_plan_id":"cebpf4jnsgd1na2vs0mg"},{"bike_id":"408ea359-9b87-40fe-bedf-c7ce11c65456","system_id":"levelo_inurba_marseille","lat":43.29622,"lon":5.37171,"is_reserved":false,"is_disabled":false,"rental_uris":{"android":"levelo://app?vid=408ea359-9b87-40fe-bedf-c7ce11c65456","ios":"levelo://app?vid=408ea359-9b87-40fe-bedf-c7ce11c65456"},"vehicle_type_id":"4","last_reported":1749650973,"current_range_meters":11600,"station_id":"ce4bgnh2rcd13ifvqc0g","pricing_plan_id":"cebpf4jnsgd1na2vs0mg"},{"bike_id":"5eab708e-236b-4c73-b457-9e42e31abaee","system_id":"levelo_inurba_marseille","lat":43.23155,"lon":5.43706,"is_reserved":false,"is_disabled":false,"rental_uris":{"android":"levelo://app?vid=5eab708e-236b-4c73-b457-9e42e31abaee","ios":"levelo://app?vid=5eab708e-236b-4c73-b457-9e42e31abaee"},"vehicle_type_id":"4","last_reported":1749650973,"current_range_meters":11600,"station_id":"ce4bhmp2rcd13ifvqgog","pricing_plan_id":"cebpf4jnsgd1na2vs0mg"},{"bike_id":"fa63325f-9d29-4011-9e7e-81b5a4b69d37","system_id":"levelo_inurba_marseille","lat":43.27312,"lon":5.39083,"is_reserved":false,"is_disabled":false,"rental_uris":{"android":"levelo://app?vid=fa63325f-9d29-4011-9e7e-81b5a4b69d37","ios":"levelo://app?vid=fa63325f-9d29-4011-9e7e-81b5a4b69d37"},"vehicle_type_id":"4","last_reported":1749650973,"current_range_meters":11600,"station_id":"ce4bhgp2rcd13ifvqfe0","pricing_plan_id":"cebpf4jnsgd1na2vs0mg"},{"bike_id":"4220c3f1-dd96-4f3e-a186-336464ef48f9","system_id":"levelo_inurba_marseille","lat":43.28425,"lon":5.34989,"is_reserved":false,"is_disabled":false,"rental_uris":{"android":"levelo://app?vid=4220c3f1-dd96-4f3e-a186-336464ef48f9","ios":"levelo://app?vid=4220c3f1-dd96-4f3e-a186-336464ef48f9"},"vehicle_type_id":"4","last_reported":1749650973,"current_range_meters":11600,"station_id":"ce4bhbh2rcd13ifvqepg","pricing_plan_id":"cebpf4jnsgd1na2vs0mg"},{"bike_id":"29c88d33-3b75-4264-ab0b-8094d6b87274","system_id":"levelo_inurba_marseille","lat":43.28419,"lon":5.37509,"is_reserved":false,"is_disabled":false,"rental_uris":{"android":"levelo://app?vid=29c88d33-3b75-4264-ab0b-8094d6b87274","ios":"levelo://app?vid=29c88d33-3b75-4264-ab0b-8094d6b87274"},"vehicle_type_id":"4","last_reported":1749650973,"current_range_meters":12000,"station_id":"ce4bh412rcd13ifvqds0","pricing_plan_id":"cebpf4jnsgd1na2vs0mg"},{"bike_id":"5fc99e29-f5eb-4b0e-954a-040e7002271e","system_id":"levelo_inurba_marseille","lat":43.27381,"lon":5.36258,"is_reserved":false,"is_disabled":false,"rental_uris":{"android":"levelo://app?vid=5fc99e29-f5eb-4b0e-954a-040e7002271e","ios":"levelo://app?vid=5fc99e29-f5eb-4b0e-954a-040e7002271e"},"vehicle_type_id":"4","last_reported":1749650973,"current_range_meters":12000,"station_id":"ce4bhbh2rcd13ifvqeo0","pricing_plan_id":"cebpf4jnsgd1na2vs0mg"},{"bike_id":"959d215b-3131-4eb6-894b-521344c0ab65","system_id":"levelo_inurba_marseille","lat":43.29907,"lon":5.3814,"is_reserved":false,"is_disabled":false,"rental_uris":{"android":"levelo://app?vid=959d215b-3131-4eb6-894b-521344c0ab65","ios":"levelo://app?vid=959d215b-3131-4eb6-894b-521344c0ab65"},"vehicle_type_id":"4","last_reported":1749650973,"current_range_meters":12000,"station_id":"ce4bgj12rcd13ifvqbc0","pricing_plan_id":"cebpf4jnsgd1na2vs0mg"},{"bike_id":"e4e3d43d-4b4d-4d67-b150-83310140977b","system_id":"levelo_inurba_marseille","lat":43.28267,"lon":5.35066,"is_reserved":false,"is_disabled":false,"rental_uris":{"android":"levelo://app?vid=e4e3d43d-4b4d-4d67-b150-83310140977b","ios":"levelo://app?vid=e4e3d43d-4b4d-4d67-b150-83310140977b"},"vehicle_type_id":"4","last_reported":1749650973,"current_range_meters":12400,"station_id":"ce4bhbp2rcd13ifvqerg","pricing_plan_id":"cebpf4jnsgd1na2vs0mg"},{"bike_id":"d75aaeda-ece7-43a3-b703-b22a4490ea7d","system_id":"levelo_inurba_marseille","lat":43.290197,"lon":5.381317,"is_reserved":false,"is_disabled":true,"rental_uris":{"android":"levelo://app?vid=d75aaeda-ece7-43a3-b703-b22a4490ea7d","ios":"levelo://app?vid=d75aaeda-ece7-43a3-b703-b22a4490ea7d"},"vehicle_type_id":"4","last_reported":1749650973,"current_range_meters":12400,"station_id":"ce4bh4p2rcd13ifvqe1g","pricing_plan_id":"cebpf4jnsgd1na2vs0mg"},{"bike_id":"91252cb4-db98-4cff-ba49-0337a6eacf8f","system_id":"levelo_inurba_marseille","lat":43.31979,"lon":5.38801,"is_reserved":false,"is_disabled":false,"rental_uris":{"android":"levelo://app?vid=91252cb4-db98-4cff-ba49-0337a6eacf8f","ios":"levelo://app?vid=91252cb4-db98-4cff-ba49-0337a6eacf8f"},"vehicle_type_id":"4","last_reported":1749650973,"current_range_meters":12400,"station_id":"","pricing_plan_id":"cebpf4jnsgd1na2vs0mg"},{"bike_id":"398fc2d5-304a-4200-ba54-ed87b973990b","system_id":"levelo_inurba_marseille","lat":43.25873,"lon":5.40877,"is_reserved":false,"is_disabled":false,"rental_uris":{"android":"levelo://app?vid=398fc2d5-304a-4200-ba54-ed87b973990b","ios":"levelo://app?vid=398fc2d5-304a-4200-ba54-ed87b973990b"},"vehicle_type_id":"4","last_reported":1749650973,"current_range_meters":12400,"station_id":"ce4bhm92rcd13ifvqglg","pricing_plan_id":"cebpf4jnsgd1na2vs0mg"},{"bike_id":"1acfb620-cad7-48c0-8901-d7a5b74a5b65","system_id":"levelo_inurba_marseille","lat":43.33751,"lon":5.37456,"is_reserved":false,"is_disabled":false,"rental_uris":{"android":"levelo://app?vid=1acfb620-cad7-48c0-8901-d7a5b74a5b65","ios":"levelo://app?vid=1acfb620-cad7-48c0-8901-d7a5b74a5b65"},"vehicle_type_id":"4","last_reported":1749650973,"current_range_meters":12400,"station_id":"","pricing_plan_id":"cebpf4jnsgd1na2vs0mg"},{"bike_id":"2b92e333-e0ac-4981-8876-1b0c45eab232","system_id":"levelo_inurba_marseille","lat":43.29798,"lon":5.40399,"is_reserved":false,"is_disabled":false,"rental_uris":{"android":"levelo://app?vid=2b92e333-e0ac-4981-8876-1b0c45eab232","ios":"levelo://app?vid=2b92e333-e0ac-4981-8876-1b0c45eab232"},"vehicle_type_id":"4","last_reported":1749650973,"current_range_meters":12400,"station_id":"ce4bh112rcd13ifvqd90","pricing_plan_id":"cebpf4jnsgd1na2vs0mg"},{"bike_id":"8628d970-a1b6-451d-9dd6-c59cddd65592","system_id":"levelo_inurba_marseille","lat":43.27057,"lon":5.40259,"is_reserved":false,"is_disabled":false,"rental_uris":{"android":"levelo://app?vid=8628d970-a1b6-451d-9dd6-c59cddd65592","ios":"levelo://app?vid=8628d970-a1b6-451d-9dd6-c59cddd65592"},"vehicle_type_id":"4","last_reported":1749650973,"current_range_meters":12800,"station_id":"ce4bhk92rcd13ifvqgc0","pricing_plan_id":"cebpf4jnsgd1na2vs0mg"},{"bike_id":"e2ab8eba-7083-4745-9245-927a9e9c668c","system_id":"levelo_inurba_marseille","lat":43.28407,"lon":5.35006,"is_reserved":false,"is_disabled":false,"rental_uris":{"android":"levelo://app?vid=e2ab8eba-7083-4745-9245-927a9e9c668c","ios":"levelo://app?vid=e2ab8eba-7083-4745-9245-927a9e9c668c"},"vehicle_type_id":"4","last_reported":1749650973,"current_range_meters":12800,"station_id":"ce4bhbh2rcd13ifvqepg","pricing_plan_id":"cebpf4jnsgd1na2vs0mg"},{"bike_id":"752ebfa1-a8e9-4725-b808-58aa618033e5","system_id":"levelo_inurba_marseille","lat":43.28268,"lon":5.35072,"is_reserved":false,"is_disabled":false,"rental_uris":{"android":"levelo://app?vid=752ebfa1-a8e9-4725-b808-58aa618033e5","ios":"levelo://app?vid=752ebfa1-a8e9-4725-b808-58aa618033e5"},"vehicle_type_id":"4","last_reported":1749650973,"current_range_meters":12800,"station_id":"ce4bhbp2rcd13ifvqerg","pricing_plan_id":"cebpf4jnsgd1na2vs0mg"},{"bike_id":"2c7a13aa-9a16-4880-8e65-7cb3af8d8d1b","system_id":"levelo_inurba_marseille","lat":43.28989,"lon":5.37858,"is_reserved":false,"is_disabled":true,"rental_uris":{"android":"levelo://app?vid=2c7a13aa-9a16-4880-8e65-7cb3af8d8d1b","ios":"levelo://app?vid=2c7a13aa-9a16-4880-8e65-7cb3af8d8d1b"},"vehicle_type_id":"4","last_reported":1749650973,"current_range_meters":12800,"station_id":"ce4bh9p2rcd13ifvqed0","pricing_plan_id":"cebpf4jnsgd1na2vs0mg"},{"bike_id":"1265a00d-7f07-449d-816b-670652ea6cae","system_id":"levelo_inurba_marseille","lat":43.301447,"lon":5.374287,"is_reserved":false,"is_disabled":false,"rental_uris":{"android":"levelo://app?vid=1265a00d-7f07-449d-816b-670652ea6cae","ios":"levelo://app?vid=1265a00d-7f07-449d-816b-670652ea6cae"},"vehicle_type_id":"4","last_reported":1749650973,"current_range_meters":12800,"station_id":"","pricing_plan_id":"cebpf4jnsgd1na2vs0mg"},{"bike_id":"f97a3f4c-4ff3-4439-bfe0-7788baade424","system_id":"levelo_inurba_marseille","lat":43.30477,"lon":5.37911,"is_reserved":false,"is_disabled":false,"rental_uris":{"android":"levelo://app?vid=f97a3f4c-4ff3-4439-bfe0-7788baade424","ios":"levelo://app?vid=f97a3f4c-4ff3-4439-bfe0-7788baade424"},"vehicle_type_id":"4","last_reported":1749650973,"current_range_meters":12800,"station_id":"ce4bgup2rcd13ifvqcn0","pricing_plan_id":"cebpf4jnsgd1na2vs0mg"},{"bike_id":"44565194-4070-49e4-b6ea-374a366bb19a","system_id":"levelo_inurba_marseille","lat":43.300892,"lon":5.390871,"is_reserved":false,"is_disabled":false,"rental_uris":{"android":"levelo://app?vid=44565194-4070-49e4-b6ea-374a366bb19a","ios":"levelo://app?vid=44565194-4070-49e4-b6ea-374a366bb19a"},"vehicle_type_id":"4","last_reported":1749650973,"current_range_meters":12800,"station_id":"ce4bh192rcd13ifvqdb0","pricing_plan_id":"cebpf4jnsgd1na2vs0mg"},{"bike_id":"3bbafb1b-d8ba-469c-b627-c491f6074636","system_id":"levelo_inurba_marseille","lat":43.32037,"lon":5.4158,"is_reserved":false,"is_disabled":false,"rental_uris":{"android":"levelo://app?vid=3bbafb1b-d8ba-469c-b627-c491f6074636","ios":"levelo://app?vid=3bbafb1b-d8ba-469c-b627-c491f6074636"},"vehicle_type_id":"4","last_reported":1749650973,"current_range_meters":14000,"station_id":"ce4bhq92rcd13ifvqhkg","pricing_plan_id":"cebpf4jnsgd1na2vs0mg"},{"bike_id":"f7b05ca5-fb74-448f-b9b1-81ed5268ecaa","system_id":"levelo_inurba_marseille","lat":43.27384,"lon":5.36255,"is_reserved":false,"is_disabled":false,"rental_uris":{"android":"levelo://app?vid=f7b05ca5-fb74-448f-b9b1-81ed5268ecaa","ios":"levelo://app?vid=f7b05ca5-fb74-448f-b9b1-81ed5268ecaa"},"vehicle_type_id":"4","last_reported":1749650973,"current_range_meters":13600,"station_id":"ce4bhbh2rcd13ifvqeo0","pricing_plan_id":"cebpf4jnsgd1na2vs0mg"},{"bike_id":"8afb6112-33a3-4866-adc8-e3fe04e3f604","system_id":"levelo_inurba_marseille","lat":43.282677,"lon":5.350621,"is_reserved":false,"is_disabled":false,"rental_uris":{"android":"levelo://app?vid=8afb6112-33a3-4866-adc8-e3fe04e3f604","ios":"levelo://app?vid=8afb6112-33a3-4866-adc8-e3fe04e3f604"},"vehicle_type_id":"4","last_reported":1749650973,"current_range_meters":13600,"station_id":"ce4bhbp2rcd13ifvqerg","pricing_plan_id":"cebpf4jnsgd1na2vs0mg"},{"bike_id":"9ed6eb76-2487-440e-aa43-8481760f11ab","system_id":"levelo_inurba_marseille","lat":43.23198,"lon":5.35552,"is_reserved":false,"is_disabled":false,"rental_uris":{"android":"levelo://app?vid=9ed6eb76-2487-440e-aa43-8481760f11ab","ios":"levelo://app?vid=9ed6eb76-2487-440e-aa43-8481760f11ab"},"vehicle_type_id":"4","last_reported":1749650973,"current_range_meters":12800,"station_id":"ce4bhu92rcd13ifvqi70","pricing_plan_id":"cebpf4jnsgd1na2vs0mg"},{"bike_id":"69b7c853-bb0b-4b8f-b29d-95dc61030243","system_id":"levelo_inurba_marseille","lat":43.26556,"lon":5.37293,"is_reserved":false,"is_disabled":false,"rental_uris":{"android":"levelo://app?vid=69b7c853-bb0b-4b8f-b29d-95dc61030243","ios":"levelo://app?vid=69b7c853-bb0b-4b8f-b29d-95dc61030243"},"vehicle_type_id":"4","last_reported":1749650973,"current_range_meters":13600,"station_id":"ce4bhg12rcd13ifvqf70","pricing_plan_id":"cebpf4jnsgd1na2vs0mg"},{"bike_id":"62c0da7f-aff9-4ffa-86b8-6966d8f0e555","system_id":"levelo_inurba_marseille","lat":43.21246,"lon":5.35081,"is_reserved":false,"is_disabled":false,"rental_uris":{"android":"levelo://app?vid=62c0da7f-aff9-4ffa-86b8-6966d8f0e555","ios":"levelo://app?vid=62c0da7f-aff9-4ffa-86b8-6966d8f0e555"},"vehicle_type_id":"4","last_reported":1749650973,"current_range_meters":13600,"station_id":"","pricing_plan_id":"cebpf4jnsgd1na2vs0mg"},{"bike_id":"5c7467ea-1bef-475a-a3c5-09e2c36bf23b","system_id":"levelo_inurba_marseille","lat":43.295618,"lon":5.422853,"is_reserved":false,"is_disabled":false,"rental_uris":{"android":"levelo://app?vid=5c7467ea-1bef-475a-a3c5-09e2c36bf23b","ios":"levelo://app?vid=5c7467ea-1bef-475a-a3c5-09e2c36bf23b"},"vehicle_type_id":"4","last_reported":1749650973,"current_range_meters":13600,"station_id":"ce4bhph2rcd13ifvqhdg","pricing_plan_id":"cebpf4jnsgd1na2vs0mg"},{"bike_id":"b19392b5-26ec-49b5-8e73-78ccc41924b6","system_id":"levelo_inurba_marseille","lat":43.279258,"lon":5.395792,"is_reserved":false,"is_disabled":false,"rental_uris":{"android":"levelo://app?vid=b19392b5-26ec-49b5-8e73-78ccc41924b6","ios":"levelo://app?vid=b19392b5-26ec-49b5-8e73-78ccc41924b6"},"vehicle_type_id":"4","last_reported":1749650973,"current_range_meters":6800,"station_id":"ce4bhf92rcd13ifvqf40","pricing_plan_id":"cebpf4jnsgd1na2vs0mg"},{"bike_id":"b3756de2-3ea6-46d8-af5f-145bab01ee1a","system_id":"levelo_inurba_marseille","lat":43.31721,"lon":5.3777,"is_reserved":false,"is_disabled":false,"rental_uris":{"android":"levelo://app?vid=b3756de2-3ea6-46d8-af5f-145bab01ee1a","ios":"levelo://app?vid=b3756de2-3ea6-46d8-af5f-145bab01ee1a"},"vehicle_type_id":"4","last_reported":1749650973,"current_range_meters":14000,"station_id":"ce4bgth2rcd13ifvqch0","pricing_plan_id":"cebpf4jnsgd1na2vs0mg"},{"bike_id":"5bf6ad64-3ee1-4d38-b9dd-fa21f2838116","system_id":"levelo_inurba_marseille","lat":43.25862,"lon":5.39944,"is_reserved":false,"is_disabled":false,"rental_uris":{"android":"levelo://app?vid=5bf6ad64-3ee1-4d38-b9dd-fa21f2838116","ios":"levelo://app?vid=5bf6ad64-3ee1-4d38-b9dd-fa21f2838116"},"vehicle_type_id":"4","last_reported":1749650973,"current_range_meters":14000,"station_id":"ce4bhl92rcd13ifvqghg","pricing_plan_id":"cebpf4jnsgd1na2vs0mg"},{"bike_id":"86ce32ec-7297-4f70-b1db-afe4188d7849","system_id":"levelo_inurba_marseille","lat":43.29577,"lon":5.37525,"is_reserved":false,"is_disabled":false,"rental_uris":{"android":"levelo://app?vid=86ce32ec-7297-4f70-b1db-afe4188d7849","ios":"levelo://app?vid=86ce32ec-7297-4f70-b1db-afe4188d7849"},"vehicle_type_id":"4","last_reported":1749650973,"current_range_meters":14000,"station_id":"ce4bgh92rcd13ifvqb50","pricing_plan_id":"cebpf4jnsgd1na2vs0mg"},{"bike_id":"26458859-f290-440c-ae9c-21fae7264218","system_id":"levelo_inurba_marseille","lat":43.28279,"lon":5.35082,"is_reserved":false,"is_disabled":false,"rental_uris":{"android":"levelo://app?vid=26458859-f290-440c-ae9c-21fae7264218","ios":"levelo://app?vid=26458859-f290-440c-ae9c-21fae7264218"},"vehicle_type_id":"4","last_reported":1749650973,"current_range_meters":14000,"station_id":"ce4bhbp2rcd13ifvqerg","pricing_plan_id":"cebpf4jnsgd1na2vs0mg"},{"bike_id":"859c6d64-1885-4daa-9e95-5e7e4571efc2","system_id":"levelo_inurba_marseille","lat":43.22936,"lon":5.35369,"is_reserved":false,"is_disabled":false,"rental_uris":{"android":"levelo://app?vid=859c6d64-1885-4daa-9e95-5e7e4571efc2","ios":"levelo://app?vid=859c6d64-1885-4daa-9e95-5e7e4571efc2"},"vehicle_type_id":"4","last_reported":1749650973,"current_range_meters":14000,"station_id":"cpo3532slgdg3j2ikp40","pricing_plan_id":"cebpf4jnsgd1na2vs0mg"},{"bike_id":"ebd81f5c-c72b-41b3-9b8a-ea92d99da3f6","system_id":"levelo_inurba_marseille","lat":43.29711,"lon":5.37709,"is_reserved":false,"is_disabled":false,"rental_uris":{"android":"levelo://app?vid=ebd81f5c-c72b-41b3-9b8a-ea92d99da3f6","ios":"levelo://app?vid=ebd81f5c-c72b-41b3-9b8a-ea92d99da3f6"},"vehicle_type_id":"4","last_reported":1749650973,"current_range_meters":13600,"station_id":"ce4bgkh2rcd13ifvqbl0","pricing_plan_id":"cebpf4jnsgd1na2vs0mg"},{"bike_id":"b7e94bf0-2e0f-44b7-9ffc-6263c0b44875","system_id":"levelo_inurba_marseille","lat":43.258621,"lon":5.399015,"is_reserved":false,"is_disabled":false,"rental_uris":{"android":"levelo://app?vid=b7e94bf0-2e0f-44b7-9ffc-6263c0b44875","ios":"levelo://app?vid=b7e94bf0-2e0f-44b7-9ffc-6263c0b44875"},"vehicle_type_id":"4","last_reported":1749650973,"current_range_meters":14000,"station_id":"ce4bhl92rcd13ifvqghg","pricing_plan_id":"cebpf4jnsgd1na2vs0mg"},{"bike_id":"be6fb3cb-72c8-41d7-abfd-34b68dd1b50b","system_id":"levelo_inurba_marseille","lat":43.29946,"lon":5.3648,"is_reserved":false,"is_disabled":false,"rental_uris":{"android":"levelo://app?vid=be6fb3cb-72c8-41d7-abfd-34b68dd1b50b","ios":"levelo://app?vid=be6fb3cb-72c8-41d7-abfd-34b68dd1b50b"},"vehicle_type_id":"4","last_reported":1749650973,"current_range_meters":14400,"station_id":"ce4bgm92rcd13ifvqbr0","pricing_plan_id":"cebpf4jnsgd1na2vs0mg"},{"bike_id":"08d78a49-d56a-4007-bfe7-ef80380d51ac","system_id":"levelo_inurba_marseille","lat":43.28268,"lon":5.35068,"is_reserved":false,"is_disabled":false,"rental_uris":{"android":"levelo://app?vid=08d78a49-d56a-4007-bfe7-ef80380d51ac","ios":"levelo://app?vid=08d78a49-d56a-4007-bfe7-ef80380d51ac"},"vehicle_type_id":"4","last_reported":1749650973,"current_range_meters":14400,"station_id":"ce4bhbp2rcd13ifvqerg","pricing_plan_id":"cebpf4jnsgd1na2vs0mg"},{"bike_id":"93ef794d-cb0e-473a-bc88-9daede084d5a","system_id":"levelo_inurba_marseille","lat":43.28679,"lon":5.38665,"is_reserved":false,"is_disabled":false,"rental_uris":{"android":"levelo://app?vid=93ef794d-cb0e-473a-bc88-9daede084d5a","ios":"levelo://app?vid=93ef794d-cb0e-473a-bc88-9daede084d5a"},"vehicle_type_id":"4","last_reported":1749650973,"current_range_meters":14400,"station_id":"ce4bh492rcd13ifvqdug","pricing_plan_id":"cebpf4jnsgd1na2vs0mg"},{"bike_id":"0a0d22f9-9ff9-40f8-9d93-4c86d6393e23","system_id":"levelo_inurba_marseille","lat":43.26212,"lon":5.37448,"is_reserved":false,"is_disabled":false,"rental_uris":{"android":"levelo://app?vid=0a0d22f9-9ff9-40f8-9d93-4c86d6393e23","ios":"levelo://app?vid=0a0d22f9-9ff9-40f8-9d93-4c86d6393e23"},"vehicle_type_id":"4","last_reported":1749650973,"current_range_meters":14400,"station_id":"ce4bhgp2rcd13ifvqfc0","pricing_plan_id":"cebpf4jnsgd1na2vs0mg"},{"bike_id":"d6515318-ac2c-47f0-b0e4-ac5ab2c5d151","system_id":"levelo_inurba_marseille","lat":43.241685,"lon":5.363955,"is_reserved":false,"is_disabled":false,"rental_uris":{"android":"levelo://app?vid=d6515318-ac2c-47f0-b0e4-ac5ab2c5d151","ios":"levelo://app?vid=d6515318-ac2c-47f0-b0e4-ac5ab2c5d151"},"vehicle_type_id":"4","last_reported":1749650973,"current_range_meters":14400,"station_id":"cpo36qri1sfpv3e86is0","pricing_plan_id":"cebpf4jnsgd1na2vs0mg"},{"bike_id":"1f04e75b-6a81-4bb7-9235-6d0c70895a69","system_id":"levelo_inurba_marseille","lat":43.33712,"lon":5.39218,"is_reserved":false,"is_disabled":false,"rental_uris":{"android":"levelo://app?vid=1f04e75b-6a81-4bb7-9235-6d0c70895a69","ios":"levelo://app?vid=1f04e75b-6a81-4bb7-9235-6d0c70895a69"},"vehicle_type_id":"4","last_reported":1749650973,"current_range_meters":14400,"station_id":"ce4bhr92rcd13ifvqhsg","pricing_plan_id":"cebpf4jnsgd1na2vs0mg"},{"bike_id":"ad12b1f9-78f7-4234-a8e5-e38aa3bd23b9","system_id":"levelo_inurba_marseille","lat":43.29021,"lon":5.38642,"is_reserved":false,"is_disabled":false,"rental_uris":{"android":"levelo://app?vid=ad12b1f9-78f7-4234-a8e5-e38aa3bd23b9","ios":"levelo://app?vid=ad12b1f9-78f7-4234-a8e5-e38aa3bd23b9"},"vehicle_type_id":"4","last_reported":1749650973,"current_range_meters":14800,"station_id":"ce4bh4p2rcd13ifvqe0g","pricing_plan_id":"cebpf4jnsgd1na2vs0mg"},{"bike_id":"6d5831a3-c866-478e-ae3e-493cd816d844","system_id":"levelo_inurba_marseille","lat":43.28414,"lon":5.34976,"is_reserved":false,"is_disabled":false,"rental_uris":{"android":"levelo://app?vid=6d5831a3-c866-478e-ae3e-493cd816d844","ios":"levelo://app?vid=6d5831a3-c866-478e-ae3e-493cd816d844"},"vehicle_type_id":"4","last_reported":1749650973,"current_range_meters":14800,"station_id":"ce4bhbh2rcd13ifvqepg","pricing_plan_id":"cebpf4jnsgd1na2vs0mg"},{"bike_id":"15f13abb-827a-4eaf-b261-63d37d33f861","system_id":"levelo_inurba_marseille","lat":43.28263,"lon":5.35069,"is_reserved":false,"is_disabled":false,"rental_uris":{"android":"levelo://app?vid=15f13abb-827a-4eaf-b261-63d37d33f861","ios":"levelo://app?vid=15f13abb-827a-4eaf-b261-63d37d33f861"},"vehicle_type_id":"4","last_reported":1749650973,"current_range_meters":14800,"station_id":"ce4bhbp2rcd13ifvqerg","pricing_plan_id":"cebpf4jnsgd1na2vs0mg"},{"bike_id":"9cba3c6f-bcb2-4e2f-becf-e5754c5a8058","system_id":"levelo_inurba_marseille","lat":43.2903,"lon":5.37565,"is_reserved":false,"is_disabled":false,"rental_uris":{"android":"levelo://app?vid=9cba3c6f-bcb2-4e2f-becf-e5754c5a8058","ios":"levelo://app?vid=9cba3c6f-bcb2-4e2f-becf-e5754c5a8058"},"vehicle_type_id":"4","last_reported":1749650973,"current_range_meters":15200,"station_id":"ce4bh692rcd13ifvqe90","pricing_plan_id":"cebpf4jnsgd1na2vs0mg"},{"bike_id":"3d3604e2-7c6c-48fd-9f51-e25f72e6d4d9","system_id":"levelo_inurba_marseille","lat":43.27376,"lon":5.36275,"is_reserved":false,"is_disabled":false,"rental_uris":{"android":"levelo://app?vid=3d3604e2-7c6c-48fd-9f51-e25f72e6d4d9","ios":"levelo://app?vid=3d3604e2-7c6c-48fd-9f51-e25f72e6d4d9"},"vehicle_type_id":"4","last_reported":1749650973,"current_range_meters":15200,"station_id":"ce4bhbh2rcd13ifvqeo0","pricing_plan_id":"cebpf4jnsgd1na2vs0mg"},{"bike_id":"a2421370-e442-436f-a98a-844d44299694","system_id":"levelo_inurba_marseille","lat":43.32389,"lon":5.36745,"is_reserved":false,"is_disabled":false,"rental_uris":{"android":"levelo://app?vid=a2421370-e442-436f-a98a-844d44299694","ios":"levelo://app?vid=a2421370-e442-436f-a98a-844d44299694"},"vehicle_type_id":"4","last_reported":1749650973,"current_range_meters":15200,"station_id":"","pricing_plan_id":"cebpf4jnsgd1na2vs0mg"},{"bike_id":"a7061507-877b-4e7c-9377-91083948e064","system_id":"levelo_inurba_marseille","lat":43.2737,"lon":5.3626,"is_reserved":false,"is_disabled":false,"rental_uris":{"android":"levelo://app?vid=a7061507-877b-4e7c-9377-91083948e064","ios":"levelo://app?vid=a7061507-877b-4e7c-9377-91083948e064"},"vehicle_type_id":"4","last_reported":1749650973,"current_range_meters":15200,"station_id":"ce4bhbh2rcd13ifvqeo0","pricing_plan_id":"cebpf4jnsgd1na2vs0mg"},{"bike_id":"03e99185-e778-4ccf-af48-bb80112546c3","system_id":"levelo_inurba_marseille","lat":43.26221,"lon":5.37425,"is_reserved":false,"is_disabled":false,"rental_uris":{"android":"levelo://app?vid=03e99185-e778-4ccf-af48-bb80112546c3","ios":"levelo://app?vid=03e99185-e778-4ccf-af48-bb80112546c3"},"vehicle_type_id":"4","last_reported":1749650973,"current_range_meters":15200,"station_id":"","pricing_plan_id":"cebpf4jnsgd1na2vs0mg"},{"bike_id":"01b53ea9-5963-4456-ac52-b335e6cee31c","system_id":"levelo_inurba_marseille","lat":43.28422,"lon":5.35044,"is_reserved":false,"is_disabled":false,"rental_uris":{"android":"levelo://app?vid=01b53ea9-5963-4456-ac52-b335e6cee31c","ios":"levelo://app?vid=01b53ea9-5963-4456-ac52-b335e6cee31c"},"vehicle_type_id":"4","last_reported":1749650973,"current_range_meters":15200,"station_id":"ce4bhbh2rcd13ifvqepg","pricing_plan_id":"cebpf4jnsgd1na2vs0mg"},{"bike_id":"bb91090f-e81b-4759-8b5f-d983809784eb","system_id":"levelo_inurba_marseille","lat":43.30091,"lon":5.39073,"is_reserved":false,"is_disabled":false,"rental_uris":{"android":"levelo://app?vid=bb91090f-e81b-4759-8b5f-d983809784eb","ios":"levelo://app?vid=bb91090f-e81b-4759-8b5f-d983809784eb"},"vehicle_type_id":"4","last_reported":1749650973,"current_range_meters":15200,"station_id":"ce4bh192rcd13ifvqdb0","pricing_plan_id":"cebpf4jnsgd1na2vs0mg"},{"bike_id":"ff6779a1-4f4c-471b-ab85-6c361d5c8c03","system_id":"levelo_inurba_marseille","lat":43.3136,"lon":5.367133,"is_reserved":false,"is_disabled":false,"rental_uris":{"android":"levelo://app?vid=ff6779a1-4f4c-471b-ab85-6c361d5c8c03","ios":"levelo://app?vid=ff6779a1-4f4c-471b-ab85-6c361d5c8c03"},"vehicle_type_id":"4","last_reported":1749650973,"current_range_meters":15200,"station_id":"ce4bgr92rcd13ifvqc6g","pricing_plan_id":"cebpf4jnsgd1na2vs0mg"},{"bike_id":"354a1076-00d7-46ec-830b-28e28e2cb143","system_id":"levelo_inurba_marseille","lat":43.292822,"lon":5.368403,"is_reserved":false,"is_disabled":true,"rental_uris":{"android":"levelo://app?vid=354a1076-00d7-46ec-830b-28e28e2cb143","ios":"levelo://app?vid=354a1076-00d7-46ec-830b-28e28e2cb143"},"vehicle_type_id":"4","last_reported":1749650973,"current_range_meters":15200,"station_id":"ce4bhbh2rcd13ifvqeqg","pricing_plan_id":"cebpf4jnsgd1na2vs0mg"},{"bike_id":"1c533ff4-5987-4762-9e10-a2a1d8221238","system_id":"levelo_inurba_marseille","lat":43.28267,"lon":5.35066,"is_reserved":false,"is_disabled":false,"rental_uris":{"android":"levelo://app?vid=1c533ff4-5987-4762-9e10-a2a1d8221238","ios":"levelo://app?vid=1c533ff4-5987-4762-9e10-a2a1d8221238"},"vehicle_type_id":"4","last_reported":1749650973,"current_range_meters":16000,"station_id":"ce4bhbp2rcd13ifvqerg","pricing_plan_id":"cebpf4jnsgd1na2vs0mg"},{"bike_id":"e70c17ea-cf15-4cd8-8ca9-87d54374f23f","system_id":"levelo_inurba_marseille","lat":43.286133,"lon":5.350969,"is_reserved":false,"is_disabled":false,"rental_uris":{"android":"levelo://app?vid=e70c17ea-cf15-4cd8-8ca9-87d54374f23f","ios":"levelo://app?vid=e70c17ea-cf15-4cd8-8ca9-87d54374f23f"},"vehicle_type_id":"4","last_reported":1749650973,"current_range_meters":16000,"station_id":"ce4bhch2rcd13ifvqeug","pricing_plan_id":"cebpf4jnsgd1na2vs0mg"},{"bike_id":"e8cc25e3-298d-4fe0-8729-3cb801708422","system_id":"levelo_inurba_marseille","lat":43.26215,"lon":5.37449,"is_reserved":false,"is_disabled":false,"rental_uris":{"android":"levelo://app?vid=e8cc25e3-298d-4fe0-8729-3cb801708422","ios":"levelo://app?vid=e8cc25e3-298d-4fe0-8729-3cb801708422"},"vehicle_type_id":"4","last_reported":1749650973,"current_range_meters":16000,"station_id":"ce4bhgp2rcd13ifvqfc0","pricing_plan_id":"cebpf4jnsgd1na2vs0mg"},{"bike_id":"f10adc7e-6a3a-4a5d-9515-dc52fefe2058","system_id":"levelo_inurba_marseille","lat":43.32391,"lon":5.36772,"is_reserved":false,"is_disabled":false,"rental_uris":{"android":"levelo://app?vid=f10adc7e-6a3a-4a5d-9515-dc52fefe2058","ios":"levelo://app?vid=f10adc7e-6a3a-4a5d-9515-dc52fefe2058"},"vehicle_type_id":"4","last_reported":1749650973,"current_range_meters":16000,"station_id":"ce4bhsh2rcd13ifvqi2g","pricing_plan_id":"cebpf4jnsgd1na2vs0mg"},{"bike_id":"2f5d3f4f-d580-440f-b018-fc1b48a6c89f","system_id":"levelo_inurba_marseille","lat":43.26215,"lon":5.37445,"is_reserved":false,"is_disabled":false,"rental_uris":{"android":"levelo://app?vid=2f5d3f4f-d580-440f-b018-fc1b48a6c89f","ios":"levelo://app?vid=2f5d3f4f-d580-440f-b018-fc1b48a6c89f"},"vehicle_type_id":"4","last_reported":1749650973,"current_range_meters":16000,"station_id":"ce4bhgp2rcd13ifvqfc0","pricing_plan_id":"cebpf4jnsgd1na2vs0mg"},{"bike_id":"19595ba8-269f-4072-b728-02e45335d934","system_id":"levelo_inurba_marseille","lat":43.2293,"lon":5.35378,"is_reserved":false,"is_disabled":false,"rental_uris":{"android":"levelo://app?vid=19595ba8-269f-4072-b728-02e45335d934","ios":"levelo://app?vid=19595ba8-269f-4072-b728-02e45335d934"},"vehicle_type_id":"4","last_reported":1749650973,"current_range_meters":16000,"station_id":"cpo3532slgdg3j2ikp40","pricing_plan_id":"cebpf4jnsgd1na2vs0mg"},{"bike_id":"b1e72ba7-b4c9-4fe9-80c0-8b85a1ce12cf","system_id":"levelo_inurba_marseille","lat":43.28043,"lon":5.36963,"is_reserved":false,"is_disabled":false,"rental_uris":{"android":"levelo://app?vid=b1e72ba7-b4c9-4fe9-80c0-8b85a1ce12cf","ios":"levelo://app?vid=b1e72ba7-b4c9-4fe9-80c0-8b85a1ce12cf"},"vehicle_type_id":"4","last_reported":1749650973,"current_range_meters":16000,"station_id":"ce4bha12rcd13ifvqef0","pricing_plan_id":"cebpf4jnsgd1na2vs0mg"},{"bike_id":"b46fc879-cbd2-489e-b2ca-045773f8f23d","system_id":"levelo_inurba_marseille","lat":43.27378,"lon":5.36257,"is_reserved":false,"is_disabled":false,"rental_uris":{"android":"levelo://app?vid=b46fc879-cbd2-489e-b2ca-045773f8f23d","ios":"levelo://app?vid=b46fc879-cbd2-489e-b2ca-045773f8f23d"},"vehicle_type_id":"4","last_reported":1749650973,"current_range_meters":16400,"station_id":"ce4bhbh2rcd13ifvqeo0","pricing_plan_id":"cebpf4jnsgd1na2vs0mg"},{"bike_id":"41121bbb-65ee-4060-800d-e6dafe477f40","system_id":"levelo_inurba_marseille","lat":43.26678,"lon":5.38269,"is_reserved":false,"is_disabled":false,"rental_uris":{"android":"levelo://app?vid=41121bbb-65ee-4060-800d-e6dafe477f40","ios":"levelo://app?vid=41121bbb-65ee-4060-800d-e6dafe477f40"},"vehicle_type_id":"4","last_reported":1749650973,"current_range_meters":16400,"station_id":"ce4bhg92rcd13ifvqf90","pricing_plan_id":"cebpf4jnsgd1na2vs0mg"},{"bike_id":"b9a737ad-9c75-4d31-8471-3b361c150d7e","system_id":"levelo_inurba_marseille","lat":43.30791,"lon":5.38148,"is_reserved":false,"is_disabled":false,"rental_uris":{"android":"levelo://app?vid=b9a737ad-9c75-4d31-8471-3b361c150d7e","ios":"levelo://app?vid=b9a737ad-9c75-4d31-8471-3b361c150d7e"},"vehicle_type_id":"4","last_reported":1749650973,"current_range_meters":16400,"station_id":"ce4bgt12rcd13ifvqce0","pricing_plan_id":"cebpf4jnsgd1na2vs0mg"},{"bike_id":"54265529-c802-41ea-a434-8efe037aed4d","system_id":"levelo_inurba_marseille","lat":43.28416,"lon":5.35022,"is_reserved":false,"is_disabled":false,"rental_uris":{"android":"levelo://app?vid=54265529-c802-41ea-a434-8efe037aed4d","ios":"levelo://app?vid=54265529-c802-41ea-a434-8efe037aed4d"},"vehicle_type_id":"4","last_reported":1749650973,"current_range_meters":16400,"station_id":"ce4bhbh2rcd13ifvqepg","pricing_plan_id":"cebpf4jnsgd1na2vs0mg"},{"bike_id":"5d246fd1-33da-431f-91fc-99a20ca865ec","system_id":"levelo_inurba_marseille","lat":43.28258,"lon":5.35063,"is_reserved":false,"is_disabled":false,"rental_uris":{"android":"levelo://app?vid=5d246fd1-33da-431f-91fc-99a20ca865ec","ios":"levelo://app?vid=5d246fd1-33da-431f-91fc-99a20ca865ec"},"vehicle_type_id":"4","last_reported":1749650973,"current_range_meters":16400,"station_id":"ce4bhbp2rcd13ifvqerg","pricing_plan_id":"cebpf4jnsgd1na2vs0mg"},{"bike_id":"30363637-f3fc-4f55-a597-39640ddabe7f","system_id":"levelo_inurba_marseille","lat":43.27188,"lon":5.40989,"is_reserved":false,"is_disabled":false,"rental_uris":{"android":"levelo://app?vid=30363637-f3fc-4f55-a597-39640ddabe7f","ios":"levelo://app?vid=30363637-f3fc-4f55-a597-39640ddabe7f"},"vehicle_type_id":"4","last_reported":1749650973,"current_range_meters":16800,"station_id":"ce4bhl12rcd13ifvqgf0","pricing_plan_id":"cebpf4jnsgd1na2vs0mg"},{"bike_id":"638b9117-c70b-47a3-9192-610d8a8acdda","system_id":"levelo_inurba_marseille","lat":43.29916,"lon":5.43648,"is_reserved":false,"is_disabled":false,"rental_uris":{"android":"levelo://app?vid=638b9117-c70b-47a3-9192-610d8a8acdda","ios":"levelo://app?vid=638b9117-c70b-47a3-9192-610d8a8acdda"},"vehicle_type_id":"4","last_reported":1749650973,"current_range_meters":16800,"station_id":"ce4bhpp2rcd13ifvqhfg","pricing_plan_id":"cebpf4jnsgd1na2vs0mg"},{"bike_id":"59808e72-1866-4f4a-8f11-f6d75ee68c9b","system_id":"levelo_inurba_marseille","lat":43.28414,"lon":5.34993,"is_reserved":false,"is_disabled":false,"rental_uris":{"android":"levelo://app?vid=59808e72-1866-4f4a-8f11-f6d75ee68c9b","ios":"levelo://app?vid=59808e72-1866-4f4a-8f11-f6d75ee68c9b"},"vehicle_type_id":"4","last_reported":1749650973,"current_range_meters":16800,"station_id":"ce4bhbh2rcd13ifvqepg","pricing_plan_id":"cebpf4jnsgd1na2vs0mg"},{"bike_id":"743245d4-5457-49b9-9efc-d95c90d69b8e","system_id":"levelo_inurba_marseille","lat":43.314873,"lon":5.373081,"is_reserved":false,"is_disabled":false,"rental_uris":{"android":"levelo://app?vid=743245d4-5457-49b9-9efc-d95c90d69b8e","ios":"levelo://app?vid=743245d4-5457-49b9-9efc-d95c90d69b8e"},"vehicle_type_id":"4","last_reported":1749650973,"current_range_meters":16800,"station_id":"ce4bhip2rcd13ifvqft0","pricing_plan_id":"cebpf4jnsgd1na2vs0mg"},{"bike_id":"8205fab4-be12-48dc-a261-e4365068b63e","system_id":"levelo_inurba_marseille","lat":43.30095,"lon":5.39076,"is_reserved":false,"is_disabled":false,"rental_uris":{"android":"levelo://app?vid=8205fab4-be12-48dc-a261-e4365068b63e","ios":"levelo://app?vid=8205fab4-be12-48dc-a261-e4365068b63e"},"vehicle_type_id":"4","last_reported":1749650973,"current_range_meters":16400,"station_id":"ce4bh192rcd13ifvqdb0","pricing_plan_id":"cebpf4jnsgd1na2vs0mg"},{"bike_id":"7f6c80d6-b015-4145-8e00-338178446921","system_id":"levelo_inurba_marseille","lat":43.25097,"lon":5.39528,"is_reserved":false,"is_disabled":true,"rental_uris":{"android":"levelo://app?vid=7f6c80d6-b015-4145-8e00-338178446921","ios":"levelo://app?vid=7f6c80d6-b015-4145-8e00-338178446921"},"vehicle_type_id":"4","last_reported":1749650973,"current_range_meters":16800,"station_id":"ce4bhm12rcd13ifvqgkg","pricing_plan_id":"cebpf4jnsgd1na2vs0mg"},{"bike_id":"7c0b50d1-65fb-4f5f-b862-31d84af9b056","system_id":"levelo_inurba_marseille","lat":43.30093,"lon":5.39071,"is_reserved":false,"is_disabled":false,"rental_uris":{"android":"levelo://app?vid=7c0b50d1-65fb-4f5f-b862-31d84af9b056","ios":"levelo://app?vid=7c0b50d1-65fb-4f5f-b862-31d84af9b056"},"vehicle_type_id":"4","last_reported":1749650973,"current_range_meters":16800,"station_id":"ce4bh192rcd13ifvqdb0","pricing_plan_id":"cebpf4jnsgd1na2vs0mg"},{"bike_id":"90d37cd4-456e-43a2-b8f5-3a3b7fcdd7ef","system_id":"levelo_inurba_marseille","lat":43.28262,"lon":5.35061,"is_reserved":false,"is_disabled":false,"rental_uris":{"android":"levelo://app?vid=90d37cd4-456e-43a2-b8f5-3a3b7fcdd7ef","ios":"levelo://app?vid=90d37cd4-456e-43a2-b8f5-3a3b7fcdd7ef"},"vehicle_type_id":"4","last_reported":1749650973,"current_range_meters":16800,"station_id":"ce4bhbp2rcd13ifvqerg","pricing_plan_id":"cebpf4jnsgd1na2vs0mg"},{"bike_id":"180ffd24-5423-43d5-8d14-f520675a67d0","system_id":"levelo_inurba_marseille","lat":43.26215,"lon":5.37443,"is_reserved":false,"is_disabled":false,"rental_uris":{"android":"levelo://app?vid=180ffd24-5423-43d5-8d14-f520675a67d0","ios":"levelo://app?vid=180ffd24-5423-43d5-8d14-f520675a67d0"},"vehicle_type_id":"4","last_reported":1749650973,"current_range_meters":16800,"station_id":"ce4bhgp2rcd13ifvqfc0","pricing_plan_id":"cebpf4jnsgd1na2vs0mg"},{"bike_id":"707fb64a-4983-4a34-ade7-ee60c8e43453","system_id":"levelo_inurba_marseille","lat":43.23176,"lon":5.43688,"is_reserved":false,"is_disabled":false,"rental_uris":{"android":"levelo://app?vid=707fb64a-4983-4a34-ade7-ee60c8e43453","ios":"levelo://app?vid=707fb64a-4983-4a34-ade7-ee60c8e43453"},"vehicle_type_id":"4","last_reported":1749650973,"current_range_meters":16800,"station_id":"ce4bhmp2rcd13ifvqgog","pricing_plan_id":"cebpf4jnsgd1na2vs0mg"},{"bike_id":"a0ba27d9-6955-439b-b334-b6f6fa47bd8e","system_id":"levelo_inurba_marseille","lat":43.26209,"lon":5.37453,"is_reserved":false,"is_disabled":false,"rental_uris":{"android":"levelo://app?vid=a0ba27d9-6955-439b-b334-b6f6fa47bd8e","ios":"levelo://app?vid=a0ba27d9-6955-439b-b334-b6f6fa47bd8e"},"vehicle_type_id":"4","last_reported":1749650973,"current_range_meters":16800,"station_id":"ce4bhgp2rcd13ifvqfc0","pricing_plan_id":"cebpf4jnsgd1na2vs0mg"},{"bike_id":"048f2f2b-8e86-4fe8-80fa-0a30dafb1ed2","system_id":"levelo_inurba_marseille","lat":43.298596,"lon":5.362928,"is_reserved":false,"is_disabled":false,"rental_uris":{"android":"levelo://app?vid=048f2f2b-8e86-4fe8-80fa-0a30dafb1ed2","ios":"levelo://app?vid=048f2f2b-8e86-4fe8-80fa-0a30dafb1ed2"},"vehicle_type_id":"4","last_reported":1749650973,"current_range_meters":17200,"station_id":"","pricing_plan_id":"cebpf4jnsgd1na2vs0mg"},{"bike_id":"b12fd49d-dbb2-407f-8167-34d1101fff66","system_id":"levelo_inurba_marseille","lat":43.23157,"lon":5.43712,"is_reserved":false,"is_disabled":false,"rental_uris":{"android":"levelo://app?vid=b12fd49d-dbb2-407f-8167-34d1101fff66","ios":"levelo://app?vid=b12fd49d-dbb2-407f-8167-34d1101fff66"},"vehicle_type_id":"4","last_reported":1749650973,"current_range_meters":17200,"station_id":"ce4bhmp2rcd13ifvqgog","pricing_plan_id":"cebpf4jnsgd1na2vs0mg"},{"bike_id":"039ed616-6c9e-4315-a239-6d6553aeee4b","system_id":"levelo_inurba_marseille","lat":43.298737,"lon":5.374455,"is_reserved":false,"is_disabled":false,"rental_uris":{"android":"levelo://app?vid=039ed616-6c9e-4315-a239-6d6553aeee4b","ios":"levelo://app?vid=039ed616-6c9e-4315-a239-6d6553aeee4b"},"vehicle_type_id":"4","last_reported":1749650973,"current_range_meters":17200,"station_id":"ce4bgjh2rcd13ifvqbg0","pricing_plan_id":"cebpf4jnsgd1na2vs0mg"},{"bike_id":"ac364231-74ad-4a87-9a19-da14597901e8","system_id":"levelo_inurba_marseille","lat":43.28267,"lon":5.35073,"is_reserved":false,"is_disabled":false,"rental_uris":{"android":"levelo://app?vid=ac364231-74ad-4a87-9a19-da14597901e8","ios":"levelo://app?vid=ac364231-74ad-4a87-9a19-da14597901e8"},"vehicle_type_id":"4","last_reported":1749650973,"current_range_meters":17200,"station_id":"ce4bhbp2rcd13ifvqerg","pricing_plan_id":"cebpf4jnsgd1na2vs0mg"},{"bike_id":"8401f5cc-8a2b-4da6-9a6e-a8dd35a555da","system_id":"levelo_inurba_marseille","lat":43.29578,"lon":5.37584,"is_reserved":false,"is_disabled":false,"rental_uris":{"android":"levelo://app?vid=8401f5cc-8a2b-4da6-9a6e-a8dd35a555da","ios":"levelo://app?vid=8401f5cc-8a2b-4da6-9a6e-a8dd35a555da"},"vehicle_type_id":"4","last_reported":1749650973,"current_range_meters":17200,"station_id":"","pricing_plan_id":"cebpf4jnsgd1na2vs0mg"},{"bike_id":"4634d944-f29d-4c22-9607-26d5765c28a8","system_id":"levelo_inurba_marseille","lat":43.28267,"lon":5.35076,"is_reserved":false,"is_disabled":false,"rental_uris":{"android":"levelo://app?vid=4634d944-f29d-4c22-9607-26d5765c28a8","ios":"levelo://app?vid=4634d944-f29d-4c22-9607-26d5765c28a8"},"vehicle_type_id":"4","last_reported":1749650973,"current_range_meters":17200,"station_id":"ce4bhbp2rcd13ifvqerg","pricing_plan_id":"cebpf4jnsgd1na2vs0mg"},{"bike_id":"5b5bd648-0748-4ed8-82f6-4224fa62522d","system_id":"levelo_inurba_marseille","lat":43.2619,"lon":5.37449,"is_reserved":false,"is_disabled":false,"rental_uris":{"android":"levelo://app?vid=5b5bd648-0748-4ed8-82f6-4224fa62522d","ios":"levelo://app?vid=5b5bd648-0748-4ed8-82f6-4224fa62522d"},"vehicle_type_id":"4","last_reported":1749650973,"current_range_meters":17200,"station_id":"ce4bhgp2rcd13ifvqfc0","pricing_plan_id":"cebpf4jnsgd1na2vs0mg"},{"bike_id":"c887d6c2-3132-4ba9-94a5-3fd697b52b4f","system_id":"levelo_inurba_marseille","lat":43.27374,"lon":5.362673,"is_reserved":false,"is_disabled":false,"rental_uris":{"android":"levelo://app?vid=c887d6c2-3132-4ba9-94a5-3fd697b52b4f","ios":"levelo://app?vid=c887d6c2-3132-4ba9-94a5-3fd697b52b4f"},"vehicle_type_id":"4","last_reported":1749650973,"current_range_meters":17200,"station_id":"ce4bhbh2rcd13ifvqeo0","pricing_plan_id":"cebpf4jnsgd1na2vs0mg"},{"bike_id":"165ecccf-321b-45ee-abfd-553d9801aac0","system_id":"levelo_inurba_marseille","lat":43.29036,"lon":5.35553,"is_reserved":false,"is_disabled":false,"rental_uris":{"android":"levelo://app?vid=165ecccf-321b-45ee-abfd-553d9801aac0","ios":"levelo://app?vid=165ecccf-321b-45ee-abfd-553d9801aac0"},"vehicle_type_id":"4","last_reported":1749650973,"current_range_meters":17200,"station_id":"","pricing_plan_id":"cebpf4jnsgd1na2vs0mg"},{"bike_id":"016d82f6-fa80-4e01-b303-3a4ee311589e","system_id":"levelo_inurba_marseille","lat":43.32337,"lon":5.40618,"is_reserved":false,"is_disabled":false,"rental_uris":{"android":"levelo://app?vid=016d82f6-fa80-4e01-b303-3a4ee311589e","ios":"levelo://app?vid=016d82f6-fa80-4e01-b303-3a4ee311589e"},"vehicle_type_id":"4","last_reported":1749650973,"current_range_meters":17200,"station_id":"ce4bhq92rcd13ifvqhjg","pricing_plan_id":"cebpf4jnsgd1na2vs0mg"},{"bike_id":"75972bf2-2bf4-4046-8c96-628054edc17b","system_id":"levelo_inurba_marseille","lat":43.30422,"lon":5.38883,"is_reserved":false,"is_disabled":false,"rental_uris":{"android":"levelo://app?vid=75972bf2-2bf4-4046-8c96-628054edc17b","ios":"levelo://app?vid=75972bf2-2bf4-4046-8c96-628054edc17b"},"vehicle_type_id":"4","last_reported":1749650973,"current_range_meters":17200,"station_id":"ce4bgk12rcd13ifvqbi0","pricing_plan_id":"cebpf4jnsgd1na2vs0mg"},{"bike_id":"8db979f1-3ad6-404c-b01d-434b9d08f21c","system_id":"levelo_inurba_marseille","lat":43.24074,"lon":5.37768,"is_reserved":false,"is_disabled":false,"rental_uris":{"android":"levelo://app?vid=8db979f1-3ad6-404c-b01d-434b9d08f21c","ios":"levelo://app?vid=8db979f1-3ad6-404c-b01d-434b9d08f21c"},"vehicle_type_id":"4","last_reported":1749650973,"current_range_meters":17200,"station_id":"ce4bhnp2rcd13ifvqgvg","pricing_plan_id":"cebpf4jnsgd1na2vs0mg"},{"bike_id":"92d53ca1-03c3-4309-8325-40b63541cbab","system_id":"levelo_inurba_marseille","lat":43.25094,"lon":5.39523,"is_reserved":false,"is_disabled":true,"rental_uris":{"android":"levelo://app?vid=92d53ca1-03c3-4309-8325-40b63541cbab","ios":"levelo://app?vid=92d53ca1-03c3-4309-8325-40b63541cbab"},"vehicle_type_id":"4","last_reported":1749650973,"current_range_meters":17200,"station_id":"ce4bhm12rcd13ifvqgkg","pricing_plan_id":"cebpf4jnsgd1na2vs0mg"},{"bike_id":"8d9c7646-ca06-45ce-b333-9854b2187aa3","system_id":"levelo_inurba_marseille","lat":43.26966,"lon":5.40189,"is_reserved":false,"is_disabled":false,"rental_uris":{"android":"levelo://app?vid=8d9c7646-ca06-45ce-b333-9854b2187aa3","ios":"levelo://app?vid=8d9c7646-ca06-45ce-b333-9854b2187aa3"},"vehicle_type_id":"4","last_reported":1749650973,"current_range_meters":18000,"station_id":"","pricing_plan_id":"cebpf4jnsgd1na2vs0mg"},{"bike_id":"27c3ce4c-2f83-41ff-abde-3fb4e2e068fb","system_id":"levelo_inurba_marseille","lat":43.309817,"lon":5.374698,"is_reserved":false,"is_disabled":false,"rental_uris":{"android":"levelo://app?vid=27c3ce4c-2f83-41ff-abde-3fb4e2e068fb","ios":"levelo://app?vid=27c3ce4c-2f83-41ff-abde-3fb4e2e068fb"},"vehicle_type_id":"4","last_reported":1749650973,"current_range_meters":17600,"station_id":"","pricing_plan_id":"cebpf4jnsgd1na2vs0mg"},{"bike_id":"1a3b0ef4-fd99-41cb-bbbe-2863e96b819d","system_id":"levelo_inurba_marseille","lat":43.3137,"lon":5.36754,"is_reserved":false,"is_disabled":false,"rental_uris":{"android":"levelo://app?vid=1a3b0ef4-fd99-41cb-bbbe-2863e96b819d","ios":"levelo://app?vid=1a3b0ef4-fd99-41cb-bbbe-2863e96b819d"},"vehicle_type_id":"4","last_reported":1749650973,"current_range_meters":17600,"station_id":"","pricing_plan_id":"cebpf4jnsgd1na2vs0mg"},{"bike_id":"a5b46623-cf9a-47a8-95ed-38ecd444df42","system_id":"levelo_inurba_marseille","lat":43.26216,"lon":5.37443,"is_reserved":false,"is_disabled":false,"rental_uris":{"android":"levelo://app?vid=a5b46623-cf9a-47a8-95ed-38ecd444df42","ios":"levelo://app?vid=a5b46623-cf9a-47a8-95ed-38ecd444df42"},"vehicle_type_id":"4","last_reported":1749650973,"current_range_meters":18000,"station_id":"ce4bhgp2rcd13ifvqfc0","pricing_plan_id":"cebpf4jnsgd1na2vs0mg"},{"bike_id":"8237e635-0db3-404f-9339-8518ca9de4d3","system_id":"levelo_inurba_marseille","lat":43.28948,"lon":5.36643,"is_reserved":false,"is_disabled":false,"rental_uris":{"android":"levelo://app?vid=8237e635-0db3-404f-9339-8518ca9de4d3","ios":"levelo://app?vid=8237e635-0db3-404f-9339-8518ca9de4d3"},"vehicle_type_id":"4","last_reported":1749650973,"current_range_meters":18000,"station_id":"ce4bhap2rcd13ifvqek0","pricing_plan_id":"cebpf4jnsgd1na2vs0mg"},{"bike_id":"b21450a4-463f-4eb5-a5b1-a818c0abb90a","system_id":"levelo_inurba_marseille","lat":43.298946,"lon":5.436669,"is_reserved":false,"is_disabled":false,"rental_uris":{"android":"levelo://app?vid=b21450a4-463f-4eb5-a5b1-a818c0abb90a","ios":"levelo://app?vid=b21450a4-463f-4eb5-a5b1-a818c0abb90a"},"vehicle_type_id":"4","last_reported":1749650973,"current_range_meters":18000,"station_id":"ce4bhpp2rcd13ifvqhfg","pricing_plan_id":"cebpf4jnsgd1na2vs0mg"},{"bike_id":"107d7a18-598a-4a12-b155-569b04c06be9","system_id":"levelo_inurba_marseille","lat":43.28441,"lon":5.358628,"is_reserved":false,"is_disabled":false,"rental_uris":{"android":"levelo://app?vid=107d7a18-598a-4a12-b155-569b04c06be9","ios":"levelo://app?vid=107d7a18-598a-4a12-b155-569b04c06be9"},"vehicle_type_id":"4","last_reported":1749650973,"current_range_meters":17600,"station_id":"ce4bhah2rcd13ifvqei0","pricing_plan_id":"cebpf4jnsgd1na2vs0mg"},{"bike_id":"8f8b317c-144f-4109-a9e1-a9cc3de86cce","system_id":"levelo_inurba_marseille","lat":43.25578,"lon":5.38234,"is_reserved":false,"is_disabled":false,"rental_uris":{"android":"levelo://app?vid=8f8b317c-144f-4109-a9e1-a9cc3de86cce","ios":"levelo://app?vid=8f8b317c-144f-4109-a9e1-a9cc3de86cce"},"vehicle_type_id":"4","last_reported":1749650973,"current_range_meters":18000,"station_id":"ce4bhih2rcd13ifvqfs0","pricing_plan_id":"cebpf4jnsgd1na2vs0mg"},{"bike_id":"8505f0e2-0d82-47e4-9196-8131df97e672","system_id":"levelo_inurba_marseille","lat":43.29264,"lon":5.40922,"is_reserved":false,"is_disabled":false,"rental_uris":{"android":"levelo://app?vid=8505f0e2-0d82-47e4-9196-8131df97e672","ios":"levelo://app?vid=8505f0e2-0d82-47e4-9196-8131df97e672"},"vehicle_type_id":"4","last_reported":1749650973,"current_range_meters":17600,"station_id":"ce4bh192rcd13ifvqdc0","pricing_plan_id":"cebpf4jnsgd1na2vs0mg"},{"bike_id":"61c65c12-2f66-41c4-bb38-dbd56f58e8e9","system_id":"levelo_inurba_marseille","lat":43.28666,"lon":5.35166,"is_reserved":false,"is_disabled":false,"rental_uris":{"android":"levelo://app?vid=61c65c12-2f66-41c4-bb38-dbd56f58e8e9","ios":"levelo://app?vid=61c65c12-2f66-41c4-bb38-dbd56f58e8e9"},"vehicle_type_id":"4","last_reported":1749650973,"current_range_meters":18800,"station_id":"ce4bhch2rcd13ifvqeug","pricing_plan_id":"cebpf4jnsgd1na2vs0mg"},{"bike_id":"5eb139c0-247f-4c45-b2a7-278d28c21388","system_id":"levelo_inurba_marseille","lat":43.30544,"lon":5.36698,"is_reserved":false,"is_disabled":false,"rental_uris":{"android":"levelo://app?vid=5eb139c0-247f-4c45-b2a7-278d28c21388","ios":"levelo://app?vid=5eb139c0-247f-4c45-b2a7-278d28c21388"},"vehicle_type_id":"4","last_reported":1749650973,"current_range_meters":18800,"station_id":"ce4bgrp2rcd13ifvqc9g","pricing_plan_id":"cebpf4jnsgd1na2vs0mg"},{"bike_id":"1b986ab5-899b-45c0-ae8f-5234203e90af","system_id":"levelo_inurba_marseille","lat":43.32093,"lon":5.3679,"is_reserved":false,"is_disabled":false,"rental_uris":{"android":"levelo://app?vid=1b986ab5-899b-45c0-ae8f-5234203e90af","ios":"levelo://app?vid=1b986ab5-899b-45c0-ae8f-5234203e90af"},"vehicle_type_id":"4","last_reported":1749650973,"current_range_meters":18800,"station_id":"ce4bhrh2rcd13ifvqhug","pricing_plan_id":"cebpf4jnsgd1na2vs0mg"},{"bike_id":"89952bdf-8423-4dee-a648-f625ccf1e098","system_id":"levelo_inurba_marseille","lat":43.28267,"lon":5.35063,"is_reserved":false,"is_disabled":false,"rental_uris":{"android":"levelo://app?vid=89952bdf-8423-4dee-a648-f625ccf1e098","ios":"levelo://app?vid=89952bdf-8423-4dee-a648-f625ccf1e098"},"vehicle_type_id":"4","last_reported":1749650973,"current_range_meters":18800,"station_id":"ce4bhbp2rcd13ifvqerg","pricing_plan_id":"cebpf4jnsgd1na2vs0mg"},{"bike_id":"12b477e3-2a68-4fbe-b702-9693930c57d9","system_id":"levelo_inurba_marseille","lat":43.28683,"lon":5.38668,"is_reserved":false,"is_disabled":false,"rental_uris":{"android":"levelo://app?vid=12b477e3-2a68-4fbe-b702-9693930c57d9","ios":"levelo://app?vid=12b477e3-2a68-4fbe-b702-9693930c57d9"},"vehicle_type_id":"4","last_reported":1749650973,"current_range_meters":18800,"station_id":"ce4bh492rcd13ifvqdug","pricing_plan_id":"cebpf4jnsgd1na2vs0mg"},{"bike_id":"0b33822a-9a7c-43fc-b0a6-08c1c01b6e6b","system_id":"levelo_inurba_marseille","lat":43.22927,"lon":5.353751,"is_reserved":false,"is_disabled":false,"rental_uris":{"android":"levelo://app?vid=0b33822a-9a7c-43fc-b0a6-08c1c01b6e6b","ios":"levelo://app?vid=0b33822a-9a7c-43fc-b0a6-08c1c01b6e6b"},"vehicle_type_id":"4","last_reported":1749650973,"current_range_meters":18800,"station_id":"cpo3532slgdg3j2ikp40","pricing_plan_id":"cebpf4jnsgd1na2vs0mg"},{"bike_id":"cfb2d9bf-22e1-42a8-af86-9ffed35802c2","system_id":"levelo_inurba_marseille","lat":43.29556,"lon":5.42297,"is_reserved":false,"is_disabled":false,"rental_uris":{"android":"levelo://app?vid=cfb2d9bf-22e1-42a8-af86-9ffed35802c2","ios":"levelo://app?vid=cfb2d9bf-22e1-42a8-af86-9ffed35802c2"},"vehicle_type_id":"4","last_reported":1749650973,"current_range_meters":18800,"station_id":"ce4bhph2rcd13ifvqhdg","pricing_plan_id":"cebpf4jnsgd1na2vs0mg"},{"bike_id":"5d87649a-35c3-44dd-8bb0-cb263158ab9a","system_id":"levelo_inurba_marseille","lat":43.25009,"lon":5.38917,"is_reserved":false,"is_disabled":true,"rental_uris":{"android":"levelo://app?vid=5d87649a-35c3-44dd-8bb0-cb263158ab9a","ios":"levelo://app?vid=5d87649a-35c3-44dd-8bb0-cb263158ab9a"},"vehicle_type_id":"4","last_reported":1749650973,"current_range_meters":18800,"station_id":"ce4bhgp2rcd13ifvqfd0","pricing_plan_id":"cebpf4jnsgd1na2vs0mg"},{"bike_id":"ea151432-8d1d-470e-a677-7f54c144a7ec","system_id":"levelo_inurba_marseille","lat":43.25581,"lon":5.38246,"is_reserved":false,"is_disabled":false,"rental_uris":{"android":"levelo://app?vid=ea151432-8d1d-470e-a677-7f54c144a7ec","ios":"levelo://app?vid=ea151432-8d1d-470e-a677-7f54c144a7ec"},"vehicle_type_id":"4","last_reported":1749650973,"current_range_meters":18800,"station_id":"ce4bhih2rcd13ifvqfs0","pricing_plan_id":"cebpf4jnsgd1na2vs0mg"},{"bike_id":"fda8c9a5-12ba-444a-b338-669d2a7622ec","system_id":"levelo_inurba_marseille","lat":43.24079,"lon":5.37762,"is_reserved":false,"is_disabled":false,"rental_uris":{"android":"levelo://app?vid=fda8c9a5-12ba-444a-b338-669d2a7622ec","ios":"levelo://app?vid=fda8c9a5-12ba-444a-b338-669d2a7622ec"},"vehicle_type_id":"4","last_reported":1749650973,"current_range_meters":18800,"station_id":"ce4bhnp2rcd13ifvqgvg","pricing_plan_id":"cebpf4jnsgd1na2vs0mg"},{"bike_id":"d0f5fd5e-82d0-4068-b904-613e884eaef5","system_id":"levelo_inurba_marseille","lat":43.28263,"lon":5.35089,"is_reserved":false,"is_disabled":false,"rental_uris":{"android":"levelo://app?vid=d0f5fd5e-82d0-4068-b904-613e884eaef5","ios":"levelo://app?vid=d0f5fd5e-82d0-4068-b904-613e884eaef5"},"vehicle_type_id":"4","last_reported":1749650973,"current_range_meters":19200,"station_id":"ce4bhbp2rcd13ifvqerg","pricing_plan_id":"cebpf4jnsgd1na2vs0mg"},{"bike_id":"d09dc515-277a-4646-8816-f10cec5d4457","system_id":"levelo_inurba_marseille","lat":43.30935,"lon":5.40176,"is_reserved":false,"is_disabled":true,"rental_uris":{"android":"levelo://app?vid=d09dc515-277a-4646-8816-f10cec5d4457","ios":"levelo://app?vid=d09dc515-277a-4646-8816-f10cec5d4457"},"vehicle_type_id":"4","last_reported":1749650973,"current_range_meters":19200,"station_id":"ce4bgvp2rcd13ifvqct0","pricing_plan_id":"cebpf4jnsgd1na2vs0mg"},{"bike_id":"0db40102-158a-42a7-9960-74ab1bdde2a2","system_id":"levelo_inurba_marseille","lat":43.30736,"lon":5.37257,"is_reserved":false,"is_disabled":false,"rental_uris":{"android":"levelo://app?vid=0db40102-158a-42a7-9960-74ab1bdde2a2","ios":"levelo://app?vid=0db40102-158a-42a7-9960-74ab1bdde2a2"},"vehicle_type_id":"4","last_reported":1749650973,"current_range_meters":19200,"station_id":"","pricing_plan_id":"cebpf4jnsgd1na2vs0mg"},{"bike_id":"c0bd4251-d527-48a7-9378-e4e80c1c274f","system_id":"levelo_inurba_marseille","lat":43.31825,"lon":5.37344,"is_reserved":false,"is_disabled":false,"rental_uris":{"android":"levelo://app?vid=c0bd4251-d527-48a7-9378-e4e80c1c274f","ios":"levelo://app?vid=c0bd4251-d527-48a7-9378-e4e80c1c274f"},"vehicle_type_id":"4","last_reported":1749650973,"current_range_meters":19200,"station_id":"","pricing_plan_id":"cebpf4jnsgd1na2vs0mg"},{"bike_id":"7a4ec5ca-7c68-4cff-8c21-51eca4561f35","system_id":"levelo_inurba_marseille","lat":43.29941,"lon":5.36542,"is_reserved":false,"is_disabled":false,"rental_uris":{"android":"levelo://app?vid=7a4ec5ca-7c68-4cff-8c21-51eca4561f35","ios":"levelo://app?vid=7a4ec5ca-7c68-4cff-8c21-51eca4561f35"},"vehicle_type_id":"4","last_reported":1749650973,"current_range_meters":19200,"station_id":"ce4bgm92rcd13ifvqbr0","pricing_plan_id":"cebpf4jnsgd1na2vs0mg"},{"bike_id":"6f94e492-490e-4359-9879-e4ef7ecc111b","system_id":"levelo_inurba_marseille","lat":43.30148,"lon":5.38062,"is_reserved":false,"is_disabled":false,"rental_uris":{"android":"levelo://app?vid=6f94e492-490e-4359-9879-e4ef7ecc111b","ios":"levelo://app?vid=6f94e492-490e-4359-9879-e4ef7ecc111b"},"vehicle_type_id":"4","last_reported":1749650973,"current_range_meters":19200,"station_id":"ce4bgjp2rcd13ifvqbh0","pricing_plan_id":"cebpf4jnsgd1na2vs0mg"},{"bike_id":"7003b93c-725d-412e-9127-fbade718cbc3","system_id":"levelo_inurba_marseille","lat":43.2127,"lon":5.35087,"is_reserved":false,"is_disabled":false,"rental_uris":{"android":"levelo://app?vid=7003b93c-725d-412e-9127-fbade718cbc3","ios":"levelo://app?vid=7003b93c-725d-412e-9127-fbade718cbc3"},"vehicle_type_id":"4","last_reported":1749650973,"current_range_meters":19200,"station_id":"","pricing_plan_id":"cebpf4jnsgd1na2vs0mg"},{"bike_id":"e0249f4b-8d8b-4dc7-a224-9ea697947c37","system_id":"levelo_inurba_marseille","lat":43.31717,"lon":5.42411,"is_reserved":false,"is_disabled":false,"rental_uris":{"android":"levelo://app?vid=e0249f4b-8d8b-4dc7-a224-9ea697947c37","ios":"levelo://app?vid=e0249f4b-8d8b-4dc7-a224-9ea697947c37"},"vehicle_type_id":"4","last_reported":1749650973,"current_range_meters":19200,"station_id":"ce4bhp92rcd13ifvqhbg","pricing_plan_id":"cebpf4jnsgd1na2vs0mg"},{"bike_id":"2a7344b5-7126-4cc1-bbd1-a9bb0e44b7bd","system_id":"levelo_inurba_marseille","lat":43.230541,"lon":5.354912,"is_reserved":false,"is_disabled":false,"rental_uris":{"android":"levelo://app?vid=2a7344b5-7126-4cc1-bbd1-a9bb0e44b7bd","ios":"levelo://app?vid=2a7344b5-7126-4cc1-bbd1-a9bb0e44b7bd"},"vehicle_type_id":"4","last_reported":1749650973,"current_range_meters":19200,"station_id":"cpo3342slgdg3j2ifvpg","pricing_plan_id":"cebpf4jnsgd1na2vs0mg"},{"bike_id":"3f091ab2-d036-4a00-b99c-c40a7c14c235","system_id":"levelo_inurba_marseille","lat":43.32414,"lon":5.36541,"is_reserved":false,"is_disabled":false,"rental_uris":{"android":"levelo://app?vid=3f091ab2-d036-4a00-b99c-c40a7c14c235","ios":"levelo://app?vid=3f091ab2-d036-4a00-b99c-c40a7c14c235"},"vehicle_type_id":"4","last_reported":1749650973,"current_range_meters":19200,"station_id":"","pricing_plan_id":"cebpf4jnsgd1na2vs0mg"},{"bike_id":"11926c67-c581-4a5d-8203-15313e951bcf","system_id":"levelo_inurba_marseille","lat":43.218,"lon":5.34628,"is_reserved":false,"is_disabled":false,"rental_uris":{"android":"levelo://app?vid=11926c67-c581-4a5d-8203-15313e951bcf","ios":"levelo://app?vid=11926c67-c581-4a5d-8203-15313e951bcf"},"vehicle_type_id":"4","last_reported":1749650973,"current_range_meters":19200,"station_id":"","pricing_plan_id":"cebpf4jnsgd1na2vs0mg"},{"bike_id":"956155a0-cce5-4fd3-8922-68f15eb5f8a5","system_id":"levelo_inurba_marseille","lat":43.30482,"lon":5.3791,"is_reserved":false,"is_disabled":false,"rental_uris":{"android":"levelo://app?vid=956155a0-cce5-4fd3-8922-68f15eb5f8a5","ios":"levelo://app?vid=956155a0-cce5-4fd3-8922-68f15eb5f8a5"},"vehicle_type_id":"4","last_reported":1749650973,"current_range_meters":19200,"station_id":"ce4bgup2rcd13ifvqcn0","pricing_plan_id":"cebpf4jnsgd1na2vs0mg"},{"bike_id":"f9ba2e76-62e9-4c4d-8d9c-0342e60cf9b9","system_id":"levelo_inurba_marseille","lat":43.27362,"lon":5.36231,"is_reserved":false,"is_disabled":false,"rental_uris":{"android":"levelo://app?vid=f9ba2e76-62e9-4c4d-8d9c-0342e60cf9b9","ios":"levelo://app?vid=f9ba2e76-62e9-4c4d-8d9c-0342e60cf9b9"},"vehicle_type_id":"4","last_reported":1749650973,"current_range_meters":19200,"station_id":"ce4bhbh2rcd13ifvqeo0","pricing_plan_id":"cebpf4jnsgd1na2vs0mg"},{"bike_id":"a322f25f-f3be-412d-b049-4b187fa2a7db","system_id":"levelo_inurba_marseille","lat":43.28268,"lon":5.3506,"is_reserved":false,"is_disabled":false,"rental_uris":{"android":"levelo://app?vid=a322f25f-f3be-412d-b049-4b187fa2a7db","ios":"levelo://app?vid=a322f25f-f3be-412d-b049-4b187fa2a7db"},"vehicle_type_id":"4","last_reported":1749650973,"current_range_meters":19600,"station_id":"ce4bhbp2rcd13ifvqerg","pricing_plan_id":"cebpf4jnsgd1na2vs0mg"},{"bike_id":"80c4481f-3a94-40c5-bcb5-c1363c06279d","system_id":"levelo_inurba_marseille","lat":43.25959,"lon":5.40896,"is_reserved":false,"is_disabled":false,"rental_uris":{"android":"levelo://app?vid=80c4481f-3a94-40c5-bcb5-c1363c06279d","ios":"levelo://app?vid=80c4481f-3a94-40c5-bcb5-c1363c06279d"},"vehicle_type_id":"4","last_reported":1749650973,"current_range_meters":20000,"station_id":"ce4bhm92rcd13ifvqglg","pricing_plan_id":"cebpf4jnsgd1na2vs0mg"},{"bike_id":"3cb0af7c-994a-4b71-98dc-211ebea626ad","system_id":"levelo_inurba_marseille","lat":43.32372,"lon":5.36759,"is_reserved":false,"is_disabled":false,"rental_uris":{"android":"levelo://app?vid=3cb0af7c-994a-4b71-98dc-211ebea626ad","ios":"levelo://app?vid=3cb0af7c-994a-4b71-98dc-211ebea626ad"},"vehicle_type_id":"4","last_reported":1749650973,"current_range_meters":19600,"station_id":"ce4bhsh2rcd13ifvqi2g","pricing_plan_id":"cebpf4jnsgd1na2vs0mg"},{"bike_id":"bdb51853-79a1-4ede-9b36-799caee2a98a","system_id":"levelo_inurba_marseille","lat":43.28196,"lon":5.39039,"is_reserved":false,"is_disabled":false,"rental_uris":{"android":"levelo://app?vid=bdb51853-79a1-4ede-9b36-799caee2a98a","ios":"levelo://app?vid=bdb51853-79a1-4ede-9b36-799caee2a98a"},"vehicle_type_id":"4","last_reported":1749650973,"current_range_meters":19600,"station_id":"","pricing_plan_id":"cebpf4jnsgd1na2vs0mg"},{"bike_id":"7323405f-708d-4ac9-b606-dd0136d91276","system_id":"levelo_inurba_marseille","lat":43.286067,"lon":5.350967,"is_reserved":false,"is_disabled":false,"rental_uris":{"android":"levelo://app?vid=7323405f-708d-4ac9-b606-dd0136d91276","ios":"levelo://app?vid=7323405f-708d-4ac9-b606-dd0136d91276"},"vehicle_type_id":"4","last_reported":1749650973,"current_range_meters":26800,"station_id":"ce4bgup2rcd13ifvqco0","pricing_plan_id":"cebpf4jnsgd1na2vs0mg"},{"bike_id":"6e464720-93b0-4699-80fe-881649eb71cd","system_id":"levelo_inurba_marseille","lat":43.23244,"lon":5.355838,"is_reserved":false,"is_disabled":false,"rental_uris":{"android":"levelo://app?vid=6e464720-93b0-4699-80fe-881649eb71cd","ios":"levelo://app?vid=6e464720-93b0-4699-80fe-881649eb71cd"},"vehicle_type_id":"4","last_reported":1749650973,"current_range_meters":19600,"station_id":"","pricing_plan_id":"cebpf4jnsgd1na2vs0mg"},{"bike_id":"5240f6fd-7c4d-480e-89e7-ad5430e3da82","system_id":"levelo_inurba_marseille","lat":43.2843,"lon":5.35019,"is_reserved":false,"is_disabled":false,"rental_uris":{"android":"levelo://app?vid=5240f6fd-7c4d-480e-89e7-ad5430e3da82","ios":"levelo://app?vid=5240f6fd-7c4d-480e-89e7-ad5430e3da82"},"vehicle_type_id":"4","last_reported":1749650973,"current_range_meters":20000,"station_id":"ce4bhbh2rcd13ifvqepg","pricing_plan_id":"cebpf4jnsgd1na2vs0mg"},{"bike_id":"0dd40b3e-a12f-477b-9c4b-db54b684016e","system_id":"levelo_inurba_marseille","lat":43.29936,"lon":5.36544,"is_reserved":false,"is_disabled":false,"rental_uris":{"android":"levelo://app?vid=0dd40b3e-a12f-477b-9c4b-db54b684016e","ios":"levelo://app?vid=0dd40b3e-a12f-477b-9c4b-db54b684016e"},"vehicle_type_id":"4","last_reported":1749650973,"current_range_meters":20000,"station_id":"ce4bgm92rcd13ifvqbr0","pricing_plan_id":"cebpf4jnsgd1na2vs0mg"},{"bike_id":"b7d88162-d7be-460d-91c8-246163601afe","system_id":"levelo_inurba_marseille","lat":43.26572,"lon":5.39003,"is_reserved":false,"is_disabled":false,"rental_uris":{"android":"levelo://app?vid=b7d88162-d7be-460d-91c8-246163601afe","ios":"levelo://app?vid=b7d88162-d7be-460d-91c8-246163601afe"},"vehicle_type_id":"4","last_reported":1749650973,"current_range_meters":20000,"station_id":"ce4bhe12rcd13ifvqf30","pricing_plan_id":"cebpf4jnsgd1na2vs0mg"},{"bike_id":"184f9a33-fa9c-4236-9ce3-1ff5c1faa753","system_id":"levelo_inurba_marseille","lat":43.28269,"lon":5.35076,"is_reserved":false,"is_disabled":false,"rental_uris":{"android":"levelo://app?vid=184f9a33-fa9c-4236-9ce3-1ff5c1faa753","ios":"levelo://app?vid=184f9a33-fa9c-4236-9ce3-1ff5c1faa753"},"vehicle_type_id":"4","last_reported":1749650973,"current_range_meters":20000,"station_id":"ce4bhbp2rcd13ifvqerg","pricing_plan_id":"cebpf4jnsgd1na2vs0mg"},{"bike_id":"7ecde9b2-0848-4631-b23e-d505a87ecd32","system_id":"levelo_inurba_marseille","lat":43.28431,"lon":5.34986,"is_reserved":false,"is_disabled":false,"rental_uris":{"android":"levelo://app?vid=7ecde9b2-0848-4631-b23e-d505a87ecd32","ios":"levelo://app?vid=7ecde9b2-0848-4631-b23e-d505a87ecd32"},"vehicle_type_id":"4","last_reported":1749650973,"current_range_meters":20000,"station_id":"ce4bhbh2rcd13ifvqepg","pricing_plan_id":"cebpf4jnsgd1na2vs0mg"},{"bike_id":"399a54b7-61d7-4d13-8699-cdb6ae4e4111","system_id":"levelo_inurba_marseille","lat":43.26211,"lon":5.37444,"is_reserved":false,"is_disabled":false,"rental_uris":{"android":"levelo://app?vid=399a54b7-61d7-4d13-8699-cdb6ae4e4111","ios":"levelo://app?vid=399a54b7-61d7-4d13-8699-cdb6ae4e4111"},"vehicle_type_id":"4","last_reported":1749650973,"current_range_meters":20000,"station_id":"ce4bhgp2rcd13ifvqfc0","pricing_plan_id":"cebpf4jnsgd1na2vs0mg"},{"bike_id":"2276c90b-1abb-4801-97fa-4b4a67305a9b","system_id":"levelo_inurba_marseille","lat":43.28264,"lon":5.35088,"is_reserved":false,"is_disabled":false,"rental_uris":{"android":"levelo://app?vid=2276c90b-1abb-4801-97fa-4b4a67305a9b","ios":"levelo://app?vid=2276c90b-1abb-4801-97fa-4b4a67305a9b"},"vehicle_type_id":"4","last_reported":1749650973,"current_range_meters":20000,"station_id":"ce4bhbp2rcd13ifvqerg","pricing_plan_id":"cebpf4jnsgd1na2vs0mg"},{"bike_id":"ab31eaec-78ac-4dca-ada1-e560178dfb52","system_id":"levelo_inurba_marseille","lat":43.27373,"lon":5.36262,"is_reserved":false,"is_disabled":false,"rental_uris":{"android":"levelo://app?vid=ab31eaec-78ac-4dca-ada1-e560178dfb52","ios":"levelo://app?vid=ab31eaec-78ac-4dca-ada1-e560178dfb52"},"vehicle_type_id":"4","last_reported":1749650973,"current_range_meters":20400,"station_id":"ce4bhbh2rcd13ifvqeo0","pricing_plan_id":"cebpf4jnsgd1na2vs0mg"},{"bike_id":"53371f4a-d27c-4b2a-8475-ef50516f5a14","system_id":"levelo_inurba_marseille","lat":43.25582,"lon":5.38234,"is_reserved":false,"is_disabled":false,"rental_uris":{"android":"levelo://app?vid=53371f4a-d27c-4b2a-8475-ef50516f5a14","ios":"levelo://app?vid=53371f4a-d27c-4b2a-8475-ef50516f5a14"},"vehicle_type_id":"4","last_reported":1749650973,"current_range_meters":20400,"station_id":"ce4bhih2rcd13ifvqfs0","pricing_plan_id":"cebpf4jnsgd1na2vs0mg"},