{"last_updated":1748434878,"ttl":60,"version":"2.2","data":{"bikes":[{"bike_id":"55d42eeb-6b71-4987-a0f2-3d758b10d43e","system_id":"levelo_inurba_marseille","lat":43.33771,"lon":5.37424,"is_reserved":false,"is_disabled":true,"rental_uris":{"android":"levelo://app?vid=55d42eeb-6b71-4987-a0f2-3d758b10d43e","ios":"levelo://app?vid=55d42eeb-6b71-4987-a0f2-3d758b10d43e"},"vehicle_type_id":"4","last_reported":1748434878,"current_range_meters":0,"station_id":"","pricing_plan_id":"cebpf4jnsgd1na2vs0mg"},{"bike_id":"b7fe4621-b706-42f0-9085-4811142f84e8","system_id":"levelo_inurba_marseille","lat":43.337499,"lon":5.374469,"is_reserved":false,"is_disabled":true,"rental_uris":{"android":"levelo://app?vid=b7fe4621-b706-42f0-9085-4811142f84e8","ios":"levelo://app?vid=b7fe4621-b706-42f0-9085-4811142f84e8"},"vehicle_type_id":"4","last_reported":1748434878,"current_range_meters":0,"station_id":"","pricing_plan_id":"cebpf4jnsgd1na2vs0mg"},{"bike_id":"ad402f0f-3192-410c-afac-8cf064a40c6d","system_id":"levelo_inurba_marseille","lat":43.337444,"lon":5.374475,"is_reserved":false,"is_disabled":true,"rental_uris":{"android":"levelo://app?vid=ad402f0f-3192-410c-afac-8cf064a40c6d","ios":"levelo://app?vid=ad402f0f-3192-410c-afac-8cf064a40c6d"},"vehicle_type_id":"4","last_reported":1748434878,"current_range_meters":0,"station_id":"","pricing_plan_id":"cebpf4jnsgd1na2vs0mg"},{"bike_id":"80dc1064-d63f-4a22-ad21-d8abd70986c0","system_id":"levelo_inurba_marseille","lat":43.300671,"lon":5.410385,"is_reserved":false,"is_disabled":true,"rental_uris":{"android":"levelo://app?vid=80dc1064-d63f-4a22-ad21-d8abd70986c0","ios":"levelo://app?vid=80dc1064-d63f-4a22-ad21-d8abd70986c0"},"vehicle_type_id":"4","last_reported":1748434878,"current_range_meters":0,"station_id":"","pricing_plan_id":"cebpf4jnsgd1na2vs0mg"},{"bike_id":"e082a7e3-9601-48a8-99c3-8e25f2736751","system_id":"levelo_inurba_marseille","lat":43.24974,"lon":5.38176,"is_reserved":false,"is_disabled":true,"rental_uris":{"android":"levelo://app?vid=e082a7e3-9601-48a8-99c3-8e25f2736751","ios":"levelo://app?vid=e082a7e3-9601-48a8-99c3-8e25f2736751"},"vehicle_type_id":"4","last_reported":1748434878,"current_range_meters":0,"station_id":"","pricing_plan_id":"cebpf4jnsgd1na2vs0mg"},{"bike_id":"2fd7e160-685c-4858-b57b-dcaef27a8e94","system_id":"levelo_inurba_marseille","lat":43.230331,"lon":5.401847,"is_reserved":false,"is_disabled":true,"rental_uris":{"android":"levelo://app?vid=2fd7e160-685c-4858-b57b-dcaef27a8e94","ios":"levelo://app?vid=2fd7e160-685c-4858-b57b-dcaef27a8e94"},"vehicle_type_id":"4","last_reported":1748434878,"current_range_meters":0,"station_id":"","pricing_plan_id":"cebpf4jnsgd1na2vs0mg"},{"bike_id":"c1360c63-b3b6-45ff-8d60-c4137ade76d9","system_id":"levelo_inurba_marseille","lat":43.29274,"lon":5.37617,"is_reserved":false,"is_disabled":true,"rental_uris":{"android":"levelo://app?vid=c1360c63-b3b6-45ff-8d60-c4137ade76d9","ios":"levelo://app?vid=c1360c63-b3b6-45ff-8d60-c4137ade76d9"},"vehicle_type_id":"4","last_reported":1748434878,"current_range_meters":0,"station_id":"ce4bgi12rcd13ifvqb80","pricing_plan_id":"cebpf4jnsgd1na2vs0mg"},{"bike_id":"e46f241b-619f-4c1d-9d72-929b11702b88","system_id":"levelo_inurba_marseille","lat":43.30472,"lon":5.37894,"is_reserved":false,"is_disabled":true,"rental_uris":{"android":"levelo://app?vid=e46f241b-619f-4c1d-9d72-929b11702b88","ios":"levelo://app?vid=e46f241b-619f-4c1d-9d72-929b11702b88"},"vehicle_type_id":"4","last_reported":1748434878,"current_range_meters":0,"station_id":"ce4bgup2rcd13ifvqcn0","pricing_plan_id":"cebpf4jnsgd1na2vs0mg"},{"bike_id":"04f3a396-c35c-4435-8a82-03eed489a562","system_id":"levelo_inurba_marseille","lat":43.309391,"lon":5.401345,"is_reserved":false,"is_disabled":true,"rental_uris":{"android":"levelo://app?vid=04f3a396-c35c-4435-8a82-03eed489a562","ios":"levelo://app?vid=04f3a396-c35c-4435-8a82-03eed489a562"},"vehicle_type_id":"4","last_reported":1748434878,"current_range_meters":0,"station_id":"ce4bgvp2rcd13ifvqct0","pricing_plan_id":"cebpf4jnsgd1na2vs0mg"},{"bike_id":"6b9b0819-492a-4d1b-9cd0-7ab8972e7a00","system_id":"levelo_inurba_marseille","lat":43.27373,"lon":5.3625,"is_reserved":false,"is_disabled":true,"rental_uris":{"android":"levelo://app?vid=6b9b0819-492a-4d1b-9cd0-7ab8972e7a00","ios":"levelo://app?vid=6b9b0819-492a-4d1b-9cd0-7ab8972e7a00"},"vehicle_type_id":"4","last_reported":1748434878,"current_range_meters":0,"station_id":"ce4bhbh2rcd13ifvqeo0","pricing_plan_id":"cebpf4jnsgd1na2vs0mg"},{"bike_id":"28d67789-afad-454c-afd8-ad64ca6bf458","system_id":"levelo_inurba_marseille","lat":43.27379,"lon":5.36252,"is_reserved":false,"is_disabled":true,"rental_uris":{"android":"levelo://app?vid=28d67789-afad-454c-afd8-ad64ca6bf458","ios":"levelo://app?vid=28d67789-afad-454c-afd8-ad64ca6bf458"},"vehicle_type_id":"4","last_reported":1748434878,"current_range_meters":0,"station_id":"ce4bhbh2rcd13ifvqeo0","pricing_plan_id":"cebpf4jnsgd1na2vs0mg"},{"bike_id":"49e41019-dd46-480b-bcb6-4a5f28f7086f","system_id":"levelo_inurba_marseille","lat":43.28414,"lon":5.34981,"is_reserved":false,"is_disabled":true,"rental_uris":{"android":"levelo://app?vid=49e41019-dd46-480b-bcb6-4a5f28f7086f","ios":"levelo://app?vid=49e41019-dd46-480b-bcb6-4a5f28f7086f"},"vehicle_type_id":"4","last_reported":1748434878,"current_range_meters":0,"station_id":"ce4bhbh2rcd13ifvqepg","pricing_plan_id":"cebpf4jnsgd1na2vs0mg"},{"bike_id":"fdb151a0-1f95-4027-a852-b0b3fa0dfee9","system_id":"levelo_inurba_marseille","lat":43.28417,"lon":5.34992,"is_reserved":false,"is_disabled":true,"rental_uris":{"android":"levelo://app?vid=fdb151a0-1f95-4027-a852-b0b3fa0dfee9","ios":"levelo://app?vid=fdb151a0-1f95-4027-a852-b0b3fa0dfee9"},"vehicle_type_id":"4","last_reported":1748434878,"current_range_meters":0,"station_id":"ce4bhbh2rcd13ifvqepg","pricing_plan_id":"cebpf4jnsgd1na2vs0mg"},{"bike_id":"3c62cd45-e92e-4296-97ae-6bb245b109ef","system_id":"levelo_inurba_marseille","lat":43.28273,"lon":5.35081,"is_reserved":false,"is_disabled":true,"rental_uris":{"android":"levelo://app?vid=3c62cd45-e92e-4296-97ae-6bb245b109ef","ios":"levelo://app?vid=3c62cd45-e92e-4296-97ae-6bb245b109ef"},"vehicle_type_id":"4","last_reported":1748434878,"current_range_meters":0,"station_id":"ce4bhbp2rcd13ifvqerg","pricing_plan_id":"cebpf4jnsgd1na2vs0mg"},{"bike_id":"e4e24921-3b92-4dc4-9af7-bffb4a37171f","system_id":"levelo_inurba_marseille","lat":43.28273,"lon":5.35062,"is_reserved":false,"is_disabled":true,"rental_uris":{"android":"levelo://app?vid=e4e24921-3b92-4dc4-9af7-bffb4a37171f","ios":"levelo://app?vid=e4e24921-3b92-4dc4-9af7-bffb4a37171f"},"vehicle_type_id":"4","last_reported":1748434878,"current_range_meters":0,"station_id":"ce4bhbp2rcd13ifvqerg","pricing_plan_id":"cebpf4jnsgd1na2vs0mg"},{"bike_id":"f41011ea-f2d8-44b9-9020-cd4039f90610","system_id":"levelo_inurba_marseille","lat":43.2827,"lon":5.35071,"is_reserved":false,"is_disabled":true,"rental_uris":{"android":"levelo://app?vid=f41011ea-f2d8-44b9-9020-cd4039f90610","ios":"levelo://app?vid=f41011ea-f2d8-44b9-9020-cd4039f90610"},"vehicle_type_id":"4","last_reported":1748434878,"current_range_meters":0,"station_id":"ce4bhbp2rcd13ifvqerg","pricing_plan_id":"cebpf4jnsgd1na2vs0mg"},{"bike_id":"29b49b84-013a-4698-8ea2-210024e9f5bd","system_id":"levelo_inurba_marseille","lat":43.27922,"lon":5.396,"is_reserved":false,"is_disabled":true,"rental_uris":{"android":"levelo://app?vid=29b49b84-013a-4698-8ea2-210024e9f5bd","ios":"levelo://app?vid=29b49b84-013a-4698-8ea2-210024e9f5bd"},"vehicle_type_id":"4","last_reported":1748434878,"current_range_meters":0,"station_id":"ce4bhf92rcd13ifvqf40","pricing_plan_id":"cebpf4jnsgd1na2vs0mg"},{"bike_id":"58ba8277-8e81-4760-b67e-e3ff87046bc9","system_id":"levelo_inurba_marseille","lat":43.2621,"lon":5.37438,"is_reserved":false,"is_disabled":true,"rental_uris":{"android":"levelo://app?vid=58ba8277-8e81-4760-b67e-e3ff87046bc9","ios":"levelo://app?vid=58ba8277-8e81-4760-b67e-e3ff87046bc9"},"vehicle_type_id":"4","last_reported":1748434878,"current_range_meters":0,"station_id":"ce4bhgp2rcd13ifvqfc0","pricing_plan_id":"cebpf4jnsgd1na2vs0mg"},{"bike_id":"bc27356d-2d60-4630-9963-44cb54b2e91f","system_id":"levelo_inurba_marseille","lat":43.26769,"lon":5.393785,"is_reserved":false,"is_disabled":true,"rental_uris":{"android":"levelo://app?vid=bc27356d-2d60-4630-9963-44cb54b2e91f","ios":"levelo://app?vid=bc27356d-2d60-4630-9963-44cb54b2e91f"},"vehicle_type_id":"4","last_reported":1748434878,"current_range_meters":0,"station_id":"ce4bhh12rcd13ifvqfg0","pricing_plan_id":"cebpf4jnsgd1na2vs0mg"},{"bike_id":"cd5bf50e-a4d5-485c-a2cb-50003d8827b9","system_id":"levelo_inurba_marseille","lat":43.25115,"lon":5.40319,"is_reserved":false,"is_disabled":true,"rental_uris":{"android":"levelo://app?vid=cd5bf50e-a4d5-485c-a2cb-50003d8827b9","ios":"levelo://app?vid=cd5bf50e-a4d5-485c-a2cb-50003d8827b9"},"vehicle_type_id":"4","last_reported":1748434878,"current_range_meters":0,"station_id":"ce4bhlh2rcd13ifvqgig","pricing_plan_id":"cebpf4jnsgd1na2vs0mg"},{"bike_id":"063fb84b-f83a-4aa5-bd49-144f998d1dff","system_id":"levelo_inurba_marseille","lat":43.30599,"lon":5.37232,"is_reserved":false,"is_disabled":true,"rental_uris":{"android":"levelo://app?vid=063fb84b-f83a-4aa5-bd49-144f998d1dff","ios":"levelo://app?vid=063fb84b-f83a-4aa5-bd49-144f998d1dff"},"vehicle_type_id":"4","last_reported":1748434878,"current_range_meters":400,"station_id":"ce4bgqh2rcd13ifvqc4g","pricing_plan_id":"cebpf4jnsgd1na2vs0mg"},{"bike_id":"faba8dc1-c9a0-4833-973a-6c8efdbf5680","system_id":"levelo_inurba_marseille","lat":43.28669,"lon":5.36351,"is_reserved":false,"is_disabled":true,"rental_uris":{"android":"levelo://app?vid=faba8dc1-c9a0-4833-973a-6c8efdbf5680","ios":"levelo://app?vid=faba8dc1-c9a0-4833-973a-6c8efdbf5680"},"vehicle_type_id":"4","last_reported":1748434878,"current_range_meters":400,"station_id":"ce4bhah2rcd13ifvqej0","pricing_plan_id":"cebpf4jnsgd1na2vs0mg"},{"bike_id":"e92a85ef-084a-40a4-9ec9-84354df47a73","system_id":"levelo_inurba_marseille","lat":43.273737,"lon":5.36235,"is_reserved":false,"is_disabled":true,"rental_uris":{"android":"levelo://app?vid=e92a85ef-084a-40a4-9ec9-84354df47a73","ios":"levelo://app?vid=e92a85ef-084a-40a4-9ec9-84354df47a73"},"vehicle_type_id":"4","last_reported":1748434878,"current_range_meters":400,"station_id":"ce4bhbh2rcd13ifvqeo0","pricing_plan_id":"cebpf4jnsgd1na2vs0mg"},{"bike_id":"375b4f8b-7ece-4106-a686-e44d434c6bc2","system_id":"levelo_inurba_marseille","lat":43.2737,"lon":5.36252,"is_reserved":false,"is_disabled":true,"rental_uris":{"android":"levelo://app?vid=375b4f8b-7ece-4106-a686-e44d434c6bc2","ios":"levelo://app?vid=375b4f8b-7ece-4106-a686-e44d434c6bc2"},"vehicle_type_id":"4","last_reported":1748434878,"current_range_meters":400,"station_id":"ce4bhbh2rcd13ifvqeo0","pricing_plan_id":"cebpf4jnsgd1na2vs0mg"},{"bike_id":"9a47cea7-6fc2-4b55-8fd0-fbf03f1a66cb","system_id":"levelo_inurba_marseille","lat":43.24385,"lon":5.37055,"is_reserved":false,"is_disabled":true,"rental_uris":{"android":"levelo://app?vid=9a47cea7-6fc2-4b55-8fd0-fbf03f1a66cb","ios":"levelo://app?vid=9a47cea7-6fc2-4b55-8fd0-fbf03f1a66cb"},"vehicle_type_id":"4","last_reported":1748434878,"current_range_meters":400,"station_id":"ce4bhhh2rcd13ifvqfk0","pricing_plan_id":"cebpf4jnsgd1na2vs0mg"},{"bike_id":"a63080ed-4ecd-4704-b675-515543c32834","system_id":"levelo_inurba_marseille","lat":43.284,"lon":5.37517,"is_reserved":false,"is_disabled":true,"rental_uris":{"android":"levelo://app?vid=a63080ed-4ecd-4704-b675-515543c32834","ios":"levelo://app?vid=a63080ed-4ecd-4704-b675-515543c32834"},"vehicle_type_id":"4","last_reported":1748434878,"current_range_meters":800,"station_id":"","pricing_plan_id":"cebpf4jnsgd1na2vs0mg"},{"bike_id":"d36f3270-105d-490b-b8c7-43daeaadda89","system_id":"levelo_inurba_marseille","lat":43.26221,"lon":5.37444,"is_reserved":false,"is_disabled":true,"rental_uris":{"android":"levelo://app?vid=d36f3270-105d-490b-b8c7-43daeaadda89","ios":"levelo://app?vid=d36f3270-105d-490b-b8c7-43daeaadda89"},"vehicle_type_id":"4","last_reported":1748434878,"current_range_meters":800,"station_id":"ce4bhgp2rcd13ifvqfc0","pricing_plan_id":"cebpf4jnsgd1na2vs0mg"},{"bike_id":"723515ac-565d-443a-a999-6e4d4fc6f22e","system_id":"levelo_inurba_marseille","lat":43.23152,"lon":5.43717,"is_reserved":false,"is_disabled":true,"rental_uris":{"android":"levelo://app?vid=723515ac-565d-443a-a999-6e4d4fc6f22e","ios":"levelo://app?vid=723515ac-565d-443a-a999-6e4d4fc6f22e"},"vehicle_type_id":"4","last_reported":1748434878,"current_range_meters":800,"station_id":"ce4bhmp2rcd13ifvqgog","pricing_plan_id":"cebpf4jnsgd1na2vs0mg"},{"bike_id":"82b7ba36-f0bf-4e4a-b5aa-37e5817ae33d","system_id":"levelo_inurba_marseille","lat":43.30148,"lon":5.38063,"is_reserved":false,"is_disabled":true,"rental_uris":{"android":"levelo://app?vid=82b7ba36-f0bf-4e4a-b5aa-37e5817ae33d","ios":"levelo://app?vid=82b7ba36-f0bf-4e4a-b5aa-37e5817ae33d"},"vehicle_type_id":"4","last_reported":1748434878,"current_range_meters":1200,"station_id":"ce4bgjp2rcd13ifvqbh0","pricing_plan_id":"cebpf4jnsgd1na2vs0mg"},{"bike_id":"ff157e3f-a6c9-42f8-b9d7-d47f612a507d","system_id":"levelo_inurba_marseille","lat":43.28717,"lon":5.37393,"is_reserved":false,"is_disabled":true,"rental_uris":{"android":"levelo://app?vid=ff157e3f-a6c9-42f8-b9d7-d47f612a507d","ios":"levelo://app?vid=ff157e3f-a6c9-42f8-b9d7-d47f612a507d"},"vehicle_type_id":"4","last_reported":1748434878,"current_range_meters":1200,"station_id":"ce4bh3p2rcd13ifvqdq0","pricing_plan_id":"cebpf4jnsgd1na2vs0mg"},{"bike_id":"794ed65b-8d4c-4880-8421-00980a3d3e86","system_id":"levelo_inurba_marseille","lat":43.27367,"lon":5.36249,"is_reserved":false,"is_disabled":true,"rental_uris":{"android":"levelo://app?vid=794ed65b-8d4c-4880-8421-00980a3d3e86","ios":"levelo://app?vid=794ed65b-8d4c-4880-8421-00980a3d3e86"},"vehicle_type_id":"4","last_reported":1748434878,"current_range_meters":1200,"station_id":"ce4bhbh2rcd13ifvqeo0","pricing_plan_id":"cebpf4jnsgd1na2vs0mg"},{"bike_id":"cbd01d98-c0ae-450c-b0e7-3fde427521b0","system_id":"levelo_inurba_marseille","lat":43.26032,"lon":5.37577,"is_reserved":false,"is_disabled":true,"rental_uris":{"android":"levelo://app?vid=cbd01d98-c0ae-450c-b0e7-3fde427521b0","ios":"levelo://app?vid=cbd01d98-c0ae-450c-b0e7-3fde427521b0"},"vehicle_type_id":"4","last_reported":1748434878,"current_range_meters":1200,"station_id":"ce4bhgh2rcd13ifvqfa0","pricing_plan_id":"cebpf4jnsgd1na2vs0mg"},{"bike_id":"5f06ae5c-61bd-4d53-916d-e36ab0de57df","system_id":"levelo_inurba_marseille","lat":43.29574,"lon":5.39983,"is_reserved":false,"is_disabled":true,"rental_uris":{"android":"levelo://app?vid=5f06ae5c-61bd-4d53-916d-e36ab0de57df","ios":"levelo://app?vid=5f06ae5c-61bd-4d53-916d-e36ab0de57df"},"vehicle_type_id":"4","last_reported":1748434878,"current_range_meters":1600,"station_id":"ce4bh312rcd13ifvqdj0","pricing_plan_id":"cebpf4jnsgd1na2vs0mg"},{"bike_id":"2a85f07d-a470-4b85-817b-2076381b2be1","system_id":"levelo_inurba_marseille","lat":43.283449,"lon":5.381115,"is_reserved":false,"is_disabled":true,"rental_uris":{"android":"levelo://app?vid=2a85f07d-a470-4b85-817b-2076381b2be1","ios":"levelo://app?vid=2a85f07d-a470-4b85-817b-2076381b2be1"},"vehicle_type_id":"4","last_reported":1748434878,"current_range_meters":1600,"station_id":"ce4bh412rcd13ifvqdr0","pricing_plan_id":"cebpf4jnsgd1na2vs0mg"},{"bike_id":"08125aba-bddd-47d7-a672-bc136275cbbc","system_id":"levelo_inurba_marseille","lat":43.284108,"lon":5.349848,"is_reserved":false,"is_disabled":true,"rental_uris":{"android":"levelo://app?vid=08125aba-bddd-47d7-a672-bc136275cbbc","ios":"levelo://app?vid=08125aba-bddd-47d7-a672-bc136275cbbc"},"vehicle_type_id":"4","last_reported":1748434878,"current_range_meters":1600,"station_id":"ce4bhbh2rcd13ifvqepg","pricing_plan_id":"cebpf4jnsgd1na2vs0mg"},{"bike_id":"e0cf58c5-371f-47ca-bc8f-1afd5cd46e4d","system_id":"levelo_inurba_marseille","lat":43.26032,"lon":5.37553,"is_reserved":false,"is_disabled":true,"rental_uris":{"android":"levelo://app?vid=e0cf58c5-371f-47ca-bc8f-1afd5cd46e4d","ios":"levelo://app?vid=e0cf58c5-371f-47ca-bc8f-1afd5cd46e4d"},"vehicle_type_id":"4","last_reported":1748434878,"current_range_meters":1600,"station_id":"ce4bhgh2rcd13ifvqfa0","pricing_plan_id":"cebpf4jnsgd1na2vs0mg"},{"bike_id":"a72cd34b-8580-4263-8fb5-1b77d402d5e8","system_id":"levelo_inurba_marseille","lat":43.2767,"lon":5.38899,"is_reserved":false,"is_disabled":true,"rental_uris":{"android":"levelo://app?vid=a72cd34b-8580-4263-8fb5-1b77d402d5e8","ios":"levelo://app?vid=a72cd34b-8580-4263-8fb5-1b77d402d5e8"},"vehicle_type_id":"4","last_reported":1748434878,"current_range_meters":1600,"station_id":"ce4bhi12rcd13ifvqfo0","pricing_plan_id":"cebpf4jnsgd1na2vs0mg"},{"bike_id":"ec664cd4-40d3-4f3b-b5d2-18d2255e9c61","system_id":"levelo_inurba_marseille","lat":43.290348,"lon":5.39991,"is_reserved":false,"is_disabled":true,"rental_uris":{"android":"levelo://app?vid=ec664cd4-40d3-4f3b-b5d2-18d2255e9c61","ios":"levelo://app?vid=ec664cd4-40d3-4f3b-b5d2-18d2255e9c61"},"vehicle_type_id":"4","last_reported":1748434878,"current_range_meters":1600,"station_id":"ce4bhnh2rcd13ifvqgug","pricing_plan_id":"cebpf4jnsgd1na2vs0mg"},{"bike_id":"92270047-ae3c-41b7-b379-3ae8d1fb429a","system_id":"levelo_inurba_marseille","lat":43.27337,"lon":5.39137,"is_reserved":false,"is_disabled":true,"rental_uris":{"android":"levelo://app?vid=92270047-ae3c-41b7-b379-3ae8d1fb429a","ios":"levelo://app?vid=92270047-ae3c-41b7-b379-3ae8d1fb429a"},"vehicle_type_id":"4","last_reported":1748434878,"current_range_meters":2000,"station_id":"","pricing_plan_id":"cebpf4jnsgd1na2vs0mg"},{"bike_id":"5dec7172-352a-4869-8ab6-e0d10420ad8f","system_id":"levelo_inurba_marseille","lat":43.28851,"lon":5.35845,"is_reserved":false,"is_disabled":true,"rental_uris":{"android":"levelo://app?vid=5dec7172-352a-4869-8ab6-e0d10420ad8f","ios":"levelo://app?vid=5dec7172-352a-4869-8ab6-e0d10420ad8f"},"vehicle_type_id":"4","last_reported":1748434878,"current_range_meters":2000,"station_id":"ce4bhb12rcd13ifvqem0","pricing_plan_id":"cebpf4jnsgd1na2vs0mg"},{"bike_id":"430d6ae7-bcc7-4791-abc6-3c54cfb60c1a","system_id":"levelo_inurba_marseille","lat":43.301514,"lon":5.380643,"is_reserved":false,"is_disabled":false,"rental_uris":{"android":"levelo://app?vid=430d6ae7-bcc7-4791-abc6-3c54cfb60c1a","ios":"levelo://app?vid=430d6ae7-bcc7-4791-abc6-3c54cfb60c1a"},"vehicle_type_id":"4","last_reported":1748434878,"current_range_meters":2800,"station_id":"ce4bgjp2rcd13ifvqbh0","pricing_plan_id":"cebpf4jnsgd1na2vs0mg"},{"bike_id":"9eb8b61f-4da7-432a-add1-ad588f71b6c2","system_id":"levelo_inurba_marseille","lat":43.30154,"lon":5.37407,"is_reserved":false,"is_disabled":false,"rental_uris":{"android":"levelo://app?vid=9eb8b61f-4da7-432a-add1-ad588f71b6c2","ios":"levelo://app?vid=9eb8b61f-4da7-432a-add1-ad588f71b6c2"},"vehicle_type_id":"4","last_reported":1748434878,"current_range_meters":2800,"station_id":"ce4bgs92rcd13ifvqcc0","pricing_plan_id":"cebpf4jnsgd1na2vs0mg"},{"bike_id":"2755c6ea-3749-410b-9244-a203642cf7f3","system_id":"levelo_inurba_marseille","lat":43.29016,"lon":5.38119,"is_reserved":false,"is_disabled":false,"rental_uris":{"android":"levelo://app?vid=2755c6ea-3749-410b-9244-a203642cf7f3","ios":"levelo://app?vid=2755c6ea-3749-410b-9244-a203642cf7f3"},"vehicle_type_id":"4","last_reported":1748434878,"current_range_meters":2800,"station_id":"ce4bh4p2rcd13ifvqe1g","pricing_plan_id":"cebpf4jnsgd1na2vs0mg"},{"bike_id":"6dce9e12-4adf-46ff-afec-43263a821129","system_id":"levelo_inurba_marseille","lat":43.28033,"lon":5.36951,"is_reserved":false,"is_disabled":false,"rental_uris":{"android":"levelo://app?vid=6dce9e12-4adf-46ff-afec-43263a821129","ios":"levelo://app?vid=6dce9e12-4adf-46ff-afec-43263a821129"},"vehicle_type_id":"4","last_reported":1748434878,"current_range_meters":2800,"station_id":"ce4bha12rcd13ifvqef0","pricing_plan_id":"cebpf4jnsgd1na2vs0mg"},{"bike_id":"2a35e3c4-f0c7-4b95-a142-7b39c3c2e29c","system_id":"levelo_inurba_marseille","lat":43.26554,"lon":5.37283,"is_reserved":false,"is_disabled":false,"rental_uris":{"android":"levelo://app?vid=2a35e3c4-f0c7-4b95-a142-7b39c3c2e29c","ios":"levelo://app?vid=2a35e3c4-f0c7-4b95-a142-7b39c3c2e29c"},"vehicle_type_id":"4","last_reported":1748434878,"current_range_meters":2800,"station_id":"ce4bhg12rcd13ifvqf70","pricing_plan_id":"cebpf4jnsgd1na2vs0mg"},{"bike_id":"8786d817-1cde-445e-8fb4-dc221a1e4883","system_id":"levelo_inurba_marseille","lat":43.24807,"lon":5.37459,"is_reserved":false,"is_disabled":false,"rental_uris":{"android":"levelo://app?vid=8786d817-1cde-445e-8fb4-dc221a1e4883","ios":"levelo://app?vid=8786d817-1cde-445e-8fb4-dc221a1e4883"},"vehicle_type_id":"4","last_reported":1748434878,"current_range_meters":2800,"station_id":"ce4bhgh2rcd13ifvqfb0","pricing_plan_id":"cebpf4jnsgd1na2vs0mg"},{"bike_id":"39bf9c1d-a558-4ab5-8859-b32a402d3fec","system_id":"levelo_inurba_marseille","lat":43.304517,"lon":5.397072,"is_reserved":false,"is_disabled":false,"rental_uris":{"android":"levelo://app?vid=39bf9c1d-a558-4ab5-8859-b32a402d3fec","ios":"levelo://app?vid=39bf9c1d-a558-4ab5-8859-b32a402d3fec"},"vehicle_type_id":"4","last_reported":1748434878,"current_range_meters":3200,"station_id":"ce4bh092rcd13ifvqd20","pricing_plan_id":"cebpf4jnsgd1na2vs0mg"},{"bike_id":"36e7144c-563f-4b9a-81c1-79523294a38e","system_id":"levelo_inurba_marseille","lat":43.2842,"lon":5.3499,"is_reserved":false,"is_disabled":false,"rental_uris":{"android":"levelo://app?vid=36e7144c-563f-4b9a-81c1-79523294a38e","ios":"levelo://app?vid=36e7144c-563f-4b9a-81c1-79523294a38e"},"vehicle_type_id":"4","last_reported":1748434878,"current_range_meters":3200,"station_id":"ce4bhbh2rcd13ifvqepg","pricing_plan_id":"cebpf4jnsgd1na2vs0mg"},{"bike_id":"e488be46-8a01-4768-80bb-b61362d13a01","system_id":"levelo_inurba_marseille","lat":43.26794,"lon":5.39415,"is_reserved":false,"is_disabled":false,"rental_uris":{"android":"levelo://app?vid=e488be46-8a01-4768-80bb-b61362d13a01","ios":"levelo://app?vid=e488be46-8a01-4768-80bb-b61362d13a01"},"vehicle_type_id":"4","last_reported":1748434878,"current_range_meters":3200,"station_id":"ce4bhh12rcd13ifvqfg0","pricing_plan_id":"cebpf4jnsgd1na2vs0mg"},{"bike_id":"6f3a811c-4722-4fef-a8e2-754be8c7b0cb","system_id":"levelo_inurba_marseille","lat":43.2417,"lon":5.36394,"is_reserved":false,"is_disabled":false,"rental_uris":{"android":"levelo://app?vid=6f3a811c-4722-4fef-a8e2-754be8c7b0cb","ios":"levelo://app?vid=6f3a811c-4722-4fef-a8e2-754be8c7b0cb"},"vehicle_type_id":"4","last_reported":1748434878,"current_range_meters":3200,"station_id":"cpo36qri1sfpv3e86is0","pricing_plan_id":"cebpf4jnsgd1na2vs0mg"},{"bike_id":"bc025435-6e22-4530-9e01-4f08ead8d148","system_id":"levelo_inurba_marseille","lat":43.254969,"lon":5.37649,"is_reserved":false,"is_disabled":false,"rental_uris":{"android":"levelo://app?vid=bc025435-6e22-4530-9e01-4f08ead8d148","ios":"levelo://app?vid=bc025435-6e22-4530-9e01-4f08ead8d148"},"vehicle_type_id":"4","last_reported":1748434878,"current_range_meters":3600,"station_id":"","pricing_plan_id":"cebpf4jnsgd1na2vs0mg"},{"bike_id":"c20f8f86-bc1e-4da2-9510-d9dc980fa120","system_id":"levelo_inurba_marseille","lat":43.295929,"lon":5.381004,"is_reserved":false,"is_disabled":false,"rental_uris":{"android":"levelo://app?vid=c20f8f86-bc1e-4da2-9510-d9dc980fa120","ios":"levelo://app?vid=c20f8f86-bc1e-4da2-9510-d9dc980fa120"},"vehicle_type_id":"4","last_reported":1748434878,"current_range_meters":3600,"station_id":"ce4bgl12rcd13ifvqbo0","pricing_plan_id":"cebpf4jnsgd1na2vs0mg"},{"bike_id":"a6dda9d3-9e41-4132-bfca-41c7da65584f","system_id":"levelo_inurba_marseille","lat":43.30128,"lon":5.37427,"is_reserved":false,"is_disabled":false,"rental_uris":{"android":"levelo://app?vid=a6dda9d3-9e41-4132-bfca-41c7da65584f","ios":"levelo://app?vid=a6dda9d3-9e41-4132-bfca-41c7da65584f"},"vehicle_type_id":"4","last_reported":1748434878,"current_range_meters":3600,"station_id":"ce4bgs92rcd13ifvqcc0","pricing_plan_id":"cebpf4jnsgd1na2vs0mg"},{"bike_id":"a74a0535-7463-4396-b6fb-f1b136621a0b","system_id":"levelo_inurba_marseille","lat":43.282638,"lon":5.350669,"is_reserved":false,"is_disabled":false,"rental_uris":{"android":"levelo://app?vid=a74a0535-7463-4396-b6fb-f1b136621a0b","ios":"levelo://app?vid=a74a0535-7463-4396-b6fb-f1b136621a0b"},"vehicle_type_id":"4","last_reported":1748434878,"current_range_meters":3600,"station_id":"ce4bhbp2rcd13ifvqerg","pricing_plan_id":"cebpf4jnsgd1na2vs0mg"},{"bike_id":"4d716288-898c-42c4-b5fb-61838f069cce","system_id":"levelo_inurba_marseille","lat":43.27298,"lon":5.39075,"is_reserved":false,"is_disabled":false,"rental_uris":{"android":"levelo://app?vid=4d716288-898c-42c4-b5fb-61838f069cce","ios":"levelo://app?vid=4d716288-898c-42c4-b5fb-61838f069cce"},"vehicle_type_id":"4","last_reported":1748434878,"current_range_meters":3600,"station_id":"ce4bhgp2rcd13ifvqfe0","pricing_plan_id":"cebpf4jnsgd1na2vs0mg"},{"bike_id":"785cb07b-a0c4-4f19-b57f-92e1fcb6664b","system_id":"levelo_inurba_marseille","lat":43.25581,"lon":5.38242,"is_reserved":false,"is_disabled":false,"rental_uris":{"android":"levelo://app?vid=785cb07b-a0c4-4f19-b57f-92e1fcb6664b","ios":"levelo://app?vid=785cb07b-a0c4-4f19-b57f-92e1fcb6664b"},"vehicle_type_id":"4","last_reported":1748434878,"current_range_meters":3600,"station_id":"ce4bhih2rcd13ifvqfs0","pricing_plan_id":"cebpf4jnsgd1na2vs0mg"},{"bike_id":"f4c45e95-54cf-46e5-83c5-d89c27c9a69c","system_id":"levelo_inurba_marseille","lat":43.272963,"lon":5.415785,"is_reserved":false,"is_disabled":false,"rental_uris":{"android":"levelo://app?vid=f4c45e95-54cf-46e5-83c5-d89c27c9a69c","ios":"levelo://app?vid=f4c45e95-54cf-46e5-83c5-d89c27c9a69c"},"vehicle_type_id":"4","last_reported":1748434878,"current_range_meters":4000,"station_id":"","pricing_plan_id":"cebpf4jnsgd1na2vs0mg"},{"bike_id":"ef262794-419f-4412-a499-103e0f71123f","system_id":"levelo_inurba_marseille","lat":43.30161,"lon":5.37417,"is_reserved":false,"is_disabled":false,"rental_uris":{"android":"levelo://app?vid=ef262794-419f-4412-a499-103e0f71123f","ios":"levelo://app?vid=ef262794-419f-4412-a499-103e0f71123f"},"vehicle_type_id":"4","last_reported":1748434878,"current_range_meters":4000,"station_id":"ce4bgs92rcd13ifvqcc0","pricing_plan_id":"cebpf4jnsgd1na2vs0mg"},{"bike_id":"7b4a91a3-47c3-485e-9aba-123be089889c","system_id":"levelo_inurba_marseille","lat":43.31331,"lon":5.39715,"is_reserved":false,"is_disabled":false,"rental_uris":{"android":"levelo://app?vid=7b4a91a3-47c3-485e-9aba-123be089889c","ios":"levelo://app?vid=7b4a91a3-47c3-485e-9aba-123be089889c"},"vehicle_type_id":"4","last_reported":1748434878,"current_range_meters":4000,"station_id":"ce4bgvp2rcd13ifvqcu0","pricing_plan_id":"cebpf4jnsgd1na2vs0mg"},{"bike_id":"e793f3a4-396b-48da-ac85-859fc70241ca","system_id":"levelo_inurba_marseille","lat":43.26554,"lon":5.37309,"is_reserved":false,"is_disabled":false,"rental_uris":{"android":"levelo://app?vid=e793f3a4-396b-48da-ac85-859fc70241ca","ios":"levelo://app?vid=e793f3a4-396b-48da-ac85-859fc70241ca"},"vehicle_type_id":"4","last_reported":1748434878,"current_range_meters":4000,"station_id":"ce4bhg12rcd13ifvqf70","pricing_plan_id":"cebpf4jnsgd1na2vs0mg"},{"bike_id":"e5df57e7-77ab-4398-9a77-ecb6ecf71fb4","system_id":"levelo_inurba_marseille","lat":43.286545,"lon":5.36349,"is_reserved":false,"is_disabled":false,"rental_uris":{"android":"levelo://app?vid=e5df57e7-77ab-4398-9a77-ecb6ecf71fb4","ios":"levelo://app?vid=e5df57e7-77ab-4398-9a77-ecb6ecf71fb4"},"vehicle_type_id":"4","last_reported":1748434878,"current_range_meters":4400,"station_id":"ce4bhah2rcd13ifvqej0","pricing_plan_id":"cebpf4jnsgd1na2vs0mg"},{"bike_id":"29e6eaaf-c5e4-491e-be3f-3fe88304f36b","system_id":"levelo_inurba_marseille","lat":43.28419,"lon":5.34978,"is_reserved":false,"is_disabled":false,"rental_uris":{"android":"levelo://app?vid=29e6eaaf-c5e4-491e-be3f-3fe88304f36b","ios":"levelo://app?vid=29e6eaaf-c5e4-491e-be3f-3fe88304f36b"},"vehicle_type_id":"4","last_reported":1748434878,"current_range_meters":4400,"station_id":"ce4bhbh2rcd13ifvqepg","pricing_plan_id":"cebpf4jnsgd1na2vs0mg"},{"bike_id":"43e4d072-02df-4dae-affb-0193ed1e7187","system_id":"levelo_inurba_marseille","lat":43.28417,"lon":5.34986,"is_reserved":false,"is_disabled":false,"rental_uris":{"android":"levelo://app?vid=43e4d072-02df-4dae-affb-0193ed1e7187","ios":"levelo://app?vid=43e4d072-02df-4dae-affb-0193ed1e7187"},"vehicle_type_id":"4","last_reported":1748434878,"current_range_meters":4400,"station_id":"ce4bhbh2rcd13ifvqepg","pricing_plan_id":"cebpf4jnsgd1na2vs0mg"},{"bike_id":"d80dbf13-0913-4f64-9a46-eb2e3d34b0bf","system_id":"levelo_inurba_marseille","lat":43.27053,"lon":5.40261,"is_reserved":false,"is_disabled":false,"rental_uris":{"android":"levelo://app?vid=d80dbf13-0913-4f64-9a46-eb2e3d34b0bf","ios":"levelo://app?vid=d80dbf13-0913-4f64-9a46-eb2e3d34b0bf"},"vehicle_type_id":"4","last_reported":1748434878,"current_range_meters":4400,"station_id":"ce4bhk92rcd13ifvqgc0","pricing_plan_id":"cebpf4jnsgd1na2vs0mg"},{"bike_id":"ab5948d0-e1bb-4bc1-ba0f-7e46b0a11313","system_id":"levelo_inurba_marseille","lat":43.22938,"lon":5.3537,"is_reserved":false,"is_disabled":false,"rental_uris":{"android":"levelo://app?vid=ab5948d0-e1bb-4bc1-ba0f-7e46b0a11313","ios":"levelo://app?vid=ab5948d0-e1bb-4bc1-ba0f-7e46b0a11313"},"vehicle_type_id":"4","last_reported":1748434878,"current_range_meters":4400,"station_id":"cpo3532slgdg3j2ikp40","pricing_plan_id":"cebpf4jnsgd1na2vs0mg"},{"bike_id":"48302b09-9796-4c07-873c-71c536e0622c","system_id":"levelo_inurba_marseille","lat":43.24165,"lon":5.36391,"is_reserved":false,"is_disabled":false,"rental_uris":{"android":"levelo://app?vid=48302b09-9796-4c07-873c-71c536e0622c","ios":"levelo://app?vid=48302b09-9796-4c07-873c-71c536e0622c"},"vehicle_type_id":"4","last_reported":1748434878,"current_range_meters":4400,"station_id":"cpo36qri1sfpv3e86is0","pricing_plan_id":"cebpf4jnsgd1na2vs0mg"},{"bike_id":"3fe6ed2d-7fb1-4ba4-94c9-fa58c4b0335c","system_id":"levelo_inurba_marseille","lat":43.32269,"lon":5.37644,"is_reserved":false,"is_disabled":false,"rental_uris":{"android":"levelo://app?vid=3fe6ed2d-7fb1-4ba4-94c9-fa58c4b0335c","ios":"levelo://app?vid=3fe6ed2d-7fb1-4ba4-94c9-fa58c4b0335c"},"vehicle_type_id":"4","last_reported":1748434878,"current_range_meters":4800,"station_id":"","pricing_plan_id":"cebpf4jnsgd1na2vs0mg"},{"bike_id":"19f93508-3622-4427-8346-894d8584d3ff","system_id":"levelo_inurba_marseille","lat":43.31166,"lon":5.38723,"is_reserved":false,"is_disabled":false,"rental_uris":{"android":"levelo://app?vid=19f93508-3622-4427-8346-894d8584d3ff","ios":"levelo://app?vid=19f93508-3622-4427-8346-894d8584d3ff"},"vehicle_type_id":"4","last_reported":1748434878,"current_range_meters":4800,"station_id":"ce4bgv12rcd13ifvqcp0","pricing_plan_id":"cebpf4jnsgd1na2vs0mg"},{"bike_id":"64ebf108-80e6-43ce-8b08-4c70181a0db5","system_id":"levelo_inurba_marseille","lat":43.23199,"lon":5.35553,"is_reserved":false,"is_disabled":false,"rental_uris":{"android":"levelo://app?vid=64ebf108-80e6-43ce-8b08-4c70181a0db5","ios":"levelo://app?vid=64ebf108-80e6-43ce-8b08-4c70181a0db5"},"vehicle_type_id":"4","last_reported":1748434878,"current_range_meters":4800,"station_id":"ce4bhu92rcd13ifvqi70","pricing_plan_id":"cebpf4jnsgd1na2vs0mg"},{"bike_id":"fd7a94dc-d420-4531-a441-51e8a1b1cfd9","system_id":"levelo_inurba_marseille","lat":43.24175,"lon":5.36395,"is_reserved":false,"is_disabled":false,"rental_uris":{"android":"levelo://app?vid=fd7a94dc-d420-4531-a441-51e8a1b1cfd9","ios":"levelo://app?vid=fd7a94dc-d420-4531-a441-51e8a1b1cfd9"},"vehicle_type_id":"4","last_reported":1748434878,"current_range_meters":4800,"station_id":"cpo36qri1sfpv3e86is0","pricing_plan_id":"cebpf4jnsgd1na2vs0mg"},{"bike_id":"dbf52771-fbce-4ac8-b2de-8b0e72fd38e2","system_id":"levelo_inurba_marseille","lat":43.30201,"lon":5.36614,"is_reserved":false,"is_disabled":false,"rental_uris":{"android":"levelo://app?vid=dbf52771-fbce-4ac8-b2de-8b0e72fd38e2","ios":"levelo://app?vid=dbf52771-fbce-4ac8-b2de-8b0e72fd38e2"},"vehicle_type_id":"4","last_reported":1748434878,"current_range_meters":5600,"station_id":"ce4bgrh2rcd13ifvqc8g","pricing_plan_id":"cebpf4jnsgd1na2vs0mg"},{"bike_id":"38fa46d6-9c54-418a-b3d2-3c93b3b25cfa","system_id":"levelo_inurba_marseille","lat":43.31121,"lon":5.37759,"is_reserved":false,"is_disabled":false,"rental_uris":{"android":"levelo://app?vid=38fa46d6-9c54-418a-b3d2-3c93b3b25cfa","ios":"levelo://app?vid=38fa46d6-9c54-418a-b3d2-3c93b3b25cfa"},"vehicle_type_id":"4","last_reported":1748434878,"current_range_meters":5600,"station_id":"ce4bgt92rcd13ifvqcg0","pricing_plan_id":"cebpf4jnsgd1na2vs0mg"},{"bike_id":"85232110-c612-4563-8b7c-229e3ee3f548","system_id":"levelo_inurba_marseille","lat":43.29445,"lon":5.39753,"is_reserved":false,"is_disabled":false,"rental_uris":{"android":"levelo://app?vid=85232110-c612-4563-8b7c-229e3ee3f548","ios":"levelo://app?vid=85232110-c612-4563-8b7c-229e3ee3f548"},"vehicle_type_id":"4","last_reported":1748434878,"current_range_meters":5600,"station_id":"ce4bh3h2rcd13ifvqdo0","pricing_plan_id":"cebpf4jnsgd1na2vs0mg"},{"bike_id":"8cd7d124-072d-4c44-bbce-b1d6631a0a1f","system_id":"levelo_inurba_marseille","lat":43.28669,"lon":5.38675,"is_reserved":false,"is_disabled":false,"rental_uris":{"android":"levelo://app?vid=8cd7d124-072d-4c44-bbce-b1d6631a0a1f","ios":"levelo://app?vid=8cd7d124-072d-4c44-bbce-b1d6631a0a1f"},"vehicle_type_id":"4","last_reported":1748434878,"current_range_meters":5600,"station_id":"ce4bh492rcd13ifvqdug","pricing_plan_id":"cebpf4jnsgd1na2vs0mg"},{"bike_id":"3eb34e2b-61d8-44bb-b535-149c94bea4fb","system_id":"levelo_inurba_marseille","lat":43.29191,"lon":5.35801,"is_reserved":false,"is_disabled":false,"rental_uris":{"android":"levelo://app?vid=3eb34e2b-61d8-44bb-b535-149c94bea4fb","ios":"levelo://app?vid=3eb34e2b-61d8-44bb-b535-149c94bea4fb"},"vehicle_type_id":"4","last_reported":1748434878,"current_range_meters":5600,"station_id":"ce4bhb12rcd13ifvqel0","pricing_plan_id":"cebpf4jnsgd1na2vs0mg"},{"bike_id":"ad437dbc-9917-44a3-899f-bfc0884a314c","system_id":"levelo_inurba_marseille","lat":43.28412,"lon":5.34975,"is_reserved":false,"is_disabled":false,"rental_uris":{"android":"levelo://app?vid=ad437dbc-9917-44a3-899f-bfc0884a314c","ios":"levelo://app?vid=ad437dbc-9917-44a3-899f-bfc0884a314c"},"vehicle_type_id":"4","last_reported":1748434878,"current_range_meters":6000,"station_id":"ce4bhbh2rcd13ifvqepg","pricing_plan_id":"cebpf4jnsgd1na2vs0mg"},{"bike_id":"b0551037-bc1b-42e7-a8f4-21860c1cae8a","system_id":"levelo_inurba_marseille","lat":43.2827,"lon":5.35079,"is_reserved":false,"is_disabled":false,"rental_uris":{"android":"levelo://app?vid=b0551037-bc1b-42e7-a8f4-21860c1cae8a","ios":"levelo://app?vid=b0551037-bc1b-42e7-a8f4-21860c1cae8a"},"vehicle_type_id":"4","last_reported":1748434878,"current_range_meters":6000,"station_id":"ce4bhbp2rcd13ifvqerg","pricing_plan_id":"cebpf4jnsgd1na2vs0mg"},{"bike_id":"2cebc787-654e-4704-9970-6b3999583f38","system_id":"levelo_inurba_marseille","lat":43.252,"lon":5.40265,"is_reserved":false,"is_disabled":false,"rental_uris":{"android":"levelo://app?vid=2cebc787-654e-4704-9970-6b3999583f38","ios":"levelo://app?vid=2cebc787-654e-4704-9970-6b3999583f38"},"vehicle_type_id":"4","last_reported":1748434878,"current_range_meters":6400,"station_id":"","pricing_plan_id":"cebpf4jnsgd1na2vs0mg"},{"bike_id":"66db8b9d-3924-4098-9a43-1a4fa23b7f3b","system_id":"levelo_inurba_marseille","lat":43.27052,"lon":5.40265,"is_reserved":false,"is_disabled":false,"rental_uris":{"android":"levelo://app?vid=66db8b9d-3924-4098-9a43-1a4fa23b7f3b","ios":"levelo://app?vid=66db8b9d-3924-4098-9a43-1a4fa23b7f3b"},"vehicle_type_id":"4","last_reported":1748434878,"current_range_meters":6400,"station_id":"ce4bhk92rcd13ifvqgc0","pricing_plan_id":"cebpf4jnsgd1na2vs0mg"},{"bike_id":"efe5509f-fbd5-40fb-b83f-1a96d9c68cfe","system_id":"levelo_inurba_marseille","lat":43.2681,"lon":5.40264,"is_reserved":false,"is_disabled":false,"rental_uris":{"android":"levelo://app?vid=efe5509f-fbd5-40fb-b83f-1a96d9c68cfe","ios":"levelo://app?vid=efe5509f-fbd5-40fb-b83f-1a96d9c68cfe"},"vehicle_type_id":"4","last_reported":1748434878,"current_range_meters":6400,"station_id":"ce501612rcd8frsf0b60","pricing_plan_id":"cebpf4jnsgd1na2vs0mg"},{"bike_id":"48aa7ac3-49d5-4846-bbdf-873a2ffe6bd1","system_id":"levelo_inurba_marseille","lat":43.229289,"lon":5.353762,"is_reserved":false,"is_disabled":false,"rental_uris":{"android":"levelo://app?vid=48aa7ac3-49d5-4846-bbdf-873a2ffe6bd1","ios":"levelo://app?vid=48aa7ac3-49d5-4846-bbdf-873a2ffe6bd1"},"vehicle_type_id":"4","last_reported":1748434878,"current_range_meters":6400,"station_id":"cpo3532slgdg3j2ikp40","pricing_plan_id":"cebpf4jnsgd1na2vs0mg"},{"bike_id":"dea7d9d6-c5d3-45af-a5a5-fc6f98230ba4","system_id":"levelo_inurba_marseille","lat":43.273725,"lon":5.3624,"is_reserved":false,"is_disabled":false,"rental_uris":{"android":"levelo://app?vid=dea7d9d6-c5d3-45af-a5a5-fc6f98230ba4","ios":"levelo://app?vid=dea7d9d6-c5d3-45af-a5a5-fc6f98230ba4"},"vehicle_type_id":"4","last_reported":1748434878,"current_range_meters":6800,"station_id":"","pricing_plan_id":"cebpf4jnsgd1na2vs0mg"},{"bike_id":"091a37fd-e9be-4f77-94fd-1e5264d68aae","system_id":"levelo_inurba_marseille","lat":43.286118,"lon":5.350965,"is_reserved":false,"is_disabled":false,"rental_uris":{"android":"levelo://app?vid=091a37fd-e9be-4f77-94fd-1e5264d68aae","ios":"levelo://app?vid=091a37fd-e9be-4f77-94fd-1e5264d68aae"},"vehicle_type_id":"4","last_reported":1748434878,"current_range_meters":6800,"station_id":"ce4bhch2rcd13ifvqeug","pricing_plan_id":"cebpf4jnsgd1na2vs0mg"},{"bike_id":"70688a50-6309-4620-989f-a8560a2c2ab8","system_id":"levelo_inurba_marseille","lat":43.266012,"lon":5.373255,"is_reserved":false,"is_disabled":false,"rental_uris":{"android":"levelo://app?vid=70688a50-6309-4620-989f-a8560a2c2ab8","ios":"levelo://app?vid=70688a50-6309-4620-989f-a8560a2c2ab8"},"vehicle_type_id":"4","last_reported":1748434878,"current_range_meters":6800,"station_id":"ce4bhh92rcd13ifvqfi0","pricing_plan_id":"cebpf4jnsgd1na2vs0mg"},{"bike_id":"4e1e85a3-afa3-4a71-a987-28d21847f946","system_id":"levelo_inurba_marseille","lat":43.25585,"lon":5.38236,"is_reserved":false,"is_disabled":false,"rental_uris":{"android":"levelo://app?vid=4e1e85a3-afa3-4a71-a987-28d21847f946","ios":"levelo://app?vid=4e1e85a3-afa3-4a71-a987-28d21847f946"},"vehicle_type_id":"4","last_reported":1748434878,"current_range_meters":6800,"station_id":"ce4bhih2rcd13ifvqfs0","pricing_plan_id":"cebpf4jnsgd1na2vs0mg"},{"bike_id":"a8b114b0-0594-4336-a844-57de2b2236ca","system_id":"levelo_inurba_marseille","lat":43.27068,"lon":5.40255,"is_reserved":false,"is_disabled":false,"rental_uris":{"android":"levelo://app?vid=a8b114b0-0594-4336-a844-57de2b2236ca","ios":"levelo://app?vid=a8b114b0-0594-4336-a844-57de2b2236ca"},"vehicle_type_id":"4","last_reported":1748434878,"current_range_meters":6800,"station_id":"ce4bhk92rcd13ifvqgc0","pricing_plan_id":"cebpf4jnsgd1na2vs0mg"},{"bike_id":"288fdcc1-6836-4125-835a-3abb709a9613","system_id":"levelo_inurba_marseille","lat":43.29723,"lon":5.37686,"is_reserved":false,"is_disabled":false,"rental_uris":{"android":"levelo://app?vid=288fdcc1-6836-4125-835a-3abb709a9613","ios":"levelo://app?vid=288fdcc1-6836-4125-835a-3abb709a9613"},"vehicle_type_id":"4","last_reported":1748434878,"current_range_meters":7200,"station_id":"ce4bgkh2rcd13ifvqbl0","pricing_plan_id":"cebpf4jnsgd1na2vs0mg"},{"bike_id":"1ad88d2a-4b35-4025-b500-901093ea4133","system_id":"levelo_inurba_marseille","lat":43.31231,"lon":5.368728,"is_reserved":false,"is_disabled":false,"rental_uris":{"android":"levelo://app?vid=1ad88d2a-4b35-4025-b500-901093ea4133","ios":"levelo://app?vid=1ad88d2a-4b35-4025-b500-901093ea4133"},"vehicle_type_id":"4","last_reported":1748434878,"current_range_meters":7200,"station_id":"ce4bgl92rcd13ifvqbq0","pricing_plan_id":"cebpf4jnsgd1na2vs0mg"},{"bike_id":"09d62671-16bf-49bf-821f-b9738295ca50","system_id":"levelo_inurba_marseille","lat":43.29265,"lon":5.38448,"is_reserved":false,"is_disabled":false,"rental_uris":{"android":"levelo://app?vid=09d62671-16bf-49bf-821f-b9738295ca50","ios":"levelo://app?vid=09d62671-16bf-49bf-821f-b9738295ca50"},"vehicle_type_id":"4","last_reported":1748434878,"current_range_meters":7200,"station_id":"ce4bh692rcd13ifvqea0","pricing_plan_id":"cebpf4jnsgd1na2vs0mg"},{"bike_id":"4929955d-f179-4a95-a929-4be3b1bee598","system_id":"levelo_inurba_marseille","lat":43.29192,"lon":5.35795,"is_reserved":false,"is_disabled":false,"rental_uris":{"android":"levelo://app?vid=4929955d-f179-4a95-a929-4be3b1bee598","ios":"levelo://app?vid=4929955d-f179-4a95-a929-4be3b1bee598"},"vehicle_type_id":"4","last_reported":1748434878,"current_range_meters":7200,"station_id":"ce4bhb12rcd13ifvqel0","pricing_plan_id":"cebpf4jnsgd1na2vs0mg"},{"bike_id":"39d8ce31-141b-4442-9efb-c6b7374ee3bf","system_id":"levelo_inurba_marseille","lat":43.27359,"lon":5.36224,"is_reserved":false,"is_disabled":false,"rental_uris":{"android":"levelo://app?vid=39d8ce31-141b-4442-9efb-c6b7374ee3bf","ios":"levelo://app?vid=39d8ce31-141b-4442-9efb-c6b7374ee3bf"},"vehicle_type_id":"4","last_reported":1748434878,"current_range_meters":7200,"station_id":"ce4bhbh2rcd13ifvqeo0","pricing_plan_id":"cebpf4jnsgd1na2vs0mg"},{"bike_id":"48df0c86-45ee-478d-bac6-09b4729c0adc","system_id":"levelo_inurba_marseille","lat":43.26551,"lon":5.3732,"is_reserved":false,"is_disabled":false,"rental_uris":{"android":"levelo://app?vid=48df0c86-45ee-478d-bac6-09b4729c0adc","ios":"levelo://app?vid=48df0c86-45ee-478d-bac6-09b4729c0adc"},"vehicle_type_id":"4","last_reported":1748434878,"current_range_meters":7200,"station_id":"ce4bhg12rcd13ifvqf70","pricing_plan_id":"cebpf4jnsgd1na2vs0mg"},{"bike_id":"5cb19ab7-72ab-4ab6-9032-728f3ec287b0","system_id":"levelo_inurba_marseille","lat":43.25103,"lon":5.40329,"is_reserved":false,"is_disabled":false,"rental_uris":{"android":"levelo://app?vid=5cb19ab7-72ab-4ab6-9032-728f3ec287b0","ios":"levelo://app?vid=5cb19ab7-72ab-4ab6-9032-728f3ec287b0"},"vehicle_type_id":"4","last_reported":1748434878,"current_range_meters":7200,"station_id":"ce4bhlh2rcd13ifvqgig","pricing_plan_id":"cebpf4jnsgd1na2vs0mg"},{"bike_id":"a5f90b1e-a09e-40ad-8d54-7442721c8689","system_id":"levelo_inurba_marseille","lat":43.24655,"lon":5.39348,"is_reserved":false,"is_disabled":false,"rental_uris":{"android":"levelo://app?vid=a5f90b1e-a09e-40ad-8d54-7442721c8689","ios":"levelo://app?vid=a5f90b1e-a09e-40ad-8d54-7442721c8689"},"vehicle_type_id":"4","last_reported":1748434878,"current_range_meters":8000,"station_id":"","pricing_plan_id":"cebpf4jnsgd1na2vs0mg"},{"bike_id":"8145cdf9-86b8-4e0f-b8ac-1d21a9f3db6d","system_id":"levelo_inurba_marseille","lat":43.308945,"lon":5.36819,"is_reserved":false,"is_disabled":false,"rental_uris":{"android":"levelo://app?vid=8145cdf9-86b8-4e0f-b8ac-1d21a9f3db6d","ios":"levelo://app?vid=8145cdf9-86b8-4e0f-b8ac-1d21a9f3db6d"},"vehicle_type_id":"4","last_reported":1748434878,"current_range_meters":8000,"station_id":"ce4bgn92rcd13ifvqbvg","pricing_plan_id":"cebpf4jnsgd1na2vs0mg"},{"bike_id":"c68bb8ee-00fc-41ec-b209-969073ede61d","system_id":"levelo_inurba_marseille","lat":43.26475,"lon":5.3952,"is_reserved":false,"is_disabled":false,"rental_uris":{"android":"levelo://app?vid=c68bb8ee-00fc-41ec-b209-969073ede61d","ios":"levelo://app?vid=c68bb8ee-00fc-41ec-b209-969073ede61d"},"vehicle_type_id":"4","last_reported":1748434878,"current_range_meters":8000,"station_id":"ce4bhi12rcd13ifvqfq0","pricing_plan_id":"cebpf4jnsgd1na2vs0mg"},{"bike_id":"71624964-7fb7-4254-a259-ff9c5269297b","system_id":"levelo_inurba_marseille","lat":43.33021,"lon":5.39045,"is_reserved":false,"is_disabled":false,"rental_uris":{"android":"levelo://app?vid=71624964-7fb7-4254-a259-ff9c5269297b","ios":"levelo://app?vid=71624964-7fb7-4254-a259-ff9c5269297b"},"vehicle_type_id":"4","last_reported":1748434878,"current_range_meters":8000,"station_id":"ce4bhr92rcd13ifvqhrg","pricing_plan_id":"cebpf4jnsgd1na2vs0mg"},{"bike_id":"87b395fb-0dfd-464d-b68d-3afc622e0d48","system_id":"levelo_inurba_marseille","lat":43.29596,"lon":5.39468,"is_reserved":false,"is_disabled":false,"rental_uris":{"android":"levelo://app?vid=87b395fb-0dfd-464d-b68d-3afc622e0d48","ios":"levelo://app?vid=87b395fb-0dfd-464d-b68d-3afc622e0d48"},"vehicle_type_id":"4","last_reported":1748434878,"current_range_meters":8400,"station_id":"","pricing_plan_id":"cebpf4jnsgd1na2vs0mg"},{"bike_id":"1a9deaa6-5b0b-41ea-a3a0-9c49f0de8473","system_id":"levelo_inurba_marseille","lat":43.293262,"lon":5.411588,"is_reserved":false,"is_disabled":false,"rental_uris":{"android":"levelo://app?vid=1a9deaa6-5b0b-41ea-a3a0-9c49f0de8473","ios":"levelo://app?vid=1a9deaa6-5b0b-41ea-a3a0-9c49f0de8473"},"vehicle_type_id":"4","last_reported":1748434878,"current_range_meters":8400,"station_id":"","pricing_plan_id":"cebpf4jnsgd1na2vs0mg"},{"bike_id":"5ebb530d-bc75-4e5f-93ea-20dd1bafb530","system_id":"levelo_inurba_marseille","lat":43.28659,"lon":5.36344,"is_reserved":false,"is_disabled":false,"rental_uris":{"android":"levelo://app?vid=5ebb530d-bc75-4e5f-93ea-20dd1bafb530","ios":"levelo://app?vid=5ebb530d-bc75-4e5f-93ea-20dd1bafb530"},"vehicle_type_id":"4","last_reported":1748434878,"current_range_meters":8400,"station_id":"ce4bhah2rcd13ifvqej0","pricing_plan_id":"cebpf4jnsgd1na2vs0mg"},{"bike_id":"64771e4d-f6c3-47f5-a82e-3206c283ec2b","system_id":"levelo_inurba_marseille","lat":43.28944,"lon":5.36644,"is_reserved":false,"is_disabled":false,"rental_uris":{"android":"levelo://app?vid=64771e4d-f6c3-47f5-a82e-3206c283ec2b","ios":"levelo://app?vid=64771e4d-f6c3-47f5-a82e-3206c283ec2b"},"vehicle_type_id":"4","last_reported":1748434878,"current_range_meters":8400,"station_id":"ce4bhap2rcd13ifvqek0","pricing_plan_id":"cebpf4jnsgd1na2vs0mg"},{"bike_id":"38303e76-870d-43ef-b2b6-5b703c7a2576","system_id":"levelo_inurba_marseille","lat":43.27372,"lon":5.36248,"is_reserved":false,"is_disabled":false,"rental_uris":{"android":"levelo://app?vid=38303e76-870d-43ef-b2b6-5b703c7a2576","ios":"levelo://app?vid=38303e76-870d-43ef-b2b6-5b703c7a2576"},"vehicle_type_id":"4","last_reported":1748434878,"current_range_meters":8400,"station_id":"ce4bhbh2rcd13ifvqeo0","pricing_plan_id":"cebpf4jnsgd1na2vs0mg"},{"bike_id":"a295e028-5b93-47df-b142-ffaf2a6017c4","system_id":"levelo_inurba_marseille","lat":43.28272,"lon":5.3506,"is_reserved":false,"is_disabled":false,"rental_uris":{"android":"levelo://app?vid=a295e028-5b93-47df-b142-ffaf2a6017c4","ios":"levelo://app?vid=a295e028-5b93-47df-b142-ffaf2a6017c4"},"vehicle_type_id":"4","last_reported":1748434878,"current_range_meters":8400,"station_id":"ce4bhbp2rcd13ifvqerg","pricing_plan_id":"cebpf4jnsgd1na2vs0mg"},{"bike_id":"a30f0e65-ba7d-424c-bc91-6d97d276f3f5","system_id":"levelo_inurba_marseille","lat":43.231487,"lon":5.437207,"is_reserved":false,"is_disabled":false,"rental_uris":{"android":"levelo://app?vid=a30f0e65-ba7d-424c-bc91-6d97d276f3f5","ios":"levelo://app?vid=a30f0e65-ba7d-424c-bc91-6d97d276f3f5"},"vehicle_type_id":"4","last_reported":1748434878,"current_range_meters":8400,"station_id":"ce4bhmp2rcd13ifvqgog","pricing_plan_id":"cebpf4jnsgd1na2vs0mg"},{"bike_id":"a444e871-37d0-4a4e-9378-ca682dafcf2a","system_id":"levelo_inurba_marseille","lat":43.28443,"lon":5.39197,"is_reserved":false,"is_disabled":false,"rental_uris":{"android":"levelo://app?vid=a444e871-37d0-4a4e-9378-ca682dafcf2a","ios":"levelo://app?vid=a444e871-37d0-4a4e-9378-ca682dafcf2a"},"vehicle_type_id":"4","last_reported":1748434878,"current_range_meters":8400,"station_id":"ce4bhoh2rcd13ifvqh5g","pricing_plan_id":"cebpf4jnsgd1na2vs0mg"},{"bike_id":"1f08f06b-6a6c-43c4-a652-b0fc5b88f927","system_id":"levelo_inurba_marseille","lat":43.31341,"lon":5.36728,"is_reserved":false,"is_disabled":false,"rental_uris":{"android":"levelo://app?vid=1f08f06b-6a6c-43c4-a652-b0fc5b88f927","ios":"levelo://app?vid=1f08f06b-6a6c-43c4-a652-b0fc5b88f927"},"vehicle_type_id":"4","last_reported":1748434878,"current_range_meters":8800,"station_id":"ce4bgr92rcd13ifvqc6g","pricing_plan_id":"cebpf4jnsgd1na2vs0mg"},{"bike_id":"57446db4-f126-4dd0-aace-6e14e7a209bc","system_id":"levelo_inurba_marseille","lat":43.28466,"lon":5.35891,"is_reserved":false,"is_disabled":false,"rental_uris":{"android":"levelo://app?vid=57446db4-f126-4dd0-aace-6e14e7a209bc","ios":"levelo://app?vid=57446db4-f126-4dd0-aace-6e14e7a209bc"},"vehicle_type_id":"4","last_reported":1748434878,"current_range_meters":8800,"station_id":"ce4bhah2rcd13ifvqei0","pricing_plan_id":"cebpf4jnsgd1na2vs0mg"},{"bike_id":"36d15808-ead8-4e63-913a-bca26f82b39f","system_id":"levelo_inurba_marseille","lat":43.28433,"lon":5.35002,"is_reserved":false,"is_disabled":false,"rental_uris":{"android":"levelo://app?vid=36d15808-ead8-4e63-913a-bca26f82b39f","ios":"levelo://app?vid=36d15808-ead8-4e63-913a-bca26f82b39f"},"vehicle_type_id":"4","last_reported":1748434878,"current_range_meters":8800,"station_id":"ce4bhbh2rcd13ifvqepg","pricing_plan_id":"cebpf4jnsgd1na2vs0mg"},{"bike_id":"2acf15bf-7ffb-47bb-8465-2c5c88e7f8bf","system_id":"levelo_inurba_marseille","lat":43.32537,"lon":5.41475,"is_reserved":false,"is_disabled":false,"rental_uris":{"android":"levelo://app?vid=2acf15bf-7ffb-47bb-8465-2c5c88e7f8bf","ios":"levelo://app?vid=2acf15bf-7ffb-47bb-8465-2c5c88e7f8bf"},"vehicle_type_id":"4","last_reported":1748434878,"current_range_meters":8800,"station_id":"ce4bhq12rcd13ifvqhhg","pricing_plan_id":"cebpf4jnsgd1na2vs0mg"},{"bike_id":"1ef26ac3-1e29-40ff-8174-3577f0a2aaaf","system_id":"levelo_inurba_marseille","lat":43.30294,"lon":5.39217,"is_reserved":false,"is_disabled":false,"rental_uris":{"android":"levelo://app?vid=1ef26ac3-1e29-40ff-8174-3577f0a2aaaf","ios":"levelo://app?vid=1ef26ac3-1e29-40ff-8174-3577f0a2aaaf"},"vehicle_type_id":"4","last_reported":1748434878,"current_range_meters":9200,"station_id":"ce4bgkh2rcd13ifvqbk0","pricing_plan_id":"cebpf4jnsgd1na2vs0mg"},{"bike_id":"60c2c037-08ee-4f1c-9f9d-70f5ae856fdc","system_id":"levelo_inurba_marseille","lat":43.29634,"lon":5.40596,"is_reserved":false,"is_disabled":false,"rental_uris":{"android":"levelo://app?vid=60c2c037-08ee-4f1c-9f9d-70f5ae856fdc","ios":"levelo://app?vid=60c2c037-08ee-4f1c-9f9d-70f5ae856fdc"},"vehicle_type_id":"4","last_reported":1748434878,"current_range_meters":9200,"station_id":"ce4bh0h2rcd13ifvqd60","pricing_plan_id":"cebpf4jnsgd1na2vs0mg"},{"bike_id":"4de81305-1118-49f4-8d58-fa6905e4e2a4","system_id":"levelo_inurba_marseille","lat":43.28361,"lon":5.38635,"is_reserved":false,"is_disabled":false,"rental_uris":{"android":"levelo://app?vid=4de81305-1118-49f4-8d58-fa6905e4e2a4","ios":"levelo://app?vid=4de81305-1118-49f4-8d58-fa6905e4e2a4"},"vehicle_type_id":"4","last_reported":1748434878,"current_range_meters":9200,"station_id":"ce4bh492rcd13ifvqdvg","pricing_plan_id":"cebpf4jnsgd1na2vs0mg"},{"bike_id":"b80ee325-09b2-4724-993d-4f8d3707c41c","system_id":"levelo_inurba_marseille","lat":43.25862,"lon":5.39902,"is_reserved":false,"is_disabled":false,"rental_uris":{"android":"levelo://app?vid=b80ee325-09b2-4724-993d-4f8d3707c41c","ios":"levelo://app?vid=b80ee325-09b2-4724-993d-4f8d3707c41c"},"vehicle_type_id":"4","last_reported":1748434878,"current_range_meters":9200,"station_id":"ce4bhl92rcd13ifvqghg","pricing_plan_id":"cebpf4jnsgd1na2vs0mg"},{"bike_id":"c7ace796-1671-46ef-86d1-01ee758a08b4","system_id":"levelo_inurba_marseille","lat":43.24548,"lon":5.39521,"is_reserved":false,"is_disabled":false,"rental_uris":{"android":"levelo://app?vid=c7ace796-1671-46ef-86d1-01ee758a08b4","ios":"levelo://app?vid=c7ace796-1671-46ef-86d1-01ee758a08b4"},"vehicle_type_id":"4","last_reported":1748434878,"current_range_meters":9200,"station_id":"ce4bhlp2rcd13ifvqgjg","pricing_plan_id":"cebpf4jnsgd1na2vs0mg"},{"bike_id":"9760fe8a-7d47-4472-a6df-282c44b5bd4c","system_id":"levelo_inurba_marseille","lat":43.24082,"lon":5.37751,"is_reserved":false,"is_disabled":false,"rental_uris":{"android":"levelo://app?vid=9760fe8a-7d47-4472-a6df-282c44b5bd4c","ios":"levelo://app?vid=9760fe8a-7d47-4472-a6df-282c44b5bd4c"},"vehicle_type_id":"4","last_reported":1748434878,"current_range_meters":9200,"station_id":"ce4bhnp2rcd13ifvqgvg","pricing_plan_id":"cebpf4jnsgd1na2vs0mg"},{"bike_id":"a943a767-5e89-4759-ac20-6dfe4b209c1a","system_id":"levelo_inurba_marseille","lat":43.28697,"lon":5.39992,"is_reserved":false,"is_disabled":false,"rental_uris":{"android":"levelo://app?vid=a943a767-5e89-4759-ac20-6dfe4b209c1a","ios":"levelo://app?vid=a943a767-5e89-4759-ac20-6dfe4b209c1a"},"vehicle_type_id":"4","last_reported":1748434878,"current_range_meters":9200,"station_id":"ce4bho92rcd13ifvqh3g","pricing_plan_id":"cebpf4jnsgd1na2vs0mg"},{"bike_id":"c98963b4-c6fb-469c-bfaa-0a3d1e373178","system_id":"levelo_inurba_marseille","lat":43.24166,"lon":5.36393,"is_reserved":false,"is_disabled":false,"rental_uris":{"android":"levelo://app?vid=c98963b4-c6fb-469c-bfaa-0a3d1e373178","ios":"levelo://app?vid=c98963b4-c6fb-469c-bfaa-0a3d1e373178"},"vehicle_type_id":"4","last_reported":1748434878,"current_range_meters":9200,"station_id":"cpo36qri1sfpv3e86is0","pricing_plan_id":"cebpf4jnsgd1na2vs0mg"},{"bike_id":"0dc73142-b622-4350-a425-71b338cbd90c","system_id":"levelo_inurba_marseille","lat":43.29968,"lon":5.37166,"is_reserved":false,"is_disabled":false,"rental_uris":{"android":"levelo://app?vid=0dc73142-b622-4350-a425-71b338cbd90c","ios":"levelo://app?vid=0dc73142-b622-4350-a425-71b338cbd90c"},"vehicle_type_id":"4","last_reported":1748434878,"current_range_meters":9600,"station_id":"ce4bgr92rcd13ifvqc7g","pricing_plan_id":"cebpf4jnsgd1na2vs0mg"},{"bike_id":"24917447-89aa-431c-a6ac-82a091a12b52","system_id":"levelo_inurba_marseille","lat":43.24651,"lon":5.38894,"is_reserved":false,"is_disabled":false,"rental_uris":{"android":"levelo://app?vid=24917447-89aa-431c-a6ac-82a091a12b52","ios":"levelo://app?vid=24917447-89aa-431c-a6ac-82a091a12b52"},"vehicle_type_id":"4","last_reported":1748434878,"current_range_meters":9600,"station_id":"ce4bhg12rcd13ifvqf60","pricing_plan_id":"cebpf4jnsgd1na2vs0mg"},{"bike_id":"4b04b1e6-7ad3-4768-81e4-2f1bdb89d1e3","system_id":"levelo_inurba_marseille","lat":43.25107,"lon":5.40318,"is_reserved":false,"is_disabled":false,"rental_uris":{"android":"levelo://app?vid=4b04b1e6-7ad3-4768-81e4-2f1bdb89d1e3","ios":"levelo://app?vid=4b04b1e6-7ad3-4768-81e4-2f1bdb89d1e3"},"vehicle_type_id":"4","last_reported":1748434878,"current_range_meters":9600,"station_id":"ce4bhlh2rcd13ifvqgig","pricing_plan_id":"cebpf4jnsgd1na2vs0mg"},{"bike_id":"ac708e1b-dd6e-402e-910d-7134f4a9df41","system_id":"levelo_inurba_marseille","lat":43.308011,"lon":5.435257,"is_reserved":false,"is_disabled":false,"rental_uris":{"android":"levelo://app?vid=ac708e1b-dd6e-402e-910d-7134f4a9df41","ios":"levelo://app?vid=ac708e1b-dd6e-402e-910d-7134f4a9df41"},"vehicle_type_id":"4","last_reported":1748434878,"current_range_meters":9600,"station_id":"ce4bhph2rcd13ifvqheg","pricing_plan_id":"cebpf4jnsgd1na2vs0mg"},{"bike_id":"16578a9c-c460-4d38-be25-a20250881a73","system_id":"levelo_inurba_marseille","lat":43.32231,"lon":5.3842,"is_reserved":false,"is_disabled":false,"rental_uris":{"android":"levelo://app?vid=16578a9c-c460-4d38-be25-a20250881a73","ios":"levelo://app?vid=16578a9c-c460-4d38-be25-a20250881a73"},"vehicle_type_id":"4","last_reported":1748434878,"current_range_meters":10000,"station_id":"","pricing_plan_id":"cebpf4jnsgd1na2vs0mg"},{"bike_id":"fcf11e6c-0e27-4e51-a890-c1e385240db5","system_id":"levelo_inurba_marseille","lat":43.298407,"lon":5.362736,"is_reserved":false,"is_disabled":false,"rental_uris":{"android":"levelo://app?vid=fcf11e6c-0e27-4e51-a890-c1e385240db5","ios":"levelo://app?vid=fcf11e6c-0e27-4e51-a890-c1e385240db5"},"vehicle_type_id":"4","last_reported":1748434878,"current_range_meters":10000,"station_id":"ce4bgpp2rcd13ifvqc3g","pricing_plan_id":"cebpf4jnsgd1na2vs0mg"},{"bike_id":"d3c04bcf-f943-4f55-80d9-ec7734bdde63","system_id":"levelo_inurba_marseille","lat":43.29889,"lon":5.38916,"is_reserved":false,"is_disabled":false,"rental_uris":{"android":"levelo://app?vid=d3c04bcf-f943-4f55-80d9-ec7734bdde63","ios":"levelo://app?vid=d3c04bcf-f943-4f55-80d9-ec7734bdde63"},"vehicle_type_id":"4","last_reported":1748434878,"current_range_meters":10000,"station_id":"ce4bh392rcd13ifvqdl0","pricing_plan_id":"cebpf4jnsgd1na2vs0mg"},{"bike_id":"aa4eeb3d-8a87-4d70-bbb9-ae22a2e3f103","system_id":"levelo_inurba_marseille","lat":43.2862,"lon":5.35099,"is_reserved":false,"is_disabled":false,"rental_uris":{"android":"levelo://app?vid=aa4eeb3d-8a87-4d70-bbb9-ae22a2e3f103","ios":"levelo://app?vid=aa4eeb3d-8a87-4d70-bbb9-ae22a2e3f103"},"vehicle_type_id":"4","last_reported":1748434878,"current_range_meters":10000,"station_id":"ce4bhch2rcd13ifvqeug","pricing_plan_id":"cebpf4jnsgd1na2vs0mg"},{"bike_id":"925e29ac-ac8d-43d3-9b1e-8788a09d98c1","system_id":"levelo_inurba_marseille","lat":43.31191,"lon":5.40208,"is_reserved":false,"is_disabled":false,"rental_uris":{"android":"levelo://app?vid=925e29ac-ac8d-43d3-9b1e-8788a09d98c1","ios":"levelo://app?vid=925e29ac-ac8d-43d3-9b1e-8788a09d98c1"},"vehicle_type_id":"4","last_reported":1748434878,"current_range_meters":10800,"station_id":"","pricing_plan_id":"cebpf4jnsgd1na2vs0mg"},{"bike_id":"d72d42e8-fb3a-45ce-96b6-34b3508aaed7","system_id":"levelo_inurba_marseille","lat":43.34075,"lon":5.39874,"is_reserved":false,"is_disabled":false,"rental_uris":{"android":"levelo://app?vid=d72d42e8-fb3a-45ce-96b6-34b3508aaed7","ios":"levelo://app?vid=d72d42e8-fb3a-45ce-96b6-34b3508aaed7"},"vehicle_type_id":"4","last_reported":1748434878,"current_range_meters":10800,"station_id":"","pricing_plan_id":"cebpf4jnsgd1na2vs0mg"},{"bike_id":"f1b0360e-b8ca-4d7d-8cc4-99bf403b3b7d","system_id":"levelo_inurba_marseille","lat":43.2983,"lon":5.39359,"is_reserved":false,"is_disabled":false,"rental_uris":{"android":"levelo://app?vid=f1b0360e-b8ca-4d7d-8cc4-99bf403b3b7d","ios":"levelo://app?vid=f1b0360e-b8ca-4d7d-8cc4-99bf403b3b7d"},"vehicle_type_id":"4","last_reported":1748434878,"current_range_meters":10800,"station_id":"","pricing_plan_id":"cebpf4jnsgd1na2vs0mg"},{"bike_id":"08165cbb-6ace-41cd-a0e2-a8692b282c40","system_id":"levelo_inurba_marseille","lat":43.30535,"lon":5.36512,"is_reserved":false,"is_disabled":false,"rental_uris":{"android":"levelo://app?vid=08165cbb-6ace-41cd-a0e2-a8692b282c40","ios":"levelo://app?vid=08165cbb-6ace-41cd-a0e2-a8692b282c40"},"vehicle_type_id":"4","last_reported":1748434878,"current_range_meters":10800,"station_id":"","pricing_plan_id":"cebpf4jnsgd1na2vs0mg"},{"bike_id":"071c8f48-56d0-4f89-921e-134b819ac9f0","system_id":"levelo_inurba_marseille","lat":43.312251,"lon":5.3686,"is_reserved":false,"is_disabled":false,"rental_uris":{"android":"levelo://app?vid=071c8f48-56d0-4f89-921e-134b819ac9f0","ios":"levelo://app?vid=071c8f48-56d0-4f89-921e-134b819ac9f0"},"vehicle_type_id":"4","last_reported":1748434878,"current_range_meters":10800,"station_id":"ce4bgl92rcd13ifvqbq0","pricing_plan_id":"cebpf4jnsgd1na2vs0mg"},{"bike_id":"f81c1a8b-3286-4af0-8255-cf31546f6e08","system_id":"levelo_inurba_marseille","lat":43.31358,"lon":5.38498,"is_reserved":false,"is_disabled":false,"rental_uris":{"android":"levelo://app?vid=f81c1a8b-3286-4af0-8255-cf31546f6e08","ios":"levelo://app?vid=f81c1a8b-3286-4af0-8255-cf31546f6e08"},"vehicle_type_id":"4","last_reported":1748434878,"current_range_meters":10800,"station_id":"ce4bgt92rcd13ifvqcf0","pricing_plan_id":"cebpf4jnsgd1na2vs0mg"},{"bike_id":"899e1268-d43c-4ee2-9675-87d26f2979db","system_id":"levelo_inurba_marseille","lat":43.28616,"lon":5.35106,"is_reserved":false,"is_disabled":false,"rental_uris":{"android":"levelo://app?vid=899e1268-d43c-4ee2-9675-87d26f2979db","ios":"levelo://app?vid=899e1268-d43c-4ee2-9675-87d26f2979db"},"vehicle_type_id":"4","last_reported":1748434878,"current_range_meters":10800,"station_id":"ce4bhch2rcd13ifvqeug","pricing_plan_id":"cebpf4jnsgd1na2vs0mg"},{"bike_id":"b6776944-1c4f-4d22-bfa7-028ba5cfb43a","system_id":"levelo_inurba_marseille","lat":43.270575,"lon":5.402538,"is_reserved":false,"is_disabled":false,"rental_uris":{"android":"levelo://app?vid=b6776944-1c4f-4d22-bfa7-028ba5cfb43a","ios":"levelo://app?vid=b6776944-1c4f-4d22-bfa7-028ba5cfb43a"},"vehicle_type_id":"4","last_reported":1748434878,"current_range_meters":10800,"station_id":"ce4bhk92rcd13ifvqgc0","pricing_plan_id":"cebpf4jnsgd1na2vs0mg"},{"bike_id":"44dac6d3-5be5-4937-9d2a-06030ff91bc4","system_id":"levelo_inurba_marseille","lat":43.27813,"lon":5.40713,"is_reserved":false,"is_disabled":false,"rental_uris":{"android":"levelo://app?vid=44dac6d3-5be5-4937-9d2a-06030ff91bc4","ios":"levelo://app?vid=44dac6d3-5be5-4937-9d2a-06030ff91bc4"},"vehicle_type_id":"4","last_reported":1748434878,"current_range_meters":10800,"station_id":"ce4bhnh2rcd13ifvqgtg","pricing_plan_id":"cebpf4jnsgd1na2vs0mg"},{"bike_id":"ebe9e5d6-15da-4157-a835-486e15ecac28","system_id":"levelo_inurba_marseille","lat":43.30803,"lon":5.43521,"is_reserved":false,"is_disabled":false,"rental_uris":{"android":"levelo://app?vid=ebe9e5d6-15da-4157-a835-486e15ecac28","ios":"levelo://app?vid=ebe9e5d6-15da-4157-a835-486e15ecac28"},"vehicle_type_id":"4","last_reported":1748434878,"current_range_meters":10800,"station_id":"ce4bhph2rcd13ifvqheg","pricing_plan_id":"cebpf4jnsgd1na2vs0mg"},{"bike_id":"1e6e288c-e4d4-426d-9934-6c16dd4ed208","system_id":"levelo_inurba_marseille","lat":43.32144,"lon":5.36803,"is_reserved":false,"is_disabled":false,"rental_uris":{"android":"levelo://app?vid=1e6e288c-e4d4-426d-9934-6c16dd4ed208","ios":"levelo://app?vid=1e6e288c-e4d4-426d-9934-6c16dd4ed208"},"vehicle_type_id":"4","last_reported":1748434878,"current_range_meters":11200,"station_id":"","pricing_plan_id":"cebpf4jnsgd1na2vs0mg"},{"bike_id":"f21f399b-5256-4c7c-9182-e1bdf2106641","system_id":"levelo_inurba_marseille","lat":43.31499,"lon":5.37296,"is_reserved":false,"is_disabled":false,"rental_uris":{"android":"levelo://app?vid=f21f399b-5256-4c7c-9182-e1bdf2106641","ios":"levelo://app?vid=f21f399b-5256-4c7c-9182-e1bdf2106641"},"vehicle_type_id":"4","last_reported":1748434878,"current_range_meters":11200,"station_id":"ce4bgt12rcd13ifvqcd0","pricing_plan_id":"cebpf4jnsgd1na2vs0mg"},{"bike_id":"08ea8800-5cc3-4776-8cf1-9d681af11069","system_id":"levelo_inurba_marseille","lat":43.29202,"lon":5.35792,"is_reserved":false,"is_disabled":false,"rental_uris":{"android":"levelo://app?vid=08ea8800-5cc3-4776-8cf1-9d681af11069","ios":"levelo://app?vid=08ea8800-5cc3-4776-8cf1-9d681af11069"},"vehicle_type_id":"4","last_reported":1748434878,"current_range_meters":11200,"station_id":"ce4bhb12rcd13ifvqel0","pricing_plan_id":"cebpf4jnsgd1na2vs0mg"},{"bike_id":"8a4a48d1-d8ca-4ee2-969d-0d60f537320f","system_id":"levelo_inurba_marseille","lat":43.26568,"lon":5.39005,"is_reserved":false,"is_disabled":false,"rental_uris":{"android":"levelo://app?vid=8a4a48d1-d8ca-4ee2-969d-0d60f537320f","ios":"levelo://app?vid=8a4a48d1-d8ca-4ee2-969d-0d60f537320f"},"vehicle_type_id":"4","last_reported":1748434878,"current_range_meters":11200,"station_id":"ce4bhe12rcd13ifvqf30","pricing_plan_id":"cebpf4jnsgd1na2vs0mg"},{"bike_id":"a2c97d6a-6888-4b00-93c1-205dfcbde7b1","system_id":"levelo_inurba_marseille","lat":43.25935,"lon":5.40898,"is_reserved":false,"is_disabled":false,"rental_uris":{"android":"levelo://app?vid=a2c97d6a-6888-4b00-93c1-205dfcbde7b1","ios":"levelo://app?vid=a2c97d6a-6888-4b00-93c1-205dfcbde7b1"},"vehicle_type_id":"4","last_reported":1748434878,"current_range_meters":11200,"station_id":"ce4bhm92rcd13ifvqglg","pricing_plan_id":"cebpf4jnsgd1na2vs0mg"},{"bike_id":"c826a468-c0a7-48ee-be2e-fae0d77db3ef","system_id":"levelo_inurba_marseille","lat":43.23159,"lon":5.43712,"is_reserved":false,"is_disabled":false,"rental_uris":{"android":"levelo://app?vid=c826a468-c0a7-48ee-be2e-fae0d77db3ef","ios":"levelo://app?vid=c826a468-c0a7-48ee-be2e-fae0d77db3ef"},"vehicle_type_id":"4","last_reported":1748434878,"current_range_meters":11200,"station_id":"ce4bhmp2rcd13ifvqgog","pricing_plan_id":"cebpf4jnsgd1na2vs0mg"},{"bike_id":"98047655-8bf4-4e47-b6d1-71d00b9b5e6d","system_id":"levelo_inurba_marseille","lat":43.23141,"lon":5.43722,"is_reserved":false,"is_disabled":false,"rental_uris":{"android":"levelo://app?vid=98047655-8bf4-4e47-b6d1-71d00b9b5e6d","ios":"levelo://app?vid=98047655-8bf4-4e47-b6d1-71d00b9b5e6d"},"vehicle_type_id":"4","last_reported":1748434878,"current_range_meters":11200,"station_id":"ce4bhmp2rcd13ifvqgog","pricing_plan_id":"cebpf4jnsgd1na2vs0mg"},{"bike_id":"361e642c-9bbc-474c-af44-4eac2488b9cd","system_id":"levelo_inurba_marseille","lat":43.23187,"lon":5.35547,"is_reserved":false,"is_disabled":false,"rental_uris":{"android":"levelo://app?vid=361e642c-9bbc-474c-af44-4eac2488b9cd","ios":"levelo://app?vid=361e642c-9bbc-474c-af44-4eac2488b9cd"},"vehicle_type_id":"4","last_reported":1748434878,"current_range_meters":11200,"station_id":"ce4bhu92rcd13ifvqi70","pricing_plan_id":"cebpf4jnsgd1na2vs0mg"},{"bike_id":"28f4d848-2fa3-40c0-b1a6-6d55ae057dbc","system_id":"levelo_inurba_marseille","lat":43.313616,"lon":5.367055,"is_reserved":false,"is_disabled":false,"rental_uris":{"android":"levelo://app?vid=28f4d848-2fa3-40c0-b1a6-6d55ae057dbc","ios":"levelo://app?vid=28f4d848-2fa3-40c0-b1a6-6d55ae057dbc"},"vehicle_type_id":"4","last_reported":1748434878,"current_range_meters":11600,"station_id":"ce4bgr92rcd13ifvqc6g","pricing_plan_id":"cebpf4jnsgd1na2vs0mg"},{"bike_id":"cf2af4fc-963d-4c14-9223-497c73cc2275","system_id":"levelo_inurba_marseille","lat":43.30325,"lon":5.40432,"is_reserved":false,"is_disabled":false,"rental_uris":{"android":"levelo://app?vid=cf2af4fc-963d-4c14-9223-497c73cc2275","ios":"levelo://app?vid=cf2af4fc-963d-4c14-9223-497c73cc2275"},"vehicle_type_id":"4","last_reported":1748434878,"current_range_meters":11600,"station_id":"ce4bh012rcd13ifvqd10","pricing_plan_id":"cebpf4jnsgd1na2vs0mg"},{"bike_id":"482cdc55-02a5-4a41-9747-bde7c74c85da","system_id":"levelo_inurba_marseille","lat":43.30095,"lon":5.39075,"is_reserved":false,"is_disabled":false,"rental_uris":{"android":"levelo://app?vid=482cdc55-02a5-4a41-9747-bde7c74c85da","ios":"levelo://app?vid=482cdc55-02a5-4a41-9747-bde7c74c85da"},"vehicle_type_id":"4","last_reported":1748434878,"current_range_meters":11600,"station_id":"ce4bh192rcd13ifvqdb0","pricing_plan_id":"cebpf4jnsgd1na2vs0mg"},{"bike_id":"e0b30274-c242-4783-b0f5-796c62e39ade","system_id":"levelo_inurba_marseille","lat":43.265588,"lon":5.372875,"is_reserved":false,"is_disabled":false,"rental_uris":{"android":"levelo://app?vid=e0b30274-c242-4783-b0f5-796c62e39ade","ios":"levelo://app?vid=e0b30274-c242-4783-b0f5-796c62e39ade"},"vehicle_type_id":"4","last_reported":1748434878,"current_range_meters":11600,"station_id":"ce4bhg12rcd13ifvqf70","pricing_plan_id":"cebpf4jnsgd1na2vs0mg"},{"bike_id":"c86bc5b4-3e2f-4088-a8eb-a56e277e1473","system_id":"levelo_inurba_marseille","lat":43.26496,"lon":5.39542,"is_reserved":false,"is_disabled":false,"rental_uris":{"android":"levelo://app?vid=c86bc5b4-3e2f-4088-a8eb-a56e277e1473","ios":"levelo://app?vid=c86bc5b4-3e2f-4088-a8eb-a56e277e1473"},"vehicle_type_id":"4","last_reported":1748434878,"current_range_meters":11600,"station_id":"ce4bhi12rcd13ifvqfq0","pricing_plan_id":"cebpf4jnsgd1na2vs0mg"},{"bike_id":"f4d1fc53-11ff-47bc-b2e1-097d84749265","system_id":"levelo_inurba_marseille","lat":43.29896,"lon":5.43665,"is_reserved":false,"is_disabled":false,"rental_uris":{"android":"levelo://app?vid=f4d1fc53-11ff-47bc-b2e1-097d84749265","ios":"levelo://app?vid=f4d1fc53-11ff-47bc-b2e1-097d84749265"},"vehicle_type_id":"4","last_reported":1748434878,"current_range_meters":11600,"station_id":"ce4bhpp2rcd13ifvqhfg","pricing_plan_id":"cebpf4jnsgd1na2vs0mg"},{"bike_id":"ac8ec744-c428-4a3a-a1b2-ac64683e0ea6","system_id":"levelo_inurba_marseille","lat":43.3201,"lon":5.38154,"is_reserved":false,"is_disabled":false,"rental_uris":{"android":"levelo://app?vid=ac8ec744-c428-4a3a-a1b2-ac64683e0ea6","ios":"levelo://app?vid=ac8ec744-c428-4a3a-a1b2-ac64683e0ea6"},"vehicle_type_id":"4","last_reported":1748434878,"current_range_meters":11600,"station_id":"ce4bhr12rcd13ifvqhpg","pricing_plan_id":"cebpf4jnsgd1na2vs0mg"},{"bike_id":"c84f8025-f392-4efb-8662-faa8b7ebbd21","system_id":"levelo_inurba_marseille","lat":43.295066,"lon":5.374448,"is_reserved":false,"is_disabled":false,"rental_uris":{"android":"levelo://app?vid=c84f8025-f392-4efb-8662-faa8b7ebbd21","ios":"levelo://app?vid=c84f8025-f392-4efb-8662-faa8b7ebbd21"},"vehicle_type_id":"4","last_reported":1748434878,"current_range_meters":12000,"station_id":"ce4bgh92rcd13ifvqb50","pricing_plan_id":"cebpf4jnsgd1na2vs0mg"},{"bike_id":"8e44bdff-2e89-409c-b710-8ae49247ce81","system_id":"levelo_inurba_marseille","lat":43.3137,"lon":5.36711,"is_reserved":false,"is_disabled":false,"rental_uris":{"android":"levelo://app?vid=8e44bdff-2e89-409c-b710-8ae49247ce81","ios":"levelo://app?vid=8e44bdff-2e89-409c-b710-8ae49247ce81"},"vehicle_type_id":"4","last_reported":1748434878,"current_range_meters":12000,"station_id":"ce4bgr92rcd13ifvqc6g","pricing_plan_id":"cebpf4jnsgd1na2vs0mg"},{"bike_id":"960bb3a7-9dd9-4a75-8fd5-b38b4cddced0","system_id":"levelo_inurba_marseille","lat":43.30541,"lon":5.36697,"is_reserved":false,"is_disabled":false,"rental_uris":{"android":"levelo://app?vid=960bb3a7-9dd9-4a75-8fd5-b38b4cddced0","ios":"levelo://app?vid=960bb3a7-9dd9-4a75-8fd5-b38b4cddced0"},"vehicle_type_id":"4","last_reported":1748434878,"current_range_meters":12000,"station_id":"ce4bgrp2rcd13ifvqc9g","pricing_plan_id":"cebpf4jnsgd1na2vs0mg"},{"bike_id":"2870a21f-0982-45d9-b6ec-e1a4942814cb","system_id":"levelo_inurba_marseille","lat":43.28931,"lon":5.38407,"is_reserved":false,"is_disabled":false,"rental_uris":{"android":"levelo://app?vid=2870a21f-0982-45d9-b6ec-e1a4942814cb","ios":"levelo://app?vid=2870a21f-0982-45d9-b6ec-e1a4942814cb"},"vehicle_type_id":"4","last_reported":1748434878,"current_range_meters":12000,"station_id":"ce4bh612rcd13ifvqe6g","pricing_plan_id":"cebpf4jnsgd1na2vs0mg"},{"bike_id":"1154612e-69eb-4c4b-abf1-848bc95a90b8","system_id":"levelo_inurba_marseille","lat":43.24389,"lon":5.37062,"is_reserved":false,"is_disabled":false,"rental_uris":{"android":"levelo://app?vid=1154612e-69eb-4c4b-abf1-848bc95a90b8","ios":"levelo://app?vid=1154612e-69eb-4c4b-abf1-848bc95a90b8"},"vehicle_type_id":"4","last_reported":1748434878,"current_range_meters":12000,"station_id":"ce4bhhh2rcd13ifvqfk0","pricing_plan_id":"cebpf4jnsgd1na2vs0mg"},{"bike_id":"fb201de5-6dd2-4135-90a6-aefaddd4ccd4","system_id":"levelo_inurba_marseille","lat":43.25585,"lon":5.3825,"is_reserved":false,"is_disabled":false,"rental_uris":{"android":"levelo://app?vid=fb201de5-6dd2-4135-90a6-aefaddd4ccd4","ios":"levelo://app?vid=fb201de5-6dd2-4135-90a6-aefaddd4ccd4"},"vehicle_type_id":"4","last_reported":1748434878,"current_range_meters":12000,"station_id":"ce4bhih2rcd13ifvqfs0","pricing_plan_id":"cebpf4jnsgd1na2vs0mg"},{"bike_id":"fdfa7863-9967-4d31-ae32-f03efdd733b9","system_id":"levelo_inurba_marseille","lat":43.330225,"lon":5.390503,"is_reserved":false,"is_disabled":false,"rental_uris":{"android":"levelo://app?vid=fdfa7863-9967-4d31-ae32-f03efdd733b9","ios":"levelo://app?vid=fdfa7863-9967-4d31-ae32-f03efdd733b9"},"vehicle_type_id":"4","last_reported":1748434878,"current_range_meters":12000,"station_id":"ce4bhr92rcd13ifvqhrg","pricing_plan_id":"cebpf4jnsgd1na2vs0mg"},{"bike_id":"2f650bb1-6027-4191-83d2-16315820a0a7","system_id":"levelo_inurba_marseille","lat":43.30015,"lon":5.37332,"is_reserved":false,"is_disabled":false,"rental_uris":{"android":"levelo://app?vid=2f650bb1-6027-4191-83d2-16315820a0a7","ios":"levelo://app?vid=2f650bb1-6027-4191-83d2-16315820a0a7"},"vehicle_type_id":"4","last_reported":1748434878,"current_range_meters":12400,"station_id":"","pricing_plan_id":"cebpf4jnsgd1na2vs0mg"},{"bike_id":"f0956779-6413-4049-879d-38c13af9d506","system_id":"levelo_inurba_marseille","lat":43.30431,"lon":5.389,"is_reserved":false,"is_disabled":false,"rental_uris":{"android":"levelo://app?vid=f0956779-6413-4049-879d-38c13af9d506","ios":"levelo://app?vid=f0956779-6413-4049-879d-38c13af9d506"},"vehicle_type_id":"4","last_reported":1748434878,"current_range_meters":12400,"station_id":"ce4bgk12rcd13ifvqbi0","pricing_plan_id":"cebpf4jnsgd1na2vs0mg"},{"bike_id":"95422fca-8682-4ec6-b3f8-f33791b9586d","system_id":"levelo_inurba_marseille","lat":43.29257,"lon":5.40905,"is_reserved":false,"is_disabled":false,"rental_uris":{"android":"levelo://app?vid=95422fca-8682-4ec6-b3f8-f33791b9586d","ios":"levelo://app?vid=95422fca-8682-4ec6-b3f8-f33791b9586d"},"vehicle_type_id":"4","last_reported":1748434878,"current_range_meters":12400,"station_id":"ce4bh192rcd13ifvqdc0","pricing_plan_id":"cebpf4jnsgd1na2vs0mg"},{"bike_id":"4f65d7a5-fdf2-458c-960d-579e844c83cd","system_id":"levelo_inurba_marseille","lat":43.26056,"lon":5.39397,"is_reserved":false,"is_disabled":false,"rental_uris":{"android":"levelo://app?vid=4f65d7a5-fdf2-458c-960d-579e844c83cd","ios":"levelo://app?vid=4f65d7a5-fdf2-458c-960d-579e844c83cd"},"vehicle_type_id":"4","last_reported":1748434878,"current_range_meters":12400,"station_id":"ce4bhh92rcd13ifvqfj0","pricing_plan_id":"cebpf4jnsgd1na2vs0mg"},{"bike_id":"311572db-8d52-4975-9f0c-5c8b79ad0b71","system_id":"levelo_inurba_marseille","lat":43.26499,"lon":5.39559,"is_reserved":false,"is_disabled":false,"rental_uris":{"android":"levelo://app?vid=311572db-8d52-4975-9f0c-5c8b79ad0b71","ios":"levelo://app?vid=311572db-8d52-4975-9f0c-5c8b79ad0b71"},"vehicle_type_id":"4","last_reported":1748434878,"current_range_meters":12400,"station_id":"ce4bhi12rcd13ifvqfq0","pricing_plan_id":"cebpf4jnsgd1na2vs0mg"},{"bike_id":"78c2e363-6f85-49c4-a8bb-05cf0550e23a","system_id":"levelo_inurba_marseille","lat":43.29892,"lon":5.43652,"is_reserved":false,"is_disabled":false,"rental_uris":{"android":"levelo://app?vid=78c2e363-6f85-49c4-a8bb-05cf0550e23a","ios":"levelo://app?vid=78c2e363-6f85-49c4-a8bb-05cf0550e23a"},"vehicle_type_id":"4","last_reported":1748434878,"current_range_meters":12400,"station_id":"ce4bhpp2rcd13ifvqhfg","pricing_plan_id":"cebpf4jnsgd1na2vs0mg"},{"bike_id":"5e0d93d9-7389-45d1-a3d8-df4e5386a4d6","system_id":"levelo_inurba_marseille","lat":43.23194,"lon":5.35547,"is_reserved":false,"is_disabled":false,"rental_uris":{"android":"levelo://app?vid=5e0d93d9-7389-45d1-a3d8-df4e5386a4d6","ios":"levelo://app?vid=5e0d93d9-7389-45d1-a3d8-df4e5386a4d6"},"vehicle_type_id":"4","last_reported":1748434878,"current_range_meters":12400,"station_id":"ce4bhu92rcd13ifvqi70","pricing_plan_id":"cebpf4jnsgd1na2vs0mg"},{"bike_id":"3b3b63fc-9d64-46ce-a7fd-5b5f9786ae63","system_id":"levelo_inurba_marseille","lat":43.30435,"lon":5.39747,"is_reserved":false,"is_disabled":false,"rental_uris":{"android":"levelo://app?vid=3b3b63fc-9d64-46ce-a7fd-5b5f9786ae63","ios":"levelo://app?vid=3b3b63fc-9d64-46ce-a7fd-5b5f9786ae63"},"vehicle_type_id":"4","last_reported":1748434878,"current_range_meters":12800,"station_id":"ce4bh092rcd13ifvqd20","pricing_plan_id":"cebpf4jnsgd1na2vs0mg"},{"bike_id":"5a3357d3-5fa1-4de8-849d-c1624caf1593","system_id":"levelo_inurba_marseille","lat":43.28941,"lon":5.36635,"is_reserved":false,"is_disabled":false,"rental_uris":{"android":"levelo://app?vid=5a3357d3-5fa1-4de8-849d-c1624caf1593","ios":"levelo://app?vid=5a3357d3-5fa1-4de8-849d-c1624caf1593"},"vehicle_type_id":"4","last_reported":1748434878,"current_range_meters":12800,"station_id":"ce4bhap2rcd13ifvqek0","pricing_plan_id":"cebpf4jnsgd1na2vs0mg"},{"bike_id":"097f970b-375f-4b74-9427-a05a73ffd790","system_id":"levelo_inurba_marseille","lat":43.32351,"lon":5.36709,"is_reserved":false,"is_disabled":false,"rental_uris":{"android":"levelo://app?vid=097f970b-375f-4b74-9427-a05a73ffd790","ios":"levelo://app?vid=097f970b-375f-4b74-9427-a05a73ffd790"},"vehicle_type_id":"4","last_reported":1748434878,"current_range_meters":12800,"station_id":"ce4bhsh2rcd13ifvqi2g","pricing_plan_id":"cebpf4jnsgd1na2vs0mg"},{"bike_id":"244ce130-80b5-4207-9ef7-8d54b297a541","system_id":"levelo_inurba_marseille","lat":43.315367,"lon":5.386553,"is_reserved":false,"is_disabled":false,"rental_uris":{"android":"levelo://app?vid=244ce130-80b5-4207-9ef7-8d54b297a541","ios":"levelo://app?vid=244ce130-80b5-4207-9ef7-8d54b297a541"},"vehicle_type_id":"4","last_reported":1748434878,"current_range_meters":13600,"station_id":"","pricing_plan_id":"cebpf4jnsgd1na2vs0mg"},{"bike_id":"58db4cda-55fa-43d1-970d-4be0b25ab973","system_id":"levelo_inurba_marseille","lat":43.31226,"lon":5.36867,"is_reserved":false,"is_disabled":false,"rental_uris":{"android":"levelo://app?vid=58db4cda-55fa-43d1-970d-4be0b25ab973","ios":"levelo://app?vid=58db4cda-55fa-43d1-970d-4be0b25ab973"},"vehicle_type_id":"4","last_reported":1748434878,"current_range_meters":13600,"station_id":"ce4bgl92rcd13ifvqbq0","pricing_plan_id":"cebpf4jnsgd1na2vs0mg"},{"bike_id":"135abd13-e144-4f96-b589-15832b6a65b9","system_id":"levelo_inurba_marseille","lat":43.30145,"lon":5.37397,"is_reserved":false,"is_disabled":false,"rental_uris":{"android":"levelo://app?vid=135abd13-e144-4f96-b589-15832b6a65b9","ios":"levelo://app?vid=135abd13-e144-4f96-b589-15832b6a65b9"},"vehicle_type_id":"4","last_reported":1748434878,"current_range_meters":13600,"station_id":"ce4bgs92rcd13ifvqcc0","pricing_plan_id":"cebpf4jnsgd1na2vs0mg"},{"bike_id":"4cbfb4de-96ab-4126-9a26-124c4c4189b1","system_id":"levelo_inurba_marseille","lat":43.26551,"lon":5.37284,"is_reserved":false,"is_disabled":false,"rental_uris":{"android":"levelo://app?vid=4cbfb4de-96ab-4126-9a26-124c4c4189b1","ios":"levelo://app?vid=4cbfb4de-96ab-4126-9a26-124c4c4189b1"},"vehicle_type_id":"4","last_reported":1748434878,"current_range_meters":13600,"station_id":"ce4bhg12rcd13ifvqf70","pricing_plan_id":"cebpf4jnsgd1na2vs0mg"},{"bike_id":"01c173e5-cbae-4820-bdbf-c007367360c7","system_id":"levelo_inurba_marseille","lat":43.23969,"lon":5.366197,"is_reserved":false,"is_disabled":false,"rental_uris":{"android":"levelo://app?vid=01c173e5-cbae-4820-bdbf-c007367360c7","ios":"levelo://app?vid=01c173e5-cbae-4820-bdbf-c007367360c7"},"vehicle_type_id":"4","last_reported":1748434878,"current_range_meters":13600,"station_id":"ce4bhi12rcd13ifvqfp0","pricing_plan_id":"cebpf4jnsgd1na2vs0mg"},{"bike_id":"e5510727-e28d-4577-9d7a-ede0fe14eff9","system_id":"levelo_inurba_marseille","lat":43.27058,"lon":5.40264,"is_reserved":false,"is_disabled":false,"rental_uris":{"android":"levelo://app?vid=e5510727-e28d-4577-9d7a-ede0fe14eff9","ios":"levelo://app?vid=e5510727-e28d-4577-9d7a-ede0fe14eff9"},"vehicle_type_id":"4","last_reported":1748434878,"current_range_meters":13600,"station_id":"ce4bhk92rcd13ifvqgc0","pricing_plan_id":"cebpf4jnsgd1na2vs0mg"},{"bike_id":"9c724d30-4ddc-42b8-abe2-bd3f324f9946","system_id":"levelo_inurba_marseille","lat":43.24173,"lon":5.36405,"is_reserved":false,"is_disabled":false,"rental_uris":{"android":"levelo://app?vid=9c724d30-4ddc-42b8-abe2-bd3f324f9946","ios":"levelo://app?vid=9c724d30-4ddc-42b8-abe2-bd3f324f9946"},"vehicle_type_id":"4","last_reported":1748434878,"current_range_meters":13600,"station_id":"cpo36qri1sfpv3e86is0","pricing_plan_id":"cebpf4jnsgd1na2vs0mg"},{"bike_id":"758ebefd-020b-4072-a599-f6fa6ba7c34b","system_id":"levelo_inurba_marseille","lat":43.29972,"lon":5.37167,"is_reserved":false,"is_disabled":false,"rental_uris":{"android":"levelo://app?vid=758ebefd-020b-4072-a599-f6fa6ba7c34b","ios":"levelo://app?vid=758ebefd-020b-4072-a599-f6fa6ba7c34b"},"vehicle_type_id":"4","last_reported":1748434878,"current_range_meters":14000,"station_id":"ce4bgr92rcd13ifvqc7g","pricing_plan_id":"cebpf4jnsgd1na2vs0mg"},{"bike_id":"d49302de-3843-45f9-a5dd-8b7687c62571","system_id":"levelo_inurba_marseille","lat":43.302,"lon":5.3659,"is_reserved":false,"is_disabled":false,"rental_uris":{"android":"levelo://app?vid=d49302de-3843-45f9-a5dd-8b7687c62571","ios":"levelo://app?vid=d49302de-3843-45f9-a5dd-8b7687c62571"},"vehicle_type_id":"4","last_reported":1748434878,"current_range_meters":14000,"station_id":"ce4bgrh2rcd13ifvqc8g","pricing_plan_id":"cebpf4jnsgd1na2vs0mg"},{"bike_id":"19611e84-5b27-4078-8625-3bfdb1168643","system_id":"levelo_inurba_marseille","lat":43.30532,"lon":5.36706,"is_reserved":false,"is_disabled":false,"rental_uris":{"android":"levelo://app?vid=19611e84-5b27-4078-8625-3bfdb1168643","ios":"levelo://app?vid=19611e84-5b27-4078-8625-3bfdb1168643"},"vehicle_type_id":"4","last_reported":1748434878,"current_range_meters":14000,"station_id":"ce4bgrp2rcd13ifvqc9g","pricing_plan_id":"cebpf4jnsgd1na2vs0mg"},{"bike_id":"d81558bb-e9fb-418f-b41f-0e4d41f7a9cd","system_id":"levelo_inurba_marseille","lat":43.26789,"lon":5.39411,"is_reserved":false,"is_disabled":false,"rental_uris":{"android":"levelo://app?vid=d81558bb-e9fb-418f-b41f-0e4d41f7a9cd","ios":"levelo://app?vid=d81558bb-e9fb-418f-b41f-0e4d41f7a9cd"},"vehicle_type_id":"4","last_reported":1748434878,"current_range_meters":14000,"station_id":"ce4bhh12rcd13ifvqfg0","pricing_plan_id":"cebpf4jnsgd1na2vs0mg"},{"bike_id":"93ca6ba6-abd0-40db-a44c-8443172fa00a","system_id":"levelo_inurba_marseille","lat":43.32545,"lon":5.41431,"is_reserved":false,"is_disabled":false,"rental_uris":{"android":"levelo://app?vid=93ca6ba6-abd0-40db-a44c-8443172fa00a","ios":"levelo://app?vid=93ca6ba6-abd0-40db-a44c-8443172fa00a"},"vehicle_type_id":"4","last_reported":1748434878,"current_range_meters":14000,"station_id":"ce4bhq12rcd13ifvqhhg","pricing_plan_id":"cebpf4jnsgd1na2vs0mg"},{"bike_id":"4a365027-5179-40b6-86af-eafd6ac8e606","system_id":"levelo_inurba_marseille","lat":43.22932,"lon":5.35377,"is_reserved":false,"is_disabled":false,"rental_uris":{"android":"levelo://app?vid=4a365027-5179-40b6-86af-eafd6ac8e606","ios":"levelo://app?vid=4a365027-5179-40b6-86af-eafd6ac8e606"},"vehicle_type_id":"4","last_reported":1748434878,"current_range_meters":14000,"station_id":"cpo3532slgdg3j2ikp40","pricing_plan_id":"cebpf4jnsgd1na2vs0mg"},{"bike_id":"a7b28dad-b0e3-4373-84c9-ca1db05de1f6","system_id":"levelo_inurba_marseille","lat":43.29995,"lon":5.38396,"is_reserved":false,"is_disabled":false,"rental_uris":{"android":"levelo://app?vid=a7b28dad-b0e3-4373-84c9-ca1db05de1f6","ios":"levelo://app?vid=a7b28dad-b0e3-4373-84c9-ca1db05de1f6"},"vehicle_type_id":"4","last_reported":1748434878,"current_range_meters":14400,"station_id":"","pricing_plan_id":"cebpf4jnsgd1na2vs0mg"},{"bike_id":"63616c72-9029-44e6-98de-a040d6b5ecfb","system_id":"levelo_inurba_marseille","lat":43.32135,"lon":5.36754,"is_reserved":false,"is_disabled":false,"rental_uris":{"android":"levelo://app?vid=63616c72-9029-44e6-98de-a040d6b5ecfb","ios":"levelo://app?vid=63616c72-9029-44e6-98de-a040d6b5ecfb"},"vehicle_type_id":"4","last_reported":1748434878,"current_range_meters":14400,"station_id":"","pricing_plan_id":"cebpf4jnsgd1na2vs0mg"},{"bike_id":"bf74e45f-1276-4847-9f91-df3389ce2cc7","system_id":"levelo_inurba_marseille","lat":43.31226,"lon":5.36871,"is_reserved":false,"is_disabled":false,"rental_uris":{"android":"levelo://app?vid=bf74e45f-1276-4847-9f91-df3389ce2cc7","ios":"levelo://app?vid=bf74e45f-1276-4847-9f91-df3389ce2cc7"},"vehicle_type_id":"4","last_reported":1748434878,"current_range_meters":14400,"station_id":"ce4bgl92rcd13ifvqbq0","pricing_plan_id":"cebpf4jnsgd1na2vs0mg"},{"bike_id":"16358778-9c20-4d43-9f79-f22659df4b1a","system_id":"levelo_inurba_marseille","lat":43.27363,"lon":5.36224,"is_reserved":false,"is_disabled":false,"rental_uris":{"android":"levelo://app?vid=16358778-9c20-4d43-9f79-f22659df4b1a","ios":"levelo://app?vid=16358778-9c20-4d43-9f79-f22659df4b1a"},"vehicle_type_id":"4","last_reported":1748434878,"current_range_meters":14400,"station_id":"ce4bhbh2rcd13ifvqeo0","pricing_plan_id":"cebpf4jnsgd1na2vs0mg"},{"bike_id":"5dc8c769-2efd-49ef-959f-82796b72101a","system_id":"levelo_inurba_marseille","lat":43.28939,"lon":5.36382,"is_reserved":false,"is_disabled":false,"rental_uris":{"android":"levelo://app?vid=5dc8c769-2efd-49ef-959f-82796b72101a","ios":"levelo://app?vid=5dc8c769-2efd-49ef-959f-82796b72101a"},"vehicle_type_id":"4","last_reported":1748434878,"current_range_meters":14400,"station_id":"ce4bhc92rcd13ifvqetg","pricing_plan_id":"cebpf4jnsgd1na2vs0mg"},{"bike_id":"67a068f8-6b45-4f7a-bfe9-68c1c4957791","system_id":"levelo_inurba_marseille","lat":43.27056,"lon":5.40263,"is_reserved":false,"is_disabled":false,"rental_uris":{"android":"levelo://app?vid=67a068f8-6b45-4f7a-bfe9-68c1c4957791","ios":"levelo://app?vid=67a068f8-6b45-4f7a-bfe9-68c1c4957791"},"vehicle_type_id":"4","last_reported":1748434878,"current_range_meters":14400,"station_id":"ce4bhk92rcd13ifvqgc0","pricing_plan_id":"cebpf4jnsgd1na2vs0mg"},{"bike_id":"e096af3c-0540-4efc-bca3-a970fb73bc93","system_id":"levelo_inurba_marseille","lat":43.28189,"lon":5.39029,"is_reserved":false,"is_disabled":false,"rental_uris":{"android":"levelo://app?vid=e096af3c-0540-4efc-bca3-a970fb73bc93","ios":"levelo://app?vid=e096af3c-0540-4efc-bca3-a970fb73bc93"},"vehicle_type_id":"4","last_reported":1748434878,"current_range_meters":14800,"station_id":"","pricing_plan_id":"cebpf4jnsgd1na2vs0mg"},{"bike_id":"2f125efc-a856-444f-bdc8-f6b97ddee961","system_id":"levelo_inurba_marseille","lat":43.31119,"lon":5.37767,"is_reserved":false,"is_disabled":false,"rental_uris":{"android":"levelo://app?vid=2f125efc-a856-444f-bdc8-f6b97ddee961","ios":"levelo://app?vid=2f125efc-a856-444f-bdc8-f6b97ddee961"},"vehicle_type_id":"4","last_reported":1748434878,"current_range_meters":14800,"station_id":"ce4bgt92rcd13ifvqcg0","pricing_plan_id":"cebpf4jnsgd1na2vs0mg"},{"bike_id":"7e21b4c5-84e6-49b9-999a-4fa6883be7c5","system_id":"levelo_inurba_marseille","lat":43.284122,"lon":5.34973,"is_reserved":false,"is_disabled":false,"rental_uris":{"android":"levelo://app?vid=7e21b4c5-84e6-49b9-999a-4fa6883be7c5","ios":"levelo://app?vid=7e21b4c5-84e6-49b9-999a-4fa6883be7c5"},"vehicle_type_id":"4","last_reported":1748434878,"current_range_meters":14800,"station_id":"ce4bhbh2rcd13ifvqepg","pricing_plan_id":"cebpf4jnsgd1na2vs0mg"},{"bike_id":"24a11296-1d4b-4907-9e88-5097c4e57fe4","system_id":"levelo_inurba_marseille","lat":43.282767,"lon":5.350761,"is_reserved":false,"is_disabled":false,"rental_uris":{"android":"levelo://app?vid=24a11296-1d4b-4907-9e88-5097c4e57fe4","ios":"levelo://app?vid=24a11296-1d4b-4907-9e88-5097c4e57fe4"},"vehicle_type_id":"4","last_reported":1748434878,"current_range_meters":14800,"station_id":"ce4bhbp2rcd13ifvqerg","pricing_plan_id":"cebpf4jnsgd1na2vs0mg"},{"bike_id":"90e238f1-f048-4bf7-9d47-6d3b7fc6ada1","system_id":"levelo_inurba_marseille","lat":43.27177,"lon":5.40986,"is_reserved":false,"is_disabled":false,"rental_uris":{"android":"levelo://app?vid=90e238f1-f048-4bf7-9d47-6d3b7fc6ada1","ios":"levelo://app?vid=90e238f1-f048-4bf7-9d47-6d3b7fc6ada1"},"vehicle_type_id":"4","last_reported":1748434878,"current_range_meters":14800,"station_id":"ce4bhl12rcd13ifvqgf0","pricing_plan_id":"cebpf4jnsgd1na2vs0mg"},{"bike_id":"f208415b-80e1-4713-a6ae-428f26017243","system_id":"levelo_inurba_marseille","lat":43.32365,"lon":5.36762,"is_reserved":false,"is_disabled":false,"rental_uris":{"android":"levelo://app?vid=f208415b-80e1-4713-a6ae-428f26017243","ios":"levelo://app?vid=f208415b-80e1-4713-a6ae-428f26017243"},"vehicle_type_id":"4","last_reported":1748434878,"current_range_meters":14800,"station_id":"ce4bhsh2rcd13ifvqi2g","pricing_plan_id":"cebpf4jnsgd1na2vs0mg"},{"bike_id":"ae2f5928-519a-449a-bd1c-5dfdf01f4ddf","system_id":"levelo_inurba_marseille","lat":43.22931,"lon":5.35373,"is_reserved":false,"is_disabled":false,"rental_uris":{"android":"levelo://app?vid=ae2f5928-519a-449a-bd1c-5dfdf01f4ddf","ios":"levelo://app?vid=ae2f5928-519a-449a-bd1c-5dfdf01f4ddf"},"vehicle_type_id":"4","last_reported":1748434878,"current_range_meters":14800,"station_id":"cpo3532slgdg3j2ikp40","pricing_plan_id":"cebpf4jnsgd1na2vs0mg"},{"bike_id":"c2729bc7-9517-40d3-bb95-9ad095aef66b","system_id":"levelo_inurba_marseille","lat":43.21747,"lon":5.34601,"is_reserved":false,"is_disabled":false,"rental_uris":{"android":"levelo://app?vid=c2729bc7-9517-40d3-bb95-9ad095aef66b","ios":"levelo://app?vid=c2729bc7-9517-40d3-bb95-9ad095aef66b"},"vehicle_type_id":"4","last_reported":1748434878,"current_range_meters":14800,"station_id":"st_cvj6r9ubvosntc0bgbag","pricing_plan_id":"cebpf4jnsgd1na2vs0mg"},{"bike_id":"60815888-7c98-4769-b7d4-8cf1272505d8","system_id":"levelo_inurba_marseille","lat":43.232065,"lon":5.399546,"is_reserved":false,"is_disabled":false,"rental_uris":{"android":"levelo://app?vid=60815888-7c98-4769-b7d4-8cf1272505d8","ios":"levelo://app?vid=60815888-7c98-4769-b7d4-8cf1272505d8"},"vehicle_type_id":"4","last_reported":1748434878,"current_range_meters":15200,"station_id":"","pricing_plan_id":"cebpf4jnsgd1na2vs0mg"},{"bike_id":"144064ee-0c8c-4e56-aa36-3cd01ae27f75","system_id":"levelo_inurba_marseille","lat":43.28944,"lon":5.36631,"is_reserved":false,"is_disabled":false,"rental_uris":{"android":"levelo://app?vid=144064ee-0c8c-4e56-aa36-3cd01ae27f75","ios":"levelo://app?vid=144064ee-0c8c-4e56-aa36-3cd01ae27f75"},"vehicle_type_id":"4","last_reported":1748434878,"current_range_meters":15200,"station_id":"ce4bhap2rcd13ifvqek0","pricing_plan_id":"cebpf4jnsgd1na2vs0mg"},{"bike_id":"898bb1e7-a969-42b4-a929-0870d6a8e4c1","system_id":"levelo_inurba_marseille","lat":43.31526,"lon":5.38054,"is_reserved":false,"is_disabled":false,"rental_uris":{"android":"levelo://app?vid=898bb1e7-a969-42b4-a929-0870d6a8e4c1","ios":"levelo://app?vid=898bb1e7-a969-42b4-a929-0870d6a8e4c1"},"vehicle_type_id":"4","last_reported":1748434878,"current_range_meters":15200,"station_id":"ce4bhsp2rcd13ifvqi50","pricing_plan_id":"cebpf4jnsgd1na2vs0mg"},{"bike_id":"3497c608-d157-4b08-a88b-6d42b660a25c","system_id":"levelo_inurba_marseille","lat":43.28635,"lon":5.35114,"is_reserved":false,"is_disabled":false,"rental_uris":{"android":"levelo://app?vid=3497c608-d157-4b08-a88b-6d42b660a25c","ios":"levelo://app?vid=3497c608-d157-4b08-a88b-6d42b660a25c"},"vehicle_type_id":"4","last_reported":1748434878,"current_range_meters":16000,"station_id":"ce4bhch2rcd13ifvqeug","pricing_plan_id":"cebpf4jnsgd1na2vs0mg"},{"bike_id":"cce8c9aa-724e-4dc0-a169-308a202c1b20","system_id":"levelo_inurba_marseille","lat":43.270663,"lon":5.402723,"is_reserved":false,"is_disabled":false,"rental_uris":{"android":"levelo://app?vid=cce8c9aa-724e-4dc0-a169-308a202c1b20","ios":"levelo://app?vid=cce8c9aa-724e-4dc0-a169-308a202c1b20"},"vehicle_type_id":"4","last_reported":1748434878,"current_range_meters":16000,"station_id":"ce4bhk92rcd13ifvqgc0","pricing_plan_id":"cebpf4jnsgd1na2vs0mg"},{"bike_id":"02685a3d-56d4-4c07-89be-ab1cf94f4165","system_id":"levelo_inurba_marseille","lat":43.25108,"lon":5.40312,"is_reserved":false,"is_disabled":false,"rental_uris":{"android":"levelo://app?vid=02685a3d-56d4-4c07-89be-ab1cf94f4165","ios":"levelo://app?vid=02685a3d-56d4-4c07-89be-ab1cf94f4165"},"vehicle_type_id":"4","last_reported":1748434878,"current_range_meters":16000,"station_id":"ce4bhlh2rcd13ifvqgig","pricing_plan_id":"cebpf4jnsgd1na2vs0mg"},{"bike_id":"2d7aa7aa-1349-4d3b-983d-1d1fb44a94b8","system_id":"levelo_inurba_marseille","lat":43.26804,"lon":5.40258,"is_reserved":false,"is_disabled":false,"rental_uris":{"android":"levelo://app?vid=2d7aa7aa-1349-4d3b-983d-1d1fb44a94b8","ios":"levelo://app?vid=2d7aa7aa-1349-4d3b-983d-1d1fb44a94b8"},"vehicle_type_id":"4","last_reported":1748434878,"current_range_meters":16000,"station_id":"ce501612rcd8frsf0b60","pricing_plan_id":"cebpf4jnsgd1na2vs0mg"},{"bike_id":"99dd0d54-1576-402f-b345-65a484125c48","system_id":"levelo_inurba_marseille","lat":43.30619,"lon":5.36724,"is_reserved":false,"is_disabled":false,"rental_uris":{"android":"levelo://app?vid=99dd0d54-1576-402f-b345-65a484125c48","ios":"levelo://app?vid=99dd0d54-1576-402f-b345-65a484125c48"},"vehicle_type_id":"4","last_reported":1748434878,"current_range_meters":16400,"station_id":"","pricing_plan_id":"cebpf4jnsgd1na2vs0mg"},{"bike_id":"06d6318c-d77c-4d7c-b988-b089f140284d","system_id":"levelo_inurba_marseille","lat":43.29979,"lon":5.37169,"is_reserved":false,"is_disabled":false,"rental_uris":{"android":"levelo://app?vid=06d6318c-d77c-4d7c-b988-b089f140284d","ios":"levelo://app?vid=06d6318c-d77c-4d7c-b988-b089f140284d"},"vehicle_type_id":"4","last_reported":1748434878,"current_range_meters":16400,"station_id":"ce4bgr92rcd13ifvqc7g","pricing_plan_id":"cebpf4jnsgd1na2vs0mg"},{"bike_id":"9e25217f-a82a-48bf-b354-7f7d352a947e","system_id":"levelo_inurba_marseille","lat":43.243874,"lon":5.37059,"is_reserved":false,"is_disabled":false,"rental_uris":{"android":"levelo://app?vid=9e25217f-a82a-48bf-b354-7f7d352a947e","ios":"levelo://app?vid=9e25217f-a82a-48bf-b354-7f7d352a947e"},"vehicle_type_id":"4","last_reported":1748434878,"current_range_meters":16400,"station_id":"ce4bhhh2rcd13ifvqfk0","pricing_plan_id":"cebpf4jnsgd1na2vs0mg"},{"bike_id":"f9d03e1b-2163-4b4d-b780-a4c9b9ca9f19","system_id":"levelo_inurba_marseille","lat":43.25709,"lon":5.41079,"is_reserved":false,"is_disabled":false,"rental_uris":{"android":"levelo://app?vid=f9d03e1b-2163-4b4d-b780-a4c9b9ca9f19","ios":"levelo://app?vid=f9d03e1b-2163-4b4d-b780-a4c9b9ca9f19"},"vehicle_type_id":"4","last_reported":1748434878,"current_range_meters":16400,"station_id":"ce4bhkp2rcd13ifvqgd0","pricing_plan_id":"cebpf4jnsgd1na2vs0mg"},{"bike_id":"5bdd1581-e85d-48cd-a064-e2eba0ea888f","system_id":"levelo_inurba_marseille","lat":43.23197,"lon":5.35554,"is_reserved":false,"is_disabled":false,"rental_uris":{"android":"levelo://app?vid=5bdd1581-e85d-48cd-a064-e2eba0ea888f","ios":"levelo://app?vid=5bdd1581-e85d-48cd-a064-e2eba0ea888f"},"vehicle_type_id":"4","last_reported":1748434878,"current_range_meters":16400,"station_id":"ce4bhu92rcd13ifvqi70","pricing_plan_id":"cebpf4jnsgd1na2vs0mg"},{"bike_id":"5a2ffc6b-bd59-4efe-a9ae-5d7f8b87dbd2","system_id":"levelo_inurba_marseille","lat":43.24397,"lon":5.37067,"is_reserved":false,"is_disabled":false,"rental_uris":{"android":"levelo://app?vid=5a2ffc6b-bd59-4efe-a9ae-5d7f8b87dbd2","ios":"levelo://app?vid=5a2ffc6b-bd59-4efe-a9ae-5d7f8b87dbd2"},"vehicle_type_id":"4","last_reported":1748434878,"current_range_meters":16800,"station_id":"ce4bhhh2rcd13ifvqfk0","pricing_plan_id":"cebpf4jnsgd1na2vs0mg"},{"bike_id":"ce7c597b-a26f-404e-b2c7-c2d8592a9281","system_id":"levelo_inurba_marseille","lat":43.259271,"lon":5.409119,"is_reserved":false,"is_disabled":false,"rental_uris":{"android":"levelo://app?vid=ce7c597b-a26f-404e-b2c7-c2d8592a9281","ios":"levelo://app?vid=ce7c597b-a26f-404e-b2c7-c2d8592a9281"},"vehicle_type_id":"4","last_reported":1748434878,"current_range_meters":16800,"station_id":"ce4bhm92rcd13ifvqglg","pricing_plan_id":"cebpf4jnsgd1na2vs0mg"},{"bike_id":"254073dd-456a-45fd-8514-aa502cc2310c","system_id":"levelo_inurba_marseille","lat":43.3254,"lon":5.41489,"is_reserved":false,"is_disabled":false,"rental_uris":{"android":"levelo://app?vid=254073dd-456a-45fd-8514-aa502cc2310c","ios":"levelo://app?vid=254073dd-456a-45fd-8514-aa502cc2310c"},"vehicle_type_id":"4","last_reported":1748434878,"current_range_meters":16800,"station_id":"ce4bhq12rcd13ifvqhhg","pricing_plan_id":"cebpf4jnsgd1na2vs0mg"},{"bike_id":"74596cad-01b8-4827-9b35-ca1f4056673c","system_id":"levelo_inurba_marseille","lat":43.323229,"lon":5.382822,"is_reserved":false,"is_disabled":false,"rental_uris":{"android":"levelo://app?vid=74596cad-01b8-4827-9b35-ca1f4056673c","ios":"levelo://app?vid=74596cad-01b8-4827-9b35-ca1f4056673c"},"vehicle_type_id":"4","last_reported":1748434878,"current_range_meters":16800,"station_id":"ce4bhr12rcd13ifvqhqg","pricing_plan_id":"cebpf4jnsgd1na2vs0mg"},{"bike_id":"754aed2a-cf54-4467-b6ba-83fa67e5d062","system_id":"levelo_inurba_marseille","lat":43.33034,"lon":5.39042,"is_reserved":false,"is_disabled":false,"rental_uris":{"android":"levelo://app?vid=754aed2a-cf54-4467-b6ba-83fa67e5d062","ios":"levelo://app?vid=754aed2a-cf54-4467-b6ba-83fa67e5d062"},"vehicle_type_id":"4","last_reported":1748434878,"current_range_meters":16800,"station_id":"ce4bhr92rcd13ifvqhrg","pricing_plan_id":"cebpf4jnsgd1na2vs0mg"},{"bike_id":"6776eed9-6d20-4571-b8f8-9c80c58eb9a6","system_id":"levelo_inurba_marseille","lat":43.24168,"lon":5.36397,"is_reserved":false,"is_disabled":false,"rental_uris":{"android":"levelo://app?vid=6776eed9-6d20-4571-b8f8-9c80c58eb9a6","ios":"levelo://app?vid=6776eed9-6d20-4571-b8f8-9c80c58eb9a6"},"vehicle_type_id":"4","last_reported":1748434878,"current_range_meters":16800,"station_id":"cpo36qri1sfpv3e86is0","pricing_plan_id":"cebpf4jnsgd1na2vs0mg"},{"bike_id":"ecef8788-4032-4831-b0af-0b88c49b7166","system_id":"levelo_inurba_marseille","lat":43.31361,"lon":5.36724,"is_reserved":false,"is_disabled":false,"rental_uris":{"android":"levelo://app?vid=ecef8788-4032-4831-b0af-0b88c49b7166","ios":"levelo://app?vid=ecef8788-4032-4831-b0af-0b88c49b7166"},"vehicle_type_id":"4","last_reported":1748434878,"current_range_meters":17200,"station_id":"ce4bgr92rcd13ifvqc6g","pricing_plan_id":"cebpf4jnsgd1na2vs0mg"},{"bike_id":"61fb6f16-bc74-48bc-a7ac-1a79290a24e2","system_id":"levelo_inurba_marseille","lat":43.302777,"lon":5.377113,"is_reserved":false,"is_disabled":false,"rental_uris":{"android":"levelo://app?vid=61fb6f16-bc74-48bc-a7ac-1a79290a24e2","ios":"levelo://app?vid=61fb6f16-bc74-48bc-a7ac-1a79290a24e2"},"vehicle_type_id":"4","last_reported":1748434878,"current_range_meters":17200,"station_id":"ce4bguh2rcd13ifvqcj0","pricing_plan_id":"cebpf4jnsgd1na2vs0mg"},{"bike_id":"bda507a7-a838-4e46-b8da-c6659c9439a6","system_id":"levelo_inurba_marseille","lat":43.29265,"lon":5.38441,"is_reserved":false,"is_disabled":false,"rental_uris":{"android":"levelo://app?vid=bda507a7-a838-4e46-b8da-c6659c9439a6","ios":"levelo://app?vid=bda507a7-a838-4e46-b8da-c6659c9439a6"},"vehicle_type_id":"4","last_reported":1748434878,"current_range_meters":17200,"station_id":"ce4bh692rcd13ifvqea0","pricing_plan_id":"cebpf4jnsgd1na2vs0mg"},{"bike_id":"f28bd174-5dff-4a43-b8aa-c6ddb148d9e0","system_id":"levelo_inurba_marseille","lat":43.28419,"lon":5.34993,"is_reserved":false,"is_disabled":false,"rental_uris":{"android":"levelo://app?vid=f28bd174-5dff-4a43-b8aa-c6ddb148d9e0","ios":"levelo://app?vid=f28bd174-5dff-4a43-b8aa-c6ddb148d9e0"},"vehicle_type_id":"4","last_reported":1748434878,"current_range_meters":17200,"station_id":"ce4bhbh2rcd13ifvqepg","pricing_plan_id":"cebpf4jnsgd1na2vs0mg"},{"bike_id":"5a37c25e-cc47-4a06-ba91-ae8839f36a63","system_id":"levelo_inurba_marseille","lat":43.26553,"lon":5.3728,"is_reserved":false,"is_disabled":false,"rental_uris":{"android":"levelo://app?vid=5a37c25e-cc47-4a06-ba91-ae8839f36a63","ios":"levelo://app?vid=5a37c25e-cc47-4a06-ba91-ae8839f36a63"},"vehicle_type_id":"4","last_reported":1748434878,"current_range_meters":17200,"station_id":"ce4bhg12rcd13ifvqf70","pricing_plan_id":"cebpf4jnsgd1na2vs0mg"},{"bike_id":"16c1928a-f1da-4575-9ab0-42b3233d934e","system_id":"levelo_inurba_marseille","lat":43.26559,"lon":5.37292,"is_reserved":false,"is_disabled":false,"rental_uris":{"android":"levelo://app?vid=16c1928a-f1da-4575-9ab0-42b3233d934e","ios":"levelo://app?vid=16c1928a-f1da-4575-9ab0-42b3233d934e"},"vehicle_type_id":"4","last_reported":1748434878,"current_range_meters":17200,"station_id":"ce4bhg12rcd13ifvqf70","pricing_plan_id":"cebpf4jnsgd1na2vs0mg"},{"bike_id":"5f43bab2-8fe9-4b99-b78a-a733c9d1a189","system_id":"levelo_inurba_marseille","lat":43.23151,"lon":5.4371,"is_reserved":false,"is_disabled":false,"rental_uris":{"android":"levelo://app?vid=5f43bab2-8fe9-4b99-b78a-a733c9d1a189","ios":"levelo://app?vid=5f43bab2-8fe9-4b99-b78a-a733c9d1a189"},"vehicle_type_id":"4","last_reported":1748434878,"current_range_meters":17200,"station_id":"ce4bhmp2rcd13ifvqgog","pricing_plan_id":"cebpf4jnsgd1na2vs0mg"},{"bike_id":"87967fff-9f95-4917-ac27-506ae2d052c0","system_id":"levelo_inurba_marseille","lat":43.30595,"lon":5.36747,"is_reserved":false,"is_disabled":false,"rental_uris":{"android":"levelo://app?vid=87967fff-9f95-4917-ac27-506ae2d052c0","ios":"levelo://app?vid=87967fff-9f95-4917-ac27-506ae2d052c0"},"vehicle_type_id":"4","last_reported":1748434878,"current_range_meters":17600,"station_id":"","pricing_plan_id":"cebpf4jnsgd1na2vs0mg"},