{"last_updated":1741868325,"ttl":60,"version":"2.2","data":{"bikes":[{"bike_id":"677b3943-71db-4779-9605-656fae49d7d1","system_id":"levelo_inurba_marseille","lat":43.313385,"lon":5.379365,"is_reserved":false,"is_disabled":false,"rental_uris":{"android":"levelo://app?vid=677b3943-71db-4779-9605-656fae49d7d1","ios":"levelo://app?vid=677b3943-71db-4779-9605-656fae49d7d1"},"vehicle_type_id":"4","last_reported":1741868325,"current_range_meters":2800,"station_id":"","pricing_plan_id":"cebpf4jnsgd1na2vs0mg"},{"bike_id":"31811162-b2cb-4ec1-b3c7-8793fd2efa39","system_id":"levelo_inurba_marseille","lat":43.2501,"lon":5.38929,"is_reserved":false,"is_disabled":false,"rental_uris":{"android":"levelo://app?vid=31811162-b2cb-4ec1-b3c7-8793fd2efa39","ios":"levelo://app?vid=31811162-b2cb-4ec1-b3c7-8793fd2efa39"},"vehicle_type_id":"4","last_reported":1741868325,"current_range_meters":2800,"station_id":"ce4bhgp2rcd13ifvqfd0","pricing_plan_id":"cebpf4jnsgd1na2vs0mg"},{"bike_id":"df6db5eb-6bcb-4ae8-89b5-9155023052b6","system_id":"levelo_inurba_marseille","lat":43.26929,"lon":5.38921,"is_reserved":false,"is_disabled":false,"rental_uris":{"android":"levelo://app?vid=df6db5eb-6bcb-4ae8-89b5-9155023052b6","ios":"levelo://app?vid=df6db5eb-6bcb-4ae8-89b5-9155023052b6"},"vehicle_type_id":"4","last_reported":1741868325,"current_range_meters":2800,"station_id":"ce4bhhh2rcd13ifvqfl0","pricing_plan_id":"cebpf4jnsgd1na2vs0mg"},{"bike_id":"65885f6f-7032-423a-a921-bd5c5506ebc1","system_id":"levelo_inurba_marseille","lat":43.30539,"lon":5.36535,"is_reserved":false,"is_disabled":false,"rental_uris":{"android":"levelo://app?vid=65885f6f-7032-423a-a921-bd5c5506ebc1","ios":"levelo://app?vid=65885f6f-7032-423a-a921-bd5c5506ebc1"},"vehicle_type_id":"4","last_reported":1741868325,"current_range_meters":3200,"station_id":"ce4bgs12rcd13ifvqcag","pricing_plan_id":"cebpf4jnsgd1na2vs0mg"},{"bike_id":"1d1290cf-da89-4e5e-9676-250f65cf5c33","system_id":"levelo_inurba_marseille","lat":43.29551,"lon":5.42284,"is_reserved":false,"is_disabled":false,"rental_uris":{"android":"levelo://app?vid=1d1290cf-da89-4e5e-9676-250f65cf5c33","ios":"levelo://app?vid=1d1290cf-da89-4e5e-9676-250f65cf5c33"},"vehicle_type_id":"4","last_reported":1741868325,"current_range_meters":3200,"station_id":"ce4bhph2rcd13ifvqhdg","pricing_plan_id":"cebpf4jnsgd1na2vs0mg"},{"bike_id":"4931daa0-9aeb-42e7-8881-00806787cb28","system_id":"levelo_inurba_marseille","lat":43.32335,"lon":5.40623,"is_reserved":false,"is_disabled":false,"rental_uris":{"android":"levelo://app?vid=4931daa0-9aeb-42e7-8881-00806787cb28","ios":"levelo://app?vid=4931daa0-9aeb-42e7-8881-00806787cb28"},"vehicle_type_id":"4","last_reported":1741868325,"current_range_meters":3600,"station_id":"ce4bhq92rcd13ifvqhjg","pricing_plan_id":"cebpf4jnsgd1na2vs0mg"},{"bike_id":"6ca08143-9d43-4f95-bd08-77d3bf37c3fe","system_id":"levelo_inurba_marseille","lat":43.31354,"lon":5.36705,"is_reserved":false,"is_disabled":false,"rental_uris":{"android":"levelo://app?vid=6ca08143-9d43-4f95-bd08-77d3bf37c3fe","ios":"levelo://app?vid=6ca08143-9d43-4f95-bd08-77d3bf37c3fe"},"vehicle_type_id":"4","last_reported":1741868325,"current_range_meters":3600,"station_id":"ce4bgr92rcd13ifvqc6g","pricing_plan_id":"cebpf4jnsgd1na2vs0mg"},{"bike_id":"2189b7d1-7835-47c5-a635-4d29db82de0f","system_id":"levelo_inurba_marseille","lat":43.24079,"lon":5.3775,"is_reserved":false,"is_disabled":false,"rental_uris":{"android":"levelo://app?vid=2189b7d1-7835-47c5-a635-4d29db82de0f","ios":"levelo://app?vid=2189b7d1-7835-47c5-a635-4d29db82de0f"},"vehicle_type_id":"4","last_reported":1741868325,"current_range_meters":3600,"station_id":"ce4bhnp2rcd13ifvqgvg","pricing_plan_id":"cebpf4jnsgd1na2vs0mg"},{"bike_id":"c29dc4a6-5df7-4d4e-879a-59bdb58cd207","system_id":"levelo_inurba_marseille","lat":43.3336,"lon":5.39628,"is_reserved":false,"is_disabled":false,"rental_uris":{"android":"levelo://app?vid=c29dc4a6-5df7-4d4e-879a-59bdb58cd207","ios":"levelo://app?vid=c29dc4a6-5df7-4d4e-879a-59bdb58cd207"},"vehicle_type_id":"4","last_reported":1741868325,"current_range_meters":3600,"station_id":"","pricing_plan_id":"cebpf4jnsgd1na2vs0mg"},{"bike_id":"e835b1bb-1686-495c-922c-48bf0a6c8ae1","system_id":"levelo_inurba_marseille","lat":43.23966,"lon":5.36627,"is_reserved":false,"is_disabled":false,"rental_uris":{"android":"levelo://app?vid=e835b1bb-1686-495c-922c-48bf0a6c8ae1","ios":"levelo://app?vid=e835b1bb-1686-495c-922c-48bf0a6c8ae1"},"vehicle_type_id":"4","last_reported":1741868325,"current_range_meters":3600,"station_id":"ce4bhi12rcd13ifvqfp0","pricing_plan_id":"cebpf4jnsgd1na2vs0mg"},{"bike_id":"b3a679e6-0ea4-4900-9125-60eca69a6813","system_id":"levelo_inurba_marseille","lat":43.26058,"lon":5.39399,"is_reserved":false,"is_disabled":false,"rental_uris":{"android":"levelo://app?vid=b3a679e6-0ea4-4900-9125-60eca69a6813","ios":"levelo://app?vid=b3a679e6-0ea4-4900-9125-60eca69a6813"},"vehicle_type_id":"4","last_reported":1741868325,"current_range_meters":3600,"station_id":"ce4bhh92rcd13ifvqfj0","pricing_plan_id":"cebpf4jnsgd1na2vs0mg"},{"bike_id":"63042288-d954-48a7-99f4-50a0bed46dfc","system_id":"levelo_inurba_marseille","lat":43.2848,"lon":5.3842,"is_reserved":false,"is_disabled":false,"rental_uris":{"android":"levelo://app?vid=63042288-d954-48a7-99f4-50a0bed46dfc","ios":"levelo://app?vid=63042288-d954-48a7-99f4-50a0bed46dfc"},"vehicle_type_id":"4","last_reported":1741868325,"current_range_meters":3600,"station_id":"ce4bh512rcd13ifvqe3g","pricing_plan_id":"cebpf4jnsgd1na2vs0mg"},{"bike_id":"b3f2feba-3094-4859-afc5-532ddc2fc5f7","system_id":"levelo_inurba_marseille","lat":43.26955,"lon":5.38629,"is_reserved":false,"is_disabled":false,"rental_uris":{"android":"levelo://app?vid=b3f2feba-3094-4859-afc5-532ddc2fc5f7","ios":"levelo://app?vid=b3f2feba-3094-4859-afc5-532ddc2fc5f7"},"vehicle_type_id":"4","last_reported":1741868325,"current_range_meters":4000,"station_id":"ce4bhh92rcd13ifvqfh0","pricing_plan_id":"cebpf4jnsgd1na2vs0mg"},{"bike_id":"cd18e0c0-304a-442d-9f39-9bcb1549b7a5","system_id":"levelo_inurba_marseille","lat":43.27931,"lon":5.41057,"is_reserved":false,"is_disabled":false,"rental_uris":{"android":"levelo://app?vid=cd18e0c0-304a-442d-9f39-9bcb1549b7a5","ios":"levelo://app?vid=cd18e0c0-304a-442d-9f39-9bcb1549b7a5"},"vehicle_type_id":"4","last_reported":1741868325,"current_range_meters":4400,"station_id":"ce4bhnp2rcd13ifvqh0g","pricing_plan_id":"cebpf4jnsgd1na2vs0mg"},{"bike_id":"b8f9d267-d48f-48cb-8919-9af992e0f1f5","system_id":"levelo_inurba_marseille","lat":43.33243,"lon":5.3948,"is_reserved":false,"is_disabled":false,"rental_uris":{"android":"levelo://app?vid=b8f9d267-d48f-48cb-8919-9af992e0f1f5","ios":"levelo://app?vid=b8f9d267-d48f-48cb-8919-9af992e0f1f5"},"vehicle_type_id":"4","last_reported":1741868325,"current_range_meters":4800,"station_id":"","pricing_plan_id":"cebpf4jnsgd1na2vs0mg"},{"bike_id":"6e3fe187-e764-4eae-9010-e17a2730acd6","system_id":"levelo_inurba_marseille","lat":43.313582,"lon":5.367178,"is_reserved":false,"is_disabled":false,"rental_uris":{"android":"levelo://app?vid=6e3fe187-e764-4eae-9010-e17a2730acd6","ios":"levelo://app?vid=6e3fe187-e764-4eae-9010-e17a2730acd6"},"vehicle_type_id":"4","last_reported":1741868325,"current_range_meters":4800,"station_id":"ce4bgr92rcd13ifvqc6g","pricing_plan_id":"cebpf4jnsgd1na2vs0mg"},{"bike_id":"b7750009-6836-4f4d-8e60-d86893e18e14","system_id":"levelo_inurba_marseille","lat":43.31058,"lon":5.37118,"is_reserved":false,"is_disabled":false,"rental_uris":{"android":"levelo://app?vid=b7750009-6836-4f4d-8e60-d86893e18e14","ios":"levelo://app?vid=b7750009-6836-4f4d-8e60-d86893e18e14"},"vehicle_type_id":"4","last_reported":1741868325,"current_range_meters":4800,"station_id":"","pricing_plan_id":"cebpf4jnsgd1na2vs0mg"},{"bike_id":"a98ca72d-93b6-4de6-87d2-dc4cc8056236","system_id":"levelo_inurba_marseille","lat":43.28363,"lon":5.38082,"is_reserved":false,"is_disabled":false,"rental_uris":{"android":"levelo://app?vid=a98ca72d-93b6-4de6-87d2-dc4cc8056236","ios":"levelo://app?vid=a98ca72d-93b6-4de6-87d2-dc4cc8056236"},"vehicle_type_id":"4","last_reported":1741868325,"current_range_meters":5600,"station_id":"ce4bh412rcd13ifvqdr0","pricing_plan_id":"cebpf4jnsgd1na2vs0mg"},{"bike_id":"ee50a542-2bd9-4608-b916-1115a5e50110","system_id":"levelo_inurba_marseille","lat":43.32488,"lon":5.36549,"is_reserved":false,"is_disabled":false,"rental_uris":{"android":"levelo://app?vid=ee50a542-2bd9-4608-b916-1115a5e50110","ios":"levelo://app?vid=ee50a542-2bd9-4608-b916-1115a5e50110"},"vehicle_type_id":"4","last_reported":1741868325,"current_range_meters":5600,"station_id":"ce4bhs12rcd13ifvqhvg","pricing_plan_id":"cebpf4jnsgd1na2vs0mg"},{"bike_id":"58c5e8c6-6e3e-4bac-b702-9219905970c2","system_id":"levelo_inurba_marseille","lat":43.23198,"lon":5.35578,"is_reserved":false,"is_disabled":false,"rental_uris":{"android":"levelo://app?vid=58c5e8c6-6e3e-4bac-b702-9219905970c2","ios":"levelo://app?vid=58c5e8c6-6e3e-4bac-b702-9219905970c2"},"vehicle_type_id":"4","last_reported":1741868325,"current_range_meters":5600,"station_id":"ce4bhu92rcd13ifvqi70","pricing_plan_id":"cebpf4jnsgd1na2vs0mg"},{"bike_id":"a6ef1521-0e4e-444e-93ad-c9371b6a9eac","system_id":"levelo_inurba_marseille","lat":43.27986,"lon":5.38734,"is_reserved":false,"is_disabled":false,"rental_uris":{"android":"levelo://app?vid=a6ef1521-0e4e-444e-93ad-c9371b6a9eac","ios":"levelo://app?vid=a6ef1521-0e4e-444e-93ad-c9371b6a9eac"},"vehicle_type_id":"4","last_reported":1741868325,"current_range_meters":5600,"station_id":"ce4bhg12rcd13ifvqf80","pricing_plan_id":"cebpf4jnsgd1na2vs0mg"},{"bike_id":"99cd4659-bcc4-4174-a160-083ddf3d852d","system_id":"levelo_inurba_marseille","lat":43.27918,"lon":5.39577,"is_reserved":false,"is_disabled":false,"rental_uris":{"android":"levelo://app?vid=99cd4659-bcc4-4174-a160-083ddf3d852d","ios":"levelo://app?vid=99cd4659-bcc4-4174-a160-083ddf3d852d"},"vehicle_type_id":"4","last_reported":1741868325,"current_range_meters":5600,"station_id":"ce4bhf92rcd13ifvqf40","pricing_plan_id":"cebpf4jnsgd1na2vs0mg"},{"bike_id":"e8f489b7-d4f0-43fb-8e13-066a797660fd","system_id":"levelo_inurba_marseille","lat":43.32358,"lon":5.36755,"is_reserved":false,"is_disabled":false,"rental_uris":{"android":"levelo://app?vid=e8f489b7-d4f0-43fb-8e13-066a797660fd","ios":"levelo://app?vid=e8f489b7-d4f0-43fb-8e13-066a797660fd"},"vehicle_type_id":"4","last_reported":1741868325,"current_range_meters":5600,"station_id":"ce4bhsh2rcd13ifvqi2g","pricing_plan_id":"cebpf4jnsgd1na2vs0mg"},{"bike_id":"aeff4ce1-034b-4014-b913-fcaa42ffff4c","system_id":"levelo_inurba_marseille","lat":43.27068,"lon":5.42285,"is_reserved":false,"is_disabled":false,"rental_uris":{"android":"levelo://app?vid=aeff4ce1-034b-4014-b913-fcaa42ffff4c","ios":"levelo://app?vid=aeff4ce1-034b-4014-b913-fcaa42ffff4c"},"vehicle_type_id":"4","last_reported":1741868325,"current_range_meters":5600,"station_id":"ce4bhk92rcd13ifvqgb0","pricing_plan_id":"cebpf4jnsgd1na2vs0mg"},{"bike_id":"af1bfcbf-6d70-4682-a895-c4ae6738b248","system_id":"levelo_inurba_marseille","lat":43.30146,"lon":5.37416,"is_reserved":false,"is_disabled":false,"rental_uris":{"android":"levelo://app?vid=af1bfcbf-6d70-4682-a895-c4ae6738b248","ios":"levelo://app?vid=af1bfcbf-6d70-4682-a895-c4ae6738b248"},"vehicle_type_id":"4","last_reported":1741868325,"current_range_meters":6000,"station_id":"ce4bgs92rcd13ifvqcc0","pricing_plan_id":"cebpf4jnsgd1na2vs0mg"},{"bike_id":"91919df0-a609-4174-9c4e-96f0a7ea657d","system_id":"levelo_inurba_marseille","lat":43.26564,"lon":5.39013,"is_reserved":false,"is_disabled":false,"rental_uris":{"android":"levelo://app?vid=91919df0-a609-4174-9c4e-96f0a7ea657d","ios":"levelo://app?vid=91919df0-a609-4174-9c4e-96f0a7ea657d"},"vehicle_type_id":"4","last_reported":1741868325,"current_range_meters":6000,"station_id":"ce4bhe12rcd13ifvqf30","pricing_plan_id":"cebpf4jnsgd1na2vs0mg"},{"bike_id":"55f1d69c-fe3d-45bd-909b-0d4884af206e","system_id":"levelo_inurba_marseille","lat":43.26218,"lon":5.40445,"is_reserved":false,"is_disabled":false,"rental_uris":{"android":"levelo://app?vid=55f1d69c-fe3d-45bd-909b-0d4884af206e","ios":"levelo://app?vid=55f1d69c-fe3d-45bd-909b-0d4884af206e"},"vehicle_type_id":"4","last_reported":1741868325,"current_range_meters":6000,"station_id":"ce4bhmh2rcd13ifvqgmg","pricing_plan_id":"cebpf4jnsgd1na2vs0mg"},{"bike_id":"13acb16b-eaf6-4f3a-a616-544b881a006c","system_id":"levelo_inurba_marseille","lat":43.30455,"lon":5.37857,"is_reserved":false,"is_disabled":false,"rental_uris":{"android":"levelo://app?vid=13acb16b-eaf6-4f3a-a616-544b881a006c","ios":"levelo://app?vid=13acb16b-eaf6-4f3a-a616-544b881a006c"},"vehicle_type_id":"4","last_reported":1741868325,"current_range_meters":6000,"station_id":"ce4bgup2rcd13ifvqcn0","pricing_plan_id":"cebpf4jnsgd1na2vs0mg"},{"bike_id":"9378fea9-b359-417b-a6c9-c8927df6474d","system_id":"levelo_inurba_marseille","lat":43.27822,"lon":5.40713,"is_reserved":false,"is_disabled":false,"rental_uris":{"android":"levelo://app?vid=9378fea9-b359-417b-a6c9-c8927df6474d","ios":"levelo://app?vid=9378fea9-b359-417b-a6c9-c8927df6474d"},"vehicle_type_id":"4","last_reported":1741868325,"current_range_meters":6000,"station_id":"ce4bhnh2rcd13ifvqgtg","pricing_plan_id":"cebpf4jnsgd1na2vs0mg"},{"bike_id":"3f4266ce-b86a-4067-ade9-50324db69e0a","system_id":"levelo_inurba_marseille","lat":43.3014,"lon":5.38783,"is_reserved":false,"is_disabled":false,"rental_uris":{"android":"levelo://app?vid=3f4266ce-b86a-4067-ade9-50324db69e0a","ios":"levelo://app?vid=3f4266ce-b86a-4067-ade9-50324db69e0a"},"vehicle_type_id":"4","last_reported":1741868325,"current_range_meters":6000,"station_id":"ce4bghh2rcd13ifvqb60","pricing_plan_id":"cebpf4jnsgd1na2vs0mg"},{"bike_id":"05bf619a-286a-4f73-abcb-0761f5cf9800","system_id":"levelo_inurba_marseille","lat":43.29776,"lon":5.380445,"is_reserved":false,"is_disabled":false,"rental_uris":{"android":"levelo://app?vid=05bf619a-286a-4f73-abcb-0761f5cf9800","ios":"levelo://app?vid=05bf619a-286a-4f73-abcb-0761f5cf9800"},"vehicle_type_id":"4","last_reported":1741868325,"current_range_meters":6000,"station_id":"ce4bgjp2rcd13ifvqbh0","pricing_plan_id":"cebpf4jnsgd1na2vs0mg"},{"bike_id":"42fa512b-feb0-4c3c-ad4f-95c57ac75c75","system_id":"levelo_inurba_marseille","lat":43.27958,"lon":5.38752,"is_reserved":false,"is_disabled":false,"rental_uris":{"android":"levelo://app?vid=42fa512b-feb0-4c3c-ad4f-95c57ac75c75","ios":"levelo://app?vid=42fa512b-feb0-4c3c-ad4f-95c57ac75c75"},"vehicle_type_id":"4","last_reported":1741868325,"current_range_meters":6000,"station_id":"ce4bhg12rcd13ifvqf80","pricing_plan_id":"cebpf4jnsgd1na2vs0mg"},{"bike_id":"854e5b3c-1373-4bcb-8903-bfa4f8b4e34f","system_id":"levelo_inurba_marseille","lat":43.30956,"lon":5.39034,"is_reserved":false,"is_disabled":false,"rental_uris":{"android":"levelo://app?vid=854e5b3c-1373-4bcb-8903-bfa4f8b4e34f","ios":"levelo://app?vid=854e5b3c-1373-4bcb-8903-bfa4f8b4e34f"},"vehicle_type_id":"4","last_reported":1741868325,"current_range_meters":6400,"station_id":"ce4bgup2rcd13ifvqco0","pricing_plan_id":"cebpf4jnsgd1na2vs0mg"},{"bike_id":"dc804c71-a744-4844-af3b-67393c6a15ad","system_id":"levelo_inurba_marseille","lat":43.32367,"lon":5.36768,"is_reserved":false,"is_disabled":false,"rental_uris":{"android":"levelo://app?vid=dc804c71-a744-4844-af3b-67393c6a15ad","ios":"levelo://app?vid=dc804c71-a744-4844-af3b-67393c6a15ad"},"vehicle_type_id":"4","last_reported":1741868325,"current_range_meters":6400,"station_id":"ce4bhsh2rcd13ifvqi2g","pricing_plan_id":"cebpf4jnsgd1na2vs0mg"},{"bike_id":"4bd10c89-03ba-4c54-b797-b368384af751","system_id":"levelo_inurba_marseille","lat":43.30558,"lon":5.36545,"is_reserved":false,"is_disabled":false,"rental_uris":{"android":"levelo://app?vid=4bd10c89-03ba-4c54-b797-b368384af751","ios":"levelo://app?vid=4bd10c89-03ba-4c54-b797-b368384af751"},"vehicle_type_id":"4","last_reported":1741868325,"current_range_meters":6400,"station_id":"ce4bgs12rcd13ifvqcag","pricing_plan_id":"cebpf4jnsgd1na2vs0mg"},{"bike_id":"e65f842e-69b2-436a-a201-83a06add3a55","system_id":"levelo_inurba_marseille","lat":43.25017,"lon":5.38909,"is_reserved":false,"is_disabled":false,"rental_uris":{"android":"levelo://app?vid=e65f842e-69b2-436a-a201-83a06add3a55","ios":"levelo://app?vid=e65f842e-69b2-436a-a201-83a06add3a55"},"vehicle_type_id":"4","last_reported":1741868325,"current_range_meters":6400,"station_id":"ce4bhgp2rcd13ifvqfd0","pricing_plan_id":"cebpf4jnsgd1na2vs0mg"},{"bike_id":"4f22fe17-a417-41ba-bcf4-f26309487b11","system_id":"levelo_inurba_marseille","lat":43.3343,"lon":5.40064,"is_reserved":false,"is_disabled":false,"rental_uris":{"android":"levelo://app?vid=4f22fe17-a417-41ba-bcf4-f26309487b11","ios":"levelo://app?vid=4f22fe17-a417-41ba-bcf4-f26309487b11"},"vehicle_type_id":"4","last_reported":1741868325,"current_range_meters":6400,"station_id":"","pricing_plan_id":"cebpf4jnsgd1na2vs0mg"},{"bike_id":"8a5be889-430b-4f3c-ad97-bb7a2b97f12e","system_id":"levelo_inurba_marseille","lat":43.29555,"lon":5.42291,"is_reserved":false,"is_disabled":false,"rental_uris":{"android":"levelo://app?vid=8a5be889-430b-4f3c-ad97-bb7a2b97f12e","ios":"levelo://app?vid=8a5be889-430b-4f3c-ad97-bb7a2b97f12e"},"vehicle_type_id":"4","last_reported":1741868325,"current_range_meters":6800,"station_id":"ce4bhph2rcd13ifvqhdg","pricing_plan_id":"cebpf4jnsgd1na2vs0mg"},{"bike_id":"0e1454f0-c501-449b-b78c-ddfc8f4d9aab","system_id":"levelo_inurba_marseille","lat":43.33768,"lon":5.3749,"is_reserved":false,"is_disabled":false,"rental_uris":{"android":"levelo://app?vid=0e1454f0-c501-449b-b78c-ddfc8f4d9aab","ios":"levelo://app?vid=0e1454f0-c501-449b-b78c-ddfc8f4d9aab"},"vehicle_type_id":"4","last_reported":1741868325,"current_range_meters":6800,"station_id":"","pricing_plan_id":"cebpf4jnsgd1na2vs0mg"},{"bike_id":"26ed57dd-241e-45be-9d7e-03dae57f8eac","system_id":"levelo_inurba_marseille","lat":43.29296,"lon":5.3746,"is_reserved":false,"is_disabled":false,"rental_uris":{"android":"levelo://app?vid=26ed57dd-241e-45be-9d7e-03dae57f8eac","ios":"levelo://app?vid=26ed57dd-241e-45be-9d7e-03dae57f8eac"},"vehicle_type_id":"4","last_reported":1741868325,"current_range_meters":6800,"station_id":"ce4bgi12rcd13ifvqb70","pricing_plan_id":"cebpf4jnsgd1na2vs0mg"},{"bike_id":"2a69e639-a0be-4da5-b497-a75be2f56c13","system_id":"levelo_inurba_marseille","lat":43.25092,"lon":5.39516,"is_reserved":false,"is_disabled":false,"rental_uris":{"android":"levelo://app?vid=2a69e639-a0be-4da5-b497-a75be2f56c13","ios":"levelo://app?vid=2a69e639-a0be-4da5-b497-a75be2f56c13"},"vehicle_type_id":"4","last_reported":1741868325,"current_range_meters":6800,"station_id":"ce4bhm12rcd13ifvqgkg","pricing_plan_id":"cebpf4jnsgd1na2vs0mg"},{"bike_id":"a3bd5dca-4bd8-49b0-9cb3-808a14eff980","system_id":"levelo_inurba_marseille","lat":43.31483,"lon":5.37296,"is_reserved":false,"is_disabled":false,"rental_uris":{"android":"levelo://app?vid=a3bd5dca-4bd8-49b0-9cb3-808a14eff980","ios":"levelo://app?vid=a3bd5dca-4bd8-49b0-9cb3-808a14eff980"},"vehicle_type_id":"4","last_reported":1741868325,"current_range_meters":6800,"station_id":"ce4bgt12rcd13ifvqcd0","pricing_plan_id":"cebpf4jnsgd1na2vs0mg"},{"bike_id":"03ac15ae-6437-435e-b46a-a181ccfad29c","system_id":"levelo_inurba_marseille","lat":43.30465,"lon":5.37914,"is_reserved":false,"is_disabled":false,"rental_uris":{"android":"levelo://app?vid=03ac15ae-6437-435e-b46a-a181ccfad29c","ios":"levelo://app?vid=03ac15ae-6437-435e-b46a-a181ccfad29c"},"vehicle_type_id":"4","last_reported":1741868325,"current_range_meters":7200,"station_id":"ce4bgup2rcd13ifvqcn0","pricing_plan_id":"cebpf4jnsgd1na2vs0mg"},{"bike_id":"32aebc3a-14c2-412a-9dd1-139c73270c7f","system_id":"levelo_inurba_marseille","lat":43.24999,"lon":5.38929,"is_reserved":false,"is_disabled":false,"rental_uris":{"android":"levelo://app?vid=32aebc3a-14c2-412a-9dd1-139c73270c7f","ios":"levelo://app?vid=32aebc3a-14c2-412a-9dd1-139c73270c7f"},"vehicle_type_id":"4","last_reported":1741868325,"current_range_meters":7200,"station_id":"ce4bhgp2rcd13ifvqfd0","pricing_plan_id":"cebpf4jnsgd1na2vs0mg"},{"bike_id":"57dd54e3-4a62-4d62-a03b-5320a176e579","system_id":"levelo_inurba_marseille","lat":43.24174,"lon":5.36396,"is_reserved":false,"is_disabled":false,"rental_uris":{"android":"levelo://app?vid=57dd54e3-4a62-4d62-a03b-5320a176e579","ios":"levelo://app?vid=57dd54e3-4a62-4d62-a03b-5320a176e579"},"vehicle_type_id":"4","last_reported":1741868325,"current_range_meters":7200,"station_id":"cpo36qri1sfpv3e86is0","pricing_plan_id":"cebpf4jnsgd1na2vs0mg"},{"bike_id":"2fe54254-5b11-4939-bb74-6fb31c1295ea","system_id":"levelo_inurba_marseille","lat":43.22933,"lon":5.3536,"is_reserved":false,"is_disabled":false,"rental_uris":{"android":"levelo://app?vid=2fe54254-5b11-4939-bb74-6fb31c1295ea","ios":"levelo://app?vid=2fe54254-5b11-4939-bb74-6fb31c1295ea"},"vehicle_type_id":"4","last_reported":1741868325,"current_range_meters":7200,"station_id":"cpo3532slgdg3j2ikp40","pricing_plan_id":"cebpf4jnsgd1na2vs0mg"},{"bike_id":"fb03e9b9-f1d4-4d2f-8575-deaaf2914ec9","system_id":"levelo_inurba_marseille","lat":43.24078,"lon":5.37747,"is_reserved":false,"is_disabled":false,"rental_uris":{"android":"levelo://app?vid=fb03e9b9-f1d4-4d2f-8575-deaaf2914ec9","ios":"levelo://app?vid=fb03e9b9-f1d4-4d2f-8575-deaaf2914ec9"},"vehicle_type_id":"4","last_reported":1741868325,"current_range_meters":7200,"station_id":"ce4bhnp2rcd13ifvqgvg","pricing_plan_id":"cebpf4jnsgd1na2vs0mg"},{"bike_id":"bf8395e2-d508-4cac-bea6-f054c45b0fa7","system_id":"levelo_inurba_marseille","lat":43.2696,"lon":5.38623,"is_reserved":false,"is_disabled":false,"rental_uris":{"android":"levelo://app?vid=bf8395e2-d508-4cac-bea6-f054c45b0fa7","ios":"levelo://app?vid=bf8395e2-d508-4cac-bea6-f054c45b0fa7"},"vehicle_type_id":"4","last_reported":1741868325,"current_range_meters":7200,"station_id":"ce4bhh92rcd13ifvqfh0","pricing_plan_id":"cebpf4jnsgd1na2vs0mg"},{"bike_id":"a89a16c0-930c-442d-a1a2-f57bb9bfbe5c","system_id":"levelo_inurba_marseille","lat":43.28265,"lon":5.3506,"is_reserved":false,"is_disabled":false,"rental_uris":{"android":"levelo://app?vid=a89a16c0-930c-442d-a1a2-f57bb9bfbe5c","ios":"levelo://app?vid=a89a16c0-930c-442d-a1a2-f57bb9bfbe5c"},"vehicle_type_id":"4","last_reported":1741868325,"current_range_meters":7200,"station_id":"ce4bhbp2rcd13ifvqerg","pricing_plan_id":"cebpf4jnsgd1na2vs0mg"},{"bike_id":"616a435f-89dc-43cc-870e-cd4d9550de2e","system_id":"levelo_inurba_marseille","lat":43.31415,"lon":5.3763,"is_reserved":false,"is_disabled":false,"rental_uris":{"android":"levelo://app?vid=616a435f-89dc-43cc-870e-cd4d9550de2e","ios":"levelo://app?vid=616a435f-89dc-43cc-870e-cd4d9550de2e"},"vehicle_type_id":"4","last_reported":1741868325,"current_range_meters":7200,"station_id":"","pricing_plan_id":"cebpf4jnsgd1na2vs0mg"},{"bike_id":"96e0d798-306b-44e6-8caf-397f4b32d44f","system_id":"levelo_inurba_marseille","lat":43.23174,"lon":5.39987,"is_reserved":false,"is_disabled":false,"rental_uris":{"android":"levelo://app?vid=96e0d798-306b-44e6-8caf-397f4b32d44f","ios":"levelo://app?vid=96e0d798-306b-44e6-8caf-397f4b32d44f"},"vehicle_type_id":"4","last_reported":1741868325,"current_range_meters":7200,"station_id":"ce4bhn12rcd13ifvqgqg","pricing_plan_id":"cebpf4jnsgd1na2vs0mg"},{"bike_id":"cb567277-cc92-473f-ba27-13f9d7cbb613","system_id":"levelo_inurba_marseille","lat":43.25019,"lon":5.38925,"is_reserved":false,"is_disabled":false,"rental_uris":{"android":"levelo://app?vid=cb567277-cc92-473f-ba27-13f9d7cbb613","ios":"levelo://app?vid=cb567277-cc92-473f-ba27-13f9d7cbb613"},"vehicle_type_id":"4","last_reported":1741868325,"current_range_meters":7200,"station_id":"ce4bhgp2rcd13ifvqfd0","pricing_plan_id":"cebpf4jnsgd1na2vs0mg"},{"bike_id":"d5d27681-4cf0-4f00-9849-e320d119461c","system_id":"levelo_inurba_marseille","lat":43.27989,"lon":5.38723,"is_reserved":false,"is_disabled":false,"rental_uris":{"android":"levelo://app?vid=d5d27681-4cf0-4f00-9849-e320d119461c","ios":"levelo://app?vid=d5d27681-4cf0-4f00-9849-e320d119461c"},"vehicle_type_id":"4","last_reported":1741868325,"current_range_meters":7200,"station_id":"ce4bhg12rcd13ifvqf80","pricing_plan_id":"cebpf4jnsgd1na2vs0mg"},{"bike_id":"2053d644-c7c1-4a84-85e5-e0d75fa3de3a","system_id":"levelo_inurba_marseille","lat":43.26223,"lon":5.40449,"is_reserved":false,"is_disabled":false,"rental_uris":{"android":"levelo://app?vid=2053d644-c7c1-4a84-85e5-e0d75fa3de3a","ios":"levelo://app?vid=2053d644-c7c1-4a84-85e5-e0d75fa3de3a"},"vehicle_type_id":"4","last_reported":1741868325,"current_range_meters":7200,"station_id":"ce4bhmh2rcd13ifvqgmg","pricing_plan_id":"cebpf4jnsgd1na2vs0mg"},{"bike_id":"6bc5ae59-3d60-44cb-9fee-9ed86ec11479","system_id":"levelo_inurba_marseille","lat":43.3046,"lon":5.3791,"is_reserved":false,"is_disabled":false,"rental_uris":{"android":"levelo://app?vid=6bc5ae59-3d60-44cb-9fee-9ed86ec11479","ios":"levelo://app?vid=6bc5ae59-3d60-44cb-9fee-9ed86ec11479"},"vehicle_type_id":"4","last_reported":1741868325,"current_range_meters":7200,"station_id":"ce4bgup2rcd13ifvqcn0","pricing_plan_id":"cebpf4jnsgd1na2vs0mg"},{"bike_id":"fe22b9fe-97a7-4733-be51-1a5b8c69d405","system_id":"levelo_inurba_marseille","lat":43.32654,"lon":5.40996,"is_reserved":false,"is_disabled":false,"rental_uris":{"android":"levelo://app?vid=fe22b9fe-97a7-4733-be51-1a5b8c69d405","ios":"levelo://app?vid=fe22b9fe-97a7-4733-be51-1a5b8c69d405"},"vehicle_type_id":"4","last_reported":1741868325,"current_range_meters":7200,"station_id":"ce4bhpp2rcd13ifvqhgg","pricing_plan_id":"cebpf4jnsgd1na2vs0mg"},{"bike_id":"d5ae4600-476e-4c8a-b248-76c73ec9f040","system_id":"levelo_inurba_marseille","lat":43.25022,"lon":5.38923,"is_reserved":false,"is_disabled":false,"rental_uris":{"android":"levelo://app?vid=d5ae4600-476e-4c8a-b248-76c73ec9f040","ios":"levelo://app?vid=d5ae4600-476e-4c8a-b248-76c73ec9f040"},"vehicle_type_id":"4","last_reported":1741868325,"current_range_meters":8000,"station_id":"ce4bhgp2rcd13ifvqfd0","pricing_plan_id":"cebpf4jnsgd1na2vs0mg"},{"bike_id":"b84dac74-01e4-4f3f-a0da-141881f97a2a","system_id":"levelo_inurba_marseille","lat":43.31377,"lon":5.36707,"is_reserved":false,"is_disabled":false,"rental_uris":{"android":"levelo://app?vid=b84dac74-01e4-4f3f-a0da-141881f97a2a","ios":"levelo://app?vid=b84dac74-01e4-4f3f-a0da-141881f97a2a"},"vehicle_type_id":"4","last_reported":1741868325,"current_range_meters":8000,"station_id":"ce4bgr92rcd13ifvqc6g","pricing_plan_id":"cebpf4jnsgd1na2vs0mg"},{"bike_id":"38294457-b8fd-4730-b5aa-3748c651b319","system_id":"levelo_inurba_marseille","lat":43.23146,"lon":5.43715,"is_reserved":false,"is_disabled":false,"rental_uris":{"android":"levelo://app?vid=38294457-b8fd-4730-b5aa-3748c651b319","ios":"levelo://app?vid=38294457-b8fd-4730-b5aa-3748c651b319"},"vehicle_type_id":"4","last_reported":1741868325,"current_range_meters":8000,"station_id":"ce4bhmp2rcd13ifvqgog","pricing_plan_id":"cebpf4jnsgd1na2vs0mg"},{"bike_id":"7f97dab3-6641-4c6a-9b12-3940cae11793","system_id":"levelo_inurba_marseille","lat":43.25011,"lon":5.3892,"is_reserved":false,"is_disabled":false,"rental_uris":{"android":"levelo://app?vid=7f97dab3-6641-4c6a-9b12-3940cae11793","ios":"levelo://app?vid=7f97dab3-6641-4c6a-9b12-3940cae11793"},"vehicle_type_id":"4","last_reported":1741868325,"current_range_meters":8000,"station_id":"ce4bhgp2rcd13ifvqfd0","pricing_plan_id":"cebpf4jnsgd1na2vs0mg"},{"bike_id":"46021c47-a2d7-4a36-91d1-ce3d739f0f32","system_id":"levelo_inurba_marseille","lat":43.3028,"lon":5.37691,"is_reserved":false,"is_disabled":false,"rental_uris":{"android":"levelo://app?vid=46021c47-a2d7-4a36-91d1-ce3d739f0f32","ios":"levelo://app?vid=46021c47-a2d7-4a36-91d1-ce3d739f0f32"},"vehicle_type_id":"4","last_reported":1741868325,"current_range_meters":8000,"station_id":"ce4bguh2rcd13ifvqcj0","pricing_plan_id":"cebpf4jnsgd1na2vs0mg"},{"bike_id":"9182940f-c570-4583-b99a-b35f1afe2ef6","system_id":"levelo_inurba_marseille","lat":43.305359,"lon":5.365399,"is_reserved":false,"is_disabled":false,"rental_uris":{"android":"levelo://app?vid=9182940f-c570-4583-b99a-b35f1afe2ef6","ios":"levelo://app?vid=9182940f-c570-4583-b99a-b35f1afe2ef6"},"vehicle_type_id":"4","last_reported":1741868325,"current_range_meters":8000,"station_id":"ce4bgs12rcd13ifvqcag","pricing_plan_id":"cebpf4jnsgd1na2vs0mg"},{"bike_id":"931a65f6-98be-4189-b167-a49aeaf4dc43","system_id":"levelo_inurba_marseille","lat":43.25022,"lon":5.38913,"is_reserved":false,"is_disabled":false,"rental_uris":{"android":"levelo://app?vid=931a65f6-98be-4189-b167-a49aeaf4dc43","ios":"levelo://app?vid=931a65f6-98be-4189-b167-a49aeaf4dc43"},"vehicle_type_id":"4","last_reported":1741868325,"current_range_meters":8000,"station_id":"ce4bhgp2rcd13ifvqfd0","pricing_plan_id":"cebpf4jnsgd1na2vs0mg"},{"bike_id":"8a01a9ee-0b5d-4dcf-86c8-3a55476e2aa0","system_id":"levelo_inurba_marseille","lat":43.24074,"lon":5.37743,"is_reserved":false,"is_disabled":false,"rental_uris":{"android":"levelo://app?vid=8a01a9ee-0b5d-4dcf-86c8-3a55476e2aa0","ios":"levelo://app?vid=8a01a9ee-0b5d-4dcf-86c8-3a55476e2aa0"},"vehicle_type_id":"4","last_reported":1741868325,"current_range_meters":8000,"station_id":"ce4bhnp2rcd13ifvqgvg","pricing_plan_id":"cebpf4jnsgd1na2vs0mg"},{"bike_id":"9860d6c5-905a-44ee-8baf-e5ed916689aa","system_id":"levelo_inurba_marseille","lat":43.31354,"lon":5.36705,"is_reserved":false,"is_disabled":false,"rental_uris":{"android":"levelo://app?vid=9860d6c5-905a-44ee-8baf-e5ed916689aa","ios":"levelo://app?vid=9860d6c5-905a-44ee-8baf-e5ed916689aa"},"vehicle_type_id":"4","last_reported":1741868325,"current_range_meters":8400,"station_id":"ce4bgr92rcd13ifvqc6g","pricing_plan_id":"cebpf4jnsgd1na2vs0mg"},{"bike_id":"7f3a316c-8680-4db7-8b3f-15516f84e28e","system_id":"levelo_inurba_marseille","lat":43.28708,"lon":5.39991,"is_reserved":false,"is_disabled":false,"rental_uris":{"android":"levelo://app?vid=7f3a316c-8680-4db7-8b3f-15516f84e28e","ios":"levelo://app?vid=7f3a316c-8680-4db7-8b3f-15516f84e28e"},"vehicle_type_id":"4","last_reported":1741868325,"current_range_meters":8400,"station_id":"ce4bho92rcd13ifvqh3g","pricing_plan_id":"cebpf4jnsgd1na2vs0mg"},{"bike_id":"ce9250ff-4229-4ccb-a37a-4b380950241a","system_id":"levelo_inurba_marseille","lat":43.24671,"lon":5.38167,"is_reserved":false,"is_disabled":false,"rental_uris":{"android":"levelo://app?vid=ce9250ff-4229-4ccb-a37a-4b380950241a","ios":"levelo://app?vid=ce9250ff-4229-4ccb-a37a-4b380950241a"},"vehicle_type_id":"4","last_reported":1741868325,"current_range_meters":8400,"station_id":"ce4bhih2rcd13ifvqfr0","pricing_plan_id":"cebpf4jnsgd1na2vs0mg"},{"bike_id":"d84bd22e-28b1-45d7-a74f-fbd938c36381","system_id":"levelo_inurba_marseille","lat":43.30552,"lon":5.36702,"is_reserved":false,"is_disabled":false,"rental_uris":{"android":"levelo://app?vid=d84bd22e-28b1-45d7-a74f-fbd938c36381","ios":"levelo://app?vid=d84bd22e-28b1-45d7-a74f-fbd938c36381"},"vehicle_type_id":"4","last_reported":1741868325,"current_range_meters":8400,"station_id":"ce4bgrp2rcd13ifvqc9g","pricing_plan_id":"cebpf4jnsgd1na2vs0mg"},{"bike_id":"d7cf3da4-03cf-4eae-b183-47670a6b872f","system_id":"levelo_inurba_marseille","lat":43.231903,"lon":5.355548,"is_reserved":false,"is_disabled":false,"rental_uris":{"android":"levelo://app?vid=d7cf3da4-03cf-4eae-b183-47670a6b872f","ios":"levelo://app?vid=d7cf3da4-03cf-4eae-b183-47670a6b872f"},"vehicle_type_id":"4","last_reported":1741868325,"current_range_meters":8400,"station_id":"ce4bhu92rcd13ifvqi70","pricing_plan_id":"cebpf4jnsgd1na2vs0mg"},{"bike_id":"74171351-bcab-4fb2-b6dd-59c9c10e6450","system_id":"levelo_inurba_marseille","lat":43.295866,"lon":5.376214,"is_reserved":false,"is_disabled":false,"rental_uris":{"android":"levelo://app?vid=74171351-bcab-4fb2-b6dd-59c9c10e6450","ios":"levelo://app?vid=74171351-bcab-4fb2-b6dd-59c9c10e6450"},"vehicle_type_id":"4","last_reported":1741868325,"current_range_meters":8400,"station_id":"ce4bgh92rcd13ifvqb50","pricing_plan_id":"cebpf4jnsgd1na2vs0mg"},{"bike_id":"ccde3be1-4144-427e-acc2-fed605e4915f","system_id":"levelo_inurba_marseille","lat":43.281,"lon":5.39854,"is_reserved":false,"is_disabled":false,"rental_uris":{"android":"levelo://app?vid=ccde3be1-4144-427e-acc2-fed605e4915f","ios":"levelo://app?vid=ccde3be1-4144-427e-acc2-fed605e4915f"},"vehicle_type_id":"4","last_reported":1741868325,"current_range_meters":8400,"station_id":"","pricing_plan_id":"cebpf4jnsgd1na2vs0mg"},{"bike_id":"6edb934c-f9d5-43ae-8b43-f27b70dab8d2","system_id":"levelo_inurba_marseille","lat":43.292653,"lon":5.376171,"is_reserved":false,"is_disabled":false,"rental_uris":{"android":"levelo://app?vid=6edb934c-f9d5-43ae-8b43-f27b70dab8d2","ios":"levelo://app?vid=6edb934c-f9d5-43ae-8b43-f27b70dab8d2"},"vehicle_type_id":"4","last_reported":1741868325,"current_range_meters":8400,"station_id":"ce4bgi12rcd13ifvqb80","pricing_plan_id":"cebpf4jnsgd1na2vs0mg"},{"bike_id":"b945d8d0-7f7e-44e7-a580-44ad2dfbe250","system_id":"levelo_inurba_marseille","lat":43.25931,"lon":5.40878,"is_reserved":false,"is_disabled":false,"rental_uris":{"android":"levelo://app?vid=b945d8d0-7f7e-44e7-a580-44ad2dfbe250","ios":"levelo://app?vid=b945d8d0-7f7e-44e7-a580-44ad2dfbe250"},"vehicle_type_id":"4","last_reported":1741868325,"current_range_meters":8400,"station_id":"ce4bhm92rcd13ifvqglg","pricing_plan_id":"cebpf4jnsgd1na2vs0mg"},{"bike_id":"1bcce178-7e11-4c71-8837-7b1748cf932f","system_id":"levelo_inurba_marseille","lat":43.30375,"lon":5.42488,"is_reserved":false,"is_disabled":false,"rental_uris":{"android":"levelo://app?vid=1bcce178-7e11-4c71-8837-7b1748cf932f","ios":"levelo://app?vid=1bcce178-7e11-4c71-8837-7b1748cf932f"},"vehicle_type_id":"4","last_reported":1741868325,"current_range_meters":8400,"station_id":"ce4bghh2rcd13ifvqb60","pricing_plan_id":"cebpf4jnsgd1na2vs0mg"},{"bike_id":"2fbee43f-ae3d-4636-8ecc-56b81152a5c3","system_id":"levelo_inurba_marseille","lat":43.2962,"lon":5.37713,"is_reserved":false,"is_disabled":false,"rental_uris":{"android":"levelo://app?vid=2fbee43f-ae3d-4636-8ecc-56b81152a5c3","ios":"levelo://app?vid=2fbee43f-ae3d-4636-8ecc-56b81152a5c3"},"vehicle_type_id":"4","last_reported":1741868325,"current_range_meters":8400,"station_id":"ce4bgi92rcd13ifvqb90","pricing_plan_id":"cebpf4jnsgd1na2vs0mg"},{"bike_id":"7534fd57-2f73-402a-939e-490397703aff","system_id":"levelo_inurba_marseille","lat":43.27499,"lon":5.42468,"is_reserved":false,"is_disabled":false,"rental_uris":{"android":"levelo://app?vid=7534fd57-2f73-402a-939e-490397703aff","ios":"levelo://app?vid=7534fd57-2f73-402a-939e-490397703aff"},"vehicle_type_id":"4","last_reported":1741868325,"current_range_meters":8400,"station_id":"ce4bhn92rcd13ifvqgrg","pricing_plan_id":"cebpf4jnsgd1na2vs0mg"},{"bike_id":"5b7dcee6-e15c-472e-a498-5a10b2578633","system_id":"levelo_inurba_marseille","lat":43.303779,"lon":5.424911,"is_reserved":false,"is_disabled":false,"rental_uris":{"android":"levelo://app?vid=5b7dcee6-e15c-472e-a498-5a10b2578633","ios":"levelo://app?vid=5b7dcee6-e15c-472e-a498-5a10b2578633"},"vehicle_type_id":"4","last_reported":1741868325,"current_range_meters":8400,"station_id":"ce4bghh2rcd13ifvqb60","pricing_plan_id":"cebpf4jnsgd1na2vs0mg"},{"bike_id":"4a9c9b97-dfdf-4679-85c2-aacc3c399c23","system_id":"levelo_inurba_marseille","lat":43.31337,"lon":5.36729,"is_reserved":false,"is_disabled":false,"rental_uris":{"android":"levelo://app?vid=4a9c9b97-dfdf-4679-85c2-aacc3c399c23","ios":"levelo://app?vid=4a9c9b97-dfdf-4679-85c2-aacc3c399c23"},"vehicle_type_id":"4","last_reported":1741868325,"current_range_meters":8800,"station_id":"ce4bgr92rcd13ifvqc6g","pricing_plan_id":"cebpf4jnsgd1na2vs0mg"},{"bike_id":"a1d5c912-c4fd-4f7b-831c-fa99a6489895","system_id":"levelo_inurba_marseille","lat":43.27375,"lon":5.36247,"is_reserved":false,"is_disabled":false,"rental_uris":{"android":"levelo://app?vid=a1d5c912-c4fd-4f7b-831c-fa99a6489895","ios":"levelo://app?vid=a1d5c912-c4fd-4f7b-831c-fa99a6489895"},"vehicle_type_id":"4","last_reported":1741868325,"current_range_meters":8800,"station_id":"ce4bhbh2rcd13ifvqeo0","pricing_plan_id":"cebpf4jnsgd1na2vs0mg"},{"bike_id":"05327c1e-5225-40c5-87e0-3a83dc6b859b","system_id":"levelo_inurba_marseille","lat":43.30557,"lon":5.36531,"is_reserved":false,"is_disabled":false,"rental_uris":{"android":"levelo://app?vid=05327c1e-5225-40c5-87e0-3a83dc6b859b","ios":"levelo://app?vid=05327c1e-5225-40c5-87e0-3a83dc6b859b"},"vehicle_type_id":"4","last_reported":1741868325,"current_range_meters":8800,"station_id":"ce4bgs12rcd13ifvqcag","pricing_plan_id":"cebpf4jnsgd1na2vs0mg"},{"bike_id":"a95984ab-3dbf-4249-a239-07fcdd289d64","system_id":"levelo_inurba_marseille","lat":43.29849,"lon":5.36288,"is_reserved":false,"is_disabled":false,"rental_uris":{"android":"levelo://app?vid=a95984ab-3dbf-4249-a239-07fcdd289d64","ios":"levelo://app?vid=a95984ab-3dbf-4249-a239-07fcdd289d64"},"vehicle_type_id":"4","last_reported":1741868325,"current_range_meters":8800,"station_id":"ce4bgpp2rcd13ifvqc3g","pricing_plan_id":"cebpf4jnsgd1na2vs0mg"},{"bike_id":"1a753146-0e79-4e11-8bd2-348fa407bfac","system_id":"levelo_inurba_marseille","lat":43.24083,"lon":5.37759,"is_reserved":false,"is_disabled":false,"rental_uris":{"android":"levelo://app?vid=1a753146-0e79-4e11-8bd2-348fa407bfac","ios":"levelo://app?vid=1a753146-0e79-4e11-8bd2-348fa407bfac"},"vehicle_type_id":"4","last_reported":1741868325,"current_range_meters":8800,"station_id":"ce4bhnp2rcd13ifvqgvg","pricing_plan_id":"cebpf4jnsgd1na2vs0mg"},{"bike_id":"52d92dfb-25dd-4602-be58-36849cd50edc","system_id":"levelo_inurba_marseille","lat":43.27917,"lon":5.39581,"is_reserved":false,"is_disabled":false,"rental_uris":{"android":"levelo://app?vid=52d92dfb-25dd-4602-be58-36849cd50edc","ios":"levelo://app?vid=52d92dfb-25dd-4602-be58-36849cd50edc"},"vehicle_type_id":"4","last_reported":1741868325,"current_range_meters":8800,"station_id":"ce4bhf92rcd13ifvqf40","pricing_plan_id":"cebpf4jnsgd1na2vs0mg"},{"bike_id":"63cdf868-38d0-485c-af30-698160728fbf","system_id":"levelo_inurba_marseille","lat":43.26035,"lon":5.41735,"is_reserved":false,"is_disabled":false,"rental_uris":{"android":"levelo://app?vid=63cdf868-38d0-485c-af30-698160728fbf","ios":"levelo://app?vid=63cdf868-38d0-485c-af30-698160728fbf"},"vehicle_type_id":"4","last_reported":1741868325,"current_range_meters":9200,"station_id":"","pricing_plan_id":"cebpf4jnsgd1na2vs0mg"},{"bike_id":"ffceb2f3-9942-41c3-82da-fce06ef1b319","system_id":"levelo_inurba_marseille","lat":43.28774,"lon":5.38398,"is_reserved":false,"is_disabled":false,"rental_uris":{"android":"levelo://app?vid=ffceb2f3-9942-41c3-82da-fce06ef1b319","ios":"levelo://app?vid=ffceb2f3-9942-41c3-82da-fce06ef1b319"},"vehicle_type_id":"4","last_reported":1741868325,"current_range_meters":9200,"station_id":"","pricing_plan_id":"cebpf4jnsgd1na2vs0mg"},{"bike_id":"d211ffcd-a1c7-40a2-b189-5906e841284b","system_id":"levelo_inurba_marseille","lat":43.22932,"lon":5.35377,"is_reserved":false,"is_disabled":false,"rental_uris":{"android":"levelo://app?vid=d211ffcd-a1c7-40a2-b189-5906e841284b","ios":"levelo://app?vid=d211ffcd-a1c7-40a2-b189-5906e841284b"},"vehicle_type_id":"4","last_reported":1741868325,"current_range_meters":9200,"station_id":"cpo3532slgdg3j2ikp40","pricing_plan_id":"cebpf4jnsgd1na2vs0mg"},{"bike_id":"da92525d-691b-4e51-989f-b5c466d8ec4c","system_id":"levelo_inurba_marseille","lat":43.22934,"lon":5.35388,"is_reserved":false,"is_disabled":false,"rental_uris":{"android":"levelo://app?vid=da92525d-691b-4e51-989f-b5c466d8ec4c","ios":"levelo://app?vid=da92525d-691b-4e51-989f-b5c466d8ec4c"},"vehicle_type_id":"4","last_reported":1741868325,"current_range_meters":9200,"station_id":"cpo3532slgdg3j2ikp40","pricing_plan_id":"cebpf4jnsgd1na2vs0mg"},{"bike_id":"fe2dbfad-2b3c-45be-b26a-7ab6c0dcbc97","system_id":"levelo_inurba_marseille","lat":43.30153,"lon":5.37694,"is_reserved":false,"is_disabled":false,"rental_uris":{"android":"levelo://app?vid=fe2dbfad-2b3c-45be-b26a-7ab6c0dcbc97","ios":"levelo://app?vid=fe2dbfad-2b3c-45be-b26a-7ab6c0dcbc97"},"vehicle_type_id":"4","last_reported":1741868325,"current_range_meters":9200,"station_id":"","pricing_plan_id":"cebpf4jnsgd1na2vs0mg"},{"bike_id":"97ba1768-fb66-4214-8ccc-a93a364823cb","system_id":"levelo_inurba_marseille","lat":43.24177,"lon":5.39728,"is_reserved":false,"is_disabled":false,"rental_uris":{"android":"levelo://app?vid=97ba1768-fb66-4214-8ccc-a93a364823cb","ios":"levelo://app?vid=97ba1768-fb66-4214-8ccc-a93a364823cb"},"vehicle_type_id":"4","last_reported":1741868325,"current_range_meters":9200,"station_id":"ce4bhn12rcd13ifvqgpg","pricing_plan_id":"cebpf4jnsgd1na2vs0mg"},{"bike_id":"d1f3c72d-fa51-4bb3-b098-7283c00982b8","system_id":"levelo_inurba_marseille","lat":43.2467,"lon":5.38159,"is_reserved":false,"is_disabled":false,"rental_uris":{"android":"levelo://app?vid=d1f3c72d-fa51-4bb3-b098-7283c00982b8","ios":"levelo://app?vid=d1f3c72d-fa51-4bb3-b098-7283c00982b8"},"vehicle_type_id":"4","last_reported":1741868325,"current_range_meters":9200,"station_id":"ce4bhih2rcd13ifvqfr0","pricing_plan_id":"cebpf4jnsgd1na2vs0mg"},{"bike_id":"86d56884-7fc9-4629-89dc-1e64bfc5f337","system_id":"levelo_inurba_marseille","lat":43.28616,"lon":5.35102,"is_reserved":false,"is_disabled":false,"rental_uris":{"android":"levelo://app?vid=86d56884-7fc9-4629-89dc-1e64bfc5f337","ios":"levelo://app?vid=86d56884-7fc9-4629-89dc-1e64bfc5f337"},"vehicle_type_id":"4","last_reported":1741868325,"current_range_meters":9200,"station_id":"ce4bhch2rcd13ifvqeug","pricing_plan_id":"cebpf4jnsgd1na2vs0mg"},{"bike_id":"02856e9e-87a0-4db1-8d36-2f035a3cb82d","system_id":"levelo_inurba_marseille","lat":43.25931,"lon":5.40884,"is_reserved":false,"is_disabled":false,"rental_uris":{"android":"levelo://app?vid=02856e9e-87a0-4db1-8d36-2f035a3cb82d","ios":"levelo://app?vid=02856e9e-87a0-4db1-8d36-2f035a3cb82d"},"vehicle_type_id":"4","last_reported":1741868325,"current_range_meters":9200,"station_id":"ce4bhm92rcd13ifvqglg","pricing_plan_id":"cebpf4jnsgd1na2vs0mg"},{"bike_id":"097b290e-bbf9-4c4b-b3f2-542c2279cfde","system_id":"levelo_inurba_marseille","lat":43.3014,"lon":5.37421,"is_reserved":false,"is_disabled":false,"rental_uris":{"android":"levelo://app?vid=097b290e-bbf9-4c4b-b3f2-542c2279cfde","ios":"levelo://app?vid=097b290e-bbf9-4c4b-b3f2-542c2279cfde"},"vehicle_type_id":"4","last_reported":1741868325,"current_range_meters":9600,"station_id":"ce4bgs92rcd13ifvqcc0","pricing_plan_id":"cebpf4jnsgd1na2vs0mg"},{"bike_id":"441d2ddc-39dd-48e4-898d-eee7c497f120","system_id":"levelo_inurba_marseille","lat":43.30534,"lon":5.36533,"is_reserved":false,"is_disabled":false,"rental_uris":{"android":"levelo://app?vid=441d2ddc-39dd-48e4-898d-eee7c497f120","ios":"levelo://app?vid=441d2ddc-39dd-48e4-898d-eee7c497f120"},"vehicle_type_id":"4","last_reported":1741868325,"current_range_meters":9600,"station_id":"ce4bgs12rcd13ifvqcag","pricing_plan_id":"cebpf4jnsgd1na2vs0mg"},{"bike_id":"987dc339-bae3-4e86-97d3-4816065b1a6a","system_id":"levelo_inurba_marseille","lat":43.26572,"lon":5.39027,"is_reserved":false,"is_disabled":false,"rental_uris":{"android":"levelo://app?vid=987dc339-bae3-4e86-97d3-4816065b1a6a","ios":"levelo://app?vid=987dc339-bae3-4e86-97d3-4816065b1a6a"},"vehicle_type_id":"4","last_reported":1741868325,"current_range_meters":9600,"station_id":"ce4bhe12rcd13ifvqf30","pricing_plan_id":"cebpf4jnsgd1na2vs0mg"},{"bike_id":"6c64645b-9bfe-427c-b60e-a01cb58fdc4f","system_id":"levelo_inurba_marseille","lat":43.29556,"lon":5.42286,"is_reserved":false,"is_disabled":false,"rental_uris":{"android":"levelo://app?vid=6c64645b-9bfe-427c-b60e-a01cb58fdc4f","ios":"levelo://app?vid=6c64645b-9bfe-427c-b60e-a01cb58fdc4f"},"vehicle_type_id":"4","last_reported":1741868325,"current_range_meters":9600,"station_id":"ce4bhph2rcd13ifvqhdg","pricing_plan_id":"cebpf4jnsgd1na2vs0mg"},{"bike_id":"3b9c6f83-01fa-42cd-a820-4517e3548c17","system_id":"levelo_inurba_marseille","lat":43.24074,"lon":5.37748,"is_reserved":false,"is_disabled":false,"rental_uris":{"android":"levelo://app?vid=3b9c6f83-01fa-42cd-a820-4517e3548c17","ios":"levelo://app?vid=3b9c6f83-01fa-42cd-a820-4517e3548c17"},"vehicle_type_id":"4","last_reported":1741868325,"current_range_meters":9600,"station_id":"ce4bhnp2rcd13ifvqgvg","pricing_plan_id":"cebpf4jnsgd1na2vs0mg"},{"bike_id":"cdbb8dc8-5d22-4f09-8911-62bbd7edc959","system_id":"levelo_inurba_marseille","lat":43.258518,"lon":5.398584,"is_reserved":false,"is_disabled":false,"rental_uris":{"android":"levelo://app?vid=cdbb8dc8-5d22-4f09-8911-62bbd7edc959","ios":"levelo://app?vid=cdbb8dc8-5d22-4f09-8911-62bbd7edc959"},"vehicle_type_id":"4","last_reported":1741868325,"current_range_meters":9200,"station_id":"ce4bhl92rcd13ifvqghg","pricing_plan_id":"cebpf4jnsgd1na2vs0mg"},{"bike_id":"b3fead73-4c4c-401e-81a0-a7fad437c748","system_id":"levelo_inurba_marseille","lat":43.250195,"lon":5.389155,"is_reserved":false,"is_disabled":false,"rental_uris":{"android":"levelo://app?vid=b3fead73-4c4c-401e-81a0-a7fad437c748","ios":"levelo://app?vid=b3fead73-4c4c-401e-81a0-a7fad437c748"},"vehicle_type_id":"4","last_reported":1741868325,"current_range_meters":9600,"station_id":"ce4bhgp2rcd13ifvqfd0","pricing_plan_id":"cebpf4jnsgd1na2vs0mg"},{"bike_id":"a1cf725b-1f55-4de7-824f-20d008d9ddd8","system_id":"levelo_inurba_marseille","lat":43.24059,"lon":5.37758,"is_reserved":false,"is_disabled":false,"rental_uris":{"android":"levelo://app?vid=a1cf725b-1f55-4de7-824f-20d008d9ddd8","ios":"levelo://app?vid=a1cf725b-1f55-4de7-824f-20d008d9ddd8"},"vehicle_type_id":"4","last_reported":1741868325,"current_range_meters":9600,"station_id":"ce4bhnp2rcd13ifvqgvg","pricing_plan_id":"cebpf4jnsgd1na2vs0mg"},{"bike_id":"532bd0d2-17be-446b-b45c-c828131e3b43","system_id":"levelo_inurba_marseille","lat":43.29195,"lon":5.37569,"is_reserved":false,"is_disabled":false,"rental_uris":{"android":"levelo://app?vid=532bd0d2-17be-446b-b45c-c828131e3b43","ios":"levelo://app?vid=532bd0d2-17be-446b-b45c-c828131e3b43"},"vehicle_type_id":"4","last_reported":1741868325,"current_range_meters":10000,"station_id":"","pricing_plan_id":"cebpf4jnsgd1na2vs0mg"},{"bike_id":"d9b67e63-1738-47a5-96ee-8badfa308a96","system_id":"levelo_inurba_marseille","lat":43.26682,"lon":5.38271,"is_reserved":false,"is_disabled":false,"rental_uris":{"android":"levelo://app?vid=d9b67e63-1738-47a5-96ee-8badfa308a96","ios":"levelo://app?vid=d9b67e63-1738-47a5-96ee-8badfa308a96"},"vehicle_type_id":"4","last_reported":1741868325,"current_range_meters":10000,"station_id":"ce4bhg92rcd13ifvqf90","pricing_plan_id":"cebpf4jnsgd1na2vs0mg"},{"bike_id":"1463e26d-2eaf-4bb7-a8d5-af893c000dc7","system_id":"levelo_inurba_marseille","lat":43.30543,"lon":5.36552,"is_reserved":false,"is_disabled":false,"rental_uris":{"android":"levelo://app?vid=1463e26d-2eaf-4bb7-a8d5-af893c000dc7","ios":"levelo://app?vid=1463e26d-2eaf-4bb7-a8d5-af893c000dc7"},"vehicle_type_id":"4","last_reported":1741868325,"current_range_meters":10800,"station_id":"ce4bgs12rcd13ifvqcag","pricing_plan_id":"cebpf4jnsgd1na2vs0mg"},{"bike_id":"91b78869-4d3b-4281-823d-e68c1c79302d","system_id":"levelo_inurba_marseille","lat":43.30929,"lon":5.40174,"is_reserved":false,"is_disabled":false,"rental_uris":{"android":"levelo://app?vid=91b78869-4d3b-4281-823d-e68c1c79302d","ios":"levelo://app?vid=91b78869-4d3b-4281-823d-e68c1c79302d"},"vehicle_type_id":"4","last_reported":1741868325,"current_range_meters":10800,"station_id":"ce4bgvp2rcd13ifvqct0","pricing_plan_id":"cebpf4jnsgd1na2vs0mg"},{"bike_id":"9d76ba77-48c9-4490-9ee5-e36a669d39df","system_id":"levelo_inurba_marseille","lat":43.30134,"lon":5.39855,"is_reserved":false,"is_disabled":false,"rental_uris":{"android":"levelo://app?vid=9d76ba77-48c9-4490-9ee5-e36a669d39df","ios":"levelo://app?vid=9d76ba77-48c9-4490-9ee5-e36a669d39df"},"vehicle_type_id":"4","last_reported":1741868325,"current_range_meters":10800,"station_id":"ce4bh0h2rcd13ifvqd40","pricing_plan_id":"cebpf4jnsgd1na2vs0mg"},{"bike_id":"a08435f6-ff27-4080-a7c0-ddd644932e58","system_id":"levelo_inurba_marseille","lat":43.306,"lon":5.39366,"is_reserved":false,"is_disabled":false,"rental_uris":{"android":"levelo://app?vid=a08435f6-ff27-4080-a7c0-ddd644932e58","ios":"levelo://app?vid=a08435f6-ff27-4080-a7c0-ddd644932e58"},"vehicle_type_id":"4","last_reported":1741868325,"current_range_meters":10800,"station_id":"ce4bh0p2rcd13ifvqd80","pricing_plan_id":"cebpf4jnsgd1na2vs0mg"},{"bike_id":"00b489e6-2d1b-4399-99f8-fb9c65f26ebb","system_id":"levelo_inurba_marseille","lat":43.2407,"lon":5.37759,"is_reserved":false,"is_disabled":false,"rental_uris":{"android":"levelo://app?vid=00b489e6-2d1b-4399-99f8-fb9c65f26ebb","ios":"levelo://app?vid=00b489e6-2d1b-4399-99f8-fb9c65f26ebb"},"vehicle_type_id":"4","last_reported":1741868325,"current_range_meters":10800,"station_id":"ce4bhnp2rcd13ifvqgvg","pricing_plan_id":"cebpf4jnsgd1na2vs0mg"},{"bike_id":"a2700207-e47d-4273-8901-cf86d647c953","system_id":"levelo_inurba_marseille","lat":43.24088,"lon":5.37738,"is_reserved":false,"is_disabled":false,"rental_uris":{"android":"levelo://app?vid=a2700207-e47d-4273-8901-cf86d647c953","ios":"levelo://app?vid=a2700207-e47d-4273-8901-cf86d647c953"},"vehicle_type_id":"4","last_reported":1741868325,"current_range_meters":10800,"station_id":"ce4bhnp2rcd13ifvqgvg","pricing_plan_id":"cebpf4jnsgd1na2vs0mg"},{"bike_id":"a5685bee-9f0c-4f66-9b7f-9b64f37b16ba","system_id":"levelo_inurba_marseille","lat":43.257308,"lon":5.411058,"is_reserved":false,"is_disabled":false,"rental_uris":{"android":"levelo://app?vid=a5685bee-9f0c-4f66-9b7f-9b64f37b16ba","ios":"levelo://app?vid=a5685bee-9f0c-4f66-9b7f-9b64f37b16ba"},"vehicle_type_id":"4","last_reported":1741868325,"current_range_meters":10800,"station_id":"ce4bhkp2rcd13ifvqgd0","pricing_plan_id":"cebpf4jnsgd1na2vs0mg"},{"bike_id":"1179ea35-4831-4438-984a-d67269a5255b","system_id":"levelo_inurba_marseille","lat":43.23194,"lon":5.35553,"is_reserved":false,"is_disabled":false,"rental_uris":{"android":"levelo://app?vid=1179ea35-4831-4438-984a-d67269a5255b","ios":"levelo://app?vid=1179ea35-4831-4438-984a-d67269a5255b"},"vehicle_type_id":"4","last_reported":1741868325,"current_range_meters":10800,"station_id":"ce4bhu92rcd13ifvqi70","pricing_plan_id":"cebpf4jnsgd1na2vs0mg"},{"bike_id":"14054284-86bd-47d9-af7c-39cc36e04155","system_id":"levelo_inurba_marseille","lat":43.24184,"lon":5.39727,"is_reserved":false,"is_disabled":false,"rental_uris":{"android":"levelo://app?vid=14054284-86bd-47d9-af7c-39cc36e04155","ios":"levelo://app?vid=14054284-86bd-47d9-af7c-39cc36e04155"},"vehicle_type_id":"4","last_reported":1741868325,"current_range_meters":10800,"station_id":"ce4bhn12rcd13ifvqgpg","pricing_plan_id":"cebpf4jnsgd1na2vs0mg"},{"bike_id":"079f3adc-4b20-4152-b0b0-dabdb04df937","system_id":"levelo_inurba_marseille","lat":43.298434,"lon":5.362694,"is_reserved":false,"is_disabled":false,"rental_uris":{"android":"levelo://app?vid=079f3adc-4b20-4152-b0b0-dabdb04df937","ios":"levelo://app?vid=079f3adc-4b20-4152-b0b0-dabdb04df937"},"vehicle_type_id":"4","last_reported":1741868325,"current_range_meters":10800,"station_id":"ce4bgpp2rcd13ifvqc3g","pricing_plan_id":"cebpf4jnsgd1na2vs0mg"},{"bike_id":"1cbeb49c-8d51-46f2-ad03-8af78ea79d9a","system_id":"levelo_inurba_marseille","lat":43.2417,"lon":5.39711,"is_reserved":false,"is_disabled":false,"rental_uris":{"android":"levelo://app?vid=1cbeb49c-8d51-46f2-ad03-8af78ea79d9a","ios":"levelo://app?vid=1cbeb49c-8d51-46f2-ad03-8af78ea79d9a"},"vehicle_type_id":"4","last_reported":1741868325,"current_range_meters":10800,"station_id":"ce4bhn12rcd13ifvqgpg","pricing_plan_id":"cebpf4jnsgd1na2vs0mg"},{"bike_id":"d0be61ee-8c6c-4bf7-99b6-f099a281a656","system_id":"levelo_inurba_marseille","lat":43.24999,"lon":5.38936,"is_reserved":false,"is_disabled":false,"rental_uris":{"android":"levelo://app?vid=d0be61ee-8c6c-4bf7-99b6-f099a281a656","ios":"levelo://app?vid=d0be61ee-8c6c-4bf7-99b6-f099a281a656"},"vehicle_type_id":"4","last_reported":1741868325,"current_range_meters":10800,"station_id":"ce4bhgp2rcd13ifvqfd0","pricing_plan_id":"cebpf4jnsgd1na2vs0mg"},{"bike_id":"95f6bccd-52da-4c1e-b208-b8e282624c79","system_id":"levelo_inurba_marseille","lat":43.29034,"lon":5.37561,"is_reserved":false,"is_disabled":false,"rental_uris":{"android":"levelo://app?vid=95f6bccd-52da-4c1e-b208-b8e282624c79","ios":"levelo://app?vid=95f6bccd-52da-4c1e-b208-b8e282624c79"},"vehicle_type_id":"4","last_reported":1741868325,"current_range_meters":10800,"station_id":"ce4bh692rcd13ifvqe90","pricing_plan_id":"cebpf4jnsgd1na2vs0mg"},{"bike_id":"db86dd90-1048-4c30-bff9-6db5680363f2","system_id":"levelo_inurba_marseille","lat":43.29514,"lon":5.39401,"is_reserved":false,"is_disabled":false,"rental_uris":{"android":"levelo://app?vid=db86dd90-1048-4c30-bff9-6db5680363f2","ios":"levelo://app?vid=db86dd90-1048-4c30-bff9-6db5680363f2"},"vehicle_type_id":"4","last_reported":1741868325,"current_range_meters":10800,"station_id":"ce4bh292rcd13ifvqdf0","pricing_plan_id":"cebpf4jnsgd1na2vs0mg"},{"bike_id":"5a0002da-b687-4872-932d-20fcc86b0c9d","system_id":"levelo_inurba_marseille","lat":43.25017,"lon":5.38917,"is_reserved":false,"is_disabled":false,"rental_uris":{"android":"levelo://app?vid=5a0002da-b687-4872-932d-20fcc86b0c9d","ios":"levelo://app?vid=5a0002da-b687-4872-932d-20fcc86b0c9d"},"vehicle_type_id":"4","last_reported":1741868325,"current_range_meters":11200,"station_id":"ce4bhgp2rcd13ifvqfd0","pricing_plan_id":"cebpf4jnsgd1na2vs0mg"},{"bike_id":"d041a7b5-732c-474f-b556-c0142a8f7b8d","system_id":"levelo_inurba_marseille","lat":43.31256,"lon":5.36914,"is_reserved":false,"is_disabled":false,"rental_uris":{"android":"levelo://app?vid=d041a7b5-732c-474f-b556-c0142a8f7b8d","ios":"levelo://app?vid=d041a7b5-732c-474f-b556-c0142a8f7b8d"},"vehicle_type_id":"4","last_reported":1741868325,"current_range_meters":11200,"station_id":"ce4bgl92rcd13ifvqbq0","pricing_plan_id":"cebpf4jnsgd1na2vs0mg"},{"bike_id":"5716b3ec-aec7-4716-b798-637cb7318d69","system_id":"levelo_inurba_marseille","lat":43.30141,"lon":5.38779,"is_reserved":false,"is_disabled":false,"rental_uris":{"android":"levelo://app?vid=5716b3ec-aec7-4716-b798-637cb7318d69","ios":"levelo://app?vid=5716b3ec-aec7-4716-b798-637cb7318d69"},"vehicle_type_id":"4","last_reported":1741868325,"current_range_meters":11200,"station_id":"ce4bghh2rcd13ifvqb60","pricing_plan_id":"cebpf4jnsgd1na2vs0mg"},{"bike_id":"fb38b0f4-f0e4-4f89-b572-e806556a1161","system_id":"levelo_inurba_marseille","lat":43.25113,"lon":5.4032,"is_reserved":false,"is_disabled":false,"rental_uris":{"android":"levelo://app?vid=fb38b0f4-f0e4-4f89-b572-e806556a1161","ios":"levelo://app?vid=fb38b0f4-f0e4-4f89-b572-e806556a1161"},"vehicle_type_id":"4","last_reported":1741868325,"current_range_meters":11200,"station_id":"ce4bhlh2rcd13ifvqgig","pricing_plan_id":"cebpf4jnsgd1na2vs0mg"},{"bike_id":"4be2cbb2-7c5e-4b7f-8401-6f1518bf2984","system_id":"levelo_inurba_marseille","lat":43.33206,"lon":5.39564,"is_reserved":false,"is_disabled":false,"rental_uris":{"android":"levelo://app?vid=4be2cbb2-7c5e-4b7f-8401-6f1518bf2984","ios":"levelo://app?vid=4be2cbb2-7c5e-4b7f-8401-6f1518bf2984"},"vehicle_type_id":"4","last_reported":1741868325,"current_range_meters":11200,"station_id":"","pricing_plan_id":"cebpf4jnsgd1na2vs0mg"},{"bike_id":"64f01230-4fcb-46c5-915f-6a8b3b29b167","system_id":"levelo_inurba_marseille","lat":43.27499,"lon":5.42462,"is_reserved":false,"is_disabled":false,"rental_uris":{"android":"levelo://app?vid=64f01230-4fcb-46c5-915f-6a8b3b29b167","ios":"levelo://app?vid=64f01230-4fcb-46c5-915f-6a8b3b29b167"},"vehicle_type_id":"4","last_reported":1741868325,"current_range_meters":11200,"station_id":"ce4bhn92rcd13ifvqgrg","pricing_plan_id":"cebpf4jnsgd1na2vs0mg"},{"bike_id":"154d0f4a-7cf1-4b4a-8919-807104d462e1","system_id":"levelo_inurba_marseille","lat":43.26661,"lon":5.38649,"is_reserved":false,"is_disabled":false,"rental_uris":{"android":"levelo://app?vid=154d0f4a-7cf1-4b4a-8919-807104d462e1","ios":"levelo://app?vid=154d0f4a-7cf1-4b4a-8919-807104d462e1"},"vehicle_type_id":"4","last_reported":1741868325,"current_range_meters":11200,"station_id":"","pricing_plan_id":"cebpf4jnsgd1na2vs0mg"},{"bike_id":"7872084c-4416-4e1a-aca0-0937de9b675c","system_id":"levelo_inurba_marseille","lat":43.31755,"lon":5.3902,"is_reserved":false,"is_disabled":false,"rental_uris":{"android":"levelo://app?vid=7872084c-4416-4e1a-aca0-0937de9b675c","ios":"levelo://app?vid=7872084c-4416-4e1a-aca0-0937de9b675c"},"vehicle_type_id":"4","last_reported":1741868325,"current_range_meters":11200,"station_id":"ce4bhqp2rcd13ifvqhng","pricing_plan_id":"cebpf4jnsgd1na2vs0mg"},{"bike_id":"89004dda-964d-4678-9c27-1132b38aea9e","system_id":"levelo_inurba_marseille","lat":43.29297,"lon":5.37432,"is_reserved":false,"is_disabled":false,"rental_uris":{"android":"levelo://app?vid=89004dda-964d-4678-9c27-1132b38aea9e","ios":"levelo://app?vid=89004dda-964d-4678-9c27-1132b38aea9e"},"vehicle_type_id":"4","last_reported":1741868325,"current_range_meters":11600,"station_id":"ce4bgi12rcd13ifvqb70","pricing_plan_id":"cebpf4jnsgd1na2vs0mg"},{"bike_id":"70d7825b-a30c-4b78-bae2-c7ac789d6f10","system_id":"levelo_inurba_marseille","lat":43.2985,"lon":5.36284,"is_reserved":false,"is_disabled":false,"rental_uris":{"android":"levelo://app?vid=70d7825b-a30c-4b78-bae2-c7ac789d6f10","ios":"levelo://app?vid=70d7825b-a30c-4b78-bae2-c7ac789d6f10"},"vehicle_type_id":"4","last_reported":1741868325,"current_range_meters":11600,"station_id":"ce4bgpp2rcd13ifvqc3g","pricing_plan_id":"cebpf4jnsgd1na2vs0mg"},{"bike_id":"647ce4fb-fd79-4734-870d-f132fd7d3848","system_id":"levelo_inurba_marseille","lat":43.30951,"lon":5.39031,"is_reserved":false,"is_disabled":false,"rental_uris":{"android":"levelo://app?vid=647ce4fb-fd79-4734-870d-f132fd7d3848","ios":"levelo://app?vid=647ce4fb-fd79-4734-870d-f132fd7d3848"},"vehicle_type_id":"4","last_reported":1741868325,"current_range_meters":11600,"station_id":"ce4bgup2rcd13ifvqco0","pricing_plan_id":"cebpf4jnsgd1na2vs0mg"},{"bike_id":"4760c4a3-2ebc-4787-9bfd-517781e41b15","system_id":"levelo_inurba_marseille","lat":43.28607,"lon":5.370653,"is_reserved":false,"is_disabled":false,"rental_uris":{"android":"levelo://app?vid=4760c4a3-2ebc-4787-9bfd-517781e41b15","ios":"levelo://app?vid=4760c4a3-2ebc-4787-9bfd-517781e41b15"},"vehicle_type_id":"4","last_reported":1741868325,"current_range_meters":11600,"station_id":"ce4bht12rcd13ifvqi60","pricing_plan_id":"cebpf4jnsgd1na2vs0mg"},{"bike_id":"bf8858ab-a773-4836-bb58-a6b45fb5fd21","system_id":"levelo_inurba_marseille","lat":43.25116,"lon":5.40316,"is_reserved":false,"is_disabled":false,"rental_uris":{"android":"levelo://app?vid=bf8858ab-a773-4836-bb58-a6b45fb5fd21","ios":"levelo://app?vid=bf8858ab-a773-4836-bb58-a6b45fb5fd21"},"vehicle_type_id":"4","last_reported":1741868325,"current_range_meters":11600,"station_id":"ce4bhlh2rcd13ifvqgig","pricing_plan_id":"cebpf4jnsgd1na2vs0mg"},{"bike_id":"5233e443-1736-449b-bfef-634509c8ee4b","system_id":"levelo_inurba_marseille","lat":43.29494,"lon":5.38663,"is_reserved":false,"is_disabled":false,"rental_uris":{"android":"levelo://app?vid=5233e443-1736-449b-bfef-634509c8ee4b","ios":"levelo://app?vid=5233e443-1736-449b-bfef-634509c8ee4b"},"vehicle_type_id":"4","last_reported":1741868325,"current_range_meters":11600,"station_id":"","pricing_plan_id":"cebpf4jnsgd1na2vs0mg"},{"bike_id":"870a345f-b616-4652-8242-0593283c2ba6","system_id":"levelo_inurba_marseille","lat":43.28621,"lon":5.35108,"is_reserved":false,"is_disabled":false,"rental_uris":{"android":"levelo://app?vid=870a345f-b616-4652-8242-0593283c2ba6","ios":"levelo://app?vid=870a345f-b616-4652-8242-0593283c2ba6"},"vehicle_type_id":"4","last_reported":1741868325,"current_range_meters":11600,"station_id":"ce4bhch2rcd13ifvqeug","pricing_plan_id":"cebpf4jnsgd1na2vs0mg"},{"bike_id":"16c2e8ce-45ce-494b-8b99-622e65c46500","system_id":"levelo_inurba_marseille","lat":43.27977,"lon":5.38734,"is_reserved":false,"is_disabled":false,"rental_uris":{"android":"levelo://app?vid=16c2e8ce-45ce-494b-8b99-622e65c46500","ios":"levelo://app?vid=16c2e8ce-45ce-494b-8b99-622e65c46500"},"vehicle_type_id":"4","last_reported":1741868325,"current_range_meters":12000,"station_id":"ce4bhg12rcd13ifvqf80","pricing_plan_id":"cebpf4jnsgd1na2vs0mg"},{"bike_id":"52f50ddd-2ba3-461a-9dea-cc9a76fb8b32","system_id":"levelo_inurba_marseille","lat":43.31497,"lon":5.37309,"is_reserved":false,"is_disabled":false,"rental_uris":{"android":"levelo://app?vid=52f50ddd-2ba3-461a-9dea-cc9a76fb8b32","ios":"levelo://app?vid=52f50ddd-2ba3-461a-9dea-cc9a76fb8b32"},"vehicle_type_id":"4","last_reported":1741868325,"current_range_meters":12000,"station_id":"ce4bgt12rcd13ifvqcd0","pricing_plan_id":"cebpf4jnsgd1na2vs0mg"},{"bike_id":"a840c813-de68-43a4-881a-5419fa38c2c8","system_id":"levelo_inurba_marseille","lat":43.28934,"lon":5.36378,"is_reserved":false,"is_disabled":false,"rental_uris":{"android":"levelo://app?vid=a840c813-de68-43a4-881a-5419fa38c2c8","ios":"levelo://app?vid=a840c813-de68-43a4-881a-5419fa38c2c8"},"vehicle_type_id":"4","last_reported":1741868325,"current_range_meters":12000,"station_id":"ce4bhc92rcd13ifvqetg","pricing_plan_id":"cebpf4jnsgd1na2vs0mg"},{"bike_id":"0e62380b-748e-4186-a50e-936c00791472","system_id":"levelo_inurba_marseille","lat":43.33018,"lon":5.3905,"is_reserved":false,"is_disabled":false,"rental_uris":{"android":"levelo://app?vid=0e62380b-748e-4186-a50e-936c00791472","ios":"levelo://app?vid=0e62380b-748e-4186-a50e-936c00791472"},"vehicle_type_id":"4","last_reported":1741868325,"current_range_meters":12000,"station_id":"ce4bhr92rcd13ifvqhrg","pricing_plan_id":"cebpf4jnsgd1na2vs0mg"},{"bike_id":"376897db-4388-4f7b-b133-98cf0505fad6","system_id":"levelo_inurba_marseille","lat":43.30538,"lon":5.38428,"is_reserved":false,"is_disabled":false,"rental_uris":{"android":"levelo://app?vid=376897db-4388-4f7b-b133-98cf0505fad6","ios":"levelo://app?vid=376897db-4388-4f7b-b133-98cf0505fad6"},"vehicle_type_id":"4","last_reported":1741868325,"current_range_meters":12000,"station_id":"ce4bgg92rcd13ifvqb30","pricing_plan_id":"cebpf4jnsgd1na2vs0mg"},{"bike_id":"00e9cc9b-4e9f-4f02-aa23-0b824e0e7a79","system_id":"levelo_inurba_marseille","lat":43.2418,"lon":5.39737,"is_reserved":false,"is_disabled":false,"rental_uris":{"android":"levelo://app?vid=00e9cc9b-4e9f-4f02-aa23-0b824e0e7a79","ios":"levelo://app?vid=00e9cc9b-4e9f-4f02-aa23-0b824e0e7a79"},"vehicle_type_id":"4","last_reported":1741868325,"current_range_meters":12000,"station_id":"ce4bhn12rcd13ifvqgpg","pricing_plan_id":"cebpf4jnsgd1na2vs0mg"},{"bike_id":"a7cf2721-3b10-4b3e-8668-67914311d0e5","system_id":"levelo_inurba_marseille","lat":43.326593,"lon":5.409857,"is_reserved":false,"is_disabled":false,"rental_uris":{"android":"levelo://app?vid=a7cf2721-3b10-4b3e-8668-67914311d0e5","ios":"levelo://app?vid=a7cf2721-3b10-4b3e-8668-67914311d0e5"},"vehicle_type_id":"4","last_reported":1741868325,"current_range_meters":12000,"station_id":"ce4bhpp2rcd13ifvqhgg","pricing_plan_id":"cebpf4jnsgd1na2vs0mg"},{"bike_id":"1135b908-00a0-423d-af17-f25f09f7c7e7","system_id":"levelo_inurba_marseille","lat":43.25871,"lon":5.39909,"is_reserved":false,"is_disabled":false,"rental_uris":{"android":"levelo://app?vid=1135b908-00a0-423d-af17-f25f09f7c7e7","ios":"levelo://app?vid=1135b908-00a0-423d-af17-f25f09f7c7e7"},"vehicle_type_id":"4","last_reported":1741868325,"current_range_meters":12400,"station_id":"ce4bhl92rcd13ifvqghg","pricing_plan_id":"cebpf4jnsgd1na2vs0mg"},{"bike_id":"5cce8c68-ab9c-4191-af50-cc1d03765c2b","system_id":"levelo_inurba_marseille","lat":43.259171,"lon":5.408969,"is_reserved":false,"is_disabled":false,"rental_uris":{"android":"levelo://app?vid=5cce8c68-ab9c-4191-af50-cc1d03765c2b","ios":"levelo://app?vid=5cce8c68-ab9c-4191-af50-cc1d03765c2b"},"vehicle_type_id":"4","last_reported":1741868325,"current_range_meters":12400,"station_id":"ce4bhm92rcd13ifvqglg","pricing_plan_id":"cebpf4jnsgd1na2vs0mg"},{"bike_id":"9176f404-a108-4196-aec9-5af84572ecfe","system_id":"levelo_inurba_marseille","lat":43.30139,"lon":5.38779,"is_reserved":false,"is_disabled":false,"rental_uris":{"android":"levelo://app?vid=9176f404-a108-4196-aec9-5af84572ecfe","ios":"levelo://app?vid=9176f404-a108-4196-aec9-5af84572ecfe"},"vehicle_type_id":"4","last_reported":1741868325,"current_range_meters":12400,"station_id":"ce4bghh2rcd13ifvqb60","pricing_plan_id":"cebpf4jnsgd1na2vs0mg"},{"bike_id":"61b9ad25-9195-424f-875c-94c04a329ec9","system_id":"levelo_inurba_marseille","lat":43.3302,"lon":5.39041,"is_reserved":false,"is_disabled":false,"rental_uris":{"android":"levelo://app?vid=61b9ad25-9195-424f-875c-94c04a329ec9","ios":"levelo://app?vid=61b9ad25-9195-424f-875c-94c04a329ec9"},"vehicle_type_id":"4","last_reported":1741868325,"current_range_meters":12400,"station_id":"ce4bhr92rcd13ifvqhrg","pricing_plan_id":"cebpf4jnsgd1na2vs0mg"},{"bike_id":"fef9aed1-6ef0-4f50-b396-96a7f7aeba46","system_id":"levelo_inurba_marseille","lat":43.31068,"lon":5.38357,"is_reserved":false,"is_disabled":false,"rental_uris":{"android":"levelo://app?vid=fef9aed1-6ef0-4f50-b396-96a7f7aeba46","ios":"levelo://app?vid=fef9aed1-6ef0-4f50-b396-96a7f7aeba46"},"vehicle_type_id":"4","last_reported":1741868325,"current_range_meters":12400,"station_id":"ce4bgv92rcd13ifvqcr0","pricing_plan_id":"cebpf4jnsgd1na2vs0mg"},{"bike_id":"66dedbcd-86e4-4407-9834-f963fc926dd0","system_id":"levelo_inurba_marseille","lat":43.27643,"lon":5.35817,"is_reserved":false,"is_disabled":false,"rental_uris":{"android":"levelo://app?vid=66dedbcd-86e4-4407-9834-f963fc926dd0","ios":"levelo://app?vid=66dedbcd-86e4-4407-9834-f963fc926dd0"},"vehicle_type_id":"4","last_reported":1741868325,"current_range_meters":12400,"station_id":"","pricing_plan_id":"cebpf4jnsgd1na2vs0mg"},{"bike_id":"6944bb06-8a8c-4cf4-86a1-ca9561cf4ee4","system_id":"levelo_inurba_marseille","lat":43.23063,"lon":5.35484,"is_reserved":false,"is_disabled":false,"rental_uris":{"android":"levelo://app?vid=6944bb06-8a8c-4cf4-86a1-ca9561cf4ee4","ios":"levelo://app?vid=6944bb06-8a8c-4cf4-86a1-ca9561cf4ee4"},"vehicle_type_id":"4","last_reported":1741868325,"current_range_meters":12400,"station_id":"cpo3342slgdg3j2ifvpg","pricing_plan_id":"cebpf4jnsgd1na2vs0mg"},{"bike_id":"414a87d8-0320-4da5-94cb-1c2e9eb2c2e2","system_id":"levelo_inurba_marseille","lat":43.2582,"lon":5.39432,"is_reserved":false,"is_disabled":false,"rental_uris":{"android":"levelo://app?vid=414a87d8-0320-4da5-94cb-1c2e9eb2c2e2","ios":"levelo://app?vid=414a87d8-0320-4da5-94cb-1c2e9eb2c2e2"},"vehicle_type_id":"4","last_reported":1741868325,"current_range_meters":12800,"station_id":"ce4bhip2rcd13ifvqft0","pricing_plan_id":"cebpf4jnsgd1na2vs0mg"},{"bike_id":"abb4d827-d99d-447a-b69c-566f9402f115","system_id":"levelo_inurba_marseille","lat":43.259274,"lon":5.409083,"is_reserved":false,"is_disabled":false,"rental_uris":{"android":"levelo://app?vid=abb4d827-d99d-447a-b69c-566f9402f115","ios":"levelo://app?vid=abb4d827-d99d-447a-b69c-566f9402f115"},"vehicle_type_id":"4","last_reported":1741868325,"current_range_meters":12800,"station_id":"ce4bhm92rcd13ifvqglg","pricing_plan_id":"cebpf4jnsgd1na2vs0mg"},{"bike_id":"34a27efd-2a19-4f72-b164-3d52abc79196","system_id":"levelo_inurba_marseille","lat":43.30129,"lon":5.39869,"is_reserved":false,"is_disabled":false,"rental_uris":{"android":"levelo://app?vid=34a27efd-2a19-4f72-b164-3d52abc79196","ios":"levelo://app?vid=34a27efd-2a19-4f72-b164-3d52abc79196"},"vehicle_type_id":"4","last_reported":1741868325,"current_range_meters":12800,"station_id":"ce4bh0h2rcd13ifvqd40","pricing_plan_id":"cebpf4jnsgd1na2vs0mg"},{"bike_id":"5e2da780-c4c6-4582-8bae-28038e4c7dba","system_id":"levelo_inurba_marseille","lat":43.2706,"lon":5.40257,"is_reserved":false,"is_disabled":false,"rental_uris":{"android":"levelo://app?vid=5e2da780-c4c6-4582-8bae-28038e4c7dba","ios":"levelo://app?vid=5e2da780-c4c6-4582-8bae-28038e4c7dba"},"vehicle_type_id":"4","last_reported":1741868325,"current_range_meters":12800,"station_id":"ce4bhk92rcd13ifvqgc0","pricing_plan_id":"cebpf4jnsgd1na2vs0mg"},{"bike_id":"cbb0ab40-08f6-449c-9b75-72d6e0da77c1","system_id":"levelo_inurba_marseille","lat":43.30143,"lon":5.38062,"is_reserved":false,"is_disabled":false,"rental_uris":{"android":"levelo://app?vid=cbb0ab40-08f6-449c-9b75-72d6e0da77c1","ios":"levelo://app?vid=cbb0ab40-08f6-449c-9b75-72d6e0da77c1"},"vehicle_type_id":"4","last_reported":1741868325,"current_range_meters":12800,"station_id":"ce4bgjp2rcd13ifvqbh0","pricing_plan_id":"cebpf4jnsgd1na2vs0mg"},{"bike_id":"41404971-8a00-4e9f-960f-3da0974a46d4","system_id":"levelo_inurba_marseille","lat":43.24994,"lon":5.38939,"is_reserved":false,"is_disabled":false,"rental_uris":{"android":"levelo://app?vid=41404971-8a00-4e9f-960f-3da0974a46d4","ios":"levelo://app?vid=41404971-8a00-4e9f-960f-3da0974a46d4"},"vehicle_type_id":"4","last_reported":1741868325,"current_range_meters":12800,"station_id":"ce4bhgp2rcd13ifvqfd0","pricing_plan_id":"cebpf4jnsgd1na2vs0mg"},{"bike_id":"d21bdeb3-a574-47b5-a4dc-29e30727e569","system_id":"levelo_inurba_marseille","lat":43.31326,"lon":5.39693,"is_reserved":false,"is_disabled":false,"rental_uris":{"android":"levelo://app?vid=d21bdeb3-a574-47b5-a4dc-29e30727e569","ios":"levelo://app?vid=d21bdeb3-a574-47b5-a4dc-29e30727e569"},"vehicle_type_id":"4","last_reported":1741868325,"current_range_meters":12800,"station_id":"ce4bgvp2rcd13ifvqcu0","pricing_plan_id":"cebpf4jnsgd1na2vs0mg"},{"bike_id":"4e376f55-e98a-4bf1-8d5f-c79209c93ec1","system_id":"levelo_inurba_marseille","lat":43.30537,"lon":5.36528,"is_reserved":false,"is_disabled":false,"rental_uris":{"android":"levelo://app?vid=4e376f55-e98a-4bf1-8d5f-c79209c93ec1","ios":"levelo://app?vid=4e376f55-e98a-4bf1-8d5f-c79209c93ec1"},"vehicle_type_id":"4","last_reported":1741868325,"current_range_meters":13600,"station_id":"ce4bgs12rcd13ifvqcag","pricing_plan_id":"cebpf4jnsgd1na2vs0mg"},{"bike_id":"74f57846-074b-430e-bffd-a2d48075f513","system_id":"levelo_inurba_marseille","lat":43.27812,"lon":5.40714,"is_reserved":false,"is_disabled":false,"rental_uris":{"android":"levelo://app?vid=74f57846-074b-430e-bffd-a2d48075f513","ios":"levelo://app?vid=74f57846-074b-430e-bffd-a2d48075f513"},"vehicle_type_id":"4","last_reported":1741868325,"current_range_meters":13600,"station_id":"ce4bhnh2rcd13ifvqgtg","pricing_plan_id":"cebpf4jnsgd1na2vs0mg"},{"bike_id":"9db5f361-402f-483a-bcdc-9e6d2c49648d","system_id":"levelo_inurba_marseille","lat":43.28119,"lon":5.37838,"is_reserved":false,"is_disabled":false,"rental_uris":{"android":"levelo://app?vid=9db5f361-402f-483a-bcdc-9e6d2c49648d","ios":"levelo://app?vid=9db5f361-402f-483a-bcdc-9e6d2c49648d"},"vehicle_type_id":"4","last_reported":1741868325,"current_range_meters":13600,"station_id":"ce4bha12rcd13ifvqee0","pricing_plan_id":"cebpf4jnsgd1na2vs0mg"},{"bike_id":"9c42b1f5-689c-4fc2-8508-22d0a666a501","system_id":"levelo_inurba_marseille","lat":43.30596,"lon":5.37228,"is_reserved":false,"is_disabled":false,"rental_uris":{"android":"levelo://app?vid=9c42b1f5-689c-4fc2-8508-22d0a666a501","ios":"levelo://app?vid=9c42b1f5-689c-4fc2-8508-22d0a666a501"},"vehicle_type_id":"4","last_reported":1741868325,"current_range_meters":13600,"station_id":"ce4bgqh2rcd13ifvqc4g","pricing_plan_id":"cebpf4jnsgd1na2vs0mg"},{"bike_id":"b6d8ba2a-aca4-4c1c-a0ae-1b9b91f76e1f","system_id":"levelo_inurba_marseille","lat":43.27642,"lon":5.35819,"is_reserved":false,"is_disabled":false,"rental_uris":{"android":"levelo://app?vid=b6d8ba2a-aca4-4c1c-a0ae-1b9b91f76e1f","ios":"levelo://app?vid=b6d8ba2a-aca4-4c1c-a0ae-1b9b91f76e1f"},"vehicle_type_id":"4","last_reported":1741868325,"current_range_meters":13600,"station_id":"","pricing_plan_id":"cebpf4jnsgd1na2vs0mg"},{"bike_id":"a9506dd6-2164-46b0-9578-9303d5dfb6f7","system_id":"levelo_inurba_marseille","lat":43.26562,"lon":5.37283,"is_reserved":false,"is_disabled":false,"rental_uris":{"android":"levelo://app?vid=a9506dd6-2164-46b0-9578-9303d5dfb6f7","ios":"levelo://app?vid=a9506dd6-2164-46b0-9578-9303d5dfb6f7"},"vehicle_type_id":"4","last_reported":1741868325,"current_range_meters":13600,"station_id":"ce4bhg12rcd13ifvqf70","pricing_plan_id":"cebpf4jnsgd1na2vs0mg"},{"bike_id":"45f5800a-99c6-4c7e-892e-8047007584fe","system_id":"levelo_inurba_marseille","lat":43.29856,"lon":5.36267,"is_reserved":false,"is_disabled":false,"rental_uris":{"android":"levelo://app?vid=45f5800a-99c6-4c7e-892e-8047007584fe","ios":"levelo://app?vid=45f5800a-99c6-4c7e-892e-8047007584fe"},"vehicle_type_id":"4","last_reported":1741868325,"current_range_meters":13600,"station_id":"ce4bgpp2rcd13ifvqc3g","pricing_plan_id":"cebpf4jnsgd1na2vs0mg"},{"bike_id":"36ec5a15-215b-4367-a3ca-336aadd9a251","system_id":"levelo_inurba_marseille","lat":43.33746,"lon":5.3745,"is_reserved":false,"is_disabled":false,"rental_uris":{"android":"levelo://app?vid=36ec5a15-215b-4367-a3ca-336aadd9a251","ios":"levelo://app?vid=36ec5a15-215b-4367-a3ca-336aadd9a251"},"vehicle_type_id":"4","last_reported":1741868325,"current_range_meters":13600,"station_id":"","pricing_plan_id":"cebpf4jnsgd1na2vs0mg"},{"bike_id":"7121d818-13e2-43ed-b445-7134fefdd64f","system_id":"levelo_inurba_marseille","lat":43.23199,"lon":5.35545,"is_reserved":false,"is_disabled":false,"rental_uris":{"android":"levelo://app?vid=7121d818-13e2-43ed-b445-7134fefdd64f","ios":"levelo://app?vid=7121d818-13e2-43ed-b445-7134fefdd64f"},"vehicle_type_id":"4","last_reported":1741868325,"current_range_meters":14000,"station_id":"ce4bhu92rcd13ifvqi70","pricing_plan_id":"cebpf4jnsgd1na2vs0mg"},{"bike_id":"9b750467-87e2-4fdb-93d7-edcb536818eb","system_id":"levelo_inurba_marseille","lat":43.30557,"lon":5.36664,"is_reserved":false,"is_disabled":false,"rental_uris":{"android":"levelo://app?vid=9b750467-87e2-4fdb-93d7-edcb536818eb","ios":"levelo://app?vid=9b750467-87e2-4fdb-93d7-edcb536818eb"},"vehicle_type_id":"4","last_reported":1741868325,"current_range_meters":14000,"station_id":"ce4bgrp2rcd13ifvqc9g","pricing_plan_id":"cebpf4jnsgd1na2vs0mg"},{"bike_id":"05f7e6b4-489c-490e-8c71-1ca366b76b36","system_id":"levelo_inurba_marseille","lat":43.26501,"lon":5.39543,"is_reserved":false,"is_disabled":false,"rental_uris":{"android":"levelo://app?vid=05f7e6b4-489c-490e-8c71-1ca366b76b36","ios":"levelo://app?vid=05f7e6b4-489c-490e-8c71-1ca366b76b36"},"vehicle_type_id":"4","last_reported":1741868325,"current_range_meters":14000,"station_id":"","pricing_plan_id":"cebpf4jnsgd1na2vs0mg"},{"bike_id":"c21d61f0-bcdb-4f5b-905a-e9e09c25ab8b","system_id":"levelo_inurba_marseille","lat":43.24067,"lon":5.37746,"is_reserved":false,"is_disabled":false,"rental_uris":{"android":"levelo://app?vid=c21d61f0-bcdb-4f5b-905a-e9e09c25ab8b","ios":"levelo://app?vid=c21d61f0-bcdb-4f5b-905a-e9e09c25ab8b"},"vehicle_type_id":"4","last_reported":1741868325,"current_range_meters":14000,"station_id":"ce4bhnp2rcd13ifvqgvg","pricing_plan_id":"cebpf4jnsgd1na2vs0mg"},{"bike_id":"dc2dc920-7061-4611-9ad3-02d4898aaa15","system_id":"levelo_inurba_marseille","lat":43.23179,"lon":5.40003,"is_reserved":false,"is_disabled":false,"rental_uris":{"android":"levelo://app?vid=dc2dc920-7061-4611-9ad3-02d4898aaa15","ios":"levelo://app?vid=dc2dc920-7061-4611-9ad3-02d4898aaa15"},"vehicle_type_id":"4","last_reported":1741868325,"current_range_meters":14000,"station_id":"ce4bhn12rcd13ifvqgqg","pricing_plan_id":"cebpf4jnsgd1na2vs0mg"},{"bike_id":"a1fcbf01-446c-4e19-b411-15c149ea7aa3","system_id":"levelo_inurba_marseille","lat":43.29991,"lon":5.41325,"is_reserved":false,"is_disabled":false,"rental_uris":{"android":"levelo://app?vid=a1fcbf01-446c-4e19-b411-15c149ea7aa3","ios":"levelo://app?vid=a1fcbf01-446c-4e19-b411-15c149ea7aa3"},"vehicle_type_id":"4","last_reported":1741868325,"current_range_meters":14000,"station_id":"ce4bhp12rcd13ifvqh9g","pricing_plan_id":"cebpf4jnsgd1na2vs0mg"},{"bike_id":"3363e5ed-aafd-4c83-9f97-12270e6ffcf4","system_id":"levelo_inurba_marseille","lat":43.24873,"lon":5.40633,"is_reserved":false,"is_disabled":false,"rental_uris":{"android":"levelo://app?vid=3363e5ed-aafd-4c83-9f97-12270e6ffcf4","ios":"levelo://app?vid=3363e5ed-aafd-4c83-9f97-12270e6ffcf4"},"vehicle_type_id":"4","last_reported":1741868325,"current_range_meters":14000,"station_id":"","pricing_plan_id":"cebpf4jnsgd1na2vs0mg"},{"bike_id":"2b1b509a-ae2c-4705-a5bd-2d2a5200b454","system_id":"levelo_inurba_marseille","lat":43.30596,"lon":5.36486,"is_reserved":false,"is_disabled":false,"rental_uris":{"android":"levelo://app?vid=2b1b509a-ae2c-4705-a5bd-2d2a5200b454","ios":"levelo://app?vid=2b1b509a-ae2c-4705-a5bd-2d2a5200b454"},"vehicle_type_id":"4","last_reported":1741868325,"current_range_meters":14000,"station_id":"","pricing_plan_id":"cebpf4jnsgd1na2vs0mg"},{"bike_id":"e050eb08-058b-4e6e-9636-9e70389aca3b","system_id":"levelo_inurba_marseille","lat":43.30885,"lon":5.37194,"is_reserved":false,"is_disabled":false,"rental_uris":{"android":"levelo://app?vid=e050eb08-058b-4e6e-9636-9e70389aca3b","ios":"levelo://app?vid=e050eb08-058b-4e6e-9636-9e70389aca3b"},"vehicle_type_id":"4","last_reported":1741868325,"current_range_meters":14000,"station_id":"ce4bguh2rcd13ifvqckg","pricing_plan_id":"cebpf4jnsgd1na2vs0mg"},{"bike_id":"4e191ed8-4812-41de-8773-982816941bf3","system_id":"levelo_inurba_marseille","lat":43.29278,"lon":5.37458,"is_reserved":false,"is_disabled":false,"rental_uris":{"android":"levelo://app?vid=4e191ed8-4812-41de-8773-982816941bf3","ios":"levelo://app?vid=4e191ed8-4812-41de-8773-982816941bf3"},"vehicle_type_id":"4","last_reported":1741868325,"current_range_meters":14000,"station_id":"ce4bgi12rcd13ifvqb70","pricing_plan_id":"cebpf4jnsgd1na2vs0mg"},{"bike_id":"c8c1d87b-c2fa-4688-b779-debf0ac709ef","system_id":"levelo_inurba_marseille","lat":43.33719,"lon":5.39188,"is_reserved":false,"is_disabled":false,"rental_uris":{"android":"levelo://app?vid=c8c1d87b-c2fa-4688-b779-debf0ac709ef","ios":"levelo://app?vid=c8c1d87b-c2fa-4688-b779-debf0ac709ef"},"vehicle_type_id":"4","last_reported":1741868325,"current_range_meters":14400,"station_id":"ce4bhr92rcd13ifvqhsg","pricing_plan_id":"cebpf4jnsgd1na2vs0mg"},{"bike_id":"b634fcd7-4303-4fed-a2f8-fcd04ed2a4dd","system_id":"levelo_inurba_marseille","lat":43.230601,"lon":5.35493,"is_reserved":false,"is_disabled":false,"rental_uris":{"android":"levelo://app?vid=b634fcd7-4303-4fed-a2f8-fcd04ed2a4dd","ios":"levelo://app?vid=b634fcd7-4303-4fed-a2f8-fcd04ed2a4dd"},"vehicle_type_id":"4","last_reported":1741868325,"current_range_meters":14400,"station_id":"cpo3342slgdg3j2ifvpg","pricing_plan_id":"cebpf4jnsgd1na2vs0mg"},{"bike_id":"9a719051-5115-4a08-8e7b-ae42f9cbb7fe","system_id":"levelo_inurba_marseille","lat":43.31104,"lon":5.37802,"is_reserved":false,"is_disabled":false,"rental_uris":{"android":"levelo://app?vid=9a719051-5115-4a08-8e7b-ae42f9cbb7fe","ios":"levelo://app?vid=9a719051-5115-4a08-8e7b-ae42f9cbb7fe"},"vehicle_type_id":"4","last_reported":1741868325,"current_range_meters":14400,"station_id":"ce4bgt92rcd13ifvqcg0","pricing_plan_id":"cebpf4jnsgd1na2vs0mg"},{"bike_id":"e4f59c94-c98b-4350-9de1-3ea0397f9325","system_id":"levelo_inurba_marseille","lat":43.24072,"lon":5.37761,"is_reserved":false,"is_disabled":false,"rental_uris":{"android":"levelo://app?vid=e4f59c94-c98b-4350-9de1-3ea0397f9325","ios":"levelo://app?vid=e4f59c94-c98b-4350-9de1-3ea0397f9325"},"vehicle_type_id":"4","last_reported":1741868325,"current_range_meters":14400,"station_id":"ce4bhnp2rcd13ifvqgvg","pricing_plan_id":"cebpf4jnsgd1na2vs0mg"},{"bike_id":"9210fe98-3e69-4443-8d8d-d9caf3be55fe","system_id":"levelo_inurba_marseille","lat":43.28571,"lon":5.39499,"is_reserved":false,"is_disabled":false,"rental_uris":{"android":"levelo://app?vid=9210fe98-3e69-4443-8d8d-d9caf3be55fe","ios":"levelo://app?vid=9210fe98-3e69-4443-8d8d-d9caf3be55fe"},"vehicle_type_id":"4","last_reported":1741868325,"current_range_meters":14400,"station_id":"ce4bh292rcd13ifvqdg0","pricing_plan_id":"cebpf4jnsgd1na2vs0mg"},{"bike_id":"e60ac8b7-e733-4af7-9ddc-f9f88bca9242","system_id":"levelo_inurba_marseille","lat":43.302549,"lon":5.400705,"is_reserved":false,"is_disabled":false,"rental_uris":{"android":"levelo://app?vid=e60ac8b7-e733-4af7-9ddc-f9f88bca9242","ios":"levelo://app?vid=e60ac8b7-e733-4af7-9ddc-f9f88bca9242"},"vehicle_type_id":"4","last_reported":1741868325,"current_range_meters":14400,"station_id":"ce4bh392rcd13ifvqdl0","pricing_plan_id":"cebpf4jnsgd1na2vs0mg"},{"bike_id":"98491ef2-cb1b-4c41-86b1-1d443d1cb36f","system_id":"levelo_inurba_marseille","lat":43.25712,"lon":5.41112,"is_reserved":false,"is_disabled":false,"rental_uris":{"android":"levelo://app?vid=98491ef2-cb1b-4c41-86b1-1d443d1cb36f","ios":"levelo://app?vid=98491ef2-cb1b-4c41-86b1-1d443d1cb36f"},"vehicle_type_id":"4","last_reported":1741868325,"current_range_meters":14400,"station_id":"ce4bhkp2rcd13ifvqgd0","pricing_plan_id":"cebpf4jnsgd1na2vs0mg"},{"bike_id":"436bf6fd-98f0-4c70-968c-7fcac8f398a5","system_id":"levelo_inurba_marseille","lat":43.2508,"lon":5.41055,"is_reserved":false,"is_disabled":false,"rental_uris":{"android":"levelo://app?vid=436bf6fd-98f0-4c70-968c-7fcac8f398a5","ios":"levelo://app?vid=436bf6fd-98f0-4c70-968c-7fcac8f398a5"},"vehicle_type_id":"4","last_reported":1741868325,"current_range_meters":14800,"station_id":"","pricing_plan_id":"cebpf4jnsgd1na2vs0mg"},{"bike_id":"ed4c83bb-e350-41b5-a50d-21ca9de7c083","system_id":"levelo_inurba_marseille","lat":43.27977,"lon":5.38741,"is_reserved":false,"is_disabled":false,"rental_uris":{"android":"levelo://app?vid=ed4c83bb-e350-41b5-a50d-21ca9de7c083","ios":"levelo://app?vid=ed4c83bb-e350-41b5-a50d-21ca9de7c083"},"vehicle_type_id":"4","last_reported":1741868325,"current_range_meters":14800,"station_id":"ce4bhg12rcd13ifvqf80","pricing_plan_id":"cebpf4jnsgd1na2vs0mg"},{"bike_id":"f057e00b-20f3-4e61-afe1-ddaa1b9cf26e","system_id":"levelo_inurba_marseille","lat":43.22933,"lon":5.35374,"is_reserved":false,"is_disabled":false,"rental_uris":{"android":"levelo://app?vid=f057e00b-20f3-4e61-afe1-ddaa1b9cf26e","ios":"levelo://app?vid=f057e00b-20f3-4e61-afe1-ddaa1b9cf26e"},"vehicle_type_id":"4","last_reported":1741868325,"current_range_meters":14800,"station_id":"cpo3532slgdg3j2ikp40","pricing_plan_id":"cebpf4jnsgd1na2vs0mg"},{"bike_id":"7ddaa9a4-7da6-47e8-9407-a3a6a240204a","system_id":"levelo_inurba_marseille","lat":43.25087,"lon":5.39505,"is_reserved":false,"is_disabled":false,"rental_uris":{"android":"levelo://app?vid=7ddaa9a4-7da6-47e8-9407-a3a6a240204a","ios":"levelo://app?vid=7ddaa9a4-7da6-47e8-9407-a3a6a240204a"},"vehicle_type_id":"4","last_reported":1741868325,"current_range_meters":14800,"station_id":"ce4bhm12rcd13ifvqgkg","pricing_plan_id":"cebpf4jnsgd1na2vs0mg"},{"bike_id":"c4128b89-e68b-4762-8ff6-bfa84480e1bf","system_id":"levelo_inurba_marseille","lat":43.304646,"lon":5.37914,"is_reserved":false,"is_disabled":false,"rental_uris":{"android":"levelo://app?vid=c4128b89-e68b-4762-8ff6-bfa84480e1bf","ios":"levelo://app?vid=c4128b89-e68b-4762-8ff6-bfa84480e1bf"},"vehicle_type_id":"4","last_reported":1741868325,"current_range_meters":14800,"station_id":"ce4bh312rcd13ifvqdj0","pricing_plan_id":"cebpf4jnsgd1na2vs0mg"},{"bike_id":"7a2528c7-fc51-47b3-b130-bcfcd01c1079","system_id":"levelo_inurba_marseille","lat":43.25899,"lon":5.40918,"is_reserved":false,"is_disabled":false,"rental_uris":{"android":"levelo://app?vid=7a2528c7-fc51-47b3-b130-bcfcd01c1079","ios":"levelo://app?vid=7a2528c7-fc51-47b3-b130-bcfcd01c1079"},"vehicle_type_id":"4","last_reported":1741868325,"current_range_meters":15200,"station_id":"ce4bhm92rcd13ifvqglg","pricing_plan_id":"cebpf4jnsgd1na2vs0mg"},{"bike_id":"36fa1bfb-4451-41ac-ac56-73ee9f3feeab","system_id":"levelo_inurba_marseille","lat":43.312163,"lon":5.368687,"is_reserved":false,"is_disabled":false,"rental_uris":{"android":"levelo://app?vid=36fa1bfb-4451-41ac-ac56-73ee9f3feeab","ios":"levelo://app?vid=36fa1bfb-4451-41ac-ac56-73ee9f3feeab"},"vehicle_type_id":"4","last_reported":1741868325,"current_range_meters":15200,"station_id":"ce4bgl92rcd13ifvqbq0","pricing_plan_id":"cebpf4jnsgd1na2vs0mg"},{"bike_id":"edeff993-7353-413f-b42c-b0f5072095e8","system_id":"levelo_inurba_marseille","lat":43.25945,"lon":5.4088,"is_reserved":false,"is_disabled":false,"rental_uris":{"android":"levelo://app?vid=edeff993-7353-413f-b42c-b0f5072095e8","ios":"levelo://app?vid=edeff993-7353-413f-b42c-b0f5072095e8"},"vehicle_type_id":"4","last_reported":1741868325,"current_range_meters":15200,"station_id":"ce4bhm92rcd13ifvqglg","pricing_plan_id":"cebpf4jnsgd1na2vs0mg"},{"bike_id":"20cf9b1f-595a-46ff-b2c1-133275f66c95","system_id":"levelo_inurba_marseille","lat":43.23148,"lon":5.43729,"is_reserved":false,"is_disabled":false,"rental_uris":{"android":"levelo://app?vid=20cf9b1f-595a-46ff-b2c1-133275f66c95","ios":"levelo://app?vid=20cf9b1f-595a-46ff-b2c1-133275f66c95"},"vehicle_type_id":"4","last_reported":1741868325,"current_range_meters":16000,"station_id":"ce4bhmp2rcd13ifvqgog","pricing_plan_id":"cebpf4jnsgd1na2vs0mg"},{"bike_id":"d60cfb83-e09a-46de-988f-e017c71fd12d","system_id":"levelo_inurba_marseille","lat":43.29618,"lon":5.37155,"is_reserved":false,"is_disabled":false,"rental_uris":{"android":"levelo://app?vid=d60cfb83-e09a-46de-988f-e017c71fd12d","ios":"levelo://app?vid=d60cfb83-e09a-46de-988f-e017c71fd12d"},"vehicle_type_id":"4","last_reported":1741868325,"current_range_meters":16000,"station_id":"ce4bgnh2rcd13ifvqc0g","pricing_plan_id":"cebpf4jnsgd1na2vs0mg"},{"bike_id":"a5e71948-735a-4229-b2ca-74d55fc62066","system_id":"levelo_inurba_marseille","lat":43.280406,"lon":5.369393,"is_reserved":false,"is_disabled":false,"rental_uris":{"android":"levelo://app?vid=a5e71948-735a-4229-b2ca-74d55fc62066","ios":"levelo://app?vid=a5e71948-735a-4229-b2ca-74d55fc62066"},"vehicle_type_id":"4","last_reported":1741868325,"current_range_meters":16000,"station_id":"ce4bha12rcd13ifvqef0","pricing_plan_id":"cebpf4jnsgd1na2vs0mg"},{"bike_id":"10a5337d-8921-46d8-96fd-7acca89af959","system_id":"levelo_inurba_marseille","lat":43.28421,"lon":5.34979,"is_reserved":false,"is_disabled":false,"rental_uris":{"android":"levelo://app?vid=10a5337d-8921-46d8-96fd-7acca89af959","ios":"levelo://app?vid=10a5337d-8921-46d8-96fd-7acca89af959"},"vehicle_type_id":"4","last_reported":1741868325,"current_range_meters":16000,"station_id":"ce4bhbh2rcd13ifvqepg","pricing_plan_id":"cebpf4jnsgd1na2vs0mg"},{"bike_id":"8af0edff-6988-443e-bfbb-62952732ede6","system_id":"levelo_inurba_marseille","lat":43.30561,"lon":5.36528,"is_reserved":false,"is_disabled":false,"rental_uris":{"android":"levelo://app?vid=8af0edff-6988-443e-bfbb-62952732ede6","ios":"levelo://app?vid=8af0edff-6988-443e-bfbb-62952732ede6"},"vehicle_type_id":"4","last_reported":1741868325,"current_range_meters":16400,"station_id":"ce4bgs12rcd13ifvqcag","pricing_plan_id":"cebpf4jnsgd1na2vs0mg"},{"bike_id":"29832e81-b63f-44c3-a8ae-1ccbc505bd58","system_id":"levelo_inurba_marseille","lat":43.27821,"lon":5.40701,"is_reserved":false,"is_disabled":false,"rental_uris":{"android":"levelo://app?vid=29832e81-b63f-44c3-a8ae-1ccbc505bd58","ios":"levelo://app?vid=29832e81-b63f-44c3-a8ae-1ccbc505bd58"},"vehicle_type_id":"4","last_reported":1741868325,"current_range_meters":16400,"station_id":"ce4bhnh2rcd13ifvqgtg","pricing_plan_id":"cebpf4jnsgd1na2vs0mg"},{"bike_id":"e514d185-4131-49cd-8a7c-317241865033","system_id":"levelo_inurba_marseille","lat":43.31504,"lon":5.37277,"is_reserved":false,"is_disabled":false,"rental_uris":{"android":"levelo://app?vid=e514d185-4131-49cd-8a7c-317241865033","ios":"levelo://app?vid=e514d185-4131-49cd-8a7c-317241865033"},"vehicle_type_id":"4","last_reported":1741868325,"current_range_meters":16400,"station_id":"ce4bgt12rcd13ifvqcd0","pricing_plan_id":"cebpf4jnsgd1na2vs0mg"},{"bike_id":"b0683dc0-c08d-4923-b8e1-af044677f82b","system_id":"levelo_inurba_marseille","lat":43.30146,"lon":5.38079,"is_reserved":false,"is_disabled":false,"rental_uris":{"android":"levelo://app?vid=b0683dc0-c08d-4923-b8e1-af044677f82b","ios":"levelo://app?vid=b0683dc0-c08d-4923-b8e1-af044677f82b"},"vehicle_type_id":"4","last_reported":1741868325,"current_range_meters":16400,"station_id":"ce4bgjp2rcd13ifvqbh0","pricing_plan_id":"cebpf4jnsgd1na2vs0mg"},{"bike_id":"3bad18b8-0fb0-4375-9176-fe7e8f9156a6","system_id":"levelo_inurba_marseille","lat":43.30476,"lon":5.37888,"is_reserved":false,"is_disabled":false,"rental_uris":{"android":"levelo://app?vid=3bad18b8-0fb0-4375-9176-fe7e8f9156a6","ios":"levelo://app?vid=3bad18b8-0fb0-4375-9176-fe7e8f9156a6"},"vehicle_type_id":"4","last_reported":1741868325,"current_range_meters":16400,"station_id":"ce4bgup2rcd13ifvqcn0","pricing_plan_id":"cebpf4jnsgd1na2vs0mg"},{"bike_id":"594a33ea-5c85-49b0-893b-48b1f5e1011a","system_id":"levelo_inurba_marseille","lat":43.30924,"lon":5.40143,"is_reserved":false,"is_disabled":true,"rental_uris":{"android":"levelo://app?vid=594a33ea-5c85-49b0-893b-48b1f5e1011a","ios":"levelo://app?vid=594a33ea-5c85-49b0-893b-48b1f5e1011a"},"vehicle_type_id":"4","last_reported":1741868325,"current_range_meters":16400,"station_id":"ce4bgvp2rcd13ifvqct0","pricing_plan_id":"cebpf4jnsgd1na2vs0mg"},{"bike_id":"92c7a07a-61be-4170-8fc7-b6f505b25671","system_id":"levelo_inurba_marseille","lat":43.29578,"lon":5.37516,"is_reserved":false,"is_disabled":false,"rental_uris":{"android":"levelo://app?vid=92c7a07a-61be-4170-8fc7-b6f505b25671","ios":"levelo://app?vid=92c7a07a-61be-4170-8fc7-b6f505b25671"},"vehicle_type_id":"4","last_reported":1741868325,"current_range_meters":16400,"station_id":"ce4bgh92rcd13ifvqb50","pricing_plan_id":"cebpf4jnsgd1na2vs0mg"},{"bike_id":"01759a64-793e-4942-92f4-1c75f013d037","system_id":"levelo_inurba_marseille","lat":43.30561,"lon":5.36517,"is_reserved":false,"is_disabled":false,"rental_uris":{"android":"levelo://app?vid=01759a64-793e-4942-92f4-1c75f013d037","ios":"levelo://app?vid=01759a64-793e-4942-92f4-1c75f013d037"},"vehicle_type_id":"4","last_reported":1741868325,"current_range_meters":16400,"station_id":"ce4bgs12rcd13ifvqcag","pricing_plan_id":"cebpf4jnsgd1na2vs0mg"},{"bike_id":"9cf158eb-dc69-42a9-806c-a9fdd9763881","system_id":"levelo_inurba_marseille","lat":43.30591,"lon":5.39356,"is_reserved":false,"is_disabled":false,"rental_uris":{"android":"levelo://app?vid=9cf158eb-dc69-42a9-806c-a9fdd9763881","ios":"levelo://app?vid=9cf158eb-dc69-42a9-806c-a9fdd9763881"},"vehicle_type_id":"4","last_reported":1741868325,"current_range_meters":16800,"station_id":"ce4bh0p2rcd13ifvqd80","pricing_plan_id":"cebpf4jnsgd1na2vs0mg"},{"bike_id":"3a0ca2ac-ad4f-4f28-856e-a8dc668ca745","system_id":"levelo_inurba_marseille","lat":43.279108,"lon":5.380022,"is_reserved":false,"is_disabled":false,"rental_uris":{"android":"levelo://app?vid=3a0ca2ac-ad4f-4f28-856e-a8dc668ca745","ios":"levelo://app?vid=3a0ca2ac-ad4f-4f28-856e-a8dc668ca745"},"vehicle_type_id":"4","last_reported":1741868325,"current_range_meters":16800,"station_id":"ce4bhi12rcd13ifvqfp0","pricing_plan_id":"cebpf4jnsgd1na2vs0mg"},{"bike_id":"286512bb-0b2a-413e-b31e-3cd48739e5a2","system_id":"levelo_inurba_marseille","lat":43.29563,"lon":5.3752,"is_reserved":false,"is_disabled":false,"rental_uris":{"android":"levelo://app?vid=286512bb-0b2a-413e-b31e-3cd48739e5a2","ios":"levelo://app?vid=286512bb-0b2a-413e-b31e-3cd48739e5a2"},"vehicle_type_id":"4","last_reported":1741868325,"current_range_meters":16800,"station_id":"ce4bgh92rcd13ifvqb50","pricing_plan_id":"cebpf4jnsgd1na2vs0mg"},{"bike_id":"03fcb6cf-876a-4079-87f8-c2a5a71415dd","system_id":"levelo_inurba_marseille","lat":43.29563,"lon":5.37513,"is_reserved":false,"is_disabled":false,"rental_uris":{"android":"levelo://app?vid=03fcb6cf-876a-4079-87f8-c2a5a71415dd","ios":"levelo://app?vid=03fcb6cf-876a-4079-87f8-c2a5a71415dd"},"vehicle_type_id":"4","last_reported":1741868325,"current_range_meters":16800,"station_id":"ce4bgh92rcd13ifvqb50","pricing_plan_id":"cebpf4jnsgd1na2vs0mg"},{"bike_id":"3c806d23-8299-4e87-a885-5fa092885fde","system_id":"levelo_inurba_marseille","lat":43.31044,"lon":5.376344,"is_reserved":false,"is_disabled":false,"rental_uris":{"android":"levelo://app?vid=3c806d23-8299-4e87-a885-5fa092885fde","ios":"levelo://app?vid=3c806d23-8299-4e87-a885-5fa092885fde"},"vehicle_type_id":"4","last_reported":1741868325,"current_range_meters":16800,"station_id":"ce4bgt92rcd13ifvqcf0","pricing_plan_id":"cebpf4jnsgd1na2vs0mg"},{"bike_id":"b21aaa21-82e6-4bbf-ba40-161f0790e583","system_id":"levelo_inurba_marseille","lat":43.29631,"lon":5.37719,"is_reserved":false,"is_disabled":false,"rental_uris":{"android":"levelo://app?vid=b21aaa21-82e6-4bbf-ba40-161f0790e583","ios":"levelo://app?vid=b21aaa21-82e6-4bbf-ba40-161f0790e583"},"vehicle_type_id":"4","last_reported":1741868325,"current_range_meters":16800,"station_id":"ce4bgi92rcd13ifvqb90","pricing_plan_id":"cebpf4jnsgd1na2vs0mg"},{"bike_id":"b7f4cce1-58a2-46b4-be8f-1606ed70037b","system_id":"levelo_inurba_marseille","lat":43.27497,"lon":5.42447,"is_reserved":false,"is_disabled":false,"rental_uris":{"android":"levelo://app?vid=b7f4cce1-58a2-46b4-be8f-1606ed70037b","ios":"levelo://app?vid=b7f4cce1-58a2-46b4-be8f-1606ed70037b"},"vehicle_type_id":"4","last_reported":1741868325,"current_range_meters":16800,"station_id":"ce4bhn92rcd13ifvqgrg","pricing_plan_id":"cebpf4jnsgd1na2vs0mg"},{"bike_id":"55ccb224-acdb-40c0-9250-20b5e51fc613","system_id":"levelo_inurba_marseille","lat":43.31229,"lon":5.36854,"is_reserved":false,"is_disabled":false,"rental_uris":{"android":"levelo://app?vid=55ccb224-acdb-40c0-9250-20b5e51fc613","ios":"levelo://app?vid=55ccb224-acdb-40c0-9250-20b5e51fc613"},"vehicle_type_id":"4","last_reported":1741868325,"current_range_meters":16800,"station_id":"ce4bgl92rcd13ifvqbq0","pricing_plan_id":"cebpf4jnsgd1na2vs0mg"},{"bike_id":"2a5ef00e-c400-47dc-bf9a-4a122a486851","system_id":"levelo_inurba_marseille","lat":43.22944,"lon":5.35371,"is_reserved":false,"is_disabled":false,"rental_uris":{"android":"levelo://app?vid=2a5ef00e-c400-47dc-bf9a-4a122a486851","ios":"levelo://app?vid=2a5ef00e-c400-47dc-bf9a-4a122a486851"},"vehicle_type_id":"4","last_reported":1741868325,"current_range_meters":16800,"station_id":"cpo3532slgdg3j2ikp40","pricing_plan_id":"cebpf4jnsgd1na2vs0mg"},{"bike_id":"d04200f7-c3e0-4e4f-8869-961c031ff7e8","system_id":"levelo_inurba_marseille","lat":43.282744,"lon":5.350676,"is_reserved":false,"is_disabled":false,"rental_uris":{"android":"levelo://app?vid=d04200f7-c3e0-4e4f-8869-961c031ff7e8","ios":"levelo://app?vid=d04200f7-c3e0-4e4f-8869-961c031ff7e8"},"vehicle_type_id":"4","last_reported":1741868325,"current_range_meters":16800,"station_id":"ce4bhbp2rcd13ifvqerg","pricing_plan_id":"cebpf4jnsgd1na2vs0mg"},{"bike_id":"eff977f0-75cf-4a36-afca-3848bedb88d2","system_id":"levelo_inurba_marseille","lat":43.259406,"lon":5.409062,"is_reserved":false,"is_disabled":false,"rental_uris":{"android":"levelo://app?vid=eff977f0-75cf-4a36-afca-3848bedb88d2","ios":"levelo://app?vid=eff977f0-75cf-4a36-afca-3848bedb88d2"},"vehicle_type_id":"4","last_reported":1741868325,"current_range_meters":16800,"station_id":"ce4bhm92rcd13ifvqglg","pricing_plan_id":"cebpf4jnsgd1na2vs0mg"},{"bike_id":"0654f957-3f77-4817-83c1-d70c8e709a86","system_id":"levelo_inurba_marseille","lat":43.31753,"lon":5.39019,"is_reserved":false,"is_disabled":false,"rental_uris":{"android":"levelo://app?vid=0654f957-3f77-4817-83c1-d70c8e709a86","ios":"levelo://app?vid=0654f957-3f77-4817-83c1-d70c8e709a86"},"vehicle_type_id":"4","last_reported":1741868325,"current_range_meters":16800,"station_id":"ce4bhqp2rcd13ifvqhng","pricing_plan_id":"cebpf4jnsgd1na2vs0mg"},{"bike_id":"74ff3638-3040-4b46-976a-c16816bb1c9a","system_id":"levelo_inurba_marseille","lat":43.29047,"lon":5.35918,"is_reserved":false,"is_disabled":false,"rental_uris":{"android":"levelo://app?vid=74ff3638-3040-4b46-976a-c16816bb1c9a","ios":"levelo://app?vid=74ff3638-3040-4b46-976a-c16816bb1c9a"},"vehicle_type_id":"4","last_reported":1741868325,"current_range_meters":17200,"station_id":"ce4bha92rcd13ifvqeg0","pricing_plan_id":"cebpf4jnsgd1na2vs0mg"},{"bike_id":"4dac9a18-7603-4bf1-b586-07077d44b5ee","system_id":"levelo_inurba_marseille","lat":43.32366,"lon":5.38885,"is_reserved":false,"is_disabled":false,"rental_uris":{"android":"levelo://app?vid=4dac9a18-7603-4bf1-b586-07077d44b5ee","ios":"levelo://app?vid=4dac9a18-7603-4bf1-b586-07077d44b5ee"},"vehicle_type_id":"4","last_reported":1741868325,"current_range_meters":17200,"station_id":"ce4bhqp2rcd13ifvqhog","pricing_plan_id":"cebpf4jnsgd1na2vs0mg"},{"bike_id":"3b7df12e-7edf-4630-96bc-0934b08532c6","system_id":"levelo_inurba_marseille","lat":43.23153,"lon":5.43705,"is_reserved":false,"is_disabled":false,"rental_uris":{"android":"levelo://app?vid=3b7df12e-7edf-4630-96bc-0934b08532c6","ios":"levelo://app?vid=3b7df12e-7edf-4630-96bc-0934b08532c6"},"vehicle_type_id":"4","last_reported":1741868325,"current_range_meters":17200,"station_id":"ce4bhmp2rcd13ifvqgog","pricing_plan_id":"cebpf4jnsgd1na2vs0mg"},{"bike_id":"29264c0f-0ec7-49aa-968f-9636940e0799","system_id":"levelo_inurba_marseille","lat":43.28854,"lon":5.3585,"is_reserved":false,"is_disabled":false,"rental_uris":{"android":"levelo://app?vid=29264c0f-0ec7-49aa-968f-9636940e0799","ios":"levelo://app?vid=29264c0f-0ec7-49aa-968f-9636940e0799"},"vehicle_type_id":"4","last_reported":1741868325,"current_range_meters":17200,"station_id":"ce4bhb12rcd13ifvqem0","pricing_plan_id":"cebpf4jnsgd1na2vs0mg"},{"bike_id":"c26e38ce-f4bc-4582-bdb1-3880519fed4a","system_id":"levelo_inurba_marseille","lat":43.30179,"lon":5.36614,"is_reserved":false,"is_disabled":false,"rental_uris":{"android":"levelo://app?vid=c26e38ce-f4bc-4582-bdb1-3880519fed4a","ios":"levelo://app?vid=c26e38ce-f4bc-4582-bdb1-3880519fed4a"},"vehicle_type_id":"4","last_reported":1741868325,"current_range_meters":17200,"station_id":"ce4bgrh2rcd13ifvqc8g","pricing_plan_id":"cebpf4jnsgd1na2vs0mg"},{"bike_id":"09562436-8187-46ca-a306-1f2695218dda","system_id":"levelo_inurba_marseille","lat":43.30926,"lon":5.40142,"is_reserved":false,"is_disabled":false,"rental_uris":{"android":"levelo://app?vid=09562436-8187-46ca-a306-1f2695218dda","ios":"levelo://app?vid=09562436-8187-46ca-a306-1f2695218dda"},"vehicle_type_id":"4","last_reported":1741868325,"current_range_meters":17200,"station_id":"ce4bgvp2rcd13ifvqct0","pricing_plan_id":"cebpf4jnsgd1na2vs0mg"},{"bike_id":"8b41c358-da14-4155-9bbc-959abf955810","system_id":"levelo_inurba_marseille","lat":43.29745,"lon":5.37649,"is_reserved":false,"is_disabled":false,"rental_uris":{"android":"levelo://app?vid=8b41c358-da14-4155-9bbc-959abf955810","ios":"levelo://app?vid=8b41c358-da14-4155-9bbc-959abf955810"},"vehicle_type_id":"4","last_reported":1741868325,"current_range_meters":17200,"station_id":"ce4bgkh2rcd13ifvqbl0","pricing_plan_id":"cebpf4jnsgd1na2vs0mg"},{"bike_id":"a83fa946-ef9f-4641-b888-5c97050d86b6","system_id":"levelo_inurba_marseille","lat":43.25935,"lon":5.4091,"is_reserved":false,"is_disabled":false,"rental_uris":{"android":"levelo://app?vid=a83fa946-ef9f-4641-b888-5c97050d86b6","ios":"levelo://app?vid=a83fa946-ef9f-4641-b888-5c97050d86b6"},"vehicle_type_id":"4","last_reported":1741868325,"current_range_meters":17200,"station_id":"ce4bhm92rcd13ifvqglg","pricing_plan_id":"cebpf4jnsgd1na2vs0mg"},{"bike_id":"59822710-2d10-4517-868b-42cfab329759","system_id":"levelo_inurba_marseille","lat":43.2319,"lon":5.355605,"is_reserved":false,"is_disabled":false,"rental_uris":{"android":"levelo://app?vid=59822710-2d10-4517-868b-42cfab329759","ios":"levelo://app?vid=59822710-2d10-4517-868b-42cfab329759"},"vehicle_type_id":"4","last_reported":1741868325,"current_range_meters":17600,"station_id":"ce4bhu92rcd13ifvqi70","pricing_plan_id":"cebpf4jnsgd1na2vs0mg"},{"bike_id":"3b5238ed-e6ef-44c4-ac93-f8e070990b1c","system_id":"levelo_inurba_marseille","lat":43.25706,"lon":5.41125,"is_reserved":false,"is_disabled":false,"rental_uris":{"android":"levelo://app?vid=3b5238ed-e6ef-44c4-ac93-f8e070990b1c","ios":"levelo://app?vid=3b5238ed-e6ef-44c4-ac93-f8e070990b1c"},"vehicle_type_id":"4","last_reported":1741868325,"current_range_meters":17600,"station_id":"ce4bhkp2rcd13ifvqgd0","pricing_plan_id":"cebpf4jnsgd1na2vs0mg"},{"bike_id":"f4c96f8d-6cb3-4180-b996-028423c87136","system_id":"levelo_inurba_marseille","lat":43.29253,"lon":5.37625,"is_reserved":false,"is_disabled":false,"rental_uris":{"android":"levelo://app?vid=f4c96f8d-6cb3-4180-b996-028423c87136","ios":"levelo://app?vid=f4c96f8d-6cb3-4180-b996-028423c87136"},