{"last_updated":1742116118,"ttl":60,"version":"2.2","data":{"bikes":[{"bike_id":"4e4c9d63-1226-4a73-9d06-6bf043a49124","system_id":"levelo_inurba_marseille","lat":43.31998,"lon":5.38129,"is_reserved":false,"is_disabled":false,"rental_uris":{"android":"levelo://app?vid=4e4c9d63-1226-4a73-9d06-6bf043a49124","ios":"levelo://app?vid=4e4c9d63-1226-4a73-9d06-6bf043a49124"},"vehicle_type_id":"4","last_reported":1742116119,"current_range_meters":2800,"station_id":"ce4bhr12rcd13ifvqhpg","pricing_plan_id":"cebpf4jnsgd1na2vs0mg"},{"bike_id":"db9c8ed3-724b-489e-877a-fcc8b99bd93f","system_id":"levelo_inurba_marseille","lat":43.2955,"lon":5.37495,"is_reserved":false,"is_disabled":true,"rental_uris":{"android":"levelo://app?vid=db9c8ed3-724b-489e-877a-fcc8b99bd93f","ios":"levelo://app?vid=db9c8ed3-724b-489e-877a-fcc8b99bd93f"},"vehicle_type_id":"4","last_reported":1742116119,"current_range_meters":2800,"station_id":"ce4bgkp2rcd13ifvqbmg","pricing_plan_id":"cebpf4jnsgd1na2vs0mg"},{"bike_id":"d6dc0d2a-774e-4719-aadb-172d44102923","system_id":"levelo_inurba_marseille","lat":43.31174,"lon":5.38722,"is_reserved":false,"is_disabled":false,"rental_uris":{"android":"levelo://app?vid=d6dc0d2a-774e-4719-aadb-172d44102923","ios":"levelo://app?vid=d6dc0d2a-774e-4719-aadb-172d44102923"},"vehicle_type_id":"4","last_reported":1742116119,"current_range_meters":3200,"station_id":"ce4bgv12rcd13ifvqcp0","pricing_plan_id":"cebpf4jnsgd1na2vs0mg"},{"bike_id":"f5d879b5-4e8a-4e91-bc2b-907eff703e2f","system_id":"levelo_inurba_marseille","lat":43.24646,"lon":5.38168,"is_reserved":false,"is_disabled":false,"rental_uris":{"android":"levelo://app?vid=f5d879b5-4e8a-4e91-bc2b-907eff703e2f","ios":"levelo://app?vid=f5d879b5-4e8a-4e91-bc2b-907eff703e2f"},"vehicle_type_id":"4","last_reported":1742116119,"current_range_meters":3200,"station_id":"ce4bhih2rcd13ifvqfr0","pricing_plan_id":"cebpf4jnsgd1na2vs0mg"},{"bike_id":"6b43488e-49e7-4159-b7e7-54e154d8769f","system_id":"levelo_inurba_marseille","lat":43.23058,"lon":5.35494,"is_reserved":false,"is_disabled":false,"rental_uris":{"android":"levelo://app?vid=6b43488e-49e7-4159-b7e7-54e154d8769f","ios":"levelo://app?vid=6b43488e-49e7-4159-b7e7-54e154d8769f"},"vehicle_type_id":"4","last_reported":1742116119,"current_range_meters":3200,"station_id":"cpo3342slgdg3j2ifvpg","pricing_plan_id":"cebpf4jnsgd1na2vs0mg"},{"bike_id":"22da9f00-0d4e-4ee8-8d96-9da5d87172d4","system_id":"levelo_inurba_marseille","lat":43.31336,"lon":5.39679,"is_reserved":false,"is_disabled":false,"rental_uris":{"android":"levelo://app?vid=22da9f00-0d4e-4ee8-8d96-9da5d87172d4","ios":"levelo://app?vid=22da9f00-0d4e-4ee8-8d96-9da5d87172d4"},"vehicle_type_id":"4","last_reported":1742116119,"current_range_meters":3200,"station_id":"ce4bgvp2rcd13ifvqcu0","pricing_plan_id":"cebpf4jnsgd1na2vs0mg"},{"bike_id":"c2e5486b-f5f5-45af-973c-42198c00164d","system_id":"levelo_inurba_marseille","lat":43.32477,"lon":5.36571,"is_reserved":false,"is_disabled":false,"rental_uris":{"android":"levelo://app?vid=c2e5486b-f5f5-45af-973c-42198c00164d","ios":"levelo://app?vid=c2e5486b-f5f5-45af-973c-42198c00164d"},"vehicle_type_id":"4","last_reported":1742116119,"current_range_meters":3600,"station_id":"ce4bhs12rcd13ifvqhvg","pricing_plan_id":"cebpf4jnsgd1na2vs0mg"},{"bike_id":"8e9fcaae-31b6-4c25-b85c-1e565f840aab","system_id":"levelo_inurba_marseille","lat":43.24798,"lon":5.37452,"is_reserved":false,"is_disabled":false,"rental_uris":{"android":"levelo://app?vid=8e9fcaae-31b6-4c25-b85c-1e565f840aab","ios":"levelo://app?vid=8e9fcaae-31b6-4c25-b85c-1e565f840aab"},"vehicle_type_id":"4","last_reported":1742116119,"current_range_meters":3600,"station_id":"ce4bhgh2rcd13ifvqfb0","pricing_plan_id":"cebpf4jnsgd1na2vs0mg"},{"bike_id":"72e962f9-f881-43c1-ab7d-8d86ac60a61f","system_id":"levelo_inurba_marseille","lat":43.28937,"lon":5.36398,"is_reserved":false,"is_disabled":false,"rental_uris":{"android":"levelo://app?vid=72e962f9-f881-43c1-ab7d-8d86ac60a61f","ios":"levelo://app?vid=72e962f9-f881-43c1-ab7d-8d86ac60a61f"},"vehicle_type_id":"4","last_reported":1742116119,"current_range_meters":3600,"station_id":"ce4bhc92rcd13ifvqetg","pricing_plan_id":"cebpf4jnsgd1na2vs0mg"},{"bike_id":"7e8a9298-9353-45b6-95e3-3d4a99bb2969","system_id":"levelo_inurba_marseille","lat":43.28744,"lon":5.36114,"is_reserved":false,"is_disabled":false,"rental_uris":{"android":"levelo://app?vid=7e8a9298-9353-45b6-95e3-3d4a99bb2969","ios":"levelo://app?vid=7e8a9298-9353-45b6-95e3-3d4a99bb2969"},"vehicle_type_id":"4","last_reported":1742116119,"current_range_meters":3600,"station_id":"cki0cbj6b192h4jlfktg","pricing_plan_id":"cebpf4jnsgd1na2vs0mg"},{"bike_id":"7931fd06-9e0b-4937-959b-01e56f842227","system_id":"levelo_inurba_marseille","lat":43.24383,"lon":5.37063,"is_reserved":false,"is_disabled":false,"rental_uris":{"android":"levelo://app?vid=7931fd06-9e0b-4937-959b-01e56f842227","ios":"levelo://app?vid=7931fd06-9e0b-4937-959b-01e56f842227"},"vehicle_type_id":"4","last_reported":1742116119,"current_range_meters":4000,"station_id":"ce4bhhh2rcd13ifvqfk0","pricing_plan_id":"cebpf4jnsgd1na2vs0mg"},{"bike_id":"9d32fea8-8104-41c0-9b0a-a23ea4c0455d","system_id":"levelo_inurba_marseille","lat":43.24991,"lon":5.38928,"is_reserved":false,"is_disabled":false,"rental_uris":{"android":"levelo://app?vid=9d32fea8-8104-41c0-9b0a-a23ea4c0455d","ios":"levelo://app?vid=9d32fea8-8104-41c0-9b0a-a23ea4c0455d"},"vehicle_type_id":"4","last_reported":1742116119,"current_range_meters":4000,"station_id":"ce4bhgp2rcd13ifvqfd0","pricing_plan_id":"cebpf4jnsgd1na2vs0mg"},{"bike_id":"bd7fb638-a561-41df-90ca-f32685780427","system_id":"levelo_inurba_marseille","lat":43.22921,"lon":5.35378,"is_reserved":false,"is_disabled":false,"rental_uris":{"android":"levelo://app?vid=bd7fb638-a561-41df-90ca-f32685780427","ios":"levelo://app?vid=bd7fb638-a561-41df-90ca-f32685780427"},"vehicle_type_id":"4","last_reported":1742116119,"current_range_meters":4000,"station_id":"cpo3532slgdg3j2ikp40","pricing_plan_id":"cebpf4jnsgd1na2vs0mg"},{"bike_id":"48f968e9-2670-450c-9a50-b12a7ac1907f","system_id":"levelo_inurba_marseille","lat":43.25718,"lon":5.41119,"is_reserved":false,"is_disabled":false,"rental_uris":{"android":"levelo://app?vid=48f968e9-2670-450c-9a50-b12a7ac1907f","ios":"levelo://app?vid=48f968e9-2670-450c-9a50-b12a7ac1907f"},"vehicle_type_id":"4","last_reported":1742116119,"current_range_meters":4400,"station_id":"ce4bhkp2rcd13ifvqgd0","pricing_plan_id":"cebpf4jnsgd1na2vs0mg"},{"bike_id":"8a5bd971-61c1-4475-933b-dffdb284dd01","system_id":"levelo_inurba_marseille","lat":43.2501,"lon":5.38913,"is_reserved":false,"is_disabled":false,"rental_uris":{"android":"levelo://app?vid=8a5bd971-61c1-4475-933b-dffdb284dd01","ios":"levelo://app?vid=8a5bd971-61c1-4475-933b-dffdb284dd01"},"vehicle_type_id":"4","last_reported":1742116119,"current_range_meters":4400,"station_id":"ce4bhgp2rcd13ifvqfd0","pricing_plan_id":"cebpf4jnsgd1na2vs0mg"},{"bike_id":"355fb77e-22da-4ed4-bab8-f395a5c5d15a","system_id":"levelo_inurba_marseille","lat":43.24651,"lon":5.38156,"is_reserved":false,"is_disabled":false,"rental_uris":{"android":"levelo://app?vid=355fb77e-22da-4ed4-bab8-f395a5c5d15a","ios":"levelo://app?vid=355fb77e-22da-4ed4-bab8-f395a5c5d15a"},"vehicle_type_id":"4","last_reported":1742116119,"current_range_meters":4400,"station_id":"ce4bhih2rcd13ifvqfr0","pricing_plan_id":"cebpf4jnsgd1na2vs0mg"},{"bike_id":"204679cd-648b-4ac5-ac32-c1e4b35f40dc","system_id":"levelo_inurba_marseille","lat":43.29031,"lon":5.3757,"is_reserved":false,"is_disabled":false,"rental_uris":{"android":"levelo://app?vid=204679cd-648b-4ac5-ac32-c1e4b35f40dc","ios":"levelo://app?vid=204679cd-648b-4ac5-ac32-c1e4b35f40dc"},"vehicle_type_id":"4","last_reported":1742116119,"current_range_meters":4800,"station_id":"ce4bh692rcd13ifvqe90","pricing_plan_id":"cebpf4jnsgd1na2vs0mg"},{"bike_id":"ee04f0d7-be84-4b6b-b77c-e161e113ebb7","system_id":"levelo_inurba_marseille","lat":43.23192,"lon":5.39998,"is_reserved":false,"is_disabled":false,"rental_uris":{"android":"levelo://app?vid=ee04f0d7-be84-4b6b-b77c-e161e113ebb7","ios":"levelo://app?vid=ee04f0d7-be84-4b6b-b77c-e161e113ebb7"},"vehicle_type_id":"4","last_reported":1742116119,"current_range_meters":4800,"station_id":"ce4bhn12rcd13ifvqgqg","pricing_plan_id":"cebpf4jnsgd1na2vs0mg"},{"bike_id":"73b38ca2-03c0-4c75-a1dc-ce6a9a306785","system_id":"levelo_inurba_marseille","lat":43.30474,"lon":5.38202,"is_reserved":false,"is_disabled":false,"rental_uris":{"android":"levelo://app?vid=73b38ca2-03c0-4c75-a1dc-ce6a9a306785","ios":"levelo://app?vid=73b38ca2-03c0-4c75-a1dc-ce6a9a306785"},"vehicle_type_id":"4","last_reported":1742116119,"current_range_meters":4800,"station_id":"","pricing_plan_id":"cebpf4jnsgd1na2vs0mg"},{"bike_id":"ef0420cd-62d9-46e6-bc23-a8b7c01978bb","system_id":"levelo_inurba_marseille","lat":43.29786,"lon":5.38139,"is_reserved":false,"is_disabled":true,"rental_uris":{"android":"levelo://app?vid=ef0420cd-62d9-46e6-bc23-a8b7c01978bb","ios":"levelo://app?vid=ef0420cd-62d9-46e6-bc23-a8b7c01978bb"},"vehicle_type_id":"4","last_reported":1742116119,"current_range_meters":4800,"station_id":"ce4bgip2rcd13ifvqbb0","pricing_plan_id":"cebpf4jnsgd1na2vs0mg"},{"bike_id":"88c2ec9c-c2ee-474d-a6aa-dbb7a53fc0ca","system_id":"levelo_inurba_marseille","lat":43.241731,"lon":5.397366,"is_reserved":false,"is_disabled":true,"rental_uris":{"android":"levelo://app?vid=88c2ec9c-c2ee-474d-a6aa-dbb7a53fc0ca","ios":"levelo://app?vid=88c2ec9c-c2ee-474d-a6aa-dbb7a53fc0ca"},"vehicle_type_id":"4","last_reported":1742116119,"current_range_meters":5600,"station_id":"ce4bhn12rcd13ifvqgpg","pricing_plan_id":"cebpf4jnsgd1na2vs0mg"},{"bike_id":"47d4a37a-03f5-4a8f-b364-54787b5f5319","system_id":"levelo_inurba_marseille","lat":43.24672,"lon":5.38168,"is_reserved":false,"is_disabled":false,"rental_uris":{"android":"levelo://app?vid=47d4a37a-03f5-4a8f-b364-54787b5f5319","ios":"levelo://app?vid=47d4a37a-03f5-4a8f-b364-54787b5f5319"},"vehicle_type_id":"4","last_reported":1742116119,"current_range_meters":5600,"station_id":"ce4bhih2rcd13ifvqfr0","pricing_plan_id":"cebpf4jnsgd1na2vs0mg"},{"bike_id":"4248c3f3-69b4-4a67-a409-b80cc4b66177","system_id":"levelo_inurba_marseille","lat":43.28847,"lon":5.3586,"is_reserved":false,"is_disabled":false,"rental_uris":{"android":"levelo://app?vid=4248c3f3-69b4-4a67-a409-b80cc4b66177","ios":"levelo://app?vid=4248c3f3-69b4-4a67-a409-b80cc4b66177"},"vehicle_type_id":"4","last_reported":1742116119,"current_range_meters":5600,"station_id":"ce4bhb12rcd13ifvqem0","pricing_plan_id":"cebpf4jnsgd1na2vs0mg"},{"bike_id":"0effbbb8-a931-404a-a47c-69bda0c677cc","system_id":"levelo_inurba_marseille","lat":43.22945,"lon":5.35395,"is_reserved":false,"is_disabled":false,"rental_uris":{"android":"levelo://app?vid=0effbbb8-a931-404a-a47c-69bda0c677cc","ios":"levelo://app?vid=0effbbb8-a931-404a-a47c-69bda0c677cc"},"vehicle_type_id":"4","last_reported":1742116119,"current_range_meters":5600,"station_id":"cpo3532slgdg3j2ikp40","pricing_plan_id":"cebpf4jnsgd1na2vs0mg"},{"bike_id":"b04a8ebb-2ab0-40ac-8899-7bbe2c5835d2","system_id":"levelo_inurba_marseille","lat":43.2844,"lon":5.39184,"is_reserved":false,"is_disabled":false,"rental_uris":{"android":"levelo://app?vid=b04a8ebb-2ab0-40ac-8899-7bbe2c5835d2","ios":"levelo://app?vid=b04a8ebb-2ab0-40ac-8899-7bbe2c5835d2"},"vehicle_type_id":"4","last_reported":1742116119,"current_range_meters":5600,"station_id":"ce4bhoh2rcd13ifvqh5g","pricing_plan_id":"cebpf4jnsgd1na2vs0mg"},{"bike_id":"11e3d74f-c4f5-43a8-93f9-246ac6bc927b","system_id":"levelo_inurba_marseille","lat":43.30923,"lon":5.40141,"is_reserved":false,"is_disabled":false,"rental_uris":{"android":"levelo://app?vid=11e3d74f-c4f5-43a8-93f9-246ac6bc927b","ios":"levelo://app?vid=11e3d74f-c4f5-43a8-93f9-246ac6bc927b"},"vehicle_type_id":"4","last_reported":1742116119,"current_range_meters":6000,"station_id":"ce4bgvp2rcd13ifvqct0","pricing_plan_id":"cebpf4jnsgd1na2vs0mg"},{"bike_id":"44b961f5-0abd-42a2-8a84-c383b60b2449","system_id":"levelo_inurba_marseille","lat":43.25116,"lon":5.40327,"is_reserved":false,"is_disabled":false,"rental_uris":{"android":"levelo://app?vid=44b961f5-0abd-42a2-8a84-c383b60b2449","ios":"levelo://app?vid=44b961f5-0abd-42a2-8a84-c383b60b2449"},"vehicle_type_id":"4","last_reported":1742116119,"current_range_meters":6000,"station_id":"ce4bhlh2rcd13ifvqgig","pricing_plan_id":"cebpf4jnsgd1na2vs0mg"},{"bike_id":"38997e69-8de0-4cb4-afa5-15356cdcbafe","system_id":"levelo_inurba_marseille","lat":43.28459,"lon":5.35888,"is_reserved":false,"is_disabled":true,"rental_uris":{"android":"levelo://app?vid=38997e69-8de0-4cb4-afa5-15356cdcbafe","ios":"levelo://app?vid=38997e69-8de0-4cb4-afa5-15356cdcbafe"},"vehicle_type_id":"4","last_reported":1742116119,"current_range_meters":6400,"station_id":"ce4bhah2rcd13ifvqei0","pricing_plan_id":"cebpf4jnsgd1na2vs0mg"},{"bike_id":"ae101444-9461-4e76-a90e-2e5eacdcafbc","system_id":"levelo_inurba_marseille","lat":43.27968,"lon":5.38689,"is_reserved":false,"is_disabled":true,"rental_uris":{"android":"levelo://app?vid=ae101444-9461-4e76-a90e-2e5eacdcafbc","ios":"levelo://app?vid=ae101444-9461-4e76-a90e-2e5eacdcafbc"},"vehicle_type_id":"4","last_reported":1742116119,"current_range_meters":6400,"station_id":"ce4bhg12rcd13ifvqf80","pricing_plan_id":"cebpf4jnsgd1na2vs0mg"},{"bike_id":"7e9b70b0-9251-4865-92b0-99bf02a5f811","system_id":"levelo_inurba_marseille","lat":43.26025,"lon":5.3755,"is_reserved":false,"is_disabled":false,"rental_uris":{"android":"levelo://app?vid=7e9b70b0-9251-4865-92b0-99bf02a5f811","ios":"levelo://app?vid=7e9b70b0-9251-4865-92b0-99bf02a5f811"},"vehicle_type_id":"4","last_reported":1742116119,"current_range_meters":6400,"station_id":"ce4bhgh2rcd13ifvqfa0","pricing_plan_id":"cebpf4jnsgd1na2vs0mg"},{"bike_id":"81e08eee-9562-4095-94b3-d6c4aba4e0b9","system_id":"levelo_inurba_marseille","lat":43.25864,"lon":5.39894,"is_reserved":false,"is_disabled":false,"rental_uris":{"android":"levelo://app?vid=81e08eee-9562-4095-94b3-d6c4aba4e0b9","ios":"levelo://app?vid=81e08eee-9562-4095-94b3-d6c4aba4e0b9"},"vehicle_type_id":"4","last_reported":1742116119,"current_range_meters":6400,"station_id":"ce4bhl92rcd13ifvqghg","pricing_plan_id":"cebpf4jnsgd1na2vs0mg"},{"bike_id":"9130c1e0-b61f-4347-bc58-fc495208eff8","system_id":"levelo_inurba_marseille","lat":43.27052,"lon":5.40286,"is_reserved":false,"is_disabled":false,"rental_uris":{"android":"levelo://app?vid=9130c1e0-b61f-4347-bc58-fc495208eff8","ios":"levelo://app?vid=9130c1e0-b61f-4347-bc58-fc495208eff8"},"vehicle_type_id":"4","last_reported":1742116119,"current_range_meters":6400,"station_id":"ce4bhk92rcd13ifvqgc0","pricing_plan_id":"cebpf4jnsgd1na2vs0mg"},{"bike_id":"385ae15c-2c3c-4490-a507-5eb20fb883a5","system_id":"levelo_inurba_marseille","lat":43.25931,"lon":5.40916,"is_reserved":false,"is_disabled":false,"rental_uris":{"android":"levelo://app?vid=385ae15c-2c3c-4490-a507-5eb20fb883a5","ios":"levelo://app?vid=385ae15c-2c3c-4490-a507-5eb20fb883a5"},"vehicle_type_id":"4","last_reported":1742116119,"current_range_meters":6400,"station_id":"ce4bhm92rcd13ifvqglg","pricing_plan_id":"cebpf4jnsgd1na2vs0mg"},{"bike_id":"832d4ee6-23fb-4c75-9bc5-6a2d919c8c55","system_id":"levelo_inurba_marseille","lat":43.2594,"lon":5.41032,"is_reserved":false,"is_disabled":false,"rental_uris":{"android":"levelo://app?vid=832d4ee6-23fb-4c75-9bc5-6a2d919c8c55","ios":"levelo://app?vid=832d4ee6-23fb-4c75-9bc5-6a2d919c8c55"},"vehicle_type_id":"4","last_reported":1742116119,"current_range_meters":6400,"station_id":"ce4bhm92rcd13ifvqglg","pricing_plan_id":"cebpf4jnsgd1na2vs0mg"},{"bike_id":"6f143c5b-933e-4a51-97d8-72a3705988b8","system_id":"levelo_inurba_marseille","lat":43.32234,"lon":5.37956,"is_reserved":false,"is_disabled":false,"rental_uris":{"android":"levelo://app?vid=6f143c5b-933e-4a51-97d8-72a3705988b8","ios":"levelo://app?vid=6f143c5b-933e-4a51-97d8-72a3705988b8"},"vehicle_type_id":"4","last_reported":1742116119,"current_range_meters":6400,"station_id":"","pricing_plan_id":"cebpf4jnsgd1na2vs0mg"},{"bike_id":"e4a09bf1-d80d-443e-9ac7-03cbe21bf77e","system_id":"levelo_inurba_marseille","lat":43.2957,"lon":5.37524,"is_reserved":false,"is_disabled":false,"rental_uris":{"android":"levelo://app?vid=e4a09bf1-d80d-443e-9ac7-03cbe21bf77e","ios":"levelo://app?vid=e4a09bf1-d80d-443e-9ac7-03cbe21bf77e"},"vehicle_type_id":"4","last_reported":1742116119,"current_range_meters":6800,"station_id":"ce4bgh92rcd13ifvqb50","pricing_plan_id":"cebpf4jnsgd1na2vs0mg"},{"bike_id":"0ab69b64-2bc6-40ff-a351-b107bc084411","system_id":"levelo_inurba_marseille","lat":43.32495,"lon":5.36578,"is_reserved":false,"is_disabled":false,"rental_uris":{"android":"levelo://app?vid=0ab69b64-2bc6-40ff-a351-b107bc084411","ios":"levelo://app?vid=0ab69b64-2bc6-40ff-a351-b107bc084411"},"vehicle_type_id":"4","last_reported":1742116119,"current_range_meters":6800,"station_id":"ce4bhs12rcd13ifvqhvg","pricing_plan_id":"cebpf4jnsgd1na2vs0mg"},{"bike_id":"a51e83ee-53b4-4965-b5bb-694ae883e860","system_id":"levelo_inurba_marseille","lat":43.262122,"lon":5.374463,"is_reserved":false,"is_disabled":true,"rental_uris":{"android":"levelo://app?vid=a51e83ee-53b4-4965-b5bb-694ae883e860","ios":"levelo://app?vid=a51e83ee-53b4-4965-b5bb-694ae883e860"},"vehicle_type_id":"4","last_reported":1742116119,"current_range_meters":6800,"station_id":"ce4bhgp2rcd13ifvqfc0","pricing_plan_id":"cebpf4jnsgd1na2vs0mg"},{"bike_id":"aa795381-5174-4265-abe3-ddbff84516c8","system_id":"levelo_inurba_marseille","lat":43.3014,"lon":5.37423,"is_reserved":false,"is_disabled":true,"rental_uris":{"android":"levelo://app?vid=aa795381-5174-4265-abe3-ddbff84516c8","ios":"levelo://app?vid=aa795381-5174-4265-abe3-ddbff84516c8"},"vehicle_type_id":"4","last_reported":1742116119,"current_range_meters":6800,"station_id":"ce4bgs92rcd13ifvqcc0","pricing_plan_id":"cebpf4jnsgd1na2vs0mg"},{"bike_id":"3471a00b-9bee-4abc-8ea2-4f65695b4731","system_id":"levelo_inurba_marseille","lat":43.24386,"lon":5.37068,"is_reserved":false,"is_disabled":false,"rental_uris":{"android":"levelo://app?vid=3471a00b-9bee-4abc-8ea2-4f65695b4731","ios":"levelo://app?vid=3471a00b-9bee-4abc-8ea2-4f65695b4731"},"vehicle_type_id":"4","last_reported":1742116119,"current_range_meters":6800,"station_id":"ce4bhhh2rcd13ifvqfk0","pricing_plan_id":"cebpf4jnsgd1na2vs0mg"},{"bike_id":"11877a08-1209-410f-8a57-ef814c57a390","system_id":"levelo_inurba_marseille","lat":43.24172,"lon":5.36416,"is_reserved":false,"is_disabled":false,"rental_uris":{"android":"levelo://app?vid=11877a08-1209-410f-8a57-ef814c57a390","ios":"levelo://app?vid=11877a08-1209-410f-8a57-ef814c57a390"},"vehicle_type_id":"4","last_reported":1742116119,"current_range_meters":6800,"station_id":"cpo36qri1sfpv3e86is0","pricing_plan_id":"cebpf4jnsgd1na2vs0mg"},{"bike_id":"2ada218c-4e3e-433b-a33e-91e0fed6090b","system_id":"levelo_inurba_marseille","lat":43.29442,"lon":5.39788,"is_reserved":false,"is_disabled":true,"rental_uris":{"android":"levelo://app?vid=2ada218c-4e3e-433b-a33e-91e0fed6090b","ios":"levelo://app?vid=2ada218c-4e3e-433b-a33e-91e0fed6090b"},"vehicle_type_id":"4","last_reported":1742116119,"current_range_meters":6800,"station_id":"ce4bh3h2rcd13ifvqdo0","pricing_plan_id":"cebpf4jnsgd1na2vs0mg"},{"bike_id":"1999cecf-f38c-4961-9580-ef6a50d3e0be","system_id":"levelo_inurba_marseille","lat":43.24155,"lon":5.36409,"is_reserved":false,"is_disabled":false,"rental_uris":{"android":"levelo://app?vid=1999cecf-f38c-4961-9580-ef6a50d3e0be","ios":"levelo://app?vid=1999cecf-f38c-4961-9580-ef6a50d3e0be"},"vehicle_type_id":"4","last_reported":1742116119,"current_range_meters":6800,"station_id":"cpo36qri1sfpv3e86is0","pricing_plan_id":"cebpf4jnsgd1na2vs0mg"},{"bike_id":"aba9da38-9143-4174-8a8b-6a4119e46777","system_id":"levelo_inurba_marseille","lat":43.26538,"lon":5.39056,"is_reserved":false,"is_disabled":false,"rental_uris":{"android":"levelo://app?vid=aba9da38-9143-4174-8a8b-6a4119e46777","ios":"levelo://app?vid=aba9da38-9143-4174-8a8b-6a4119e46777"},"vehicle_type_id":"4","last_reported":1742116119,"current_range_meters":6800,"station_id":"ce4bhe12rcd13ifvqf30","pricing_plan_id":"cebpf4jnsgd1na2vs0mg"},{"bike_id":"9fdfc49a-56cd-4c13-bd0e-fa5e770f32e4","system_id":"levelo_inurba_marseille","lat":43.28415,"lon":5.34992,"is_reserved":false,"is_disabled":false,"rental_uris":{"android":"levelo://app?vid=9fdfc49a-56cd-4c13-bd0e-fa5e770f32e4","ios":"levelo://app?vid=9fdfc49a-56cd-4c13-bd0e-fa5e770f32e4"},"vehicle_type_id":"4","last_reported":1742116119,"current_range_meters":6800,"station_id":"ce4bhbh2rcd13ifvqepg","pricing_plan_id":"cebpf4jnsgd1na2vs0mg"},{"bike_id":"1ac0ebad-6828-4242-99b2-14a9f8209f79","system_id":"levelo_inurba_marseille","lat":43.23189,"lon":5.35535,"is_reserved":false,"is_disabled":false,"rental_uris":{"android":"levelo://app?vid=1ac0ebad-6828-4242-99b2-14a9f8209f79","ios":"levelo://app?vid=1ac0ebad-6828-4242-99b2-14a9f8209f79"},"vehicle_type_id":"4","last_reported":1742116119,"current_range_meters":7200,"station_id":"ce4bhu92rcd13ifvqi70","pricing_plan_id":"cebpf4jnsgd1na2vs0mg"},{"bike_id":"fbf567e3-5f70-4225-b8aa-78c40d84b621","system_id":"levelo_inurba_marseille","lat":43.30932,"lon":5.40145,"is_reserved":false,"is_disabled":false,"rental_uris":{"android":"levelo://app?vid=fbf567e3-5f70-4225-b8aa-78c40d84b621","ios":"levelo://app?vid=fbf567e3-5f70-4225-b8aa-78c40d84b621"},"vehicle_type_id":"4","last_reported":1742116119,"current_range_meters":7200,"station_id":"ce4bgvp2rcd13ifvqct0","pricing_plan_id":"cebpf4jnsgd1na2vs0mg"},{"bike_id":"acb4bca2-29d2-459f-bb99-8555ff003115","system_id":"levelo_inurba_marseille","lat":43.29635,"lon":5.37146,"is_reserved":false,"is_disabled":false,"rental_uris":{"android":"levelo://app?vid=acb4bca2-29d2-459f-bb99-8555ff003115","ios":"levelo://app?vid=acb4bca2-29d2-459f-bb99-8555ff003115"},"vehicle_type_id":"4","last_reported":1742116119,"current_range_meters":7200,"station_id":"ce4bgnh2rcd13ifvqc0g","pricing_plan_id":"cebpf4jnsgd1na2vs0mg"},{"bike_id":"9b0e94d4-83fb-4baf-bbdc-aa4855b549e5","system_id":"levelo_inurba_marseille","lat":43.30534,"lon":5.36697,"is_reserved":false,"is_disabled":false,"rental_uris":{"android":"levelo://app?vid=9b0e94d4-83fb-4baf-bbdc-aa4855b549e5","ios":"levelo://app?vid=9b0e94d4-83fb-4baf-bbdc-aa4855b549e5"},"vehicle_type_id":"4","last_reported":1742116119,"current_range_meters":6800,"station_id":"ce4bgrp2rcd13ifvqc9g","pricing_plan_id":"cebpf4jnsgd1na2vs0mg"},{"bike_id":"5738ac90-9a58-41cf-9eef-d814f659b9ea","system_id":"levelo_inurba_marseille","lat":43.29268,"lon":5.40926,"is_reserved":false,"is_disabled":false,"rental_uris":{"android":"levelo://app?vid=5738ac90-9a58-41cf-9eef-d814f659b9ea","ios":"levelo://app?vid=5738ac90-9a58-41cf-9eef-d814f659b9ea"},"vehicle_type_id":"4","last_reported":1742116119,"current_range_meters":7200,"station_id":"ce4bh192rcd13ifvqdc0","pricing_plan_id":"cebpf4jnsgd1na2vs0mg"},{"bike_id":"e4896eca-9f7f-4968-89f1-44b33f487414","system_id":"levelo_inurba_marseille","lat":43.2984,"lon":5.36275,"is_reserved":false,"is_disabled":false,"rental_uris":{"android":"levelo://app?vid=e4896eca-9f7f-4968-89f1-44b33f487414","ios":"levelo://app?vid=e4896eca-9f7f-4968-89f1-44b33f487414"},"vehicle_type_id":"4","last_reported":1742116119,"current_range_meters":6800,"station_id":"ce4bgpp2rcd13ifvqc3g","pricing_plan_id":"cebpf4jnsgd1na2vs0mg"},{"bike_id":"e0834956-e6d7-4bc3-862d-e76e3f887cbb","system_id":"levelo_inurba_marseille","lat":43.23064,"lon":5.35484,"is_reserved":false,"is_disabled":false,"rental_uris":{"android":"levelo://app?vid=e0834956-e6d7-4bc3-862d-e76e3f887cbb","ios":"levelo://app?vid=e0834956-e6d7-4bc3-862d-e76e3f887cbb"},"vehicle_type_id":"4","last_reported":1742116119,"current_range_meters":7200,"station_id":"cpo3342slgdg3j2ifvpg","pricing_plan_id":"cebpf4jnsgd1na2vs0mg"},{"bike_id":"2d7448ad-d15a-4c5e-8dbc-5383e88d7973","system_id":"levelo_inurba_marseille","lat":43.28724,"lon":5.40032,"is_reserved":false,"is_disabled":false,"rental_uris":{"android":"levelo://app?vid=2d7448ad-d15a-4c5e-8dbc-5383e88d7973","ios":"levelo://app?vid=2d7448ad-d15a-4c5e-8dbc-5383e88d7973"},"vehicle_type_id":"4","last_reported":1742116119,"current_range_meters":8000,"station_id":"ce4bho92rcd13ifvqh3g","pricing_plan_id":"cebpf4jnsgd1na2vs0mg"},{"bike_id":"eefe4114-201f-4897-b136-02e7b1e76e54","system_id":"levelo_inurba_marseille","lat":43.27829,"lon":5.39235,"is_reserved":false,"is_disabled":false,"rental_uris":{"android":"levelo://app?vid=eefe4114-201f-4897-b136-02e7b1e76e54","ios":"levelo://app?vid=eefe4114-201f-4897-b136-02e7b1e76e54"},"vehicle_type_id":"4","last_reported":1742116119,"current_range_meters":8000,"station_id":"ce4bhjp2rcd13ifvqga0","pricing_plan_id":"cebpf4jnsgd1na2vs0mg"},{"bike_id":"676e66c6-8e50-404c-b512-5f94c7d6a8fc","system_id":"levelo_inurba_marseille","lat":43.24167,"lon":5.36423,"is_reserved":false,"is_disabled":false,"rental_uris":{"android":"levelo://app?vid=676e66c6-8e50-404c-b512-5f94c7d6a8fc","ios":"levelo://app?vid=676e66c6-8e50-404c-b512-5f94c7d6a8fc"},"vehicle_type_id":"4","last_reported":1742116119,"current_range_meters":8000,"station_id":"cpo36qri1sfpv3e86is0","pricing_plan_id":"cebpf4jnsgd1na2vs0mg"},{"bike_id":"a368ec29-4619-427b-b3cd-dd9e3edf5231","system_id":"levelo_inurba_marseille","lat":43.341443,"lon":5.409114,"is_reserved":false,"is_disabled":false,"rental_uris":{"android":"levelo://app?vid=a368ec29-4619-427b-b3cd-dd9e3edf5231","ios":"levelo://app?vid=a368ec29-4619-427b-b3cd-dd9e3edf5231"},"vehicle_type_id":"4","last_reported":1742116119,"current_range_meters":8000,"station_id":"ce4bhqh2rcd13ifvqhlg","pricing_plan_id":"cebpf4jnsgd1na2vs0mg"},{"bike_id":"0b7bfdb8-fd03-4687-9225-8085184f929c","system_id":"levelo_inurba_marseille","lat":43.32351,"lon":5.36759,"is_reserved":false,"is_disabled":false,"rental_uris":{"android":"levelo://app?vid=0b7bfdb8-fd03-4687-9225-8085184f929c","ios":"levelo://app?vid=0b7bfdb8-fd03-4687-9225-8085184f929c"},"vehicle_type_id":"4","last_reported":1742116119,"current_range_meters":8000,"station_id":"ce4bhsh2rcd13ifvqi2g","pricing_plan_id":"cebpf4jnsgd1na2vs0mg"},{"bike_id":"63cfaea5-f172-409c-93d3-875ff9136d61","system_id":"levelo_inurba_marseille","lat":43.24648,"lon":5.38168,"is_reserved":false,"is_disabled":false,"rental_uris":{"android":"levelo://app?vid=63cfaea5-f172-409c-93d3-875ff9136d61","ios":"levelo://app?vid=63cfaea5-f172-409c-93d3-875ff9136d61"},"vehicle_type_id":"4","last_reported":1742116119,"current_range_meters":8000,"station_id":"ce4bhih2rcd13ifvqfr0","pricing_plan_id":"cebpf4jnsgd1na2vs0mg"},{"bike_id":"f7390567-485c-4fba-9e9d-d4846905af59","system_id":"levelo_inurba_marseille","lat":43.25096,"lon":5.39538,"is_reserved":false,"is_disabled":false,"rental_uris":{"android":"levelo://app?vid=f7390567-485c-4fba-9e9d-d4846905af59","ios":"levelo://app?vid=f7390567-485c-4fba-9e9d-d4846905af59"},"vehicle_type_id":"4","last_reported":1742116119,"current_range_meters":8000,"station_id":"ce4bhm12rcd13ifvqgkg","pricing_plan_id":"cebpf4jnsgd1na2vs0mg"},{"bike_id":"7feb67fe-fb92-4a75-b7ba-3593dfa82c39","system_id":"levelo_inurba_marseille","lat":43.29044,"lon":5.37567,"is_reserved":false,"is_disabled":false,"rental_uris":{"android":"levelo://app?vid=7feb67fe-fb92-4a75-b7ba-3593dfa82c39","ios":"levelo://app?vid=7feb67fe-fb92-4a75-b7ba-3593dfa82c39"},"vehicle_type_id":"4","last_reported":1742116119,"current_range_meters":8000,"station_id":"ce4bh692rcd13ifvqe90","pricing_plan_id":"cebpf4jnsgd1na2vs0mg"},{"bike_id":"1da8c58e-5c48-4781-87c2-b49e67e21cc1","system_id":"levelo_inurba_marseille","lat":43.27989,"lon":5.41656,"is_reserved":false,"is_disabled":false,"rental_uris":{"android":"levelo://app?vid=1da8c58e-5c48-4781-87c2-b49e67e21cc1","ios":"levelo://app?vid=1da8c58e-5c48-4781-87c2-b49e67e21cc1"},"vehicle_type_id":"4","last_reported":1742116119,"current_range_meters":8000,"station_id":"ce4bho12rcd13ifvqh1g","pricing_plan_id":"cebpf4jnsgd1na2vs0mg"},{"bike_id":"12d698f7-f420-413d-9f6a-b251fbe646b0","system_id":"levelo_inurba_marseille","lat":43.31336,"lon":5.39713,"is_reserved":false,"is_disabled":false,"rental_uris":{"android":"levelo://app?vid=12d698f7-f420-413d-9f6a-b251fbe646b0","ios":"levelo://app?vid=12d698f7-f420-413d-9f6a-b251fbe646b0"},"vehicle_type_id":"4","last_reported":1742116119,"current_range_meters":8000,"station_id":"ce4bgvp2rcd13ifvqcu0","pricing_plan_id":"cebpf4jnsgd1na2vs0mg"},{"bike_id":"b614f100-11d7-4ef9-8f84-7c5dea0b786b","system_id":"levelo_inurba_marseille","lat":43.26953,"lon":5.40243,"is_reserved":false,"is_disabled":false,"rental_uris":{"android":"levelo://app?vid=b614f100-11d7-4ef9-8f84-7c5dea0b786b","ios":"levelo://app?vid=b614f100-11d7-4ef9-8f84-7c5dea0b786b"},"vehicle_type_id":"4","last_reported":1742116119,"current_range_meters":8000,"station_id":"cjm6bp8fraef2m0cb0m0","pricing_plan_id":"cebpf4jnsgd1na2vs0mg"},{"bike_id":"e52b41b5-52df-4c67-a85c-3cebb3bf7504","system_id":"levelo_inurba_marseille","lat":43.323584,"lon":5.367686,"is_reserved":false,"is_disabled":false,"rental_uris":{"android":"levelo://app?vid=e52b41b5-52df-4c67-a85c-3cebb3bf7504","ios":"levelo://app?vid=e52b41b5-52df-4c67-a85c-3cebb3bf7504"},"vehicle_type_id":"4","last_reported":1742116119,"current_range_meters":8000,"station_id":"ce4bhsh2rcd13ifvqi2g","pricing_plan_id":"cebpf4jnsgd1na2vs0mg"},{"bike_id":"09b66478-04cf-48d8-b314-6c9366086808","system_id":"levelo_inurba_marseille","lat":43.27993,"lon":5.39997,"is_reserved":false,"is_disabled":false,"rental_uris":{"android":"levelo://app?vid=09b66478-04cf-48d8-b314-6c9366086808","ios":"levelo://app?vid=09b66478-04cf-48d8-b314-6c9366086808"},"vehicle_type_id":"4","last_reported":1742116119,"current_range_meters":8000,"station_id":"ce4bho92rcd13ifvqh4g","pricing_plan_id":"cebpf4jnsgd1na2vs0mg"},{"bike_id":"3034db0c-7cfa-4361-a8e5-85d8b0635402","system_id":"levelo_inurba_marseille","lat":43.239584,"lon":5.366341,"is_reserved":false,"is_disabled":false,"rental_uris":{"android":"levelo://app?vid=3034db0c-7cfa-4361-a8e5-85d8b0635402","ios":"levelo://app?vid=3034db0c-7cfa-4361-a8e5-85d8b0635402"},"vehicle_type_id":"4","last_reported":1742116119,"current_range_meters":8000,"station_id":"ce4bhi12rcd13ifvqfp0","pricing_plan_id":"cebpf4jnsgd1na2vs0mg"},{"bike_id":"2a4bde41-3836-4902-847c-4480240ed828","system_id":"levelo_inurba_marseille","lat":43.292486,"lon":5.409159,"is_reserved":false,"is_disabled":false,"rental_uris":{"android":"levelo://app?vid=2a4bde41-3836-4902-847c-4480240ed828","ios":"levelo://app?vid=2a4bde41-3836-4902-847c-4480240ed828"},"vehicle_type_id":"4","last_reported":1742116119,"current_range_meters":8000,"station_id":"ce4bh192rcd13ifvqdc0","pricing_plan_id":"cebpf4jnsgd1na2vs0mg"},{"bike_id":"ba62375a-ac56-4ac5-a2c7-b9b588e36fd2","system_id":"levelo_inurba_marseille","lat":43.28645,"lon":5.38657,"is_reserved":false,"is_disabled":false,"rental_uris":{"android":"levelo://app?vid=ba62375a-ac56-4ac5-a2c7-b9b588e36fd2","ios":"levelo://app?vid=ba62375a-ac56-4ac5-a2c7-b9b588e36fd2"},"vehicle_type_id":"4","last_reported":1742116119,"current_range_meters":8000,"station_id":"ce4bh492rcd13ifvqdug","pricing_plan_id":"cebpf4jnsgd1na2vs0mg"},{"bike_id":"4a6cc52f-9e23-468b-bd66-2f0d340cc8d4","system_id":"levelo_inurba_marseille","lat":43.295479,"lon":5.422845,"is_reserved":false,"is_disabled":false,"rental_uris":{"android":"levelo://app?vid=4a6cc52f-9e23-468b-bd66-2f0d340cc8d4","ios":"levelo://app?vid=4a6cc52f-9e23-468b-bd66-2f0d340cc8d4"},"vehicle_type_id":"4","last_reported":1742116119,"current_range_meters":8000,"station_id":"ce4bhph2rcd13ifvqhdg","pricing_plan_id":"cebpf4jnsgd1na2vs0mg"},{"bike_id":"efb53dda-871b-483c-8dec-e716116f9234","system_id":"levelo_inurba_marseille","lat":43.31088,"lon":5.36765,"is_reserved":false,"is_disabled":false,"rental_uris":{"android":"levelo://app?vid=efb53dda-871b-483c-8dec-e716116f9234","ios":"levelo://app?vid=efb53dda-871b-483c-8dec-e716116f9234"},"vehicle_type_id":"4","last_reported":1742116119,"current_range_meters":8000,"station_id":"","pricing_plan_id":"cebpf4jnsgd1na2vs0mg"},{"bike_id":"92bd2e8f-197b-47ad-8530-ee4394b2ecce","system_id":"levelo_inurba_marseille","lat":43.241679,"lon":5.363971,"is_reserved":false,"is_disabled":false,"rental_uris":{"android":"levelo://app?vid=92bd2e8f-197b-47ad-8530-ee4394b2ecce","ios":"levelo://app?vid=92bd2e8f-197b-47ad-8530-ee4394b2ecce"},"vehicle_type_id":"4","last_reported":1742116119,"current_range_meters":8000,"station_id":"cpo36qri1sfpv3e86is0","pricing_plan_id":"cebpf4jnsgd1na2vs0mg"},{"bike_id":"3f51f1f5-7a39-4364-adc9-c4c0ef6e90b0","system_id":"levelo_inurba_marseille","lat":43.28611,"lon":5.351,"is_reserved":false,"is_disabled":false,"rental_uris":{"android":"levelo://app?vid=3f51f1f5-7a39-4364-adc9-c4c0ef6e90b0","ios":"levelo://app?vid=3f51f1f5-7a39-4364-adc9-c4c0ef6e90b0"},"vehicle_type_id":"4","last_reported":1742116119,"current_range_meters":8400,"station_id":"ce4bhch2rcd13ifvqeug","pricing_plan_id":"cebpf4jnsgd1na2vs0mg"},{"bike_id":"aeb33a8c-3eb5-49ca-a679-9b37e4bd34e9","system_id":"levelo_inurba_marseille","lat":43.28618,"lon":5.35101,"is_reserved":false,"is_disabled":false,"rental_uris":{"android":"levelo://app?vid=aeb33a8c-3eb5-49ca-a679-9b37e4bd34e9","ios":"levelo://app?vid=aeb33a8c-3eb5-49ca-a679-9b37e4bd34e9"},"vehicle_type_id":"4","last_reported":1742116119,"current_range_meters":8400,"station_id":"ce4bhch2rcd13ifvqeug","pricing_plan_id":"cebpf4jnsgd1na2vs0mg"},{"bike_id":"cd599479-cb87-429c-83a1-742e20b1c9d7","system_id":"levelo_inurba_marseille","lat":43.231809,"lon":5.39987,"is_reserved":false,"is_disabled":false,"rental_uris":{"android":"levelo://app?vid=cd599479-cb87-429c-83a1-742e20b1c9d7","ios":"levelo://app?vid=cd599479-cb87-429c-83a1-742e20b1c9d7"},"vehicle_type_id":"4","last_reported":1742116119,"current_range_meters":8400,"station_id":"ce4bhn12rcd13ifvqgqg","pricing_plan_id":"cebpf4jnsgd1na2vs0mg"},{"bike_id":"9625f194-a853-4767-bda8-0eedb08b2cb3","system_id":"levelo_inurba_marseille","lat":43.28747,"lon":5.4001,"is_reserved":false,"is_disabled":true,"rental_uris":{"android":"levelo://app?vid=9625f194-a853-4767-bda8-0eedb08b2cb3","ios":"levelo://app?vid=9625f194-a853-4767-bda8-0eedb08b2cb3"},"vehicle_type_id":"4","last_reported":1742116119,"current_range_meters":8400,"station_id":"ce4bho92rcd13ifvqh3g","pricing_plan_id":"cebpf4jnsgd1na2vs0mg"},{"bike_id":"71d6b220-48b3-44b0-9feb-d7bbfca6b232","system_id":"levelo_inurba_marseille","lat":43.25511,"lon":5.37671,"is_reserved":false,"is_disabled":true,"rental_uris":{"android":"levelo://app?vid=71d6b220-48b3-44b0-9feb-d7bbfca6b232","ios":"levelo://app?vid=71d6b220-48b3-44b0-9feb-d7bbfca6b232"},"vehicle_type_id":"4","last_reported":1742116119,"current_range_meters":8400,"station_id":"ce4bhh12rcd13ifvqff0","pricing_plan_id":"cebpf4jnsgd1na2vs0mg"},{"bike_id":"f2b7b04e-8089-4d6c-9db8-5e21bca75c26","system_id":"levelo_inurba_marseille","lat":43.27821,"lon":5.39205,"is_reserved":false,"is_disabled":true,"rental_uris":{"android":"levelo://app?vid=f2b7b04e-8089-4d6c-9db8-5e21bca75c26","ios":"levelo://app?vid=f2b7b04e-8089-4d6c-9db8-5e21bca75c26"},"vehicle_type_id":"4","last_reported":1742116119,"current_range_meters":8400,"station_id":"ce4bhjp2rcd13ifvqga0","pricing_plan_id":"cebpf4jnsgd1na2vs0mg"},{"bike_id":"93a51a03-a5f8-4519-8b9f-c700371cf425","system_id":"levelo_inurba_marseille","lat":43.309387,"lon":5.401361,"is_reserved":false,"is_disabled":false,"rental_uris":{"android":"levelo://app?vid=93a51a03-a5f8-4519-8b9f-c700371cf425","ios":"levelo://app?vid=93a51a03-a5f8-4519-8b9f-c700371cf425"},"vehicle_type_id":"4","last_reported":1742116119,"current_range_meters":8400,"station_id":"ce4bgvp2rcd13ifvqct0","pricing_plan_id":"cebpf4jnsgd1na2vs0mg"},{"bike_id":"4a9b676b-9d2d-4ea0-9681-800479b958a2","system_id":"levelo_inurba_marseille","lat":43.28359,"lon":5.38143,"is_reserved":false,"is_disabled":false,"rental_uris":{"android":"levelo://app?vid=4a9b676b-9d2d-4ea0-9681-800479b958a2","ios":"levelo://app?vid=4a9b676b-9d2d-4ea0-9681-800479b958a2"},"vehicle_type_id":"4","last_reported":1742116119,"current_range_meters":8400,"station_id":"ce4bh412rcd13ifvqdr0","pricing_plan_id":"cebpf4jnsgd1na2vs0mg"},{"bike_id":"c5f3baa5-071e-49c9-a279-6962d03083ac","system_id":"levelo_inurba_marseille","lat":43.30413,"lon":5.36773,"is_reserved":false,"is_disabled":false,"rental_uris":{"android":"levelo://app?vid=c5f3baa5-071e-49c9-a279-6962d03083ac","ios":"levelo://app?vid=c5f3baa5-071e-49c9-a279-6962d03083ac"},"vehicle_type_id":"4","last_reported":1742116119,"current_range_meters":8800,"station_id":"","pricing_plan_id":"cebpf4jnsgd1na2vs0mg"},{"bike_id":"5f7f03a2-add7-44f0-9ebb-8428c5f0e58a","system_id":"levelo_inurba_marseille","lat":43.25939,"lon":5.40904,"is_reserved":false,"is_disabled":false,"rental_uris":{"android":"levelo://app?vid=5f7f03a2-add7-44f0-9ebb-8428c5f0e58a","ios":"levelo://app?vid=5f7f03a2-add7-44f0-9ebb-8428c5f0e58a"},"vehicle_type_id":"4","last_reported":1742116119,"current_range_meters":8800,"station_id":"ce4bhm92rcd13ifvqglg","pricing_plan_id":"cebpf4jnsgd1na2vs0mg"},{"bike_id":"6320fec2-7728-47c8-9cab-eba58ab7904b","system_id":"levelo_inurba_marseille","lat":43.23957,"lon":5.36632,"is_reserved":false,"is_disabled":false,"rental_uris":{"android":"levelo://app?vid=6320fec2-7728-47c8-9cab-eba58ab7904b","ios":"levelo://app?vid=6320fec2-7728-47c8-9cab-eba58ab7904b"},"vehicle_type_id":"4","last_reported":1742116119,"current_range_meters":8800,"station_id":"ce4bhi12rcd13ifvqfp0","pricing_plan_id":"cebpf4jnsgd1na2vs0mg"},{"bike_id":"cf2dddd4-7d4d-49f9-8a6b-f39f56ed4d68","system_id":"levelo_inurba_marseille","lat":43.30933,"lon":5.4014,"is_reserved":false,"is_disabled":false,"rental_uris":{"android":"levelo://app?vid=cf2dddd4-7d4d-49f9-8a6b-f39f56ed4d68","ios":"levelo://app?vid=cf2dddd4-7d4d-49f9-8a6b-f39f56ed4d68"},"vehicle_type_id":"4","last_reported":1742116119,"current_range_meters":8800,"station_id":"ce4bgvp2rcd13ifvqct0","pricing_plan_id":"cebpf4jnsgd1na2vs0mg"},{"bike_id":"743c9fbf-42df-4986-bc8c-9b4a2bc386be","system_id":"levelo_inurba_marseille","lat":43.24072,"lon":5.37757,"is_reserved":false,"is_disabled":false,"rental_uris":{"android":"levelo://app?vid=743c9fbf-42df-4986-bc8c-9b4a2bc386be","ios":"levelo://app?vid=743c9fbf-42df-4986-bc8c-9b4a2bc386be"},"vehicle_type_id":"4","last_reported":1742116119,"current_range_meters":8800,"station_id":"ce4bhnp2rcd13ifvqgvg","pricing_plan_id":"cebpf4jnsgd1na2vs0mg"},{"bike_id":"e71a8f30-8bde-49f7-a234-1919ced4e4b1","system_id":"levelo_inurba_marseille","lat":43.30631,"lon":5.40071,"is_reserved":false,"is_disabled":false,"rental_uris":{"android":"levelo://app?vid=e71a8f30-8bde-49f7-a234-1919ced4e4b1","ios":"levelo://app?vid=e71a8f30-8bde-49f7-a234-1919ced4e4b1"},"vehicle_type_id":"4","last_reported":1742116119,"current_range_meters":8800,"station_id":"ce4bh112rcd13ifvqda0","pricing_plan_id":"cebpf4jnsgd1na2vs0mg"},{"bike_id":"fedd60d3-96c9-41c7-b5e1-2a4253c71d0d","system_id":"levelo_inurba_marseille","lat":43.29275,"lon":5.40108,"is_reserved":false,"is_disabled":false,"rental_uris":{"android":"levelo://app?vid=fedd60d3-96c9-41c7-b5e1-2a4253c71d0d","ios":"levelo://app?vid=fedd60d3-96c9-41c7-b5e1-2a4253c71d0d"},"vehicle_type_id":"4","last_reported":1742116119,"current_range_meters":8800,"station_id":"ce4bh312rcd13ifvqdk0","pricing_plan_id":"cebpf4jnsgd1na2vs0mg"},{"bike_id":"c1ccf9ca-98f0-4eaf-9c83-bb7b5133d125","system_id":"levelo_inurba_marseille","lat":43.321031,"lon":5.367742,"is_reserved":false,"is_disabled":false,"rental_uris":{"android":"levelo://app?vid=c1ccf9ca-98f0-4eaf-9c83-bb7b5133d125","ios":"levelo://app?vid=c1ccf9ca-98f0-4eaf-9c83-bb7b5133d125"},"vehicle_type_id":"4","last_reported":1742116119,"current_range_meters":8800,"station_id":"ce4bhrh2rcd13ifvqhug","pricing_plan_id":"cebpf4jnsgd1na2vs0mg"},{"bike_id":"051f8d0f-3233-4330-b3cc-3f3cb6e82ba6","system_id":"levelo_inurba_marseille","lat":43.28637,"lon":5.35099,"is_reserved":false,"is_disabled":false,"rental_uris":{"android":"levelo://app?vid=051f8d0f-3233-4330-b3cc-3f3cb6e82ba6","ios":"levelo://app?vid=051f8d0f-3233-4330-b3cc-3f3cb6e82ba6"},"vehicle_type_id":"4","last_reported":1742116119,"current_range_meters":8800,"station_id":"ce4bhch2rcd13ifvqeug","pricing_plan_id":"cebpf4jnsgd1na2vs0mg"},{"bike_id":"2ea8de52-16e7-467f-a5b0-ffa7811f8be8","system_id":"levelo_inurba_marseille","lat":43.308816,"lon":5.396379,"is_reserved":false,"is_disabled":false,"rental_uris":{"android":"levelo://app?vid=2ea8de52-16e7-467f-a5b0-ffa7811f8be8","ios":"levelo://app?vid=2ea8de52-16e7-467f-a5b0-ffa7811f8be8"},"vehicle_type_id":"4","last_reported":1742116119,"current_range_meters":8800,"station_id":"ce4bh012rcd13ifvqcv0","pricing_plan_id":"cebpf4jnsgd1na2vs0mg"},{"bike_id":"31710fca-ccfa-43a5-ac6f-5ec923018ebf","system_id":"levelo_inurba_marseille","lat":43.27442,"lon":5.42052,"is_reserved":false,"is_disabled":false,"rental_uris":{"android":"levelo://app?vid=31710fca-ccfa-43a5-ac6f-5ec923018ebf","ios":"levelo://app?vid=31710fca-ccfa-43a5-ac6f-5ec923018ebf"},"vehicle_type_id":"4","last_reported":1742116119,"current_range_meters":8800,"station_id":"","pricing_plan_id":"cebpf4jnsgd1na2vs0mg"},{"bike_id":"0102a975-ca16-4d1e-8694-d919e87a2584","system_id":"levelo_inurba_marseille","lat":43.29546,"lon":5.42283,"is_reserved":false,"is_disabled":false,"rental_uris":{"android":"levelo://app?vid=0102a975-ca16-4d1e-8694-d919e87a2584","ios":"levelo://app?vid=0102a975-ca16-4d1e-8694-d919e87a2584"},"vehicle_type_id":"4","last_reported":1742116119,"current_range_meters":9200,"station_id":"ce4bhph2rcd13ifvqhdg","pricing_plan_id":"cebpf4jnsgd1na2vs0mg"},{"bike_id":"7e900ddb-3852-477e-9ecf-988d083b6c44","system_id":"levelo_inurba_marseille","lat":43.290314,"lon":5.386521,"is_reserved":false,"is_disabled":false,"rental_uris":{"android":"levelo://app?vid=7e900ddb-3852-477e-9ecf-988d083b6c44","ios":"levelo://app?vid=7e900ddb-3852-477e-9ecf-988d083b6c44"},"vehicle_type_id":"4","last_reported":1742116119,"current_range_meters":9200,"station_id":"ce4bh4p2rcd13ifvqe0g","pricing_plan_id":"cebpf4jnsgd1na2vs0mg"},{"bike_id":"152647f8-5bc4-4606-908e-f6400b2a8932","system_id":"levelo_inurba_marseille","lat":43.30252,"lon":5.400607,"is_reserved":false,"is_disabled":false,"rental_uris":{"android":"levelo://app?vid=152647f8-5bc4-4606-908e-f6400b2a8932","ios":"levelo://app?vid=152647f8-5bc4-4606-908e-f6400b2a8932"},"vehicle_type_id":"4","last_reported":1742116119,"current_range_meters":8800,"station_id":"ce4bha92rcd13ifvqeg0","pricing_plan_id":"cebpf4jnsgd1na2vs0mg"},{"bike_id":"025c19db-f6c0-4050-ad47-54692572acc1","system_id":"levelo_inurba_marseille","lat":43.30934,"lon":5.40161,"is_reserved":false,"is_disabled":false,"rental_uris":{"android":"levelo://app?vid=025c19db-f6c0-4050-ad47-54692572acc1","ios":"levelo://app?vid=025c19db-f6c0-4050-ad47-54692572acc1"},"vehicle_type_id":"4","last_reported":1742116119,"current_range_meters":9200,"station_id":"ce4bgvp2rcd13ifvqct0","pricing_plan_id":"cebpf4jnsgd1na2vs0mg"},{"bike_id":"d42219f3-8e55-4fc6-a0b8-66df6e2e70b1","system_id":"levelo_inurba_marseille","lat":43.2395,"lon":5.36643,"is_reserved":false,"is_disabled":false,"rental_uris":{"android":"levelo://app?vid=d42219f3-8e55-4fc6-a0b8-66df6e2e70b1","ios":"levelo://app?vid=d42219f3-8e55-4fc6-a0b8-66df6e2e70b1"},"vehicle_type_id":"4","last_reported":1742116119,"current_range_meters":9200,"station_id":"ce4bhi12rcd13ifvqfp0","pricing_plan_id":"cebpf4jnsgd1na2vs0mg"},{"bike_id":"10044722-9baa-416e-a6f1-7ac67f5372b1","system_id":"levelo_inurba_marseille","lat":43.29632,"lon":5.37932,"is_reserved":false,"is_disabled":true,"rental_uris":{"android":"levelo://app?vid=10044722-9baa-416e-a6f1-7ac67f5372b1","ios":"levelo://app?vid=10044722-9baa-416e-a6f1-7ac67f5372b1"},"vehicle_type_id":"4","last_reported":1742116119,"current_range_meters":9200,"station_id":"","pricing_plan_id":"cebpf4jnsgd1na2vs0mg"},{"bike_id":"6582e7c2-5aa5-4e6a-abc5-fa241e74aeb6","system_id":"levelo_inurba_marseille","lat":43.298996,"lon":5.436621,"is_reserved":false,"is_disabled":false,"rental_uris":{"android":"levelo://app?vid=6582e7c2-5aa5-4e6a-abc5-fa241e74aeb6","ios":"levelo://app?vid=6582e7c2-5aa5-4e6a-abc5-fa241e74aeb6"},"vehicle_type_id":"4","last_reported":1742116119,"current_range_meters":9200,"station_id":"ce4bhpp2rcd13ifvqhfg","pricing_plan_id":"cebpf4jnsgd1na2vs0mg"},{"bike_id":"90c707aa-0edc-4e94-a911-252e6bd4d4c2","system_id":"levelo_inurba_marseille","lat":43.28616,"lon":5.35104,"is_reserved":false,"is_disabled":false,"rental_uris":{"android":"levelo://app?vid=90c707aa-0edc-4e94-a911-252e6bd4d4c2","ios":"levelo://app?vid=90c707aa-0edc-4e94-a911-252e6bd4d4c2"},"vehicle_type_id":"4","last_reported":1742116119,"current_range_meters":9200,"station_id":"ce4bhch2rcd13ifvqeug","pricing_plan_id":"cebpf4jnsgd1na2vs0mg"},{"bike_id":"c553c990-da4e-4f22-b9f4-d9474b4b883b","system_id":"levelo_inurba_marseille","lat":43.28479,"lon":5.38424,"is_reserved":false,"is_disabled":false,"rental_uris":{"android":"levelo://app?vid=c553c990-da4e-4f22-b9f4-d9474b4b883b","ios":"levelo://app?vid=c553c990-da4e-4f22-b9f4-d9474b4b883b"},"vehicle_type_id":"4","last_reported":1742116119,"current_range_meters":9200,"station_id":"ce4bh512rcd13ifvqe3g","pricing_plan_id":"cebpf4jnsgd1na2vs0mg"},{"bike_id":"2127c283-3bf3-4081-9791-ba201cf5a542","system_id":"levelo_inurba_marseille","lat":43.3048,"lon":5.37343,"is_reserved":false,"is_disabled":true,"rental_uris":{"android":"levelo://app?vid=2127c283-3bf3-4081-9791-ba201cf5a542","ios":"levelo://app?vid=2127c283-3bf3-4081-9791-ba201cf5a542"},"vehicle_type_id":"4","last_reported":1742116119,"current_range_meters":9200,"station_id":"","pricing_plan_id":"cebpf4jnsgd1na2vs0mg"},{"bike_id":"42690a8a-121f-4c86-9b16-a0db890b98b0","system_id":"levelo_inurba_marseille","lat":43.29037,"lon":5.38651,"is_reserved":false,"is_disabled":false,"rental_uris":{"android":"levelo://app?vid=42690a8a-121f-4c86-9b16-a0db890b98b0","ios":"levelo://app?vid=42690a8a-121f-4c86-9b16-a0db890b98b0"},"vehicle_type_id":"4","last_reported":1742116119,"current_range_meters":9200,"station_id":"ce4bh4p2rcd13ifvqe0g","pricing_plan_id":"cebpf4jnsgd1na2vs0mg"},{"bike_id":"9c153339-ffc3-4e73-9dd4-5e83c5bb119e","system_id":"levelo_inurba_marseille","lat":43.23196,"lon":5.40017,"is_reserved":false,"is_disabled":false,"rental_uris":{"android":"levelo://app?vid=9c153339-ffc3-4e73-9dd4-5e83c5bb119e","ios":"levelo://app?vid=9c153339-ffc3-4e73-9dd4-5e83c5bb119e"},"vehicle_type_id":"4","last_reported":1742116119,"current_range_meters":9200,"station_id":"ce4bhn12rcd13ifvqgqg","pricing_plan_id":"cebpf4jnsgd1na2vs0mg"},{"bike_id":"2888920d-5337-4dad-b80c-b748fa94c0d3","system_id":"levelo_inurba_marseille","lat":43.24642,"lon":5.38923,"is_reserved":false,"is_disabled":false,"rental_uris":{"android":"levelo://app?vid=2888920d-5337-4dad-b80c-b748fa94c0d3","ios":"levelo://app?vid=2888920d-5337-4dad-b80c-b748fa94c0d3"},"vehicle_type_id":"4","last_reported":1742116119,"current_range_meters":9200,"station_id":"ce4bhg12rcd13ifvqf60","pricing_plan_id":"cebpf4jnsgd1na2vs0mg"},{"bike_id":"4b396960-0c7c-4973-8ecb-3520a7356a60","system_id":"levelo_inurba_marseille","lat":43.26835,"lon":5.40256,"is_reserved":false,"is_disabled":false,"rental_uris":{"android":"levelo://app?vid=4b396960-0c7c-4973-8ecb-3520a7356a60","ios":"levelo://app?vid=4b396960-0c7c-4973-8ecb-3520a7356a60"},"vehicle_type_id":"4","last_reported":1742116119,"current_range_meters":9200,"station_id":"ce501612rcd8frsf0b60","pricing_plan_id":"cebpf4jnsgd1na2vs0mg"},{"bike_id":"dce4e035-bed2-408e-b97a-d6936e40fbc2","system_id":"levelo_inurba_marseille","lat":43.287251,"lon":5.379298,"is_reserved":false,"is_disabled":false,"rental_uris":{"android":"levelo://app?vid=dce4e035-bed2-408e-b97a-d6936e40fbc2","ios":"levelo://app?vid=dce4e035-bed2-408e-b97a-d6936e40fbc2"},"vehicle_type_id":"4","last_reported":1742116119,"current_range_meters":9200,"station_id":"ce4bh9p2rcd13ifvqec0","pricing_plan_id":"cebpf4jnsgd1na2vs0mg"},{"bike_id":"1333c740-f33c-46ca-97eb-8a4943e3534d","system_id":"levelo_inurba_marseille","lat":43.29171,"lon":5.3846,"is_reserved":false,"is_disabled":false,"rental_uris":{"android":"levelo://app?vid=1333c740-f33c-46ca-97eb-8a4943e3534d","ios":"levelo://app?vid=1333c740-f33c-46ca-97eb-8a4943e3534d"},"vehicle_type_id":"4","last_reported":1742116119,"current_range_meters":9200,"station_id":"","pricing_plan_id":"cebpf4jnsgd1na2vs0mg"},{"bike_id":"b723aca3-8e78-42dc-aea3-2292da138d59","system_id":"levelo_inurba_marseille","lat":43.23056,"lon":5.35512,"is_reserved":false,"is_disabled":false,"rental_uris":{"android":"levelo://app?vid=b723aca3-8e78-42dc-aea3-2292da138d59","ios":"levelo://app?vid=b723aca3-8e78-42dc-aea3-2292da138d59"},"vehicle_type_id":"4","last_reported":1742116119,"current_range_meters":9200,"station_id":"cpo3342slgdg3j2ifvpg","pricing_plan_id":"cebpf4jnsgd1na2vs0mg"},{"bike_id":"3a766561-d5df-4bb1-accb-85c347f27a70","system_id":"levelo_inurba_marseille","lat":43.33739,"lon":5.39186,"is_reserved":false,"is_disabled":false,"rental_uris":{"android":"levelo://app?vid=3a766561-d5df-4bb1-accb-85c347f27a70","ios":"levelo://app?vid=3a766561-d5df-4bb1-accb-85c347f27a70"},"vehicle_type_id":"4","last_reported":1742116119,"current_range_meters":9200,"station_id":"ce4bhr92rcd13ifvqhsg","pricing_plan_id":"cebpf4jnsgd1na2vs0mg"},{"bike_id":"71b342b8-694b-40d5-99e8-310baf77a970","system_id":"levelo_inurba_marseille","lat":43.23073,"lon":5.35497,"is_reserved":false,"is_disabled":false,"rental_uris":{"android":"levelo://app?vid=71b342b8-694b-40d5-99e8-310baf77a970","ios":"levelo://app?vid=71b342b8-694b-40d5-99e8-310baf77a970"},"vehicle_type_id":"4","last_reported":1742116119,"current_range_meters":9600,"station_id":"cpo3342slgdg3j2ifvpg","pricing_plan_id":"cebpf4jnsgd1na2vs0mg"},{"bike_id":"fc071de1-2cc0-488a-a43e-f8037a5a9a49","system_id":"levelo_inurba_marseille","lat":43.23067,"lon":5.35491,"is_reserved":false,"is_disabled":false,"rental_uris":{"android":"levelo://app?vid=fc071de1-2cc0-488a-a43e-f8037a5a9a49","ios":"levelo://app?vid=fc071de1-2cc0-488a-a43e-f8037a5a9a49"},"vehicle_type_id":"4","last_reported":1742116119,"current_range_meters":9600,"station_id":"cpo3342slgdg3j2ifvpg","pricing_plan_id":"cebpf4jnsgd1na2vs0mg"},{"bike_id":"174c9c66-b172-484e-b7f9-5752aa18aabf","system_id":"levelo_inurba_marseille","lat":43.2309,"lon":5.35492,"is_reserved":false,"is_disabled":false,"rental_uris":{"android":"levelo://app?vid=174c9c66-b172-484e-b7f9-5752aa18aabf","ios":"levelo://app?vid=174c9c66-b172-484e-b7f9-5752aa18aabf"},"vehicle_type_id":"4","last_reported":1742116119,"current_range_meters":9600,"station_id":"cpo3342slgdg3j2ifvpg","pricing_plan_id":"cebpf4jnsgd1na2vs0mg"},{"bike_id":"0162ff87-7148-49d2-82e1-db37eca7d49d","system_id":"levelo_inurba_marseille","lat":43.28605,"lon":5.35105,"is_reserved":false,"is_disabled":false,"rental_uris":{"android":"levelo://app?vid=0162ff87-7148-49d2-82e1-db37eca7d49d","ios":"levelo://app?vid=0162ff87-7148-49d2-82e1-db37eca7d49d"},"vehicle_type_id":"4","last_reported":1742116119,"current_range_meters":9600,"station_id":"ce4bhch2rcd13ifvqeug","pricing_plan_id":"cebpf4jnsgd1na2vs0mg"},{"bike_id":"df61f65e-dacd-4ab5-abf3-817cd399a714","system_id":"levelo_inurba_marseille","lat":43.27211,"lon":5.39193,"is_reserved":false,"is_disabled":false,"rental_uris":{"android":"levelo://app?vid=df61f65e-dacd-4ab5-abf3-817cd399a714","ios":"levelo://app?vid=df61f65e-dacd-4ab5-abf3-817cd399a714"},"vehicle_type_id":"4","last_reported":1742116119,"current_range_meters":9600,"station_id":"ce4bhhp2rcd13ifvqfm0","pricing_plan_id":"cebpf4jnsgd1na2vs0mg"},{"bike_id":"0d751fe3-4aed-4fa6-80ca-bc2d51140685","system_id":"levelo_inurba_marseille","lat":43.281025,"lon":5.378336,"is_reserved":false,"is_disabled":false,"rental_uris":{"android":"levelo://app?vid=0d751fe3-4aed-4fa6-80ca-bc2d51140685","ios":"levelo://app?vid=0d751fe3-4aed-4fa6-80ca-bc2d51140685"},"vehicle_type_id":"4","last_reported":1742116119,"current_range_meters":9600,"station_id":"ce4bha12rcd13ifvqee0","pricing_plan_id":"cebpf4jnsgd1na2vs0mg"},{"bike_id":"486239e7-dd67-42d3-9c83-43abe67b8550","system_id":"levelo_inurba_marseille","lat":43.31323,"lon":5.39716,"is_reserved":false,"is_disabled":false,"rental_uris":{"android":"levelo://app?vid=486239e7-dd67-42d3-9c83-43abe67b8550","ios":"levelo://app?vid=486239e7-dd67-42d3-9c83-43abe67b8550"},"vehicle_type_id":"4","last_reported":1742116119,"current_range_meters":9600,"station_id":"ce4bgvp2rcd13ifvqcu0","pricing_plan_id":"cebpf4jnsgd1na2vs0mg"},{"bike_id":"e45b0fd7-4e87-4303-b524-8302e30de230","system_id":"levelo_inurba_marseille","lat":43.24678,"lon":5.38153,"is_reserved":false,"is_disabled":false,"rental_uris":{"android":"levelo://app?vid=e45b0fd7-4e87-4303-b524-8302e30de230","ios":"levelo://app?vid=e45b0fd7-4e87-4303-b524-8302e30de230"},"vehicle_type_id":"4","last_reported":1742116119,"current_range_meters":10000,"station_id":"ce4bhih2rcd13ifvqfr0","pricing_plan_id":"cebpf4jnsgd1na2vs0mg"},{"bike_id":"dd3cd798-787d-4c31-b0e6-37631fe69a4a","system_id":"levelo_inurba_marseille","lat":43.278246,"lon":5.407167,"is_reserved":false,"is_disabled":false,"rental_uris":{"android":"levelo://app?vid=dd3cd798-787d-4c31-b0e6-37631fe69a4a","ios":"levelo://app?vid=dd3cd798-787d-4c31-b0e6-37631fe69a4a"},"vehicle_type_id":"4","last_reported":1742116119,"current_range_meters":10000,"station_id":"ce4bhnh2rcd13ifvqgtg","pricing_plan_id":"cebpf4jnsgd1na2vs0mg"},{"bike_id":"b91aa42b-b9b3-44eb-b091-2d40a57ed7d6","system_id":"levelo_inurba_marseille","lat":43.29229,"lon":5.40906,"is_reserved":false,"is_disabled":false,"rental_uris":{"android":"levelo://app?vid=b91aa42b-b9b3-44eb-b091-2d40a57ed7d6","ios":"levelo://app?vid=b91aa42b-b9b3-44eb-b091-2d40a57ed7d6"},"vehicle_type_id":"4","last_reported":1742116119,"current_range_meters":10000,"station_id":"ce4bh192rcd13ifvqdc0","pricing_plan_id":"cebpf4jnsgd1na2vs0mg"},{"bike_id":"d29954b9-94a9-4d4b-8f2a-4f834cdcd24e","system_id":"levelo_inurba_marseille","lat":43.30559,"lon":5.40085,"is_reserved":false,"is_disabled":false,"rental_uris":{"android":"levelo://app?vid=d29954b9-94a9-4d4b-8f2a-4f834cdcd24e","ios":"levelo://app?vid=d29954b9-94a9-4d4b-8f2a-4f834cdcd24e"},"vehicle_type_id":"4","last_reported":1742116119,"current_range_meters":10000,"station_id":"","pricing_plan_id":"cebpf4jnsgd1na2vs0mg"},{"bike_id":"8f3e9ead-d898-42b5-a79e-bc7f63bcd93a","system_id":"levelo_inurba_marseille","lat":43.28265,"lon":5.35068,"is_reserved":false,"is_disabled":false,"rental_uris":{"android":"levelo://app?vid=8f3e9ead-d898-42b5-a79e-bc7f63bcd93a","ios":"levelo://app?vid=8f3e9ead-d898-42b5-a79e-bc7f63bcd93a"},"vehicle_type_id":"4","last_reported":1742116119,"current_range_meters":10000,"station_id":"ce4bhbp2rcd13ifvqerg","pricing_plan_id":"cebpf4jnsgd1na2vs0mg"},{"bike_id":"c79bb127-8198-4096-96ea-1444569e00c1","system_id":"levelo_inurba_marseille","lat":43.23947,"lon":5.36605,"is_reserved":false,"is_disabled":true,"rental_uris":{"android":"levelo://app?vid=c79bb127-8198-4096-96ea-1444569e00c1","ios":"levelo://app?vid=c79bb127-8198-4096-96ea-1444569e00c1"},"vehicle_type_id":"4","last_reported":1742116119,"current_range_meters":10000,"station_id":"ce4bhi12rcd13ifvqfp0","pricing_plan_id":"cebpf4jnsgd1na2vs0mg"},{"bike_id":"e8e1131d-a2a0-46d6-b372-ab52c07492c6","system_id":"levelo_inurba_marseille","lat":43.2763,"lon":5.42495,"is_reserved":false,"is_disabled":false,"rental_uris":{"android":"levelo://app?vid=e8e1131d-a2a0-46d6-b372-ab52c07492c6","ios":"levelo://app?vid=e8e1131d-a2a0-46d6-b372-ab52c07492c6"},"vehicle_type_id":"4","last_reported":1742116119,"current_range_meters":10000,"station_id":"","pricing_plan_id":"cebpf4jnsgd1na2vs0mg"},{"bike_id":"60e31e2b-2ab2-4ccb-8ace-5173b6293679","system_id":"levelo_inurba_marseille","lat":43.27372,"lon":5.36267,"is_reserved":false,"is_disabled":false,"rental_uris":{"android":"levelo://app?vid=60e31e2b-2ab2-4ccb-8ace-5173b6293679","ios":"levelo://app?vid=60e31e2b-2ab2-4ccb-8ace-5173b6293679"},"vehicle_type_id":"4","last_reported":1742116119,"current_range_meters":10000,"station_id":"ce4bhbh2rcd13ifvqeo0","pricing_plan_id":"cebpf4jnsgd1na2vs0mg"},{"bike_id":"42bd844d-ab8d-4e3b-96e4-4d7bb2af26ce","system_id":"levelo_inurba_marseille","lat":43.265495,"lon":5.372947,"is_reserved":false,"is_disabled":false,"rental_uris":{"android":"levelo://app?vid=42bd844d-ab8d-4e3b-96e4-4d7bb2af26ce","ios":"levelo://app?vid=42bd844d-ab8d-4e3b-96e4-4d7bb2af26ce"},"vehicle_type_id":"4","last_reported":1742116119,"current_range_meters":10000,"station_id":"ce4bhg12rcd13ifvqf70","pricing_plan_id":"cebpf4jnsgd1na2vs0mg"},{"bike_id":"38df4f91-9f88-442d-beb0-dfcd47d64f9c","system_id":"levelo_inurba_marseille","lat":43.30933,"lon":5.40143,"is_reserved":false,"is_disabled":false,"rental_uris":{"android":"levelo://app?vid=38df4f91-9f88-442d-beb0-dfcd47d64f9c","ios":"levelo://app?vid=38df4f91-9f88-442d-beb0-dfcd47d64f9c"},"vehicle_type_id":"4","last_reported":1742116119,"current_range_meters":10000,"station_id":"ce4bgvp2rcd13ifvqct0","pricing_plan_id":"cebpf4jnsgd1na2vs0mg"},{"bike_id":"28e82ac2-915d-424a-96e1-3fd079e3f3f0","system_id":"levelo_inurba_marseille","lat":43.29048,"lon":5.37667,"is_reserved":false,"is_disabled":false,"rental_uris":{"android":"levelo://app?vid=28e82ac2-915d-424a-96e1-3fd079e3f3f0","ios":"levelo://app?vid=28e82ac2-915d-424a-96e1-3fd079e3f3f0"},"vehicle_type_id":"4","last_reported":1742116119,"current_range_meters":10800,"station_id":"ce4bh692rcd13ifvqe90","pricing_plan_id":"cebpf4jnsgd1na2vs0mg"},{"bike_id":"59f94ef0-55b3-4742-a9c5-3bb74a1e4920","system_id":"levelo_inurba_marseille","lat":43.29269,"lon":5.36848,"is_reserved":false,"is_disabled":false,"rental_uris":{"android":"levelo://app?vid=59f94ef0-55b3-4742-a9c5-3bb74a1e4920","ios":"levelo://app?vid=59f94ef0-55b3-4742-a9c5-3bb74a1e4920"},"vehicle_type_id":"4","last_reported":1742116119,"current_range_meters":10800,"station_id":"ce4bhbp2rcd13ifvqesg","pricing_plan_id":"cebpf4jnsgd1na2vs0mg"},{"bike_id":"ac0ade1e-5916-4366-8306-89e67a876331","system_id":"levelo_inurba_marseille","lat":43.29969,"lon":5.37168,"is_reserved":false,"is_disabled":false,"rental_uris":{"android":"levelo://app?vid=ac0ade1e-5916-4366-8306-89e67a876331","ios":"levelo://app?vid=ac0ade1e-5916-4366-8306-89e67a876331"},"vehicle_type_id":"4","last_reported":1742116119,"current_range_meters":10800,"station_id":"ce4bgr92rcd13ifvqc7g","pricing_plan_id":"cebpf4jnsgd1na2vs0mg"},{"bike_id":"f876773a-fec2-4503-8f9a-c65b00603ae5","system_id":"levelo_inurba_marseille","lat":43.24106,"lon":5.37792,"is_reserved":false,"is_disabled":false,"rental_uris":{"android":"levelo://app?vid=f876773a-fec2-4503-8f9a-c65b00603ae5","ios":"levelo://app?vid=f876773a-fec2-4503-8f9a-c65b00603ae5"},"vehicle_type_id":"4","last_reported":1742116119,"current_range_meters":10800,"station_id":"ce4bhnp2rcd13ifvqgvg","pricing_plan_id":"cebpf4jnsgd1na2vs0mg"},{"bike_id":"3805bdef-bc1c-4c4c-8c7f-43dd47f9112f","system_id":"levelo_inurba_marseille","lat":43.2827,"lon":5.3508,"is_reserved":false,"is_disabled":false,"rental_uris":{"android":"levelo://app?vid=3805bdef-bc1c-4c4c-8c7f-43dd47f9112f","ios":"levelo://app?vid=3805bdef-bc1c-4c4c-8c7f-43dd47f9112f"},"vehicle_type_id":"4","last_reported":1742116119,"current_range_meters":10800,"station_id":"ce4bhbp2rcd13ifvqerg","pricing_plan_id":"cebpf4jnsgd1na2vs0mg"},{"bike_id":"138e620c-f578-4ef6-a1cc-4efaf81ff921","system_id":"levelo_inurba_marseille","lat":43.24695,"lon":5.3816,"is_reserved":false,"is_disabled":false,"rental_uris":{"android":"levelo://app?vid=138e620c-f578-4ef6-a1cc-4efaf81ff921","ios":"levelo://app?vid=138e620c-f578-4ef6-a1cc-4efaf81ff921"},"vehicle_type_id":"4","last_reported":1742116119,"current_range_meters":10800,"station_id":"ce4bhih2rcd13ifvqfr0","pricing_plan_id":"cebpf4jnsgd1na2vs0mg"},{"bike_id":"30a3f5aa-8adb-417a-a2c9-dedb0fb285b3","system_id":"levelo_inurba_marseille","lat":43.28975,"lon":5.37832,"is_reserved":false,"is_disabled":true,"rental_uris":{"android":"levelo://app?vid=30a3f5aa-8adb-417a-a2c9-dedb0fb285b3","ios":"levelo://app?vid=30a3f5aa-8adb-417a-a2c9-dedb0fb285b3"},"vehicle_type_id":"4","last_reported":1742116119,"current_range_meters":10800,"station_id":"ce4bh9p2rcd13ifvqed0","pricing_plan_id":"cebpf4jnsgd1na2vs0mg"},{"bike_id":"f52a47a1-4661-4e99-a28c-e32114e74df7","system_id":"levelo_inurba_marseille","lat":43.30301,"lon":5.39205,"is_reserved":false,"is_disabled":false,"rental_uris":{"android":"levelo://app?vid=f52a47a1-4661-4e99-a28c-e32114e74df7","ios":"levelo://app?vid=f52a47a1-4661-4e99-a28c-e32114e74df7"},"vehicle_type_id":"4","last_reported":1742116119,"current_range_meters":10800,"station_id":"ce4bgkh2rcd13ifvqbk0","pricing_plan_id":"cebpf4jnsgd1na2vs0mg"},{"bike_id":"e1329997-2479-4ac3-aca2-3b0dfb3b0a3a","system_id":"levelo_inurba_marseille","lat":43.28934,"lon":5.36407,"is_reserved":false,"is_disabled":false,"rental_uris":{"android":"levelo://app?vid=e1329997-2479-4ac3-aca2-3b0dfb3b0a3a","ios":"levelo://app?vid=e1329997-2479-4ac3-aca2-3b0dfb3b0a3a"},"vehicle_type_id":"4","last_reported":1742116119,"current_range_meters":10800,"station_id":"ce4bhc92rcd13ifvqetg","pricing_plan_id":"cebpf4jnsgd1na2vs0mg"},{"bike_id":"d833f426-b66d-48bf-ae51-72b9b0c84c90","system_id":"levelo_inurba_marseille","lat":43.3236,"lon":5.38882,"is_reserved":false,"is_disabled":false,"rental_uris":{"android":"levelo://app?vid=d833f426-b66d-48bf-ae51-72b9b0c84c90","ios":"levelo://app?vid=d833f426-b66d-48bf-ae51-72b9b0c84c90"},"vehicle_type_id":"4","last_reported":1742116119,"current_range_meters":10800,"station_id":"ce4bhqp2rcd13ifvqhog","pricing_plan_id":"cebpf4jnsgd1na2vs0mg"},{"bike_id":"35b0a354-cc06-4650-875b-c6511effcf13","system_id":"levelo_inurba_marseille","lat":43.26048,"lon":5.39398,"is_reserved":false,"is_disabled":false,"rental_uris":{"android":"levelo://app?vid=35b0a354-cc06-4650-875b-c6511effcf13","ios":"levelo://app?vid=35b0a354-cc06-4650-875b-c6511effcf13"},"vehicle_type_id":"4","last_reported":1742116119,"current_range_meters":10800,"station_id":"ce4bhh92rcd13ifvqfj0","pricing_plan_id":"cebpf4jnsgd1na2vs0mg"},{"bike_id":"009278f1-8ee2-46f6-ac7b-9e2ce59c6dcb","system_id":"levelo_inurba_marseille","lat":43.29031,"lon":5.38643,"is_reserved":false,"is_disabled":false,"rental_uris":{"android":"levelo://app?vid=009278f1-8ee2-46f6-ac7b-9e2ce59c6dcb","ios":"levelo://app?vid=009278f1-8ee2-46f6-ac7b-9e2ce59c6dcb"},"vehicle_type_id":"4","last_reported":1742116119,"current_range_meters":10800,"station_id":"ce4bh4p2rcd13ifvqe0g","pricing_plan_id":"cebpf4jnsgd1na2vs0mg"},{"bike_id":"ec4c8fc9-399f-4f5a-b345-e19e03d811c3","system_id":"levelo_inurba_marseille","lat":43.27181,"lon":5.4101,"is_reserved":false,"is_disabled":true,"rental_uris":{"android":"levelo://app?vid=ec4c8fc9-399f-4f5a-b345-e19e03d811c3","ios":"levelo://app?vid=ec4c8fc9-399f-4f5a-b345-e19e03d811c3"},"vehicle_type_id":"4","last_reported":1742116119,"current_range_meters":10800,"station_id":"ce4bhl12rcd13ifvqgf0","pricing_plan_id":"cebpf4jnsgd1na2vs0mg"},{"bike_id":"9d8efe52-4253-46af-b40f-bf8652412f63","system_id":"levelo_inurba_marseille","lat":43.29527,"lon":5.39411,"is_reserved":false,"is_disabled":true,"rental_uris":{"android":"levelo://app?vid=9d8efe52-4253-46af-b40f-bf8652412f63","ios":"levelo://app?vid=9d8efe52-4253-46af-b40f-bf8652412f63"},"vehicle_type_id":"4","last_reported":1742116119,"current_range_meters":10800,"station_id":"ce4bh292rcd13ifvqdf0","pricing_plan_id":"cebpf4jnsgd1na2vs0mg"},{"bike_id":"38de9398-607b-4e38-b181-28a0e85a0172","system_id":"levelo_inurba_marseille","lat":43.29021,"lon":5.3864,"is_reserved":false,"is_disabled":true,"rental_uris":{"android":"levelo://app?vid=38de9398-607b-4e38-b181-28a0e85a0172","ios":"levelo://app?vid=38de9398-607b-4e38-b181-28a0e85a0172"},"vehicle_type_id":"4","last_reported":1742116119,"current_range_meters":10800,"station_id":"ce4bh4p2rcd13ifvqe0g","pricing_plan_id":"cebpf4jnsgd1na2vs0mg"},{"bike_id":"66d6e7ef-3ad0-49a5-bdf1-094ad3c64950","system_id":"levelo_inurba_marseille","lat":43.2465,"lon":5.38167,"is_reserved":false,"is_disabled":false,"rental_uris":{"android":"levelo://app?vid=66d6e7ef-3ad0-49a5-bdf1-094ad3c64950","ios":"levelo://app?vid=66d6e7ef-3ad0-49a5-bdf1-094ad3c64950"},"vehicle_type_id":"4","last_reported":1742116119,"current_range_meters":10800,"station_id":"ce4bhih2rcd13ifvqfr0","pricing_plan_id":"cebpf4jnsgd1na2vs0mg"},{"bike_id":"3f3e844d-8056-4826-a519-e24eec72528f","system_id":"levelo_inurba_marseille","lat":43.30663,"lon":5.366,"is_reserved":false,"is_disabled":false,"rental_uris":{"android":"levelo://app?vid=3f3e844d-8056-4826-a519-e24eec72528f","ios":"levelo://app?vid=3f3e844d-8056-4826-a519-e24eec72528f"},"vehicle_type_id":"4","last_reported":1742116119,"current_range_meters":10800,"station_id":"","pricing_plan_id":"cebpf4jnsgd1na2vs0mg"},{"bike_id":"084e9cd0-ba7b-4410-911b-bd29122b16f6","system_id":"levelo_inurba_marseille","lat":43.24164,"lon":5.36431,"is_reserved":false,"is_disabled":false,"rental_uris":{"android":"levelo://app?vid=084e9cd0-ba7b-4410-911b-bd29122b16f6","ios":"levelo://app?vid=084e9cd0-ba7b-4410-911b-bd29122b16f6"},"vehicle_type_id":"4","last_reported":1742116119,"current_range_meters":10800,"station_id":"cpo36qri1sfpv3e86is0","pricing_plan_id":"cebpf4jnsgd1na2vs0mg"},{"bike_id":"1e9f3f53-e48b-47c9-8a7a-3842fe9d86ab","system_id":"levelo_inurba_marseille","lat":43.28719,"lon":5.40025,"is_reserved":false,"is_disabled":true,"rental_uris":{"android":"levelo://app?vid=1e9f3f53-e48b-47c9-8a7a-3842fe9d86ab","ios":"levelo://app?vid=1e9f3f53-e48b-47c9-8a7a-3842fe9d86ab"},"vehicle_type_id":"4","last_reported":1742116119,"current_range_meters":10800,"station_id":"ce4bho92rcd13ifvqh3g","pricing_plan_id":"cebpf4jnsgd1na2vs0mg"},{"bike_id":"d95316d7-ae0b-470d-8c1a-3d7196e53821","system_id":"levelo_inurba_marseille","lat":43.269452,"lon":5.386356,"is_reserved":false,"is_disabled":false,"rental_uris":{"android":"levelo://app?vid=d95316d7-ae0b-470d-8c1a-3d7196e53821","ios":"levelo://app?vid=d95316d7-ae0b-470d-8c1a-3d7196e53821"},"vehicle_type_id":"4","last_reported":1742116119,"current_range_meters":10800,"station_id":"ce4bhh92rcd13ifvqfh0","pricing_plan_id":"cebpf4jnsgd1na2vs0mg"},{"bike_id":"1d7f8ff5-bcc8-4b92-a03a-ea3818b4617e","system_id":"levelo_inurba_marseille","lat":43.29237,"lon":5.38305,"is_reserved":false,"is_disabled":true,"rental_uris":{"android":"levelo://app?vid=1d7f8ff5-bcc8-4b92-a03a-ea3818b4617e","ios":"levelo://app?vid=1d7f8ff5-bcc8-4b92-a03a-ea3818b4617e"},"vehicle_type_id":"4","last_reported":1742116119,"current_range_meters":11200,"station_id":"","pricing_plan_id":"cebpf4jnsgd1na2vs0mg"},{"bike_id":"f1ad1a75-3afa-4031-8c3b-865a73b4711d","system_id":"levelo_inurba_marseille","lat":43.29198,"lon":5.35808,"is_reserved":false,"is_disabled":false,"rental_uris":{"android":"levelo://app?vid=f1ad1a75-3afa-4031-8c3b-865a73b4711d","ios":"levelo://app?vid=f1ad1a75-3afa-4031-8c3b-865a73b4711d"},"vehicle_type_id":"4","last_reported":1742116119,"current_range_meters":11200,"station_id":"ce4bhb12rcd13ifvqel0","pricing_plan_id":"cebpf4jnsgd1na2vs0mg"},{"bike_id":"162ded4b-a250-47d2-9367-1fbe27f576fa","system_id":"levelo_inurba_marseille","lat":43.265942,"lon":5.373123,"is_reserved":false,"is_disabled":false,"rental_uris":{"android":"levelo://app?vid=162ded4b-a250-47d2-9367-1fbe27f576fa","ios":"levelo://app?vid=162ded4b-a250-47d2-9367-1fbe27f576fa"},"vehicle_type_id":"4","last_reported":1742116119,"current_range_meters":11200,"station_id":"ce4bhg12rcd13ifvqf70","pricing_plan_id":"cebpf4jnsgd1na2vs0mg"},{"bike_id":"e047eb05-c84e-4eb9-a430-24d024850b6f","system_id":"levelo_inurba_marseille","lat":43.22926,"lon":5.35368,"is_reserved":false,"is_disabled":false,"rental_uris":{"android":"levelo://app?vid=e047eb05-c84e-4eb9-a430-24d024850b6f","ios":"levelo://app?vid=e047eb05-c84e-4eb9-a430-24d024850b6f"},"vehicle_type_id":"4","last_reported":1742116119,"current_range_meters":11200,"station_id":"cpo3532slgdg3j2ikp40","pricing_plan_id":"cebpf4jnsgd1na2vs0mg"},{"bike_id":"7099c38a-2986-4dc9-9398-307b562f7d30","system_id":"levelo_inurba_marseille","lat":43.25924,"lon":5.40907,"is_reserved":false,"is_disabled":false,"rental_uris":{"android":"levelo://app?vid=7099c38a-2986-4dc9-9398-307b562f7d30","ios":"levelo://app?vid=7099c38a-2986-4dc9-9398-307b562f7d30"},"vehicle_type_id":"4","last_reported":1742116119,"current_range_meters":11200,"station_id":"ce4bhm92rcd13ifvqglg","pricing_plan_id":"cebpf4jnsgd1na2vs0mg"},{"bike_id":"40ac78b7-73af-437f-9369-cc2660832141","system_id":"levelo_inurba_marseille","lat":43.296956,"lon":5.366039,"is_reserved":false,"is_disabled":false,"rental_uris":{"android":"levelo://app?vid=40ac78b7-73af-437f-9369-cc2660832141","ios":"levelo://app?vid=40ac78b7-73af-437f-9369-cc2660832141"},"vehicle_type_id":"4","last_reported":1742116119,"current_range_meters":11200,"station_id":"ce4bgn12rcd13ifvqbt0","pricing_plan_id":"cebpf4jnsgd1na2vs0mg"},{"bike_id":"3c528f7f-712c-435c-b5d4-a5694a485d73","system_id":"levelo_inurba_marseille","lat":43.29903,"lon":5.43661,"is_reserved":false,"is_disabled":false,"rental_uris":{"android":"levelo://app?vid=3c528f7f-712c-435c-b5d4-a5694a485d73","ios":"levelo://app?vid=3c528f7f-712c-435c-b5d4-a5694a485d73"},"vehicle_type_id":"4","last_reported":1742116119,"current_range_meters":11200,"station_id":"ce4bhpp2rcd13ifvqhfg","pricing_plan_id":"cebpf4jnsgd1na2vs0mg"},{"bike_id":"798e4424-938e-4a81-9e7c-4246567321c5","system_id":"levelo_inurba_marseille","lat":43.247346,"lon":5.411519,"is_reserved":false,"is_disabled":false,"rental_uris":{"android":"levelo://app?vid=798e4424-938e-4a81-9e7c-4246567321c5","ios":"levelo://app?vid=798e4424-938e-4a81-9e7c-4246567321c5"},"vehicle_type_id":"4","last_reported":1742116119,"current_range_meters":11200,"station_id":"","pricing_plan_id":"cebpf4jnsgd1na2vs0mg"},{"bike_id":"1559ed1f-4039-425c-b3d7-1da981a02f75","system_id":"levelo_inurba_marseille","lat":43.23077,"lon":5.35507,"is_reserved":false,"is_disabled":false,"rental_uris":{"android":"levelo://app?vid=1559ed1f-4039-425c-b3d7-1da981a02f75","ios":"levelo://app?vid=1559ed1f-4039-425c-b3d7-1da981a02f75"},"vehicle_type_id":"4","last_reported":1742116119,"current_range_meters":11200,"station_id":"cpo3342slgdg3j2ifvpg","pricing_plan_id":"cebpf4jnsgd1na2vs0mg"},{"bike_id":"97af83c3-ddee-4269-abac-dfe69820a791","system_id":"levelo_inurba_marseille","lat":43.30934,"lon":5.40144,"is_reserved":false,"is_disabled":false,"rental_uris":{"android":"levelo://app?vid=97af83c3-ddee-4269-abac-dfe69820a791","ios":"levelo://app?vid=97af83c3-ddee-4269-abac-dfe69820a791"},"vehicle_type_id":"4","last_reported":1742116119,"current_range_meters":11200,"station_id":"ce4bgvp2rcd13ifvqct0","pricing_plan_id":"cebpf4jnsgd1na2vs0mg"},{"bike_id":"a2df54e8-18e4-4021-8fec-e9c5b477e7ad","system_id":"levelo_inurba_marseille","lat":43.24653,"lon":5.38898,"is_reserved":false,"is_disabled":false,"rental_uris":{"android":"levelo://app?vid=a2df54e8-18e4-4021-8fec-e9c5b477e7ad","ios":"levelo://app?vid=a2df54e8-18e4-4021-8fec-e9c5b477e7ad"},"vehicle_type_id":"4","last_reported":1742116119,"current_range_meters":11200,"station_id":"ce4bhg12rcd13ifvqf60","pricing_plan_id":"cebpf4jnsgd1na2vs0mg"},{"bike_id":"7ce91338-9f41-428e-ba9d-3166c279dfc0","system_id":"levelo_inurba_marseille","lat":43.27412,"lon":5.39432,"is_reserved":false,"is_disabled":false,"rental_uris":{"android":"levelo://app?vid=7ce91338-9f41-428e-ba9d-3166c279dfc0","ios":"levelo://app?vid=7ce91338-9f41-428e-ba9d-3166c279dfc0"},"vehicle_type_id":"4","last_reported":1742116119,"current_range_meters":11600,"station_id":"ce4bhdp2rcd13ifvqf20","pricing_plan_id":"cebpf4jnsgd1na2vs0mg"},{"bike_id":"ff0d48ac-8f25-43a0-baa9-6915da64ed96","system_id":"levelo_inurba_marseille","lat":43.27991,"lon":5.40022,"is_reserved":false,"is_disabled":false,"rental_uris":{"android":"levelo://app?vid=ff0d48ac-8f25-43a0-baa9-6915da64ed96","ios":"levelo://app?vid=ff0d48ac-8f25-43a0-baa9-6915da64ed96"},"vehicle_type_id":"4","last_reported":1742116119,"current_range_meters":11600,"station_id":"ce4bho92rcd13ifvqh4g","pricing_plan_id":"cebpf4jnsgd1na2vs0mg"},{"bike_id":"10a5dfbf-3aa3-4cf3-ac17-cd4d12fd6782","system_id":"levelo_inurba_marseille","lat":43.32363,"lon":5.36766,"is_reserved":false,"is_disabled":false,"rental_uris":{"android":"levelo://app?vid=10a5dfbf-3aa3-4cf3-ac17-cd4d12fd6782","ios":"levelo://app?vid=10a5dfbf-3aa3-4cf3-ac17-cd4d12fd6782"},"vehicle_type_id":"4","last_reported":1742116119,"current_range_meters":11600,"station_id":"ce4bhsh2rcd13ifvqi2g","pricing_plan_id":"cebpf4jnsgd1na2vs0mg"},{"bike_id":"f07d3688-725c-41a9-996a-4490c49d77e9","system_id":"levelo_inurba_marseille","lat":43.29549,"lon":5.42294,"is_reserved":false,"is_disabled":false,"rental_uris":{"android":"levelo://app?vid=f07d3688-725c-41a9-996a-4490c49d77e9","ios":"levelo://app?vid=f07d3688-725c-41a9-996a-4490c49d77e9"},"vehicle_type_id":"4","last_reported":1742116119,"current_range_meters":11600,"station_id":"ce4bhph2rcd13ifvqhdg","pricing_plan_id":"cebpf4jnsgd1na2vs0mg"},{"bike_id":"b9d37069-00b1-4ea9-abbc-b8341baf49fa","system_id":"levelo_inurba_marseille","lat":43.31162,"lon":5.38725,"is_reserved":false,"is_disabled":false,"rental_uris":{"android":"levelo://app?vid=b9d37069-00b1-4ea9-abbc-b8341baf49fa","ios":"levelo://app?vid=b9d37069-00b1-4ea9-abbc-b8341baf49fa"},"vehicle_type_id":"4","last_reported":1742116119,"current_range_meters":11600,"station_id":"ce4bgv12rcd13ifvqcp0","pricing_plan_id":"cebpf4jnsgd1na2vs0mg"},{"bike_id":"3268e7a9-85dc-4e76-b2d6-ce004b62be95","system_id":"levelo_inurba_marseille","lat":43.26059,"lon":5.39397,"is_reserved":false,"is_disabled":false,"rental_uris":{"android":"levelo://app?vid=3268e7a9-85dc-4e76-b2d6-ce004b62be95","ios":"levelo://app?vid=3268e7a9-85dc-4e76-b2d6-ce004b62be95"},"vehicle_type_id":"4","last_reported":1742116119,"current_range_meters":11600,"station_id":"ce4bhh92rcd13ifvqfj0","pricing_plan_id":"cebpf4jnsgd1na2vs0mg"},{"bike_id":"edb15430-61d6-4a41-a23f-1601cb074b35","system_id":"levelo_inurba_marseille","lat":43.24674,"lon":5.38153,"is_reserved":false,"is_disabled":false,"rental_uris":{"android":"levelo://app?vid=edb15430-61d6-4a41-a23f-1601cb074b35","ios":"levelo://app?vid=edb15430-61d6-4a41-a23f-1601cb074b35"},"vehicle_type_id":"4","last_reported":1742116119,"current_range_meters":12000,"station_id":"ce4bhih2rcd13ifvqfr0","pricing_plan_id":"cebpf4jnsgd1na2vs0mg"},{"bike_id":"a3a51211-f375-4ec8-8c79-002411d6b25b","system_id":"levelo_inurba_marseille","lat":43.27561,"lon":5.38437,"is_reserved":false,"is_disabled":false,"rental_uris":{"android":"levelo://app?vid=a3a51211-f375-4ec8-8c79-002411d6b25b","ios":"levelo://app?vid=a3a51211-f375-4ec8-8c79-002411d6b25b"},"vehicle_type_id":"4","last_reported":1742116119,"current_range_meters":12000,"station_id":"ce4bhh92rcd13ifvqfi0","pricing_plan_id":"cebpf4jnsgd1na2vs0mg"},{"bike_id":"b087fba8-269e-4109-9c0a-77de2f9cf2f2","system_id":"levelo_inurba_marseille","lat":43.32319,"lon":5.36693,"is_reserved":false,"is_disabled":false,"rental_uris":{"android":"levelo://app?vid=b087fba8-269e-4109-9c0a-77de2f9cf2f2","ios":"levelo://app?vid=b087fba8-269e-4109-9c0a-77de2f9cf2f2"},"vehicle_type_id":"4","last_reported":1742116119,"current_range_meters":12000,"station_id":"ce4bhsh2rcd13ifvqi2g","pricing_plan_id":"cebpf4jnsgd1na2vs0mg"},{"bike_id":"b881a216-a8e0-47ad-9c6d-ce879391627c","system_id":"levelo_inurba_marseille","lat":43.29913,"lon":5.36536,"is_reserved":false,"is_disabled":true,"rental_uris":{"android":"levelo://app?vid=b881a216-a8e0-47ad-9c6d-ce879391627c","ios":"levelo://app?vid=b881a216-a8e0-47ad-9c6d-ce879391627c"},"vehicle_type_id":"4","last_reported":1742116119,"current_range_meters":12000,"station_id":"ce4bgm92rcd13ifvqbr0","pricing_plan_id":"cebpf4jnsgd1na2vs0mg"},{"bike_id":"dd13278e-8d1f-42d4-8b7b-3a1d74196da5","system_id":"levelo_inurba_marseille","lat":43.28462,"lon":5.35885,"is_reserved":false,"is_disabled":false,"rental_uris":{"android":"levelo://app?vid=dd13278e-8d1f-42d4-8b7b-3a1d74196da5","ios":"levelo://app?vid=dd13278e-8d1f-42d4-8b7b-3a1d74196da5"},"vehicle_type_id":"4","last_reported":1742116119,"current_range_meters":12000,"station_id":"ce4bhah2rcd13ifvqei0","pricing_plan_id":"cebpf4jnsgd1na2vs0mg"},{"bike_id":"00e7db59-0c40-496b-9dd3-52777264748b","system_id":"levelo_inurba_marseille","lat":43.2846,"lon":5.35916,"is_reserved":false,"is_disabled":false,"rental_uris":{"android":"levelo://app?vid=00e7db59-0c40-496b-9dd3-52777264748b","ios":"levelo://app?vid=00e7db59-0c40-496b-9dd3-52777264748b"},"vehicle_type_id":"4","last_reported":1742116119,"current_range_meters":12000,"station_id":"ce4bhah2rcd13ifvqei0","pricing_plan_id":"cebpf4jnsgd1na2vs0mg"},{"bike_id":"3b16a31e-3bc7-4bad-a526-3e8795a60f42","system_id":"levelo_inurba_marseille","lat":43.25115,"lon":5.40328,"is_reserved":false,"is_disabled":false,"rental_uris":{"android":"levelo://app?vid=3b16a31e-3bc7-4bad-a526-3e8795a60f42","ios":"levelo://app?vid=3b16a31e-3bc7-4bad-a526-3e8795a60f42"},"vehicle_type_id":"4","last_reported":1742116119,"current_range_meters":12000,"station_id":"ce4bhlh2rcd13ifvqgig","pricing_plan_id":"cebpf4jnsgd1na2vs0mg"},{"bike_id":"298f6027-c19e-48d6-9e3b-008264dc74c8","system_id":"levelo_inurba_marseille","lat":43.27577,"lon":5.38445,"is_reserved":false,"is_disabled":false,"rental_uris":{"android":"levelo://app?vid=298f6027-c19e-48d6-9e3b-008264dc74c8","ios":"levelo://app?vid=298f6027-c19e-48d6-9e3b-008264dc74c8"},"vehicle_type_id":"4","last_reported":1742116119,"current_range_meters":12000,"station_id":"ce4bhh92rcd13ifvqfi0","pricing_plan_id":"cebpf4jnsgd1na2vs0mg"},{"bike_id":"9fb29984-4002-448d-833e-af2a3ce13467","system_id":"levelo_inurba_marseille","lat":43.29735,"lon":5.37705,"is_reserved":false,"is_disabled":true,"rental_uris":{"android":"levelo://app?vid=9fb29984-4002-448d-833e-af2a3ce13467","ios":"levelo://app?vid=9fb29984-4002-448d-833e-af2a3ce13467"},"vehicle_type_id":"4","last_reported":1742116119,"current_range_meters":12000,"station_id":"ce4bgkh2rcd13ifvqbl0","pricing_plan_id":"cebpf4jnsgd1na2vs0mg"},{"bike_id":"a14222fa-3aa1-4a52-b4d8-666f43b997d5","system_id":"levelo_inurba_marseille","lat":43.24384,"lon":5.37055,"is_reserved":false,"is_disabled":false,"rental_uris":{"android":"levelo://app?vid=a14222fa-3aa1-4a52-b4d8-666f43b997d5","ios":"levelo://app?vid=a14222fa-3aa1-4a52-b4d8-666f43b997d5"},"vehicle_type_id":"4","last_reported":1742116119,"current_range_meters":12400,"station_id":"ce4bhhh2rcd13ifvqfk0","pricing_plan_id":"cebpf4jnsgd1na2vs0mg"},{"bike_id":"1f9a9668-f20a-4b32-9dce-dfb024996834","system_id":"levelo_inurba_marseille","lat":43.29035,"lon":5.38649,"is_reserved":false,"is_disabled":true,"rental_uris":{"android":"levelo://app?vid=1f9a9668-f20a-4b32-9dce-dfb024996834","ios":"levelo://app?vid=1f9a9668-f20a-4b32-9dce-dfb024996834"},"vehicle_type_id":"4","last_reported":1742116119,"current_range_meters":12400,"station_id":"ce4bh4p2rcd13ifvqe0g","pricing_plan_id":"cebpf4jnsgd1na2vs0mg"},{"bike_id":"243d0cb2-0c37-4dc5-8f48-53c857829217","system_id":"levelo_inurba_marseille","lat":43.30301,"lon":5.369,"is_reserved":false,"is_disabled":false,"rental_uris":{"android":"levelo://app?vid=243d0cb2-0c37-4dc5-8f48-53c857829217","ios":"levelo://app?vid=243d0cb2-0c37-4dc5-8f48-53c857829217"},"vehicle_type_id":"4","last_reported":1742116119,"current_range_meters":12400,"station_id":"ce4bgqh2rcd13ifvqc5g","pricing_plan_id":"cebpf4jnsgd1na2vs0mg"},{"bike_id":"49fea2c2-9361-4fb5-954f-b44bbf354e43","system_id":"levelo_inurba_marseille","lat":43.32357,"lon":5.36755,"is_reserved":false,"is_disabled":false,"rental_uris":{"android":"levelo://app?vid=49fea2c2-9361-4fb5-954f-b44bbf354e43","ios":"levelo://app?vid=49fea2c2-9361-4fb5-954f-b44bbf354e43"},"vehicle_type_id":"4","last_reported":1742116119,"current_range_meters":12400,"station_id":"ce4bhsh2rcd13ifvqi2g","pricing_plan_id":"cebpf4jnsgd1na2vs0mg"},{"bike_id":"e0d8fd56-97c6-464d-a966-528f8e02f31b","system_id":"levelo_inurba_marseille","lat":43.2952,"lon":5.39057,"is_reserved":false,"is_disabled":false,"rental_uris":{"android":"levelo://app?vid=e0d8fd56-97c6-464d-a966-528f8e02f31b","ios":"levelo://app?vid=e0d8fd56-97c6-464d-a966-528f8e02f31b"},"vehicle_type_id":"4","last_reported":1742116119,"current_range_meters":12000,"station_id":"ce4bh3p2rcd13ifvqdp0","pricing_plan_id":"cebpf4jnsgd1na2vs0mg"},{"bike_id":"4cca127e-6826-4876-a295-6b0e3d72bc97","system_id":"levelo_inurba_marseille","lat":43.2848,"lon":5.3841,"is_reserved":false,"is_disabled":false,"rental_uris":{"android":"levelo://app?vid=4cca127e-6826-4876-a295-6b0e3d72bc97","ios":"levelo://app?vid=4cca127e-6826-4876-a295-6b0e3d72bc97"},"vehicle_type_id":"4","last_reported":1742116119,"current_range_meters":12400,"station_id":"ce4bh512rcd13ifvqe3g","pricing_plan_id":"cebpf4jnsgd1na2vs0mg"},{"bike_id":"e36bb259-d306-4fc1-93bd-307e3f002f20","system_id":"levelo_inurba_marseille","lat":43.30248,"lon":5.40074,"is_reserved":false,"is_disabled":false,"rental_uris":{"android":"levelo://app?vid=e36bb259-d306-4fc1-93bd-307e3f002f20","ios":"levelo://app?vid=e36bb259-d306-4fc1-93bd-307e3f002f20"},"vehicle_type_id":"4","last_reported":1742116119,"current_range_meters":12800,"station_id":"ce4bgvh2rcd13ifvqcs0","pricing_plan_id":"cebpf4jnsgd1na2vs0mg"},{"bike_id":"5a61a616-683f-484d-83ae-d7f61143d634","system_id":"levelo_inurba_marseille","lat":43.29523,"lon":5.42477,"is_reserved":false,"is_disabled":false,"rental_uris":{"android":"levelo://app?vid=5a61a616-683f-484d-83ae-d7f61143d634","ios":"levelo://app?vid=5a61a616-683f-484d-83ae-d7f61143d634"},"vehicle_type_id":"4","last_reported":1742116119,"current_range_meters":12800,"station_id":"","pricing_plan_id":"cebpf4jnsgd1na2vs0mg"},{"bike_id":"7cfe97bf-9009-419e-9a53-361ce612d663","system_id":"levelo_inurba_marseille","lat":43.28692,"lon":5.3739,"is_reserved":false,"is_disabled":true,"rental_uris":{"android":"levelo://app?vid=7cfe97bf-9009-419e-9a53-361ce612d663","ios":"levelo://app?vid=7cfe97bf-9009-419e-9a53-361ce612d663"},"vehicle_type_id":"4","last_reported":1742116119,"current_range_meters":12800,"station_id":"ce4bh3p2rcd13ifvqdq0","pricing_plan_id":"cebpf4jnsgd1na2vs0mg"},{"bike_id":"8a7afd3a-f457-4f41-aec7-7267469e5c57","system_id":"levelo_inurba_marseille","lat":43.24989,"lon":5.38932,"is_reserved":false,"is_disabled":false,"rental_uris":{"android":"levelo://app?vid=8a7afd3a-f457-4f41-aec7-7267469e5c57","ios":"levelo://app?vid=8a7afd3a-f457-4f41-aec7-7267469e5c57"},"vehicle_type_id":"4","last_reported":1742116119,"current_range_meters":12800,"station_id":"ce4bhgp2rcd13ifvqfd0","pricing_plan_id":"cebpf4jnsgd1na2vs0mg"},{"bike_id":"e7e823fa-4d70-476c-9b36-e78b613d429b","system_id":"levelo_inurba_marseille","lat":43.24798,"lon":5.37454,"is_reserved":false,"is_disabled":false,"rental_uris":{"android":"levelo://app?vid=e7e823fa-4d70-476c-9b36-e78b613d429b","ios":"levelo://app?vid=e7e823fa-4d70-476c-9b36-e78b613d429b"},"vehicle_type_id":"4","last_reported":1742116119,"current_range_meters":12400,"station_id":"ce4bhgh2rcd13ifvqfb0","pricing_plan_id":"cebpf4jnsgd1na2vs0mg"},{"bike_id":"6f2aadaa-d8be-4737-b312-41d1575596f5","system_id":"levelo_inurba_marseille","lat":43.24162,"lon":5.3641,"is_reserved":false,"is_disabled":false,"rental_uris":{"android":"levelo://app?vid=6f2aadaa-d8be-4737-b312-41d1575596f5","ios":"levelo://app?vid=6f2aadaa-d8be-4737-b312-41d1575596f5"},"vehicle_type_id":"4","last_reported":1742116119,"current_range_meters":12800,"station_id":"cpo36qri1sfpv3e86is0","pricing_plan_id":"cebpf4jnsgd1na2vs0mg"},{"bike_id":"c68d68c2-ac2f-4c31-889e-0d5a224874ff","system_id":"levelo_inurba_marseille","lat":43.3133,"lon":5.39707,"is_reserved":false,"is_disabled":false,"rental_uris":{"android":"levelo://app?vid=c68d68c2-ac2f-4c31-889e-0d5a224874ff","ios":"levelo://app?vid=c68d68c2-ac2f-4c31-889e-0d5a224874ff"},"vehicle_type_id":"4","last_reported":1742116119,"current_range_meters":12800,"station_id":"ce4bgvp2rcd13ifvqcu0","pricing_plan_id":"cebpf4jnsgd1na2vs0mg"},{"bike_id":"a3c138c2-894e-4c02-8baf-1c116ec8abf4","system_id":"levelo_inurba_marseille","lat":43.32364,"lon":5.38877,"is_reserved":false,"is_disabled":false,"rental_uris":{"android":"levelo://app?vid=a3c138c2-894e-4c02-8baf-1c116ec8abf4","ios":"levelo://app?vid=a3c138c2-894e-4c02-8baf-1c116ec8abf4"},"vehicle_type_id":"4","last_reported":1742116119,"current_range_meters":12800,"station_id":"ce4bhqp2rcd13ifvqhog","pricing_plan_id":"cebpf4jnsgd1na2vs0mg"},{"bike_id":"9390d6a8-c9ea-41fe-8da0-48e992b63d01","system_id":"levelo_inurba_marseille","lat":43.24654,"lon":5.38161,"is_reserved":false,"is_disabled":false,"rental_uris":{"android":"levelo://app?vid=9390d6a8-c9ea-41fe-8da0-48e992b63d01","ios":"levelo://app?vid=9390d6a8-c9ea-41fe-8da0-48e992b63d01"},"vehicle_type_id":"4","last_reported":1742116119,"current_range_meters":13600,"station_id":"ce4bhih2rcd13ifvqfr0","pricing_plan_id":"cebpf4jnsgd1na2vs0mg"},{"bike_id":"ce157c99-2b38-44c1-b6a5-db708ae225d5","system_id":"levelo_inurba_marseille","lat":43.24074,"lon":5.37745,"is_reserved":false,"is_disabled":false,"rental_uris":{"android":"levelo://app?vid=ce157c99-2b38-44c1-b6a5-db708ae225d5","ios":"levelo://app?vid=ce157c99-2b38-44c1-b6a5-db708ae225d5"},"vehicle_type_id":"4","last_reported":1742116119,"current_range_meters":13600,"station_id":"ce4bhnp2rcd13ifvqgvg","pricing_plan_id":"cebpf4jnsgd1na2vs0mg"},{"bike_id":"36e1642e-edd0-429c-be2d-73fbfbc38ad6","system_id":"levelo_inurba_marseille","lat":43.29776,"lon":5.37093,"is_reserved":false,"is_disabled":false,"rental_uris":{"android":"levelo://app?vid=36e1642e-edd0-429c-be2d-73fbfbc38ad6","ios":"levelo://app?vid=36e1642e-edd0-429c-be2d-73fbfbc38ad6"},"vehicle_type_id":"4","last_reported":1742116119,"current_range_meters":13600,"station_id":"ce4bgop2rcd13ifvqc1g","pricing_plan_id":"cebpf4jnsgd1na2vs0mg"},{"bike_id":"0a29861b-acb0-4faa-b60d-3bd5d595a3fa","system_id":"levelo_inurba_marseille","lat":43.23965,"lon":5.36628,"is_reserved":false,"is_disabled":false,"rental_uris":{"android":"levelo://app?vid=0a29861b-acb0-4faa-b60d-3bd5d595a3fa","ios":"levelo://app?vid=0a29861b-acb0-4faa-b60d-3bd5d595a3fa"},"vehicle_type_id":"4","last_reported":1742116119,"current_range_meters":13600,"station_id":"ce4bhi12rcd13ifvqfp0","pricing_plan_id":"cebpf4jnsgd1na2vs0mg"},{"bike_id":"760b38d2-79b4-4c3c-b4bb-02586e46e837","system_id":"levelo_inurba_marseille","lat":43.30799,"lon":5.381604,"is_reserved":false,"is_disabled":true,"rental_uris":{"android":"levelo://app?vid=760b38d2-79b4-4c3c-b4bb-02586e46e837","ios":"levelo://app?vid=760b38d2-79b4-4c3c-b4bb-02586e46e837"},"vehicle_type_id":"4","last_reported":1742116119,"current_range_meters":13600,"station_id":"ce4bgt12rcd13ifvqce0","pricing_plan_id":"cebpf4jnsgd1na2vs0mg"},{"bike_id":"f2a391a3-d18b-462d-ab42-b7c2223bf635","system_id":"levelo_inurba_marseille","lat":43.2586,"lon":5.39909,"is_reserved":false,"is_disabled":false,"rental_uris":{"android":"levelo://app?vid=f2a391a3-d18b-462d-ab42-b7c2223bf635","ios":"levelo://app?vid=f2a391a3-d18b-462d-ab42-b7c2223bf635"},"vehicle_type_id":"4","last_reported":1742116119,"current_range_meters":14000,"station_id":"ce4bhl92rcd13ifvqghg","pricing_plan_id":"cebpf4jnsgd1na2vs0mg"},{"bike_id":"b2d136d5-387f-4e3b-a020-87bcc8a0491c","system_id":"levelo_inurba_marseille","lat":43.28487,"lon":5.38417,"is_reserved":false,"is_disabled":false,"rental_uris":{"android":"levelo://app?vid=b2d136d5-387f-4e3b-a020-87bcc8a0491c","ios":"levelo://app?vid=b2d136d5-387f-4e3b-a020-87bcc8a0491c"},"vehicle_type_id":"4","last_reported":1742116119,"current_range_meters":14000,"station_id":"ce4bh512rcd13ifvqe3g","pricing_plan_id":"cebpf4jnsgd1na2vs0mg"},{"bike_id":"d6cd0df4-ca0d-407c-ac60-8420479f0dd1","system_id":"levelo_inurba_marseille","lat":43.23058,"lon":5.3549,"is_reserved":false,"is_disabled":false,"rental_uris":{"android":"levelo://app?vid=d6cd0df4-ca0d-407c-ac60-8420479f0dd1","ios":"levelo://app?vid=d6cd0df4-ca0d-407c-ac60-8420479f0dd1"},"vehicle_type_id":"4","last_reported":1742116119,"current_range_meters":14000,"station_id":"cpo3342slgdg3j2ifvpg","pricing_plan_id":"cebpf4jnsgd1na2vs0mg"},{"bike_id":"d2985c0a-fa31-4910-b118-5302c731cdaa","system_id":"levelo_inurba_marseille","lat":43.28148,"lon":5.42646,"is_reserved":false,"is_disabled":false,"rental_uris":{"android":"levelo://app?vid=d2985c0a-fa31-4910-b118-5302c731cdaa","ios":"levelo://app?vid=d2985c0a-fa31-4910-b118-5302c731cdaa"},"vehicle_type_id":"4","last_reported":1742116119,"current_range_meters":14000,"station_id":"ce4bhnh2rcd13ifvqgug","pricing_plan_id":"cebpf4jnsgd1na2vs0mg"},{"bike_id":"6f72be03-cc79-473e-ac41-456579e85cb7","system_id":"levelo_inurba_marseille","lat":43.27379,"lon":5.36264,"is_reserved":false,"is_disabled":true,"rental_uris":{"android":"levelo://app?vid=6f72be03-cc79-473e-ac41-456579e85cb7","ios":"levelo://app?vid=6f72be03-cc79-473e-ac41-456579e85cb7"},"vehicle_type_id":"4","last_reported":1742116119,"current_range_meters":14000,"station_id":"ce4bhbh2rcd13ifvqeo0","pricing_plan_id":"cebpf4jnsgd1na2vs0mg"},{"bike_id":"502a3b3e-8957-45c1-a4dd-1cb7cf5ee2e2","system_id":"levelo_inurba_marseille","lat":43.32115,"lon":5.36775,"is_reserved":false,"is_disabled":false,"rental_uris":{"android":"levelo://app?vid=502a3b3e-8957-45c1-a4dd-1cb7cf5ee2e2","ios":"levelo://app?vid=502a3b3e-8957-45c1-a4dd-1cb7cf5ee2e2"},"vehicle_type_id":"4","last_reported":1742116119,"current_range_meters":14000,"station_id":"ce4bhrh2rcd13ifvqhug","pricing_plan_id":"cebpf4jnsgd1na2vs0mg"},{"bike_id":"8d7e9a63-44d9-4011-84d8-c22f978e699b","system_id":"levelo_inurba_marseille","lat":43.2862,"lon":5.35109,"is_reserved":false,"is_disabled":false,"rental_uris":{"android":"levelo://app?vid=8d7e9a63-44d9-4011-84d8-c22f978e699b","ios":"levelo://app?vid=8d7e9a63-44d9-4011-84d8-c22f978e699b"},"vehicle_type_id":"4","last_reported":1742116119,"current_range_meters":14000,"station_id":"ce4bhch2rcd13ifvqeug","pricing_plan_id":"cebpf4jnsgd1na2vs0mg"},{"bike_id":"3520f3bb-4528-4ad1-809d-2a8fd5bfa089","system_id":"levelo_inurba_marseille","lat":43.266817,"lon":5.38268,"is_reserved":false,"is_disabled":false,"rental_uris":{"android":"levelo://app?vid=3520f3bb-4528-4ad1-809d-2a8fd5bfa089","ios":"levelo://app?vid=3520f3bb-4528-4ad1-809d-2a8fd5bfa089"},"vehicle_type_id":"4","last_reported":1742116119,"current_range_meters":14000,"station_id":"ce4bhg92rcd13ifvqf90","pricing_plan_id":"cebpf4jnsgd1na2vs0mg"},{"bike_id":"ea3faa2e-2727-4cd3-a354-57574da4893b","system_id":"levelo_inurba_marseille","lat":43.24163,"lon":5.36397,"is_reserved":false,"is_disabled":false,"rental_uris":{"android":"levelo://app?vid=ea3faa2e-2727-4cd3-a354-57574da4893b","ios":"levelo://app?vid=ea3faa2e-2727-4cd3-a354-57574da4893b"},"vehicle_type_id":"4","last_reported":1742116119,"current_range_meters":14000,"station_id":"cpo36qri1sfpv3e86is0","pricing_plan_id":"cebpf4jnsgd1na2vs0mg"},{"bike_id":"b9839550-075a-4436-8cfa-be9284e9cc6a","system_id":"levelo_inurba_marseille","lat":43.29208,"lon":5.36063,"is_reserved":false,"is_disabled":false,"rental_uris":{"android":"levelo://app?vid=b9839550-075a-4436-8cfa-be9284e9cc6a","ios":"levelo://app?vid=b9839550-075a-4436-8cfa-be9284e9cc6a"},"vehicle_type_id":"4","last_reported":1742116119,"current_range_meters":14000,"station_id":"ce4bhbh2rcd13ifvqeqg","pricing_plan_id":"cebpf4jnsgd1na2vs0mg"},{"bike_id":"e39aff96-0142-46d0-807b-703830dfcf78","system_id":"levelo_inurba_marseille","lat":43.286136,"lon":5.35108,"is_reserved":false,"is_disabled":true,"rental_uris":{"android":"levelo://app?vid=e39aff96-0142-46d0-807b-703830dfcf78","ios":"levelo://app?vid=e39aff96-0142-46d0-807b-703830dfcf78"},"vehicle_type_id":"4","last_reported":1742116119,"current_range_meters":14000,"station_id":"","pricing_plan_id":"cebpf4jnsgd1na2vs0mg"},{"bike_id":"0076055d-d753-4bc1-aedf-865b849f632f","system_id":"levelo_inurba_marseille","lat":43.29005,"lon":5.35608,"is_reserved":false,"is_disabled":false,"rental_uris":{"android":"levelo://app?vid=0076055d-d753-4bc1-aedf-865b849f632f","ios":"levelo://app?vid=0076055d-d753-4bc1-aedf-865b849f632f"},"vehicle_type_id":"4","last_reported":1742116119,"current_range_meters":14000,"station_id":"ce4bhb92rcd13ifvqen0","pricing_plan_id":"cebpf4jnsgd1na2vs0mg"},{"bike_id":"c00a873d-04ca-4e2b-a527-976e80ba0116","system_id":"levelo_inurba_marseille","lat":43.30599,"lon":5.39367,"is_reserved":false,"is_disabled":false,"rental_uris":{"android":"levelo://app?vid=c00a873d-04ca-4e2b-a527-976e80ba0116","ios":"levelo://app?vid=c00a873d-04ca-4e2b-a527-976e80ba0116"},"vehicle_type_id":"4","last_reported":1742116119,"current_range_meters":14000,"station_id":"ce4bh0p2rcd13ifvqd80","pricing_plan_id":"cebpf4jnsgd1na2vs0mg"},{"bike_id":"41d856e8-014d-42b4-85e9-2a0a980f469f","system_id":"levelo_inurba_marseille","lat":43.232,"lon":5.35564,"is_reserved":false,"is_disabled":false,"rental_uris":{"android":"levelo://app?vid=41d856e8-014d-42b4-85e9-2a0a980f469f","ios":"levelo://app?vid=41d856e8-014d-42b4-85e9-2a0a980f469f"},"vehicle_type_id":"4","last_reported":1742116119,"current_range_meters":14400,"station_id":"ce4bhu92rcd13ifvqi70","pricing_plan_id":"cebpf4jnsgd1na2vs0mg"},{"bike_id":"98a46a80-a6af-4b38-94b9-45b1c4510d91","system_id":"levelo_inurba_marseille","lat":43.29204,"lon":5.39321,"is_reserved":false,"is_disabled":false,"rental_uris":{"android":"levelo://app?vid=98a46a80-a6af-4b38-94b9-45b1c4510d91","ios":"levelo://app?vid=98a46a80-a6af-4b38-94b9-45b1c4510d91"},"vehicle_type_id":"4","last_reported":1742116119,"current_range_meters":13600,"station_id":"ce4bh192rcd13ifvqdd0","pricing_plan_id":"cebpf4jnsgd1na2vs0mg"},{"bike_id":"7fdaba83-9e71-4d79-962d-8e9bcb4ba61b","system_id":"levelo_inurba_marseille","lat":43.23188,"lon":5.3556,"is_reserved":false,"is_disabled":false,"rental_uris":{"android":"levelo://app?vid=7fdaba83-9e71-4d79-962d-8e9bcb4ba61b","ios":"levelo://app?vid=7fdaba83-9e71-4d79-962d-8e9bcb4ba61b"},"vehicle_type_id":"4","last_reported":1742116119,"current_range_meters":14400,"station_id":"ce4bhu92rcd13ifvqi70","pricing_plan_id":"cebpf4jnsgd1na2vs0mg"},{"bike_id":"557bac85-8d64-458b-9a44-6fde55b3f074","system_id":"levelo_inurba_marseille","lat":43.2572,"lon":5.41111,"is_reserved":false,"is_disabled":false,"rental_uris":{"android":"levelo://app?vid=557bac85-8d64-458b-9a44-6fde55b3f074","ios":"levelo://app?vid=557bac85-8d64-458b-9a44-6fde55b3f074"},"vehicle_type_id":"4","last_reported":1742116119,"current_range_meters":14400,"station_id":"ce4bhkp2rcd13ifvqgd0","pricing_plan_id":"cebpf4jnsgd1na2vs0mg"},{"bike_id":"c0d14a55-0953-4c59-b0cd-c76953277ffe","system_id":"levelo_inurba_marseille","lat":43.2973,"lon":5.44762,"is_reserved":false,"is_disabled":false,"rental_uris":{"android":"levelo://app?vid=c0d14a55-0953-4c59-b0cd-c76953277ffe","ios":"levelo://app?vid=c0d14a55-0953-4c59-b0cd-c76953277ffe"},"vehicle_type_id":"4","last_reported":1742116119,"current_range_meters":14400,"station_id":"","pricing_plan_id":"cebpf4jnsgd1na2vs0mg"},{"bike_id":"15114da5-30fb-4fb1-9632-866a9f4be863","system_id":"levelo_inurba_marseille","lat":43.29652,"lon":5.36535,"is_reserved":false,"is_disabled":false,"rental_uris":{"android":"levelo://app?vid=15114da5-30fb-4fb1-9632-866a9f4be863","ios":"levelo://app?vid=15114da5-30fb-4fb1-9632-866a9f4be863"},"vehicle_type_id":"4","last_reported":1742116119,"current_range_meters":14400,"station_id":"","pricing_plan_id":"cebpf4jnsgd1na2vs0mg"},{"bike_id":"6d7c8e24-3a81-4b42-b44a-b110aa3a0970","system_id":"levelo_inurba_marseille","lat":43.29293,"lon":5.36987,"is_reserved":false,"is_disabled":false,"rental_uris":{"android":"levelo://app?vid=6d7c8e24-3a81-4b42-b44a-b110aa3a0970","ios":"levelo://app?vid=6d7c8e24-3a81-4b42-b44a-b110aa3a0970"},"vehicle_type_id":"4","last_reported":1742116119,"current_range_meters":14400,"station_id":"","pricing_plan_id":"cebpf4jnsgd1na2vs0mg"},{"bike_id":"890137c8-760d-4109-a535-793958fd79ef","system_id":"levelo_inurba_marseille","lat":43.27998,"lon":5.40017,"is_reserved":false,"is_disabled":false,"rental_uris":{"android":"levelo://app?vid=890137c8-760d-4109-a535-793958fd79ef","ios":"levelo://app?vid=890137c8-760d-4109-a535-793958fd79ef"},"vehicle_type_id":"4","last_reported":1742116119,"current_range_meters":14400,"station_id":"ce4bho92rcd13ifvqh4g","pricing_plan_id":"cebpf4jnsgd1na2vs0mg"},{"bike_id":"36b79300-4a4f-4220-aaa9-9aa8af40f428","system_id":"levelo_inurba_marseille","lat":43.27911,"lon":5.396,"is_reserved":false,"is_disabled":false,"rental_uris":{"android":"levelo://app?vid=36b79300-4a4f-4220-aaa9-9aa8af40f428","ios":"levelo://app?vid=36b79300-4a4f-4220-aaa9-9aa8af40f428"},"vehicle_type_id":"4","last_reported":1742116119,"current_range_meters":14400,"station_id":"ce4bhf92rcd13ifvqf40","pricing_plan_id":"cebpf4jnsgd1na2vs0mg"},{"bike_id":"cff46811-0904-4bbd-9305-4517b253cc71","system_id":"levelo_inurba_marseille","lat":43.28669,"lon":5.36354,"is_reserved":false,"is_disabled":false,"rental_uris":{"android":"levelo://app?vid=cff46811-0904-4bbd-9305-4517b253cc71","ios":"levelo://app?vid=cff46811-0904-4bbd-9305-4517b253cc71"},"vehicle_type_id":"4","last_reported":1742116119,"current_range_meters":14800,"station_id":"ce4bhah2rcd13ifvqej0","pricing_plan_id":"cebpf4jnsgd1na2vs0mg"},{"bike_id":"f7326369-a1b6-41ae-9437-d4c79a03fb94","system_id":"levelo_inurba_marseille","lat":43.28712,"lon":5.37382,"is_reserved":false,"is_disabled":false,"rental_uris":{"android":"levelo://app?vid=f7326369-a1b6-41ae-9437-d4c79a03fb94","ios":"levelo://app?vid=f7326369-a1b6-41ae-9437-d4c79a03fb94"},"vehicle_type_id":"4","last_reported":1742116119,"current_range_meters":14800,"station_id":"ce4bh3p2rcd13ifvqdq0","pricing_plan_id":"cebpf4jnsgd1na2vs0mg"},{"bike_id":"13e278b3-c9cb-4550-ad8b-8b4c511558ae","system_id":"levelo_inurba_marseille","lat":43.27463,"lon":5.40889,"is_reserved":false,"is_disabled":false,"rental_uris":{"android":"levelo://app?vid=13e278b3-c9cb-4550-ad8b-8b4c511558ae","ios":"levelo://app?vid=13e278b3-c9cb-4550-ad8b-8b4c511558ae"},"vehicle_type_id":"4","last_reported":1742116119,"current_range_meters":14800,"station_id":"","pricing_plan_id":"cebpf4jnsgd1na2vs0mg"},{"bike_id":"db819791-27c1-48de-91ad-79208088cf91","system_id":"levelo_inurba_marseille","lat":43.23193,"lon":5.39981,"is_reserved":false,"is_disabled":false,"rental_uris":{"android":"levelo://app?vid=db819791-27c1-48de-91ad-79208088cf91","ios":"levelo://app?vid=db819791-27c1-48de-91ad-79208088cf91"},"vehicle_type_id":"4","last_reported":1742116119,"current_range_meters":14800,"station_id":"ce4bhn12rcd13ifvqgqg","pricing_plan_id":"cebpf4jnsgd1na2vs0mg"},{"bike_id":"ef73c0a8-9f79-486c-afc3-8c0a9b5935ab","system_id":"levelo_inurba_marseille","lat":43.29546,"lon":5.42309,"is_reserved":false,"is_disabled":false,"rental_uris":{"android":"levelo://app?vid=ef73c0a8-9f79-486c-afc3-8c0a9b5935ab","ios":"levelo://app?vid=ef73c0a8-9f79-486c-afc3-8c0a9b5935ab"},"vehicle_type_id":"4","last_reported":1742116119,"current_range_meters":14800,"station_id":"ce4bhph2rcd13ifvqhdg","pricing_plan_id":"cebpf4jnsgd1na2vs0mg"},{"bike_id":"304710f8-e8e8-42a5-9c8b-b62809d674b1","system_id":"levelo_inurba_marseille","lat":43.24387,"lon":5.37058,"is_reserved":false,"is_disabled":false,"rental_uris":{"android":"levelo://app?vid=304710f8-e8e8-42a5-9c8b-b62809d674b1","ios":"levelo://app?vid=304710f8-e8e8-42a5-9c8b-b62809d674b1"},"vehicle_type_id":"4","last_reported":1742116119,"current_range_meters":14800,"station_id":"ce4bhhh2rcd13ifvqfk0","pricing_plan_id":"cebpf4jnsgd1na2vs0mg"},{"bike_id":"148966dd-bd16-49b1-89ad-ee45859972d4","system_id":"levelo_inurba_marseille","lat":43.278139,"lon":5.407182,"is_reserved":false,"is_disabled":false,"rental_uris":{"android":"levelo://app?vid=148966dd-bd16-49b1-89ad-ee45859972d4","ios":"levelo://app?vid=148966dd-bd16-49b1-89ad-ee45859972d4"},"vehicle_type_id":"4","last_reported":1742116119,"current_range_meters":15200,"station_id":"ce4bhnh2rcd13ifvqgtg","pricing_plan_id":"cebpf4jnsgd1na2vs0mg"},{"bike_id":"610e777a-7073-477b-8f05-e48f73b2b175","system_id":"levelo_inurba_marseille","lat":43.2767,"lon":5.38926,"is_reserved":false,"is_disabled":false,"rental_uris":{"android":"levelo://app?vid=610e777a-7073-477b-8f05-e48f73b2b175","ios":"levelo://app?vid=610e777a-7073-477b-8f05-e48f73b2b175"},