{"last_updated":1743242928,"ttl":60,"version":"2.2","data":{"bikes":[{"bike_id":"bf6d3711-68f5-4721-8ea8-2d0601182f38","system_id":"levelo_inurba_marseille","lat":43.33746,"lon":5.3745,"is_reserved":false,"is_disabled":true,"rental_uris":{"android":"levelo://app?vid=bf6d3711-68f5-4721-8ea8-2d0601182f38","ios":"levelo://app?vid=bf6d3711-68f5-4721-8ea8-2d0601182f38"},"vehicle_type_id":"4","last_reported":1743242928,"current_range_meters":0,"station_id":"","pricing_plan_id":"cebpf4jnsgd1na2vs0mg"},{"bike_id":"fc8e8371-f4e9-4721-bc19-563801e389dc","system_id":"levelo_inurba_marseille","lat":43.337444,"lon":5.374475,"is_reserved":false,"is_disabled":false,"rental_uris":{"android":"levelo://app?vid=fc8e8371-f4e9-4721-bc19-563801e389dc","ios":"levelo://app?vid=fc8e8371-f4e9-4721-bc19-563801e389dc"},"vehicle_type_id":"4","last_reported":1743242928,"current_range_meters":2800,"station_id":"","pricing_plan_id":"cebpf4jnsgd1na2vs0mg"},{"bike_id":"cd14bf6a-3ed6-4607-939b-0b1c91857157","system_id":"levelo_inurba_marseille","lat":43.24892,"lon":5.40562,"is_reserved":false,"is_disabled":true,"rental_uris":{"android":"levelo://app?vid=cd14bf6a-3ed6-4607-939b-0b1c91857157","ios":"levelo://app?vid=cd14bf6a-3ed6-4607-939b-0b1c91857157"},"vehicle_type_id":"4","last_reported":1743242928,"current_range_meters":0,"station_id":"","pricing_plan_id":"cebpf4jnsgd1na2vs0mg"},{"bike_id":"be6725c0-5c09-4663-99b8-0b7371d27e21","system_id":"levelo_inurba_marseille","lat":43.25484,"lon":5.37513,"is_reserved":false,"is_disabled":true,"rental_uris":{"android":"levelo://app?vid=be6725c0-5c09-4663-99b8-0b7371d27e21","ios":"levelo://app?vid=be6725c0-5c09-4663-99b8-0b7371d27e21"},"vehicle_type_id":"4","last_reported":1743242928,"current_range_meters":0,"station_id":"","pricing_plan_id":"cebpf4jnsgd1na2vs0mg"},{"bike_id":"1a5f9db6-d475-4baf-98d5-e001a4649ec4","system_id":"levelo_inurba_marseille","lat":43.32587,"lon":5.42953,"is_reserved":false,"is_disabled":true,"rental_uris":{"android":"levelo://app?vid=1a5f9db6-d475-4baf-98d5-e001a4649ec4","ios":"levelo://app?vid=1a5f9db6-d475-4baf-98d5-e001a4649ec4"},"vehicle_type_id":"4","last_reported":1743242928,"current_range_meters":0,"station_id":"","pricing_plan_id":"cebpf4jnsgd1na2vs0mg"},{"bike_id":"515faa86-fa39-46ff-930a-2fe51eead6f6","system_id":"levelo_inurba_marseille","lat":43.26623,"lon":5.39358,"is_reserved":false,"is_disabled":true,"rental_uris":{"android":"levelo://app?vid=515faa86-fa39-46ff-930a-2fe51eead6f6","ios":"levelo://app?vid=515faa86-fa39-46ff-930a-2fe51eead6f6"},"vehicle_type_id":"4","last_reported":1743242928,"current_range_meters":0,"station_id":"","pricing_plan_id":"cebpf4jnsgd1na2vs0mg"},{"bike_id":"a3237d0d-0d82-4ae3-b11c-5f29c03b78b2","system_id":"levelo_inurba_marseille","lat":43.2692,"lon":5.39346,"is_reserved":false,"is_disabled":true,"rental_uris":{"android":"levelo://app?vid=a3237d0d-0d82-4ae3-b11c-5f29c03b78b2","ios":"levelo://app?vid=a3237d0d-0d82-4ae3-b11c-5f29c03b78b2"},"vehicle_type_id":"4","last_reported":1743242928,"current_range_meters":0,"station_id":"","pricing_plan_id":"cebpf4jnsgd1na2vs0mg"},{"bike_id":"72e5db2b-9562-475e-acb8-d0f54f5a254a","system_id":"levelo_inurba_marseille","lat":43.2609,"lon":5.4155,"is_reserved":false,"is_disabled":true,"rental_uris":{"android":"levelo://app?vid=72e5db2b-9562-475e-acb8-d0f54f5a254a","ios":"levelo://app?vid=72e5db2b-9562-475e-acb8-d0f54f5a254a"},"vehicle_type_id":"4","last_reported":1743242928,"current_range_meters":0,"station_id":"","pricing_plan_id":"cebpf4jnsgd1na2vs0mg"},{"bike_id":"3b6642fb-9a62-434c-9a78-b0bd182fc628","system_id":"levelo_inurba_marseille","lat":43.27898,"lon":5.41293,"is_reserved":false,"is_disabled":true,"rental_uris":{"android":"levelo://app?vid=3b6642fb-9a62-434c-9a78-b0bd182fc628","ios":"levelo://app?vid=3b6642fb-9a62-434c-9a78-b0bd182fc628"},"vehicle_type_id":"4","last_reported":1743242928,"current_range_meters":0,"station_id":"","pricing_plan_id":"cebpf4jnsgd1na2vs0mg"},{"bike_id":"6671e489-a811-41a6-9fb9-08aafb887727","system_id":"levelo_inurba_marseille","lat":43.31949,"lon":5.39409,"is_reserved":false,"is_disabled":true,"rental_uris":{"android":"levelo://app?vid=6671e489-a811-41a6-9fb9-08aafb887727","ios":"levelo://app?vid=6671e489-a811-41a6-9fb9-08aafb887727"},"vehicle_type_id":"4","last_reported":1743242928,"current_range_meters":0,"station_id":"","pricing_plan_id":"cebpf4jnsgd1na2vs0mg"},{"bike_id":"2e7596d5-d93f-4e7e-b148-ac1ace868244","system_id":"levelo_inurba_marseille","lat":43.27377,"lon":5.36255,"is_reserved":false,"is_disabled":true,"rental_uris":{"android":"levelo://app?vid=2e7596d5-d93f-4e7e-b148-ac1ace868244","ios":"levelo://app?vid=2e7596d5-d93f-4e7e-b148-ac1ace868244"},"vehicle_type_id":"4","last_reported":1743242928,"current_range_meters":0,"station_id":"ce4bhbh2rcd13ifvqeo0","pricing_plan_id":"cebpf4jnsgd1na2vs0mg"},{"bike_id":"277deffb-77df-4cbc-82c1-5a7b3c504e75","system_id":"levelo_inurba_marseille","lat":43.2621,"lon":5.37444,"is_reserved":false,"is_disabled":true,"rental_uris":{"android":"levelo://app?vid=277deffb-77df-4cbc-82c1-5a7b3c504e75","ios":"levelo://app?vid=277deffb-77df-4cbc-82c1-5a7b3c504e75"},"vehicle_type_id":"4","last_reported":1743242928,"current_range_meters":0,"station_id":"ce4bhgp2rcd13ifvqfc0","pricing_plan_id":"cebpf4jnsgd1na2vs0mg"},{"bike_id":"16672b83-6dbd-4907-a353-cebfb267b141","system_id":"levelo_inurba_marseille","lat":43.26199,"lon":5.37447,"is_reserved":false,"is_disabled":true,"rental_uris":{"android":"levelo://app?vid=16672b83-6dbd-4907-a353-cebfb267b141","ios":"levelo://app?vid=16672b83-6dbd-4907-a353-cebfb267b141"},"vehicle_type_id":"4","last_reported":1743242928,"current_range_meters":0,"station_id":"ce4bhgp2rcd13ifvqfc0","pricing_plan_id":"cebpf4jnsgd1na2vs0mg"},{"bike_id":"0804e0fb-d324-4431-b697-0403ea19f8ef","system_id":"levelo_inurba_marseille","lat":43.26201,"lon":5.37455,"is_reserved":false,"is_disabled":true,"rental_uris":{"android":"levelo://app?vid=0804e0fb-d324-4431-b697-0403ea19f8ef","ios":"levelo://app?vid=0804e0fb-d324-4431-b697-0403ea19f8ef"},"vehicle_type_id":"4","last_reported":1743242928,"current_range_meters":0,"station_id":"ce4bhgp2rcd13ifvqfc0","pricing_plan_id":"cebpf4jnsgd1na2vs0mg"},{"bike_id":"97d44e06-fac4-4e45-a835-87e19af6e21f","system_id":"levelo_inurba_marseille","lat":43.26949,"lon":5.38624,"is_reserved":false,"is_disabled":true,"rental_uris":{"android":"levelo://app?vid=97d44e06-fac4-4e45-a835-87e19af6e21f","ios":"levelo://app?vid=97d44e06-fac4-4e45-a835-87e19af6e21f"},"vehicle_type_id":"4","last_reported":1743242928,"current_range_meters":0,"station_id":"ce4bhh92rcd13ifvqfh0","pricing_plan_id":"cebpf4jnsgd1na2vs0mg"},{"bike_id":"f62275dc-78ae-4ecb-9b7e-533c9fa6b02c","system_id":"levelo_inurba_marseille","lat":43.28078,"lon":5.39658,"is_reserved":false,"is_disabled":true,"rental_uris":{"android":"levelo://app?vid=f62275dc-78ae-4ecb-9b7e-533c9fa6b02c","ios":"levelo://app?vid=f62275dc-78ae-4ecb-9b7e-533c9fa6b02c"},"vehicle_type_id":"4","last_reported":1743242928,"current_range_meters":0,"station_id":"ce4bho12rcd13ifvqh2g","pricing_plan_id":"cebpf4jnsgd1na2vs0mg"},{"bike_id":"bfe670a5-c0ca-4262-91be-8ad275c6539b","system_id":"levelo_inurba_marseille","lat":43.33717,"lon":5.3918,"is_reserved":false,"is_disabled":true,"rental_uris":{"android":"levelo://app?vid=bfe670a5-c0ca-4262-91be-8ad275c6539b","ios":"levelo://app?vid=bfe670a5-c0ca-4262-91be-8ad275c6539b"},"vehicle_type_id":"4","last_reported":1743242928,"current_range_meters":0,"station_id":"ce4bhr92rcd13ifvqhsg","pricing_plan_id":"cebpf4jnsgd1na2vs0mg"},{"bike_id":"1d5c58b4-0ef7-41aa-bfd1-d173521cae16","system_id":"levelo_inurba_marseille","lat":43.24167,"lon":5.36395,"is_reserved":false,"is_disabled":true,"rental_uris":{"android":"levelo://app?vid=1d5c58b4-0ef7-41aa-bfd1-d173521cae16","ios":"levelo://app?vid=1d5c58b4-0ef7-41aa-bfd1-d173521cae16"},"vehicle_type_id":"4","last_reported":1743242928,"current_range_meters":0,"station_id":"cpo36qri1sfpv3e86is0","pricing_plan_id":"cebpf4jnsgd1na2vs0mg"},{"bike_id":"78341c06-24be-4580-9828-2503dfb938de","system_id":"levelo_inurba_marseille","lat":43.3153,"lon":5.3731,"is_reserved":false,"is_disabled":true,"rental_uris":{"android":"levelo://app?vid=78341c06-24be-4580-9828-2503dfb938de","ios":"levelo://app?vid=78341c06-24be-4580-9828-2503dfb938de"},"vehicle_type_id":"4","last_reported":1743242928,"current_range_meters":400,"station_id":"ce4bgt12rcd13ifvqcd0","pricing_plan_id":"cebpf4jnsgd1na2vs0mg"},{"bike_id":"5e722444-0918-434d-ae8e-3fa95ef9a0a9","system_id":"levelo_inurba_marseille","lat":43.27929,"lon":5.41441,"is_reserved":false,"is_disabled":true,"rental_uris":{"android":"levelo://app?vid=5e722444-0918-434d-ae8e-3fa95ef9a0a9","ios":"levelo://app?vid=5e722444-0918-434d-ae8e-3fa95ef9a0a9"},"vehicle_type_id":"4","last_reported":1743242928,"current_range_meters":800,"station_id":"","pricing_plan_id":"cebpf4jnsgd1na2vs0mg"},{"bike_id":"7b293b81-0140-423f-b0ba-30ede8974081","system_id":"levelo_inurba_marseille","lat":43.24543,"lon":5.39528,"is_reserved":false,"is_disabled":true,"rental_uris":{"android":"levelo://app?vid=7b293b81-0140-423f-b0ba-30ede8974081","ios":"levelo://app?vid=7b293b81-0140-423f-b0ba-30ede8974081"},"vehicle_type_id":"4","last_reported":1743242928,"current_range_meters":800,"station_id":"ce4bhlp2rcd13ifvqgjg","pricing_plan_id":"cebpf4jnsgd1na2vs0mg"},{"bike_id":"e0bd8552-eaef-4342-bdcd-1df755c00099","system_id":"levelo_inurba_marseille","lat":43.26195,"lon":5.42072,"is_reserved":false,"is_disabled":true,"rental_uris":{"android":"levelo://app?vid=e0bd8552-eaef-4342-bdcd-1df755c00099","ios":"levelo://app?vid=e0bd8552-eaef-4342-bdcd-1df755c00099"},"vehicle_type_id":"4","last_reported":1743242928,"current_range_meters":1200,"station_id":"","pricing_plan_id":"cebpf4jnsgd1na2vs0mg"},{"bike_id":"4035b94c-cde3-45e1-a2f2-dddbc5286c43","system_id":"levelo_inurba_marseille","lat":43.27179,"lon":5.39162,"is_reserved":false,"is_disabled":true,"rental_uris":{"android":"levelo://app?vid=4035b94c-cde3-45e1-a2f2-dddbc5286c43","ios":"levelo://app?vid=4035b94c-cde3-45e1-a2f2-dddbc5286c43"},"vehicle_type_id":"4","last_reported":1743242928,"current_range_meters":1200,"station_id":"ce4bhhp2rcd13ifvqfm0","pricing_plan_id":"cebpf4jnsgd1na2vs0mg"},{"bike_id":"f46eea1f-108d-4507-b3e2-89b39c0d15e7","system_id":"levelo_inurba_marseille","lat":43.32338,"lon":5.40619,"is_reserved":false,"is_disabled":true,"rental_uris":{"android":"levelo://app?vid=f46eea1f-108d-4507-b3e2-89b39c0d15e7","ios":"levelo://app?vid=f46eea1f-108d-4507-b3e2-89b39c0d15e7"},"vehicle_type_id":"4","last_reported":1743242928,"current_range_meters":1200,"station_id":"ce4bhq92rcd13ifvqhjg","pricing_plan_id":"cebpf4jnsgd1na2vs0mg"},{"bike_id":"c0e0aa5f-f985-4f1a-a720-e5ac38ed6e35","system_id":"levelo_inurba_marseille","lat":43.30882,"lon":5.39665,"is_reserved":false,"is_disabled":true,"rental_uris":{"android":"levelo://app?vid=c0e0aa5f-f985-4f1a-a720-e5ac38ed6e35","ios":"levelo://app?vid=c0e0aa5f-f985-4f1a-a720-e5ac38ed6e35"},"vehicle_type_id":"4","last_reported":1743242928,"current_range_meters":1600,"station_id":"ce4bh012rcd13ifvqcv0","pricing_plan_id":"cebpf4jnsgd1na2vs0mg"},{"bike_id":"980ff761-ef4f-469b-8661-624f949ac9ec","system_id":"levelo_inurba_marseille","lat":43.25817,"lon":5.39429,"is_reserved":false,"is_disabled":true,"rental_uris":{"android":"levelo://app?vid=980ff761-ef4f-469b-8661-624f949ac9ec","ios":"levelo://app?vid=980ff761-ef4f-469b-8661-624f949ac9ec"},"vehicle_type_id":"4","last_reported":1743242928,"current_range_meters":1600,"station_id":"ce4bhip2rcd13ifvqft0","pricing_plan_id":"cebpf4jnsgd1na2vs0mg"},{"bike_id":"b58b8814-f8a9-47a2-a108-2a33cb7f4ddb","system_id":"levelo_inurba_marseille","lat":43.27989,"lon":5.41657,"is_reserved":false,"is_disabled":true,"rental_uris":{"android":"levelo://app?vid=b58b8814-f8a9-47a2-a108-2a33cb7f4ddb","ios":"levelo://app?vid=b58b8814-f8a9-47a2-a108-2a33cb7f4ddb"},"vehicle_type_id":"4","last_reported":1743242928,"current_range_meters":1600,"station_id":"ce4bho12rcd13ifvqh1g","pricing_plan_id":"cebpf4jnsgd1na2vs0mg"},{"bike_id":"2b61f995-89b7-45fa-9486-27b6cf87470d","system_id":"levelo_inurba_marseille","lat":43.2926,"lon":5.38455,"is_reserved":false,"is_disabled":true,"rental_uris":{"android":"levelo://app?vid=2b61f995-89b7-45fa-9486-27b6cf87470d","ios":"levelo://app?vid=2b61f995-89b7-45fa-9486-27b6cf87470d"},"vehicle_type_id":"4","last_reported":1743242928,"current_range_meters":2000,"station_id":"ce4bh692rcd13ifvqea0","pricing_plan_id":"cebpf4jnsgd1na2vs0mg"},{"bike_id":"14e18bf1-2825-4fad-944c-bd8cadf579ff","system_id":"levelo_inurba_marseille","lat":43.26577,"lon":5.37286,"is_reserved":false,"is_disabled":true,"rental_uris":{"android":"levelo://app?vid=14e18bf1-2825-4fad-944c-bd8cadf579ff","ios":"levelo://app?vid=14e18bf1-2825-4fad-944c-bd8cadf579ff"},"vehicle_type_id":"4","last_reported":1743242928,"current_range_meters":2000,"station_id":"ce4bhg12rcd13ifvqf70","pricing_plan_id":"cebpf4jnsgd1na2vs0mg"},{"bike_id":"c4f43026-a1a9-4e1f-b9af-56100a576e61","system_id":"levelo_inurba_marseille","lat":43.26029,"lon":5.37553,"is_reserved":false,"is_disabled":false,"rental_uris":{"android":"levelo://app?vid=c4f43026-a1a9-4e1f-b9af-56100a576e61","ios":"levelo://app?vid=c4f43026-a1a9-4e1f-b9af-56100a576e61"},"vehicle_type_id":"4","last_reported":1743242928,"current_range_meters":2800,"station_id":"ce4bhgh2rcd13ifvqfa0","pricing_plan_id":"cebpf4jnsgd1na2vs0mg"},{"bike_id":"71c3492d-a7db-46c9-9ae2-64043413803e","system_id":"levelo_inurba_marseille","lat":43.24078,"lon":5.37758,"is_reserved":false,"is_disabled":false,"rental_uris":{"android":"levelo://app?vid=71c3492d-a7db-46c9-9ae2-64043413803e","ios":"levelo://app?vid=71c3492d-a7db-46c9-9ae2-64043413803e"},"vehicle_type_id":"4","last_reported":1743242928,"current_range_meters":2800,"station_id":"ce4bhnp2rcd13ifvqgvg","pricing_plan_id":"cebpf4jnsgd1na2vs0mg"},{"bike_id":"ddb3e057-8a1c-4f4a-8056-17b5b845e0b9","system_id":"levelo_inurba_marseille","lat":43.280937,"lon":5.398714,"is_reserved":false,"is_disabled":false,"rental_uris":{"android":"levelo://app?vid=ddb3e057-8a1c-4f4a-8056-17b5b845e0b9","ios":"levelo://app?vid=ddb3e057-8a1c-4f4a-8056-17b5b845e0b9"},"vehicle_type_id":"4","last_reported":1743242928,"current_range_meters":3200,"station_id":"","pricing_plan_id":"cebpf4jnsgd1na2vs0mg"},{"bike_id":"8380d0df-6310-43ec-a335-b5d32981872e","system_id":"levelo_inurba_marseille","lat":43.31104,"lon":5.37756,"is_reserved":false,"is_disabled":false,"rental_uris":{"android":"levelo://app?vid=8380d0df-6310-43ec-a335-b5d32981872e","ios":"levelo://app?vid=8380d0df-6310-43ec-a335-b5d32981872e"},"vehicle_type_id":"4","last_reported":1743242928,"current_range_meters":3200,"station_id":"ce4bgt92rcd13ifvqcg0","pricing_plan_id":"cebpf4jnsgd1na2vs0mg"},{"bike_id":"b1d19474-2c86-4f83-9850-4b846195e907","system_id":"levelo_inurba_marseille","lat":43.26195,"lon":5.37452,"is_reserved":false,"is_disabled":false,"rental_uris":{"android":"levelo://app?vid=b1d19474-2c86-4f83-9850-4b846195e907","ios":"levelo://app?vid=b1d19474-2c86-4f83-9850-4b846195e907"},"vehicle_type_id":"4","last_reported":1743242928,"current_range_meters":3200,"station_id":"ce4bhgp2rcd13ifvqfc0","pricing_plan_id":"cebpf4jnsgd1na2vs0mg"},{"bike_id":"ec940620-2a09-4eae-aace-1a0a72b62180","system_id":"levelo_inurba_marseille","lat":43.30292,"lon":5.40087,"is_reserved":false,"is_disabled":false,"rental_uris":{"android":"levelo://app?vid=ec940620-2a09-4eae-aace-1a0a72b62180","ios":"levelo://app?vid=ec940620-2a09-4eae-aace-1a0a72b62180"},"vehicle_type_id":"4","last_reported":1743242928,"current_range_meters":3600,"station_id":"ce4bgvh2rcd13ifvqcs0","pricing_plan_id":"cebpf4jnsgd1na2vs0mg"},{"bike_id":"54ddc8ef-31ef-4265-a7aa-db2b7650b022","system_id":"levelo_inurba_marseille","lat":43.29299,"lon":5.40138,"is_reserved":false,"is_disabled":false,"rental_uris":{"android":"levelo://app?vid=54ddc8ef-31ef-4265-a7aa-db2b7650b022","ios":"levelo://app?vid=54ddc8ef-31ef-4265-a7aa-db2b7650b022"},"vehicle_type_id":"4","last_reported":1743242928,"current_range_meters":3600,"station_id":"ce4bh312rcd13ifvqdk0","pricing_plan_id":"cebpf4jnsgd1na2vs0mg"},{"bike_id":"5c45b865-aa62-4eb2-b90a-e3b937bfc4d8","system_id":"levelo_inurba_marseille","lat":43.28614,"lon":5.37062,"is_reserved":false,"is_disabled":false,"rental_uris":{"android":"levelo://app?vid=5c45b865-aa62-4eb2-b90a-e3b937bfc4d8","ios":"levelo://app?vid=5c45b865-aa62-4eb2-b90a-e3b937bfc4d8"},"vehicle_type_id":"4","last_reported":1743242928,"current_range_meters":3600,"station_id":"ce4bht12rcd13ifvqi60","pricing_plan_id":"cebpf4jnsgd1na2vs0mg"},{"bike_id":"0ac88cdf-dd3a-494f-aaa5-2b24d1ce393f","system_id":"levelo_inurba_marseille","lat":43.23192,"lon":5.35565,"is_reserved":false,"is_disabled":false,"rental_uris":{"android":"levelo://app?vid=0ac88cdf-dd3a-494f-aaa5-2b24d1ce393f","ios":"levelo://app?vid=0ac88cdf-dd3a-494f-aaa5-2b24d1ce393f"},"vehicle_type_id":"4","last_reported":1743242928,"current_range_meters":3600,"station_id":"ce4bhu92rcd13ifvqi70","pricing_plan_id":"cebpf4jnsgd1na2vs0mg"},{"bike_id":"0314c204-0395-46ca-8f42-9210183cf0f3","system_id":"levelo_inurba_marseille","lat":43.28606,"lon":5.35101,"is_reserved":false,"is_disabled":false,"rental_uris":{"android":"levelo://app?vid=0314c204-0395-46ca-8f42-9210183cf0f3","ios":"levelo://app?vid=0314c204-0395-46ca-8f42-9210183cf0f3"},"vehicle_type_id":"4","last_reported":1743242928,"current_range_meters":4000,"station_id":"ce4bhch2rcd13ifvqeug","pricing_plan_id":"cebpf4jnsgd1na2vs0mg"},{"bike_id":"961245ca-8d90-4d71-b735-61afea929100","system_id":"levelo_inurba_marseille","lat":43.24165,"lon":5.36425,"is_reserved":false,"is_disabled":false,"rental_uris":{"android":"levelo://app?vid=961245ca-8d90-4d71-b735-61afea929100","ios":"levelo://app?vid=961245ca-8d90-4d71-b735-61afea929100"},"vehicle_type_id":"4","last_reported":1743242928,"current_range_meters":4000,"station_id":"cpo36qri1sfpv3e86is0","pricing_plan_id":"cebpf4jnsgd1na2vs0mg"},{"bike_id":"850e9242-7704-4fc7-b0e6-d5ec59d44395","system_id":"levelo_inurba_marseille","lat":43.279383,"lon":5.387604,"is_reserved":false,"is_disabled":false,"rental_uris":{"android":"levelo://app?vid=850e9242-7704-4fc7-b0e6-d5ec59d44395","ios":"levelo://app?vid=850e9242-7704-4fc7-b0e6-d5ec59d44395"},"vehicle_type_id":"4","last_reported":1743242928,"current_range_meters":4400,"station_id":"","pricing_plan_id":"cebpf4jnsgd1na2vs0mg"},{"bike_id":"23237038-6d66-41a9-8047-f4f1f4806f7f","system_id":"levelo_inurba_marseille","lat":43.28974,"lon":5.37832,"is_reserved":false,"is_disabled":false,"rental_uris":{"android":"levelo://app?vid=23237038-6d66-41a9-8047-f4f1f4806f7f","ios":"levelo://app?vid=23237038-6d66-41a9-8047-f4f1f4806f7f"},"vehicle_type_id":"4","last_reported":1743242928,"current_range_meters":4400,"station_id":"ce4bh9p2rcd13ifvqed0","pricing_plan_id":"cebpf4jnsgd1na2vs0mg"},{"bike_id":"d0c2ba62-325f-42ee-b4c5-fe6707aa69d7","system_id":"levelo_inurba_marseille","lat":43.24814,"lon":5.37443,"is_reserved":false,"is_disabled":false,"rental_uris":{"android":"levelo://app?vid=d0c2ba62-325f-42ee-b4c5-fe6707aa69d7","ios":"levelo://app?vid=d0c2ba62-325f-42ee-b4c5-fe6707aa69d7"},"vehicle_type_id":"4","last_reported":1743242928,"current_range_meters":4400,"station_id":"ce4bhgh2rcd13ifvqfb0","pricing_plan_id":"cebpf4jnsgd1na2vs0mg"},{"bike_id":"d8995671-8d10-4595-a48d-c072afc16bcb","system_id":"levelo_inurba_marseille","lat":43.28611,"lon":5.35095,"is_reserved":false,"is_disabled":false,"rental_uris":{"android":"levelo://app?vid=d8995671-8d10-4595-a48d-c072afc16bcb","ios":"levelo://app?vid=d8995671-8d10-4595-a48d-c072afc16bcb"},"vehicle_type_id":"4","last_reported":1743242928,"current_range_meters":4800,"station_id":"ce4bhch2rcd13ifvqeug","pricing_plan_id":"cebpf4jnsgd1na2vs0mg"},{"bike_id":"cc2e5621-430c-470e-b1ec-4e64ca6d9e94","system_id":"levelo_inurba_marseille","lat":43.26554,"lon":5.37301,"is_reserved":false,"is_disabled":false,"rental_uris":{"android":"levelo://app?vid=cc2e5621-430c-470e-b1ec-4e64ca6d9e94","ios":"levelo://app?vid=cc2e5621-430c-470e-b1ec-4e64ca6d9e94"},"vehicle_type_id":"4","last_reported":1743242928,"current_range_meters":4800,"station_id":"ce4bhg12rcd13ifvqf70","pricing_plan_id":"cebpf4jnsgd1na2vs0mg"},{"bike_id":"6026f9b7-25ae-4d64-8648-76338e9b1c4c","system_id":"levelo_inurba_marseille","lat":43.32355,"lon":5.38886,"is_reserved":false,"is_disabled":false,"rental_uris":{"android":"levelo://app?vid=6026f9b7-25ae-4d64-8648-76338e9b1c4c","ios":"levelo://app?vid=6026f9b7-25ae-4d64-8648-76338e9b1c4c"},"vehicle_type_id":"4","last_reported":1743242928,"current_range_meters":4800,"station_id":"ce4bhqp2rcd13ifvqhog","pricing_plan_id":"cebpf4jnsgd1na2vs0mg"},{"bike_id":"ee2588a0-8a3d-4c56-88e3-6823a90de92d","system_id":"levelo_inurba_marseille","lat":43.28076,"lon":5.3859,"is_reserved":false,"is_disabled":false,"rental_uris":{"android":"levelo://app?vid=ee2588a0-8a3d-4c56-88e3-6823a90de92d","ios":"levelo://app?vid=ee2588a0-8a3d-4c56-88e3-6823a90de92d"},"vehicle_type_id":"4","last_reported":1743242928,"current_range_meters":5600,"station_id":"","pricing_plan_id":"cebpf4jnsgd1na2vs0mg"},{"bike_id":"b48a6d88-f06a-497d-a712-7c2549b8d2a6","system_id":"levelo_inurba_marseille","lat":43.29327,"lon":5.37169,"is_reserved":false,"is_disabled":false,"rental_uris":{"android":"levelo://app?vid=b48a6d88-f06a-497d-a712-7c2549b8d2a6","ios":"levelo://app?vid=b48a6d88-f06a-497d-a712-7c2549b8d2a6"},"vehicle_type_id":"4","last_reported":1743242928,"current_range_meters":5600,"station_id":"ce4bgh92rcd13ifvqb40","pricing_plan_id":"cebpf4jnsgd1na2vs0mg"},{"bike_id":"fd134268-1499-401e-bb83-137ea2b7a695","system_id":"levelo_inurba_marseille","lat":43.239622,"lon":5.366386,"is_reserved":false,"is_disabled":false,"rental_uris":{"android":"levelo://app?vid=fd134268-1499-401e-bb83-137ea2b7a695","ios":"levelo://app?vid=fd134268-1499-401e-bb83-137ea2b7a695"},"vehicle_type_id":"4","last_reported":1743242928,"current_range_meters":5600,"station_id":"ce4bhi12rcd13ifvqfp0","pricing_plan_id":"cebpf4jnsgd1na2vs0mg"},{"bike_id":"a3514274-c949-4c91-b768-3857fda27d00","system_id":"levelo_inurba_marseille","lat":43.28618,"lon":5.37064,"is_reserved":false,"is_disabled":false,"rental_uris":{"android":"levelo://app?vid=a3514274-c949-4c91-b768-3857fda27d00","ios":"levelo://app?vid=a3514274-c949-4c91-b768-3857fda27d00"},"vehicle_type_id":"4","last_reported":1743242928,"current_range_meters":5600,"station_id":"ce4bht12rcd13ifvqi60","pricing_plan_id":"cebpf4jnsgd1na2vs0mg"},{"bike_id":"99771fdb-0c41-4f28-b2bb-dd8917f9213b","system_id":"levelo_inurba_marseille","lat":43.29873,"lon":5.38909,"is_reserved":false,"is_disabled":false,"rental_uris":{"android":"levelo://app?vid=99771fdb-0c41-4f28-b2bb-dd8917f9213b","ios":"levelo://app?vid=99771fdb-0c41-4f28-b2bb-dd8917f9213b"},"vehicle_type_id":"4","last_reported":1743242928,"current_range_meters":6000,"station_id":"ce4bh392rcd13ifvqdl0","pricing_plan_id":"cebpf4jnsgd1na2vs0mg"},{"bike_id":"2fae9993-177f-4927-9c3b-399634aabe66","system_id":"levelo_inurba_marseille","lat":43.29422,"lon":5.385863,"is_reserved":false,"is_disabled":false,"rental_uris":{"android":"levelo://app?vid=2fae9993-177f-4927-9c3b-399634aabe66","ios":"levelo://app?vid=2fae9993-177f-4927-9c3b-399634aabe66"},"vehicle_type_id":"4","last_reported":1743242928,"current_range_meters":6000,"station_id":"ce4bh392rcd13ifvqdl0","pricing_plan_id":"cebpf4jnsgd1na2vs0mg"},{"bike_id":"57f8c7cb-17ce-46c9-b07d-dc98d28c951d","system_id":"levelo_inurba_marseille","lat":43.25823,"lon":5.3943,"is_reserved":false,"is_disabled":false,"rental_uris":{"android":"levelo://app?vid=57f8c7cb-17ce-46c9-b07d-dc98d28c951d","ios":"levelo://app?vid=57f8c7cb-17ce-46c9-b07d-dc98d28c951d"},"vehicle_type_id":"4","last_reported":1743242928,"current_range_meters":6000,"station_id":"ce4bhip2rcd13ifvqft0","pricing_plan_id":"cebpf4jnsgd1na2vs0mg"},{"bike_id":"89cd213c-d053-472b-a767-0f3c249b368e","system_id":"levelo_inurba_marseille","lat":43.27494,"lon":5.42461,"is_reserved":false,"is_disabled":false,"rental_uris":{"android":"levelo://app?vid=89cd213c-d053-472b-a767-0f3c249b368e","ios":"levelo://app?vid=89cd213c-d053-472b-a767-0f3c249b368e"},"vehicle_type_id":"4","last_reported":1743242928,"current_range_meters":6000,"station_id":"ce4bhn92rcd13ifvqgrg","pricing_plan_id":"cebpf4jnsgd1na2vs0mg"},{"bike_id":"5f42e7e3-d8cd-41d3-9bdb-df8fc59d95bc","system_id":"levelo_inurba_marseille","lat":43.24811,"lon":5.3746,"is_reserved":false,"is_disabled":false,"rental_uris":{"android":"levelo://app?vid=5f42e7e3-d8cd-41d3-9bdb-df8fc59d95bc","ios":"levelo://app?vid=5f42e7e3-d8cd-41d3-9bdb-df8fc59d95bc"},"vehicle_type_id":"4","last_reported":1743242928,"current_range_meters":6400,"station_id":"ce4bhgh2rcd13ifvqfb0","pricing_plan_id":"cebpf4jnsgd1na2vs0mg"},{"bike_id":"793b71c8-8f70-4406-b2e3-dcff5def2884","system_id":"levelo_inurba_marseille","lat":43.323628,"lon":5.388566,"is_reserved":false,"is_disabled":false,"rental_uris":{"android":"levelo://app?vid=793b71c8-8f70-4406-b2e3-dcff5def2884","ios":"levelo://app?vid=793b71c8-8f70-4406-b2e3-dcff5def2884"},"vehicle_type_id":"4","last_reported":1743242928,"current_range_meters":6800,"station_id":"","pricing_plan_id":"cebpf4jnsgd1na2vs0mg"},{"bike_id":"c6b682a7-e903-4363-967f-d69957e8f7ed","system_id":"levelo_inurba_marseille","lat":43.2864,"lon":5.35076,"is_reserved":false,"is_disabled":false,"rental_uris":{"android":"levelo://app?vid=c6b682a7-e903-4363-967f-d69957e8f7ed","ios":"levelo://app?vid=c6b682a7-e903-4363-967f-d69957e8f7ed"},"vehicle_type_id":"4","last_reported":1743242928,"current_range_meters":6800,"station_id":"ce4bhch2rcd13ifvqeug","pricing_plan_id":"cebpf4jnsgd1na2vs0mg"},{"bike_id":"861ae205-c318-4688-ac53-947993e1b65f","system_id":"levelo_inurba_marseille","lat":43.24165,"lon":5.364108,"is_reserved":false,"is_disabled":false,"rental_uris":{"android":"levelo://app?vid=861ae205-c318-4688-ac53-947993e1b65f","ios":"levelo://app?vid=861ae205-c318-4688-ac53-947993e1b65f"},"vehicle_type_id":"4","last_reported":1743242928,"current_range_meters":6800,"station_id":"cpo36qri1sfpv3e86is0","pricing_plan_id":"cebpf4jnsgd1na2vs0mg"},{"bike_id":"8a2015f0-c7fc-4f0e-a137-b486359fa7ab","system_id":"levelo_inurba_marseille","lat":43.30287,"lon":5.39212,"is_reserved":false,"is_disabled":false,"rental_uris":{"android":"levelo://app?vid=8a2015f0-c7fc-4f0e-a137-b486359fa7ab","ios":"levelo://app?vid=8a2015f0-c7fc-4f0e-a137-b486359fa7ab"},"vehicle_type_id":"4","last_reported":1743242928,"current_range_meters":7200,"station_id":"ce4bgkh2rcd13ifvqbk0","pricing_plan_id":"cebpf4jnsgd1na2vs0mg"},{"bike_id":"84fca53f-e092-4d1b-ab72-aadf5c335789","system_id":"levelo_inurba_marseille","lat":43.29279,"lon":5.36847,"is_reserved":false,"is_disabled":false,"rental_uris":{"android":"levelo://app?vid=84fca53f-e092-4d1b-ab72-aadf5c335789","ios":"levelo://app?vid=84fca53f-e092-4d1b-ab72-aadf5c335789"},"vehicle_type_id":"4","last_reported":1743242928,"current_range_meters":7200,"station_id":"ce4bhbp2rcd13ifvqesg","pricing_plan_id":"cebpf4jnsgd1na2vs0mg"},{"bike_id":"495331ea-41c3-43ef-9b32-06f4c209cade","system_id":"levelo_inurba_marseille","lat":43.25503,"lon":5.37653,"is_reserved":false,"is_disabled":false,"rental_uris":{"android":"levelo://app?vid=495331ea-41c3-43ef-9b32-06f4c209cade","ios":"levelo://app?vid=495331ea-41c3-43ef-9b32-06f4c209cade"},"vehicle_type_id":"4","last_reported":1743242928,"current_range_meters":7200,"station_id":"ce4bhh12rcd13ifvqff0","pricing_plan_id":"cebpf4jnsgd1na2vs0mg"},{"bike_id":"ac7b446a-5fec-4cbb-868e-45d0239dc236","system_id":"levelo_inurba_marseille","lat":43.2469,"lon":5.38148,"is_reserved":false,"is_disabled":false,"rental_uris":{"android":"levelo://app?vid=ac7b446a-5fec-4cbb-868e-45d0239dc236","ios":"levelo://app?vid=ac7b446a-5fec-4cbb-868e-45d0239dc236"},"vehicle_type_id":"4","last_reported":1743242928,"current_range_meters":7200,"station_id":"ce4bhih2rcd13ifvqfr0","pricing_plan_id":"cebpf4jnsgd1na2vs0mg"},{"bike_id":"87ce5af9-2c3f-4b34-8106-a0bd98c8708b","system_id":"levelo_inurba_marseille","lat":43.28004,"lon":5.40002,"is_reserved":false,"is_disabled":false,"rental_uris":{"android":"levelo://app?vid=87ce5af9-2c3f-4b34-8106-a0bd98c8708b","ios":"levelo://app?vid=87ce5af9-2c3f-4b34-8106-a0bd98c8708b"},"vehicle_type_id":"4","last_reported":1743242928,"current_range_meters":7200,"station_id":"ce4bho92rcd13ifvqh4g","pricing_plan_id":"cebpf4jnsgd1na2vs0mg"},{"bike_id":"1c14bf9c-ada4-4a36-8853-740a1a2c000a","system_id":"levelo_inurba_marseille","lat":43.23206,"lon":5.35552,"is_reserved":false,"is_disabled":false,"rental_uris":{"android":"levelo://app?vid=1c14bf9c-ada4-4a36-8853-740a1a2c000a","ios":"levelo://app?vid=1c14bf9c-ada4-4a36-8853-740a1a2c000a"},"vehicle_type_id":"4","last_reported":1743242928,"current_range_meters":7200,"station_id":"ce4bhu92rcd13ifvqi70","pricing_plan_id":"cebpf4jnsgd1na2vs0mg"},{"bike_id":"3c724e4a-ec93-4dd4-87a9-608ce3fa202a","system_id":"levelo_inurba_marseille","lat":43.3106,"lon":5.3835,"is_reserved":false,"is_disabled":false,"rental_uris":{"android":"levelo://app?vid=3c724e4a-ec93-4dd4-87a9-608ce3fa202a","ios":"levelo://app?vid=3c724e4a-ec93-4dd4-87a9-608ce3fa202a"},"vehicle_type_id":"4","last_reported":1743242928,"current_range_meters":8000,"station_id":"ce4bgv92rcd13ifvqcr0","pricing_plan_id":"cebpf4jnsgd1na2vs0mg"},{"bike_id":"90df0f14-f996-423e-b605-53c2c708242e","system_id":"levelo_inurba_marseille","lat":43.31687,"lon":5.40516,"is_reserved":false,"is_disabled":false,"rental_uris":{"android":"levelo://app?vid=90df0f14-f996-423e-b605-53c2c708242e","ios":"levelo://app?vid=90df0f14-f996-423e-b605-53c2c708242e"},"vehicle_type_id":"4","last_reported":1743242928,"current_range_meters":8000,"station_id":"ce4bh012rcd13ifvqd00","pricing_plan_id":"cebpf4jnsgd1na2vs0mg"},{"bike_id":"5af31300-0db0-41e7-bfcb-73d8ebfe411a","system_id":"levelo_inurba_marseille","lat":43.29004,"lon":5.35611,"is_reserved":false,"is_disabled":false,"rental_uris":{"android":"levelo://app?vid=5af31300-0db0-41e7-bfcb-73d8ebfe411a","ios":"levelo://app?vid=5af31300-0db0-41e7-bfcb-73d8ebfe411a"},"vehicle_type_id":"4","last_reported":1743242928,"current_range_meters":8000,"station_id":"ce4bhb92rcd13ifvqen0","pricing_plan_id":"cebpf4jnsgd1na2vs0mg"},{"bike_id":"cbf7e6d8-15cc-42f8-aeb7-18f70d754f9a","system_id":"levelo_inurba_marseille","lat":43.26033,"lon":5.3754,"is_reserved":false,"is_disabled":false,"rental_uris":{"android":"levelo://app?vid=cbf7e6d8-15cc-42f8-aeb7-18f70d754f9a","ios":"levelo://app?vid=cbf7e6d8-15cc-42f8-aeb7-18f70d754f9a"},"vehicle_type_id":"4","last_reported":1743242928,"current_range_meters":8000,"station_id":"ce4bhgh2rcd13ifvqfa0","pricing_plan_id":"cebpf4jnsgd1na2vs0mg"},{"bike_id":"cbe177f9-7359-4495-b99f-8a1700a0286f","system_id":"levelo_inurba_marseille","lat":43.28737,"lon":5.36111,"is_reserved":false,"is_disabled":false,"rental_uris":{"android":"levelo://app?vid=cbe177f9-7359-4495-b99f-8a1700a0286f","ios":"levelo://app?vid=cbe177f9-7359-4495-b99f-8a1700a0286f"},"vehicle_type_id":"4","last_reported":1743242928,"current_range_meters":8000,"station_id":"cki0cbj6b192h4jlfktg","pricing_plan_id":"cebpf4jnsgd1na2vs0mg"},{"bike_id":"f47eba55-a588-4033-a3dc-992c836c995d","system_id":"levelo_inurba_marseille","lat":43.31677,"lon":5.40517,"is_reserved":false,"is_disabled":false,"rental_uris":{"android":"levelo://app?vid=f47eba55-a588-4033-a3dc-992c836c995d","ios":"levelo://app?vid=f47eba55-a588-4033-a3dc-992c836c995d"},"vehicle_type_id":"4","last_reported":1743242928,"current_range_meters":8400,"station_id":"ce4bh012rcd13ifvqd00","pricing_plan_id":"cebpf4jnsgd1na2vs0mg"},{"bike_id":"70222136-1fcb-45a1-a766-fce06d04c7cd","system_id":"levelo_inurba_marseille","lat":43.30583,"lon":5.39355,"is_reserved":false,"is_disabled":false,"rental_uris":{"android":"levelo://app?vid=70222136-1fcb-45a1-a766-fce06d04c7cd","ios":"levelo://app?vid=70222136-1fcb-45a1-a766-fce06d04c7cd"},"vehicle_type_id":"4","last_reported":1743242928,"current_range_meters":8400,"station_id":"ce4bh0p2rcd13ifvqd80","pricing_plan_id":"cebpf4jnsgd1na2vs0mg"},{"bike_id":"47ad7ef3-58ae-45f0-9b6e-4619eae20d58","system_id":"levelo_inurba_marseille","lat":43.29237,"lon":5.40894,"is_reserved":false,"is_disabled":false,"rental_uris":{"android":"levelo://app?vid=47ad7ef3-58ae-45f0-9b6e-4619eae20d58","ios":"levelo://app?vid=47ad7ef3-58ae-45f0-9b6e-4619eae20d58"},"vehicle_type_id":"4","last_reported":1743242928,"current_range_meters":8400,"station_id":"ce4bh192rcd13ifvqdc0","pricing_plan_id":"cebpf4jnsgd1na2vs0mg"},{"bike_id":"d5ffff0a-47db-470d-a1ce-99a37bfcd090","system_id":"levelo_inurba_marseille","lat":43.28617,"lon":5.35107,"is_reserved":false,"is_disabled":false,"rental_uris":{"android":"levelo://app?vid=d5ffff0a-47db-470d-a1ce-99a37bfcd090","ios":"levelo://app?vid=d5ffff0a-47db-470d-a1ce-99a37bfcd090"},"vehicle_type_id":"4","last_reported":1743242928,"current_range_meters":8400,"station_id":"ce4bhch2rcd13ifvqeug","pricing_plan_id":"cebpf4jnsgd1na2vs0mg"},{"bike_id":"4cc2417c-0d66-42cc-a800-c7c2b9e37f65","system_id":"levelo_inurba_marseille","lat":43.26489,"lon":5.39534,"is_reserved":false,"is_disabled":false,"rental_uris":{"android":"levelo://app?vid=4cc2417c-0d66-42cc-a800-c7c2b9e37f65","ios":"levelo://app?vid=4cc2417c-0d66-42cc-a800-c7c2b9e37f65"},"vehicle_type_id":"4","last_reported":1743242928,"current_range_meters":8400,"station_id":"ce4bhi12rcd13ifvqfq0","pricing_plan_id":"cebpf4jnsgd1na2vs0mg"},{"bike_id":"d2be6ce3-8e79-4804-b0d3-008c875e7b9d","system_id":"levelo_inurba_marseille","lat":43.26211,"lon":5.37918,"is_reserved":false,"is_disabled":false,"rental_uris":{"android":"levelo://app?vid=d2be6ce3-8e79-4804-b0d3-008c875e7b9d","ios":"levelo://app?vid=d2be6ce3-8e79-4804-b0d3-008c875e7b9d"},"vehicle_type_id":"4","last_reported":1743242928,"current_range_meters":8400,"station_id":"ce4bhjp2rcd13ifvqg90","pricing_plan_id":"cebpf4jnsgd1na2vs0mg"},{"bike_id":"ab9337c5-cb93-4762-be36-7274dce8953f","system_id":"levelo_inurba_marseille","lat":43.32356,"lon":5.36751,"is_reserved":false,"is_disabled":false,"rental_uris":{"android":"levelo://app?vid=ab9337c5-cb93-4762-be36-7274dce8953f","ios":"levelo://app?vid=ab9337c5-cb93-4762-be36-7274dce8953f"},"vehicle_type_id":"4","last_reported":1743242928,"current_range_meters":8400,"station_id":"ce4bhsh2rcd13ifvqi2g","pricing_plan_id":"cebpf4jnsgd1na2vs0mg"},{"bike_id":"17d2c56a-04b7-4565-828e-4e8647a3dd59","system_id":"levelo_inurba_marseille","lat":43.23199,"lon":5.35557,"is_reserved":false,"is_disabled":false,"rental_uris":{"android":"levelo://app?vid=17d2c56a-04b7-4565-828e-4e8647a3dd59","ios":"levelo://app?vid=17d2c56a-04b7-4565-828e-4e8647a3dd59"},"vehicle_type_id":"4","last_reported":1743242928,"current_range_meters":8400,"station_id":"ce4bhu92rcd13ifvqi70","pricing_plan_id":"cebpf4jnsgd1na2vs0mg"},{"bike_id":"05a0faa9-3358-4848-9e72-398f8f85445a","system_id":"levelo_inurba_marseille","lat":43.29706,"lon":5.37697,"is_reserved":false,"is_disabled":false,"rental_uris":{"android":"levelo://app?vid=05a0faa9-3358-4848-9e72-398f8f85445a","ios":"levelo://app?vid=05a0faa9-3358-4848-9e72-398f8f85445a"},"vehicle_type_id":"4","last_reported":1743242928,"current_range_meters":8800,"station_id":"ce4bgkh2rcd13ifvqbl0","pricing_plan_id":"cebpf4jnsgd1na2vs0mg"},{"bike_id":"8e7533e6-d109-49b4-bbf7-63f1ed2c9290","system_id":"levelo_inurba_marseille","lat":43.26194,"lon":5.37449,"is_reserved":false,"is_disabled":false,"rental_uris":{"android":"levelo://app?vid=8e7533e6-d109-49b4-bbf7-63f1ed2c9290","ios":"levelo://app?vid=8e7533e6-d109-49b4-bbf7-63f1ed2c9290"},"vehicle_type_id":"4","last_reported":1743242928,"current_range_meters":8800,"station_id":"ce4bhgp2rcd13ifvqfc0","pricing_plan_id":"cebpf4jnsgd1na2vs0mg"},{"bike_id":"bb238aab-ecce-4d51-ba90-677f93725c94","system_id":"levelo_inurba_marseille","lat":43.341424,"lon":5.409342,"is_reserved":false,"is_disabled":false,"rental_uris":{"android":"levelo://app?vid=bb238aab-ecce-4d51-ba90-677f93725c94","ios":"levelo://app?vid=bb238aab-ecce-4d51-ba90-677f93725c94"},"vehicle_type_id":"4","last_reported":1743242928,"current_range_meters":8800,"station_id":"ce4bhqh2rcd13ifvqhlg","pricing_plan_id":"cebpf4jnsgd1na2vs0mg"},{"bike_id":"78879d72-d868-43c9-a743-a6ab48dd9b11","system_id":"levelo_inurba_marseille","lat":43.28708,"lon":5.36084,"is_reserved":false,"is_disabled":false,"rental_uris":{"android":"levelo://app?vid=78879d72-d868-43c9-a743-a6ab48dd9b11","ios":"levelo://app?vid=78879d72-d868-43c9-a743-a6ab48dd9b11"},"vehicle_type_id":"4","last_reported":1743242928,"current_range_meters":8800,"station_id":"cki0cbj6b192h4jlfktg","pricing_plan_id":"cebpf4jnsgd1na2vs0mg"},{"bike_id":"0757cf3f-539b-4b03-8952-cdc7af88e624","system_id":"levelo_inurba_marseille","lat":43.29307,"lon":5.37182,"is_reserved":false,"is_disabled":false,"rental_uris":{"android":"levelo://app?vid=0757cf3f-539b-4b03-8952-cdc7af88e624","ios":"levelo://app?vid=0757cf3f-539b-4b03-8952-cdc7af88e624"},"vehicle_type_id":"4","last_reported":1743242928,"current_range_meters":9200,"station_id":"ce4bgh92rcd13ifvqb40","pricing_plan_id":"cebpf4jnsgd1na2vs0mg"},{"bike_id":"ec5fe61f-c65b-4f87-930a-5b3f663396ae","system_id":"levelo_inurba_marseille","lat":43.29843,"lon":5.36277,"is_reserved":false,"is_disabled":false,"rental_uris":{"android":"levelo://app?vid=ec5fe61f-c65b-4f87-930a-5b3f663396ae","ios":"levelo://app?vid=ec5fe61f-c65b-4f87-930a-5b3f663396ae"},"vehicle_type_id":"4","last_reported":1743242928,"current_range_meters":9200,"station_id":"ce4bgpp2rcd13ifvqc3g","pricing_plan_id":"cebpf4jnsgd1na2vs0mg"},{"bike_id":"66b25b9d-cdfc-47a1-ae3f-3e27461beaa3","system_id":"levelo_inurba_marseille","lat":43.28669,"lon":5.38654,"is_reserved":false,"is_disabled":false,"rental_uris":{"android":"levelo://app?vid=66b25b9d-cdfc-47a1-ae3f-3e27461beaa3","ios":"levelo://app?vid=66b25b9d-cdfc-47a1-ae3f-3e27461beaa3"},"vehicle_type_id":"4","last_reported":1743242928,"current_range_meters":9200,"station_id":"ce4bh492rcd13ifvqdug","pricing_plan_id":"cebpf4jnsgd1na2vs0mg"},{"bike_id":"d110ea9c-afe8-47f1-b008-e66bc6e44a55","system_id":"levelo_inurba_marseille","lat":43.2842,"lon":5.34984,"is_reserved":false,"is_disabled":false,"rental_uris":{"android":"levelo://app?vid=d110ea9c-afe8-47f1-b008-e66bc6e44a55","ios":"levelo://app?vid=d110ea9c-afe8-47f1-b008-e66bc6e44a55"},"vehicle_type_id":"4","last_reported":1743242928,"current_range_meters":9200,"station_id":"ce4bhbh2rcd13ifvqepg","pricing_plan_id":"cebpf4jnsgd1na2vs0mg"},{"bike_id":"d14cdd1e-f0b3-48a5-be5e-77128af69a2d","system_id":"levelo_inurba_marseille","lat":43.28619,"lon":5.35111,"is_reserved":false,"is_disabled":false,"rental_uris":{"android":"levelo://app?vid=d14cdd1e-f0b3-48a5-be5e-77128af69a2d","ios":"levelo://app?vid=d14cdd1e-f0b3-48a5-be5e-77128af69a2d"},"vehicle_type_id":"4","last_reported":1743242928,"current_range_meters":9200,"station_id":"ce4bhch2rcd13ifvqeug","pricing_plan_id":"cebpf4jnsgd1na2vs0mg"},{"bike_id":"1a8ec8fe-cd0f-44f4-9a76-dfc354a60ccc","system_id":"levelo_inurba_marseille","lat":43.23974,"lon":5.36618,"is_reserved":false,"is_disabled":false,"rental_uris":{"android":"levelo://app?vid=1a8ec8fe-cd0f-44f4-9a76-dfc354a60ccc","ios":"levelo://app?vid=1a8ec8fe-cd0f-44f4-9a76-dfc354a60ccc"},"vehicle_type_id":"4","last_reported":1743242928,"current_range_meters":9200,"station_id":"ce4bhi12rcd13ifvqfp0","pricing_plan_id":"cebpf4jnsgd1na2vs0mg"},{"bike_id":"676aa410-285a-48fa-832f-41d35fee7288","system_id":"levelo_inurba_marseille","lat":43.28605,"lon":5.37011,"is_reserved":false,"is_disabled":false,"rental_uris":{"android":"levelo://app?vid=676aa410-285a-48fa-832f-41d35fee7288","ios":"levelo://app?vid=676aa410-285a-48fa-832f-41d35fee7288"},"vehicle_type_id":"4","last_reported":1743242928,"current_range_meters":9200,"station_id":"ce4bht12rcd13ifvqi60","pricing_plan_id":"cebpf4jnsgd1na2vs0mg"},{"bike_id":"3a2e35ff-67f7-42a4-b09b-1fe3ef6e95d8","system_id":"levelo_inurba_marseille","lat":43.22942,"lon":5.35392,"is_reserved":false,"is_disabled":false,"rental_uris":{"android":"levelo://app?vid=3a2e35ff-67f7-42a4-b09b-1fe3ef6e95d8","ios":"levelo://app?vid=3a2e35ff-67f7-42a4-b09b-1fe3ef6e95d8"},"vehicle_type_id":"4","last_reported":1743242928,"current_range_meters":9200,"station_id":"cpo3532slgdg3j2ikp40","pricing_plan_id":"cebpf4jnsgd1na2vs0mg"},{"bike_id":"983c4c9f-ee1a-4d13-8ce7-bfd36c479f46","system_id":"levelo_inurba_marseille","lat":43.241685,"lon":5.364021,"is_reserved":false,"is_disabled":false,"rental_uris":{"android":"levelo://app?vid=983c4c9f-ee1a-4d13-8ce7-bfd36c479f46","ios":"levelo://app?vid=983c4c9f-ee1a-4d13-8ce7-bfd36c479f46"},"vehicle_type_id":"4","last_reported":1743242928,"current_range_meters":9200,"station_id":"cpo36qri1sfpv3e86is0","pricing_plan_id":"cebpf4jnsgd1na2vs0mg"},{"bike_id":"b1ecd358-38ec-4753-8af1-9b87454b444a","system_id":"levelo_inurba_marseille","lat":43.28606,"lon":5.3504,"is_reserved":false,"is_disabled":false,"rental_uris":{"android":"levelo://app?vid=b1ecd358-38ec-4753-8af1-9b87454b444a","ios":"levelo://app?vid=b1ecd358-38ec-4753-8af1-9b87454b444a"},"vehicle_type_id":"4","last_reported":1743242928,"current_range_meters":9600,"station_id":"","pricing_plan_id":"cebpf4jnsgd1na2vs0mg"},{"bike_id":"86402da5-f9ef-43b6-a281-06ce7c4c3160","system_id":"levelo_inurba_marseille","lat":43.28643,"lon":5.35084,"is_reserved":false,"is_disabled":false,"rental_uris":{"android":"levelo://app?vid=86402da5-f9ef-43b6-a281-06ce7c4c3160","ios":"levelo://app?vid=86402da5-f9ef-43b6-a281-06ce7c4c3160"},"vehicle_type_id":"4","last_reported":1743242928,"current_range_meters":9600,"station_id":"ce4bhch2rcd13ifvqeug","pricing_plan_id":"cebpf4jnsgd1na2vs0mg"},{"bike_id":"980b1b8d-c114-4f00-88f8-a0ddccb8fb71","system_id":"levelo_inurba_marseille","lat":43.28635,"lon":5.35111,"is_reserved":false,"is_disabled":false,"rental_uris":{"android":"levelo://app?vid=980b1b8d-c114-4f00-88f8-a0ddccb8fb71","ios":"levelo://app?vid=980b1b8d-c114-4f00-88f8-a0ddccb8fb71"},"vehicle_type_id":"4","last_reported":1743242928,"current_range_meters":9600,"station_id":"ce4bhch2rcd13ifvqeug","pricing_plan_id":"cebpf4jnsgd1na2vs0mg"},{"bike_id":"c4d3dc2c-a647-40d7-8ae5-4102f94b8d75","system_id":"levelo_inurba_marseille","lat":43.30142,"lon":5.38768,"is_reserved":false,"is_disabled":false,"rental_uris":{"android":"levelo://app?vid=c4d3dc2c-a647-40d7-8ae5-4102f94b8d75","ios":"levelo://app?vid=c4d3dc2c-a647-40d7-8ae5-4102f94b8d75"},"vehicle_type_id":"4","last_reported":1743242928,"current_range_meters":10000,"station_id":"ce4bghh2rcd13ifvqb60","pricing_plan_id":"cebpf4jnsgd1na2vs0mg"},{"bike_id":"9bd349ae-e847-4d86-a3a7-4656a1832a5d","system_id":"levelo_inurba_marseille","lat":43.29262,"lon":5.37608,"is_reserved":false,"is_disabled":false,"rental_uris":{"android":"levelo://app?vid=9bd349ae-e847-4d86-a3a7-4656a1832a5d","ios":"levelo://app?vid=9bd349ae-e847-4d86-a3a7-4656a1832a5d"},"vehicle_type_id":"4","last_reported":1743242928,"current_range_meters":10000,"station_id":"ce4bgi12rcd13ifvqb80","pricing_plan_id":"cebpf4jnsgd1na2vs0mg"},{"bike_id":"161d8420-1bd4-4c54-8885-cf257d3ec950","system_id":"levelo_inurba_marseille","lat":43.250059,"lon":5.389425,"is_reserved":false,"is_disabled":false,"rental_uris":{"android":"levelo://app?vid=161d8420-1bd4-4c54-8885-cf257d3ec950","ios":"levelo://app?vid=161d8420-1bd4-4c54-8885-cf257d3ec950"},"vehicle_type_id":"4","last_reported":1743242928,"current_range_meters":10000,"station_id":"ce4bhgp2rcd13ifvqfd0","pricing_plan_id":"cebpf4jnsgd1na2vs0mg"},{"bike_id":"58a570af-c19b-45d8-932f-a4300a278b82","system_id":"levelo_inurba_marseille","lat":43.27288,"lon":5.39099,"is_reserved":false,"is_disabled":false,"rental_uris":{"android":"levelo://app?vid=58a570af-c19b-45d8-932f-a4300a278b82","ios":"levelo://app?vid=58a570af-c19b-45d8-932f-a4300a278b82"},"vehicle_type_id":"4","last_reported":1743242928,"current_range_meters":10000,"station_id":"ce4bhgp2rcd13ifvqfe0","pricing_plan_id":"cebpf4jnsgd1na2vs0mg"},{"bike_id":"284dea85-345e-43c2-ad1a-0db0392209a1","system_id":"levelo_inurba_marseille","lat":43.2558,"lon":5.38234,"is_reserved":false,"is_disabled":false,"rental_uris":{"android":"levelo://app?vid=284dea85-345e-43c2-ad1a-0db0392209a1","ios":"levelo://app?vid=284dea85-345e-43c2-ad1a-0db0392209a1"},"vehicle_type_id":"4","last_reported":1743242928,"current_range_meters":10000,"station_id":"ce4bhih2rcd13ifvqfs0","pricing_plan_id":"cebpf4jnsgd1na2vs0mg"},{"bike_id":"96fa1290-e699-40b9-9109-379d3b77c6fb","system_id":"levelo_inurba_marseille","lat":43.3373,"lon":5.39196,"is_reserved":false,"is_disabled":false,"rental_uris":{"android":"levelo://app?vid=96fa1290-e699-40b9-9109-379d3b77c6fb","ios":"levelo://app?vid=96fa1290-e699-40b9-9109-379d3b77c6fb"},"vehicle_type_id":"4","last_reported":1743242928,"current_range_meters":10000,"station_id":"ce4bhr92rcd13ifvqhsg","pricing_plan_id":"cebpf4jnsgd1na2vs0mg"},{"bike_id":"4586e23a-2d77-446c-8e8c-a15b6ae5de02","system_id":"levelo_inurba_marseille","lat":43.286,"lon":5.38131,"is_reserved":false,"is_disabled":false,"rental_uris":{"android":"levelo://app?vid=4586e23a-2d77-446c-8e8c-a15b6ae5de02","ios":"levelo://app?vid=4586e23a-2d77-446c-8e8c-a15b6ae5de02"},"vehicle_type_id":"4","last_reported":1743242928,"current_range_meters":10800,"station_id":"","pricing_plan_id":"cebpf4jnsgd1na2vs0mg"},{"bike_id":"bc13ce4b-80c3-434c-be50-109c6ccb0031","system_id":"levelo_inurba_marseille","lat":43.29247,"lon":5.4089,"is_reserved":false,"is_disabled":false,"rental_uris":{"android":"levelo://app?vid=bc13ce4b-80c3-434c-be50-109c6ccb0031","ios":"levelo://app?vid=bc13ce4b-80c3-434c-be50-109c6ccb0031"},"vehicle_type_id":"4","last_reported":1743242928,"current_range_meters":10800,"station_id":"ce4bh192rcd13ifvqdc0","pricing_plan_id":"cebpf4jnsgd1na2vs0mg"},{"bike_id":"eaddfac1-0bf4-4f61-8016-0c16cda63728","system_id":"levelo_inurba_marseille","lat":43.2921,"lon":5.3606,"is_reserved":false,"is_disabled":false,"rental_uris":{"android":"levelo://app?vid=eaddfac1-0bf4-4f61-8016-0c16cda63728","ios":"levelo://app?vid=eaddfac1-0bf4-4f61-8016-0c16cda63728"},"vehicle_type_id":"4","last_reported":1743242928,"current_range_meters":10800,"station_id":"ce4bhbh2rcd13ifvqeqg","pricing_plan_id":"cebpf4jnsgd1na2vs0mg"},{"bike_id":"d5663f91-3cb7-47b4-8564-7ef2d5682e29","system_id":"levelo_inurba_marseille","lat":43.31492,"lon":5.37305,"is_reserved":false,"is_disabled":false,"rental_uris":{"android":"levelo://app?vid=d5663f91-3cb7-47b4-8564-7ef2d5682e29","ios":"levelo://app?vid=d5663f91-3cb7-47b4-8564-7ef2d5682e29"},"vehicle_type_id":"4","last_reported":1743242928,"current_range_meters":11200,"station_id":"ce4bgt12rcd13ifvqcd0","pricing_plan_id":"cebpf4jnsgd1na2vs0mg"},{"bike_id":"5671a0d9-d932-4a82-9996-cef3f7d76f37","system_id":"levelo_inurba_marseille","lat":43.3042,"lon":5.37327,"is_reserved":false,"is_disabled":false,"rental_uris":{"android":"levelo://app?vid=5671a0d9-d932-4a82-9996-cef3f7d76f37","ios":"levelo://app?vid=5671a0d9-d932-4a82-9996-cef3f7d76f37"},"vehicle_type_id":"4","last_reported":1743242928,"current_range_meters":11200,"station_id":"ce4bgvp2rcd13ifvqcu0","pricing_plan_id":"cebpf4jnsgd1na2vs0mg"},{"bike_id":"f9de63e8-e5f0-486f-88e4-96470d4381e2","system_id":"levelo_inurba_marseille","lat":43.29281,"lon":5.40112,"is_reserved":false,"is_disabled":false,"rental_uris":{"android":"levelo://app?vid=f9de63e8-e5f0-486f-88e4-96470d4381e2","ios":"levelo://app?vid=f9de63e8-e5f0-486f-88e4-96470d4381e2"},"vehicle_type_id":"4","last_reported":1743242928,"current_range_meters":11200,"station_id":"ce4bh312rcd13ifvqdk0","pricing_plan_id":"cebpf4jnsgd1na2vs0mg"},{"bike_id":"18a7459a-9de6-4413-bb5e-bd445e06b1f8","system_id":"levelo_inurba_marseille","lat":43.29186,"lon":5.3581,"is_reserved":false,"is_disabled":false,"rental_uris":{"android":"levelo://app?vid=18a7459a-9de6-4413-bb5e-bd445e06b1f8","ios":"levelo://app?vid=18a7459a-9de6-4413-bb5e-bd445e06b1f8"},"vehicle_type_id":"4","last_reported":1743242928,"current_range_meters":11200,"station_id":"ce4bhb12rcd13ifvqel0","pricing_plan_id":"cebpf4jnsgd1na2vs0mg"},{"bike_id":"3871cf83-0611-43cf-b7c9-43a3ee28e78b","system_id":"levelo_inurba_marseille","lat":43.28273,"lon":5.35055,"is_reserved":false,"is_disabled":false,"rental_uris":{"android":"levelo://app?vid=3871cf83-0611-43cf-b7c9-43a3ee28e78b","ios":"levelo://app?vid=3871cf83-0611-43cf-b7c9-43a3ee28e78b"},"vehicle_type_id":"4","last_reported":1743242928,"current_range_meters":11200,"station_id":"ce4bhbp2rcd13ifvqerg","pricing_plan_id":"cebpf4jnsgd1na2vs0mg"},{"bike_id":"6938d0ce-f954-4fff-b95b-2d698d38a5d7","system_id":"levelo_inurba_marseille","lat":43.27941,"lon":5.41035,"is_reserved":false,"is_disabled":false,"rental_uris":{"android":"levelo://app?vid=6938d0ce-f954-4fff-b95b-2d698d38a5d7","ios":"levelo://app?vid=6938d0ce-f954-4fff-b95b-2d698d38a5d7"},"vehicle_type_id":"4","last_reported":1743242928,"current_range_meters":11200,"station_id":"ce4bhnp2rcd13ifvqh0g","pricing_plan_id":"cebpf4jnsgd1na2vs0mg"},{"bike_id":"9f2583cf-461d-4d57-8c37-99ef1e89cade","system_id":"levelo_inurba_marseille","lat":43.231957,"lon":5.355499,"is_reserved":false,"is_disabled":false,"rental_uris":{"android":"levelo://app?vid=9f2583cf-461d-4d57-8c37-99ef1e89cade","ios":"levelo://app?vid=9f2583cf-461d-4d57-8c37-99ef1e89cade"},"vehicle_type_id":"4","last_reported":1743242928,"current_range_meters":11200,"station_id":"ce4bhu92rcd13ifvqi70","pricing_plan_id":"cebpf4jnsgd1na2vs0mg"},{"bike_id":"7fdcd55f-1c78-4ded-99ed-725169c92149","system_id":"levelo_inurba_marseille","lat":43.27384,"lon":5.38275,"is_reserved":false,"is_disabled":false,"rental_uris":{"android":"levelo://app?vid=7fdcd55f-1c78-4ded-99ed-725169c92149","ios":"levelo://app?vid=7fdcd55f-1c78-4ded-99ed-725169c92149"},"vehicle_type_id":"4","last_reported":1743242928,"current_range_meters":11600,"station_id":"","pricing_plan_id":"cebpf4jnsgd1na2vs0mg"},{"bike_id":"673d7f2d-d43c-403e-94b4-dcd14c9cb761","system_id":"levelo_inurba_marseille","lat":43.28933,"lon":5.36629,"is_reserved":false,"is_disabled":false,"rental_uris":{"android":"levelo://app?vid=673d7f2d-d43c-403e-94b4-dcd14c9cb761","ios":"levelo://app?vid=673d7f2d-d43c-403e-94b4-dcd14c9cb761"},"vehicle_type_id":"4","last_reported":1743242928,"current_range_meters":11600,"station_id":"ce4bhap2rcd13ifvqek0","pricing_plan_id":"cebpf4jnsgd1na2vs0mg"},{"bike_id":"d3ecc912-dd45-41e9-9931-0b8cba10b689","system_id":"levelo_inurba_marseille","lat":43.27918,"lon":5.39559,"is_reserved":false,"is_disabled":false,"rental_uris":{"android":"levelo://app?vid=d3ecc912-dd45-41e9-9931-0b8cba10b689","ios":"levelo://app?vid=d3ecc912-dd45-41e9-9931-0b8cba10b689"},"vehicle_type_id":"4","last_reported":1743242928,"current_range_meters":11600,"station_id":"ce4bhf92rcd13ifvqf40","pricing_plan_id":"cebpf4jnsgd1na2vs0mg"},{"bike_id":"96ac20e8-5840-4579-b371-184ec6253952","system_id":"levelo_inurba_marseille","lat":43.27505,"lon":5.4113,"is_reserved":false,"is_disabled":false,"rental_uris":{"android":"levelo://app?vid=96ac20e8-5840-4579-b371-184ec6253952","ios":"levelo://app?vid=96ac20e8-5840-4579-b371-184ec6253952"},"vehicle_type_id":"4","last_reported":1743242928,"current_range_meters":12000,"station_id":"","pricing_plan_id":"cebpf4jnsgd1na2vs0mg"},{"bike_id":"3c923253-0a0b-4c75-a63a-cdc1218da2bb","system_id":"levelo_inurba_marseille","lat":43.29606,"lon":5.37722,"is_reserved":false,"is_disabled":false,"rental_uris":{"android":"levelo://app?vid=3c923253-0a0b-4c75-a63a-cdc1218da2bb","ios":"levelo://app?vid=3c923253-0a0b-4c75-a63a-cdc1218da2bb"},"vehicle_type_id":"4","last_reported":1743242928,"current_range_meters":12000,"station_id":"ce4bgi92rcd13ifvqb90","pricing_plan_id":"cebpf4jnsgd1na2vs0mg"},{"bike_id":"dcf75e0a-7ac7-4a7b-803c-2a7e34f625d1","system_id":"levelo_inurba_marseille","lat":43.2999,"lon":5.38493,"is_reserved":false,"is_disabled":false,"rental_uris":{"android":"levelo://app?vid=dcf75e0a-7ac7-4a7b-803c-2a7e34f625d1","ios":"levelo://app?vid=dcf75e0a-7ac7-4a7b-803c-2a7e34f625d1"},"vehicle_type_id":"4","last_reported":1743242928,"current_range_meters":12000,"station_id":"ce4bgj92rcd13ifvqbd0","pricing_plan_id":"cebpf4jnsgd1na2vs0mg"},{"bike_id":"8c7f8eda-084c-48db-b1e8-98138a0008f4","system_id":"levelo_inurba_marseille","lat":43.30242,"lon":5.40072,"is_reserved":false,"is_disabled":false,"rental_uris":{"android":"levelo://app?vid=8c7f8eda-084c-48db-b1e8-98138a0008f4","ios":"levelo://app?vid=8c7f8eda-084c-48db-b1e8-98138a0008f4"},"vehicle_type_id":"4","last_reported":1743242928,"current_range_meters":12000,"station_id":"ce4bgvh2rcd13ifvqcs0","pricing_plan_id":"cebpf4jnsgd1na2vs0mg"},{"bike_id":"b10013b1-6e18-45d0-93c6-e52068d555f2","system_id":"levelo_inurba_marseille","lat":43.28479,"lon":5.35894,"is_reserved":false,"is_disabled":false,"rental_uris":{"android":"levelo://app?vid=b10013b1-6e18-45d0-93c6-e52068d555f2","ios":"levelo://app?vid=b10013b1-6e18-45d0-93c6-e52068d555f2"},"vehicle_type_id":"4","last_reported":1743242928,"current_range_meters":12000,"station_id":"ce4bhah2rcd13ifvqei0","pricing_plan_id":"cebpf4jnsgd1na2vs0mg"},{"bike_id":"acf1e1c3-a629-4c7b-a838-cba3f3b54603","system_id":"levelo_inurba_marseille","lat":43.3185,"lon":5.37642,"is_reserved":false,"is_disabled":false,"rental_uris":{"android":"levelo://app?vid=acf1e1c3-a629-4c7b-a838-cba3f3b54603","ios":"levelo://app?vid=acf1e1c3-a629-4c7b-a838-cba3f3b54603"},"vehicle_type_id":"4","last_reported":1743242928,"current_range_meters":12400,"station_id":"","pricing_plan_id":"cebpf4jnsgd1na2vs0mg"},{"bike_id":"30d2a8d9-f794-47a0-b038-5c637217a0b4","system_id":"levelo_inurba_marseille","lat":43.29579,"lon":5.37516,"is_reserved":false,"is_disabled":false,"rental_uris":{"android":"levelo://app?vid=30d2a8d9-f794-47a0-b038-5c637217a0b4","ios":"levelo://app?vid=30d2a8d9-f794-47a0-b038-5c637217a0b4"},"vehicle_type_id":"4","last_reported":1743242928,"current_range_meters":12400,"station_id":"ce4bgh92rcd13ifvqb50","pricing_plan_id":"cebpf4jnsgd1na2vs0mg"},{"bike_id":"0ab86de6-f608-40aa-bb6b-21c58b488e7c","system_id":"levelo_inurba_marseille","lat":43.2963,"lon":5.37721,"is_reserved":false,"is_disabled":false,"rental_uris":{"android":"levelo://app?vid=0ab86de6-f608-40aa-bb6b-21c58b488e7c","ios":"levelo://app?vid=0ab86de6-f608-40aa-bb6b-21c58b488e7c"},"vehicle_type_id":"4","last_reported":1743242928,"current_range_meters":12400,"station_id":"ce4bgi92rcd13ifvqb90","pricing_plan_id":"cebpf4jnsgd1na2vs0mg"},{"bike_id":"7b02f918-78bf-44ba-a3dd-89303956f071","system_id":"levelo_inurba_marseille","lat":43.30172,"lon":5.38082,"is_reserved":false,"is_disabled":false,"rental_uris":{"android":"levelo://app?vid=7b02f918-78bf-44ba-a3dd-89303956f071","ios":"levelo://app?vid=7b02f918-78bf-44ba-a3dd-89303956f071"},"vehicle_type_id":"4","last_reported":1743242928,"current_range_meters":12400,"station_id":"ce4bgjp2rcd13ifvqbh0","pricing_plan_id":"cebpf4jnsgd1na2vs0mg"},{"bike_id":"a6841dc8-fe23-408f-b976-0d4692ece61b","system_id":"levelo_inurba_marseille","lat":43.304686,"lon":5.378979,"is_reserved":false,"is_disabled":false,"rental_uris":{"android":"levelo://app?vid=a6841dc8-fe23-408f-b976-0d4692ece61b","ios":"levelo://app?vid=a6841dc8-fe23-408f-b976-0d4692ece61b"},"vehicle_type_id":"4","last_reported":1743242928,"current_range_meters":12400,"station_id":"ce4bgup2rcd13ifvqcn0","pricing_plan_id":"cebpf4jnsgd1na2vs0mg"},{"bike_id":"4d84894c-24d9-4f73-874b-b0df2ef91235","system_id":"levelo_inurba_marseille","lat":43.304759,"lon":5.379077,"is_reserved":false,"is_disabled":false,"rental_uris":{"android":"levelo://app?vid=4d84894c-24d9-4f73-874b-b0df2ef91235","ios":"levelo://app?vid=4d84894c-24d9-4f73-874b-b0df2ef91235"},"vehicle_type_id":"4","last_reported":1743242928,"current_range_meters":12400,"station_id":"ce4bgup2rcd13ifvqcn0","pricing_plan_id":"cebpf4jnsgd1na2vs0mg"},{"bike_id":"d2a554d2-de34-4e40-ad8d-fbe2f43523ca","system_id":"levelo_inurba_marseille","lat":43.2836,"lon":5.38622,"is_reserved":false,"is_disabled":false,"rental_uris":{"android":"levelo://app?vid=d2a554d2-de34-4e40-ad8d-fbe2f43523ca","ios":"levelo://app?vid=d2a554d2-de34-4e40-ad8d-fbe2f43523ca"},"vehicle_type_id":"4","last_reported":1743242928,"current_range_meters":12400,"station_id":"ce4bh492rcd13ifvqdvg","pricing_plan_id":"cebpf4jnsgd1na2vs0mg"},{"bike_id":"699cb6a9-80bb-4d7b-8f84-b25847471872","system_id":"levelo_inurba_marseille","lat":43.28933,"lon":5.364051,"is_reserved":false,"is_disabled":false,"rental_uris":{"android":"levelo://app?vid=699cb6a9-80bb-4d7b-8f84-b25847471872","ios":"levelo://app?vid=699cb6a9-80bb-4d7b-8f84-b25847471872"},"vehicle_type_id":"4","last_reported":1743242928,"current_range_meters":12400,"station_id":"ce4bhc92rcd13ifvqetg","pricing_plan_id":"cebpf4jnsgd1na2vs0mg"},{"bike_id":"d42b0697-0001-445f-a5ab-e97cd50bb993","system_id":"levelo_inurba_marseille","lat":43.2481,"lon":5.37447,"is_reserved":false,"is_disabled":false,"rental_uris":{"android":"levelo://app?vid=d42b0697-0001-445f-a5ab-e97cd50bb993","ios":"levelo://app?vid=d42b0697-0001-445f-a5ab-e97cd50bb993"},"vehicle_type_id":"4","last_reported":1743242928,"current_range_meters":12400,"station_id":"ce4bhgh2rcd13ifvqfb0","pricing_plan_id":"cebpf4jnsgd1na2vs0mg"},{"bike_id":"7f9e733c-fa89-49ab-8010-8acb21ac5585","system_id":"levelo_inurba_marseille","lat":43.23151,"lon":5.43733,"is_reserved":false,"is_disabled":false,"rental_uris":{"android":"levelo://app?vid=7f9e733c-fa89-49ab-8010-8acb21ac5585","ios":"levelo://app?vid=7f9e733c-fa89-49ab-8010-8acb21ac5585"},"vehicle_type_id":"4","last_reported":1743242928,"current_range_meters":12400,"station_id":"ce4bhmp2rcd13ifvqgog","pricing_plan_id":"cebpf4jnsgd1na2vs0mg"},{"bike_id":"3f2bcfca-c616-4059-a95b-b1ee7948eb41","system_id":"levelo_inurba_marseille","lat":43.29909,"lon":5.39761,"is_reserved":false,"is_disabled":false,"rental_uris":{"android":"levelo://app?vid=3f2bcfca-c616-4059-a95b-b1ee7948eb41","ios":"levelo://app?vid=3f2bcfca-c616-4059-a95b-b1ee7948eb41"},"vehicle_type_id":"4","last_reported":1743242928,"current_range_meters":12800,"station_id":"","pricing_plan_id":"cebpf4jnsgd1na2vs0mg"},{"bike_id":"516eec70-9871-443d-bcef-31d65d51e4f5","system_id":"levelo_inurba_marseille","lat":43.30295,"lon":5.37686,"is_reserved":false,"is_disabled":false,"rental_uris":{"android":"levelo://app?vid=516eec70-9871-443d-bcef-31d65d51e4f5","ios":"levelo://app?vid=516eec70-9871-443d-bcef-31d65d51e4f5"},"vehicle_type_id":"4","last_reported":1743242928,"current_range_meters":12800,"station_id":"ce4bguh2rcd13ifvqcj0","pricing_plan_id":"cebpf4jnsgd1na2vs0mg"},{"bike_id":"f3c5b8c1-8bd6-47eb-b985-fdef06a214b3","system_id":"levelo_inurba_marseille","lat":43.30481,"lon":5.37912,"is_reserved":false,"is_disabled":false,"rental_uris":{"android":"levelo://app?vid=f3c5b8c1-8bd6-47eb-b985-fdef06a214b3","ios":"levelo://app?vid=f3c5b8c1-8bd6-47eb-b985-fdef06a214b3"},"vehicle_type_id":"4","last_reported":1743242928,"current_range_meters":12800,"station_id":"ce4bgup2rcd13ifvqcn0","pricing_plan_id":"cebpf4jnsgd1na2vs0mg"},{"bike_id":"1e416533-0fcc-4034-9c81-f362b965899d","system_id":"levelo_inurba_marseille","lat":43.30211,"lon":5.39471,"is_reserved":false,"is_disabled":false,"rental_uris":{"android":"levelo://app?vid=1e416533-0fcc-4034-9c81-f362b965899d","ios":"levelo://app?vid=1e416533-0fcc-4034-9c81-f362b965899d"},"vehicle_type_id":"4","last_reported":1743242928,"current_range_meters":12800,"station_id":"ce4bh0p2rcd13ifvqd70","pricing_plan_id":"cebpf4jnsgd1na2vs0mg"},{"bike_id":"abd3241e-325c-4afb-bdb7-08c1b88e1658","system_id":"levelo_inurba_marseille","lat":43.28853,"lon":5.35844,"is_reserved":false,"is_disabled":false,"rental_uris":{"android":"levelo://app?vid=abd3241e-325c-4afb-bdb7-08c1b88e1658","ios":"levelo://app?vid=abd3241e-325c-4afb-bdb7-08c1b88e1658"},"vehicle_type_id":"4","last_reported":1743242928,"current_range_meters":12800,"station_id":"ce4bhb12rcd13ifvqem0","pricing_plan_id":"cebpf4jnsgd1na2vs0mg"},{"bike_id":"43e30df2-3ea2-4192-ac27-17ac9e6bf6ec","system_id":"levelo_inurba_marseille","lat":43.32344,"lon":5.38875,"is_reserved":false,"is_disabled":false,"rental_uris":{"android":"levelo://app?vid=43e30df2-3ea2-4192-ac27-17ac9e6bf6ec","ios":"levelo://app?vid=43e30df2-3ea2-4192-ac27-17ac9e6bf6ec"},"vehicle_type_id":"4","last_reported":1743242928,"current_range_meters":12800,"station_id":"ce4bhqp2rcd13ifvqhog","pricing_plan_id":"cebpf4jnsgd1na2vs0mg"},{"bike_id":"906b540e-e920-417f-92b5-0ef35349f644","system_id":"levelo_inurba_marseille","lat":43.31531,"lon":5.39675,"is_reserved":false,"is_disabled":false,"rental_uris":{"android":"levelo://app?vid=906b540e-e920-417f-92b5-0ef35349f644","ios":"levelo://app?vid=906b540e-e920-417f-92b5-0ef35349f644"},"vehicle_type_id":"4","last_reported":1743242928,"current_range_meters":13600,"station_id":"","pricing_plan_id":"cebpf4jnsgd1na2vs0mg"},{"bike_id":"25bb5fbc-8229-4010-b703-31f5ee6ac141","system_id":"levelo_inurba_marseille","lat":43.30595,"lon":5.36578,"is_reserved":false,"is_disabled":false,"rental_uris":{"android":"levelo://app?vid=25bb5fbc-8229-4010-b703-31f5ee6ac141","ios":"levelo://app?vid=25bb5fbc-8229-4010-b703-31f5ee6ac141"},"vehicle_type_id":"4","last_reported":1743242928,"current_range_meters":13600,"station_id":"ce4bgs12rcd13ifvqcag","pricing_plan_id":"cebpf4jnsgd1na2vs0mg"},{"bike_id":"7effd0b7-4d9b-4842-a304-68eeedf77667","system_id":"levelo_inurba_marseille","lat":43.30463,"lon":5.37915,"is_reserved":false,"is_disabled":false,"rental_uris":{"android":"levelo://app?vid=7effd0b7-4d9b-4842-a304-68eeedf77667","ios":"levelo://app?vid=7effd0b7-4d9b-4842-a304-68eeedf77667"},"vehicle_type_id":"4","last_reported":1743242928,"current_range_meters":13600,"station_id":"ce4bgup2rcd13ifvqcn0","pricing_plan_id":"cebpf4jnsgd1na2vs0mg"},{"bike_id":"2c61a492-d72a-4b7f-b023-2b533ac78023","system_id":"levelo_inurba_marseille","lat":43.28277,"lon":5.35066,"is_reserved":false,"is_disabled":false,"rental_uris":{"android":"levelo://app?vid=2c61a492-d72a-4b7f-b023-2b533ac78023","ios":"levelo://app?vid=2c61a492-d72a-4b7f-b023-2b533ac78023"},"vehicle_type_id":"4","last_reported":1743242928,"current_range_meters":13600,"station_id":"ce4bhbp2rcd13ifvqerg","pricing_plan_id":"cebpf4jnsgd1na2vs0mg"},{"bike_id":"6df3a647-ff01-431a-9bdb-5af78debab53","system_id":"levelo_inurba_marseille","lat":43.30148,"lon":5.3808,"is_reserved":false,"is_disabled":false,"rental_uris":{"android":"levelo://app?vid=6df3a647-ff01-431a-9bdb-5af78debab53","ios":"levelo://app?vid=6df3a647-ff01-431a-9bdb-5af78debab53"},"vehicle_type_id":"4","last_reported":1743242928,"current_range_meters":14000,"station_id":"ce4bgjp2rcd13ifvqbh0","pricing_plan_id":"cebpf4jnsgd1na2vs0mg"},{"bike_id":"0509fd5a-cd70-40f1-b26e-3f3e3192484f","system_id":"levelo_inurba_marseille","lat":43.28957,"lon":5.3641,"is_reserved":false,"is_disabled":false,"rental_uris":{"android":"levelo://app?vid=0509fd5a-cd70-40f1-b26e-3f3e3192484f","ios":"levelo://app?vid=0509fd5a-cd70-40f1-b26e-3f3e3192484f"},"vehicle_type_id":"4","last_reported":1743242928,"current_range_meters":14000,"station_id":"ce4bhc92rcd13ifvqetg","pricing_plan_id":"cebpf4jnsgd1na2vs0mg"},{"bike_id":"55c46d49-9363-40b2-8dbf-638f8433b356","system_id":"levelo_inurba_marseille","lat":43.24817,"lon":5.3744,"is_reserved":false,"is_disabled":false,"rental_uris":{"android":"levelo://app?vid=55c46d49-9363-40b2-8dbf-638f8433b356","ios":"levelo://app?vid=55c46d49-9363-40b2-8dbf-638f8433b356"},"vehicle_type_id":"4","last_reported":1743242928,"current_range_meters":14000,"station_id":"ce4bhgh2rcd13ifvqfb0","pricing_plan_id":"cebpf4jnsgd1na2vs0mg"},{"bike_id":"33e52066-e311-425a-99e2-f98711648d93","system_id":"levelo_inurba_marseille","lat":43.24178,"lon":5.39726,"is_reserved":false,"is_disabled":false,"rental_uris":{"android":"levelo://app?vid=33e52066-e311-425a-99e2-f98711648d93","ios":"levelo://app?vid=33e52066-e311-425a-99e2-f98711648d93"},"vehicle_type_id":"4","last_reported":1743242928,"current_range_meters":14000,"station_id":"ce4bhn12rcd13ifvqgpg","pricing_plan_id":"cebpf4jnsgd1na2vs0mg"},{"bike_id":"5a53d0ae-485c-4888-8827-1e6d992be149","system_id":"levelo_inurba_marseille","lat":43.30657,"lon":5.40148,"is_reserved":false,"is_disabled":false,"rental_uris":{"android":"levelo://app?vid=5a53d0ae-485c-4888-8827-1e6d992be149","ios":"levelo://app?vid=5a53d0ae-485c-4888-8827-1e6d992be149"},"vehicle_type_id":"4","last_reported":1743242928,"current_range_meters":14400,"station_id":"ce4bh112rcd13ifvqda0","pricing_plan_id":"cebpf4jnsgd1na2vs0mg"},{"bike_id":"b3dfbe2a-8a27-4f44-a57c-2b62d2f66eb8","system_id":"levelo_inurba_marseille","lat":43.29009,"lon":5.35606,"is_reserved":false,"is_disabled":false,"rental_uris":{"android":"levelo://app?vid=b3dfbe2a-8a27-4f44-a57c-2b62d2f66eb8","ios":"levelo://app?vid=b3dfbe2a-8a27-4f44-a57c-2b62d2f66eb8"},"vehicle_type_id":"4","last_reported":1743242928,"current_range_meters":14400,"station_id":"ce4bhb92rcd13ifvqen0","pricing_plan_id":"cebpf4jnsgd1na2vs0mg"},{"bike_id":"d7306f65-9c35-4db9-97ec-7e66dc348eb9","system_id":"levelo_inurba_marseille","lat":43.27914,"lon":5.3958,"is_reserved":false,"is_disabled":false,"rental_uris":{"android":"levelo://app?vid=d7306f65-9c35-4db9-97ec-7e66dc348eb9","ios":"levelo://app?vid=d7306f65-9c35-4db9-97ec-7e66dc348eb9"},"vehicle_type_id":"4","last_reported":1743242928,"current_range_meters":14400,"station_id":"ce4bhf92rcd13ifvqf40","pricing_plan_id":"cebpf4jnsgd1na2vs0mg"},{"bike_id":"9f50066e-01fa-4519-9f61-8109fe65f5d9","system_id":"levelo_inurba_marseille","lat":43.28622,"lon":5.37031,"is_reserved":false,"is_disabled":false,"rental_uris":{"android":"levelo://app?vid=9f50066e-01fa-4519-9f61-8109fe65f5d9","ios":"levelo://app?vid=9f50066e-01fa-4519-9f61-8109fe65f5d9"},"vehicle_type_id":"4","last_reported":1743242928,"current_range_meters":14400,"station_id":"ce4bht12rcd13ifvqi60","pricing_plan_id":"cebpf4jnsgd1na2vs0mg"},{"bike_id":"939fef5b-bbd4-4de2-b4fc-b103e449f9b5","system_id":"levelo_inurba_marseille","lat":43.25387,"lon":5.41864,"is_reserved":false,"is_disabled":false,"rental_uris":{"android":"levelo://app?vid=939fef5b-bbd4-4de2-b4fc-b103e449f9b5","ios":"levelo://app?vid=939fef5b-bbd4-4de2-b4fc-b103e449f9b5"},"vehicle_type_id":"4","last_reported":1743242928,"current_range_meters":14800,"station_id":"","pricing_plan_id":"cebpf4jnsgd1na2vs0mg"},{"bike_id":"ea83adbd-c228-4ee0-aef2-7287dea36ab8","system_id":"levelo_inurba_marseille","lat":43.29005,"lon":5.35604,"is_reserved":false,"is_disabled":false,"rental_uris":{"android":"levelo://app?vid=ea83adbd-c228-4ee0-aef2-7287dea36ab8","ios":"levelo://app?vid=ea83adbd-c228-4ee0-aef2-7287dea36ab8"},"vehicle_type_id":"4","last_reported":1743242928,"current_range_meters":14800,"station_id":"ce4bhb92rcd13ifvqen0","pricing_plan_id":"cebpf4jnsgd1na2vs0mg"},{"bike_id":"653ea6de-a177-4007-9cfa-5f3f77e975f6","system_id":"levelo_inurba_marseille","lat":43.24819,"lon":5.37444,"is_reserved":false,"is_disabled":false,"rental_uris":{"android":"levelo://app?vid=653ea6de-a177-4007-9cfa-5f3f77e975f6","ios":"levelo://app?vid=653ea6de-a177-4007-9cfa-5f3f77e975f6"},"vehicle_type_id":"4","last_reported":1743242928,"current_range_meters":14800,"station_id":"ce4bhgh2rcd13ifvqfb0","pricing_plan_id":"cebpf4jnsgd1na2vs0mg"},{"bike_id":"97e41176-3a03-4e51-8216-c50d67d3ee89","system_id":"levelo_inurba_marseille","lat":43.27675,"lon":5.38887,"is_reserved":false,"is_disabled":false,"rental_uris":{"android":"levelo://app?vid=97e41176-3a03-4e51-8216-c50d67d3ee89","ios":"levelo://app?vid=97e41176-3a03-4e51-8216-c50d67d3ee89"},"vehicle_type_id":"4","last_reported":1743242928,"current_range_meters":14800,"station_id":"ce4bhi12rcd13ifvqfo0","pricing_plan_id":"cebpf4jnsgd1na2vs0mg"},{"bike_id":"62ab970d-bf6f-4f9b-9238-b51c574eeeae","system_id":"levelo_inurba_marseille","lat":43.246552,"lon":5.381688,"is_reserved":false,"is_disabled":false,"rental_uris":{"android":"levelo://app?vid=62ab970d-bf6f-4f9b-9238-b51c574eeeae","ios":"levelo://app?vid=62ab970d-bf6f-4f9b-9238-b51c574eeeae"},"vehicle_type_id":"4","last_reported":1743242928,"current_range_meters":14800,"station_id":"ce4bhih2rcd13ifvqfr0","pricing_plan_id":"cebpf4jnsgd1na2vs0mg"},{"bike_id":"4854182c-5e3b-4312-b39b-614ebdd62b8d","system_id":"levelo_inurba_marseille","lat":43.25949,"lon":5.40894,"is_reserved":false,"is_disabled":false,"rental_uris":{"android":"levelo://app?vid=4854182c-5e3b-4312-b39b-614ebdd62b8d","ios":"levelo://app?vid=4854182c-5e3b-4312-b39b-614ebdd62b8d"},"vehicle_type_id":"4","last_reported":1743242928,"current_range_meters":14800,"station_id":"ce4bhm92rcd13ifvqglg","pricing_plan_id":"cebpf4jnsgd1na2vs0mg"},{"bike_id":"e461c282-058d-4d0e-a7d7-55427b9828bb","system_id":"levelo_inurba_marseille","lat":43.302917,"lon":5.392028,"is_reserved":false,"is_disabled":false,"rental_uris":{"android":"levelo://app?vid=e461c282-058d-4d0e-a7d7-55427b9828bb","ios":"levelo://app?vid=e461c282-058d-4d0e-a7d7-55427b9828bb"},"vehicle_type_id":"4","last_reported":1743242928,"current_range_meters":15200,"station_id":"ce4bgh92rcd13ifvqb50","pricing_plan_id":"cebpf4jnsgd1na2vs0mg"},{"bike_id":"e6967797-29d0-4947-88e5-61bc42de65df","system_id":"levelo_inurba_marseille","lat":43.28631,"lon":5.35102,"is_reserved":false,"is_disabled":false,"rental_uris":{"android":"levelo://app?vid=e6967797-29d0-4947-88e5-61bc42de65df","ios":"levelo://app?vid=e6967797-29d0-4947-88e5-61bc42de65df"},"vehicle_type_id":"4","last_reported":1743242928,"current_range_meters":15200,"station_id":"ce4bhch2rcd13ifvqeug","pricing_plan_id":"cebpf4jnsgd1na2vs0mg"},{"bike_id":"7093e1d1-bd24-4c38-9f2d-46b007c685d4","system_id":"levelo_inurba_marseille","lat":43.26192,"lon":5.37451,"is_reserved":false,"is_disabled":false,"rental_uris":{"android":"levelo://app?vid=7093e1d1-bd24-4c38-9f2d-46b007c685d4","ios":"levelo://app?vid=7093e1d1-bd24-4c38-9f2d-46b007c685d4"},"vehicle_type_id":"4","last_reported":1743242928,"current_range_meters":15200,"station_id":"ce4bhgp2rcd13ifvqfc0","pricing_plan_id":"cebpf4jnsgd1na2vs0mg"},{"bike_id":"1194d893-debc-41d7-b347-816267570776","system_id":"levelo_inurba_marseille","lat":43.33735,"lon":5.39184,"is_reserved":false,"is_disabled":false,"rental_uris":{"android":"levelo://app?vid=1194d893-debc-41d7-b347-816267570776","ios":"levelo://app?vid=1194d893-debc-41d7-b347-816267570776"},"vehicle_type_id":"4","last_reported":1743242928,"current_range_meters":15200,"station_id":"ce4bhr92rcd13ifvqhsg","pricing_plan_id":"cebpf4jnsgd1na2vs0mg"},{"bike_id":"bd90bf75-9c99-4619-93c2-7a5fd83388b5","system_id":"levelo_inurba_marseille","lat":43.313603,"lon":5.388284,"is_reserved":false,"is_disabled":false,"rental_uris":{"android":"levelo://app?vid=bd90bf75-9c99-4619-93c2-7a5fd83388b5","ios":"levelo://app?vid=bd90bf75-9c99-4619-93c2-7a5fd83388b5"},"vehicle_type_id":"4","last_reported":1743242928,"current_range_meters":16000,"station_id":"ce4bgt92rcd13ifvqcf0","pricing_plan_id":"cebpf4jnsgd1na2vs0mg"},{"bike_id":"d47e4989-8f0d-4ce2-b04d-d1c4b9019715","system_id":"levelo_inurba_marseille","lat":43.29877,"lon":5.38916,"is_reserved":false,"is_disabled":false,"rental_uris":{"android":"levelo://app?vid=d47e4989-8f0d-4ce2-b04d-d1c4b9019715","ios":"levelo://app?vid=d47e4989-8f0d-4ce2-b04d-d1c4b9019715"},"vehicle_type_id":"4","last_reported":1743242928,"current_range_meters":16000,"station_id":"ce4bh392rcd13ifvqdl0","pricing_plan_id":"cebpf4jnsgd1na2vs0mg"},{"bike_id":"ea4d652d-0687-4fa8-9e2c-7cf26eec9129","system_id":"levelo_inurba_marseille","lat":43.29257,"lon":5.38435,"is_reserved":false,"is_disabled":false,"rental_uris":{"android":"levelo://app?vid=ea4d652d-0687-4fa8-9e2c-7cf26eec9129","ios":"levelo://app?vid=ea4d652d-0687-4fa8-9e2c-7cf26eec9129"},"vehicle_type_id":"4","last_reported":1743242928,"current_range_meters":16000,"station_id":"ce4bh692rcd13ifvqea0","pricing_plan_id":"cebpf4jnsgd1na2vs0mg"},{"bike_id":"40f16c3b-cb8b-4023-9a9b-92155dd2b732","system_id":"levelo_inurba_marseille","lat":43.28155,"lon":5.42634,"is_reserved":false,"is_disabled":false,"rental_uris":{"android":"levelo://app?vid=40f16c3b-cb8b-4023-9a9b-92155dd2b732","ios":"levelo://app?vid=40f16c3b-cb8b-4023-9a9b-92155dd2b732"},"vehicle_type_id":"4","last_reported":1743242928,"current_range_meters":16000,"station_id":"ce4bhnh2rcd13ifvqgug","pricing_plan_id":"cebpf4jnsgd1na2vs0mg"},{"bike_id":"342dfb8b-a2d2-4c6d-b7f4-7d64b6463ad2","system_id":"levelo_inurba_marseille","lat":43.24079,"lon":5.37759,"is_reserved":false,"is_disabled":false,"rental_uris":{"android":"levelo://app?vid=342dfb8b-a2d2-4c6d-b7f4-7d64b6463ad2","ios":"levelo://app?vid=342dfb8b-a2d2-4c6d-b7f4-7d64b6463ad2"},"vehicle_type_id":"4","last_reported":1743242928,"current_range_meters":16000,"station_id":"ce4bhnp2rcd13ifvqgvg","pricing_plan_id":"cebpf4jnsgd1na2vs0mg"},{"bike_id":"71fe3d8c-48d0-4358-901d-55546353d839","system_id":"levelo_inurba_marseille","lat":43.32336,"lon":5.38902,"is_reserved":false,"is_disabled":false,"rental_uris":{"android":"levelo://app?vid=71fe3d8c-48d0-4358-901d-55546353d839","ios":"levelo://app?vid=71fe3d8c-48d0-4358-901d-55546353d839"},"vehicle_type_id":"4","last_reported":1743242928,"current_range_meters":16000,"station_id":"ce4bhqp2rcd13ifvqhog","pricing_plan_id":"cebpf4jnsgd1na2vs0mg"},{"bike_id":"9f8ac332-33d8-4099-9134-b77103186608","system_id":"levelo_inurba_marseille","lat":43.28608,"lon":5.37065,"is_reserved":false,"is_disabled":false,"rental_uris":{"android":"levelo://app?vid=9f8ac332-33d8-4099-9134-b77103186608","ios":"levelo://app?vid=9f8ac332-33d8-4099-9134-b77103186608"},"vehicle_type_id":"4","last_reported":1743242928,"current_range_meters":16000,"station_id":"ce4bht12rcd13ifvqi60","pricing_plan_id":"cebpf4jnsgd1na2vs0mg"},{"bike_id":"ac1005b0-08b8-45c9-9895-7f639bf5e17f","system_id":"levelo_inurba_marseille","lat":43.23189,"lon":5.3556,"is_reserved":false,"is_disabled":false,"rental_uris":{"android":"levelo://app?vid=ac1005b0-08b8-45c9-9895-7f639bf5e17f","ios":"levelo://app?vid=ac1005b0-08b8-45c9-9895-7f639bf5e17f"},"vehicle_type_id":"4","last_reported":1743242928,"current_range_meters":16000,"station_id":"ce4bhu92rcd13ifvqi70","pricing_plan_id":"cebpf4jnsgd1na2vs0mg"},{"bike_id":"8289ed12-207c-4527-9aa9-26999cc35458","system_id":"levelo_inurba_marseille","lat":43.23197,"lon":5.35553,"is_reserved":false,"is_disabled":false,"rental_uris":{"android":"levelo://app?vid=8289ed12-207c-4527-9aa9-26999cc35458","ios":"levelo://app?vid=8289ed12-207c-4527-9aa9-26999cc35458"},"vehicle_type_id":"4","last_reported":1743242928,"current_range_meters":16000,"station_id":"ce4bhu92rcd13ifvqi70","pricing_plan_id":"cebpf4jnsgd1na2vs0mg"},{"bike_id":"ea212a2c-ebda-4fd3-87a5-afdf194e9b39","system_id":"levelo_inurba_marseille","lat":43.31592,"lon":5.38939,"is_reserved":false,"is_disabled":false,"rental_uris":{"android":"levelo://app?vid=ea212a2c-ebda-4fd3-87a5-afdf194e9b39","ios":"levelo://app?vid=ea212a2c-ebda-4fd3-87a5-afdf194e9b39"},"vehicle_type_id":"4","last_reported":1743242928,"current_range_meters":16400,"station_id":"","pricing_plan_id":"cebpf4jnsgd1na2vs0mg"},{"bike_id":"0a9ec2eb-1e79-43a5-ae4d-326ab3ba938e","system_id":"levelo_inurba_marseille","lat":43.28669,"lon":5.35153,"is_reserved":false,"is_disabled":false,"rental_uris":{"android":"levelo://app?vid=0a9ec2eb-1e79-43a5-ae4d-326ab3ba938e","ios":"levelo://app?vid=0a9ec2eb-1e79-43a5-ae4d-326ab3ba938e"},"vehicle_type_id":"4","last_reported":1743242928,"current_range_meters":16400,"station_id":"","pricing_plan_id":"cebpf4jnsgd1na2vs0mg"},{"bike_id":"01b30980-6fea-409c-a5b2-22ab52e85a66","system_id":"levelo_inurba_marseille","lat":43.29263,"lon":5.3761,"is_reserved":false,"is_disabled":false,"rental_uris":{"android":"levelo://app?vid=01b30980-6fea-409c-a5b2-22ab52e85a66","ios":"levelo://app?vid=01b30980-6fea-409c-a5b2-22ab52e85a66"},"vehicle_type_id":"4","last_reported":1743242928,"current_range_meters":16400,"station_id":"ce4bgi12rcd13ifvqb80","pricing_plan_id":"cebpf4jnsgd1na2vs0mg"},{"bike_id":"16279bb5-2c08-486e-9a70-a9f3f85fc77b","system_id":"levelo_inurba_marseille","lat":43.29615,"lon":5.3772,"is_reserved":false,"is_disabled":false,"rental_uris":{"android":"levelo://app?vid=16279bb5-2c08-486e-9a70-a9f3f85fc77b","ios":"levelo://app?vid=16279bb5-2c08-486e-9a70-a9f3f85fc77b"},"vehicle_type_id":"4","last_reported":1743242928,"current_range_meters":16400,"station_id":"ce4bgi92rcd13ifvqb90","pricing_plan_id":"cebpf4jnsgd1na2vs0mg"},{"bike_id":"10464d76-2c66-4964-ad24-5716ce09aec6","system_id":"levelo_inurba_marseille","lat":43.30286,"lon":5.37692,"is_reserved":false,"is_disabled":false,"rental_uris":{"android":"levelo://app?vid=10464d76-2c66-4964-ad24-5716ce09aec6","ios":"levelo://app?vid=10464d76-2c66-4964-ad24-5716ce09aec6"},"vehicle_type_id":"4","last_reported":1743242928,"current_range_meters":16400,"station_id":"ce4bguh2rcd13ifvqcj0","pricing_plan_id":"cebpf4jnsgd1na2vs0mg"},{"bike_id":"cdb23cee-8db9-4bb0-aaa7-914f0fcd7d3e","system_id":"levelo_inurba_marseille","lat":43.27997,"lon":5.36913,"is_reserved":false,"is_disabled":false,"rental_uris":{"android":"levelo://app?vid=cdb23cee-8db9-4bb0-aaa7-914f0fcd7d3e","ios":"levelo://app?vid=cdb23cee-8db9-4bb0-aaa7-914f0fcd7d3e"},"vehicle_type_id":"4","last_reported":1743242928,"current_range_meters":16400,"station_id":"ce4bha12rcd13ifvqef0","pricing_plan_id":"cebpf4jnsgd1na2vs0mg"},{"bike_id":"0e9d92a7-df29-43d8-906d-2a51c6561f7d","system_id":"levelo_inurba_marseille","lat":43.2843,"lon":5.34992,"is_reserved":false,"is_disabled":false,"rental_uris":{"android":"levelo://app?vid=0e9d92a7-df29-43d8-906d-2a51c6561f7d","ios":"levelo://app?vid=0e9d92a7-df29-43d8-906d-2a51c6561f7d"},"vehicle_type_id":"4","last_reported":1743242928,"current_range_meters":16400,"station_id":"ce4bhbh2rcd13ifvqepg","pricing_plan_id":"cebpf4jnsgd1na2vs0mg"},{"bike_id":"2a651215-29ff-4da6-821d-6aba547eb86b","system_id":"levelo_inurba_marseille","lat":43.292135,"lon":5.36046,"is_reserved":false,"is_disabled":false,"rental_uris":{"android":"levelo://app?vid=2a651215-29ff-4da6-821d-6aba547eb86b","ios":"levelo://app?vid=2a651215-29ff-4da6-821d-6aba547eb86b"},"vehicle_type_id":"4","last_reported":1743242928,"current_range_meters":16400,"station_id":"ce4bhbh2rcd13ifvqeqg","pricing_plan_id":"cebpf4jnsgd1na2vs0mg"},{"bike_id":"c4fb15b2-b6c9-4294-89c0-c7e0702ce2ad","system_id":"levelo_inurba_marseille","lat":43.2707,"lon":5.40258,"is_reserved":false,"is_disabled":false,"rental_uris":{"android":"levelo://app?vid=c4fb15b2-b6c9-4294-89c0-c7e0702ce2ad","ios":"levelo://app?vid=c4fb15b2-b6c9-4294-89c0-c7e0702ce2ad"},"vehicle_type_id":"4","last_reported":1743242928,"current_range_meters":16400,"station_id":"ce4bhk92rcd13ifvqgc0","pricing_plan_id":"cebpf4jnsgd1na2vs0mg"},{"bike_id":"860f6837-d8af-4d01-b895-5a0420462367","system_id":"levelo_inurba_marseille","lat":43.30353,"lon":5.4183,"is_reserved":false,"is_disabled":false,"rental_uris":{"android":"levelo://app?vid=860f6837-d8af-4d01-b895-5a0420462367","ios":"levelo://app?vid=860f6837-d8af-4d01-b895-5a0420462367"},"vehicle_type_id":"4","last_reported":1743242928,"current_range_meters":16400,"station_id":"ce4bhop2rcd13ifvqh7g","pricing_plan_id":"cebpf4jnsgd1na2vs0mg"},{"bike_id":"8bcc045e-f28b-442a-a0af-38457b26197c","system_id":"levelo_inurba_marseille","lat":43.24168,"lon":5.36404,"is_reserved":false,"is_disabled":false,"rental_uris":{"android":"levelo://app?vid=8bcc045e-f28b-442a-a0af-38457b26197c","ios":"levelo://app?vid=8bcc045e-f28b-442a-a0af-38457b26197c"},"vehicle_type_id":"4","last_reported":1743242928,"current_range_meters":16400,"station_id":"cpo36qri1sfpv3e86is0","pricing_plan_id":"cebpf4jnsgd1na2vs0mg"},{"bike_id":"f8feeb6c-4c74-49d7-9bbd-fe1d815b652b","system_id":"levelo_inurba_marseille","lat":43.32315,"lon":5.38873,"is_reserved":false,"is_disabled":false,"rental_uris":{"android":"levelo://app?vid=f8feeb6c-4c74-49d7-9bbd-fe1d815b652b","ios":"levelo://app?vid=f8feeb6c-4c74-49d7-9bbd-fe1d815b652b"},"vehicle_type_id":"4","last_reported":1743242928,"current_range_meters":16800,"station_id":"","pricing_plan_id":"cebpf4jnsgd1na2vs0mg"},{"bike_id":"f00c41d5-3001-4204-9e53-b380623ac516","system_id":"levelo_inurba_marseille","lat":43.34369,"lon":5.41724,"is_reserved":false,"is_disabled":false,"rental_uris":{"android":"levelo://app?vid=f00c41d5-3001-4204-9e53-b380623ac516","ios":"levelo://app?vid=f00c41d5-3001-4204-9e53-b380623ac516"},"vehicle_type_id":"4","last_reported":1743242928,"current_range_meters":16800,"station_id":"","pricing_plan_id":"cebpf4jnsgd1na2vs0mg"},{"bike_id":"e7b24d3d-7bef-4f2e-af1a-93d57286c871","system_id":"levelo_inurba_marseille","lat":43.29634,"lon":5.40598,"is_reserved":false,"is_disabled":false,"rental_uris":{"android":"levelo://app?vid=e7b24d3d-7bef-4f2e-af1a-93d57286c871","ios":"levelo://app?vid=e7b24d3d-7bef-4f2e-af1a-93d57286c871"},"vehicle_type_id":"4","last_reported":1743242928,"current_range_meters":16800,"station_id":"ce4bh0h2rcd13ifvqd60","pricing_plan_id":"cebpf4jnsgd1na2vs0mg"},{"bike_id":"81e628a5-f524-4f4e-8bf6-91cc652cbeac","system_id":"levelo_inurba_marseille","lat":43.26205,"lon":5.37458,"is_reserved":false,"is_disabled":false,"rental_uris":{"android":"levelo://app?vid=81e628a5-f524-4f4e-8bf6-91cc652cbeac","ios":"levelo://app?vid=81e628a5-f524-4f4e-8bf6-91cc652cbeac"},"vehicle_type_id":"4","last_reported":1743242928,"current_range_meters":16800,"station_id":"ce4bhgp2rcd13ifvqfc0","pricing_plan_id":"cebpf4jnsgd1na2vs0mg"},{"bike_id":"97de3317-fe63-4343-9ce9-eb5426f4d3be","system_id":"levelo_inurba_marseille","lat":43.26785,"lon":5.39416,"is_reserved":false,"is_disabled":false,"rental_uris":{"android":"levelo://app?vid=97de3317-fe63-4343-9ce9-eb5426f4d3be","ios":"levelo://app?vid=97de3317-fe63-4343-9ce9-eb5426f4d3be"},"vehicle_type_id":"4","last_reported":1743242928,"current_range_meters":16800,"station_id":"ce4bhh12rcd13ifvqfg0","pricing_plan_id":"cebpf4jnsgd1na2vs0mg"},{"bike_id":"6ef18dd7-1cb9-4ef6-bfdd-052cde57f183","system_id":"levelo_inurba_marseille","lat":43.32104,"lon":5.36791,"is_reserved":false,"is_disabled":false,"rental_uris":{"android":"levelo://app?vid=6ef18dd7-1cb9-4ef6-bfdd-052cde57f183","ios":"levelo://app?vid=6ef18dd7-1cb9-4ef6-bfdd-052cde57f183"},"vehicle_type_id":"4","last_reported":1743242928,"current_range_meters":16800,"station_id":"ce4bhrh2rcd13ifvqhug","pricing_plan_id":"cebpf4jnsgd1na2vs0mg"},{"bike_id":"275bc6b6-1772-4183-a522-de0f246b39c2","system_id":"levelo_inurba_marseille","lat":43.31539,"lon":5.3881,"is_reserved":false,"is_disabled":false,"rental_uris":{"android":"levelo://app?vid=275bc6b6-1772-4183-a522-de0f246b39c2","ios":"levelo://app?vid=275bc6b6-1772-4183-a522-de0f246b39c2"},"vehicle_type_id":"4","last_reported":1743242928,"current_range_meters":17200,"station_id":"","pricing_plan_id":"cebpf4jnsgd1na2vs0mg"},{"bike_id":"59359988-faf5-47a1-b5f8-d319a6e1abfa","system_id":"levelo_inurba_marseille","lat":43.28415,"lon":5.34982,"is_reserved":false,"is_disabled":false,"rental_uris":{"android":"levelo://app?vid=59359988-faf5-47a1-b5f8-d319a6e1abfa","ios":"levelo://app?vid=59359988-faf5-47a1-b5f8-d319a6e1abfa"},"vehicle_type_id":"4","last_reported":1743242928,"current_range_meters":17200,"station_id":"ce4bhbh2rcd13ifvqepg","pricing_plan_id":"cebpf4jnsgd1na2vs0mg"},{"bike_id":"b5711b97-0869-465f-bec6-2ec144d04676","system_id":"levelo_inurba_marseille","lat":43.26967,"lon":5.38627,"is_reserved":false,"is_disabled":false,"rental_uris":{"android":"levelo://app?vid=b5711b97-0869-465f-bec6-2ec144d04676","ios":"levelo://app?vid=b5711b97-0869-465f-bec6-2ec144d04676"},"vehicle_type_id":"4","last_reported":1743242928,"current_range_meters":17200,"station_id":"ce4bhh92rcd13ifvqfh0","pricing_plan_id":"cebpf4jnsgd1na2vs0mg"},{"bike_id":"0a054900-ac8c-4b77-a7f1-aac9c1d65319","system_id":"levelo_inurba_marseille","lat":43.22928,"lon":5.35369,"is_reserved":false,"is_disabled":false,"rental_uris":{"android":"levelo://app?vid=0a054900-ac8c-4b77-a7f1-aac9c1d65319","ios":"levelo://app?vid=0a054900-ac8c-4b77-a7f1-aac9c1d65319"},"vehicle_type_id":"4","last_reported":1743242928,"current_range_meters":17200,"station_id":"cpo3532slgdg3j2ikp40","pricing_plan_id":"cebpf4jnsgd1na2vs0mg"},{"bike_id":"9805d1d8-e29e-42a0-9d63-f8bc2aea07c1","system_id":"levelo_inurba_marseille","lat":43.292299,"lon":5.361602,"is_reserved":false,"is_disabled":false,"rental_uris":{"android":"levelo://app?vid=9805d1d8-e29e-42a0-9d63-f8bc2aea07c1","ios":"levelo://app?vid=9805d1d8-e29e-42a0-9d63-f8bc2aea07c1"},"vehicle_type_id":"4","last_reported":1743242928,"current_range_meters":17600,"station_id":"ce4bhbh2rcd13ifvqeqg","pricing_plan_id":"cebpf4jnsgd1na2vs0mg"},{"bike_id":"fdd97696-f47c-4e50-a549-29fbc635ff91","system_id":"levelo_inurba_marseille","lat":43.29509,"lon":5.37506,"is_reserved":false,"is_disabled":false,"rental_uris":{"android":"levelo://app?vid=fdd97696-f47c-4e50-a549-29fbc635ff91","ios":"levelo://app?vid=fdd97696-f47c-4e50-a549-29fbc635ff91"},"vehicle_type_id":"4","last_reported":1743242928,"current_range_meters":18000,"station_id":"ce4bgkp2rcd13ifvqbmg","pricing_plan_id":"cebpf4jnsgd1na2vs0mg"},{"bike_id":"5543037f-7ecd-4779-90ae-e6f4699ee2ea","system_id":"levelo_inurba_marseille","lat":43.28033,"lon":5.36944,"is_reserved":false,"is_disabled":false,"rental_uris":{"android":"levelo://app?vid=5543037f-7ecd-4779-90ae-e6f4699ee2ea","ios":"levelo://app?vid=5543037f-7ecd-4779-90ae-e6f4699ee2ea"},"vehicle_type_id":"4","last_reported":1743242928,"current_range_meters":18000,"station_id":"ce4bha12rcd13ifvqef0","pricing_plan_id":"cebpf4jnsgd1na2vs0mg"},{"bike_id":"8800990b-0588-4701-9f9b-d00ff201f1bf","system_id":"levelo_inurba_marseille","lat":43.31781,"lon":5.38998,"is_reserved":false,"is_disabled":false,"rental_uris":{"android":"levelo://app?vid=8800990b-0588-4701-9f9b-d00ff201f1bf","ios":"levelo://app?vid=8800990b-0588-4701-9f9b-d00ff201f1bf"},"vehicle_type_id":"4","last_reported":1743242928,"current_range_meters":18000,"station_id":"ce4bhqp2rcd13ifvqhng","pricing_plan_id":"cebpf4jnsgd1na2vs0mg"},{"bike_id":"76859129-4009-4843-90a4-dc4d2b65271a","system_id":"levelo_inurba_marseille","lat":43.24173,"lon":5.36424,"is_reserved":false,"is_disabled":false,"rental_uris":{"android":"levelo://app?vid=76859129-4009-4843-90a4-dc4d2b65271a","ios":"levelo://app?vid=76859129-4009-4843-90a4-dc4d2b65271a"},"vehicle_type_id":"4","last_reported":1743242928,"current_range_meters":18000,"station_id":"cpo36qri1sfpv3e86is0","pricing_plan_id":"cebpf4jnsgd1na2vs0mg"},{"bike_id":"922fd6d7-6f02-49e6-a470-76ac0bfca9d0","system_id":"levelo_inurba_marseille","lat":43.30161,"lon":5.38081,"is_reserved":false,"is_disabled":false,"rental_uris":{"android":"levelo://app?vid=922fd6d7-6f02-49e6-a470-76ac0bfca9d0","ios":"levelo://app?vid=922fd6d7-6f02-49e6-a470-76ac0bfca9d0"},"vehicle_type_id":"4","last_reported":1743242928,"current_range_meters":18800,"station_id":"ce4bgjp2rcd13ifvqbh0","pricing_plan_id":"cebpf4jnsgd1na2vs0mg"},{"bike_id":"175ea370-d6be-4eeb-9339-355f7843a364","system_id":"levelo_inurba_marseille","lat":43.31494,"lon":5.37293,"is_reserved":false,"is_disabled":false,"rental_uris":{"android":"levelo://app?vid=175ea370-d6be-4eeb-9339-355f7843a364","ios":"levelo://app?vid=175ea370-d6be-4eeb-9339-355f7843a364"},"vehicle_type_id":"4","last_reported":1743242928,"current_range_meters":18800,"station_id":"ce4bgt12rcd13ifvqcd0","pricing_plan_id":"cebpf4jnsgd1na2vs0mg"},{"bike_id":"02433696-a8ed-4ea5-bdc8-94c9406e788c","system_id":"levelo_inurba_marseille","lat":43.30482,"lon":5.37898,"is_reserved":false,"is_disabled":false,"rental_uris":{"android":"levelo://app?vid=02433696-a8ed-4ea5-bdc8-94c9406e788c","ios":"levelo://app?vid=02433696-a8ed-4ea5-bdc8-94c9406e788c"},"vehicle_type_id":"4","last_reported":1743242928,"current_range_meters":18800,"station_id":"ce4bgup2rcd13ifvqcn0","pricing_plan_id":"cebpf4jnsgd1na2vs0mg"},{"bike_id":"7bcef57b-2b32-4033-b8b4-6fd7fe51a930","system_id":"levelo_inurba_marseille","lat":43.28618,"lon":5.35111,"is_reserved":false,"is_disabled":false,"rental_uris":{"android":"levelo://app?vid=7bcef57b-2b32-4033-b8b4-6fd7fe51a930","ios":"levelo://app?vid=7bcef57b-2b32-4033-b8b4-6fd7fe51a930"},"vehicle_type_id":"4","last_reported":1743242928,"current_range_meters":18800,"station_id":"ce4bhch2rcd13ifvqeug","pricing_plan_id":"cebpf4jnsgd1na2vs0mg"},{"bike_id":"9ec526bf-8095-411f-9c0f-f7502093e3c5","system_id":"levelo_inurba_marseille","lat":43.304626,"lon":5.3791,"is_reserved":false,"is_disabled":false,"rental_uris":{"android":"levelo://app?vid=9ec526bf-8095-411f-9c0f-f7502093e3c5","ios":"levelo://app?vid=9ec526bf-8095-411f-9c0f-f7502093e3c5"},"vehicle_type_id":"4","last_reported":1743242928,"current_range_meters":18800,"station_id":"ce4bhip2rcd13ifvqft0","pricing_plan_id":"cebpf4jnsgd1na2vs0mg"},{"bike_id":"99eea32e-af3a-4b35-b526-bd722f859f86","system_id":"levelo_inurba_marseille","lat":43.27996,"lon":5.41666,"is_reserved":false,"is_disabled":false,"rental_uris":{"android":"levelo://app?vid=99eea32e-af3a-4b35-b526-bd722f859f86","ios":"levelo://app?vid=99eea32e-af3a-4b35-b526-bd722f859f86"},"vehicle_type_id":"4","last_reported":1743242928,"current_range_meters":18800,"station_id":"ce4bho12rcd13ifvqh1g","pricing_plan_id":"cebpf4jnsgd1na2vs0mg"},{"bike_id":"c2e94277-389b-4482-ae7e-0f90e44fa1e2","system_id":"levelo_inurba_marseille","lat":43.32124,"lon":5.36769,"is_reserved":false,"is_disabled":false,"rental_uris":{"android":"levelo://app?vid=c2e94277-389b-4482-ae7e-0f90e44fa1e2","ios":"levelo://app?vid=c2e94277-389b-4482-ae7e-0f90e44fa1e2"},"vehicle_type_id":"4","last_reported":1743242928,"current_range_meters":18800,"station_id":"ce4bhrh2rcd13ifvqhug","pricing_plan_id":"cebpf4jnsgd1na2vs0mg"},{"bike_id":"1959cc84-d2d5-4b16-bac3-c017c27eb3d7","system_id":"levelo_inurba_marseille","lat":43.3236,"lon":5.36764,"is_reserved":false,"is_disabled":false,"rental_uris":{"android":"levelo://app?vid=1959cc84-d2d5-4b16-bac3-c017c27eb3d7","ios":"levelo://app?vid=1959cc84-d2d5-4b16-bac3-c017c27eb3d7"},"vehicle_type_id":"4","last_reported":1743242928,"current_range_meters":18800,"station_id":"ce4bhsh2rcd13ifvqi2g","pricing_plan_id":"cebpf4jnsgd1na2vs0mg"},{"bike_id":"d269d916-575a-40f2-b22f-3ad159ab6100","system_id":"levelo_inurba_marseille","lat":43.28803,"lon":5.35867,"is_reserved":false,"is_disabled":false,"rental_uris":{"android":"levelo://app?vid=d269d916-575a-40f2-b22f-3ad159ab6100","ios":"levelo://app?vid=d269d916-575a-40f2-b22f-3ad159ab6100"},"vehicle_type_id":"4","last_reported":1743242928,"current_range_meters":19200,"station_id":"","pricing_plan_id":"cebpf4jnsgd1na2vs0mg"},{"bike_id":"371e4f33-be41-4e36-ad6b-1e9016514796","system_id":"levelo_inurba_marseille","lat":43.30543,"lon":5.36558,"is_reserved":false,"is_disabled":false,"rental_uris":{"android":"levelo://app?vid=371e4f33-be41-4e36-ad6b-1e9016514796","ios":"levelo://app?vid=371e4f33-be41-4e36-ad6b-1e9016514796"},"vehicle_type_id":"4","last_reported":1743242928,"current_range_meters":19200,"station_id":"ce4bgs12rcd13ifvqcag","pricing_plan_id":"cebpf4jnsgd1na2vs0mg"},{"bike_id":"8f3ba88f-fa34-4b04-bb1d-265aa01df6be","system_id":"levelo_inurba_marseille","lat":43.30507,"lon":5.37915,"is_reserved":false,"is_disabled":false,"rental_uris":{"android":"levelo://app?vid=8f3ba88f-fa34-4b04-bb1d-265aa01df6be","ios":"levelo://app?vid=8f3ba88f-fa34-4b04-bb1d-265aa01df6be"},"vehicle_type_id":"4","last_reported":1743242928,"current_range_meters":19200,"station_id":"ce4bgup2rcd13ifvqcn0","pricing_plan_id":"cebpf4jnsgd1na2vs0mg"},{"bike_id":"7a914d58-8d4b-4496-a080-93127edec177","system_id":"levelo_inurba_marseille","lat":43.30088,"lon":5.3908,"is_reserved":false,"is_disabled":false,"rental_uris":{"android":"levelo://app?vid=7a914d58-8d4b-4496-a080-93127edec177","ios":"levelo://app?vid=7a914d58-8d4b-4496-a080-93127edec177"},"vehicle_type_id":"4","last_reported":1743242928,"current_range_meters":19200,"station_id":"ce4bh192rcd13ifvqdb0","pricing_plan_id":"cebpf4jnsgd1na2vs0mg"},{"bike_id":"97c1220e-f5ad-4c82-bf88-230bc2ad41f8","system_id":"levelo_inurba_marseille","lat":43.28873,"lon":5.35857,"is_reserved":false,"is_disabled":false,"rental_uris":{"android":"levelo://app?vid=97c1220e-f5ad-4c82-bf88-230bc2ad41f8","ios":"levelo://app?vid=97c1220e-f5ad-4c82-bf88-230bc2ad41f8"},"vehicle_type_id":"4","last_reported":1743242928,"current_range_meters":19200,"station_id":"ce4bhb12rcd13ifvqem0","pricing_plan_id":"cebpf4jnsgd1na2vs0mg"},{"bike_id":"d2bdab8d-508c-4617-a487-d6f2ad6bec6a","system_id":"levelo_inurba_marseille","lat":43.286208,"lon":5.351091,"is_reserved":false,"is_disabled":false,"rental_uris":{"android":"levelo://app?vid=d2bdab8d-508c-4617-a487-d6f2ad6bec6a","ios":"levelo://app?vid=d2bdab8d-508c-4617-a487-d6f2ad6bec6a"},"vehicle_type_id":"4","last_reported":1743242928,"current_range_meters":19200,"station_id":"ce4bhch2rcd13ifvqeug","pricing_plan_id":"cebpf4jnsgd1na2vs0mg"},{"bike_id":"e5e87896-fc79-4739-9748-f5cd1d13e44f","system_id":"levelo_inurba_marseille","lat":43.286108,"lon":5.351008,"is_reserved":false,"is_disabled":false,"rental_uris":{"android":"levelo://app?vid=e5e87896-fc79-4739-9748-f5cd1d13e44f","ios":"levelo://app?vid=e5e87896-fc79-4739-9748-f5cd1d13e44f"},"vehicle_type_id":"4","last_reported":1743242928,"current_range_meters":19200,"station_id":"ce4bhch2rcd13ifvqeug","pricing_plan_id":"cebpf4jnsgd1na2vs0mg"},{"bike_id":"f646d87d-affb-468a-8cde-bb7d28574574","system_id":"levelo_inurba_marseille","lat":43.26039,"lon":5.37549,"is_reserved":false,"is_disabled":false,"rental_uris":{"android":"levelo://app?vid=f646d87d-affb-468a-8cde-bb7d28574574","ios":"levelo://app?vid=f646d87d-affb-468a-8cde-bb7d28574574"},"vehicle_type_id":"4","last_reported":1743242928,"current_range_meters":19200,"station_id":"ce4bhgh2rcd13ifvqfa0","pricing_plan_id":"cebpf4jnsgd1na2vs0mg"},{"bike_id":"98a95416-3d68-4017-b418-07e6d93df48c","system_id":"levelo_inurba_marseille","lat":43.28105,"lon":5.378341,"is_reserved":false,"is_disabled":false,"rental_uris":{"android":"levelo://app?vid=98a95416-3d68-4017-b418-07e6d93df48c","ios":"levelo://app?vid=98a95416-3d68-4017-b418-07e6d93df48c"},"vehicle_type_id":"4","last_reported":1743242928,"current_range_meters":19200,"station_id":"ce4bhgp2rcd13ifvqfe0","pricing_plan_id":"cebpf4jnsgd1na2vs0mg"},{"bike_id":"4f56fdeb-39bf-4f19-a5a9-41ea1f05f69a","system_id":"levelo_inurba_marseille","lat":43.23966,"lon":5.3663,"is_reserved":false,"is_disabled":false,"rental_uris":{"android":"levelo://app?vid=4f56fdeb-39bf-4f19-a5a9-41ea1f05f69a","ios":"levelo://app?vid=4f56fdeb-39bf-4f19-a5a9-41ea1f05f69a"},"vehicle_type_id":"4","last_reported":1743242928,"current_range_meters":19200,"station_id":"ce4bhi12rcd13ifvqfp0","pricing_plan_id":"cebpf4jnsgd1na2vs0mg"},{"bike_id":"1e065ad1-2051-499f-bf72-426868b72f8a","system_id":"levelo_inurba_marseille","lat":43.25577,"lon":5.38226,"is_reserved":false,"is_disabled":false,"rental_uris":{"android":"levelo://app?vid=1e065ad1-2051-499f-bf72-426868b72f8a","ios":"levelo://app?vid=1e065ad1-2051-499f-bf72-426868b72f8a"},"vehicle_type_id":"4","last_reported":1743242928,"current_range_meters":19200,"station_id":"ce4bhih2rcd13ifvqfs0","pricing_plan_id":"cebpf4jnsgd1na2vs0mg"},{"bike_id":"526bdaba-7bf8-4c4b-a2cf-d6eda67c57ff","system_id":"levelo_inurba_marseille","lat":43.25574,"lon":5.38234,"is_reserved":false,"is_disabled":false,"rental_uris":{"android":"levelo://app?vid=526bdaba-7bf8-4c4b-a2cf-d6eda67c57ff","ios":"levelo://app?vid=526bdaba-7bf8-4c4b-a2cf-d6eda67c57ff"},"vehicle_type_id":"4","last_reported":1743242928,"current_range_meters":19200,"station_id":"ce4bhih2rcd13ifvqfs0","pricing_plan_id":"cebpf4jnsgd1na2vs0mg"},{"bike_id":"ec358d98-07a4-4009-89d4-d2a998165868","system_id":"levelo_inurba_marseille","lat":43.25578,"lon":5.38229,"is_reserved":false,"is_disabled":false,"rental_uris":{"android":"levelo://app?vid=ec358d98-07a4-4009-89d4-d2a998165868","ios":"levelo://app?vid=ec358d98-07a4-4009-89d4-d2a998165868"},"vehicle_type_id":"4","last_reported":1743242928,"current_range_meters":19200,"station_id":"ce4bhih2rcd13ifvqfs0","pricing_plan_id":"cebpf4jnsgd1na2vs0mg"},{"bike_id":"dab56e4f-fbbe-4215-b202-bcacf6d614b1","system_id":"levelo_inurba_marseille","lat":43.30422,"lon":5.41302,"is_reserved":false,"is_disabled":false,"rental_uris":{"android":"levelo://app?vid=dab56e4f-fbbe-4215-b202-bcacf6d614b1","ios":"levelo://app?vid=dab56e4f-fbbe-4215-b202-bcacf6d614b1"},"vehicle_type_id":"4","last_reported":1743242928,"current_range_meters":19200,"station_id":"ce4bhop2rcd13ifvqh8g","pricing_plan_id":"cebpf4jnsgd1na2vs0mg"},{"bike_id":"5a92a956-d3a6-4e4d-8122-e43495629b3b","system_id":"levelo_inurba_marseille","lat":43.33742,"lon":5.39183,"is_reserved":false,"is_disabled":false,"rental_uris":{"android":"levelo://app?vid=5a92a956-d3a6-4e4d-8122-e43495629b3b","ios":"levelo://app?vid=5a92a956-d3a6-4e4d-8122-e43495629b3b"},"vehicle_type_id":"4","last_reported":1743242928,"current_range_meters":19200,"station_id":"ce4bhr92rcd13ifvqhsg","pricing_plan_id":"cebpf4jnsgd1na2vs0mg"},{"bike_id":"694926d4-d5ca-4c63-b9c9-6c12742a2ce2","system_id":"levelo_inurba_marseille","lat":43.32111,"lon":5.36764,"is_reserved":false,"is_disabled":false,"rental_uris":{"android":"levelo://app?vid=694926d4-d5ca-4c63-b9c9-6c12742a2ce2","ios":"levelo://app?vid=694926d4-d5ca-4c63-b9c9-6c12742a2ce2"},"vehicle_type_id":"4","last_reported":1743242928,"current_range_meters":19200,"station_id":"ce4bhrh2rcd13ifvqhug","pricing_plan_id":"cebpf4jnsgd1na2vs0mg"},{"bike_id":"6121dc52-c3af-4e5d-92ba-b7916c28bf5d","system_id":"levelo_inurba_marseille","lat":43.29725,"lon":5.377,"is_reserved":false,"is_disabled":false,"rental_uris":{"android":"levelo://app?vid=6121dc52-c3af-4e5d-92ba-b7916c28bf5d","ios":"levelo://app?vid=6121dc52-c3af-4e5d-92ba-b7916c28bf5d"},"vehicle_type_id":"4","last_reported":1743242928,"current_range_meters":19600,"station_id":"ce4bgkh2rcd13ifvqbl0","pricing_plan_id":"cebpf4jnsgd1na2vs0mg"},{"bike_id":"b90ea539-cd4c-4e2f-8708-ffa01e215a77","system_id":"levelo_inurba_marseille","lat":43.29711,"lon":5.36597,"is_reserved":false,"is_disabled":false,"rental_uris":{"android":"levelo://app?vid=b90ea539-cd4c-4e2f-8708-ffa01e215a77","ios":"levelo://app?vid=b90ea539-cd4c-4e2f-8708-ffa01e215a77"},"vehicle_type_id":"4","last_reported":1743242928,"current_range_meters":19600,"station_id":"ce4bgn12rcd13ifvqbt0","pricing_plan_id":"cebpf4jnsgd1na2vs0mg"},{"bike_id":"3025907f-3460-4aaf-aed6-577e840c104a","system_id":"levelo_inurba_marseille","lat":43.29189,"lon":5.35804,"is_reserved":false,"is_disabled":false,"rental_uris":{"android":"levelo://app?vid=3025907f-3460-4aaf-aed6-577e840c104a","ios":"levelo://app?vid=3025907f-3460-4aaf-aed6-577e840c104a"},"vehicle_type_id":"4","last_reported":1743242928,"current_range_meters":19600,"station_id":"ce4bhb12rcd13ifvqel0","pricing_plan_id":"cebpf4jnsgd1na2vs0mg"},{"bike_id":"e24df3ca-d1a9-442c-8ef1-b2ee2295db9b","system_id":"levelo_inurba_marseille","lat":43.27497,"lon":5.42463,"is_reserved":false,"is_disabled":false,"rental_uris":{"android":"levelo://app?vid=e24df3ca-d1a9-442c-8ef1-b2ee2295db9b","ios":"levelo://app?vid=e24df3ca-d1a9-442c-8ef1-b2ee2295db9b"},"vehicle_type_id":"4","last_reported":1743242928,"current_range_meters":19600,"station_id":"ce4bhn92rcd13ifvqgrg","pricing_plan_id":"cebpf4jnsgd1na2vs0mg"},{"bike_id":"df283053-029a-4334-b677-97fa1c862d0e","system_id":"levelo_inurba_marseille","lat":43.28719,"lon":5.360918,"is_reserved":false,"is_disabled":false,"rental_uris":{"android":"levelo://app?vid=df283053-029a-4334-b677-97fa1c862d0e","ios":"levelo://app?vid=df283053-029a-4334-b677-97fa1c862d0e"},"vehicle_type_id":"4","last_reported":1743242928,"current_range_meters":19600,"station_id":"cki0cbj6b192h4jlfktg","pricing_plan_id":"cebpf4jnsgd1na2vs0mg"},{"bike_id":"9c57d673-3292-44f7-a5d1-19214fab8938","system_id":"levelo_inurba_marseille","lat":43.281172,"lon":5.437568,"is_reserved":false,"is_disabled":false,"rental_uris":{"android":"levelo://app?vid=9c57d673-3292-44f7-a5d1-19214fab8938","ios":"levelo://app?vid=9c57d673-3292-44f7-a5d1-19214fab8938"},"vehicle_type_id":"4","last_reported":1743242928,"current_range_meters":20000,"station_id":"","pricing_plan_id":"cebpf4jnsgd1na2vs0mg"},