{"last_updated":1750061738,"ttl":60,"version":"2.2","data":{"bikes":[{"bike_id":"b31f0139-170f-4194-984f-4386218a1e9d","system_id":"levelo_inurba_marseille","lat":43.33771,"lon":5.37424,"is_reserved":false,"is_disabled":true,"rental_uris":{"android":"levelo://app?vid=b31f0139-170f-4194-984f-4386218a1e9d","ios":"levelo://app?vid=b31f0139-170f-4194-984f-4386218a1e9d"},"vehicle_type_id":"4","last_reported":1750061738,"current_range_meters":0,"station_id":"","pricing_plan_id":"cebpf4jnsgd1na2vs0mg"},{"bike_id":"1acfb620-cad7-48c0-8901-d7a5b74a5b65","system_id":"levelo_inurba_marseille","lat":43.33751,"lon":5.37456,"is_reserved":false,"is_disabled":true,"rental_uris":{"android":"levelo://app?vid=1acfb620-cad7-48c0-8901-d7a5b74a5b65","ios":"levelo://app?vid=1acfb620-cad7-48c0-8901-d7a5b74a5b65"},"vehicle_type_id":"4","last_reported":1750061738,"current_range_meters":0,"station_id":"","pricing_plan_id":"cebpf4jnsgd1na2vs0mg"},{"bike_id":"bf89d78c-eb96-40d5-beb0-f402ef102cc1","system_id":"levelo_inurba_marseille","lat":43.337444,"lon":5.374475,"is_reserved":false,"is_disabled":true,"rental_uris":{"android":"levelo://app?vid=bf89d78c-eb96-40d5-beb0-f402ef102cc1","ios":"levelo://app?vid=bf89d78c-eb96-40d5-beb0-f402ef102cc1"},"vehicle_type_id":"4","last_reported":1750061738,"current_range_meters":0,"station_id":"","pricing_plan_id":"cebpf4jnsgd1na2vs0mg"},{"bike_id":"3d6ef34c-1ec6-4ed3-88e4-07359f729c42","system_id":"levelo_inurba_marseille","lat":43.275788,"lon":5.433962,"is_reserved":false,"is_disabled":true,"rental_uris":{"android":"levelo://app?vid=3d6ef34c-1ec6-4ed3-88e4-07359f729c42","ios":"levelo://app?vid=3d6ef34c-1ec6-4ed3-88e4-07359f729c42"},"vehicle_type_id":"4","last_reported":1750061738,"current_range_meters":0,"station_id":"","pricing_plan_id":"cebpf4jnsgd1na2vs0mg"},{"bike_id":"5077581b-cebb-46fc-ba69-4fa8272d4810","system_id":"levelo_inurba_marseille","lat":43.21365,"lon":5.35524,"is_reserved":false,"is_disabled":true,"rental_uris":{"android":"levelo://app?vid=5077581b-cebb-46fc-ba69-4fa8272d4810","ios":"levelo://app?vid=5077581b-cebb-46fc-ba69-4fa8272d4810"},"vehicle_type_id":"4","last_reported":1750061738,"current_range_meters":0,"station_id":"","pricing_plan_id":"cebpf4jnsgd1na2vs0mg"},{"bike_id":"0084bbd7-8a64-49e3-aecc-4e8ead3b036a","system_id":"levelo_inurba_marseille","lat":43.24639,"lon":5.43243,"is_reserved":false,"is_disabled":true,"rental_uris":{"android":"levelo://app?vid=0084bbd7-8a64-49e3-aecc-4e8ead3b036a","ios":"levelo://app?vid=0084bbd7-8a64-49e3-aecc-4e8ead3b036a"},"vehicle_type_id":"4","last_reported":1750061738,"current_range_meters":0,"station_id":"","pricing_plan_id":"cebpf4jnsgd1na2vs0mg"},{"bike_id":"ebf89cec-3e1a-4275-9cd0-a3d19d69b5cf","system_id":"levelo_inurba_marseille","lat":43.279771,"lon":5.3848,"is_reserved":false,"is_disabled":true,"rental_uris":{"android":"levelo://app?vid=ebf89cec-3e1a-4275-9cd0-a3d19d69b5cf","ios":"levelo://app?vid=ebf89cec-3e1a-4275-9cd0-a3d19d69b5cf"},"vehicle_type_id":"4","last_reported":1750061738,"current_range_meters":0,"station_id":"","pricing_plan_id":"cebpf4jnsgd1na2vs0mg"},{"bike_id":"8d5b13ba-4ed3-4fe0-9cf9-1b79b6e1ad00","system_id":"levelo_inurba_marseille","lat":43.26052,"lon":5.38735,"is_reserved":false,"is_disabled":true,"rental_uris":{"android":"levelo://app?vid=8d5b13ba-4ed3-4fe0-9cf9-1b79b6e1ad00","ios":"levelo://app?vid=8d5b13ba-4ed3-4fe0-9cf9-1b79b6e1ad00"},"vehicle_type_id":"4","last_reported":1750061738,"current_range_meters":0,"station_id":"","pricing_plan_id":"cebpf4jnsgd1na2vs0mg"},{"bike_id":"8d60347d-541c-40fb-90ca-203bf6bd520a","system_id":"levelo_inurba_marseille","lat":43.27124,"lon":5.36377,"is_reserved":false,"is_disabled":true,"rental_uris":{"android":"levelo://app?vid=8d60347d-541c-40fb-90ca-203bf6bd520a","ios":"levelo://app?vid=8d60347d-541c-40fb-90ca-203bf6bd520a"},"vehicle_type_id":"4","last_reported":1750061738,"current_range_meters":0,"station_id":"","pricing_plan_id":"cebpf4jnsgd1na2vs0mg"},{"bike_id":"375cf6e2-9084-4098-ab27-8d4a8a4f6660","system_id":"levelo_inurba_marseille","lat":43.22478,"lon":5.34806,"is_reserved":false,"is_disabled":true,"rental_uris":{"android":"levelo://app?vid=375cf6e2-9084-4098-ab27-8d4a8a4f6660","ios":"levelo://app?vid=375cf6e2-9084-4098-ab27-8d4a8a4f6660"},"vehicle_type_id":"4","last_reported":1750061738,"current_range_meters":0,"station_id":"","pricing_plan_id":"cebpf4jnsgd1na2vs0mg"},{"bike_id":"98afa141-26c5-45c8-a0a6-15fd54ac73ab","system_id":"levelo_inurba_marseille","lat":43.21547,"lon":5.34739,"is_reserved":false,"is_disabled":true,"rental_uris":{"android":"levelo://app?vid=98afa141-26c5-45c8-a0a6-15fd54ac73ab","ios":"levelo://app?vid=98afa141-26c5-45c8-a0a6-15fd54ac73ab"},"vehicle_type_id":"4","last_reported":1750061738,"current_range_meters":0,"station_id":"","pricing_plan_id":"cebpf4jnsgd1na2vs0mg"},{"bike_id":"492f4bbd-1190-4ef2-b66a-479ffe91b09b","system_id":"levelo_inurba_marseille","lat":43.337444,"lon":5.374475,"is_reserved":false,"is_disabled":true,"rental_uris":{"android":"levelo://app?vid=492f4bbd-1190-4ef2-b66a-479ffe91b09b","ios":"levelo://app?vid=492f4bbd-1190-4ef2-b66a-479ffe91b09b"},"vehicle_type_id":"4","last_reported":1750061738,"current_range_meters":0,"station_id":"","pricing_plan_id":"cebpf4jnsgd1na2vs0mg"},{"bike_id":"ba90ac15-0bbf-4c03-9641-7d8a0a98114f","system_id":"levelo_inurba_marseille","lat":43.2993,"lon":5.36546,"is_reserved":false,"is_disabled":true,"rental_uris":{"android":"levelo://app?vid=ba90ac15-0bbf-4c03-9641-7d8a0a98114f","ios":"levelo://app?vid=ba90ac15-0bbf-4c03-9641-7d8a0a98114f"},"vehicle_type_id":"4","last_reported":1750061738,"current_range_meters":0,"station_id":"ce4bgm92rcd13ifvqbr0","pricing_plan_id":"cebpf4jnsgd1na2vs0mg"},{"bike_id":"f1968134-bb3a-4bd9-b2b3-c1f9f7d72bb3","system_id":"levelo_inurba_marseille","lat":43.30469,"lon":5.37917,"is_reserved":false,"is_disabled":true,"rental_uris":{"android":"levelo://app?vid=f1968134-bb3a-4bd9-b2b3-c1f9f7d72bb3","ios":"levelo://app?vid=f1968134-bb3a-4bd9-b2b3-c1f9f7d72bb3"},"vehicle_type_id":"4","last_reported":1750061738,"current_range_meters":0,"station_id":"ce4bgup2rcd13ifvqcn0","pricing_plan_id":"cebpf4jnsgd1na2vs0mg"},{"bike_id":"eea676e3-180d-447e-8fc7-0e5c2db5b006","system_id":"levelo_inurba_marseille","lat":43.30952,"lon":5.39009,"is_reserved":false,"is_disabled":true,"rental_uris":{"android":"levelo://app?vid=eea676e3-180d-447e-8fc7-0e5c2db5b006","ios":"levelo://app?vid=eea676e3-180d-447e-8fc7-0e5c2db5b006"},"vehicle_type_id":"4","last_reported":1750061738,"current_range_meters":0,"station_id":"ce4bgup2rcd13ifvqco0","pricing_plan_id":"cebpf4jnsgd1na2vs0mg"},{"bike_id":"8ceb7db5-8456-48ed-bec9-9cb94e6f7f3b","system_id":"levelo_inurba_marseille","lat":43.30793,"lon":5.37655,"is_reserved":false,"is_disabled":true,"rental_uris":{"android":"levelo://app?vid=8ceb7db5-8456-48ed-bec9-9cb94e6f7f3b","ios":"levelo://app?vid=8ceb7db5-8456-48ed-bec9-9cb94e6f7f3b"},"vehicle_type_id":"4","last_reported":1750061738,"current_range_meters":0,"station_id":"ce4bgv92rcd13ifvqcq0","pricing_plan_id":"cebpf4jnsgd1na2vs0mg"},{"bike_id":"868ff70d-4b6f-4910-85c1-405777f6d88e","system_id":"levelo_inurba_marseille","lat":43.28427,"lon":5.35011,"is_reserved":false,"is_disabled":true,"rental_uris":{"android":"levelo://app?vid=868ff70d-4b6f-4910-85c1-405777f6d88e","ios":"levelo://app?vid=868ff70d-4b6f-4910-85c1-405777f6d88e"},"vehicle_type_id":"4","last_reported":1750061738,"current_range_meters":0,"station_id":"ce4bhbh2rcd13ifvqepg","pricing_plan_id":"cebpf4jnsgd1na2vs0mg"},{"bike_id":"a9375101-356a-4756-bfc0-b14e4e0a1900","system_id":"levelo_inurba_marseille","lat":43.29223,"lon":5.36079,"is_reserved":false,"is_disabled":true,"rental_uris":{"android":"levelo://app?vid=a9375101-356a-4756-bfc0-b14e4e0a1900","ios":"levelo://app?vid=a9375101-356a-4756-bfc0-b14e4e0a1900"},"vehicle_type_id":"4","last_reported":1750061738,"current_range_meters":0,"station_id":"ce4bhbh2rcd13ifvqeqg","pricing_plan_id":"cebpf4jnsgd1na2vs0mg"},{"bike_id":"d67c7832-23b7-4917-a505-bc9d2f70ea59","system_id":"levelo_inurba_marseille","lat":43.28272,"lon":5.35066,"is_reserved":false,"is_disabled":true,"rental_uris":{"android":"levelo://app?vid=d67c7832-23b7-4917-a505-bc9d2f70ea59","ios":"levelo://app?vid=d67c7832-23b7-4917-a505-bc9d2f70ea59"},"vehicle_type_id":"4","last_reported":1750061738,"current_range_meters":0,"station_id":"ce4bhbp2rcd13ifvqerg","pricing_plan_id":"cebpf4jnsgd1na2vs0mg"},{"bike_id":"2078c0c9-3606-4ae2-a19e-bbbd44327bce","system_id":"levelo_inurba_marseille","lat":43.270574,"lon":5.40258,"is_reserved":false,"is_disabled":true,"rental_uris":{"android":"levelo://app?vid=2078c0c9-3606-4ae2-a19e-bbbd44327bce","ios":"levelo://app?vid=2078c0c9-3606-4ae2-a19e-bbbd44327bce"},"vehicle_type_id":"4","last_reported":1750061738,"current_range_meters":0,"station_id":"ce4bhk92rcd13ifvqgc0","pricing_plan_id":"cebpf4jnsgd1na2vs0mg"},{"bike_id":"1a053efc-6835-4fe3-8b2d-e42486c2efbb","system_id":"levelo_inurba_marseille","lat":43.23162,"lon":5.43697,"is_reserved":false,"is_disabled":true,"rental_uris":{"android":"levelo://app?vid=1a053efc-6835-4fe3-8b2d-e42486c2efbb","ios":"levelo://app?vid=1a053efc-6835-4fe3-8b2d-e42486c2efbb"},"vehicle_type_id":"4","last_reported":1750061738,"current_range_meters":0,"station_id":"ce4bhmp2rcd13ifvqgog","pricing_plan_id":"cebpf4jnsgd1na2vs0mg"},{"bike_id":"be5ab7c9-a8ec-4665-9186-3716b38595cd","system_id":"levelo_inurba_marseille","lat":43.24066,"lon":5.37744,"is_reserved":false,"is_disabled":true,"rental_uris":{"android":"levelo://app?vid=be5ab7c9-a8ec-4665-9186-3716b38595cd","ios":"levelo://app?vid=be5ab7c9-a8ec-4665-9186-3716b38595cd"},"vehicle_type_id":"4","last_reported":1750061738,"current_range_meters":0,"station_id":"ce4bhnp2rcd13ifvqgvg","pricing_plan_id":"cebpf4jnsgd1na2vs0mg"},{"bike_id":"7d502a0f-0a05-42d9-b417-731176de016b","system_id":"levelo_inurba_marseille","lat":43.33745,"lon":5.39181,"is_reserved":false,"is_disabled":true,"rental_uris":{"android":"levelo://app?vid=7d502a0f-0a05-42d9-b417-731176de016b","ios":"levelo://app?vid=7d502a0f-0a05-42d9-b417-731176de016b"},"vehicle_type_id":"4","last_reported":1750061738,"current_range_meters":0,"station_id":"ce4bhr92rcd13ifvqhsg","pricing_plan_id":"cebpf4jnsgd1na2vs0mg"},{"bike_id":"22c3ae00-c15a-4c5b-b525-e9273267125c","system_id":"levelo_inurba_marseille","lat":43.225,"lon":5.34782,"is_reserved":false,"is_disabled":true,"rental_uris":{"android":"levelo://app?vid=22c3ae00-c15a-4c5b-b525-e9273267125c","ios":"levelo://app?vid=22c3ae00-c15a-4c5b-b525-e9273267125c"},"vehicle_type_id":"4","last_reported":1750061738,"current_range_meters":0,"station_id":"st_cvj5dfep6f1abm77gieg","pricing_plan_id":"cebpf4jnsgd1na2vs0mg"},{"bike_id":"9aea8b8c-7d2c-47e6-9e92-fd12236b644f","system_id":"levelo_inurba_marseille","lat":43.21754,"lon":5.34603,"is_reserved":false,"is_disabled":true,"rental_uris":{"android":"levelo://app?vid=9aea8b8c-7d2c-47e6-9e92-fd12236b644f","ios":"levelo://app?vid=9aea8b8c-7d2c-47e6-9e92-fd12236b644f"},"vehicle_type_id":"4","last_reported":1750061738,"current_range_meters":0,"station_id":"st_cvj6r9ubvosntc0bgbag","pricing_plan_id":"cebpf4jnsgd1na2vs0mg"},{"bike_id":"e96fd292-d1d2-4ad3-9f7d-f824285b3662","system_id":"levelo_inurba_marseille","lat":43.21775,"lon":5.34584,"is_reserved":false,"is_disabled":true,"rental_uris":{"android":"levelo://app?vid=e96fd292-d1d2-4ad3-9f7d-f824285b3662","ios":"levelo://app?vid=e96fd292-d1d2-4ad3-9f7d-f824285b3662"},"vehicle_type_id":"4","last_reported":1750061738,"current_range_meters":0,"station_id":"st_cvj6r9ubvosntc0bgbag","pricing_plan_id":"cebpf4jnsgd1na2vs0mg"},{"bike_id":"501b39d0-afad-4d54-8e5f-7c984c0c336d","system_id":"levelo_inurba_marseille","lat":43.21203,"lon":5.35066,"is_reserved":false,"is_disabled":true,"rental_uris":{"android":"levelo://app?vid=501b39d0-afad-4d54-8e5f-7c984c0c336d","ios":"levelo://app?vid=501b39d0-afad-4d54-8e5f-7c984c0c336d"},"vehicle_type_id":"4","last_reported":1750061738,"current_range_meters":0,"station_id":"st_cvj6sg6p6f1abm77japg","pricing_plan_id":"cebpf4jnsgd1na2vs0mg"},{"bike_id":"2a83ae2f-a99a-4a3e-9402-1e60d522e115","system_id":"levelo_inurba_marseille","lat":43.21183,"lon":5.35073,"is_reserved":false,"is_disabled":true,"rental_uris":{"android":"levelo://app?vid=2a83ae2f-a99a-4a3e-9402-1e60d522e115","ios":"levelo://app?vid=2a83ae2f-a99a-4a3e-9402-1e60d522e115"},"vehicle_type_id":"4","last_reported":1750061738,"current_range_meters":0,"station_id":"st_cvj6sg6p6f1abm77japg","pricing_plan_id":"cebpf4jnsgd1na2vs0mg"},{"bike_id":"1b333abc-a508-4381-b962-c606a4b9a8d3","system_id":"levelo_inurba_marseille","lat":43.21186,"lon":5.35075,"is_reserved":false,"is_disabled":true,"rental_uris":{"android":"levelo://app?vid=1b333abc-a508-4381-b962-c606a4b9a8d3","ios":"levelo://app?vid=1b333abc-a508-4381-b962-c606a4b9a8d3"},"vehicle_type_id":"4","last_reported":1750061738,"current_range_meters":0,"station_id":"st_cvj6sg6p6f1abm77japg","pricing_plan_id":"cebpf4jnsgd1na2vs0mg"},{"bike_id":"b2a9f3d3-e9b0-47d4-908c-88b6fb21205f","system_id":"levelo_inurba_marseille","lat":43.27253,"lon":5.36264,"is_reserved":false,"is_disabled":true,"rental_uris":{"android":"levelo://app?vid=b2a9f3d3-e9b0-47d4-908c-88b6fb21205f","ios":"levelo://app?vid=b2a9f3d3-e9b0-47d4-908c-88b6fb21205f"},"vehicle_type_id":"4","last_reported":1750061738,"current_range_meters":800,"station_id":"","pricing_plan_id":"cebpf4jnsgd1na2vs0mg"},{"bike_id":"c3bf8c69-f8e3-4d5b-9ecf-35c6f987fda0","system_id":"levelo_inurba_marseille","lat":43.292847,"lon":5.401149,"is_reserved":false,"is_disabled":true,"rental_uris":{"android":"levelo://app?vid=c3bf8c69-f8e3-4d5b-9ecf-35c6f987fda0","ios":"levelo://app?vid=c3bf8c69-f8e3-4d5b-9ecf-35c6f987fda0"},"vehicle_type_id":"4","last_reported":1750061738,"current_range_meters":800,"station_id":"ce4bh312rcd13ifvqdk0","pricing_plan_id":"cebpf4jnsgd1na2vs0mg"},{"bike_id":"ccdc17ec-d8a7-4108-b85f-fe53f9ef2e98","system_id":"levelo_inurba_marseille","lat":43.33608,"lon":5.41033,"is_reserved":false,"is_disabled":true,"rental_uris":{"android":"levelo://app?vid=ccdc17ec-d8a7-4108-b85f-fe53f9ef2e98","ios":"levelo://app?vid=ccdc17ec-d8a7-4108-b85f-fe53f9ef2e98"},"vehicle_type_id":"4","last_reported":1750061738,"current_range_meters":800,"station_id":"ce4bhqh2rcd13ifvqhmg","pricing_plan_id":"cebpf4jnsgd1na2vs0mg"},{"bike_id":"2ab31527-f915-4286-b3a0-0beafd2cdd50","system_id":"levelo_inurba_marseille","lat":43.30021,"lon":5.37004,"is_reserved":false,"is_disabled":true,"rental_uris":{"android":"levelo://app?vid=2ab31527-f915-4286-b3a0-0beafd2cdd50","ios":"levelo://app?vid=2ab31527-f915-4286-b3a0-0beafd2cdd50"},"vehicle_type_id":"4","last_reported":1750061738,"current_range_meters":1200,"station_id":"","pricing_plan_id":"cebpf4jnsgd1na2vs0mg"},{"bike_id":"2e3b4fb9-1fad-4a7a-9571-fdcb0b12c6d8","system_id":"levelo_inurba_marseille","lat":43.31195,"lon":5.3681,"is_reserved":false,"is_disabled":true,"rental_uris":{"android":"levelo://app?vid=2e3b4fb9-1fad-4a7a-9571-fdcb0b12c6d8","ios":"levelo://app?vid=2e3b4fb9-1fad-4a7a-9571-fdcb0b12c6d8"},"vehicle_type_id":"4","last_reported":1750061738,"current_range_meters":1200,"station_id":"ce4bgl92rcd13ifvqbq0","pricing_plan_id":"cebpf4jnsgd1na2vs0mg"},{"bike_id":"9efba655-f334-494c-9fa8-15409592fd84","system_id":"levelo_inurba_marseille","lat":43.31481,"lon":5.37303,"is_reserved":false,"is_disabled":true,"rental_uris":{"android":"levelo://app?vid=9efba655-f334-494c-9fa8-15409592fd84","ios":"levelo://app?vid=9efba655-f334-494c-9fa8-15409592fd84"},"vehicle_type_id":"4","last_reported":1750061738,"current_range_meters":1200,"station_id":"ce4bgt12rcd13ifvqcd0","pricing_plan_id":"cebpf4jnsgd1na2vs0mg"},{"bike_id":"357558f0-8b10-41dc-8e13-5c366ecd37b5","system_id":"levelo_inurba_marseille","lat":43.21197,"lon":5.35067,"is_reserved":false,"is_disabled":true,"rental_uris":{"android":"levelo://app?vid=357558f0-8b10-41dc-8e13-5c366ecd37b5","ios":"levelo://app?vid=357558f0-8b10-41dc-8e13-5c366ecd37b5"},"vehicle_type_id":"4","last_reported":1750061738,"current_range_meters":1200,"station_id":"st_cvj6sg6p6f1abm77japg","pricing_plan_id":"cebpf4jnsgd1na2vs0mg"},{"bike_id":"8297434d-fcb8-4b06-a968-50e54d7c3635","system_id":"levelo_inurba_marseille","lat":43.291928,"lon":5.35803,"is_reserved":false,"is_disabled":true,"rental_uris":{"android":"levelo://app?vid=8297434d-fcb8-4b06-a968-50e54d7c3635","ios":"levelo://app?vid=8297434d-fcb8-4b06-a968-50e54d7c3635"},"vehicle_type_id":"4","last_reported":1750061738,"current_range_meters":1600,"station_id":"ce4bhb12rcd13ifvqel0","pricing_plan_id":"cebpf4jnsgd1na2vs0mg"},{"bike_id":"e86f9b0f-e83b-4d90-8582-ed894d378889","system_id":"levelo_inurba_marseille","lat":43.313647,"lon":5.367073,"is_reserved":false,"is_disabled":true,"rental_uris":{"android":"levelo://app?vid=e86f9b0f-e83b-4d90-8582-ed894d378889","ios":"levelo://app?vid=e86f9b0f-e83b-4d90-8582-ed894d378889"},"vehicle_type_id":"4","last_reported":1750061738,"current_range_meters":2000,"station_id":"ce4bgr92rcd13ifvqc6g","pricing_plan_id":"cebpf4jnsgd1na2vs0mg"},{"bike_id":"68d66daa-712e-4f0c-8d36-a5760eb43807","system_id":"levelo_inurba_marseille","lat":43.284119,"lon":5.349784,"is_reserved":false,"is_disabled":true,"rental_uris":{"android":"levelo://app?vid=68d66daa-712e-4f0c-8d36-a5760eb43807","ios":"levelo://app?vid=68d66daa-712e-4f0c-8d36-a5760eb43807"},"vehicle_type_id":"4","last_reported":1750061738,"current_range_meters":2000,"station_id":"ce4bhbh2rcd13ifvqepg","pricing_plan_id":"cebpf4jnsgd1na2vs0mg"},{"bike_id":"306a4d4f-c4c3-4daf-9a4e-c54356df6f8d","system_id":"levelo_inurba_marseille","lat":43.32484,"lon":5.36582,"is_reserved":false,"is_disabled":true,"rental_uris":{"android":"levelo://app?vid=306a4d4f-c4c3-4daf-9a4e-c54356df6f8d","ios":"levelo://app?vid=306a4d4f-c4c3-4daf-9a4e-c54356df6f8d"},"vehicle_type_id":"4","last_reported":1750061738,"current_range_meters":2000,"station_id":"ce4bhs12rcd13ifvqhvg","pricing_plan_id":"cebpf4jnsgd1na2vs0mg"},{"bike_id":"0ddb872b-92f8-4436-9cdd-93b597ec4032","system_id":"levelo_inurba_marseille","lat":43.24168,"lon":5.36399,"is_reserved":false,"is_disabled":true,"rental_uris":{"android":"levelo://app?vid=0ddb872b-92f8-4436-9cdd-93b597ec4032","ios":"levelo://app?vid=0ddb872b-92f8-4436-9cdd-93b597ec4032"},"vehicle_type_id":"4","last_reported":1750061738,"current_range_meters":2000,"station_id":"cpo36qri1sfpv3e86is0","pricing_plan_id":"cebpf4jnsgd1na2vs0mg"},{"bike_id":"efb199c1-e457-441b-bb75-8ff2ec1a5c21","system_id":"levelo_inurba_marseille","lat":43.2418,"lon":5.3973,"is_reserved":false,"is_disabled":false,"rental_uris":{"android":"levelo://app?vid=efb199c1-e457-441b-bb75-8ff2ec1a5c21","ios":"levelo://app?vid=efb199c1-e457-441b-bb75-8ff2ec1a5c21"},"vehicle_type_id":"4","last_reported":1750061738,"current_range_meters":2800,"station_id":"ce4bhn12rcd13ifvqgpg","pricing_plan_id":"cebpf4jnsgd1na2vs0mg"},{"bike_id":"60f2dbe7-d086-4493-b3ca-af3e7aa61e10","system_id":"levelo_inurba_marseille","lat":43.33726,"lon":5.39184,"is_reserved":false,"is_disabled":false,"rental_uris":{"android":"levelo://app?vid=60f2dbe7-d086-4493-b3ca-af3e7aa61e10","ios":"levelo://app?vid=60f2dbe7-d086-4493-b3ca-af3e7aa61e10"},"vehicle_type_id":"4","last_reported":1750061738,"current_range_meters":2800,"station_id":"ce4bhr92rcd13ifvqhsg","pricing_plan_id":"cebpf4jnsgd1na2vs0mg"},{"bike_id":"3b27bdf3-dcfe-4a2d-8b9e-06731595e17c","system_id":"levelo_inurba_marseille","lat":43.28718,"lon":5.37938,"is_reserved":false,"is_disabled":false,"rental_uris":{"android":"levelo://app?vid=3b27bdf3-dcfe-4a2d-8b9e-06731595e17c","ios":"levelo://app?vid=3b27bdf3-dcfe-4a2d-8b9e-06731595e17c"},"vehicle_type_id":"4","last_reported":1750061738,"current_range_meters":3200,"station_id":"ce4bh9p2rcd13ifvqec0","pricing_plan_id":"cebpf4jnsgd1na2vs0mg"},{"bike_id":"95db70c2-5fc4-4dd4-a08c-b16dd5808149","system_id":"levelo_inurba_marseille","lat":43.23961,"lon":5.36629,"is_reserved":false,"is_disabled":false,"rental_uris":{"android":"levelo://app?vid=95db70c2-5fc4-4dd4-a08c-b16dd5808149","ios":"levelo://app?vid=95db70c2-5fc4-4dd4-a08c-b16dd5808149"},"vehicle_type_id":"4","last_reported":1750061738,"current_range_meters":3200,"station_id":"ce4bhi12rcd13ifvqfp0","pricing_plan_id":"cebpf4jnsgd1na2vs0mg"},{"bike_id":"6a58fded-6f67-42c0-b959-ef6250920c8c","system_id":"levelo_inurba_marseille","lat":43.30134,"lon":5.38796,"is_reserved":false,"is_disabled":false,"rental_uris":{"android":"levelo://app?vid=6a58fded-6f67-42c0-b959-ef6250920c8c","ios":"levelo://app?vid=6a58fded-6f67-42c0-b959-ef6250920c8c"},"vehicle_type_id":"4","last_reported":1750061738,"current_range_meters":3600,"station_id":"ce4bghh2rcd13ifvqb60","pricing_plan_id":"cebpf4jnsgd1na2vs0mg"},{"bike_id":"b8d77f95-16a3-453e-b5d2-e2f95f697057","system_id":"levelo_inurba_marseille","lat":43.25494,"lon":5.37651,"is_reserved":false,"is_disabled":false,"rental_uris":{"android":"levelo://app?vid=b8d77f95-16a3-453e-b5d2-e2f95f697057","ios":"levelo://app?vid=b8d77f95-16a3-453e-b5d2-e2f95f697057"},"vehicle_type_id":"4","last_reported":1750061738,"current_range_meters":3600,"station_id":"ce4bhh12rcd13ifvqff0","pricing_plan_id":"cebpf4jnsgd1na2vs0mg"},{"bike_id":"e7e2d685-9cd3-4216-8fc5-405f7a1bde09","system_id":"levelo_inurba_marseille","lat":43.31363,"lon":5.36737,"is_reserved":false,"is_disabled":false,"rental_uris":{"android":"levelo://app?vid=e7e2d685-9cd3-4216-8fc5-405f7a1bde09","ios":"levelo://app?vid=e7e2d685-9cd3-4216-8fc5-405f7a1bde09"},"vehicle_type_id":"4","last_reported":1750061738,"current_range_meters":4000,"station_id":"ce4bgr92rcd13ifvqc6g","pricing_plan_id":"cebpf4jnsgd1na2vs0mg"},{"bike_id":"7e60abb8-4ebb-4d2d-ab8f-b32098420f73","system_id":"levelo_inurba_marseille","lat":43.25089,"lon":5.39528,"is_reserved":false,"is_disabled":false,"rental_uris":{"android":"levelo://app?vid=7e60abb8-4ebb-4d2d-ab8f-b32098420f73","ios":"levelo://app?vid=7e60abb8-4ebb-4d2d-ab8f-b32098420f73"},"vehicle_type_id":"4","last_reported":1750061738,"current_range_meters":4000,"station_id":"ce4bhm12rcd13ifvqgkg","pricing_plan_id":"cebpf4jnsgd1na2vs0mg"},{"bike_id":"329ae3c2-034d-4124-845e-3ed383ce83fb","system_id":"levelo_inurba_marseille","lat":43.31256,"lon":5.36849,"is_reserved":false,"is_disabled":false,"rental_uris":{"android":"levelo://app?vid=329ae3c2-034d-4124-845e-3ed383ce83fb","ios":"levelo://app?vid=329ae3c2-034d-4124-845e-3ed383ce83fb"},"vehicle_type_id":"4","last_reported":1750061738,"current_range_meters":4400,"station_id":"ce4bgl92rcd13ifvqbq0","pricing_plan_id":"cebpf4jnsgd1na2vs0mg"},{"bike_id":"cbaca1c8-71ba-4738-973f-a11c02c469bd","system_id":"levelo_inurba_marseille","lat":43.27202,"lon":5.39189,"is_reserved":false,"is_disabled":false,"rental_uris":{"android":"levelo://app?vid=cbaca1c8-71ba-4738-973f-a11c02c469bd","ios":"levelo://app?vid=cbaca1c8-71ba-4738-973f-a11c02c469bd"},"vehicle_type_id":"4","last_reported":1750061738,"current_range_meters":4400,"station_id":"ce4bhhp2rcd13ifvqfm0","pricing_plan_id":"cebpf4jnsgd1na2vs0mg"},{"bike_id":"a3540b65-c82a-4b33-b4ad-a9ee7ed91aa6","system_id":"levelo_inurba_marseille","lat":43.23055,"lon":5.3549,"is_reserved":false,"is_disabled":false,"rental_uris":{"android":"levelo://app?vid=a3540b65-c82a-4b33-b4ad-a9ee7ed91aa6","ios":"levelo://app?vid=a3540b65-c82a-4b33-b4ad-a9ee7ed91aa6"},"vehicle_type_id":"4","last_reported":1750061738,"current_range_meters":4400,"station_id":"cpo3342slgdg3j2ifvpg","pricing_plan_id":"cebpf4jnsgd1na2vs0mg"},{"bike_id":"9b068f0e-2c65-47ea-a0c3-53dab5e12465","system_id":"levelo_inurba_marseille","lat":43.24392,"lon":5.37064,"is_reserved":false,"is_disabled":false,"rental_uris":{"android":"levelo://app?vid=9b068f0e-2c65-47ea-a0c3-53dab5e12465","ios":"levelo://app?vid=9b068f0e-2c65-47ea-a0c3-53dab5e12465"},"vehicle_type_id":"4","last_reported":1750061738,"current_range_meters":4800,"station_id":"ce4bhhh2rcd13ifvqfk0","pricing_plan_id":"cebpf4jnsgd1na2vs0mg"},{"bike_id":"b890b424-6bb1-4a53-b065-a195c3b911b9","system_id":"levelo_inurba_marseille","lat":43.25503,"lon":5.37684,"is_reserved":false,"is_disabled":false,"rental_uris":{"android":"levelo://app?vid=b890b424-6bb1-4a53-b065-a195c3b911b9","ios":"levelo://app?vid=b890b424-6bb1-4a53-b065-a195c3b911b9"},"vehicle_type_id":"4","last_reported":1750061738,"current_range_meters":5600,"station_id":"ce4bhh12rcd13ifvqff0","pricing_plan_id":"cebpf4jnsgd1na2vs0mg"},{"bike_id":"591e293d-1030-44e1-ae83-d2952dcb3646","system_id":"levelo_inurba_marseille","lat":43.28268,"lon":5.35062,"is_reserved":false,"is_disabled":false,"rental_uris":{"android":"levelo://app?vid=591e293d-1030-44e1-ae83-d2952dcb3646","ios":"levelo://app?vid=591e293d-1030-44e1-ae83-d2952dcb3646"},"vehicle_type_id":"4","last_reported":1750061738,"current_range_meters":6000,"station_id":"ce4bhbp2rcd13ifvqerg","pricing_plan_id":"cebpf4jnsgd1na2vs0mg"},{"bike_id":"47d4d555-8e87-4c75-9a65-e30a3b5ce068","system_id":"levelo_inurba_marseille","lat":43.27377,"lon":5.36258,"is_reserved":false,"is_disabled":false,"rental_uris":{"android":"levelo://app?vid=47d4d555-8e87-4c75-9a65-e30a3b5ce068","ios":"levelo://app?vid=47d4d555-8e87-4c75-9a65-e30a3b5ce068"},"vehicle_type_id":"4","last_reported":1750061738,"current_range_meters":6400,"station_id":"ce4bhbh2rcd13ifvqeo0","pricing_plan_id":"cebpf4jnsgd1na2vs0mg"},{"bike_id":"ac903b0c-2ab2-4419-8b7a-1280c90b212c","system_id":"levelo_inurba_marseille","lat":43.25579,"lon":5.38236,"is_reserved":false,"is_disabled":false,"rental_uris":{"android":"levelo://app?vid=ac903b0c-2ab2-4419-8b7a-1280c90b212c","ios":"levelo://app?vid=ac903b0c-2ab2-4419-8b7a-1280c90b212c"},"vehicle_type_id":"4","last_reported":1750061738,"current_range_meters":6400,"station_id":"ce4bhih2rcd13ifvqfs0","pricing_plan_id":"cebpf4jnsgd1na2vs0mg"},{"bike_id":"cc928769-5654-4f65-94c1-77b5359bc09b","system_id":"levelo_inurba_marseille","lat":43.3188,"lon":5.40735,"is_reserved":false,"is_disabled":false,"rental_uris":{"android":"levelo://app?vid=cc928769-5654-4f65-94c1-77b5359bc09b","ios":"levelo://app?vid=cc928769-5654-4f65-94c1-77b5359bc09b"},"vehicle_type_id":"4","last_reported":1750061738,"current_range_meters":6400,"station_id":"ce4bhq12rcd13ifvqhig","pricing_plan_id":"cebpf4jnsgd1na2vs0mg"},{"bike_id":"eee37b92-da8f-4086-9175-f308ed9ddece","system_id":"levelo_inurba_marseille","lat":43.21207,"lon":5.35045,"is_reserved":false,"is_disabled":false,"rental_uris":{"android":"levelo://app?vid=eee37b92-da8f-4086-9175-f308ed9ddece","ios":"levelo://app?vid=eee37b92-da8f-4086-9175-f308ed9ddece"},"vehicle_type_id":"4","last_reported":1750061738,"current_range_meters":6400,"station_id":"st_cvj6sg6p6f1abm77japg","pricing_plan_id":"cebpf4jnsgd1na2vs0mg"},{"bike_id":"92793451-3a3a-4d0c-8db6-e78f876a135c","system_id":"levelo_inurba_marseille","lat":43.29788,"lon":5.38086,"is_reserved":false,"is_disabled":false,"rental_uris":{"android":"levelo://app?vid=92793451-3a3a-4d0c-8db6-e78f876a135c","ios":"levelo://app?vid=92793451-3a3a-4d0c-8db6-e78f876a135c"},"vehicle_type_id":"4","last_reported":1750061738,"current_range_meters":6800,"station_id":"ce4bgip2rcd13ifvqbb0","pricing_plan_id":"cebpf4jnsgd1na2vs0mg"},{"bike_id":"14bb9013-10d2-478b-a474-f1094e25b0c0","system_id":"levelo_inurba_marseille","lat":43.29353,"lon":5.37833,"is_reserved":false,"is_disabled":false,"rental_uris":{"android":"levelo://app?vid=14bb9013-10d2-478b-a474-f1094e25b0c0","ios":"levelo://app?vid=14bb9013-10d2-478b-a474-f1094e25b0c0"},"vehicle_type_id":"4","last_reported":1750061738,"current_range_meters":6800,"station_id":"ce4bgjh2rcd13ifvqbf0","pricing_plan_id":"cebpf4jnsgd1na2vs0mg"},{"bike_id":"2dd10553-d2a6-4b9b-826f-e1b0c41e5628","system_id":"levelo_inurba_marseille","lat":43.29924,"lon":5.36542,"is_reserved":false,"is_disabled":false,"rental_uris":{"android":"levelo://app?vid=2dd10553-d2a6-4b9b-826f-e1b0c41e5628","ios":"levelo://app?vid=2dd10553-d2a6-4b9b-826f-e1b0c41e5628"},"vehicle_type_id":"4","last_reported":1750061738,"current_range_meters":6800,"station_id":"ce4bgm92rcd13ifvqbr0","pricing_plan_id":"cebpf4jnsgd1na2vs0mg"},{"bike_id":"78c5c81f-895b-46b7-b02c-903a6d91a2fb","system_id":"levelo_inurba_marseille","lat":43.279947,"lon":5.400014,"is_reserved":false,"is_disabled":false,"rental_uris":{"android":"levelo://app?vid=78c5c81f-895b-46b7-b02c-903a6d91a2fb","ios":"levelo://app?vid=78c5c81f-895b-46b7-b02c-903a6d91a2fb"},"vehicle_type_id":"4","last_reported":1750061738,"current_range_meters":6800,"station_id":"ce4bho92rcd13ifvqh4g","pricing_plan_id":"cebpf4jnsgd1na2vs0mg"},{"bike_id":"604affe5-9f04-4fd4-97c6-3b5603344135","system_id":"levelo_inurba_marseille","lat":43.27274,"lon":5.41597,"is_reserved":false,"is_disabled":false,"rental_uris":{"android":"levelo://app?vid=604affe5-9f04-4fd4-97c6-3b5603344135","ios":"levelo://app?vid=604affe5-9f04-4fd4-97c6-3b5603344135"},"vehicle_type_id":"4","last_reported":1750061738,"current_range_meters":7200,"station_id":"","pricing_plan_id":"cebpf4jnsgd1na2vs0mg"},{"bike_id":"8601897a-099d-49b5-aea1-b0ec06744598","system_id":"levelo_inurba_marseille","lat":43.28642,"lon":5.39288,"is_reserved":false,"is_disabled":false,"rental_uris":{"android":"levelo://app?vid=8601897a-099d-49b5-aea1-b0ec06744598","ios":"levelo://app?vid=8601897a-099d-49b5-aea1-b0ec06744598"},"vehicle_type_id":"4","last_reported":1750061738,"current_range_meters":7200,"station_id":"","pricing_plan_id":"cebpf4jnsgd1na2vs0mg"},{"bike_id":"a112d53b-ad54-4060-8f8e-fad339f5de6e","system_id":"levelo_inurba_marseille","lat":43.21194,"lon":5.35079,"is_reserved":false,"is_disabled":false,"rental_uris":{"android":"levelo://app?vid=a112d53b-ad54-4060-8f8e-fad339f5de6e","ios":"levelo://app?vid=a112d53b-ad54-4060-8f8e-fad339f5de6e"},"vehicle_type_id":"4","last_reported":1750061738,"current_range_meters":7200,"station_id":"st_cvj6sg6p6f1abm77japg","pricing_plan_id":"cebpf4jnsgd1na2vs0mg"},{"bike_id":"d97dc030-8405-4eb1-abbf-845730c8e3dc","system_id":"levelo_inurba_marseille","lat":43.21205,"lon":5.35077,"is_reserved":false,"is_disabled":false,"rental_uris":{"android":"levelo://app?vid=d97dc030-8405-4eb1-abbf-845730c8e3dc","ios":"levelo://app?vid=d97dc030-8405-4eb1-abbf-845730c8e3dc"},"vehicle_type_id":"4","last_reported":1750061738,"current_range_meters":7200,"station_id":"st_cvj6sg6p6f1abm77japg","pricing_plan_id":"cebpf4jnsgd1na2vs0mg"},{"bike_id":"387d1fed-118c-437b-bd55-020621253e35","system_id":"levelo_inurba_marseille","lat":43.24097,"lon":5.36824,"is_reserved":false,"is_disabled":false,"rental_uris":{"android":"levelo://app?vid=387d1fed-118c-437b-bd55-020621253e35","ios":"levelo://app?vid=387d1fed-118c-437b-bd55-020621253e35"},"vehicle_type_id":"4","last_reported":1750061738,"current_range_meters":8000,"station_id":"","pricing_plan_id":"cebpf4jnsgd1na2vs0mg"},{"bike_id":"78173e26-3d99-4f35-83e5-25de01e0768c","system_id":"levelo_inurba_marseille","lat":43.319904,"lon":5.381599,"is_reserved":false,"is_disabled":false,"rental_uris":{"android":"levelo://app?vid=78173e26-3d99-4f35-83e5-25de01e0768c","ios":"levelo://app?vid=78173e26-3d99-4f35-83e5-25de01e0768c"},"vehicle_type_id":"4","last_reported":1750061738,"current_range_meters":8000,"station_id":"ce4bhr12rcd13ifvqhpg","pricing_plan_id":"cebpf4jnsgd1na2vs0mg"},{"bike_id":"4a447428-297a-4cbf-8ebe-4040b9ed78c6","system_id":"levelo_inurba_marseille","lat":43.29775,"lon":5.37107,"is_reserved":false,"is_disabled":false,"rental_uris":{"android":"levelo://app?vid=4a447428-297a-4cbf-8ebe-4040b9ed78c6","ios":"levelo://app?vid=4a447428-297a-4cbf-8ebe-4040b9ed78c6"},"vehicle_type_id":"4","last_reported":1750061738,"current_range_meters":8400,"station_id":"ce4bgop2rcd13ifvqc1g","pricing_plan_id":"cebpf4jnsgd1na2vs0mg"},{"bike_id":"8b5e85b7-f321-457d-9f07-2f34ff03a295","system_id":"levelo_inurba_marseille","lat":43.31373,"lon":5.36681,"is_reserved":false,"is_disabled":false,"rental_uris":{"android":"levelo://app?vid=8b5e85b7-f321-457d-9f07-2f34ff03a295","ios":"levelo://app?vid=8b5e85b7-f321-457d-9f07-2f34ff03a295"},"vehicle_type_id":"4","last_reported":1750061738,"current_range_meters":8400,"station_id":"ce4bgr92rcd13ifvqc6g","pricing_plan_id":"cebpf4jnsgd1na2vs0mg"},{"bike_id":"a516a721-2045-45ea-b9a6-ad5cac0a215d","system_id":"levelo_inurba_marseille","lat":43.31372,"lon":5.36729,"is_reserved":false,"is_disabled":false,"rental_uris":{"android":"levelo://app?vid=a516a721-2045-45ea-b9a6-ad5cac0a215d","ios":"levelo://app?vid=a516a721-2045-45ea-b9a6-ad5cac0a215d"},"vehicle_type_id":"4","last_reported":1750061738,"current_range_meters":8400,"station_id":"ce4bgr92rcd13ifvqc6g","pricing_plan_id":"cebpf4jnsgd1na2vs0mg"},{"bike_id":"57099349-ccc9-4a88-bddb-9a13b1fbc721","system_id":"levelo_inurba_marseille","lat":43.29261,"lon":5.40159,"is_reserved":false,"is_disabled":false,"rental_uris":{"android":"levelo://app?vid=57099349-ccc9-4a88-bddb-9a13b1fbc721","ios":"levelo://app?vid=57099349-ccc9-4a88-bddb-9a13b1fbc721"},"vehicle_type_id":"4","last_reported":1750061738,"current_range_meters":8400,"station_id":"ce4bh312rcd13ifvqdk0","pricing_plan_id":"cebpf4jnsgd1na2vs0mg"},{"bike_id":"c890bfd5-c30d-41a8-a1f1-bd7a81d046ca","system_id":"levelo_inurba_marseille","lat":43.27174,"lon":5.40993,"is_reserved":false,"is_disabled":false,"rental_uris":{"android":"levelo://app?vid=c890bfd5-c30d-41a8-a1f1-bd7a81d046ca","ios":"levelo://app?vid=c890bfd5-c30d-41a8-a1f1-bd7a81d046ca"},"vehicle_type_id":"4","last_reported":1750061738,"current_range_meters":8400,"station_id":"ce4bhl12rcd13ifvqgf0","pricing_plan_id":"cebpf4jnsgd1na2vs0mg"},{"bike_id":"d8a4f7b4-052d-4bce-ae83-b9167311e0ea","system_id":"levelo_inurba_marseille","lat":43.21183,"lon":5.35073,"is_reserved":false,"is_disabled":false,"rental_uris":{"android":"levelo://app?vid=d8a4f7b4-052d-4bce-ae83-b9167311e0ea","ios":"levelo://app?vid=d8a4f7b4-052d-4bce-ae83-b9167311e0ea"},"vehicle_type_id":"4","last_reported":1750061738,"current_range_meters":8400,"station_id":"st_cvj6sg6p6f1abm77japg","pricing_plan_id":"cebpf4jnsgd1na2vs0mg"},{"bike_id":"783b205a-9b8d-4fd4-a638-58dde1ae54c4","system_id":"levelo_inurba_marseille","lat":43.305257,"lon":5.38436,"is_reserved":false,"is_disabled":false,"rental_uris":{"android":"levelo://app?vid=783b205a-9b8d-4fd4-a638-58dde1ae54c4","ios":"levelo://app?vid=783b205a-9b8d-4fd4-a638-58dde1ae54c4"},"vehicle_type_id":"4","last_reported":1750061738,"current_range_meters":8800,"station_id":"ce4bgh92rcd13ifvqb50","pricing_plan_id":"cebpf4jnsgd1na2vs0mg"},{"bike_id":"5f37d016-d368-4b80-8cdd-c4ca39b1a5b5","system_id":"levelo_inurba_marseille","lat":43.255752,"lon":5.382398,"is_reserved":false,"is_disabled":false,"rental_uris":{"android":"levelo://app?vid=5f37d016-d368-4b80-8cdd-c4ca39b1a5b5","ios":"levelo://app?vid=5f37d016-d368-4b80-8cdd-c4ca39b1a5b5"},"vehicle_type_id":"4","last_reported":1750061738,"current_range_meters":8800,"station_id":"ce4bhih2rcd13ifvqfs0","pricing_plan_id":"cebpf4jnsgd1na2vs0mg"},{"bike_id":"61205519-626f-445c-9e30-afab35690160","system_id":"levelo_inurba_marseille","lat":43.24181,"lon":5.39738,"is_reserved":false,"is_disabled":false,"rental_uris":{"android":"levelo://app?vid=61205519-626f-445c-9e30-afab35690160","ios":"levelo://app?vid=61205519-626f-445c-9e30-afab35690160"},"vehicle_type_id":"4","last_reported":1750061738,"current_range_meters":8800,"station_id":"ce4bhn12rcd13ifvqgpg","pricing_plan_id":"cebpf4jnsgd1na2vs0mg"},{"bike_id":"399cf859-8370-4f2b-9451-1d673a93c88e","system_id":"levelo_inurba_marseille","lat":43.24081,"lon":5.37759,"is_reserved":false,"is_disabled":false,"rental_uris":{"android":"levelo://app?vid=399cf859-8370-4f2b-9451-1d673a93c88e","ios":"levelo://app?vid=399cf859-8370-4f2b-9451-1d673a93c88e"},"vehicle_type_id":"4","last_reported":1750061738,"current_range_meters":8800,"station_id":"ce4bhnp2rcd13ifvqgvg","pricing_plan_id":"cebpf4jnsgd1na2vs0mg"},{"bike_id":"f85494d8-4cf8-4720-979b-4fe00c377037","system_id":"levelo_inurba_marseille","lat":43.29843,"lon":5.36265,"is_reserved":false,"is_disabled":false,"rental_uris":{"android":"levelo://app?vid=f85494d8-4cf8-4720-979b-4fe00c377037","ios":"levelo://app?vid=f85494d8-4cf8-4720-979b-4fe00c377037"},"vehicle_type_id":"4","last_reported":1750061738,"current_range_meters":9200,"station_id":"ce4bgpp2rcd13ifvqc3g","pricing_plan_id":"cebpf4jnsgd1na2vs0mg"},{"bike_id":"563bcedf-bfab-4bea-8604-c851ad12a250","system_id":"levelo_inurba_marseille","lat":43.3065,"lon":5.40105,"is_reserved":false,"is_disabled":false,"rental_uris":{"android":"levelo://app?vid=563bcedf-bfab-4bea-8604-c851ad12a250","ios":"levelo://app?vid=563bcedf-bfab-4bea-8604-c851ad12a250"},"vehicle_type_id":"4","last_reported":1750061738,"current_range_meters":9200,"station_id":"ce4bh112rcd13ifvqda0","pricing_plan_id":"cebpf4jnsgd1na2vs0mg"},{"bike_id":"3c4d4cd2-050e-46ac-85d6-64baa38305d9","system_id":"levelo_inurba_marseille","lat":43.23204,"lon":5.35559,"is_reserved":false,"is_disabled":false,"rental_uris":{"android":"levelo://app?vid=3c4d4cd2-050e-46ac-85d6-64baa38305d9","ios":"levelo://app?vid=3c4d4cd2-050e-46ac-85d6-64baa38305d9"},"vehicle_type_id":"4","last_reported":1750061738,"current_range_meters":9200,"station_id":"ce4bhu92rcd13ifvqi70","pricing_plan_id":"cebpf4jnsgd1na2vs0mg"},{"bike_id":"ac466850-9a61-464b-b6df-c6eef6e07763","system_id":"levelo_inurba_marseille","lat":43.21741,"lon":5.34606,"is_reserved":false,"is_disabled":true,"rental_uris":{"android":"levelo://app?vid=ac466850-9a61-464b-b6df-c6eef6e07763","ios":"levelo://app?vid=ac466850-9a61-464b-b6df-c6eef6e07763"},"vehicle_type_id":"4","last_reported":1750061738,"current_range_meters":9200,"station_id":"st_cvj6r9ubvosntc0bgbag","pricing_plan_id":"cebpf4jnsgd1na2vs0mg"},{"bike_id":"bde6e960-3f58-499b-a45c-c17ce542a000","system_id":"levelo_inurba_marseille","lat":43.30305,"lon":5.39204,"is_reserved":false,"is_disabled":false,"rental_uris":{"android":"levelo://app?vid=bde6e960-3f58-499b-a45c-c17ce542a000","ios":"levelo://app?vid=bde6e960-3f58-499b-a45c-c17ce542a000"},"vehicle_type_id":"4","last_reported":1750061738,"current_range_meters":9600,"station_id":"ce4bgkh2rcd13ifvqbk0","pricing_plan_id":"cebpf4jnsgd1na2vs0mg"},{"bike_id":"7c581e06-ee9d-44ab-a816-fd31291303b5","system_id":"levelo_inurba_marseille","lat":43.29462,"lon":5.39474,"is_reserved":false,"is_disabled":false,"rental_uris":{"android":"levelo://app?vid=7c581e06-ee9d-44ab-a816-fd31291303b5","ios":"levelo://app?vid=7c581e06-ee9d-44ab-a816-fd31291303b5"},"vehicle_type_id":"4","last_reported":1750061738,"current_range_meters":9600,"station_id":"ce4bh292rcd13ifvqdf0","pricing_plan_id":"cebpf4jnsgd1na2vs0mg"},{"bike_id":"ffa389d1-37ce-4bb7-b7cd-a3489e0974a8","system_id":"levelo_inurba_marseille","lat":43.23136,"lon":5.43729,"is_reserved":false,"is_disabled":false,"rental_uris":{"android":"levelo://app?vid=ffa389d1-37ce-4bb7-b7cd-a3489e0974a8","ios":"levelo://app?vid=ffa389d1-37ce-4bb7-b7cd-a3489e0974a8"},"vehicle_type_id":"4","last_reported":1750061738,"current_range_meters":9600,"station_id":"ce4bhmp2rcd13ifvqgog","pricing_plan_id":"cebpf4jnsgd1na2vs0mg"},{"bike_id":"24605765-1c88-48e7-9ac3-55253b631ea9","system_id":"levelo_inurba_marseille","lat":43.31886,"lon":5.40746,"is_reserved":false,"is_disabled":false,"rental_uris":{"android":"levelo://app?vid=24605765-1c88-48e7-9ac3-55253b631ea9","ios":"levelo://app?vid=24605765-1c88-48e7-9ac3-55253b631ea9"},"vehicle_type_id":"4","last_reported":1750061738,"current_range_meters":9600,"station_id":"ce4bhq12rcd13ifvqhig","pricing_plan_id":"cebpf4jnsgd1na2vs0mg"},{"bike_id":"73d2bea6-f99d-4671-8954-580edff743bc","system_id":"levelo_inurba_marseille","lat":43.211851,"lon":5.350792,"is_reserved":false,"is_disabled":false,"rental_uris":{"android":"levelo://app?vid=73d2bea6-f99d-4671-8954-580edff743bc","ios":"levelo://app?vid=73d2bea6-f99d-4671-8954-580edff743bc"},"vehicle_type_id":"4","last_reported":1750061738,"current_range_meters":9600,"station_id":"st_cvj6sg6p6f1abm77japg","pricing_plan_id":"cebpf4jnsgd1na2vs0mg"},{"bike_id":"2319ce10-a51c-42ad-ad50-827b68e4f300","system_id":"levelo_inurba_marseille","lat":43.29704,"lon":5.37997,"is_reserved":false,"is_disabled":false,"rental_uris":{"android":"levelo://app?vid=2319ce10-a51c-42ad-ad50-827b68e4f300","ios":"levelo://app?vid=2319ce10-a51c-42ad-ad50-827b68e4f300"},"vehicle_type_id":"4","last_reported":1750061738,"current_range_meters":10000,"station_id":"","pricing_plan_id":"cebpf4jnsgd1na2vs0mg"},{"bike_id":"4c8d3104-c474-4d8b-8da9-42cfcd85c234","system_id":"levelo_inurba_marseille","lat":43.31213,"lon":5.36848,"is_reserved":false,"is_disabled":false,"rental_uris":{"android":"levelo://app?vid=4c8d3104-c474-4d8b-8da9-42cfcd85c234","ios":"levelo://app?vid=4c8d3104-c474-4d8b-8da9-42cfcd85c234"},"vehicle_type_id":"4","last_reported":1750061738,"current_range_meters":10000,"station_id":"ce4bgl92rcd13ifvqbq0","pricing_plan_id":"cebpf4jnsgd1na2vs0mg"},{"bike_id":"6d65cce0-4c68-4480-9248-9459cb3ab347","system_id":"levelo_inurba_marseille","lat":43.30575,"lon":5.37206,"is_reserved":false,"is_disabled":false,"rental_uris":{"android":"levelo://app?vid=6d65cce0-4c68-4480-9248-9459cb3ab347","ios":"levelo://app?vid=6d65cce0-4c68-4480-9248-9459cb3ab347"},"vehicle_type_id":"4","last_reported":1750061738,"current_range_meters":10000,"station_id":"ce4bgqh2rcd13ifvqc4g","pricing_plan_id":"cebpf4jnsgd1na2vs0mg"},{"bike_id":"5358f867-b283-4a51-bc6b-79071a4c8e5f","system_id":"levelo_inurba_marseille","lat":43.337444,"lon":5.374475,"is_reserved":false,"is_disabled":false,"rental_uris":{"android":"levelo://app?vid=5358f867-b283-4a51-bc6b-79071a4c8e5f","ios":"levelo://app?vid=5358f867-b283-4a51-bc6b-79071a4c8e5f"},"vehicle_type_id":"4","last_reported":1750061738,"current_range_meters":10000,"station_id":"ce4bh3h2rcd13ifvqdo0","pricing_plan_id":"cebpf4jnsgd1na2vs0mg"},{"bike_id":"7870d999-e864-4ddf-87b7-30fc86166447","system_id":"levelo_inurba_marseille","lat":43.24787,"lon":5.37487,"is_reserved":false,"is_disabled":false,"rental_uris":{"android":"levelo://app?vid=7870d999-e864-4ddf-87b7-30fc86166447","ios":"levelo://app?vid=7870d999-e864-4ddf-87b7-30fc86166447"},"vehicle_type_id":"4","last_reported":1750061738,"current_range_meters":10000,"station_id":"ce4bhgh2rcd13ifvqfb0","pricing_plan_id":"cebpf4jnsgd1na2vs0mg"},{"bike_id":"4e7d284b-4cad-42ef-9da9-44ec71aa8f4d","system_id":"levelo_inurba_marseille","lat":43.28439,"lon":5.39199,"is_reserved":false,"is_disabled":false,"rental_uris":{"android":"levelo://app?vid=4e7d284b-4cad-42ef-9da9-44ec71aa8f4d","ios":"levelo://app?vid=4e7d284b-4cad-42ef-9da9-44ec71aa8f4d"},"vehicle_type_id":"4","last_reported":1750061738,"current_range_meters":10000,"station_id":"ce4bhoh2rcd13ifvqh5g","pricing_plan_id":"cebpf4jnsgd1na2vs0mg"},{"bike_id":"c8e281fa-e638-4480-abdc-32759daadf6e","system_id":"levelo_inurba_marseille","lat":43.3236,"lon":5.36757,"is_reserved":false,"is_disabled":false,"rental_uris":{"android":"levelo://app?vid=c8e281fa-e638-4480-abdc-32759daadf6e","ios":"levelo://app?vid=c8e281fa-e638-4480-abdc-32759daadf6e"},"vehicle_type_id":"4","last_reported":1750061738,"current_range_meters":10000,"station_id":"ce4bhsh2rcd13ifvqi2g","pricing_plan_id":"cebpf4jnsgd1na2vs0mg"},{"bike_id":"3db42ed2-756a-4f9e-b9e7-34a1f59e7066","system_id":"levelo_inurba_marseille","lat":43.31483,"lon":5.37295,"is_reserved":false,"is_disabled":false,"rental_uris":{"android":"levelo://app?vid=3db42ed2-756a-4f9e-b9e7-34a1f59e7066","ios":"levelo://app?vid=3db42ed2-756a-4f9e-b9e7-34a1f59e7066"},"vehicle_type_id":"4","last_reported":1750061738,"current_range_meters":10800,"station_id":"ce4bgt12rcd13ifvqcd0","pricing_plan_id":"cebpf4jnsgd1na2vs0mg"},{"bike_id":"688c2718-1023-4808-884a-e8827094c54f","system_id":"levelo_inurba_marseille","lat":43.30963,"lon":5.39033,"is_reserved":false,"is_disabled":false,"rental_uris":{"android":"levelo://app?vid=688c2718-1023-4808-884a-e8827094c54f","ios":"levelo://app?vid=688c2718-1023-4808-884a-e8827094c54f"},"vehicle_type_id":"4","last_reported":1750061738,"current_range_meters":10800,"station_id":"ce4bgup2rcd13ifvqco0","pricing_plan_id":"cebpf4jnsgd1na2vs0mg"},{"bike_id":"0c492863-e45f-41f6-a0db-7b70e428c62d","system_id":"levelo_inurba_marseille","lat":43.29037,"lon":5.37572,"is_reserved":false,"is_disabled":false,"rental_uris":{"android":"levelo://app?vid=0c492863-e45f-41f6-a0db-7b70e428c62d","ios":"levelo://app?vid=0c492863-e45f-41f6-a0db-7b70e428c62d"},"vehicle_type_id":"4","last_reported":1750061738,"current_range_meters":10800,"station_id":"ce4bh692rcd13ifvqe90","pricing_plan_id":"cebpf4jnsgd1na2vs0mg"},{"bike_id":"2a20ba75-2d51-40c4-868e-cb897b50e256","system_id":"levelo_inurba_marseille","lat":43.24173,"lon":5.39702,"is_reserved":false,"is_disabled":false,"rental_uris":{"android":"levelo://app?vid=2a20ba75-2d51-40c4-868e-cb897b50e256","ios":"levelo://app?vid=2a20ba75-2d51-40c4-868e-cb897b50e256"},"vehicle_type_id":"4","last_reported":1750061738,"current_range_meters":10800,"station_id":"ce4bhn12rcd13ifvqgpg","pricing_plan_id":"cebpf4jnsgd1na2vs0mg"},{"bike_id":"654eac4b-ef0a-4bfb-a829-03bd7cb11f27","system_id":"levelo_inurba_marseille","lat":43.33603,"lon":5.41032,"is_reserved":false,"is_disabled":false,"rental_uris":{"android":"levelo://app?vid=654eac4b-ef0a-4bfb-a829-03bd7cb11f27","ios":"levelo://app?vid=654eac4b-ef0a-4bfb-a829-03bd7cb11f27"},"vehicle_type_id":"4","last_reported":1750061738,"current_range_meters":10800,"station_id":"ce4bhqh2rcd13ifvqhmg","pricing_plan_id":"cebpf4jnsgd1na2vs0mg"},{"bike_id":"edd5558e-480f-4955-9fed-fc074dc0871a","system_id":"levelo_inurba_marseille","lat":43.29569,"lon":5.39974,"is_reserved":false,"is_disabled":false,"rental_uris":{"android":"levelo://app?vid=edd5558e-480f-4955-9fed-fc074dc0871a","ios":"levelo://app?vid=edd5558e-480f-4955-9fed-fc074dc0871a"},"vehicle_type_id":"4","last_reported":1750061738,"current_range_meters":11200,"station_id":"ce4bh312rcd13ifvqdj0","pricing_plan_id":"cebpf4jnsgd1na2vs0mg"},{"bike_id":"34661ccd-4a50-408b-9a97-f3b31c95e9eb","system_id":"levelo_inurba_marseille","lat":43.337444,"lon":5.374475,"is_reserved":false,"is_disabled":false,"rental_uris":{"android":"levelo://app?vid=34661ccd-4a50-408b-9a97-f3b31c95e9eb","ios":"levelo://app?vid=34661ccd-4a50-408b-9a97-f3b31c95e9eb"},"vehicle_type_id":"4","last_reported":1750061738,"current_range_meters":11600,"station_id":"","pricing_plan_id":"cebpf4jnsgd1na2vs0mg"},{"bike_id":"91753df6-b383-4702-8414-24237e81fab8","system_id":"levelo_inurba_marseille","lat":43.24416,"lon":5.37169,"is_reserved":false,"is_disabled":false,"rental_uris":{"android":"levelo://app?vid=91753df6-b383-4702-8414-24237e81fab8","ios":"levelo://app?vid=91753df6-b383-4702-8414-24237e81fab8"},"vehicle_type_id":"4","last_reported":1750061738,"current_range_meters":11600,"station_id":"","pricing_plan_id":"cebpf4jnsgd1na2vs0mg"},{"bike_id":"e63b4858-36ee-4e77-939e-eafad0a0dde4","system_id":"levelo_inurba_marseille","lat":43.23956,"lon":5.36622,"is_reserved":false,"is_disabled":false,"rental_uris":{"android":"levelo://app?vid=e63b4858-36ee-4e77-939e-eafad0a0dde4","ios":"levelo://app?vid=e63b4858-36ee-4e77-939e-eafad0a0dde4"},"vehicle_type_id":"4","last_reported":1750061738,"current_range_meters":11600,"station_id":"ce4bhi12rcd13ifvqfp0","pricing_plan_id":"cebpf4jnsgd1na2vs0mg"},{"bike_id":"9a0c3f99-8244-4ee9-a116-a84f3fe33d04","system_id":"levelo_inurba_marseille","lat":43.232,"lon":5.3555,"is_reserved":false,"is_disabled":false,"rental_uris":{"android":"levelo://app?vid=9a0c3f99-8244-4ee9-a116-a84f3fe33d04","ios":"levelo://app?vid=9a0c3f99-8244-4ee9-a116-a84f3fe33d04"},"vehicle_type_id":"4","last_reported":1750061738,"current_range_meters":11600,"station_id":"ce4bhu92rcd13ifvqi70","pricing_plan_id":"cebpf4jnsgd1na2vs0mg"},{"bike_id":"50ab7d71-0ec7-4cd6-9613-7fb8bb164477","system_id":"levelo_inurba_marseille","lat":43.30587,"lon":5.37211,"is_reserved":false,"is_disabled":false,"rental_uris":{"android":"levelo://app?vid=50ab7d71-0ec7-4cd6-9613-7fb8bb164477","ios":"levelo://app?vid=50ab7d71-0ec7-4cd6-9613-7fb8bb164477"},"vehicle_type_id":"4","last_reported":1750061738,"current_range_meters":12000,"station_id":"ce4bgqh2rcd13ifvqc4g","pricing_plan_id":"cebpf4jnsgd1na2vs0mg"},{"bike_id":"6399fcab-04d4-4ede-a7b5-ab8e25da1bfe","system_id":"levelo_inurba_marseille","lat":43.28423,"lon":5.37526,"is_reserved":false,"is_disabled":false,"rental_uris":{"android":"levelo://app?vid=6399fcab-04d4-4ede-a7b5-ab8e25da1bfe","ios":"levelo://app?vid=6399fcab-04d4-4ede-a7b5-ab8e25da1bfe"},"vehicle_type_id":"4","last_reported":1750061738,"current_range_meters":12000,"station_id":"ce4bh412rcd13ifvqds0","pricing_plan_id":"cebpf4jnsgd1na2vs0mg"},{"bike_id":"25201e04-b100-4a6e-b54c-ce10ed6aa088","system_id":"levelo_inurba_marseille","lat":43.2706,"lon":5.40259,"is_reserved":false,"is_disabled":false,"rental_uris":{"android":"levelo://app?vid=25201e04-b100-4a6e-b54c-ce10ed6aa088","ios":"levelo://app?vid=25201e04-b100-4a6e-b54c-ce10ed6aa088"},"vehicle_type_id":"4","last_reported":1750061738,"current_range_meters":12000,"station_id":"ce4bhk92rcd13ifvqgc0","pricing_plan_id":"cebpf4jnsgd1na2vs0mg"},{"bike_id":"18877686-938b-4358-acf0-744fd82f41d8","system_id":"levelo_inurba_marseille","lat":43.23155,"lon":5.43706,"is_reserved":false,"is_disabled":false,"rental_uris":{"android":"levelo://app?vid=18877686-938b-4358-acf0-744fd82f41d8","ios":"levelo://app?vid=18877686-938b-4358-acf0-744fd82f41d8"},"vehicle_type_id":"4","last_reported":1750061738,"current_range_meters":12000,"station_id":"ce4bhmp2rcd13ifvqgog","pricing_plan_id":"cebpf4jnsgd1na2vs0mg"},{"bike_id":"ff5676c8-3ed8-4967-bc57-2174d15f00fb","system_id":"levelo_inurba_marseille","lat":43.287098,"lon":5.400027,"is_reserved":false,"is_disabled":false,"rental_uris":{"android":"levelo://app?vid=ff5676c8-3ed8-4967-bc57-2174d15f00fb","ios":"levelo://app?vid=ff5676c8-3ed8-4967-bc57-2174d15f00fb"},"vehicle_type_id":"4","last_reported":1750061738,"current_range_meters":12000,"station_id":"ce4bho92rcd13ifvqh3g","pricing_plan_id":"cebpf4jnsgd1na2vs0mg"},{"bike_id":"36f7b675-3639-4183-8a18-8a942f2fdd0e","system_id":"levelo_inurba_marseille","lat":43.29916,"lon":5.43652,"is_reserved":false,"is_disabled":false,"rental_uris":{"android":"levelo://app?vid=36f7b675-3639-4183-8a18-8a942f2fdd0e","ios":"levelo://app?vid=36f7b675-3639-4183-8a18-8a942f2fdd0e"},"vehicle_type_id":"4","last_reported":1750061738,"current_range_meters":12000,"station_id":"ce4bhpp2rcd13ifvqhfg","pricing_plan_id":"cebpf4jnsgd1na2vs0mg"},{"bike_id":"0fe8d47d-0db3-437d-9239-f712b4736eb4","system_id":"levelo_inurba_marseille","lat":43.32082,"lon":5.36755,"is_reserved":false,"is_disabled":false,"rental_uris":{"android":"levelo://app?vid=0fe8d47d-0db3-437d-9239-f712b4736eb4","ios":"levelo://app?vid=0fe8d47d-0db3-437d-9239-f712b4736eb4"},"vehicle_type_id":"4","last_reported":1750061738,"current_range_meters":12000,"station_id":"ce4bhrh2rcd13ifvqhug","pricing_plan_id":"cebpf4jnsgd1na2vs0mg"},{"bike_id":"d6042e34-f8ff-43d7-a5bd-938f5f4f186d","system_id":"levelo_inurba_marseille","lat":43.23196,"lon":5.35547,"is_reserved":false,"is_disabled":false,"rental_uris":{"android":"levelo://app?vid=d6042e34-f8ff-43d7-a5bd-938f5f4f186d","ios":"levelo://app?vid=d6042e34-f8ff-43d7-a5bd-938f5f4f186d"},"vehicle_type_id":"4","last_reported":1750061738,"current_range_meters":12000,"station_id":"ce4bhu92rcd13ifvqi70","pricing_plan_id":"cebpf4jnsgd1na2vs0mg"},{"bike_id":"38e08ec6-738b-4a04-a092-dec10c6891d3","system_id":"levelo_inurba_marseille","lat":43.26861,"lon":5.40676,"is_reserved":false,"is_disabled":false,"rental_uris":{"android":"levelo://app?vid=38e08ec6-738b-4a04-a092-dec10c6891d3","ios":"levelo://app?vid=38e08ec6-738b-4a04-a092-dec10c6891d3"},"vehicle_type_id":"4","last_reported":1750061738,"current_range_meters":12400,"station_id":"","pricing_plan_id":"cebpf4jnsgd1na2vs0mg"},{"bike_id":"1101d52a-ac22-4499-8e84-020ea83918db","system_id":"levelo_inurba_marseille","lat":43.29621,"lon":5.37152,"is_reserved":false,"is_disabled":false,"rental_uris":{"android":"levelo://app?vid=1101d52a-ac22-4499-8e84-020ea83918db","ios":"levelo://app?vid=1101d52a-ac22-4499-8e84-020ea83918db"},"vehicle_type_id":"4","last_reported":1750061738,"current_range_meters":12400,"station_id":"ce4bgnh2rcd13ifvqc0g","pricing_plan_id":"cebpf4jnsgd1na2vs0mg"},{"bike_id":"1b9748db-e477-40ad-a5b3-6f044606f2ad","system_id":"levelo_inurba_marseille","lat":43.29894,"lon":5.43671,"is_reserved":false,"is_disabled":false,"rental_uris":{"android":"levelo://app?vid=1b9748db-e477-40ad-a5b3-6f044606f2ad","ios":"levelo://app?vid=1b9748db-e477-40ad-a5b3-6f044606f2ad"},"vehicle_type_id":"4","last_reported":1750061738,"current_range_meters":12400,"station_id":"ce4bhpp2rcd13ifvqhfg","pricing_plan_id":"cebpf4jnsgd1na2vs0mg"},{"bike_id":"ca404674-a7bb-4909-82c7-65fa93f0b6de","system_id":"levelo_inurba_marseille","lat":43.21187,"lon":5.35086,"is_reserved":false,"is_disabled":false,"rental_uris":{"android":"levelo://app?vid=ca404674-a7bb-4909-82c7-65fa93f0b6de","ios":"levelo://app?vid=ca404674-a7bb-4909-82c7-65fa93f0b6de"},"vehicle_type_id":"4","last_reported":1750061738,"current_range_meters":12400,"station_id":"st_cvj6sg6p6f1abm77japg","pricing_plan_id":"cebpf4jnsgd1na2vs0mg"},{"bike_id":"5bf19c18-d0ad-489b-bd15-9440a1d65b2d","system_id":"levelo_inurba_marseille","lat":43.21185,"lon":5.35072,"is_reserved":false,"is_disabled":false,"rental_uris":{"android":"levelo://app?vid=5bf19c18-d0ad-489b-bd15-9440a1d65b2d","ios":"levelo://app?vid=5bf19c18-d0ad-489b-bd15-9440a1d65b2d"},"vehicle_type_id":"4","last_reported":1750061738,"current_range_meters":12400,"station_id":"st_cvj6sg6p6f1abm77japg","pricing_plan_id":"cebpf4jnsgd1na2vs0mg"},{"bike_id":"037d24b8-0f7d-442c-a65b-b06f720ebe3a","system_id":"levelo_inurba_marseille","lat":43.3139,"lon":5.36702,"is_reserved":false,"is_disabled":false,"rental_uris":{"android":"levelo://app?vid=037d24b8-0f7d-442c-a65b-b06f720ebe3a","ios":"levelo://app?vid=037d24b8-0f7d-442c-a65b-b06f720ebe3a"},"vehicle_type_id":"4","last_reported":1750061738,"current_range_meters":12800,"station_id":"","pricing_plan_id":"cebpf4jnsgd1na2vs0mg"},{"bike_id":"009595f8-4bb8-4fa1-aeab-01f24778bd2d","system_id":"levelo_inurba_marseille","lat":43.30606,"lon":5.36715,"is_reserved":false,"is_disabled":false,"rental_uris":{"android":"levelo://app?vid=009595f8-4bb8-4fa1-aeab-01f24778bd2d","ios":"levelo://app?vid=009595f8-4bb8-4fa1-aeab-01f24778bd2d"},"vehicle_type_id":"4","last_reported":1750061738,"current_range_meters":12800,"station_id":"ce4bgrp2rcd13ifvqc9g","pricing_plan_id":"cebpf4jnsgd1na2vs0mg"},{"bike_id":"74db2ee9-d771-4903-b912-5cdba4e4a08d","system_id":"levelo_inurba_marseille","lat":43.28397,"lon":5.3752,"is_reserved":false,"is_disabled":false,"rental_uris":{"android":"levelo://app?vid=74db2ee9-d771-4903-b912-5cdba4e4a08d","ios":"levelo://app?vid=74db2ee9-d771-4903-b912-5cdba4e4a08d"},"vehicle_type_id":"4","last_reported":1750061738,"current_range_meters":12800,"station_id":"ce4bh412rcd13ifvqds0","pricing_plan_id":"cebpf4jnsgd1na2vs0mg"},{"bike_id":"4414718f-04f0-4afa-a804-68340b9e762a","system_id":"levelo_inurba_marseille","lat":43.299074,"lon":5.376494,"is_reserved":false,"is_disabled":false,"rental_uris":{"android":"levelo://app?vid=4414718f-04f0-4afa-a804-68340b9e762a","ios":"levelo://app?vid=4414718f-04f0-4afa-a804-68340b9e762a"},"vehicle_type_id":"4","last_reported":1750061738,"current_range_meters":13600,"station_id":"ce4bgqh2rcd13ifvqc5g","pricing_plan_id":"cebpf4jnsgd1na2vs0mg"},{"bike_id":"c8569588-274a-432b-a91e-50661de52c7b","system_id":"levelo_inurba_marseille","lat":43.31349,"lon":5.36712,"is_reserved":false,"is_disabled":false,"rental_uris":{"android":"levelo://app?vid=c8569588-274a-432b-a91e-50661de52c7b","ios":"levelo://app?vid=c8569588-274a-432b-a91e-50661de52c7b"},"vehicle_type_id":"4","last_reported":1750061738,"current_range_meters":13600,"station_id":"ce4bgr92rcd13ifvqc6g","pricing_plan_id":"cebpf4jnsgd1na2vs0mg"},{"bike_id":"30800f1b-ea19-44d0-b847-dc3bc3f1fa1e","system_id":"levelo_inurba_marseille","lat":43.31491,"lon":5.37325,"is_reserved":false,"is_disabled":false,"rental_uris":{"android":"levelo://app?vid=30800f1b-ea19-44d0-b847-dc3bc3f1fa1e","ios":"levelo://app?vid=30800f1b-ea19-44d0-b847-dc3bc3f1fa1e"},"vehicle_type_id":"4","last_reported":1750061738,"current_range_meters":13600,"station_id":"ce4bgt12rcd13ifvqcd0","pricing_plan_id":"cebpf4jnsgd1na2vs0mg"},{"bike_id":"19a0c987-6840-4fd1-a0d9-5217647ce49a","system_id":"levelo_inurba_marseille","lat":43.26555,"lon":5.37284,"is_reserved":false,"is_disabled":false,"rental_uris":{"android":"levelo://app?vid=19a0c987-6840-4fd1-a0d9-5217647ce49a","ios":"levelo://app?vid=19a0c987-6840-4fd1-a0d9-5217647ce49a"},"vehicle_type_id":"4","last_reported":1750061738,"current_range_meters":13600,"station_id":"ce4bhg12rcd13ifvqf70","pricing_plan_id":"cebpf4jnsgd1na2vs0mg"},{"bike_id":"0bfbb718-03d8-4cb1-a9b1-bac13c81f541","system_id":"levelo_inurba_marseille","lat":43.25129,"lon":5.40317,"is_reserved":false,"is_disabled":false,"rental_uris":{"android":"levelo://app?vid=0bfbb718-03d8-4cb1-a9b1-bac13c81f541","ios":"levelo://app?vid=0bfbb718-03d8-4cb1-a9b1-bac13c81f541"},"vehicle_type_id":"4","last_reported":1750061738,"current_range_meters":13600,"station_id":"ce4bhlh2rcd13ifvqgig","pricing_plan_id":"cebpf4jnsgd1na2vs0mg"},{"bike_id":"26a26ab7-0438-4161-bab4-638f55e757fa","system_id":"levelo_inurba_marseille","lat":43.23193,"lon":5.35554,"is_reserved":false,"is_disabled":false,"rental_uris":{"android":"levelo://app?vid=26a26ab7-0438-4161-bab4-638f55e757fa","ios":"levelo://app?vid=26a26ab7-0438-4161-bab4-638f55e757fa"},"vehicle_type_id":"4","last_reported":1750061738,"current_range_meters":13600,"station_id":"ce4bhu92rcd13ifvqi70","pricing_plan_id":"cebpf4jnsgd1na2vs0mg"},{"bike_id":"2d16d2b6-c684-45ab-831f-9a77e91e8afb","system_id":"levelo_inurba_marseille","lat":43.21192,"lon":5.35071,"is_reserved":false,"is_disabled":false,"rental_uris":{"android":"levelo://app?vid=2d16d2b6-c684-45ab-831f-9a77e91e8afb","ios":"levelo://app?vid=2d16d2b6-c684-45ab-831f-9a77e91e8afb"},"vehicle_type_id":"4","last_reported":1750061738,"current_range_meters":13600,"station_id":"st_cvj6sg6p6f1abm77japg","pricing_plan_id":"cebpf4jnsgd1na2vs0mg"},{"bike_id":"a66c4499-80b2-4849-b750-619e2fe538d1","system_id":"levelo_inurba_marseille","lat":43.29846,"lon":5.36268,"is_reserved":false,"is_disabled":false,"rental_uris":{"android":"levelo://app?vid=a66c4499-80b2-4849-b750-619e2fe538d1","ios":"levelo://app?vid=a66c4499-80b2-4849-b750-619e2fe538d1"},"vehicle_type_id":"4","last_reported":1750061738,"current_range_meters":14000,"station_id":"ce4bgpp2rcd13ifvqc3g","pricing_plan_id":"cebpf4jnsgd1na2vs0mg"},{"bike_id":"c2504537-0d62-48da-9e64-dd24e12b7f9e","system_id":"levelo_inurba_marseille","lat":43.31702,"lon":5.40446,"is_reserved":false,"is_disabled":false,"rental_uris":{"android":"levelo://app?vid=c2504537-0d62-48da-9e64-dd24e12b7f9e","ios":"levelo://app?vid=c2504537-0d62-48da-9e64-dd24e12b7f9e"},"vehicle_type_id":"4","last_reported":1750061738,"current_range_meters":14000,"station_id":"ce4bh012rcd13ifvqd00","pricing_plan_id":"cebpf4jnsgd1na2vs0mg"},{"bike_id":"c728a4ac-95a5-4485-b9a0-98fca19223dc","system_id":"levelo_inurba_marseille","lat":43.2732,"lon":5.39109,"is_reserved":false,"is_disabled":false,"rental_uris":{"android":"levelo://app?vid=c728a4ac-95a5-4485-b9a0-98fca19223dc","ios":"levelo://app?vid=c728a4ac-95a5-4485-b9a0-98fca19223dc"},"vehicle_type_id":"4","last_reported":1750061738,"current_range_meters":14000,"station_id":"ce4bhgp2rcd13ifvqfe0","pricing_plan_id":"cebpf4jnsgd1na2vs0mg"},{"bike_id":"0b9ebd98-10d1-4ed5-898b-5863bd831ded","system_id":"levelo_inurba_marseille","lat":43.2593,"lon":5.40914,"is_reserved":false,"is_disabled":false,"rental_uris":{"android":"levelo://app?vid=0b9ebd98-10d1-4ed5-898b-5863bd831ded","ios":"levelo://app?vid=0b9ebd98-10d1-4ed5-898b-5863bd831ded"},"vehicle_type_id":"4","last_reported":1750061738,"current_range_meters":14000,"station_id":"ce4bhm92rcd13ifvqglg","pricing_plan_id":"cebpf4jnsgd1na2vs0mg"},{"bike_id":"508c6318-2e37-4161-9247-29cc1ffa502e","system_id":"levelo_inurba_marseille","lat":43.32903,"lon":5.40569,"is_reserved":false,"is_disabled":false,"rental_uris":{"android":"levelo://app?vid=508c6318-2e37-4161-9247-29cc1ffa502e","ios":"levelo://app?vid=508c6318-2e37-4161-9247-29cc1ffa502e"},"vehicle_type_id":"4","last_reported":1750061738,"current_range_meters":14400,"station_id":"","pricing_plan_id":"cebpf4jnsgd1na2vs0mg"},{"bike_id":"793ae218-276b-430f-a1db-701a8456170b","system_id":"levelo_inurba_marseille","lat":43.31214,"lon":5.40164,"is_reserved":false,"is_disabled":false,"rental_uris":{"android":"levelo://app?vid=793ae218-276b-430f-a1db-701a8456170b","ios":"levelo://app?vid=793ae218-276b-430f-a1db-701a8456170b"},"vehicle_type_id":"4","last_reported":1750061738,"current_range_meters":14400,"station_id":"","pricing_plan_id":"cebpf4jnsgd1na2vs0mg"},{"bike_id":"74abfb01-7421-471f-83ce-339f5edac0b5","system_id":"levelo_inurba_marseille","lat":43.24395,"lon":5.37057,"is_reserved":false,"is_disabled":false,"rental_uris":{"android":"levelo://app?vid=74abfb01-7421-471f-83ce-339f5edac0b5","ios":"levelo://app?vid=74abfb01-7421-471f-83ce-339f5edac0b5"},"vehicle_type_id":"4","last_reported":1750061738,"current_range_meters":14400,"station_id":"ce4bhhh2rcd13ifvqfk0","pricing_plan_id":"cebpf4jnsgd1na2vs0mg"},{"bike_id":"fb7303be-105d-4740-a6f6-0f71de2a17e5","system_id":"levelo_inurba_marseille","lat":43.26222,"lon":5.40454,"is_reserved":false,"is_disabled":false,"rental_uris":{"android":"levelo://app?vid=fb7303be-105d-4740-a6f6-0f71de2a17e5","ios":"levelo://app?vid=fb7303be-105d-4740-a6f6-0f71de2a17e5"},"vehicle_type_id":"4","last_reported":1750061738,"current_range_meters":14400,"station_id":"ce4bhmh2rcd13ifvqgmg","pricing_plan_id":"cebpf4jnsgd1na2vs0mg"},{"bike_id":"7183bf46-ab0e-45c2-8a6d-5d074d526ac0","system_id":"levelo_inurba_marseille","lat":43.24073,"lon":5.37769,"is_reserved":false,"is_disabled":false,"rental_uris":{"android":"levelo://app?vid=7183bf46-ab0e-45c2-8a6d-5d074d526ac0","ios":"levelo://app?vid=7183bf46-ab0e-45c2-8a6d-5d074d526ac0"},"vehicle_type_id":"4","last_reported":1750061738,"current_range_meters":14400,"station_id":"ce4bhnp2rcd13ifvqgvg","pricing_plan_id":"cebpf4jnsgd1na2vs0mg"},{"bike_id":"a95b8cc8-0840-4a59-9ea9-81043a541020","system_id":"levelo_inurba_marseille","lat":43.27028,"lon":5.38783,"is_reserved":false,"is_disabled":false,"rental_uris":{"android":"levelo://app?vid=a95b8cc8-0840-4a59-9ea9-81043a541020","ios":"levelo://app?vid=a95b8cc8-0840-4a59-9ea9-81043a541020"},"vehicle_type_id":"4","last_reported":1750061738,"current_range_meters":14800,"station_id":"","pricing_plan_id":"cebpf4jnsgd1na2vs0mg"},{"bike_id":"10f50212-87c0-4169-9399-8f4d75b45afe","system_id":"levelo_inurba_marseille","lat":43.3095,"lon":5.39028,"is_reserved":false,"is_disabled":false,"rental_uris":{"android":"levelo://app?vid=10f50212-87c0-4169-9399-8f4d75b45afe","ios":"levelo://app?vid=10f50212-87c0-4169-9399-8f4d75b45afe"},"vehicle_type_id":"4","last_reported":1750061738,"current_range_meters":14800,"station_id":"ce4bgup2rcd13ifvqco0","pricing_plan_id":"cebpf4jnsgd1na2vs0mg"},{"bike_id":"4a9dd7e9-ace7-4059-bcc3-7c41b5934b71","system_id":"levelo_inurba_marseille","lat":43.24169,"lon":5.39712,"is_reserved":false,"is_disabled":false,"rental_uris":{"android":"levelo://app?vid=4a9dd7e9-ace7-4059-bcc3-7c41b5934b71","ios":"levelo://app?vid=4a9dd7e9-ace7-4059-bcc3-7c41b5934b71"},"vehicle_type_id":"4","last_reported":1750061738,"current_range_meters":14800,"station_id":"ce4bhn12rcd13ifvqgpg","pricing_plan_id":"cebpf4jnsgd1na2vs0mg"},{"bike_id":"425a0402-aa94-466d-99fa-74c2d63fa2eb","system_id":"levelo_inurba_marseille","lat":43.299636,"lon":5.384822,"is_reserved":false,"is_disabled":false,"rental_uris":{"android":"levelo://app?vid=425a0402-aa94-466d-99fa-74c2d63fa2eb","ios":"levelo://app?vid=425a0402-aa94-466d-99fa-74c2d63fa2eb"},"vehicle_type_id":"4","last_reported":1750061738,"current_range_meters":15200,"station_id":"","pricing_plan_id":"cebpf4jnsgd1na2vs0mg"},{"bike_id":"316f77fd-3e02-4b39-9193-0f909b046405","system_id":"levelo_inurba_marseille","lat":43.30491,"lon":5.36602,"is_reserved":false,"is_disabled":false,"rental_uris":{"android":"levelo://app?vid=316f77fd-3e02-4b39-9193-0f909b046405","ios":"levelo://app?vid=316f77fd-3e02-4b39-9193-0f909b046405"},"vehicle_type_id":"4","last_reported":1750061738,"current_range_meters":15200,"station_id":"","pricing_plan_id":"cebpf4jnsgd1na2vs0mg"},{"bike_id":"ff3ca0c8-9274-46b1-a760-5a8471ca1ba5","system_id":"levelo_inurba_marseille","lat":43.2979,"lon":5.38094,"is_reserved":false,"is_disabled":false,"rental_uris":{"android":"levelo://app?vid=ff3ca0c8-9274-46b1-a760-5a8471ca1ba5","ios":"levelo://app?vid=ff3ca0c8-9274-46b1-a760-5a8471ca1ba5"},"vehicle_type_id":"4","last_reported":1750061738,"current_range_meters":15200,"station_id":"ce4bgip2rcd13ifvqbb0","pricing_plan_id":"cebpf4jnsgd1na2vs0mg"},{"bike_id":"0a7ee81b-b615-487f-bd4d-c54d588ca315","system_id":"levelo_inurba_marseille","lat":43.31232,"lon":5.36851,"is_reserved":false,"is_disabled":false,"rental_uris":{"android":"levelo://app?vid=0a7ee81b-b615-487f-bd4d-c54d588ca315","ios":"levelo://app?vid=0a7ee81b-b615-487f-bd4d-c54d588ca315"},"vehicle_type_id":"4","last_reported":1750061738,"current_range_meters":15200,"station_id":"ce4bgl92rcd13ifvqbq0","pricing_plan_id":"cebpf4jnsgd1na2vs0mg"},{"bike_id":"08ce77de-9752-4fc5-9730-eeed5b46b6a0","system_id":"levelo_inurba_marseille","lat":43.30962,"lon":5.39047,"is_reserved":false,"is_disabled":false,"rental_uris":{"android":"levelo://app?vid=08ce77de-9752-4fc5-9730-eeed5b46b6a0","ios":"levelo://app?vid=08ce77de-9752-4fc5-9730-eeed5b46b6a0"},"vehicle_type_id":"4","last_reported":1750061738,"current_range_meters":15200,"station_id":"ce4bgup2rcd13ifvqco0","pricing_plan_id":"cebpf4jnsgd1na2vs0mg"},{"bike_id":"3eb51d33-1792-425a-8738-6a09d0cf7307","system_id":"levelo_inurba_marseille","lat":43.26031,"lon":5.37552,"is_reserved":false,"is_disabled":false,"rental_uris":{"android":"levelo://app?vid=3eb51d33-1792-425a-8738-6a09d0cf7307","ios":"levelo://app?vid=3eb51d33-1792-425a-8738-6a09d0cf7307"},"vehicle_type_id":"4","last_reported":1750061738,"current_range_meters":15200,"station_id":"ce4bhgh2rcd13ifvqfa0","pricing_plan_id":"cebpf4jnsgd1na2vs0mg"},{"bike_id":"7b9010cb-65eb-4696-b39f-3538e90a6031","system_id":"levelo_inurba_marseille","lat":43.34186,"lon":5.37452,"is_reserved":false,"is_disabled":false,"rental_uris":{"android":"levelo://app?vid=7b9010cb-65eb-4696-b39f-3538e90a6031","ios":"levelo://app?vid=7b9010cb-65eb-4696-b39f-3538e90a6031"},"vehicle_type_id":"4","last_reported":1750061738,"current_range_meters":16000,"station_id":"","pricing_plan_id":"cebpf4jnsgd1na2vs0mg"},{"bike_id":"99f8b648-3b9f-4cf1-8043-bb2f703ff1b3","system_id":"levelo_inurba_marseille","lat":43.31227,"lon":5.36804,"is_reserved":false,"is_disabled":false,"rental_uris":{"android":"levelo://app?vid=99f8b648-3b9f-4cf1-8043-bb2f703ff1b3","ios":"levelo://app?vid=99f8b648-3b9f-4cf1-8043-bb2f703ff1b3"},"vehicle_type_id":"4","last_reported":1750061738,"current_range_meters":16000,"station_id":"ce4bgl92rcd13ifvqbq0","pricing_plan_id":"cebpf4jnsgd1na2vs0mg"},{"bike_id":"c1a41f9b-bcca-455d-9e72-c120a0c07c2c","system_id":"levelo_inurba_marseille","lat":43.31368,"lon":5.36712,"is_reserved":false,"is_disabled":false,"rental_uris":{"android":"levelo://app?vid=c1a41f9b-bcca-455d-9e72-c120a0c07c2c","ios":"levelo://app?vid=c1a41f9b-bcca-455d-9e72-c120a0c07c2c"},"vehicle_type_id":"4","last_reported":1750061738,"current_range_meters":16000,"station_id":"ce4bgr92rcd13ifvqc6g","pricing_plan_id":"cebpf4jnsgd1na2vs0mg"},{"bike_id":"3b0b7ce5-2734-4429-acef-7ea9ad81680d","system_id":"levelo_inurba_marseille","lat":43.3147,"lon":5.37294,"is_reserved":false,"is_disabled":false,"rental_uris":{"android":"levelo://app?vid=3b0b7ce5-2734-4429-acef-7ea9ad81680d","ios":"levelo://app?vid=3b0b7ce5-2734-4429-acef-7ea9ad81680d"},"vehicle_type_id":"4","last_reported":1750061738,"current_range_meters":16000,"station_id":"ce4bgt12rcd13ifvqcd0","pricing_plan_id":"cebpf4jnsgd1na2vs0mg"},{"bike_id":"50714f61-a1aa-4f4a-8442-7e8d521e5bf0","system_id":"levelo_inurba_marseille","lat":43.31486,"lon":5.37311,"is_reserved":false,"is_disabled":false,"rental_uris":{"android":"levelo://app?vid=50714f61-a1aa-4f4a-8442-7e8d521e5bf0","ios":"levelo://app?vid=50714f61-a1aa-4f4a-8442-7e8d521e5bf0"},"vehicle_type_id":"4","last_reported":1750061738,"current_range_meters":16000,"station_id":"ce4bgt12rcd13ifvqcd0","pricing_plan_id":"cebpf4jnsgd1na2vs0mg"},{"bike_id":"a5e5cefa-69df-443f-aa8d-90785149de78","system_id":"levelo_inurba_marseille","lat":43.25942,"lon":5.40888,"is_reserved":false,"is_disabled":false,"rental_uris":{"android":"levelo://app?vid=a5e5cefa-69df-443f-aa8d-90785149de78","ios":"levelo://app?vid=a5e5cefa-69df-443f-aa8d-90785149de78"},"vehicle_type_id":"4","last_reported":1750061738,"current_range_meters":16000,"station_id":"ce4bhm92rcd13ifvqglg","pricing_plan_id":"cebpf4jnsgd1na2vs0mg"},{"bike_id":"1663aa41-2632-4f5f-b804-e2fbc743b1f2","system_id":"levelo_inurba_marseille","lat":43.24179,"lon":5.39723,"is_reserved":false,"is_disabled":false,"rental_uris":{"android":"levelo://app?vid=1663aa41-2632-4f5f-b804-e2fbc743b1f2","ios":"levelo://app?vid=1663aa41-2632-4f5f-b804-e2fbc743b1f2"},"vehicle_type_id":"4","last_reported":1750061738,"current_range_meters":16000,"station_id":"ce4bhn12rcd13ifvqgpg","pricing_plan_id":"cebpf4jnsgd1na2vs0mg"},{"bike_id":"824c9de1-838b-423a-850c-7b2e961d5689","system_id":"levelo_inurba_marseille","lat":43.32483,"lon":5.36567,"is_reserved":false,"is_disabled":false,"rental_uris":{"android":"levelo://app?vid=824c9de1-838b-423a-850c-7b2e961d5689","ios":"levelo://app?vid=824c9de1-838b-423a-850c-7b2e961d5689"},"vehicle_type_id":"4","last_reported":1750061738,"current_range_meters":16000,"station_id":"ce4bhs12rcd13ifvqhvg","pricing_plan_id":"cebpf4jnsgd1na2vs0mg"},{"bike_id":"c3146ff4-8e32-4e22-a429-b00237e68e52","system_id":"levelo_inurba_marseille","lat":43.287136,"lon":5.379428,"is_reserved":false,"is_disabled":false,"rental_uris":{"android":"levelo://app?vid=c3146ff4-8e32-4e22-a429-b00237e68e52","ios":"levelo://app?vid=c3146ff4-8e32-4e22-a429-b00237e68e52"},"vehicle_type_id":"4","last_reported":1750061738,"current_range_meters":16400,"station_id":"","pricing_plan_id":"cebpf4jnsgd1na2vs0mg"},{"bike_id":"ef67e823-6cc8-496d-95fd-52b616bf3f34","system_id":"levelo_inurba_marseille","lat":43.29586,"lon":5.37545,"is_reserved":false,"is_disabled":false,"rental_uris":{"android":"levelo://app?vid=ef67e823-6cc8-496d-95fd-52b616bf3f34","ios":"levelo://app?vid=ef67e823-6cc8-496d-95fd-52b616bf3f34"},"vehicle_type_id":"4","last_reported":1750061738,"current_range_meters":16400,"station_id":"ce4bgh92rcd13ifvqb50","pricing_plan_id":"cebpf4jnsgd1na2vs0mg"},{"bike_id":"534dd4b5-a42a-4e99-999f-7d92efb8887f","system_id":"levelo_inurba_marseille","lat":43.31491,"lon":5.373,"is_reserved":false,"is_disabled":false,"rental_uris":{"android":"levelo://app?vid=534dd4b5-a42a-4e99-999f-7d92efb8887f","ios":"levelo://app?vid=534dd4b5-a42a-4e99-999f-7d92efb8887f"},"vehicle_type_id":"4","last_reported":1750061738,"current_range_meters":16400,"station_id":"ce4bgt12rcd13ifvqcd0","pricing_plan_id":"cebpf4jnsgd1na2vs0mg"},{"bike_id":"0768c57a-380c-4b40-be5e-20d7a8d93a1f","system_id":"levelo_inurba_marseille","lat":43.26216,"lon":5.3744,"is_reserved":false,"is_disabled":false,"rental_uris":{"android":"levelo://app?vid=0768c57a-380c-4b40-be5e-20d7a8d93a1f","ios":"levelo://app?vid=0768c57a-380c-4b40-be5e-20d7a8d93a1f"},"vehicle_type_id":"4","last_reported":1750061738,"current_range_meters":16400,"station_id":"ce4bhgp2rcd13ifvqfc0","pricing_plan_id":"cebpf4jnsgd1na2vs0mg"},{"bike_id":"e97b1861-b242-4405-9e2a-1b81dc9a6257","system_id":"levelo_inurba_marseille","lat":43.25503,"lon":5.37651,"is_reserved":false,"is_disabled":false,"rental_uris":{"android":"levelo://app?vid=e97b1861-b242-4405-9e2a-1b81dc9a6257","ios":"levelo://app?vid=e97b1861-b242-4405-9e2a-1b81dc9a6257"},"vehicle_type_id":"4","last_reported":1750061738,"current_range_meters":16400,"station_id":"ce4bhh12rcd13ifvqff0","pricing_plan_id":"cebpf4jnsgd1na2vs0mg"},{"bike_id":"6f904e79-074e-44f7-a4ee-8b0cd00a4a95","system_id":"levelo_inurba_marseille","lat":43.21191,"lon":5.35076,"is_reserved":false,"is_disabled":false,"rental_uris":{"android":"levelo://app?vid=6f904e79-074e-44f7-a4ee-8b0cd00a4a95","ios":"levelo://app?vid=6f904e79-074e-44f7-a4ee-8b0cd00a4a95"},"vehicle_type_id":"4","last_reported":1750061738,"current_range_meters":16400,"station_id":"st_cvj6sg6p6f1abm77japg","pricing_plan_id":"cebpf4jnsgd1na2vs0mg"},{"bike_id":"b31d3165-d5e1-4bc6-a607-ca1a1c981148","system_id":"levelo_inurba_marseille","lat":43.27579,"lon":5.41742,"is_reserved":false,"is_disabled":false,"rental_uris":{"android":"levelo://app?vid=b31d3165-d5e1-4bc6-a607-ca1a1c981148","ios":"levelo://app?vid=b31d3165-d5e1-4bc6-a607-ca1a1c981148"},"vehicle_type_id":"4","last_reported":1750061738,"current_range_meters":16800,"station_id":"","pricing_plan_id":"cebpf4jnsgd1na2vs0mg"},{"bike_id":"6080ff90-8212-45f0-b59f-f860079bd362","system_id":"levelo_inurba_marseille","lat":43.30551,"lon":5.36544,"is_reserved":false,"is_disabled":false,"rental_uris":{"android":"levelo://app?vid=6080ff90-8212-45f0-b59f-f860079bd362","ios":"levelo://app?vid=6080ff90-8212-45f0-b59f-f860079bd362"},"vehicle_type_id":"4","last_reported":1750061738,"current_range_meters":16800,"station_id":"ce4bgs12rcd13ifvqcag","pricing_plan_id":"cebpf4jnsgd1na2vs0mg"},{"bike_id":"61eada2b-7d01-4c6f-9a4d-88c348e7fb19","system_id":"levelo_inurba_marseille","lat":43.29171,"lon":5.37164,"is_reserved":false,"is_disabled":false,"rental_uris":{"android":"levelo://app?vid=61eada2b-7d01-4c6f-9a4d-88c348e7fb19","ios":"levelo://app?vid=61eada2b-7d01-4c6f-9a4d-88c348e7fb19"},"vehicle_type_id":"4","last_reported":1750061738,"current_range_meters":16800,"station_id":"ce4bha92rcd13ifvqeh0","pricing_plan_id":"cebpf4jnsgd1na2vs0mg"},{"bike_id":"b444599a-17e9-4936-a932-d53890f226da","system_id":"levelo_inurba_marseille","lat":43.26567,"lon":5.39007,"is_reserved":false,"is_disabled":false,"rental_uris":{"android":"levelo://app?vid=b444599a-17e9-4936-a932-d53890f226da","ios":"levelo://app?vid=b444599a-17e9-4936-a932-d53890f226da"},"vehicle_type_id":"4","last_reported":1750061738,"current_range_meters":16800,"station_id":"ce4bhe12rcd13ifvqf30","pricing_plan_id":"cebpf4jnsgd1na2vs0mg"},{"bike_id":"e5fadd3c-73be-490e-87dc-dd19af842df6","system_id":"levelo_inurba_marseille","lat":43.23186,"lon":5.39996,"is_reserved":false,"is_disabled":false,"rental_uris":{"android":"levelo://app?vid=e5fadd3c-73be-490e-87dc-dd19af842df6","ios":"levelo://app?vid=e5fadd3c-73be-490e-87dc-dd19af842df6"},"vehicle_type_id":"4","last_reported":1750061738,"current_range_meters":16800,"station_id":"ce4bhn12rcd13ifvqgqg","pricing_plan_id":"cebpf4jnsgd1na2vs0mg"},{"bike_id":"a17b18f3-d95e-433c-8824-42abf5fb2902","system_id":"levelo_inurba_marseille","lat":43.27496,"lon":5.42454,"is_reserved":false,"is_disabled":false,"rental_uris":{"android":"levelo://app?vid=a17b18f3-d95e-433c-8824-42abf5fb2902","ios":"levelo://app?vid=a17b18f3-d95e-433c-8824-42abf5fb2902"},"vehicle_type_id":"4","last_reported":1750061738,"current_range_meters":16800,"station_id":"ce4bhn92rcd13ifvqgrg","pricing_plan_id":"cebpf4jnsgd1na2vs0mg"},{"bike_id":"b200674b-2afa-40ff-b238-2359448b6baf","system_id":"levelo_inurba_marseille","lat":43.23198,"lon":5.35552,"is_reserved":false,"is_disabled":false,"rental_uris":{"android":"levelo://app?vid=b200674b-2afa-40ff-b238-2359448b6baf","ios":"levelo://app?vid=b200674b-2afa-40ff-b238-2359448b6baf"},"vehicle_type_id":"4","last_reported":1750061738,"current_range_meters":16800,"station_id":"ce4bhu92rcd13ifvqi70","pricing_plan_id":"cebpf4jnsgd1na2vs0mg"},{"bike_id":"70c43210-c730-4cae-97df-b7079f2078cd","system_id":"levelo_inurba_marseille","lat":43.30885,"lon":5.36838,"is_reserved":false,"is_disabled":false,"rental_uris":{"android":"levelo://app?vid=70c43210-c730-4cae-97df-b7079f2078cd","ios":"levelo://app?vid=70c43210-c730-4cae-97df-b7079f2078cd"},"vehicle_type_id":"4","last_reported":1750061738,"current_range_meters":17200,"station_id":"ce4bgn92rcd13ifvqbvg","pricing_plan_id":"cebpf4jnsgd1na2vs0mg"},{"bike_id":"c0321ca9-eb6b-48a1-a5c7-3161695e4e8c","system_id":"levelo_inurba_marseille","lat":43.30546,"lon":5.36699,"is_reserved":false,"is_disabled":false,"rental_uris":{"android":"levelo://app?vid=c0321ca9-eb6b-48a1-a5c7-3161695e4e8c","ios":"levelo://app?vid=c0321ca9-eb6b-48a1-a5c7-3161695e4e8c"},"vehicle_type_id":"4","last_reported":1750061738,"current_range_meters":17200,"station_id":"ce4bgrp2rcd13ifvqc9g","pricing_plan_id":"cebpf4jnsgd1na2vs0mg"},{"bike_id":"2443cc43-ddf7-403c-985e-d8dd08db7d75","system_id":"levelo_inurba_marseille","lat":43.266828,"lon":5.382648,"is_reserved":false,"is_disabled":false,"rental_uris":{"android":"levelo://app?vid=2443cc43-ddf7-403c-985e-d8dd08db7d75","ios":"levelo://app?vid=2443cc43-ddf7-403c-985e-d8dd08db7d75"},"vehicle_type_id":"4","last_reported":1750061738,"current_range_meters":17200,"station_id":"ce4bhg92rcd13ifvqf90","pricing_plan_id":"cebpf4jnsgd1na2vs0mg"},{"bike_id":"bef59111-cb80-4245-84ea-c8905429b10e","system_id":"levelo_inurba_marseille","lat":43.25935,"lon":5.40906,"is_reserved":false,"is_disabled":false,"rental_uris":{"android":"levelo://app?vid=bef59111-cb80-4245-84ea-c8905429b10e","ios":"levelo://app?vid=bef59111-cb80-4245-84ea-c8905429b10e"},"vehicle_type_id":"4","last_reported":1750061738,"current_range_meters":17200,"station_id":"ce4bhm92rcd13ifvqglg","pricing_plan_id":"cebpf4jnsgd1na2vs0mg"},{"bike_id":"2556af7f-444f-4f68-b6ea-d63cd6045d7c","system_id":"levelo_inurba_marseille","lat":43.23181,"lon":5.39985,"is_reserved":false,"is_disabled":false,"rental_uris":{"android":"levelo://app?vid=2556af7f-444f-4f68-b6ea-d63cd6045d7c","ios":"levelo://app?vid=2556af7f-444f-4f68-b6ea-d63cd6045d7c"},"vehicle_type_id":"4","last_reported":1750061738,"current_range_meters":17200,"station_id":"ce4bhn12rcd13ifvqgqg","pricing_plan_id":"cebpf4jnsgd1na2vs0mg"},{"bike_id":"791d4f1c-83c3-4b7a-bc7b-8e3da4a62e2d","system_id":"levelo_inurba_marseille","lat":43.29903,"lon":5.43679,"is_reserved":false,"is_disabled":false,"rental_uris":{"android":"levelo://app?vid=791d4f1c-83c3-4b7a-bc7b-8e3da4a62e2d","ios":"levelo://app?vid=791d4f1c-83c3-4b7a-bc7b-8e3da4a62e2d"},"vehicle_type_id":"4","last_reported":1750061738,"current_range_meters":17200,"station_id":"ce4bhpp2rcd13ifvqhfg","pricing_plan_id":"cebpf4jnsgd1na2vs0mg"},{"bike_id":"8fa25928-cc79-4a34-b141-93d269b2dc8c","system_id":"levelo_inurba_marseille","lat":43.33609,"lon":5.41034,"is_reserved":false,"is_disabled":false,"rental_uris":{"android":"levelo://app?vid=8fa25928-cc79-4a34-b141-93d269b2dc8c","ios":"levelo://app?vid=8fa25928-cc79-4a34-b141-93d269b2dc8c"},"vehicle_type_id":"4","last_reported":1750061738,"current_range_meters":17200,"station_id":"ce4bhqh2rcd13ifvqhmg","pricing_plan_id":"cebpf4jnsgd1na2vs0mg"},{"bike_id":"78e19dcb-cf31-4b8e-8875-dfcbec930b95","system_id":"levelo_inurba_marseille","lat":43.30594,"lon":5.37243,"is_reserved":false,"is_disabled":false,"rental_uris":{"android":"levelo://app?vid=78e19dcb-cf31-4b8e-8875-dfcbec930b95","ios":"levelo://app?vid=78e19dcb-cf31-4b8e-8875-dfcbec930b95"},"vehicle_type_id":"4","last_reported":1750061738,"current_range_meters":17600,"station_id":"ce4bgqh2rcd13ifvqc4g","pricing_plan_id":"cebpf4jnsgd1na2vs0mg"},{"bike_id":"1310401a-8a00-409f-b4e9-02ffb686b3e4","system_id":"levelo_inurba_marseille","lat":43.26553,"lon":5.37296,"is_reserved":false,"is_disabled":false,"rental_uris":{"android":"levelo://app?vid=1310401a-8a00-409f-b4e9-02ffb686b3e4","ios":"levelo://app?vid=1310401a-8a00-409f-b4e9-02ffb686b3e4"},"vehicle_type_id":"4","last_reported":1750061738,"current_range_meters":17600,"station_id":"ce4bhg12rcd13ifvqf70","pricing_plan_id":"cebpf4jnsgd1na2vs0mg"},{"bike_id":"26e080b7-95d2-4195-a5b0-e90ab06e9bef","system_id":"levelo_inurba_marseille","lat":43.27206,"lon":5.39982,"is_reserved":false,"is_disabled":false,"rental_uris":{"android":"levelo://app?vid=26e080b7-95d2-4195-a5b0-e90ab06e9bef","ios":"levelo://app?vid=26e080b7-95d2-4195-a5b0-e90ab06e9bef"},"vehicle_type_id":"4","last_reported":1750061738,"current_range_meters":18000,"station_id":"","pricing_plan_id":"cebpf4jnsgd1na2vs0mg"},{"bike_id":"86e0375d-6780-4c02-a6e4-95b9c9a7b4a2","system_id":"levelo_inurba_marseille","lat":43.29627,"lon":5.37722,"is_reserved":false,"is_disabled":false,"rental_uris":{"android":"levelo://app?vid=86e0375d-6780-4c02-a6e4-95b9c9a7b4a2","ios":"levelo://app?vid=86e0375d-6780-4c02-a6e4-95b9c9a7b4a2"},"vehicle_type_id":"4","last_reported":1750061738,"current_range_meters":18000,"station_id":"ce4bgi92rcd13ifvqb90","pricing_plan_id":"cebpf4jnsgd1na2vs0mg"},{"bike_id":"c5d45729-32dd-40bb-802b-96a947348691","system_id":"levelo_inurba_marseille","lat":43.29905,"lon":5.37478,"is_reserved":false,"is_disabled":false,"rental_uris":{"android":"levelo://app?vid=c5d45729-32dd-40bb-802b-96a947348691","ios":"levelo://app?vid=c5d45729-32dd-40bb-802b-96a947348691"},"vehicle_type_id":"4","last_reported":1750061738,"current_range_meters":18000,"station_id":"ce4bgjh2rcd13ifvqbg0","pricing_plan_id":"cebpf4jnsgd1na2vs0mg"},{"bike_id":"371b9041-9898-4624-ac60-3643bd42c174","system_id":"levelo_inurba_marseille","lat":43.30909,"lon":5.36848,"is_reserved":false,"is_disabled":false,"rental_uris":{"android":"levelo://app?vid=371b9041-9898-4624-ac60-3643bd42c174","ios":"levelo://app?vid=371b9041-9898-4624-ac60-3643bd42c174"},"vehicle_type_id":"4","last_reported":1750061738,"current_range_meters":18000,"station_id":"ce4bgn92rcd13ifvqbvg","pricing_plan_id":"cebpf4jnsgd1na2vs0mg"},{"bike_id":"d5226367-ddec-422d-a2a2-a78b29dcb822","system_id":"levelo_inurba_marseille","lat":43.30471,"lon":5.37912,"is_reserved":false,"is_disabled":false,"rental_uris":{"android":"levelo://app?vid=d5226367-ddec-422d-a2a2-a78b29dcb822","ios":"levelo://app?vid=d5226367-ddec-422d-a2a2-a78b29dcb822"},"vehicle_type_id":"4","last_reported":1750061738,"current_range_meters":18000,"station_id":"ce4bgup2rcd13ifvqcn0","pricing_plan_id":"cebpf4jnsgd1na2vs0mg"},{"bike_id":"e698d2ec-0ad6-477a-9251-d46b24a6f142","system_id":"levelo_inurba_marseille","lat":43.287,"lon":5.37392,"is_reserved":false,"is_disabled":false,"rental_uris":{"android":"levelo://app?vid=e698d2ec-0ad6-477a-9251-d46b24a6f142","ios":"levelo://app?vid=e698d2ec-0ad6-477a-9251-d46b24a6f142"},"vehicle_type_id":"4","last_reported":1750061738,"current_range_meters":18000,"station_id":"ce4bh3p2rcd13ifvqdq0","pricing_plan_id":"cebpf4jnsgd1na2vs0mg"},{"bike_id":"2ccdf344-8fc4-4f19-9038-820f7dd7953a","system_id":"levelo_inurba_marseille","lat":43.270517,"lon":5.402578,"is_reserved":false,"is_disabled":false,"rental_uris":{"android":"levelo://app?vid=2ccdf344-8fc4-4f19-9038-820f7dd7953a","ios":"levelo://app?vid=2ccdf344-8fc4-4f19-9038-820f7dd7953a"},"vehicle_type_id":"4","last_reported":1750061738,"current_range_meters":18000,"station_id":"ce4bhk92rcd13ifvqgc0","pricing_plan_id":"cebpf4jnsgd1na2vs0mg"},{"bike_id":"3a4e3220-f890-43d0-8f6b-1783f08b7807","system_id":"levelo_inurba_marseille","lat":43.24174,"lon":5.39723,"is_reserved":false,"is_disabled":false,"rental_uris":{"android":"levelo://app?vid=3a4e3220-f890-43d0-8f6b-1783f08b7807","ios":"levelo://app?vid=3a4e3220-f890-43d0-8f6b-1783f08b7807"},"vehicle_type_id":"4","last_reported":1750061738,"current_range_meters":18000,"station_id":"ce4bhn12rcd13ifvqgpg","pricing_plan_id":"cebpf4jnsgd1na2vs0mg"},{"bike_id":"c20451b8-ea3d-49aa-99f8-dc989295f9b4","system_id":"levelo_inurba_marseille","lat":43.23065,"lon":5.35494,"is_reserved":false,"is_disabled":false,"rental_uris":{"android":"levelo://app?vid=c20451b8-ea3d-49aa-99f8-dc989295f9b4","ios":"levelo://app?vid=c20451b8-ea3d-49aa-99f8-dc989295f9b4"},"vehicle_type_id":"4","last_reported":1750061738,"current_range_meters":18000,"station_id":"cpo3342slgdg3j2ifvpg","pricing_plan_id":"cebpf4jnsgd1na2vs0mg"},{"bike_id":"c937b220-d077-480a-817b-887f33f079c0","system_id":"levelo_inurba_marseille","lat":43.31738,"lon":5.37134,"is_reserved":false,"is_disabled":false,"rental_uris":{"android":"levelo://app?vid=c937b220-d077-480a-817b-887f33f079c0","ios":"levelo://app?vid=c937b220-d077-480a-817b-887f33f079c0"},"vehicle_type_id":"4","last_reported":1750061738,"current_range_meters":18800,"station_id":"","pricing_plan_id":"cebpf4jnsgd1na2vs0mg"},{"bike_id":"db696f9f-9ecc-4e26-bd9c-bd73bc64204b","system_id":"levelo_inurba_marseille","lat":43.29904,"lon":5.43722,"is_reserved":false,"is_disabled":false,"rental_uris":{"android":"levelo://app?vid=db696f9f-9ecc-4e26-bd9c-bd73bc64204b","ios":"levelo://app?vid=db696f9f-9ecc-4e26-bd9c-bd73bc64204b"},"vehicle_type_id":"4","last_reported":1750061738,"current_range_meters":18800,"station_id":"","pricing_plan_id":"cebpf4jnsgd1na2vs0mg"},{"bike_id":"b12f0834-9eb4-4707-8669-5067cbd09c06","system_id":"levelo_inurba_marseille","lat":43.32903,"lon":5.39074,"is_reserved":false,"is_disabled":false,"rental_uris":{"android":"levelo://app?vid=b12f0834-9eb4-4707-8669-5067cbd09c06","ios":"levelo://app?vid=b12f0834-9eb4-4707-8669-5067cbd09c06"},"vehicle_type_id":"4","last_reported":1750061738,"current_range_meters":18800,"station_id":"","pricing_plan_id":"cebpf4jnsgd1na2vs0mg"},{"bike_id":"e09e8118-7ec9-4552-89e8-d7b0cfc1511e","system_id":"levelo_inurba_marseille","lat":43.29711,"lon":5.37697,"is_reserved":false,"is_disabled":false,"rental_uris":{"android":"levelo://app?vid=e09e8118-7ec9-4552-89e8-d7b0cfc1511e","ios":"levelo://app?vid=e09e8118-7ec9-4552-89e8-d7b0cfc1511e"},"vehicle_type_id":"4","last_reported":1750061738,"current_range_meters":18800,"station_id":"ce4bgkh2rcd13ifvqbl0","pricing_plan_id":"cebpf4jnsgd1na2vs0mg"},{"bike_id":"59b24eb7-e3ee-4815-8cff-3919440f15e0","system_id":"levelo_inurba_marseille","lat":43.30545,"lon":5.36697,"is_reserved":false,"is_disabled":false,"rental_uris":{"android":"levelo://app?vid=59b24eb7-e3ee-4815-8cff-3919440f15e0","ios":"levelo://app?vid=59b24eb7-e3ee-4815-8cff-3919440f15e0"},"vehicle_type_id":"4","last_reported":1750061738,"current_range_meters":18800,"station_id":"ce4bgrp2rcd13ifvqc9g","pricing_plan_id":"cebpf4jnsgd1na2vs0mg"},{"bike_id":"73d32a0c-a319-4cca-a127-e2a17d89ccff","system_id":"levelo_inurba_marseille","lat":43.30145,"lon":5.37414,"is_reserved":false,"is_disabled":false,"rental_uris":{"android":"levelo://app?vid=73d32a0c-a319-4cca-a127-e2a17d89ccff","ios":"levelo://app?vid=73d32a0c-a319-4cca-a127-e2a17d89ccff"},"vehicle_type_id":"4","last_reported":1750061738,"current_range_meters":18800,"station_id":"ce4bgs92rcd13ifvqcc0","pricing_plan_id":"cebpf4jnsgd1na2vs0mg"},{"bike_id":"54a29a72-4ec2-4b08-b7af-794603fef916","system_id":"levelo_inurba_marseille","lat":43.282876,"lon":5.350471,"is_reserved":false,"is_disabled":false,"rental_uris":{"android":"levelo://app?vid=54a29a72-4ec2-4b08-b7af-794603fef916","ios":"levelo://app?vid=54a29a72-4ec2-4b08-b7af-794603fef916"},"vehicle_type_id":"4","last_reported":1750061738,"current_range_meters":18800,"station_id":"ce4bhbp2rcd13ifvqerg","pricing_plan_id":"cebpf4jnsgd1na2vs0mg"},{"bike_id":"a23cbb89-4acf-4ab4-a108-1b396500a80e","system_id":"levelo_inurba_marseille","lat":43.27339,"lon":5.39082,"is_reserved":false,"is_disabled":false,"rental_uris":{"android":"levelo://app?vid=a23cbb89-4acf-4ab4-a108-1b396500a80e","ios":"levelo://app?vid=a23cbb89-4acf-4ab4-a108-1b396500a80e"},"vehicle_type_id":"4","last_reported":1750061738,"current_range_meters":18800,"station_id":"ce4bhgp2rcd13ifvqfe0","pricing_plan_id":"cebpf4jnsgd1na2vs0mg"},{"bike_id":"a1976c9a-aeb3-4298-987c-ab019abf3e31","system_id":"levelo_inurba_marseille","lat":43.28213,"lon":5.38593,"is_reserved":false,"is_disabled":false,"rental_uris":{"android":"levelo://app?vid=a1976c9a-aeb3-4298-987c-ab019abf3e31","ios":"levelo://app?vid=a1976c9a-aeb3-4298-987c-ab019abf3e31"},"vehicle_type_id":"4","last_reported":1750061738,"current_range_meters":19200,"station_id":"","pricing_plan_id":"cebpf4jnsgd1na2vs0mg"},{"bike_id":"826f0ca3-e5fc-4cf8-8696-cb1fe62172b3","system_id":"levelo_inurba_marseille","lat":43.21191,"lon":5.35055,"is_reserved":false,"is_disabled":false,"rental_uris":{"android":"levelo://app?vid=826f0ca3-e5fc-4cf8-8696-cb1fe62172b3","ios":"levelo://app?vid=826f0ca3-e5fc-4cf8-8696-cb1fe62172b3"},"vehicle_type_id":"4","last_reported":1750061738,"current_range_meters":19200,"station_id":"","pricing_plan_id":"cebpf4jnsgd1na2vs0mg"},{"bike_id":"42629ead-721e-40bd-811d-7d17aee16768","system_id":"levelo_inurba_marseille","lat":43.270494,"lon":5.402614,"is_reserved":false,"is_disabled":false,"rental_uris":{"android":"levelo://app?vid=42629ead-721e-40bd-811d-7d17aee16768","ios":"levelo://app?vid=42629ead-721e-40bd-811d-7d17aee16768"},"vehicle_type_id":"4","last_reported":1750061738,"current_range_meters":19200,"station_id":"ce4bhk92rcd13ifvqgc0","pricing_plan_id":"cebpf4jnsgd1na2vs0mg"},{"bike_id":"d7b79d70-47a4-48ce-b8e9-8f8fe499b3f0","system_id":"levelo_inurba_marseille","lat":43.24056,"lon":5.37763,"is_reserved":false,"is_disabled":false,"rental_uris":{"android":"levelo://app?vid=d7b79d70-47a4-48ce-b8e9-8f8fe499b3f0","ios":"levelo://app?vid=d7b79d70-47a4-48ce-b8e9-8f8fe499b3f0"},"vehicle_type_id":"4","last_reported":1750061738,"current_range_meters":19200,"station_id":"ce4bhnp2rcd13ifvqgvg","pricing_plan_id":"cebpf4jnsgd1na2vs0mg"},{"bike_id":"13771045-1e5e-41f4-8849-07775f92d1d5","system_id":"levelo_inurba_marseille","lat":43.32024,"lon":5.41545,"is_reserved":false,"is_disabled":false,"rental_uris":{"android":"levelo://app?vid=13771045-1e5e-41f4-8849-07775f92d1d5","ios":"levelo://app?vid=13771045-1e5e-41f4-8849-07775f92d1d5"},"vehicle_type_id":"4","last_reported":1750061738,"current_range_meters":19200,"station_id":"ce4bhq92rcd13ifvqhkg","pricing_plan_id":"cebpf4jnsgd1na2vs0mg"},{"bike_id":"e612b7a7-3207-4aae-b53e-c8d480fc9283","system_id":"levelo_inurba_marseille","lat":43.2319,"lon":5.35561,"is_reserved":false,"is_disabled":false,"rental_uris":{"android":"levelo://app?vid=e612b7a7-3207-4aae-b53e-c8d480fc9283","ios":"levelo://app?vid=e612b7a7-3207-4aae-b53e-c8d480fc9283"},"vehicle_type_id":"4","last_reported":1750061738,"current_range_meters":19200,"station_id":"ce4bhu92rcd13ifvqi70","pricing_plan_id":"cebpf4jnsgd1na2vs0mg"},{"bike_id":"5bc43ec5-1929-4869-823a-615a7e05b1f2","system_id":"levelo_inurba_marseille","lat":43.24171,"lon":5.36399,"is_reserved":false,"is_disabled":false,"rental_uris":{"android":"levelo://app?vid=5bc43ec5-1929-4869-823a-615a7e05b1f2","ios":"levelo://app?vid=5bc43ec5-1929-4869-823a-615a7e05b1f2"},"vehicle_type_id":"4","last_reported":1750061738,"current_range_meters":19200,"station_id":"cpo36qri1sfpv3e86is0","pricing_plan_id":"cebpf4jnsgd1na2vs0mg"},{"bike_id":"f8f5c739-72f4-49b1-b3d4-90e1f195211d","system_id":"levelo_inurba_marseille","lat":43.21176,"lon":5.35099,"is_reserved":false,"is_disabled":false,"rental_uris":{"android":"levelo://app?vid=f8f5c739-72f4-49b1-b3d4-90e1f195211d","ios":"levelo://app?vid=f8f5c739-72f4-49b1-b3d4-90e1f195211d"},"vehicle_type_id":"4","last_reported":1750061738,"current_range_meters":19200,"station_id":"st_cvj6sg6p6f1abm77japg","pricing_plan_id":"cebpf4jnsgd1na2vs0mg"},{"bike_id":"93d4cbeb-358e-450d-8173-641740ac6844","system_id":"levelo_inurba_marseille","lat":43.28419,"lon":5.37504,"is_reserved":false,"is_disabled":false,"rental_uris":{"android":"levelo://app?vid=93d4cbeb-358e-450d-8173-641740ac6844","ios":"levelo://app?vid=93d4cbeb-358e-450d-8173-641740ac6844"},"vehicle_type_id":"4","last_reported":1750061738,"current_range_meters":19600,"station_id":"ce4bh412rcd13ifvqds0","pricing_plan_id":"cebpf4jnsgd1na2vs0mg"},{"bike_id":"5ea1a78b-2804-4c62-89e8-5914b947390c","system_id":"levelo_inurba_marseille","lat":43.28103,"lon":5.37842,"is_reserved":false,"is_disabled":false,"rental_uris":{"android":"levelo://app?vid=5ea1a78b-2804-4c62-89e8-5914b947390c","ios":"levelo://app?vid=5ea1a78b-2804-4c62-89e8-5914b947390c"},"vehicle_type_id":"4","last_reported":1750061738,"current_range_meters":19600,"station_id":"ce4bha12rcd13ifvqee0","pricing_plan_id":"cebpf4jnsgd1na2vs0mg"},{"bike_id":"ebdc68b1-7f53-4c87-a86f-f1aabe21b339","system_id":"levelo_inurba_marseille","lat":43.27315,"lon":5.39087,"is_reserved":false,"is_disabled":false,"rental_uris":{"android":"levelo://app?vid=ebdc68b1-7f53-4c87-a86f-f1aabe21b339","ios":"levelo://app?vid=ebdc68b1-7f53-4c87-a86f-f1aabe21b339"},"vehicle_type_id":"4","last_reported":1750061738,"current_range_meters":19600,"station_id":"ce4bhgp2rcd13ifvqfe0","pricing_plan_id":"cebpf4jnsgd1na2vs0mg"},{"bike_id":"015c17e9-71b7-4b78-9bdf-9db30b66f1fe","system_id":"levelo_inurba_marseille","lat":43.2418,"lon":5.39742,"is_reserved":false,"is_disabled":false,"rental_uris":{"android":"levelo://app?vid=015c17e9-71b7-4b78-9bdf-9db30b66f1fe","ios":"levelo://app?vid=015c17e9-71b7-4b78-9bdf-9db30b66f1fe"},"vehicle_type_id":"4","last_reported":1750061738,"current_range_meters":19600,"station_id":"ce4bhn12rcd13ifvqgpg","pricing_plan_id":"cebpf4jnsgd1na2vs0mg"},{"bike_id":"9d0ca9b6-fb3d-46dd-8058-17bda0ae4e63","system_id":"levelo_inurba_marseille","lat":43.24175,"lon":5.39735,"is_reserved":false,"is_disabled":false,"rental_uris":{"android":"levelo://app?vid=9d0ca9b6-fb3d-46dd-8058-17bda0ae4e63","ios":"levelo://app?vid=9d0ca9b6-fb3d-46dd-8058-17bda0ae4e63"},"vehicle_type_id":"4","last_reported":1750061738,"current_range_meters":19600,"station_id":"ce4bhn12rcd13ifvqgpg","pricing_plan_id":"cebpf4jnsgd1na2vs0mg"},{"bike_id":"113b35ba-4bfc-4653-9981-9c94fd020996","system_id":"levelo_inurba_marseille","lat":43.23199,"lon":5.35544,"is_reserved":false,"is_disabled":false,"rental_uris":{"android":"levelo://app?vid=113b35ba-4bfc-4653-9981-9c94fd020996","ios":"levelo://app?vid=113b35ba-4bfc-4653-9981-9c94fd020996"},"vehicle_type_id":"4","last_reported":1750061738,"current_range_meters":19600,"station_id":"ce4bhu92rcd13ifvqi70","pricing_plan_id":"cebpf4jnsgd1na2vs0mg"},{"bike_id":"b38da09b-f621-4f83-85a7-31d404e707f9","system_id":"levelo_inurba_marseille","lat":43.253166,"lon":5.393843,"is_reserved":false,"is_disabled":false,"rental_uris":{"android":"levelo://app?vid=b38da09b-f621-4f83-85a7-31d404e707f9","ios":"levelo://app?vid=b38da09b-f621-4f83-85a7-31d404e707f9"},"vehicle_type_id":"4","last_reported":1750061738,"current_range_meters":20000,"station_id":"","pricing_plan_id":"cebpf4jnsgd1na2vs0mg"},{"bike_id":"2855fc6c-0381-406b-82fd-ac755e0ae154","system_id":"levelo_inurba_marseille","lat":43.30909,"lon":5.3685,"is_reserved":false,"is_disabled":false,"rental_uris":{"android":"levelo://app?vid=2855fc6c-0381-406b-82fd-ac755e0ae154","ios":"levelo://app?vid=2855fc6c-0381-406b-82fd-ac755e0ae154"},"vehicle_type_id":"4","last_reported":1750061738,"current_range_meters":20000,"station_id":"ce4bgn92rcd13ifvqbvg","pricing_plan_id":"cebpf4jnsgd1na2vs0mg"},{"bike_id":"8676e703-75d2-4a00-a3f9-f4fc11795ef0","system_id":"levelo_inurba_marseille","lat":43.30307,"lon":5.36906,"is_reserved":false,"is_disabled":false,"rental_uris":{"android":"levelo://app?vid=8676e703-75d2-4a00-a3f9-f4fc11795ef0","ios":"levelo://app?vid=8676e703-75d2-4a00-a3f9-f4fc11795ef0"},"vehicle_type_id":"4","last_reported":1750061738,"current_range_meters":20000,"station_id":"ce4bgqh2rcd13ifvqc5g","pricing_plan_id":"cebpf4jnsgd1na2vs0mg"},{"bike_id":"2486efc6-1954-47da-a063-27ce2f213763","system_id":"levelo_inurba_marseille","lat":43.3149,"lon":5.37304,"is_reserved":false,"is_disabled":false,"rental_uris":{"android":"levelo://app?vid=2486efc6-1954-47da-a063-27ce2f213763","ios":"levelo://app?vid=2486efc6-1954-47da-a063-27ce2f213763"},"vehicle_type_id":"4","last_reported":1750061738,"current_range_meters":20000,"station_id":"ce4bgt12rcd13ifvqcd0","pricing_plan_id":"cebpf4jnsgd1na2vs0mg"},{"bike_id":"213c0c29-d88b-4385-ad31-30d07f4d918c","system_id":"levelo_inurba_marseille","lat":43.30882,"lon":5.39645,"is_reserved":false,"is_disabled":false,"rental_uris":{"android":"levelo://app?vid=213c0c29-d88b-4385-ad31-30d07f4d918c","ios":"levelo://app?vid=213c0c29-d88b-4385-ad31-30d07f4d918c"},"vehicle_type_id":"4","last_reported":1750061738,"current_range_meters":20000,"station_id":"ce4bh012rcd13ifvqcv0","pricing_plan_id":"cebpf4jnsgd1na2vs0mg"},{"bike_id":"167d9ec1-fbab-41b1-af2d-36dcc4d17977","system_id":"levelo_inurba_marseille","lat":43.27369,"lon":5.36261,"is_reserved":false,"is_disabled":false,"rental_uris":{"android":"levelo://app?vid=167d9ec1-fbab-41b1-af2d-36dcc4d17977","ios":"levelo://app?vid=167d9ec1-fbab-41b1-af2d-36dcc4d17977"},"vehicle_type_id":"4","last_reported":1750061738,"current_range_meters":20000,"station_id":"ce4bhbh2rcd13ifvqeo0","pricing_plan_id":"cebpf4jnsgd1na2vs0mg"},{"bike_id":"cc5d1b8c-1ce9-445c-9210-556b1a8d185c","system_id":"levelo_inurba_marseille","lat":43.24072,"lon":5.37763,"is_reserved":false,"is_disabled":false,"rental_uris":{"android":"levelo://app?vid=cc5d1b8c-1ce9-445c-9210-556b1a8d185c","ios":"levelo://app?vid=cc5d1b8c-1ce9-445c-9210-556b1a8d185c"},"vehicle_type_id":"4","last_reported":1750061738,"current_range_meters":20000,"station_id":"ce4bhnp2rcd13ifvqgvg","pricing_plan_id":"cebpf4jnsgd1na2vs0mg"},{"bike_id":"732c24e1-3abc-48d4-8b05-2f6dacebc160","system_id":"levelo_inurba_marseille","lat":43.32352,"lon":5.36744,"is_reserved":false,"is_disabled":false,"rental_uris":{"android":"levelo://app?vid=732c24e1-3abc-48d4-8b05-2f6dacebc160","ios":"levelo://app?vid=732c24e1-3abc-48d4-8b05-2f6dacebc160"},"vehicle_type_id":"4","last_reported":1750061738,"current_range_meters":20000,"station_id":"ce4bhsh2rcd13ifvqi2g","pricing_plan_id":"cebpf4jnsgd1na2vs0mg"},{"bike_id":"c8fecb02-9af2-440c-9dd1-6589e4a75a1a","system_id":"levelo_inurba_marseille","lat":43.33742,"lon":5.37461,"is_reserved":false,"is_disabled":false,"rental_uris":{"android":"levelo://app?vid=c8fecb02-9af2-440c-9dd1-6589e4a75a1a","ios":"levelo://app?vid=c8fecb02-9af2-440c-9dd1-6589e4a75a1a"},"vehicle_type_id":"4","last_reported":1750061738,"current_range_meters":20400,"station_id":"","pricing_plan_id":"cebpf4jnsgd1na2vs0mg"},{"bike_id":"85df7c9f-b1f7-4152-a791-f47e56544b79","system_id":"levelo_inurba_marseille","lat":43.2903,"lon":5.35914,"is_reserved":false,"is_disabled":false,"rental_uris":{"android":"levelo://app?vid=85df7c9f-b1f7-4152-a791-f47e56544b79","ios":"levelo://app?vid=85df7c9f-b1f7-4152-a791-f47e56544b79"},"vehicle_type_id":"4","last_reported":1750061738,"current_range_meters":20400,"station_id":"ce4bha92rcd13ifvqeg0","pricing_plan_id":"cebpf4jnsgd1na2vs0mg"},{"bike_id":"aa61bd10-4c7f-4dd9-abd9-1384e58a9623","system_id":"levelo_inurba_marseille","lat":43.26555,"lon":5.37286,"is_reserved":false,"is_disabled":false,"rental_uris":{"android":"levelo://app?vid=aa61bd10-4c7f-4dd9-abd9-1384e58a9623","ios":"levelo://app?vid=aa61bd10-4c7f-4dd9-abd9-1384e58a9623"},"vehicle_type_id":"4","last_reported":1750061738,"current_range_meters":20400,"station_id":"ce4bhg12rcd13ifvqf70","pricing_plan_id":"cebpf4jnsgd1na2vs0mg"},{"bike_id":"6e1a8b88-b132-4981-88cc-b0a44f81b6c2","system_id":"levelo_inurba_marseille","lat":43.23147,"lon":5.43706,"is_reserved":false,"is_disabled":false,"rental_uris":{"android":"levelo://app?vid=6e1a8b88-b132-4981-88cc-b0a44f81b6c2","ios":"levelo://app?vid=6e1a8b88-b132-4981-88cc-b0a44f81b6c2"},"vehicle_type_id":"4","last_reported":1750061738,"current_range_meters":20400,"station_id":"ce4bhmp2rcd13ifvqgog","pricing_plan_id":"cebpf4jnsgd1na2vs0mg"},{"bike_id":"aba20fc4-b835-427a-809c-5baca8e38c72","system_id":"levelo_inurba_marseille","lat":43.31997,"lon":5.38163,"is_reserved":false,"is_disabled":false,"rental_uris":{"android":"levelo://app?vid=aba20fc4-b835-427a-809c-5baca8e38c72","ios":"levelo://app?vid=aba20fc4-b835-427a-809c-5baca8e38c72"},"vehicle_type_id":"4","last_reported":1750061738,"current_range_meters":20400,"station_id":"ce4bhr12rcd13ifvqhpg","pricing_plan_id":"cebpf4jnsgd1na2vs0mg"},{"bike_id":"0b55291d-4312-4a1f-a028-e5f112a4783d","system_id":"levelo_inurba_marseille","lat":43.32478,"lon":5.36558,"is_reserved":false,"is_disabled":false,"rental_uris":{"android":"levelo://app?vid=0b55291d-4312-4a1f-a028-e5f112a4783d","ios":"levelo://app?vid=0b55291d-4312-4a1f-a028-e5f112a4783d"},