{"last_updated":1740233255,"ttl":60,"version":"2.2","data":{"bikes":[{"bike_id":"2d203d3b-b9be-4543-95f1-da2e41576b3b","system_id":"levelo_inurba_marseille","lat":43.29517,"lon":5.37502,"is_reserved":false,"is_disabled":false,"rental_uris":{"android":"levelo://app?vid=2d203d3b-b9be-4543-95f1-da2e41576b3b","ios":"levelo://app?vid=2d203d3b-b9be-4543-95f1-da2e41576b3b"},"vehicle_type_id":"4","last_reported":1740233255,"current_range_meters":2800,"station_id":"ce4bgkp2rcd13ifvqbmg","pricing_plan_id":"cebpf4jnsgd1na2vs0mg"},{"bike_id":"87b74d1b-609d-4fc5-a15e-2ce1653f4433","system_id":"levelo_inurba_marseille","lat":43.30155,"lon":5.39942,"is_reserved":false,"is_disabled":false,"rental_uris":{"android":"levelo://app?vid=87b74d1b-609d-4fc5-a15e-2ce1653f4433","ios":"levelo://app?vid=87b74d1b-609d-4fc5-a15e-2ce1653f4433"},"vehicle_type_id":"4","last_reported":1740233255,"current_range_meters":3200,"station_id":"ce4bh0h2rcd13ifvqd40","pricing_plan_id":"cebpf4jnsgd1na2vs0mg"},{"bike_id":"63638c47-25d8-40bd-958d-dd4e3c5fffde","system_id":"levelo_inurba_marseille","lat":43.28853,"lon":5.39313,"is_reserved":false,"is_disabled":false,"rental_uris":{"android":"levelo://app?vid=63638c47-25d8-40bd-958d-dd4e3c5fffde","ios":"levelo://app?vid=63638c47-25d8-40bd-958d-dd4e3c5fffde"},"vehicle_type_id":"4","last_reported":1740233255,"current_range_meters":3600,"station_id":"ce4bh2p2rcd13ifvqdi0","pricing_plan_id":"cebpf4jnsgd1na2vs0mg"},{"bike_id":"dde56136-6b0f-4686-af26-ac0a9c90c6a8","system_id":"levelo_inurba_marseille","lat":43.27054,"lon":5.40259,"is_reserved":false,"is_disabled":false,"rental_uris":{"android":"levelo://app?vid=dde56136-6b0f-4686-af26-ac0a9c90c6a8","ios":"levelo://app?vid=dde56136-6b0f-4686-af26-ac0a9c90c6a8"},"vehicle_type_id":"4","last_reported":1740233255,"current_range_meters":3600,"station_id":"ce4bhk92rcd13ifvqgc0","pricing_plan_id":"cebpf4jnsgd1na2vs0mg"},{"bike_id":"c6a33ac1-a62f-47f6-86dd-f4b18bfd1b02","system_id":"levelo_inurba_marseille","lat":43.30406,"lon":5.41287,"is_reserved":false,"is_disabled":false,"rental_uris":{"android":"levelo://app?vid=c6a33ac1-a62f-47f6-86dd-f4b18bfd1b02","ios":"levelo://app?vid=c6a33ac1-a62f-47f6-86dd-f4b18bfd1b02"},"vehicle_type_id":"4","last_reported":1740233255,"current_range_meters":4400,"station_id":"ce4bhop2rcd13ifvqh8g","pricing_plan_id":"cebpf4jnsgd1na2vs0mg"},{"bike_id":"b45ab281-2ffb-4786-bbfb-31f4db8658f9","system_id":"levelo_inurba_marseille","lat":43.26584,"lon":5.39044,"is_reserved":false,"is_disabled":false,"rental_uris":{"android":"levelo://app?vid=b45ab281-2ffb-4786-bbfb-31f4db8658f9","ios":"levelo://app?vid=b45ab281-2ffb-4786-bbfb-31f4db8658f9"},"vehicle_type_id":"4","last_reported":1740233255,"current_range_meters":4800,"station_id":"ce4bhe12rcd13ifvqf30","pricing_plan_id":"cebpf4jnsgd1na2vs0mg"},{"bike_id":"7c8f3d05-5401-4545-847e-9fcee9ea83d5","system_id":"levelo_inurba_marseille","lat":43.26566,"lon":5.3987,"is_reserved":false,"is_disabled":false,"rental_uris":{"android":"levelo://app?vid=7c8f3d05-5401-4545-847e-9fcee9ea83d5","ios":"levelo://app?vid=7c8f3d05-5401-4545-847e-9fcee9ea83d5"},"vehicle_type_id":"4","last_reported":1740233255,"current_range_meters":4800,"station_id":"","pricing_plan_id":"cebpf4jnsgd1na2vs0mg"},{"bike_id":"7c5289cb-0b42-4bee-9961-0cc3ccb86bfe","system_id":"levelo_inurba_marseille","lat":43.24071,"lon":5.37771,"is_reserved":false,"is_disabled":false,"rental_uris":{"android":"levelo://app?vid=7c5289cb-0b42-4bee-9961-0cc3ccb86bfe","ios":"levelo://app?vid=7c5289cb-0b42-4bee-9961-0cc3ccb86bfe"},"vehicle_type_id":"4","last_reported":1740233255,"current_range_meters":4800,"station_id":"ce4bhnp2rcd13ifvqgvg","pricing_plan_id":"cebpf4jnsgd1na2vs0mg"},{"bike_id":"13570e5a-63ce-4c27-a8cc-1fc13b24ac5a","system_id":"levelo_inurba_marseille","lat":43.23148,"lon":5.4372,"is_reserved":false,"is_disabled":false,"rental_uris":{"android":"levelo://app?vid=13570e5a-63ce-4c27-a8cc-1fc13b24ac5a","ios":"levelo://app?vid=13570e5a-63ce-4c27-a8cc-1fc13b24ac5a"},"vehicle_type_id":"4","last_reported":1740233255,"current_range_meters":5600,"station_id":"ce4bhmp2rcd13ifvqgog","pricing_plan_id":"cebpf4jnsgd1na2vs0mg"},{"bike_id":"7cbaade2-cbc7-4b50-8b01-c77f893939b7","system_id":"levelo_inurba_marseille","lat":43.29714,"lon":5.3813,"is_reserved":false,"is_disabled":false,"rental_uris":{"android":"levelo://app?vid=7cbaade2-cbc7-4b50-8b01-c77f893939b7","ios":"levelo://app?vid=7cbaade2-cbc7-4b50-8b01-c77f893939b7"},"vehicle_type_id":"4","last_reported":1740233255,"current_range_meters":5600,"station_id":"","pricing_plan_id":"cebpf4jnsgd1na2vs0mg"},{"bike_id":"c428a377-df4a-4d69-8d27-1884b3e34b58","system_id":"levelo_inurba_marseille","lat":43.23175,"lon":5.43688,"is_reserved":false,"is_disabled":false,"rental_uris":{"android":"levelo://app?vid=c428a377-df4a-4d69-8d27-1884b3e34b58","ios":"levelo://app?vid=c428a377-df4a-4d69-8d27-1884b3e34b58"},"vehicle_type_id":"4","last_reported":1740233255,"current_range_meters":6000,"station_id":"ce4bhmp2rcd13ifvqgog","pricing_plan_id":"cebpf4jnsgd1na2vs0mg"},{"bike_id":"d6528653-78fc-4402-be42-b93da7e8564a","system_id":"levelo_inurba_marseille","lat":43.24827,"lon":5.37449,"is_reserved":false,"is_disabled":false,"rental_uris":{"android":"levelo://app?vid=d6528653-78fc-4402-be42-b93da7e8564a","ios":"levelo://app?vid=d6528653-78fc-4402-be42-b93da7e8564a"},"vehicle_type_id":"4","last_reported":1740233255,"current_range_meters":6000,"station_id":"ce4bhgh2rcd13ifvqfb0","pricing_plan_id":"cebpf4jnsgd1na2vs0mg"},{"bike_id":"646b5cae-2afa-416c-8287-2abe42f0a681","system_id":"levelo_inurba_marseille","lat":43.30419,"lon":5.41275,"is_reserved":false,"is_disabled":false,"rental_uris":{"android":"levelo://app?vid=646b5cae-2afa-416c-8287-2abe42f0a681","ios":"levelo://app?vid=646b5cae-2afa-416c-8287-2abe42f0a681"},"vehicle_type_id":"4","last_reported":1740233255,"current_range_meters":6800,"station_id":"ce4bhop2rcd13ifvqh8g","pricing_plan_id":"cebpf4jnsgd1na2vs0mg"},{"bike_id":"d0109f8e-c695-44b8-83b5-050518c2c6c9","system_id":"levelo_inurba_marseille","lat":43.23069,"lon":5.35489,"is_reserved":false,"is_disabled":false,"rental_uris":{"android":"levelo://app?vid=d0109f8e-c695-44b8-83b5-050518c2c6c9","ios":"levelo://app?vid=d0109f8e-c695-44b8-83b5-050518c2c6c9"},"vehicle_type_id":"4","last_reported":1740233255,"current_range_meters":6800,"station_id":"cpo3342slgdg3j2ifvpg","pricing_plan_id":"cebpf4jnsgd1na2vs0mg"},{"bike_id":"c35f9f33-56c8-4454-bdb6-93552c4c7dbc","system_id":"levelo_inurba_marseille","lat":43.30556,"lon":5.36545,"is_reserved":false,"is_disabled":false,"rental_uris":{"android":"levelo://app?vid=c35f9f33-56c8-4454-bdb6-93552c4c7dbc","ios":"levelo://app?vid=c35f9f33-56c8-4454-bdb6-93552c4c7dbc"},"vehicle_type_id":"4","last_reported":1740233255,"current_range_meters":6800,"station_id":"ce4bgs12rcd13ifvqcag","pricing_plan_id":"cebpf4jnsgd1na2vs0mg"},{"bike_id":"f3feea2e-5bf7-41f6-a6d2-c494ec11d6a2","system_id":"levelo_inurba_marseille","lat":43.230658,"lon":5.354909,"is_reserved":false,"is_disabled":false,"rental_uris":{"android":"levelo://app?vid=f3feea2e-5bf7-41f6-a6d2-c494ec11d6a2","ios":"levelo://app?vid=f3feea2e-5bf7-41f6-a6d2-c494ec11d6a2"},"vehicle_type_id":"4","last_reported":1740233255,"current_range_meters":6800,"station_id":"cpo3342slgdg3j2ifvpg","pricing_plan_id":"cebpf4jnsgd1na2vs0mg"},{"bike_id":"dadfd2ca-8dac-4745-bffe-f5653490a15f","system_id":"levelo_inurba_marseille","lat":43.30643,"lon":5.4009,"is_reserved":false,"is_disabled":false,"rental_uris":{"android":"levelo://app?vid=dadfd2ca-8dac-4745-bffe-f5653490a15f","ios":"levelo://app?vid=dadfd2ca-8dac-4745-bffe-f5653490a15f"},"vehicle_type_id":"4","last_reported":1740233255,"current_range_meters":7200,"station_id":"ce4bh112rcd13ifvqda0","pricing_plan_id":"cebpf4jnsgd1na2vs0mg"},{"bike_id":"1e63d9ab-d1fb-4617-9ee0-edc946d6cfa4","system_id":"levelo_inurba_marseille","lat":43.24174,"lon":5.39754,"is_reserved":false,"is_disabled":false,"rental_uris":{"android":"levelo://app?vid=1e63d9ab-d1fb-4617-9ee0-edc946d6cfa4","ios":"levelo://app?vid=1e63d9ab-d1fb-4617-9ee0-edc946d6cfa4"},"vehicle_type_id":"4","last_reported":1740233255,"current_range_meters":7200,"station_id":"ce4bhn12rcd13ifvqgpg","pricing_plan_id":"cebpf4jnsgd1na2vs0mg"},{"bike_id":"edd8c9ee-a9d8-455e-b437-190be10f5489","system_id":"levelo_inurba_marseille","lat":43.29222,"lon":5.36074,"is_reserved":false,"is_disabled":false,"rental_uris":{"android":"levelo://app?vid=edd8c9ee-a9d8-455e-b437-190be10f5489","ios":"levelo://app?vid=edd8c9ee-a9d8-455e-b437-190be10f5489"},"vehicle_type_id":"4","last_reported":1740233255,"current_range_meters":7200,"station_id":"ce4bhbh2rcd13ifvqeqg","pricing_plan_id":"cebpf4jnsgd1na2vs0mg"},{"bike_id":"7fb2a996-0d02-4cc0-a477-af09cb141a58","system_id":"levelo_inurba_marseille","lat":43.28845,"lon":5.39309,"is_reserved":false,"is_disabled":false,"rental_uris":{"android":"levelo://app?vid=7fb2a996-0d02-4cc0-a477-af09cb141a58","ios":"levelo://app?vid=7fb2a996-0d02-4cc0-a477-af09cb141a58"},"vehicle_type_id":"4","last_reported":1740233255,"current_range_meters":7200,"station_id":"ce4bh2p2rcd13ifvqdi0","pricing_plan_id":"cebpf4jnsgd1na2vs0mg"},{"bike_id":"def726d5-4740-459b-8a4d-4b3858095065","system_id":"levelo_inurba_marseille","lat":43.24813,"lon":5.37457,"is_reserved":false,"is_disabled":false,"rental_uris":{"android":"levelo://app?vid=def726d5-4740-459b-8a4d-4b3858095065","ios":"levelo://app?vid=def726d5-4740-459b-8a4d-4b3858095065"},"vehicle_type_id":"4","last_reported":1740233255,"current_range_meters":7200,"station_id":"ce4bhgh2rcd13ifvqfb0","pricing_plan_id":"cebpf4jnsgd1na2vs0mg"},{"bike_id":"2c5430a7-3583-4ae1-abd7-31976bb7717c","system_id":"levelo_inurba_marseille","lat":43.30359,"lon":5.41887,"is_reserved":false,"is_disabled":false,"rental_uris":{"android":"levelo://app?vid=2c5430a7-3583-4ae1-abd7-31976bb7717c","ios":"levelo://app?vid=2c5430a7-3583-4ae1-abd7-31976bb7717c"},"vehicle_type_id":"4","last_reported":1740233255,"current_range_meters":7200,"station_id":"ce4bhop2rcd13ifvqh7g","pricing_plan_id":"cebpf4jnsgd1na2vs0mg"},{"bike_id":"6aafab1c-b1fd-4bbd-a318-89366250d32c","system_id":"levelo_inurba_marseille","lat":43.30366,"lon":5.4185,"is_reserved":false,"is_disabled":false,"rental_uris":{"android":"levelo://app?vid=6aafab1c-b1fd-4bbd-a318-89366250d32c","ios":"levelo://app?vid=6aafab1c-b1fd-4bbd-a318-89366250d32c"},"vehicle_type_id":"4","last_reported":1740233255,"current_range_meters":8000,"station_id":"ce4bhop2rcd13ifvqh7g","pricing_plan_id":"cebpf4jnsgd1na2vs0mg"},{"bike_id":"121a3c16-ca57-4f18-a4d8-ec99bd209ab2","system_id":"levelo_inurba_marseille","lat":43.29561,"lon":5.37513,"is_reserved":false,"is_disabled":false,"rental_uris":{"android":"levelo://app?vid=121a3c16-ca57-4f18-a4d8-ec99bd209ab2","ios":"levelo://app?vid=121a3c16-ca57-4f18-a4d8-ec99bd209ab2"},"vehicle_type_id":"4","last_reported":1740233255,"current_range_meters":8000,"station_id":"ce4bgh92rcd13ifvqb50","pricing_plan_id":"cebpf4jnsgd1na2vs0mg"},{"bike_id":"2446d6c6-999b-4137-a7e5-6e2bbd1e4b15","system_id":"levelo_inurba_marseille","lat":43.30101,"lon":5.37096,"is_reserved":false,"is_disabled":false,"rental_uris":{"android":"levelo://app?vid=2446d6c6-999b-4137-a7e5-6e2bbd1e4b15","ios":"levelo://app?vid=2446d6c6-999b-4137-a7e5-6e2bbd1e4b15"},"vehicle_type_id":"4","last_reported":1740233255,"current_range_meters":8000,"station_id":"ce4bgr92rcd13ifvqc7g","pricing_plan_id":"cebpf4jnsgd1na2vs0mg"},{"bike_id":"2b5580e5-cac9-42ec-9028-aa29440868a3","system_id":"levelo_inurba_marseille","lat":43.29261,"lon":5.38433,"is_reserved":false,"is_disabled":false,"rental_uris":{"android":"levelo://app?vid=2b5580e5-cac9-42ec-9028-aa29440868a3","ios":"levelo://app?vid=2b5580e5-cac9-42ec-9028-aa29440868a3"},"vehicle_type_id":"4","last_reported":1740233255,"current_range_meters":8000,"station_id":"ce4bh692rcd13ifvqea0","pricing_plan_id":"cebpf4jnsgd1na2vs0mg"},{"bike_id":"7df5b016-3748-470a-a9b6-ed18f20748f9","system_id":"levelo_inurba_marseille","lat":43.22921,"lon":5.35376,"is_reserved":false,"is_disabled":false,"rental_uris":{"android":"levelo://app?vid=7df5b016-3748-470a-a9b6-ed18f20748f9","ios":"levelo://app?vid=7df5b016-3748-470a-a9b6-ed18f20748f9"},"vehicle_type_id":"4","last_reported":1740233255,"current_range_meters":8000,"station_id":"cpo3532slgdg3j2ikp40","pricing_plan_id":"cebpf4jnsgd1na2vs0mg"},{"bike_id":"2b8d73ad-5137-4320-bf7a-9fcaea6cd84f","system_id":"levelo_inurba_marseille","lat":43.279898,"lon":5.400084,"is_reserved":false,"is_disabled":false,"rental_uris":{"android":"levelo://app?vid=2b8d73ad-5137-4320-bf7a-9fcaea6cd84f","ios":"levelo://app?vid=2b8d73ad-5137-4320-bf7a-9fcaea6cd84f"},"vehicle_type_id":"4","last_reported":1740233255,"current_range_meters":8000,"station_id":"ce4bho92rcd13ifvqh4g","pricing_plan_id":"cebpf4jnsgd1na2vs0mg"},{"bike_id":"7195e16d-3552-41a0-a438-b790dc48cb5a","system_id":"levelo_inurba_marseille","lat":43.337444,"lon":5.374475,"is_reserved":false,"is_disabled":true,"rental_uris":{"android":"levelo://app?vid=7195e16d-3552-41a0-a438-b790dc48cb5a","ios":"levelo://app?vid=7195e16d-3552-41a0-a438-b790dc48cb5a"},"vehicle_type_id":"4","last_reported":1740233255,"current_range_meters":8000,"station_id":"","pricing_plan_id":"cebpf4jnsgd1na2vs0mg"},{"bike_id":"d414c500-f227-4efb-aabd-f7246cca81bc","system_id":"levelo_inurba_marseille","lat":43.2308,"lon":5.35469,"is_reserved":false,"is_disabled":false,"rental_uris":{"android":"levelo://app?vid=d414c500-f227-4efb-aabd-f7246cca81bc","ios":"levelo://app?vid=d414c500-f227-4efb-aabd-f7246cca81bc"},"vehicle_type_id":"4","last_reported":1740233255,"current_range_meters":8000,"station_id":"cpo3342slgdg3j2ifvpg","pricing_plan_id":"cebpf4jnsgd1na2vs0mg"},{"bike_id":"df1db48a-1398-45e7-b182-2264485216fa","system_id":"levelo_inurba_marseille","lat":43.24549,"lon":5.39521,"is_reserved":false,"is_disabled":false,"rental_uris":{"android":"levelo://app?vid=df1db48a-1398-45e7-b182-2264485216fa","ios":"levelo://app?vid=df1db48a-1398-45e7-b182-2264485216fa"},"vehicle_type_id":"4","last_reported":1740233255,"current_range_meters":8000,"station_id":"ce4bhlp2rcd13ifvqgjg","pricing_plan_id":"cebpf4jnsgd1na2vs0mg"},{"bike_id":"35700690-ccd3-438b-8dec-89a1ece1d462","system_id":"levelo_inurba_marseille","lat":43.23152,"lon":5.43713,"is_reserved":false,"is_disabled":false,"rental_uris":{"android":"levelo://app?vid=35700690-ccd3-438b-8dec-89a1ece1d462","ios":"levelo://app?vid=35700690-ccd3-438b-8dec-89a1ece1d462"},"vehicle_type_id":"4","last_reported":1740233255,"current_range_meters":8400,"station_id":"ce4bhmp2rcd13ifvqgog","pricing_plan_id":"cebpf4jnsgd1na2vs0mg"},{"bike_id":"ae318621-0211-4f46-8a4e-4273cdc9cb1c","system_id":"levelo_inurba_marseille","lat":43.23969,"lon":5.36623,"is_reserved":false,"is_disabled":false,"rental_uris":{"android":"levelo://app?vid=ae318621-0211-4f46-8a4e-4273cdc9cb1c","ios":"levelo://app?vid=ae318621-0211-4f46-8a4e-4273cdc9cb1c"},"vehicle_type_id":"4","last_reported":1740233255,"current_range_meters":8400,"station_id":"ce4bhi12rcd13ifvqfp0","pricing_plan_id":"cebpf4jnsgd1na2vs0mg"},{"bike_id":"346e6c8f-f646-4b44-83d8-4d7fe04d8a45","system_id":"levelo_inurba_marseille","lat":43.23056,"lon":5.3549,"is_reserved":false,"is_disabled":false,"rental_uris":{"android":"levelo://app?vid=346e6c8f-f646-4b44-83d8-4d7fe04d8a45","ios":"levelo://app?vid=346e6c8f-f646-4b44-83d8-4d7fe04d8a45"},"vehicle_type_id":"4","last_reported":1740233255,"current_range_meters":8400,"station_id":"cpo3342slgdg3j2ifvpg","pricing_plan_id":"cebpf4jnsgd1na2vs0mg"},{"bike_id":"572fc808-08cc-41c5-8972-d2365310925e","system_id":"levelo_inurba_marseille","lat":43.28026,"lon":5.36943,"is_reserved":false,"is_disabled":false,"rental_uris":{"android":"levelo://app?vid=572fc808-08cc-41c5-8972-d2365310925e","ios":"levelo://app?vid=572fc808-08cc-41c5-8972-d2365310925e"},"vehicle_type_id":"4","last_reported":1740233255,"current_range_meters":8400,"station_id":"ce4bha12rcd13ifvqef0","pricing_plan_id":"cebpf4jnsgd1na2vs0mg"},{"bike_id":"144ab3ca-3075-4ccc-8d52-95a2e5c3dd27","system_id":"levelo_inurba_marseille","lat":43.2804,"lon":5.36935,"is_reserved":false,"is_disabled":false,"rental_uris":{"android":"levelo://app?vid=144ab3ca-3075-4ccc-8d52-95a2e5c3dd27","ios":"levelo://app?vid=144ab3ca-3075-4ccc-8d52-95a2e5c3dd27"},"vehicle_type_id":"4","last_reported":1740233255,"current_range_meters":8400,"station_id":"ce4bha12rcd13ifvqef0","pricing_plan_id":"cebpf4jnsgd1na2vs0mg"},{"bike_id":"ab46b189-6bae-4129-a7fd-10b3ccd5a48e","system_id":"levelo_inurba_marseille","lat":43.27189,"lon":5.39949,"is_reserved":false,"is_disabled":false,"rental_uris":{"android":"levelo://app?vid=ab46b189-6bae-4129-a7fd-10b3ccd5a48e","ios":"levelo://app?vid=ab46b189-6bae-4129-a7fd-10b3ccd5a48e"},"vehicle_type_id":"4","last_reported":1740233255,"current_range_meters":8400,"station_id":"","pricing_plan_id":"cebpf4jnsgd1na2vs0mg"},{"bike_id":"a3770988-3ad0-4281-b6eb-a5b0e817634c","system_id":"levelo_inurba_marseille","lat":43.303105,"lon":5.36898,"is_reserved":false,"is_disabled":false,"rental_uris":{"android":"levelo://app?vid=a3770988-3ad0-4281-b6eb-a5b0e817634c","ios":"levelo://app?vid=a3770988-3ad0-4281-b6eb-a5b0e817634c"},"vehicle_type_id":"4","last_reported":1740233255,"current_range_meters":8400,"station_id":"ce4bgkh2rcd13ifvqbk0","pricing_plan_id":"cebpf4jnsgd1na2vs0mg"},{"bike_id":"5c474d37-cbf4-4a6a-a1d4-b0b516eb3419","system_id":"levelo_inurba_marseille","lat":43.28267,"lon":5.35068,"is_reserved":false,"is_disabled":false,"rental_uris":{"android":"levelo://app?vid=5c474d37-cbf4-4a6a-a1d4-b0b516eb3419","ios":"levelo://app?vid=5c474d37-cbf4-4a6a-a1d4-b0b516eb3419"},"vehicle_type_id":"4","last_reported":1740233255,"current_range_meters":8400,"station_id":"ce4bhbp2rcd13ifvqerg","pricing_plan_id":"cebpf4jnsgd1na2vs0mg"},{"bike_id":"943382b3-3ac2-40b7-baae-7ca1aec3b930","system_id":"levelo_inurba_marseille","lat":43.28152,"lon":5.42645,"is_reserved":false,"is_disabled":false,"rental_uris":{"android":"levelo://app?vid=943382b3-3ac2-40b7-baae-7ca1aec3b930","ios":"levelo://app?vid=943382b3-3ac2-40b7-baae-7ca1aec3b930"},"vehicle_type_id":"4","last_reported":1740233255,"current_range_meters":8400,"station_id":"ce4bhnh2rcd13ifvqgug","pricing_plan_id":"cebpf4jnsgd1na2vs0mg"},{"bike_id":"89563a26-7881-4a62-8f9e-a7769f24651b","system_id":"levelo_inurba_marseille","lat":43.23155,"lon":5.43708,"is_reserved":false,"is_disabled":false,"rental_uris":{"android":"levelo://app?vid=89563a26-7881-4a62-8f9e-a7769f24651b","ios":"levelo://app?vid=89563a26-7881-4a62-8f9e-a7769f24651b"},"vehicle_type_id":"4","last_reported":1740233255,"current_range_meters":8400,"station_id":"ce4bhmp2rcd13ifvqgog","pricing_plan_id":"cebpf4jnsgd1na2vs0mg"},{"bike_id":"e501be99-a171-4e91-9e5b-ac547e4c06f2","system_id":"levelo_inurba_marseille","lat":43.23201,"lon":5.35556,"is_reserved":false,"is_disabled":false,"rental_uris":{"android":"levelo://app?vid=e501be99-a171-4e91-9e5b-ac547e4c06f2","ios":"levelo://app?vid=e501be99-a171-4e91-9e5b-ac547e4c06f2"},"vehicle_type_id":"4","last_reported":1740233255,"current_range_meters":8400,"station_id":"ce4bhu92rcd13ifvqi70","pricing_plan_id":"cebpf4jnsgd1na2vs0mg"},{"bike_id":"827ec7e5-1ae5-45b8-890e-b6822ea9bc11","system_id":"levelo_inurba_marseille","lat":43.23972,"lon":5.36612,"is_reserved":false,"is_disabled":false,"rental_uris":{"android":"levelo://app?vid=827ec7e5-1ae5-45b8-890e-b6822ea9bc11","ios":"levelo://app?vid=827ec7e5-1ae5-45b8-890e-b6822ea9bc11"},"vehicle_type_id":"4","last_reported":1740233255,"current_range_meters":8400,"station_id":"ce4bhi12rcd13ifvqfp0","pricing_plan_id":"cebpf4jnsgd1na2vs0mg"},{"bike_id":"ed1a49fc-1760-4b40-be87-ac822fe6ffcc","system_id":"levelo_inurba_marseille","lat":43.27054,"lon":5.40257,"is_reserved":false,"is_disabled":false,"rental_uris":{"android":"levelo://app?vid=ed1a49fc-1760-4b40-be87-ac822fe6ffcc","ios":"levelo://app?vid=ed1a49fc-1760-4b40-be87-ac822fe6ffcc"},"vehicle_type_id":"4","last_reported":1740233255,"current_range_meters":8800,"station_id":"ce4bhih2rcd13ifvqfs0","pricing_plan_id":"cebpf4jnsgd1na2vs0mg"},{"bike_id":"32cb548e-3f9c-45c3-8ca4-71e2dff11160","system_id":"levelo_inurba_marseille","lat":43.26591,"lon":5.39058,"is_reserved":false,"is_disabled":false,"rental_uris":{"android":"levelo://app?vid=32cb548e-3f9c-45c3-8ca4-71e2dff11160","ios":"levelo://app?vid=32cb548e-3f9c-45c3-8ca4-71e2dff11160"},"vehicle_type_id":"4","last_reported":1740233255,"current_range_meters":8800,"station_id":"","pricing_plan_id":"cebpf4jnsgd1na2vs0mg"},{"bike_id":"78b97302-9c59-42d1-a13f-5e8c85841d45","system_id":"levelo_inurba_marseille","lat":43.2656,"lon":5.39028,"is_reserved":false,"is_disabled":false,"rental_uris":{"android":"levelo://app?vid=78b97302-9c59-42d1-a13f-5e8c85841d45","ios":"levelo://app?vid=78b97302-9c59-42d1-a13f-5e8c85841d45"},"vehicle_type_id":"4","last_reported":1740233255,"current_range_meters":8800,"station_id":"ce4bhe12rcd13ifvqf30","pricing_plan_id":"cebpf4jnsgd1na2vs0mg"},{"bike_id":"f32fe46d-1120-4c2c-97c5-cdbf2de4ccec","system_id":"levelo_inurba_marseille","lat":43.25954,"lon":5.40891,"is_reserved":false,"is_disabled":false,"rental_uris":{"android":"levelo://app?vid=f32fe46d-1120-4c2c-97c5-cdbf2de4ccec","ios":"levelo://app?vid=f32fe46d-1120-4c2c-97c5-cdbf2de4ccec"},"vehicle_type_id":"4","last_reported":1740233255,"current_range_meters":9200,"station_id":"ce4bhm92rcd13ifvqglg","pricing_plan_id":"cebpf4jnsgd1na2vs0mg"},{"bike_id":"b950d610-3d59-4fd2-b72e-fb52a924e79d","system_id":"levelo_inurba_marseille","lat":43.23065,"lon":5.35484,"is_reserved":false,"is_disabled":false,"rental_uris":{"android":"levelo://app?vid=b950d610-3d59-4fd2-b72e-fb52a924e79d","ios":"levelo://app?vid=b950d610-3d59-4fd2-b72e-fb52a924e79d"},"vehicle_type_id":"4","last_reported":1740233255,"current_range_meters":9200,"station_id":"cpo3342slgdg3j2ifvpg","pricing_plan_id":"cebpf4jnsgd1na2vs0mg"},{"bike_id":"a404738f-d592-4923-bb7f-8cad6bf8fec4","system_id":"levelo_inurba_marseille","lat":43.27967,"lon":5.38519,"is_reserved":false,"is_disabled":false,"rental_uris":{"android":"levelo://app?vid=a404738f-d592-4923-bb7f-8cad6bf8fec4","ios":"levelo://app?vid=a404738f-d592-4923-bb7f-8cad6bf8fec4"},"vehicle_type_id":"4","last_reported":1740233255,"current_range_meters":9200,"station_id":"","pricing_plan_id":"cebpf4jnsgd1na2vs0mg"},{"bike_id":"7eef66a9-9b7f-4a8d-8892-a29aad50ec20","system_id":"levelo_inurba_marseille","lat":43.25943,"lon":5.40896,"is_reserved":false,"is_disabled":false,"rental_uris":{"android":"levelo://app?vid=7eef66a9-9b7f-4a8d-8892-a29aad50ec20","ios":"levelo://app?vid=7eef66a9-9b7f-4a8d-8892-a29aad50ec20"},"vehicle_type_id":"4","last_reported":1740233255,"current_range_meters":9200,"station_id":"ce4bhm92rcd13ifvqglg","pricing_plan_id":"cebpf4jnsgd1na2vs0mg"},{"bike_id":"af1107fa-d68e-4f88-b9a9-b5e22ec9744f","system_id":"levelo_inurba_marseille","lat":43.23035,"lon":5.35572,"is_reserved":false,"is_disabled":false,"rental_uris":{"android":"levelo://app?vid=af1107fa-d68e-4f88-b9a9-b5e22ec9744f","ios":"levelo://app?vid=af1107fa-d68e-4f88-b9a9-b5e22ec9744f"},"vehicle_type_id":"4","last_reported":1740233255,"current_range_meters":9200,"station_id":"cpo3342slgdg3j2ifvpg","pricing_plan_id":"cebpf4jnsgd1na2vs0mg"},{"bike_id":"d1401c07-4858-4456-a551-89693aec6bf5","system_id":"levelo_inurba_marseille","lat":43.27052,"lon":5.40269,"is_reserved":false,"is_disabled":false,"rental_uris":{"android":"levelo://app?vid=d1401c07-4858-4456-a551-89693aec6bf5","ios":"levelo://app?vid=d1401c07-4858-4456-a551-89693aec6bf5"},"vehicle_type_id":"4","last_reported":1740233255,"current_range_meters":9200,"station_id":"ce4bhk92rcd13ifvqgc0","pricing_plan_id":"cebpf4jnsgd1na2vs0mg"},{"bike_id":"fbf15ee2-92a0-4d01-bcb3-92fc3a62eaa8","system_id":"levelo_inurba_marseille","lat":43.30316,"lon":5.3689,"is_reserved":false,"is_disabled":false,"rental_uris":{"android":"levelo://app?vid=fbf15ee2-92a0-4d01-bcb3-92fc3a62eaa8","ios":"levelo://app?vid=fbf15ee2-92a0-4d01-bcb3-92fc3a62eaa8"},"vehicle_type_id":"4","last_reported":1740233255,"current_range_meters":9600,"station_id":"ce4bgqh2rcd13ifvqc5g","pricing_plan_id":"cebpf4jnsgd1na2vs0mg"},{"bike_id":"37bc605f-bc59-4670-abf5-3ce110e8920a","system_id":"levelo_inurba_marseille","lat":43.24405,"lon":5.37068,"is_reserved":false,"is_disabled":false,"rental_uris":{"android":"levelo://app?vid=37bc605f-bc59-4670-abf5-3ce110e8920a","ios":"levelo://app?vid=37bc605f-bc59-4670-abf5-3ce110e8920a"},"vehicle_type_id":"4","last_reported":1740233255,"current_range_meters":9600,"station_id":"ce4bhhh2rcd13ifvqfk0","pricing_plan_id":"cebpf4jnsgd1na2vs0mg"},{"bike_id":"812f52e5-c611-4ad3-9e33-9d66033c735c","system_id":"levelo_inurba_marseille","lat":43.2315,"lon":5.43706,"is_reserved":false,"is_disabled":false,"rental_uris":{"android":"levelo://app?vid=812f52e5-c611-4ad3-9e33-9d66033c735c","ios":"levelo://app?vid=812f52e5-c611-4ad3-9e33-9d66033c735c"},"vehicle_type_id":"4","last_reported":1740233255,"current_range_meters":9600,"station_id":"ce4bhmp2rcd13ifvqgog","pricing_plan_id":"cebpf4jnsgd1na2vs0mg"},{"bike_id":"e0a27bbe-1017-4673-a93c-ffab63167e8c","system_id":"levelo_inurba_marseille","lat":43.24546,"lon":5.39521,"is_reserved":false,"is_disabled":false,"rental_uris":{"android":"levelo://app?vid=e0a27bbe-1017-4673-a93c-ffab63167e8c","ios":"levelo://app?vid=e0a27bbe-1017-4673-a93c-ffab63167e8c"},"vehicle_type_id":"4","last_reported":1740233255,"current_range_meters":9600,"station_id":"ce4bhlp2rcd13ifvqgjg","pricing_plan_id":"cebpf4jnsgd1na2vs0mg"},{"bike_id":"4d682123-fb9b-4392-abb2-b5a028cfe568","system_id":"levelo_inurba_marseille","lat":43.28697,"lon":5.39987,"is_reserved":false,"is_disabled":false,"rental_uris":{"android":"levelo://app?vid=4d682123-fb9b-4392-abb2-b5a028cfe568","ios":"levelo://app?vid=4d682123-fb9b-4392-abb2-b5a028cfe568"},"vehicle_type_id":"4","last_reported":1740233255,"current_range_meters":9600,"station_id":"ce4bho92rcd13ifvqh3g","pricing_plan_id":"cebpf4jnsgd1na2vs0mg"},{"bike_id":"35331f57-b06c-41f1-8224-4eb3668702eb","system_id":"levelo_inurba_marseille","lat":43.23053,"lon":5.35492,"is_reserved":false,"is_disabled":false,"rental_uris":{"android":"levelo://app?vid=35331f57-b06c-41f1-8224-4eb3668702eb","ios":"levelo://app?vid=35331f57-b06c-41f1-8224-4eb3668702eb"},"vehicle_type_id":"4","last_reported":1740233255,"current_range_meters":9600,"station_id":"cpo3342slgdg3j2ifvpg","pricing_plan_id":"cebpf4jnsgd1na2vs0mg"},{"bike_id":"36405e8a-bb99-4498-a8c2-5cfa31059438","system_id":"levelo_inurba_marseille","lat":43.23061,"lon":5.35493,"is_reserved":false,"is_disabled":false,"rental_uris":{"android":"levelo://app?vid=36405e8a-bb99-4498-a8c2-5cfa31059438","ios":"levelo://app?vid=36405e8a-bb99-4498-a8c2-5cfa31059438"},"vehicle_type_id":"4","last_reported":1740233255,"current_range_meters":9600,"station_id":"cpo3342slgdg3j2ifvpg","pricing_plan_id":"cebpf4jnsgd1na2vs0mg"},{"bike_id":"b985ad1f-1942-453b-b5eb-7462cafd1e31","system_id":"levelo_inurba_marseille","lat":43.23191,"lon":5.35552,"is_reserved":false,"is_disabled":false,"rental_uris":{"android":"levelo://app?vid=b985ad1f-1942-453b-b5eb-7462cafd1e31","ios":"levelo://app?vid=b985ad1f-1942-453b-b5eb-7462cafd1e31"},"vehicle_type_id":"4","last_reported":1740233255,"current_range_meters":9600,"station_id":"ce4bhu92rcd13ifvqi70","pricing_plan_id":"cebpf4jnsgd1na2vs0mg"},{"bike_id":"0a1ff220-1567-478f-8a1f-36ccb8c618e9","system_id":"levelo_inurba_marseille","lat":43.23159,"lon":5.43709,"is_reserved":false,"is_disabled":false,"rental_uris":{"android":"levelo://app?vid=0a1ff220-1567-478f-8a1f-36ccb8c618e9","ios":"levelo://app?vid=0a1ff220-1567-478f-8a1f-36ccb8c618e9"},"vehicle_type_id":"4","last_reported":1740233255,"current_range_meters":10000,"station_id":"ce4bhmp2rcd13ifvqgog","pricing_plan_id":"cebpf4jnsgd1na2vs0mg"},{"bike_id":"78ccc1b5-e05d-4c30-bc5b-473f9d97e2cd","system_id":"levelo_inurba_marseille","lat":43.3012,"lon":5.37811,"is_reserved":false,"is_disabled":false,"rental_uris":{"android":"levelo://app?vid=78ccc1b5-e05d-4c30-bc5b-473f9d97e2cd","ios":"levelo://app?vid=78ccc1b5-e05d-4c30-bc5b-473f9d97e2cd"},"vehicle_type_id":"4","last_reported":1740233255,"current_range_meters":10000,"station_id":"","pricing_plan_id":"cebpf4jnsgd1na2vs0mg"},{"bike_id":"1a3ceab6-ed06-46e5-8f3c-bc79a5dfc649","system_id":"levelo_inurba_marseille","lat":43.2606,"lon":5.39395,"is_reserved":false,"is_disabled":false,"rental_uris":{"android":"levelo://app?vid=1a3ceab6-ed06-46e5-8f3c-bc79a5dfc649","ios":"levelo://app?vid=1a3ceab6-ed06-46e5-8f3c-bc79a5dfc649"},"vehicle_type_id":"4","last_reported":1740233255,"current_range_meters":10000,"station_id":"ce4bhh92rcd13ifvqfj0","pricing_plan_id":"cebpf4jnsgd1na2vs0mg"},{"bike_id":"6c739ea0-c327-48ad-97ec-dcb1f64885f5","system_id":"levelo_inurba_marseille","lat":43.2919,"lon":5.3931,"is_reserved":false,"is_disabled":false,"rental_uris":{"android":"levelo://app?vid=6c739ea0-c327-48ad-97ec-dcb1f64885f5","ios":"levelo://app?vid=6c739ea0-c327-48ad-97ec-dcb1f64885f5"},"vehicle_type_id":"4","last_reported":1740233255,"current_range_meters":10000,"station_id":"ce4bh192rcd13ifvqdd0","pricing_plan_id":"cebpf4jnsgd1na2vs0mg"},{"bike_id":"447ac233-73f5-4e6c-ba71-96604680f3f3","system_id":"levelo_inurba_marseille","lat":43.3014,"lon":5.37408,"is_reserved":false,"is_disabled":false,"rental_uris":{"android":"levelo://app?vid=447ac233-73f5-4e6c-ba71-96604680f3f3","ios":"levelo://app?vid=447ac233-73f5-4e6c-ba71-96604680f3f3"},"vehicle_type_id":"4","last_reported":1740233255,"current_range_meters":9600,"station_id":"ce4bgs92rcd13ifvqcc0","pricing_plan_id":"cebpf4jnsgd1na2vs0mg"},{"bike_id":"d312ce1d-aae9-4c62-a1e8-38c15d95735a","system_id":"levelo_inurba_marseille","lat":43.22946,"lon":5.35405,"is_reserved":false,"is_disabled":false,"rental_uris":{"android":"levelo://app?vid=d312ce1d-aae9-4c62-a1e8-38c15d95735a","ios":"levelo://app?vid=d312ce1d-aae9-4c62-a1e8-38c15d95735a"},"vehicle_type_id":"4","last_reported":1740233255,"current_range_meters":10800,"station_id":"cpo3532slgdg3j2ikp40","pricing_plan_id":"cebpf4jnsgd1na2vs0mg"},{"bike_id":"2bf9824f-4980-4084-a927-fa4faf722004","system_id":"levelo_inurba_marseille","lat":43.2799,"lon":5.40015,"is_reserved":false,"is_disabled":false,"rental_uris":{"android":"levelo://app?vid=2bf9824f-4980-4084-a927-fa4faf722004","ios":"levelo://app?vid=2bf9824f-4980-4084-a927-fa4faf722004"},"vehicle_type_id":"4","last_reported":1740233255,"current_range_meters":10800,"station_id":"ce4bho92rcd13ifvqh4g","pricing_plan_id":"cebpf4jnsgd1na2vs0mg"},{"bike_id":"6c2ab6e6-2d04-4225-b04d-1f709ec68055","system_id":"levelo_inurba_marseille","lat":43.22966,"lon":5.35364,"is_reserved":false,"is_disabled":false,"rental_uris":{"android":"levelo://app?vid=6c2ab6e6-2d04-4225-b04d-1f709ec68055","ios":"levelo://app?vid=6c2ab6e6-2d04-4225-b04d-1f709ec68055"},"vehicle_type_id":"4","last_reported":1740233255,"current_range_meters":10800,"station_id":"cpo3532slgdg3j2ikp40","pricing_plan_id":"cebpf4jnsgd1na2vs0mg"},{"bike_id":"a88b4534-cc43-4486-95b9-13918131b4b3","system_id":"levelo_inurba_marseille","lat":43.31756,"lon":5.39019,"is_reserved":false,"is_disabled":false,"rental_uris":{"android":"levelo://app?vid=a88b4534-cc43-4486-95b9-13918131b4b3","ios":"levelo://app?vid=a88b4534-cc43-4486-95b9-13918131b4b3"},"vehicle_type_id":"4","last_reported":1740233255,"current_range_meters":10800,"station_id":"ce4bhqp2rcd13ifvqhng","pricing_plan_id":"cebpf4jnsgd1na2vs0mg"},{"bike_id":"26969759-8968-4cd2-90d2-9699d4a627f8","system_id":"levelo_inurba_marseille","lat":43.29791,"lon":5.38098,"is_reserved":false,"is_disabled":false,"rental_uris":{"android":"levelo://app?vid=26969759-8968-4cd2-90d2-9699d4a627f8","ios":"levelo://app?vid=26969759-8968-4cd2-90d2-9699d4a627f8"},"vehicle_type_id":"4","last_reported":1740233255,"current_range_meters":10800,"station_id":"","pricing_plan_id":"cebpf4jnsgd1na2vs0mg"},{"bike_id":"3c232bab-88ac-4592-9031-c21395fd8a78","system_id":"levelo_inurba_marseille","lat":43.32358,"lon":5.3676,"is_reserved":false,"is_disabled":false,"rental_uris":{"android":"levelo://app?vid=3c232bab-88ac-4592-9031-c21395fd8a78","ios":"levelo://app?vid=3c232bab-88ac-4592-9031-c21395fd8a78"},"vehicle_type_id":"4","last_reported":1740233255,"current_range_meters":11200,"station_id":"ce4bhsh2rcd13ifvqi2g","pricing_plan_id":"cebpf4jnsgd1na2vs0mg"},{"bike_id":"28f6789c-cc80-489d-b280-13697881d629","system_id":"levelo_inurba_marseille","lat":43.30207,"lon":5.3946,"is_reserved":false,"is_disabled":false,"rental_uris":{"android":"levelo://app?vid=28f6789c-cc80-489d-b280-13697881d629","ios":"levelo://app?vid=28f6789c-cc80-489d-b280-13697881d629"},"vehicle_type_id":"4","last_reported":1740233255,"current_range_meters":11200,"station_id":"ce4bh0p2rcd13ifvqd70","pricing_plan_id":"cebpf4jnsgd1na2vs0mg"},{"bike_id":"7e976ceb-5f58-4d17-9c3e-edf6b69d6e1a","system_id":"levelo_inurba_marseille","lat":43.24555,"lon":5.39518,"is_reserved":false,"is_disabled":false,"rental_uris":{"android":"levelo://app?vid=7e976ceb-5f58-4d17-9c3e-edf6b69d6e1a","ios":"levelo://app?vid=7e976ceb-5f58-4d17-9c3e-edf6b69d6e1a"},"vehicle_type_id":"4","last_reported":1740233255,"current_range_meters":11200,"station_id":"ce4bhlp2rcd13ifvqgjg","pricing_plan_id":"cebpf4jnsgd1na2vs0mg"},{"bike_id":"6b1cd43a-704c-4f59-a0cd-1e4ae6b382b5","system_id":"levelo_inurba_marseille","lat":43.30418,"lon":5.41277,"is_reserved":false,"is_disabled":false,"rental_uris":{"android":"levelo://app?vid=6b1cd43a-704c-4f59-a0cd-1e4ae6b382b5","ios":"levelo://app?vid=6b1cd43a-704c-4f59-a0cd-1e4ae6b382b5"},"vehicle_type_id":"4","last_reported":1740233255,"current_range_meters":11200,"station_id":"ce4bhop2rcd13ifvqh8g","pricing_plan_id":"cebpf4jnsgd1na2vs0mg"},{"bike_id":"06f57637-54c5-49a8-a9e3-0ab7e477fa7c","system_id":"levelo_inurba_marseille","lat":43.29011,"lon":5.38124,"is_reserved":false,"is_disabled":false,"rental_uris":{"android":"levelo://app?vid=06f57637-54c5-49a8-a9e3-0ab7e477fa7c","ios":"levelo://app?vid=06f57637-54c5-49a8-a9e3-0ab7e477fa7c"},"vehicle_type_id":"4","last_reported":1740233255,"current_range_meters":10800,"station_id":"ce4bh4p2rcd13ifvqe1g","pricing_plan_id":"cebpf4jnsgd1na2vs0mg"},{"bike_id":"4f542e78-da3d-4f99-b268-bd72b36f5f31","system_id":"levelo_inurba_marseille","lat":43.29573,"lon":5.39964,"is_reserved":false,"is_disabled":true,"rental_uris":{"android":"levelo://app?vid=4f542e78-da3d-4f99-b268-bd72b36f5f31","ios":"levelo://app?vid=4f542e78-da3d-4f99-b268-bd72b36f5f31"},"vehicle_type_id":"4","last_reported":1740233255,"current_range_meters":11200,"station_id":"ce4bh312rcd13ifvqdj0","pricing_plan_id":"cebpf4jnsgd1na2vs0mg"},{"bike_id":"65a02063-6ab3-44e6-b9e5-6db4863da829","system_id":"levelo_inurba_marseille","lat":43.2439,"lon":5.37056,"is_reserved":false,"is_disabled":false,"rental_uris":{"android":"levelo://app?vid=65a02063-6ab3-44e6-b9e5-6db4863da829","ios":"levelo://app?vid=65a02063-6ab3-44e6-b9e5-6db4863da829"},"vehicle_type_id":"4","last_reported":1740233255,"current_range_meters":11200,"station_id":"ce4bhhh2rcd13ifvqfk0","pricing_plan_id":"cebpf4jnsgd1na2vs0mg"},{"bike_id":"ba113183-374c-4d98-80f0-8303ec95b01f","system_id":"levelo_inurba_marseille","lat":43.26062,"lon":5.39391,"is_reserved":false,"is_disabled":false,"rental_uris":{"android":"levelo://app?vid=ba113183-374c-4d98-80f0-8303ec95b01f","ios":"levelo://app?vid=ba113183-374c-4d98-80f0-8303ec95b01f"},"vehicle_type_id":"4","last_reported":1740233255,"current_range_meters":11600,"station_id":"ce4bhh92rcd13ifvqfj0","pricing_plan_id":"cebpf4jnsgd1na2vs0mg"},{"bike_id":"9e34ff94-4206-4d85-a9da-dab3dd759910","system_id":"levelo_inurba_marseille","lat":43.30426,"lon":5.41269,"is_reserved":false,"is_disabled":false,"rental_uris":{"android":"levelo://app?vid=9e34ff94-4206-4d85-a9da-dab3dd759910","ios":"levelo://app?vid=9e34ff94-4206-4d85-a9da-dab3dd759910"},"vehicle_type_id":"4","last_reported":1740233255,"current_range_meters":11600,"station_id":"ce4bhop2rcd13ifvqh8g","pricing_plan_id":"cebpf4jnsgd1na2vs0mg"},{"bike_id":"e8aa9107-fad9-4a62-b20f-9589c0228e4a","system_id":"levelo_inurba_marseille","lat":43.28665,"lon":5.36345,"is_reserved":false,"is_disabled":false,"rental_uris":{"android":"levelo://app?vid=e8aa9107-fad9-4a62-b20f-9589c0228e4a","ios":"levelo://app?vid=e8aa9107-fad9-4a62-b20f-9589c0228e4a"},"vehicle_type_id":"4","last_reported":1740233255,"current_range_meters":12000,"station_id":"ce4bhah2rcd13ifvqej0","pricing_plan_id":"cebpf4jnsgd1na2vs0mg"},{"bike_id":"9be12ffa-54e4-4dfb-b1f9-55672693d84b","system_id":"levelo_inurba_marseille","lat":43.24166,"lon":5.3974,"is_reserved":false,"is_disabled":false,"rental_uris":{"android":"levelo://app?vid=9be12ffa-54e4-4dfb-b1f9-55672693d84b","ios":"levelo://app?vid=9be12ffa-54e4-4dfb-b1f9-55672693d84b"},"vehicle_type_id":"4","last_reported":1740233255,"current_range_meters":12000,"station_id":"ce4bhn12rcd13ifvqgpg","pricing_plan_id":"cebpf4jnsgd1na2vs0mg"},{"bike_id":"5b5cec87-7e08-4ad0-ba6e-28b8255531d8","system_id":"levelo_inurba_marseille","lat":43.26498,"lon":5.39547,"is_reserved":false,"is_disabled":false,"rental_uris":{"android":"levelo://app?vid=5b5cec87-7e08-4ad0-ba6e-28b8255531d8","ios":"levelo://app?vid=5b5cec87-7e08-4ad0-ba6e-28b8255531d8"},"vehicle_type_id":"4","last_reported":1740233255,"current_range_meters":12400,"station_id":"ce4bhi12rcd13ifvqfq0","pricing_plan_id":"cebpf4jnsgd1na2vs0mg"},{"bike_id":"02a42d40-b114-44fb-986d-d9b620f6f365","system_id":"levelo_inurba_marseille","lat":43.28496,"lon":5.39094,"is_reserved":false,"is_disabled":false,"rental_uris":{"android":"levelo://app?vid=02a42d40-b114-44fb-986d-d9b620f6f365","ios":"levelo://app?vid=02a42d40-b114-44fb-986d-d9b620f6f365"},"vehicle_type_id":"4","last_reported":1740233255,"current_range_meters":12400,"station_id":"","pricing_plan_id":"cebpf4jnsgd1na2vs0mg"},{"bike_id":"fc719a48-4f02-4ff0-a0b0-5867ff99caf1","system_id":"levelo_inurba_marseille","lat":43.30412,"lon":5.4129,"is_reserved":false,"is_disabled":false,"rental_uris":{"android":"levelo://app?vid=fc719a48-4f02-4ff0-a0b0-5867ff99caf1","ios":"levelo://app?vid=fc719a48-4f02-4ff0-a0b0-5867ff99caf1"},"vehicle_type_id":"4","last_reported":1740233255,"current_range_meters":12400,"station_id":"ce4bhop2rcd13ifvqh8g","pricing_plan_id":"cebpf4jnsgd1na2vs0mg"},{"bike_id":"e580b7c9-e8c0-456e-9d12-2a81481cf691","system_id":"levelo_inurba_marseille","lat":43.3079,"lon":5.37653,"is_reserved":false,"is_disabled":false,"rental_uris":{"android":"levelo://app?vid=e580b7c9-e8c0-456e-9d12-2a81481cf691","ios":"levelo://app?vid=e580b7c9-e8c0-456e-9d12-2a81481cf691"},"vehicle_type_id":"4","last_reported":1740233255,"current_range_meters":14000,"station_id":"ce4bgv92rcd13ifvqcq0","pricing_plan_id":"cebpf4jnsgd1na2vs0mg"},{"bike_id":"1951b280-e8ac-4fa5-a3ef-806580107c2a","system_id":"levelo_inurba_marseille","lat":43.28156,"lon":5.4265,"is_reserved":false,"is_disabled":false,"rental_uris":{"android":"levelo://app?vid=1951b280-e8ac-4fa5-a3ef-806580107c2a","ios":"levelo://app?vid=1951b280-e8ac-4fa5-a3ef-806580107c2a"},"vehicle_type_id":"4","last_reported":1740233255,"current_range_meters":12800,"station_id":"ce4bhnh2rcd13ifvqgug","pricing_plan_id":"cebpf4jnsgd1na2vs0mg"},{"bike_id":"9fa09cf7-d188-4955-9018-43c871d30a66","system_id":"levelo_inurba_marseille","lat":43.28036,"lon":5.36936,"is_reserved":false,"is_disabled":false,"rental_uris":{"android":"levelo://app?vid=9fa09cf7-d188-4955-9018-43c871d30a66","ios":"levelo://app?vid=9fa09cf7-d188-4955-9018-43c871d30a66"},"vehicle_type_id":"4","last_reported":1740233255,"current_range_meters":12400,"station_id":"ce4bha12rcd13ifvqef0","pricing_plan_id":"cebpf4jnsgd1na2vs0mg"},{"bike_id":"1bc44ef7-e7f2-4a32-89a6-42f9097e227d","system_id":"levelo_inurba_marseille","lat":43.29712,"lon":5.37701,"is_reserved":false,"is_disabled":false,"rental_uris":{"android":"levelo://app?vid=1bc44ef7-e7f2-4a32-89a6-42f9097e227d","ios":"levelo://app?vid=1bc44ef7-e7f2-4a32-89a6-42f9097e227d"},"vehicle_type_id":"4","last_reported":1740233255,"current_range_meters":12800,"station_id":"ce4bgkh2rcd13ifvqbl0","pricing_plan_id":"cebpf4jnsgd1na2vs0mg"},{"bike_id":"4e387a21-12a8-4106-b494-b0c816c9e3b5","system_id":"levelo_inurba_marseille","lat":43.28612,"lon":5.35101,"is_reserved":false,"is_disabled":false,"rental_uris":{"android":"levelo://app?vid=4e387a21-12a8-4106-b494-b0c816c9e3b5","ios":"levelo://app?vid=4e387a21-12a8-4106-b494-b0c816c9e3b5"},"vehicle_type_id":"4","last_reported":1740233255,"current_range_meters":12800,"station_id":"ce4bhch2rcd13ifvqeug","pricing_plan_id":"cebpf4jnsgd1na2vs0mg"},{"bike_id":"519c0d90-c598-4074-9c80-d5e1565ff705","system_id":"levelo_inurba_marseille","lat":43.23063,"lon":5.35492,"is_reserved":false,"is_disabled":false,"rental_uris":{"android":"levelo://app?vid=519c0d90-c598-4074-9c80-d5e1565ff705","ios":"levelo://app?vid=519c0d90-c598-4074-9c80-d5e1565ff705"},"vehicle_type_id":"4","last_reported":1740233255,"current_range_meters":12800,"station_id":"cpo3342slgdg3j2ifvpg","pricing_plan_id":"cebpf4jnsgd1na2vs0mg"},{"bike_id":"0b35ef10-1d1d-4e8a-949e-c3122c5e3874","system_id":"levelo_inurba_marseille","lat":43.23956,"lon":5.36635,"is_reserved":false,"is_disabled":false,"rental_uris":{"android":"levelo://app?vid=0b35ef10-1d1d-4e8a-949e-c3122c5e3874","ios":"levelo://app?vid=0b35ef10-1d1d-4e8a-949e-c3122c5e3874"},"vehicle_type_id":"4","last_reported":1740233255,"current_range_meters":12800,"station_id":"ce4bhi12rcd13ifvqfp0","pricing_plan_id":"cebpf4jnsgd1na2vs0mg"},{"bike_id":"0dc10df1-2422-4347-8406-45044f046857","system_id":"levelo_inurba_marseille","lat":43.27377,"lon":5.36247,"is_reserved":false,"is_disabled":false,"rental_uris":{"android":"levelo://app?vid=0dc10df1-2422-4347-8406-45044f046857","ios":"levelo://app?vid=0dc10df1-2422-4347-8406-45044f046857"},"vehicle_type_id":"4","last_reported":1740233255,"current_range_meters":12800,"station_id":"ce4bhbh2rcd13ifvqeo0","pricing_plan_id":"cebpf4jnsgd1na2vs0mg"},{"bike_id":"17cb2da1-6381-4c19-aa67-406968c3567c","system_id":"levelo_inurba_marseille","lat":43.29569,"lon":5.37522,"is_reserved":false,"is_disabled":false,"rental_uris":{"android":"levelo://app?vid=17cb2da1-6381-4c19-aa67-406968c3567c","ios":"levelo://app?vid=17cb2da1-6381-4c19-aa67-406968c3567c"},"vehicle_type_id":"4","last_reported":1740233255,"current_range_meters":12800,"station_id":"ce4bgh92rcd13ifvqb50","pricing_plan_id":"cebpf4jnsgd1na2vs0mg"},{"bike_id":"83362bbe-8dbb-47a5-b3e6-6c8bcd49ddc6","system_id":"levelo_inurba_marseille","lat":43.31267,"lon":5.40161,"is_reserved":false,"is_disabled":false,"rental_uris":{"android":"levelo://app?vid=83362bbe-8dbb-47a5-b3e6-6c8bcd49ddc6","ios":"levelo://app?vid=83362bbe-8dbb-47a5-b3e6-6c8bcd49ddc6"},"vehicle_type_id":"4","last_reported":1740233255,"current_range_meters":12800,"station_id":"ce4bh092rcd13ifvqd20","pricing_plan_id":"cebpf4jnsgd1na2vs0mg"},{"bike_id":"f3e53501-98a3-41eb-aebf-eea5d54d149b","system_id":"levelo_inurba_marseille","lat":43.30963,"lon":5.37987,"is_reserved":false,"is_disabled":false,"rental_uris":{"android":"levelo://app?vid=f3e53501-98a3-41eb-aebf-eea5d54d149b","ios":"levelo://app?vid=f3e53501-98a3-41eb-aebf-eea5d54d149b"},"vehicle_type_id":"4","last_reported":1740233255,"current_range_meters":12800,"station_id":"","pricing_plan_id":"cebpf4jnsgd1na2vs0mg"},{"bike_id":"dc30b69f-f18d-46e5-9ba7-e604a6a0a838","system_id":"levelo_inurba_marseille","lat":43.3054,"lon":5.36547,"is_reserved":false,"is_disabled":false,"rental_uris":{"android":"levelo://app?vid=dc30b69f-f18d-46e5-9ba7-e604a6a0a838","ios":"levelo://app?vid=dc30b69f-f18d-46e5-9ba7-e604a6a0a838"},"vehicle_type_id":"4","last_reported":1740233255,"current_range_meters":13600,"station_id":"ce4bgs12rcd13ifvqcag","pricing_plan_id":"cebpf4jnsgd1na2vs0mg"},{"bike_id":"1b5b87c8-f96f-4740-8b60-bcc62c6e3f59","system_id":"levelo_inurba_marseille","lat":43.31393,"lon":5.38451,"is_reserved":false,"is_disabled":false,"rental_uris":{"android":"levelo://app?vid=1b5b87c8-f96f-4740-8b60-bcc62c6e3f59","ios":"levelo://app?vid=1b5b87c8-f96f-4740-8b60-bcc62c6e3f59"},"vehicle_type_id":"4","last_reported":1740233255,"current_range_meters":13600,"station_id":"ce4bgt92rcd13ifvqcf0","pricing_plan_id":"cebpf4jnsgd1na2vs0mg"},{"bike_id":"e1f49dc5-06e1-4172-9cad-660b99fcac0b","system_id":"levelo_inurba_marseille","lat":43.26777,"lon":5.39439,"is_reserved":false,"is_disabled":false,"rental_uris":{"android":"levelo://app?vid=e1f49dc5-06e1-4172-9cad-660b99fcac0b","ios":"levelo://app?vid=e1f49dc5-06e1-4172-9cad-660b99fcac0b"},"vehicle_type_id":"4","last_reported":1740233255,"current_range_meters":13600,"station_id":"ce4bhh12rcd13ifvqfg0","pricing_plan_id":"cebpf4jnsgd1na2vs0mg"},{"bike_id":"f662338e-cdf8-43a5-a758-217e51d7a7f0","system_id":"levelo_inurba_marseille","lat":43.24392,"lon":5.37057,"is_reserved":false,"is_disabled":false,"rental_uris":{"android":"levelo://app?vid=f662338e-cdf8-43a5-a758-217e51d7a7f0","ios":"levelo://app?vid=f662338e-cdf8-43a5-a758-217e51d7a7f0"},"vehicle_type_id":"4","last_reported":1740233255,"current_range_meters":13600,"station_id":"ce4bhhh2rcd13ifvqfk0","pricing_plan_id":"cebpf4jnsgd1na2vs0mg"},{"bike_id":"1b0d6542-f74d-4dd5-b78b-1cd1115ff80b","system_id":"levelo_inurba_marseille","lat":43.30643,"lon":5.37373,"is_reserved":false,"is_disabled":false,"rental_uris":{"android":"levelo://app?vid=1b0d6542-f74d-4dd5-b78b-1cd1115ff80b","ios":"levelo://app?vid=1b0d6542-f74d-4dd5-b78b-1cd1115ff80b"},"vehicle_type_id":"4","last_reported":1740233255,"current_range_meters":14000,"station_id":"","pricing_plan_id":"cebpf4jnsgd1na2vs0mg"},{"bike_id":"1465a4f7-c5b6-4253-8fa1-ba53adc07b99","system_id":"levelo_inurba_marseille","lat":43.30531,"lon":5.3655,"is_reserved":false,"is_disabled":false,"rental_uris":{"android":"levelo://app?vid=1465a4f7-c5b6-4253-8fa1-ba53adc07b99","ios":"levelo://app?vid=1465a4f7-c5b6-4253-8fa1-ba53adc07b99"},"vehicle_type_id":"4","last_reported":1740233255,"current_range_meters":14000,"station_id":"ce4bgs12rcd13ifvqcag","pricing_plan_id":"cebpf4jnsgd1na2vs0mg"},{"bike_id":"d88699b9-7a50-415c-9cdb-a35fdc00ed80","system_id":"levelo_inurba_marseille","lat":43.29934,"lon":5.37193,"is_reserved":false,"is_disabled":false,"rental_uris":{"android":"levelo://app?vid=d88699b9-7a50-415c-9cdb-a35fdc00ed80","ios":"levelo://app?vid=d88699b9-7a50-415c-9cdb-a35fdc00ed80"},"vehicle_type_id":"4","last_reported":1740233255,"current_range_meters":14000,"station_id":"","pricing_plan_id":"cebpf4jnsgd1na2vs0mg"},{"bike_id":"c3c1d469-a1b4-4abb-9974-701b7d97ca20","system_id":"levelo_inurba_marseille","lat":43.25558,"lon":5.38253,"is_reserved":false,"is_disabled":false,"rental_uris":{"android":"levelo://app?vid=c3c1d469-a1b4-4abb-9974-701b7d97ca20","ios":"levelo://app?vid=c3c1d469-a1b4-4abb-9974-701b7d97ca20"},"vehicle_type_id":"4","last_reported":1740233255,"current_range_meters":14000,"station_id":"ce4bhih2rcd13ifvqfs0","pricing_plan_id":"cebpf4jnsgd1na2vs0mg"},{"bike_id":"f5592fe8-7cfa-44ac-a7cd-ec1d59f7c7a5","system_id":"levelo_inurba_marseille","lat":43.29529,"lon":5.37503,"is_reserved":false,"is_disabled":false,"rental_uris":{"android":"levelo://app?vid=f5592fe8-7cfa-44ac-a7cd-ec1d59f7c7a5","ios":"levelo://app?vid=f5592fe8-7cfa-44ac-a7cd-ec1d59f7c7a5"},"vehicle_type_id":"4","last_reported":1740233255,"current_range_meters":14000,"station_id":"ce4bgkp2rcd13ifvqbmg","pricing_plan_id":"cebpf4jnsgd1na2vs0mg"},{"bike_id":"d5f86000-25e6-41fb-a0c5-4e4e0440556c","system_id":"levelo_inurba_marseille","lat":43.29615,"lon":5.37734,"is_reserved":false,"is_disabled":false,"rental_uris":{"android":"levelo://app?vid=d5f86000-25e6-41fb-a0c5-4e4e0440556c","ios":"levelo://app?vid=d5f86000-25e6-41fb-a0c5-4e4e0440556c"},"vehicle_type_id":"4","last_reported":1740233255,"current_range_meters":14400,"station_id":"ce4bgi92rcd13ifvqb90","pricing_plan_id":"cebpf4jnsgd1na2vs0mg"},{"bike_id":"ab8e4fa1-a748-4b68-9f46-2fdc2afb052f","system_id":"levelo_inurba_marseille","lat":43.25846,"lon":5.3944,"is_reserved":false,"is_disabled":false,"rental_uris":{"android":"levelo://app?vid=ab8e4fa1-a748-4b68-9f46-2fdc2afb052f","ios":"levelo://app?vid=ab8e4fa1-a748-4b68-9f46-2fdc2afb052f"},"vehicle_type_id":"4","last_reported":1740233255,"current_range_meters":14400,"station_id":"ce4bhip2rcd13ifvqft0","pricing_plan_id":"cebpf4jnsgd1na2vs0mg"},{"bike_id":"ecb792ba-e590-4d62-97cc-1e9b429064df","system_id":"levelo_inurba_marseille","lat":43.25021,"lon":5.3892,"is_reserved":false,"is_disabled":false,"rental_uris":{"android":"levelo://app?vid=ecb792ba-e590-4d62-97cc-1e9b429064df","ios":"levelo://app?vid=ecb792ba-e590-4d62-97cc-1e9b429064df"},"vehicle_type_id":"4","last_reported":1740233255,"current_range_meters":14400,"station_id":"ce4bhgp2rcd13ifvqfd0","pricing_plan_id":"cebpf4jnsgd1na2vs0mg"},{"bike_id":"0dfad0a4-9499-41c9-828a-e30f9a750dc8","system_id":"levelo_inurba_marseille","lat":43.29543,"lon":5.37468,"is_reserved":false,"is_disabled":false,"rental_uris":{"android":"levelo://app?vid=0dfad0a4-9499-41c9-828a-e30f9a750dc8","ios":"levelo://app?vid=0dfad0a4-9499-41c9-828a-e30f9a750dc8"},"vehicle_type_id":"4","last_reported":1740233255,"current_range_meters":14400,"station_id":"ce4bgkp2rcd13ifvqbmg","pricing_plan_id":"cebpf4jnsgd1na2vs0mg"},{"bike_id":"1f7411cd-9379-4bab-a8bc-411b928d8602","system_id":"levelo_inurba_marseille","lat":43.27486,"lon":5.42513,"is_reserved":false,"is_disabled":false,"rental_uris":{"android":"levelo://app?vid=1f7411cd-9379-4bab-a8bc-411b928d8602","ios":"levelo://app?vid=1f7411cd-9379-4bab-a8bc-411b928d8602"},"vehicle_type_id":"4","last_reported":1740233255,"current_range_meters":14800,"station_id":"","pricing_plan_id":"cebpf4jnsgd1na2vs0mg"},{"bike_id":"d48729f3-7776-48ad-bcc1-2422920cbff2","system_id":"levelo_inurba_marseille","lat":43.29275,"lon":5.3844,"is_reserved":false,"is_disabled":false,"rental_uris":{"android":"levelo://app?vid=d48729f3-7776-48ad-bcc1-2422920cbff2","ios":"levelo://app?vid=d48729f3-7776-48ad-bcc1-2422920cbff2"},"vehicle_type_id":"4","last_reported":1740233255,"current_range_meters":14800,"station_id":"ce4bh692rcd13ifvqea0","pricing_plan_id":"cebpf4jnsgd1na2vs0mg"},{"bike_id":"ea2936c9-d750-4c5c-8fd4-6eb12ecb1954","system_id":"levelo_inurba_marseille","lat":43.29574,"lon":5.36734,"is_reserved":false,"is_disabled":false,"rental_uris":{"android":"levelo://app?vid=ea2936c9-d750-4c5c-8fd4-6eb12ecb1954","ios":"levelo://app?vid=ea2936c9-d750-4c5c-8fd4-6eb12ecb1954"},"vehicle_type_id":"4","last_reported":1740233255,"current_range_meters":14800,"station_id":"ce4bgph2rcd13ifvqc2g","pricing_plan_id":"cebpf4jnsgd1na2vs0mg"},{"bike_id":"fe88d974-cdee-40de-a15b-a045fc7a3b19","system_id":"levelo_inurba_marseille","lat":43.25727,"lon":5.41102,"is_reserved":false,"is_disabled":false,"rental_uris":{"android":"levelo://app?vid=fe88d974-cdee-40de-a15b-a045fc7a3b19","ios":"levelo://app?vid=fe88d974-cdee-40de-a15b-a045fc7a3b19"},"vehicle_type_id":"4","last_reported":1740233255,"current_range_meters":14800,"station_id":"ce4bhkp2rcd13ifvqgd0","pricing_plan_id":"cebpf4jnsgd1na2vs0mg"},{"bike_id":"f75b7c43-b1e9-419b-9e88-97af31d30220","system_id":"levelo_inurba_marseille","lat":43.23954,"lon":5.3665,"is_reserved":false,"is_disabled":false,"rental_uris":{"android":"levelo://app?vid=f75b7c43-b1e9-419b-9e88-97af31d30220","ios":"levelo://app?vid=f75b7c43-b1e9-419b-9e88-97af31d30220"},"vehicle_type_id":"4","last_reported":1740233255,"current_range_meters":15200,"station_id":"ce4bhi12rcd13ifvqfp0","pricing_plan_id":"cebpf4jnsgd1na2vs0mg"},{"bike_id":"ad5d970e-426b-4f89-94bd-e7196f45d370","system_id":"levelo_inurba_marseille","lat":43.32105,"lon":5.36777,"is_reserved":false,"is_disabled":false,"rental_uris":{"android":"levelo://app?vid=ad5d970e-426b-4f89-94bd-e7196f45d370","ios":"levelo://app?vid=ad5d970e-426b-4f89-94bd-e7196f45d370"},"vehicle_type_id":"4","last_reported":1740233255,"current_range_meters":15200,"station_id":"ce4bhrh2rcd13ifvqhug","pricing_plan_id":"cebpf4jnsgd1na2vs0mg"},{"bike_id":"3fd2a98c-7939-498c-8625-9658300a849b","system_id":"levelo_inurba_marseille","lat":43.2592,"lon":5.40902,"is_reserved":false,"is_disabled":false,"rental_uris":{"android":"levelo://app?vid=3fd2a98c-7939-498c-8625-9658300a849b","ios":"levelo://app?vid=3fd2a98c-7939-498c-8625-9658300a849b"},"vehicle_type_id":"4","last_reported":1740233255,"current_range_meters":16000,"station_id":"ce4bhm92rcd13ifvqglg","pricing_plan_id":"cebpf4jnsgd1na2vs0mg"},{"bike_id":"893db85a-5a83-4269-9ee6-e9d9e2059e92","system_id":"levelo_inurba_marseille","lat":43.295668,"lon":5.375131,"is_reserved":false,"is_disabled":false,"rental_uris":{"android":"levelo://app?vid=893db85a-5a83-4269-9ee6-e9d9e2059e92","ios":"levelo://app?vid=893db85a-5a83-4269-9ee6-e9d9e2059e92"},"vehicle_type_id":"4","last_reported":1740233255,"current_range_meters":16000,"station_id":"ce4bgh92rcd13ifvqb50","pricing_plan_id":"cebpf4jnsgd1na2vs0mg"},{"bike_id":"001c0b93-fad1-491d-a2b3-afffa502635e","system_id":"levelo_inurba_marseille","lat":43.297986,"lon":5.40395,"is_reserved":false,"is_disabled":false,"rental_uris":{"android":"levelo://app?vid=001c0b93-fad1-491d-a2b3-afffa502635e","ios":"levelo://app?vid=001c0b93-fad1-491d-a2b3-afffa502635e"},"vehicle_type_id":"4","last_reported":1740233255,"current_range_meters":16000,"station_id":"ce4bh112rcd13ifvqd90","pricing_plan_id":"cebpf4jnsgd1na2vs0mg"},{"bike_id":"f1fbdbaf-78b7-4457-b48d-2f4c11ffd0e8","system_id":"levelo_inurba_marseille","lat":43.27205,"lon":5.39173,"is_reserved":false,"is_disabled":false,"rental_uris":{"android":"levelo://app?vid=f1fbdbaf-78b7-4457-b48d-2f4c11ffd0e8","ios":"levelo://app?vid=f1fbdbaf-78b7-4457-b48d-2f4c11ffd0e8"},"vehicle_type_id":"4","last_reported":1740233255,"current_range_meters":16000,"station_id":"ce4bhhp2rcd13ifvqfm0","pricing_plan_id":"cebpf4jnsgd1na2vs0mg"},{"bike_id":"8e403f8a-b998-4fb1-bb90-54bf70e024a5","system_id":"levelo_inurba_marseille","lat":43.26935,"lon":5.389166,"is_reserved":false,"is_disabled":false,"rental_uris":{"android":"levelo://app?vid=8e403f8a-b998-4fb1-bb90-54bf70e024a5","ios":"levelo://app?vid=8e403f8a-b998-4fb1-bb90-54bf70e024a5"},"vehicle_type_id":"4","last_reported":1740233255,"current_range_meters":16000,"station_id":"ce4bhhh2rcd13ifvqfl0","pricing_plan_id":"cebpf4jnsgd1na2vs0mg"},{"bike_id":"c56ce798-4f16-4a43-b2b2-eacc9f2e7634","system_id":"levelo_inurba_marseille","lat":43.288438,"lon":5.393044,"is_reserved":false,"is_disabled":false,"rental_uris":{"android":"levelo://app?vid=c56ce798-4f16-4a43-b2b2-eacc9f2e7634","ios":"levelo://app?vid=c56ce798-4f16-4a43-b2b2-eacc9f2e7634"},"vehicle_type_id":"4","last_reported":1740233255,"current_range_meters":16400,"station_id":"ce4bh2p2rcd13ifvqdi0","pricing_plan_id":"cebpf4jnsgd1na2vs0mg"},{"bike_id":"dcfea84e-5b3c-4543-9477-bb007a27aabf","system_id":"levelo_inurba_marseille","lat":43.29619,"lon":5.37721,"is_reserved":false,"is_disabled":false,"rental_uris":{"android":"levelo://app?vid=dcfea84e-5b3c-4543-9477-bb007a27aabf","ios":"levelo://app?vid=dcfea84e-5b3c-4543-9477-bb007a27aabf"},"vehicle_type_id":"4","last_reported":1740233255,"current_range_meters":16400,"station_id":"ce4bgi92rcd13ifvqb90","pricing_plan_id":"cebpf4jnsgd1na2vs0mg"},{"bike_id":"19d1a5ab-670e-4386-875b-41b8b46ee488","system_id":"levelo_inurba_marseille","lat":43.23962,"lon":5.36636,"is_reserved":false,"is_disabled":false,"rental_uris":{"android":"levelo://app?vid=19d1a5ab-670e-4386-875b-41b8b46ee488","ios":"levelo://app?vid=19d1a5ab-670e-4386-875b-41b8b46ee488"},"vehicle_type_id":"4","last_reported":1740233255,"current_range_meters":16400,"station_id":"ce4bhi12rcd13ifvqfp0","pricing_plan_id":"cebpf4jnsgd1na2vs0mg"},{"bike_id":"24662673-e782-486a-bbdf-64f907258491","system_id":"levelo_inurba_marseille","lat":43.28491,"lon":5.38427,"is_reserved":false,"is_disabled":false,"rental_uris":{"android":"levelo://app?vid=24662673-e782-486a-bbdf-64f907258491","ios":"levelo://app?vid=24662673-e782-486a-bbdf-64f907258491"},"vehicle_type_id":"4","last_reported":1740233255,"current_range_meters":16800,"station_id":"ce4bh512rcd13ifvqe3g","pricing_plan_id":"cebpf4jnsgd1na2vs0mg"},{"bike_id":"02445705-b28e-4bad-a8c7-119716b51b7b","system_id":"levelo_inurba_marseille","lat":43.3033,"lon":5.4042,"is_reserved":false,"is_disabled":false,"rental_uris":{"android":"levelo://app?vid=02445705-b28e-4bad-a8c7-119716b51b7b","ios":"levelo://app?vid=02445705-b28e-4bad-a8c7-119716b51b7b"},"vehicle_type_id":"4","last_reported":1740233255,"current_range_meters":16800,"station_id":"ce4bh012rcd13ifvqd10","pricing_plan_id":"cebpf4jnsgd1na2vs0mg"},{"bike_id":"697f82f5-bb51-49ea-9671-a47975ccc6bc","system_id":"levelo_inurba_marseille","lat":43.30584,"lon":5.39299,"is_reserved":false,"is_disabled":false,"rental_uris":{"android":"levelo://app?vid=697f82f5-bb51-49ea-9671-a47975ccc6bc","ios":"levelo://app?vid=697f82f5-bb51-49ea-9671-a47975ccc6bc"},"vehicle_type_id":"4","last_reported":1740233255,"current_range_meters":16800,"station_id":"ce4bh0p2rcd13ifvqd80","pricing_plan_id":"cebpf4jnsgd1na2vs0mg"},{"bike_id":"7d01ed45-064b-418b-a80f-60a44c6d11ba","system_id":"levelo_inurba_marseille","lat":43.2306,"lon":5.35494,"is_reserved":false,"is_disabled":false,"rental_uris":{"android":"levelo://app?vid=7d01ed45-064b-418b-a80f-60a44c6d11ba","ios":"levelo://app?vid=7d01ed45-064b-418b-a80f-60a44c6d11ba"},"vehicle_type_id":"4","last_reported":1740233255,"current_range_meters":16800,"station_id":"cpo3342slgdg3j2ifvpg","pricing_plan_id":"cebpf4jnsgd1na2vs0mg"},{"bike_id":"4262437a-7f00-4b16-8724-a70cfff4e6b1","system_id":"levelo_inurba_marseille","lat":43.29621,"lon":5.37703,"is_reserved":false,"is_disabled":false,"rental_uris":{"android":"levelo://app?vid=4262437a-7f00-4b16-8724-a70cfff4e6b1","ios":"levelo://app?vid=4262437a-7f00-4b16-8724-a70cfff4e6b1"},"vehicle_type_id":"4","last_reported":1740233255,"current_range_meters":16800,"station_id":"ce4bgi92rcd13ifvqb90","pricing_plan_id":"cebpf4jnsgd1na2vs0mg"},{"bike_id":"b7677faf-e488-4b34-88f0-5ea19fe12a28","system_id":"levelo_inurba_marseille","lat":43.28669,"lon":5.36327,"is_reserved":false,"is_disabled":false,"rental_uris":{"android":"levelo://app?vid=b7677faf-e488-4b34-88f0-5ea19fe12a28","ios":"levelo://app?vid=b7677faf-e488-4b34-88f0-5ea19fe12a28"},"vehicle_type_id":"4","last_reported":1740233255,"current_range_meters":16800,"station_id":"ce4bhah2rcd13ifvqej0","pricing_plan_id":"cebpf4jnsgd1na2vs0mg"},{"bike_id":"299ff637-8f42-4bc6-8403-f99119dc6441","system_id":"levelo_inurba_marseille","lat":43.27369,"lon":5.36269,"is_reserved":false,"is_disabled":false,"rental_uris":{"android":"levelo://app?vid=299ff637-8f42-4bc6-8403-f99119dc6441","ios":"levelo://app?vid=299ff637-8f42-4bc6-8403-f99119dc6441"},"vehicle_type_id":"4","last_reported":1740233255,"current_range_meters":16800,"station_id":"ce4bhbh2rcd13ifvqeo0","pricing_plan_id":"cebpf4jnsgd1na2vs0mg"},{"bike_id":"9ccb67ea-e201-4936-8148-5397b45cf300","system_id":"levelo_inurba_marseille","lat":43.28407,"lon":5.37518,"is_reserved":false,"is_disabled":false,"rental_uris":{"android":"levelo://app?vid=9ccb67ea-e201-4936-8148-5397b45cf300","ios":"levelo://app?vid=9ccb67ea-e201-4936-8148-5397b45cf300"},"vehicle_type_id":"4","last_reported":1740233255,"current_range_meters":16800,"station_id":"ce4bh412rcd13ifvqds0","pricing_plan_id":"cebpf4jnsgd1na2vs0mg"},{"bike_id":"0b0f30f5-f05a-4d52-a88d-553379293b8b","system_id":"levelo_inurba_marseille","lat":43.27957,"lon":5.35352,"is_reserved":false,"is_disabled":false,"rental_uris":{"android":"levelo://app?vid=0b0f30f5-f05a-4d52-a88d-553379293b8b","ios":"levelo://app?vid=0b0f30f5-f05a-4d52-a88d-553379293b8b"},"vehicle_type_id":"4","last_reported":1740233255,"current_range_meters":17200,"station_id":"","pricing_plan_id":"cebpf4jnsgd1na2vs0mg"},{"bike_id":"d5ca0da4-96b6-4faa-b7e5-62f1a540ec9d","system_id":"levelo_inurba_marseille","lat":43.24801,"lon":5.3745,"is_reserved":false,"is_disabled":false,"rental_uris":{"android":"levelo://app?vid=d5ca0da4-96b6-4faa-b7e5-62f1a540ec9d","ios":"levelo://app?vid=d5ca0da4-96b6-4faa-b7e5-62f1a540ec9d"},"vehicle_type_id":"4","last_reported":1740233255,"current_range_meters":16800,"station_id":"ce4bhgh2rcd13ifvqfb0","pricing_plan_id":"cebpf4jnsgd1na2vs0mg"},{"bike_id":"f368ba6d-57b2-4d5c-bc5c-ada2ec051b6e","system_id":"levelo_inurba_marseille","lat":43.28665,"lon":5.36355,"is_reserved":false,"is_disabled":false,"rental_uris":{"android":"levelo://app?vid=f368ba6d-57b2-4d5c-bc5c-ada2ec051b6e","ios":"levelo://app?vid=f368ba6d-57b2-4d5c-bc5c-ada2ec051b6e"},"vehicle_type_id":"4","last_reported":1740233255,"current_range_meters":17200,"station_id":"ce4bhah2rcd13ifvqej0","pricing_plan_id":"cebpf4jnsgd1na2vs0mg"},{"bike_id":"5e2bf6ba-aebc-4cb7-87e1-c8de6d900a74","system_id":"levelo_inurba_marseille","lat":43.27491,"lon":5.42463,"is_reserved":false,"is_disabled":false,"rental_uris":{"android":"levelo://app?vid=5e2bf6ba-aebc-4cb7-87e1-c8de6d900a74","ios":"levelo://app?vid=5e2bf6ba-aebc-4cb7-87e1-c8de6d900a74"},"vehicle_type_id":"4","last_reported":1740233255,"current_range_meters":17200,"station_id":"ce4bhn92rcd13ifvqgrg","pricing_plan_id":"cebpf4jnsgd1na2vs0mg"},{"bike_id":"33cc0fcb-f6e1-44bc-9328-d3f75a5791c5","system_id":"levelo_inurba_marseille","lat":43.23185,"lon":5.35562,"is_reserved":false,"is_disabled":false,"rental_uris":{"android":"levelo://app?vid=33cc0fcb-f6e1-44bc-9328-d3f75a5791c5","ios":"levelo://app?vid=33cc0fcb-f6e1-44bc-9328-d3f75a5791c5"},"vehicle_type_id":"4","last_reported":1740233255,"current_range_meters":17200,"station_id":"ce4bhu92rcd13ifvqi70","pricing_plan_id":"cebpf4jnsgd1na2vs0mg"},{"bike_id":"e114ce83-08ec-4256-8ea3-9926c87ba10a","system_id":"levelo_inurba_marseille","lat":43.29988,"lon":5.41321,"is_reserved":false,"is_disabled":false,"rental_uris":{"android":"levelo://app?vid=e114ce83-08ec-4256-8ea3-9926c87ba10a","ios":"levelo://app?vid=e114ce83-08ec-4256-8ea3-9926c87ba10a"},"vehicle_type_id":"4","last_reported":1740233255,"current_range_meters":17600,"station_id":"ce4bhp12rcd13ifvqh9g","pricing_plan_id":"cebpf4jnsgd1na2vs0mg"},{"bike_id":"a95e4bb6-399c-4c92-b58c-b4ae0f936a87","system_id":"levelo_inurba_marseille","lat":43.28369,"lon":5.38626,"is_reserved":false,"is_disabled":false,"rental_uris":{"android":"levelo://app?vid=a95e4bb6-399c-4c92-b58c-b4ae0f936a87","ios":"levelo://app?vid=a95e4bb6-399c-4c92-b58c-b4ae0f936a87"},"vehicle_type_id":"4","last_reported":1740233255,"current_range_meters":18000,"station_id":"ce4bh492rcd13ifvqdvg","pricing_plan_id":"cebpf4jnsgd1na2vs0mg"},{"bike_id":"394437e5-ee41-4ab7-b291-7f25f1ecdd30","system_id":"levelo_inurba_marseille","lat":43.28473,"lon":5.38548,"is_reserved":false,"is_disabled":false,"rental_uris":{"android":"levelo://app?vid=394437e5-ee41-4ab7-b291-7f25f1ecdd30","ios":"levelo://app?vid=394437e5-ee41-4ab7-b291-7f25f1ecdd30"},"vehicle_type_id":"4","last_reported":1740233255,"current_range_meters":18000,"station_id":"ce4bh8p2rcd13ifvqeb0","pricing_plan_id":"cebpf4jnsgd1na2vs0mg"},{"bike_id":"4caf490d-10e5-4073-8dae-a68a285775aa","system_id":"levelo_inurba_marseille","lat":43.244,"lon":5.3705,"is_reserved":false,"is_disabled":false,"rental_uris":{"android":"levelo://app?vid=4caf490d-10e5-4073-8dae-a68a285775aa","ios":"levelo://app?vid=4caf490d-10e5-4073-8dae-a68a285775aa"},"vehicle_type_id":"4","last_reported":1740233255,"current_range_meters":18000,"station_id":"ce4bhhh2rcd13ifvqfk0","pricing_plan_id":"cebpf4jnsgd1na2vs0mg"},{"bike_id":"2b5bd5b0-9c76-44c4-b7c6-e5a46b44435a","system_id":"levelo_inurba_marseille","lat":43.24399,"lon":5.37058,"is_reserved":false,"is_disabled":false,"rental_uris":{"android":"levelo://app?vid=2b5bd5b0-9c76-44c4-b7c6-e5a46b44435a","ios":"levelo://app?vid=2b5bd5b0-9c76-44c4-b7c6-e5a46b44435a"},"vehicle_type_id":"4","last_reported":1740233255,"current_range_meters":18000,"station_id":"ce4bhhh2rcd13ifvqfk0","pricing_plan_id":"cebpf4jnsgd1na2vs0mg"},{"bike_id":"e636832d-d31d-492b-9bcd-b899a106503d","system_id":"levelo_inurba_marseille","lat":43.2417,"lon":5.3639,"is_reserved":false,"is_disabled":false,"rental_uris":{"android":"levelo://app?vid=e636832d-d31d-492b-9bcd-b899a106503d","ios":"levelo://app?vid=e636832d-d31d-492b-9bcd-b899a106503d"},"vehicle_type_id":"4","last_reported":1740233255,"current_range_meters":18000,"station_id":"cpo36qri1sfpv3e86is0","pricing_plan_id":"cebpf4jnsgd1na2vs0mg"},{"bike_id":"70df238e-2623-41c1-ab9f-8a5cc0883a82","system_id":"levelo_inurba_marseille","lat":43.24391,"lon":5.37071,"is_reserved":false,"is_disabled":false,"rental_uris":{"android":"levelo://app?vid=70df238e-2623-41c1-ab9f-8a5cc0883a82","ios":"levelo://app?vid=70df238e-2623-41c1-ab9f-8a5cc0883a82"},"vehicle_type_id":"4","last_reported":1740233255,"current_range_meters":18000,"station_id":"ce4bhhh2rcd13ifvqfk0","pricing_plan_id":"cebpf4jnsgd1na2vs0mg"},{"bike_id":"63a3343c-910e-4904-b1a7-a75ac1dcabd3","system_id":"levelo_inurba_marseille","lat":43.23147,"lon":5.43705,"is_reserved":false,"is_disabled":false,"rental_uris":{"android":"levelo://app?vid=63a3343c-910e-4904-b1a7-a75ac1dcabd3","ios":"levelo://app?vid=63a3343c-910e-4904-b1a7-a75ac1dcabd3"},"vehicle_type_id":"4","last_reported":1740233255,"current_range_meters":18000,"station_id":"ce4bhmp2rcd13ifvqgog","pricing_plan_id":"cebpf4jnsgd1na2vs0mg"},{"bike_id":"e9881abb-8c73-43fb-958c-c9a14669644d","system_id":"levelo_inurba_marseille","lat":43.26976,"lon":5.40337,"is_reserved":false,"is_disabled":false,"rental_uris":{"android":"levelo://app?vid=e9881abb-8c73-43fb-958c-c9a14669644d","ios":"levelo://app?vid=e9881abb-8c73-43fb-958c-c9a14669644d"},"vehicle_type_id":"4","last_reported":1740233255,"current_range_meters":18000,"station_id":"","pricing_plan_id":"cebpf4jnsgd1na2vs0mg"},{"bike_id":"7d4b257a-c60d-48e8-85d7-7dc3f985241e","system_id":"levelo_inurba_marseille","lat":43.29629,"lon":5.38562,"is_reserved":false,"is_disabled":false,"rental_uris":{"android":"levelo://app?vid=7d4b257a-c60d-48e8-85d7-7dc3f985241e","ios":"levelo://app?vid=7d4b257a-c60d-48e8-85d7-7dc3f985241e"},"vehicle_type_id":"4","last_reported":1740233255,"current_range_meters":18000,"station_id":"","pricing_plan_id":"cebpf4jnsgd1na2vs0mg"},{"bike_id":"2172f676-1f61-4abd-ae22-69935dc17115","system_id":"levelo_inurba_marseille","lat":43.31483,"lon":5.37305,"is_reserved":false,"is_disabled":false,"rental_uris":{"android":"levelo://app?vid=2172f676-1f61-4abd-ae22-69935dc17115","ios":"levelo://app?vid=2172f676-1f61-4abd-ae22-69935dc17115"},"vehicle_type_id":"4","last_reported":1740233255,"current_range_meters":18000,"station_id":"ce4bgt12rcd13ifvqcd0","pricing_plan_id":"cebpf4jnsgd1na2vs0mg"},{"bike_id":"2d48a8bd-17d9-4555-911e-74366fcea1d7","system_id":"levelo_inurba_marseille","lat":43.27206,"lon":5.39175,"is_reserved":false,"is_disabled":false,"rental_uris":{"android":"levelo://app?vid=2d48a8bd-17d9-4555-911e-74366fcea1d7","ios":"levelo://app?vid=2d48a8bd-17d9-4555-911e-74366fcea1d7"},"vehicle_type_id":"4","last_reported":1740233255,"current_range_meters":18000,"station_id":"ce4bhhp2rcd13ifvqfm0","pricing_plan_id":"cebpf4jnsgd1na2vs0mg"},{"bike_id":"2afeed4f-250d-45b2-8c55-70dc0e04d025","system_id":"levelo_inurba_marseille","lat":43.29522,"lon":5.39038,"is_reserved":false,"is_disabled":false,"rental_uris":{"android":"levelo://app?vid=2afeed4f-250d-45b2-8c55-70dc0e04d025","ios":"levelo://app?vid=2afeed4f-250d-45b2-8c55-70dc0e04d025"},"vehicle_type_id":"4","last_reported":1740233255,"current_range_meters":18000,"station_id":"ce4bh3p2rcd13ifvqdp0","pricing_plan_id":"cebpf4jnsgd1na2vs0mg"},{"bike_id":"cc48834a-9bca-482b-ba90-7f71b6564562","system_id":"levelo_inurba_marseille","lat":43.31181,"lon":5.38717,"is_reserved":false,"is_disabled":false,"rental_uris":{"android":"levelo://app?vid=cc48834a-9bca-482b-ba90-7f71b6564562","ios":"levelo://app?vid=cc48834a-9bca-482b-ba90-7f71b6564562"},"vehicle_type_id":"4","last_reported":1740233255,"current_range_meters":18800,"station_id":"ce4bgv12rcd13ifvqcp0","pricing_plan_id":"cebpf4jnsgd1na2vs0mg"},{"bike_id":"c4a3f5dd-b8d8-4d73-8a8f-ea8b0e26e290","system_id":"levelo_inurba_marseille","lat":43.29976,"lon":5.41317,"is_reserved":false,"is_disabled":false,"rental_uris":{"android":"levelo://app?vid=c4a3f5dd-b8d8-4d73-8a8f-ea8b0e26e290","ios":"levelo://app?vid=c4a3f5dd-b8d8-4d73-8a8f-ea8b0e26e290"},"vehicle_type_id":"4","last_reported":1740233255,"current_range_meters":18800,"station_id":"ce4bhp12rcd13ifvqh9g","pricing_plan_id":"cebpf4jnsgd1na2vs0mg"},{"bike_id":"32fa3d90-5c3b-41f1-9e6d-619f7704d141","system_id":"levelo_inurba_marseille","lat":43.30639,"lon":5.40082,"is_reserved":false,"is_disabled":false,"rental_uris":{"android":"levelo://app?vid=32fa3d90-5c3b-41f1-9e6d-619f7704d141","ios":"levelo://app?vid=32fa3d90-5c3b-41f1-9e6d-619f7704d141"},"vehicle_type_id":"4","last_reported":1740233255,"current_range_meters":18800,"station_id":"ce4bh112rcd13ifvqda0","pricing_plan_id":"cebpf4jnsgd1na2vs0mg"},{"bike_id":"807a8628-e765-4190-bc7c-c2448178fb7e","system_id":"levelo_inurba_marseille","lat":43.27371,"lon":5.36258,"is_reserved":false,"is_disabled":false,"rental_uris":{"android":"levelo://app?vid=807a8628-e765-4190-bc7c-c2448178fb7e","ios":"levelo://app?vid=807a8628-e765-4190-bc7c-c2448178fb7e"},"vehicle_type_id":"4","last_reported":1740233255,"current_range_meters":18800,"station_id":"ce4bhbh2rcd13ifvqeo0","pricing_plan_id":"cebpf4jnsgd1na2vs0mg"},{"bike_id":"277246bf-4684-46ed-a3d3-cbac2e14806a","system_id":"levelo_inurba_marseille","lat":43.28411,"lon":5.3751,"is_reserved":false,"is_disabled":false,"rental_uris":{"android":"levelo://app?vid=277246bf-4684-46ed-a3d3-cbac2e14806a","ios":"levelo://app?vid=277246bf-4684-46ed-a3d3-cbac2e14806a"},"vehicle_type_id":"4","last_reported":1740233255,"current_range_meters":18800,"station_id":"ce4bh412rcd13ifvqds0","pricing_plan_id":"cebpf4jnsgd1na2vs0mg"},{"bike_id":"854b8f8b-8ef9-4508-89ac-3c2423c9e1bf","system_id":"levelo_inurba_marseille","lat":43.2306,"lon":5.35495,"is_reserved":false,"is_disabled":false,"rental_uris":{"android":"levelo://app?vid=854b8f8b-8ef9-4508-89ac-3c2423c9e1bf","ios":"levelo://app?vid=854b8f8b-8ef9-4508-89ac-3c2423c9e1bf"},"vehicle_type_id":"4","last_reported":1740233255,"current_range_meters":18800,"station_id":"cpo3342slgdg3j2ifvpg","pricing_plan_id":"cebpf4jnsgd1na2vs0mg"},{"bike_id":"80e30e07-59ff-4807-b06b-c6dc1a9e08e2","system_id":"levelo_inurba_marseille","lat":43.33609,"lon":5.4102,"is_reserved":false,"is_disabled":true,"rental_uris":{"android":"levelo://app?vid=80e30e07-59ff-4807-b06b-c6dc1a9e08e2","ios":"levelo://app?vid=80e30e07-59ff-4807-b06b-c6dc1a9e08e2"},"vehicle_type_id":"4","last_reported":1740233255,"current_range_meters":19200,"station_id":"ce4bhqh2rcd13ifvqhmg","pricing_plan_id":"cebpf4jnsgd1na2vs0mg"},{"bike_id":"8b6a98b1-b494-4060-b000-20a7e9c0b8cf","system_id":"levelo_inurba_marseille","lat":43.22935,"lon":5.35383,"is_reserved":false,"is_disabled":false,"rental_uris":{"android":"levelo://app?vid=8b6a98b1-b494-4060-b000-20a7e9c0b8cf","ios":"levelo://app?vid=8b6a98b1-b494-4060-b000-20a7e9c0b8cf"},"vehicle_type_id":"4","last_reported":1740233255,"current_range_meters":19200,"station_id":"cpo3532slgdg3j2ikp40","pricing_plan_id":"cebpf4jnsgd1na2vs0mg"},{"bike_id":"9aa26d2d-aa05-476a-8861-08b1e2e912d6","system_id":"levelo_inurba_marseille","lat":43.31376,"lon":5.38513,"is_reserved":false,"is_disabled":false,"rental_uris":{"android":"levelo://app?vid=9aa26d2d-aa05-476a-8861-08b1e2e912d6","ios":"levelo://app?vid=9aa26d2d-aa05-476a-8861-08b1e2e912d6"},"vehicle_type_id":"4","last_reported":1740233255,"current_range_meters":19200,"station_id":"ce4bgt92rcd13ifvqcf0","pricing_plan_id":"cebpf4jnsgd1na2vs0mg"},{"bike_id":"9faf844a-413f-419f-bdea-64830f7f2bfb","system_id":"levelo_inurba_marseille","lat":43.29888,"lon":5.37918,"is_reserved":false,"is_disabled":false,"rental_uris":{"android":"levelo://app?vid=9faf844a-413f-419f-bdea-64830f7f2bfb","ios":"levelo://app?vid=9faf844a-413f-419f-bdea-64830f7f2bfb"},"vehicle_type_id":"4","last_reported":1740233255,"current_range_meters":19200,"station_id":"","pricing_plan_id":"cebpf4jnsgd1na2vs0mg"},{"bike_id":"e0c5ecc6-873e-4474-8bee-7f09e9374963","system_id":"levelo_inurba_marseille","lat":43.31714,"lon":5.43705,"is_reserved":false,"is_disabled":false,"rental_uris":{"android":"levelo://app?vid=e0c5ecc6-873e-4474-8bee-7f09e9374963","ios":"levelo://app?vid=e0c5ecc6-873e-4474-8bee-7f09e9374963"},"vehicle_type_id":"4","last_reported":1740233255,"current_range_meters":18800,"station_id":"ce4bhp92rcd13ifvqhcg","pricing_plan_id":"cebpf4jnsgd1na2vs0mg"},{"bike_id":"ceadee61-f043-4a2d-8be0-14c8d26fe957","system_id":"levelo_inurba_marseille","lat":43.2737,"lon":5.3626,"is_reserved":false,"is_disabled":false,"rental_uris":{"android":"levelo://app?vid=ceadee61-f043-4a2d-8be0-14c8d26fe957","ios":"levelo://app?vid=ceadee61-f043-4a2d-8be0-14c8d26fe957"},"vehicle_type_id":"4","last_reported":1740233255,"current_range_meters":19200,"station_id":"ce4bhbh2rcd13ifvqeo0","pricing_plan_id":"cebpf4jnsgd1na2vs0mg"},{"bike_id":"f7020ed2-526f-4824-ba23-1cb93e83b444","system_id":"levelo_inurba_marseille","lat":43.25,"lon":5.3892,"is_reserved":false,"is_disabled":false,"rental_uris":{"android":"levelo://app?vid=f7020ed2-526f-4824-ba23-1cb93e83b444","ios":"levelo://app?vid=f7020ed2-526f-4824-ba23-1cb93e83b444"},"vehicle_type_id":"4","last_reported":1740233255,"current_range_meters":19200,"station_id":"ce4bhgp2rcd13ifvqfd0","pricing_plan_id":"cebpf4jnsgd1na2vs0mg"},{"bike_id":"7edad6f1-bb02-4747-8467-5494540e990b","system_id":"levelo_inurba_marseille","lat":43.25015,"lon":5.38909,"is_reserved":false,"is_disabled":false,"rental_uris":{"android":"levelo://app?vid=7edad6f1-bb02-4747-8467-5494540e990b","ios":"levelo://app?vid=7edad6f1-bb02-4747-8467-5494540e990b"},"vehicle_type_id":"4","last_reported":1740233255,"current_range_meters":19200,"station_id":"ce4bhgp2rcd13ifvqfd0","pricing_plan_id":"cebpf4jnsgd1na2vs0mg"},{"bike_id":"2b29236b-d3f9-4091-b5e3-481e633b64d0","system_id":"levelo_inurba_marseille","lat":43.28614,"lon":5.35102,"is_reserved":false,"is_disabled":false,"rental_uris":{"android":"levelo://app?vid=2b29236b-d3f9-4091-b5e3-481e633b64d0","ios":"levelo://app?vid=2b29236b-d3f9-4091-b5e3-481e633b64d0"},"vehicle_type_id":"4","last_reported":1740233255,"current_range_meters":19200,"station_id":"ce4bhch2rcd13ifvqeug","pricing_plan_id":"cebpf4jnsgd1na2vs0mg"},{"bike_id":"47c58b1f-0f04-4a95-ba73-4d794abee5f2","system_id":"levelo_inurba_marseille","lat":43.30455,"lon":5.38893,"is_reserved":false,"is_disabled":true,"rental_uris":{"android":"levelo://app?vid=47c58b1f-0f04-4a95-ba73-4d794abee5f2","ios":"levelo://app?vid=47c58b1f-0f04-4a95-ba73-4d794abee5f2"},"vehicle_type_id":"4","last_reported":1740233255,"current_range_meters":19600,"station_id":"ce4bgk12rcd13ifvqbi0","pricing_plan_id":"cebpf4jnsgd1na2vs0mg"},{"bike_id":"f8246d62-7b34-4e7a-94b9-fb5f6e7455c2","system_id":"levelo_inurba_marseille","lat":43.30095,"lon":5.39065,"is_reserved":false,"is_disabled":false,"rental_uris":{"android":"levelo://app?vid=f8246d62-7b34-4e7a-94b9-fb5f6e7455c2","ios":"levelo://app?vid=f8246d62-7b34-4e7a-94b9-fb5f6e7455c2"},"vehicle_type_id":"4","last_reported":1740233255,"current_range_meters":19600,"station_id":"ce4bh192rcd13ifvqdb0","pricing_plan_id":"cebpf4jnsgd1na2vs0mg"},{"bike_id":"de81591b-6e66-45cd-ac7e-e72f16bc7a0f","system_id":"levelo_inurba_marseille","lat":43.29583,"lon":5.3774,"is_reserved":false,"is_disabled":false,"rental_uris":{"android":"levelo://app?vid=de81591b-6e66-45cd-ac7e-e72f16bc7a0f","ios":"levelo://app?vid=de81591b-6e66-45cd-ac7e-e72f16bc7a0f"},"vehicle_type_id":"4","last_reported":1740233255,"current_range_meters":19600,"station_id":"","pricing_plan_id":"cebpf4jnsgd1na2vs0mg"},{"bike_id":"1580afec-ebca-41ca-a520-3082749a5f7d","system_id":"levelo_inurba_marseille","lat":43.29903,"lon":5.38139,"is_reserved":false,"is_disabled":false,"rental_uris":{"android":"levelo://app?vid=1580afec-ebca-41ca-a520-3082749a5f7d","ios":"levelo://app?vid=1580afec-ebca-41ca-a520-3082749a5f7d"},"vehicle_type_id":"4","last_reported":1740233255,"current_range_meters":19600,"station_id":"ce4bgj12rcd13ifvqbc0","pricing_plan_id":"cebpf4jnsgd1na2vs0mg"},{"bike_id":"05e9dd79-31a4-4d51-b858-da4f2933c72b","system_id":"levelo_inurba_marseille","lat":43.28677,"lon":5.38654,"is_reserved":false,"is_disabled":false,"rental_uris":{"android":"levelo://app?vid=05e9dd79-31a4-4d51-b858-da4f2933c72b","ios":"levelo://app?vid=05e9dd79-31a4-4d51-b858-da4f2933c72b"},"vehicle_type_id":"4","last_reported":1740233255,"current_range_meters":19600,"station_id":"ce4bh492rcd13ifvqdug","pricing_plan_id":"cebpf4jnsgd1na2vs0mg"},{"bike_id":"f286271b-6d85-4631-970d-4e33869d99f0","system_id":"levelo_inurba_marseille","lat":43.23145,"lon":5.43705,"is_reserved":false,"is_disabled":false,"rental_uris":{"android":"levelo://app?vid=f286271b-6d85-4631-970d-4e33869d99f0","ios":"levelo://app?vid=f286271b-6d85-4631-970d-4e33869d99f0"},"vehicle_type_id":"4","last_reported":1740233255,"current_range_meters":19600,"station_id":"ce4bhmp2rcd13ifvqgog","pricing_plan_id":"cebpf4jnsgd1na2vs0mg"},{"bike_id":"5af54b69-3f7f-4035-bbdf-ad7b0fbe8c8c","system_id":"levelo_inurba_marseille","lat":43.27462,"lon":5.39416,"is_reserved":false,"is_disabled":false,"rental_uris":{"android":"levelo://app?vid=5af54b69-3f7f-4035-bbdf-ad7b0fbe8c8c","ios":"levelo://app?vid=5af54b69-3f7f-4035-bbdf-ad7b0fbe8c8c"},"vehicle_type_id":"4","last_reported":1740233255,"current_range_meters":19600,"station_id":"ce4bhdp2rcd13ifvqf20","pricing_plan_id":"cebpf4jnsgd1na2vs0mg"},{"bike_id":"aa47d3bd-a28d-4967-937e-90acbcb3a600","system_id":"levelo_inurba_marseille","lat":43.2315,"lon":5.43714,"is_reserved":false,"is_disabled":false,"rental_uris":{"android":"levelo://app?vid=aa47d3bd-a28d-4967-937e-90acbcb3a600","ios":"levelo://app?vid=aa47d3bd-a28d-4967-937e-90acbcb3a600"},"vehicle_type_id":"4","last_reported":1740233255,"current_range_meters":19600,"station_id":"ce4bhmp2rcd13ifvqgog","pricing_plan_id":"cebpf4jnsgd1na2vs0mg"},{"bike_id":"a0c4f69f-70ef-42bd-b80b-a7978c40e5c8","system_id":"levelo_inurba_marseille","lat":43.23063,"lon":5.35495,"is_reserved":false,"is_disabled":false,"rental_uris":{"android":"levelo://app?vid=a0c4f69f-70ef-42bd-b80b-a7978c40e5c8","ios":"levelo://app?vid=a0c4f69f-70ef-42bd-b80b-a7978c40e5c8"},"vehicle_type_id":"4","last_reported":1740233255,"current_range_meters":19600,"station_id":"cpo3342slgdg3j2ifvpg","pricing_plan_id":"cebpf4jnsgd1na2vs0mg"},{"bike_id":"8814187a-467f-4d17-9736-fc6d62a15fc6","system_id":"levelo_inurba_marseille","lat":43.29186,"lon":5.39304,"is_reserved":false,"is_disabled":false,"rental_uris":{"android":"levelo://app?vid=8814187a-467f-4d17-9736-fc6d62a15fc6","ios":"levelo://app?vid=8814187a-467f-4d17-9736-fc6d62a15fc6"},"vehicle_type_id":"4","last_reported":1740233255,"current_range_meters":20000,"station_id":"ce4bh192rcd13ifvqdd0","pricing_plan_id":"cebpf4jnsgd1na2vs0mg"},{"bike_id":"0c27e350-006d-4df5-b42a-c7132a309f59","system_id":"levelo_inurba_marseille","lat":43.29881,"lon":5.38906,"is_reserved":false,"is_disabled":false,"rental_uris":{"android":"levelo://app?vid=0c27e350-006d-4df5-b42a-c7132a309f59","ios":"levelo://app?vid=0c27e350-006d-4df5-b42a-c7132a309f59"},"vehicle_type_id":"4","last_reported":1740233255,"current_range_meters":19600,"station_id":"ce4bh392rcd13ifvqdl0","pricing_plan_id":"cebpf4jnsgd1na2vs0mg"},{"bike_id":"94d1aeb1-5841-4949-870c-0e954c953c1d","system_id":"levelo_inurba_marseille","lat":43.28843,"lon":5.39331,"is_reserved":false,"is_disabled":false,"rental_uris":{"android":"levelo://app?vid=94d1aeb1-5841-4949-870c-0e954c953c1d","ios":"levelo://app?vid=94d1aeb1-5841-4949-870c-0e954c953c1d"},"vehicle_type_id":"4","last_reported":1740233255,"current_range_meters":20000,"station_id":"ce4bh2p2rcd13ifvqdi0","pricing_plan_id":"cebpf4jnsgd1na2vs0mg"},{"bike_id":"0f40208a-8450-4edd-8c30-fc698c9dd8e1","system_id":"levelo_inurba_marseille","lat":43.29608,"lon":5.38073,"is_reserved":false,"is_disabled":true,"rental_uris":{"android":"levelo://app?vid=0f40208a-8450-4edd-8c30-fc698c9dd8e1","ios":"levelo://app?vid=0f40208a-8450-4edd-8c30-fc698c9dd8e1"},"vehicle_type_id":"4","last_reported":1740233255,"current_range_meters":20000,"station_id":"ce4bgl12rcd13ifvqbo0","pricing_plan_id":"cebpf4jnsgd1na2vs0mg"},{"bike_id":"76c529dc-b869-445e-ab39-91444e0b2537","system_id":"levelo_inurba_marseille","lat":43.26954,"lon":5.386257,"is_reserved":false,"is_disabled":false,"rental_uris":{"android":"levelo://app?vid=76c529dc-b869-445e-ab39-91444e0b2537","ios":"levelo://app?vid=76c529dc-b869-445e-ab39-91444e0b2537"},"vehicle_type_id":"4","last_reported":1740233255,"current_range_meters":20000,"station_id":"ce4bhh92rcd13ifvqfh0","pricing_plan_id":"cebpf4jnsgd1na2vs0mg"},{"bike_id":"6d6a30a8-2614-4fb4-aeda-2b697d6d1406","system_id":"levelo_inurba_marseille","lat":43.23161,"lon":5.43698,"is_reserved":false,"is_disabled":false,"rental_uris":{"android":"levelo://app?vid=6d6a30a8-2614-4fb4-aeda-2b697d6d1406","ios":"levelo://app?vid=6d6a30a8-2614-4fb4-aeda-2b697d6d1406"},"vehicle_type_id":"4","last_reported":1740233255,"current_range_meters":20000,"station_id":"ce4bhmp2rcd13ifvqgog","pricing_plan_id":"cebpf4jnsgd1na2vs0mg"},{"bike_id":"48a25272-842c-4e4f-b72a-72e6d311f530","system_id":"levelo_inurba_marseille","lat":43.231511,"lon":5.437179,"is_reserved":false,"is_disabled":false,"rental_uris":{"android":"levelo://app?vid=48a25272-842c-4e4f-b72a-72e6d311f530","ios":"levelo://app?vid=48a25272-842c-4e4f-b72a-72e6d311f530"},"vehicle_type_id":"4","last_reported":1740233255,"current_range_meters":20000,"station_id":"ce4bhmp2rcd13ifvqgog","pricing_plan_id":"cebpf4jnsgd1na2vs0mg"},{"bike_id":"e672cd00-72b0-400a-8535-9ab04e4611c6","system_id":"levelo_inurba_marseille","lat":43.243873,"lon":5.3706,"is_reserved":false,"is_disabled":false,"rental_uris":{"android":"levelo://app?vid=e672cd00-72b0-400a-8535-9ab04e4611c6","ios":"levelo://app?vid=e672cd00-72b0-400a-8535-9ab04e4611c6"},"vehicle_type_id":"4","last_reported":1740233255,"current_range_meters":20000,"station_id":"ce4bhhh2rcd13ifvqfk0","pricing_plan_id":"cebpf4jnsgd1na2vs0mg"},{"bike_id":"8a8152df-e4f3-4027-9f47-6deb7c85f05c","system_id":"levelo_inurba_marseille","lat":43.29738,"lon":5.3769,"is_reserved":false,"is_disabled":false,"rental_uris":{"android":"levelo://app?vid=8a8152df-e4f3-4027-9f47-6deb7c85f05c","ios":"levelo://app?vid=8a8152df-e4f3-4027-9f47-6deb7c85f05c"},"vehicle_type_id":"4","last_reported":1740233255,"current_range_meters":20000,"station_id":"ce4bgkh2rcd13ifvqbl0","pricing_plan_id":"cebpf4jnsgd1na2vs0mg"},{"bike_id":"45ee8636-c1a1-43ce-bcaf-3e680f65f46f","system_id":"levelo_inurba_marseille","lat":43.28037,"lon":5.36939,"is_reserved":false,"is_disabled":false,"rental_uris":{"android":"levelo://app?vid=45ee8636-c1a1-43ce-bcaf-3e680f65f46f","ios":"levelo://app?vid=45ee8636-c1a1-43ce-bcaf-3e680f65f46f"},"vehicle_type_id":"4","last_reported":1740233255,"current_range_meters":20000,"station_id":"ce4bha12rcd13ifvqef0","pricing_plan_id":"cebpf4jnsgd1na2vs0mg"},{"bike_id":"9124b5d9-ccc5-4354-80b3-66041d66d025","system_id":"levelo_inurba_marseille","lat":43.28485,"lon":5.38414,"is_reserved":false,"is_disabled":false,"rental_uris":{"android":"levelo://app?vid=9124b5d9-ccc5-4354-80b3-66041d66d025","ios":"levelo://app?vid=9124b5d9-ccc5-4354-80b3-66041d66d025"},"vehicle_type_id":"4","last_reported":1740233255,"current_range_meters":20000,"station_id":"ce4bh512rcd13ifvqe3g","pricing_plan_id":"cebpf4jnsgd1na2vs0mg"},{"bike_id":"3f86b6a8-ed5b-424a-b898-7b76523bb746","system_id":"levelo_inurba_marseille","lat":43.29778,"lon":5.39336,"is_reserved":false,"is_disabled":false,"rental_uris":{"android":"levelo://app?vid=3f86b6a8-ed5b-424a-b898-7b76523bb746","ios":"levelo://app?vid=3f86b6a8-ed5b-424a-b898-7b76523bb746"},"vehicle_type_id":"4","last_reported":1740233255,"current_range_meters":20000,"station_id":"chh1huq6cuj3fo74tm60","pricing_plan_id":"cebpf4jnsgd1na2vs0mg"},{"bike_id":"574b28cf-abd6-430b-9b87-02dd048d268f","system_id":"levelo_inurba_marseille","lat":43.27058,"lon":5.40261,"is_reserved":false,"is_disabled":false,"rental_uris":{"android":"levelo://app?vid=574b28cf-abd6-430b-9b87-02dd048d268f","ios":"levelo://app?vid=574b28cf-abd6-430b-9b87-02dd048d268f"},"vehicle_type_id":"4","last_reported":1740233255,"current_range_meters":20400,"station_id":"ce4bhk92rcd13ifvqgc0","pricing_plan_id":"cebpf4jnsgd1na2vs0mg"},{"bike_id":"7570de5a-9e3e-43dc-8a9c-f23880bfe65a","system_id":"levelo_inurba_marseille","lat":43.30146,"lon":5.38069,"is_reserved":false,"is_disabled":false,"rental_uris":{"android":"levelo://app?vid=7570de5a-9e3e-43dc-8a9c-f23880bfe65a","ios":"levelo://app?vid=7570de5a-9e3e-43dc-8a9c-f23880bfe65a"},"vehicle_type_id":"4","last_reported":1740233255,"current_range_meters":20400,"station_id":"ce4bgjp2rcd13ifvqbh0","pricing_plan_id":"cebpf4jnsgd1na2vs0mg"},{"bike_id":"7f6a49ad-1e87-43e4-8833-09174604d668","system_id":"levelo_inurba_marseille","lat":43.27058,"lon":5.42291,"is_reserved":false,"is_disabled":false,"rental_uris":{"android":"levelo://app?vid=7f6a49ad-1e87-43e4-8833-09174604d668","ios":"levelo://app?vid=7f6a49ad-1e87-43e4-8833-09174604d668"},"vehicle_type_id":"4","last_reported":1740233255,"current_range_meters":20400,"station_id":"ce4bhk92rcd13ifvqgb0","pricing_plan_id":"cebpf4jnsgd1na2vs0mg"},{"bike_id":"61f7c20e-efd3-425d-ac42-8063446a30f6","system_id":"levelo_inurba_marseille","lat":43.29922,"lon":5.37478,"is_reserved":false,"is_disabled":false,"rental_uris":{"android":"levelo://app?vid=61f7c20e-efd3-425d-ac42-8063446a30f6","ios":"levelo://app?vid=61f7c20e-efd3-425d-ac42-8063446a30f6"},"vehicle_type_id":"4","last_reported":1740233255,"current_range_meters":20400,"station_id":"ce4bgjh2rcd13ifvqbg0","pricing_plan_id":"cebpf4jnsgd1na2vs0mg"},{"bike_id":"0c1b53ab-3072-400a-8ae0-6b6cf23e96c7","system_id":"levelo_inurba_marseille","lat":43.273712,"lon":5.362594,"is_reserved":false,"is_disabled":false,"rental_uris":{"android":"levelo://app?vid=0c1b53ab-3072-400a-8ae0-6b6cf23e96c7","ios":"levelo://app?vid=0c1b53ab-3072-400a-8ae0-6b6cf23e96c7"},"vehicle_type_id":"4","last_reported":1740233255,"current_range_meters":20400,"station_id":"ce4bhbh2rcd13ifvqeo0","pricing_plan_id":"cebpf4jnsgd1na2vs0mg"},{"bike_id":"127a22bf-07c9-4aa0-9afd-e09bcafeaa9b","system_id":"levelo_inurba_marseille","lat":43.28342,"lon":5.38116,"is_reserved":false,"is_disabled":false,"rental_uris":{"android":"levelo://app?vid=127a22bf-07c9-4aa0-9afd-e09bcafeaa9b","ios":"levelo://app?vid=127a22bf-07c9-4aa0-9afd-e09bcafeaa9b"},"vehicle_type_id":"4","last_reported":1740233255,"current_range_meters":20400,"station_id":"ce4bh412rcd13ifvqdr0","pricing_plan_id":"cebpf4jnsgd1na2vs0mg"},{"bike_id":"67346e7a-cd42-4573-81fd-053851dbcf28","system_id":"levelo_inurba_marseille","lat":43.27204,"lon":5.3918,"is_reserved":false,"is_disabled":false,"rental_uris":{"android":"levelo://app?vid=67346e7a-cd42-4573-81fd-053851dbcf28","ios":"levelo://app?vid=67346e7a-cd42-4573-81fd-053851dbcf28"},"vehicle_type_id":"4","last_reported":1740233255,"current_range_meters":20800,"station_id":"ce4bhhp2rcd13ifvqfm0","pricing_plan_id":"cebpf4jnsgd1na2vs0mg"},{"bike_id":"80191f18-2fd8-4532-8e62-a71533eea297","system_id":"levelo_inurba_marseille","lat":43.22927,"lon":5.35375,"is_reserved":false,"is_disabled":false,"rental_uris":{"android":"levelo://app?vid=80191f18-2fd8-4532-8e62-a71533eea297","ios":"levelo://app?vid=80191f18-2fd8-4532-8e62-a71533eea297"},"vehicle_type_id":"4","last_reported":1740233255,"current_range_meters":20800,"station_id":"cpo3532slgdg3j2ikp40","pricing_plan_id":"cebpf4jnsgd1na2vs0mg"},{"bike_id":"c085e3d1-8899-4469-8f49-bf5835ea27b2","system_id":"levelo_inurba_marseille","lat":43.29005,"lon":5.35608,"is_reserved":false,"is_disabled":false,"rental_uris":{"android":"levelo://app?vid=c085e3d1-8899-4469-8f49-bf5835ea27b2","ios":"levelo://app?vid=c085e3d1-8899-4469-8f49-bf5835ea27b2"},"vehicle_type_id":"4","last_reported":1740233255,"current_range_meters":20400,"station_id":"ce4bhb92rcd13ifvqen0","pricing_plan_id":"cebpf4jnsgd1na2vs0mg"},{"bike_id":"a377187c-a270-4bbf-96cc-ea6c01c772e1","system_id":"levelo_inurba_marseille","lat":43.28138,"lon":5.42633,"is_reserved":false,"is_disabled":false,"rental_uris":{"android":"levelo://app?vid=a377187c-a270-4bbf-96cc-ea6c01c772e1","ios":"levelo://app?vid=a377187c-a270-4bbf-96cc-ea6c01c772e1"},"vehicle_type_id":"4","last_reported":1740233255,"current_range_meters":21600,"station_id":"ce4bhnh2rcd13ifvqgug","pricing_plan_id":"cebpf4jnsgd1na2vs0mg"},{"bike_id":"08d14310-3418-47f2-9c5d-63abf2241951","system_id":"levelo_inurba_marseille","lat":43.29602,"lon":5.381,"is_reserved":false,"is_disabled":false,"rental_uris":{"android":"levelo://app?vid=08d14310-3418-47f2-9c5d-63abf2241951","ios":"levelo://app?vid=08d14310-3418-47f2-9c5d-63abf2241951"},"vehicle_type_id":"4","last_reported":1740233255,"current_range_meters":21600,"station_id":"ce4bgl12rcd13ifvqbo0","pricing_plan_id":"cebpf4jnsgd1na2vs0mg"},{"bike_id":"0ab8f8c4-7aa8-4128-a2cd-ff233900785f","system_id":"levelo_inurba_marseille","lat":43.30549,"lon":5.37155,"is_reserved":false,"is_disabled":false,"rental_uris":{"android":"levelo://app?vid=0ab8f8c4-7aa8-4128-a2cd-ff233900785f","ios":"levelo://app?vid=0ab8f8c4-7aa8-4128-a2cd-ff233900785f"},"vehicle_type_id":"4","last_reported":1740233255,"current_range_meters":21600,"station_id":"ce4bgqh2rcd13ifvqc4g","pricing_plan_id":"cebpf4jnsgd1na2vs0mg"},{"bike_id":"578f370a-fcb0-4d18-9da5-94a4dcd3d7e5","system_id":"levelo_inurba_marseille","lat":43.30779,"lon":5.3765,"is_reserved":false,"is_disabled":false,"rental_uris":{"android":"levelo://app?vid=578f370a-fcb0-4d18-9da5-94a4dcd3d7e5","ios":"levelo://app?vid=578f370a-fcb0-4d18-9da5-94a4dcd3d7e5"},"vehicle_type_id":"4","last_reported":1740233255,"current_range_meters":20800,"station_id":"ce4bgv92rcd13ifvqcq0","pricing_plan_id":"cebpf4jnsgd1na2vs0mg"},{"bike_id":"878eeab7-85f8-4b35-af45-e333465941cd","system_id":"levelo_inurba_marseille","lat":43.27233,"lon":5.39156,"is_reserved":false,"is_disabled":false,"rental_uris":{"android":"levelo://app?vid=878eeab7-85f8-4b35-af45-e333465941cd","ios":"levelo://app?vid=878eeab7-85f8-4b35-af45-e333465941cd"},"vehicle_type_id":"4","last_reported":1740233255,"current_range_meters":21600,"station_id":"ce4bhhp2rcd13ifvqfm0","pricing_plan_id":"cebpf4jnsgd1na2vs0mg"},{"bike_id":"07946dcb-4151-41c8-ad99-9adc1bb41b8d","system_id":"levelo_inurba_marseille","lat":43.28661,"lon":5.36335,"is_reserved":false,"is_disabled":false,"rental_uris":{"android":"levelo://app?vid=07946dcb-4151-41c8-ad99-9adc1bb41b8d","ios":"levelo://app?vid=07946dcb-4151-41c8-ad99-9adc1bb41b8d"},"vehicle_type_id":"4","last_reported":1740233255,"current_range_meters":21600,"station_id":"ce4bhah2rcd13ifvqej0","pricing_plan_id":"cebpf4jnsgd1na2vs0mg"},{"bike_id":"27d812ca-258f-4023-8e7a-e287d89d3d63","system_id":"levelo_inurba_marseille","lat":43.27373,"lon":5.36255,"is_reserved":false,"is_disabled":false,"rental_uris":{"android":"levelo://app?vid=27d812ca-258f-4023-8e7a-e287d89d3d63","ios":"levelo://app?vid=27d812ca-258f-4023-8e7a-e287d89d3d63"},"vehicle_type_id":"4","last_reported":1740233255,"current_range_meters":21600,"station_id":"ce4bhbh2rcd13ifvqeo0","pricing_plan_id":"cebpf4jnsgd1na2vs0mg"},{"bike_id":"073518a5-4dc0-447e-9477-a67f73b2a5a2","system_id":"levelo_inurba_marseille","lat":43.32358,"lon":5.36757,"is_reserved":false,"is_disabled":false,"rental_uris":{"android":"levelo://app?vid=073518a5-4dc0-447e-9477-a67f73b2a5a2","ios":"levelo://app?vid=073518a5-4dc0-447e-9477-a67f73b2a5a2"},"vehicle_type_id":"4","last_reported":1740233255,"current_range_meters":21600,"station_id":"ce4bhsh2rcd13ifvqi2g","pricing_plan_id":"cebpf4jnsgd1na2vs0mg"},{"bike_id":"4a9de70e-a635-49a5-9fae-80ca103b8a27","system_id":"levelo_inurba_marseille","lat":43.28927,"lon":5.38399,"is_reserved":false,"is_disabled":false,"rental_uris":{"android":"levelo://app?vid=4a9de70e-a635-49a5-9fae-80ca103b8a27","ios":"levelo://app?vid=4a9de70e-a635-49a5-9fae-80ca103b8a27"},"vehicle_type_id":"4","last_reported":1740233255,"current_range_meters":21600,"station_id":"ce4bh612rcd13ifvqe6g","pricing_plan_id":"cebpf4jnsgd1na2vs0mg"},{"bike_id":"826f97c4-8e0e-4608-8730-9a75715cfbab","system_id":"levelo_inurba_marseille","lat":43.26577,"lon":5.39038,"is_reserved":false,"is_disabled":false,"rental_uris":{"android":"levelo://app?vid=826f97c4-8e0e-4608-8730-9a75715cfbab","ios":"levelo://app?vid=826f97c4-8e0e-4608-8730-9a75715cfbab"},"vehicle_type_id":"4","last_reported":1740233255,"current_range_meters":22000,"station_id":"ce4bhe12rcd13ifvqf30","pricing_plan_id":"cebpf4jnsgd1na2vs0mg"},{"bike_id":"fe762359-f079-45f2-9a7b-54ccb7fef01e","system_id":"levelo_inurba_marseille","lat":43.2723,"lon":5.39187,"is_reserved":false,"is_disabled":false,"rental_uris":{"android":"levelo://app?vid=fe762359-f079-45f2-9a7b-54ccb7fef01e","ios":"levelo://app?vid=fe762359-f079-45f2-9a7b-54ccb7fef01e"},"vehicle_type_id":"4","last_reported":1740233255,"current_range_meters":22000,"station_id":"ce4bhhp2rcd13ifvqfm0","pricing_plan_id":"cebpf4jnsgd1na2vs0mg"},{"bike_id":"8e5d8ee8-3ab6-431c-8183-aaf067d6c91b","system_id":"levelo_inurba_marseille","lat":43.25002,"lon":5.38914,"is_reserved":false,"is_disabled":false,"rental_uris":{"android":"levelo://app?vid=8e5d8ee8-3ab6-431c-8183-aaf067d6c91b","ios":"levelo://app?vid=8e5d8ee8-3ab6-431c-8183-aaf067d6c91b"},"vehicle_type_id":"4","last_reported":1740233255,"current_range_meters":22000,"station_id":"ce4bhgp2rcd13ifvqfd0","pricing_plan_id":"cebpf4jnsgd1na2vs0mg"},{"bike_id":"87c93845-143c-4613-9a0d-08836448a26d","system_id":"levelo_inurba_marseille","lat":43.239582,"lon":5.366191,"is_reserved":false,"is_disabled":false,"rental_uris":{"android":"levelo://app?vid=87c93845-143c-4613-9a0d-08836448a26d","ios":"levelo://app?vid=87c93845-143c-4613-9a0d-08836448a26d"},"vehicle_type_id":"4","last_reported":1740233255,"current_range_meters":22000,"station_id":"ce4bhi12rcd13ifvqfp0","pricing_plan_id":"cebpf4jnsgd1na2vs0mg"},{"bike_id":"f02bf44b-ca05-4b52-b2c4-e09972eb3ee8","system_id":"levelo_inurba_marseille","lat":43.31753,"lon":5.3901,"is_reserved":false,"is_disabled":false,"rental_uris":{"android":"levelo://app?vid=f02bf44b-ca05-4b52-b2c4-e09972eb3ee8","ios":"levelo://app?vid=f02bf44b-ca05-4b52-b2c4-e09972eb3ee8"},"vehicle_type_id":"4","last_reported":1740233255,"current_range_meters":22000,"station_id":"ce4bhqp2rcd13ifvqhng","pricing_plan_id":"cebpf4jnsgd1na2vs0mg"},{"bike_id":"b760e275-638f-4092-a643-8fbe6c8f2fce","system_id":"levelo_inurba_marseille","lat":43.28277,"lon":5.35085,"is_reserved":false,"is_disabled":false,"rental_uris":{"android":"levelo://app?vid=b760e275-638f-4092-a643-8fbe6c8f2fce","ios":"levelo://app?vid=b760e275-638f-4092-a643-8fbe6c8f2fce"},"vehicle_type_id":"4","last_reported":1740233255,"current_range_meters":22000,"station_id":"ce4bhbp2rcd13ifvqerg","pricing_plan_id":"cebpf4jnsgd1na2vs0mg"},{"bike_id":"ee82f77f-f9d3-4009-b8ec-39bce07c2f58","system_id":"levelo_inurba_marseille","lat":43.27494,"lon":5.42476,"is_reserved":false,"is_disabled":false,"rental_uris":{"android":"levelo://app?vid=ee82f77f-f9d3-4009-b8ec-39bce07c2f58","ios":"levelo://app?vid=ee82f77f-f9d3-4009-b8ec-39bce07c2f58"},"vehicle_type_id":"4","last_reported":1740233255,"current_range_meters":22000,"station_id":"ce4bhn92rcd13ifvqgrg","pricing_plan_id":"cebpf4jnsgd1na2vs0mg"},{"bike_id":"4afe7d61-1108-4b58-9665-93c1a631281b","system_id":"levelo_inurba_marseille","lat":43.29519,"lon":5.39404,"is_reserved":false,"is_disabled":false,"rental_uris":{"android":"levelo://app?vid=4afe7d61-1108-4b58-9665-93c1a631281b","ios":"levelo://app?vid=4afe7d61-1108-4b58-9665-93c1a631281b"},"vehicle_type_id":"4","last_reported":1740233255,"current_range_meters":22400,"station_id":"ce4bh292rcd13ifvqdf0","pricing_plan_id":"cebpf4jnsgd1na2vs0mg"},{"bike_id":"15923e01-f0fb-4c0a-bf3f-46ff0452f661","system_id":"levelo_inurba_marseille","lat":43.30541,"lon":5.36546,"is_reserved":false,"is_disabled":false,"rental_uris":{"android":"levelo://app?vid=15923e01-f0fb-4c0a-bf3f-46ff0452f661","ios":"levelo://app?vid=15923e01-f0fb-4c0a-bf3f-46ff0452f661"},"vehicle_type_id":"4","last_reported":1740233255,"current_range_meters":22400,"station_id":"ce4bgs12rcd13ifvqcag","pricing_plan_id":"cebpf4jnsgd1na2vs0mg"},{"bike_id":"4da61d7a-f393-4acc-b9c9-852328a04a1a","system_id":"levelo_inurba_marseille","lat":43.28264,"lon":5.35073,"is_reserved":false,"is_disabled":false,"rental_uris":{"android":"levelo://app?vid=4da61d7a-f393-4acc-b9c9-852328a04a1a","ios":"levelo://app?vid=4da61d7a-f393-4acc-b9c9-852328a04a1a"},"vehicle_type_id":"4","last_reported":1740233255,"current_range_meters":22000,"station_id":"ce4bhbp2rcd13ifvqerg","pricing_plan_id":"cebpf4jnsgd1na2vs0mg"},{"bike_id":"1f724299-518e-43e9-b32e-7282b81b7214","system_id":"levelo_inurba_marseille","lat":43.25926,"lon":5.40871,"is_reserved":false,"is_disabled":false,"rental_uris":{"android":"levelo://app?vid=1f724299-518e-43e9-b32e-7282b81b7214","ios":"levelo://app?vid=1f724299-518e-43e9-b32e-7282b81b7214"},"vehicle_type_id":"4","last_reported":1740233255,"current_range_meters":22400,"station_id":"ce4bhm92rcd13ifvqglg","pricing_plan_id":"cebpf4jnsgd1na2vs0mg"},{"bike_id":"45ea82eb-13e9-41e6-8552-feccaa7dd990","system_id":"levelo_inurba_marseille","lat":43.29623,"lon":5.37158,"is_reserved":false,"is_disabled":false,"rental_uris":{"android":"levelo://app?vid=45ea82eb-13e9-41e6-8552-feccaa7dd990","ios":"levelo://app?vid=45ea82eb-13e9-41e6-8552-feccaa7dd990"},"vehicle_type_id":"4","last_reported":1740233255,"current_range_meters":22400,"station_id":"ce4bgnh2rcd13ifvqc0g","pricing_plan_id":"cebpf4jnsgd1na2vs0mg"},{"bike_id":"49ef1832-86c1-42b4-a7e2-04ceac53151b","system_id":"levelo_inurba_marseille","lat":43.23047,"lon":5.35502,"is_reserved":false,"is_disabled":false,"rental_uris":{"android":"levelo://app?vid=49ef1832-86c1-42b4-a7e2-04ceac53151b","ios":"levelo://app?vid=49ef1832-86c1-42b4-a7e2-04ceac53151b"},"vehicle_type_id":"4","last_reported":1740233255,"current_range_meters":22400,"station_id":"cpo3342slgdg3j2ifvpg","pricing_plan_id":"cebpf4jnsgd1na2vs0mg"},{"bike_id":"2e000041-3b18-47aa-985d-13b9a2721615","system_id":"levelo_inurba_marseille","lat":43.304256,"lon":5.393736,"is_reserved":false,"is_disabled":false,"rental_uris":{"android":"levelo://app?vid=2e000041-3b18-47aa-985d-13b9a2721615","ios":"levelo://app?vid=2e000041-3b18-47aa-985d-13b9a2721615"},"vehicle_type_id":"4","last_reported":1740233255,"current_range_meters":22400,"station_id":"ce4bh192rcd13ifvqdd0","pricing_plan_id":"cebpf4jnsgd1na2vs0mg"},{"bike_id":"980588cb-aa59-436a-9bc0-01f90b14b9b4","system_id":"levelo_inurba_marseille","lat":43.24168,"lon":5.36389,"is_reserved":false,"is_disabled":false,"rental_uris":{"android":"levelo://app?vid=980588cb-aa59-436a-9bc0-01f90b14b9b4","ios":"levelo://app?vid=980588cb-aa59-436a-9bc0-01f90b14b9b4"},"vehicle_type_id":"4","last_reported":1740233255,"current_range_meters":22800,"station_id":"cpo36qri1sfpv3e86is0","pricing_plan_id":"cebpf4jnsgd1na2vs0mg"},{"bike_id":"41a2216f-8b22-4f4f-9eac-5e2283bcdb4b","system_id":"levelo_inurba_marseille","lat":43.28156,"lon":5.4264,"is_reserved":false,"is_disabled":true,"rental_uris":{"android":"levelo://app?vid=41a2216f-8b22-4f4f-9eac-5e2283bcdb4b","ios":"levelo://app?vid=41a2216f-8b22-4f4f-9eac-5e2283bcdb4b"},"vehicle_type_id":"4","last_reported":1740233255,"current_range_meters":22800,"station_id":"ce4bhnh2rcd13ifvqgug","pricing_plan_id":"cebpf4jnsgd1na2vs0mg"},{"bike_id":"7fe0996e-2e24-4a3a-b975-03a2a20f6506","system_id":"levelo_inurba_marseille","lat":43.323624,"lon":5.367668,"is_reserved":false,"is_disabled":false,"rental_uris":{"android":"levelo://app?vid=7fe0996e-2e24-4a3a-b975-03a2a20f6506","ios":"levelo://app?vid=7fe0996e-2e24-4a3a-b975-03a2a20f6506"},"vehicle_type_id":"4","last_reported":1740233255,"current_range_meters":22800,"station_id":"ce4bhsh2rcd13ifvqi2g","pricing_plan_id":"cebpf4jnsgd1na2vs0mg"},{"bike_id":"a2248e2b-adbc-4306-9893-8bc27644a744","system_id":"levelo_inurba_marseille","lat":43.30158,"lon":5.38062,"is_reserved":false,"is_disabled":false,"rental_uris":{"android":"levelo://app?vid=a2248e2b-adbc-4306-9893-8bc27644a744","ios":"levelo://app?vid=a2248e2b-adbc-4306-9893-8bc27644a744"},