{"last_updated":1702562819,"ttl":30,"version":"2.2","data":{"bikes":[{"bike_id":"73c9e4fb-1aba-4222-a1a0-0a63f406e511","system_id":"levelo_inurba_marseille","lat":43.31341,"lon":5.367098,"is_reserved":false,"is_disabled":false,"rental_uris":{"android":"levelo://app?vid=73c9e4fb-1aba-4222-a1a0-0a63f406e511","ios":"levelo://app?vid=73c9e4fb-1aba-4222-a1a0-0a63f406e511"},"vehicle_type_id":"4","last_reported":1702562819,"current_range_meters":29200,"station_id":"ce4bgr92rcd13ifvqc6g","pricing_plan_id":"free"},{"bike_id":"79b27502-46cd-423f-9fcb-ffae1d3f261a","system_id":"levelo_inurba_marseille","lat":43.31344,"lon":5.367253,"is_reserved":false,"is_disabled":false,"rental_uris":{"android":"levelo://app?vid=79b27502-46cd-423f-9fcb-ffae1d3f261a","ios":"levelo://app?vid=79b27502-46cd-423f-9fcb-ffae1d3f261a"},"vehicle_type_id":"4","last_reported":1702562819,"current_range_meters":25200,"station_id":"ce4bgr92rcd13ifvqc6g","pricing_plan_id":"free"},{"bike_id":"132756b2-21b0-4b37-a3ac-98574bf56a76","system_id":"levelo_inurba_marseille","lat":43.313391,"lon":5.36706,"is_reserved":false,"is_disabled":false,"rental_uris":{"android":"levelo://app?vid=132756b2-21b0-4b37-a3ac-98574bf56a76","ios":"levelo://app?vid=132756b2-21b0-4b37-a3ac-98574bf56a76"},"vehicle_type_id":"4","last_reported":1702562819,"current_range_meters":15200,"station_id":"ce4bgr92rcd13ifvqc6g","pricing_plan_id":"free"},{"bike_id":"0349cfe3-d4fc-4c2f-a928-645bcf88f8c7","system_id":"levelo_inurba_marseille","lat":43.313391,"lon":5.36706,"is_reserved":false,"is_disabled":false,"rental_uris":{"android":"levelo://app?vid=0349cfe3-d4fc-4c2f-a928-645bcf88f8c7","ios":"levelo://app?vid=0349cfe3-d4fc-4c2f-a928-645bcf88f8c7"},"vehicle_type_id":"4","last_reported":1702562819,"current_range_meters":31600,"station_id":"ce4bgr92rcd13ifvqc6g","pricing_plan_id":"free"},{"bike_id":"a723faf6-6dfb-426d-a6cf-68dca6c2720e","system_id":"levelo_inurba_marseille","lat":43.313391,"lon":5.36706,"is_reserved":false,"is_disabled":false,"rental_uris":{"android":"levelo://app?vid=a723faf6-6dfb-426d-a6cf-68dca6c2720e","ios":"levelo://app?vid=a723faf6-6dfb-426d-a6cf-68dca6c2720e"},"vehicle_type_id":"4","last_reported":1702562819,"current_range_meters":17200,"station_id":"ce4bgr92rcd13ifvqc6g","pricing_plan_id":"free"},{"bike_id":"5e870a68-e5e1-4f23-9b79-346d0b2e9ca3","system_id":"levelo_inurba_marseille","lat":43.313391,"lon":5.36706,"is_reserved":false,"is_disabled":false,"rental_uris":{"android":"levelo://app?vid=5e870a68-e5e1-4f23-9b79-346d0b2e9ca3","ios":"levelo://app?vid=5e870a68-e5e1-4f23-9b79-346d0b2e9ca3"},"vehicle_type_id":"4","last_reported":1702562819,"current_range_meters":31600,"station_id":"ce4bgr92rcd13ifvqc6g","pricing_plan_id":"free"},{"bike_id":"fd0d3195-a222-4a69-a6a8-0786757b5026","system_id":"levelo_inurba_marseille","lat":43.313391,"lon":5.36706,"is_reserved":false,"is_disabled":false,"rental_uris":{"android":"levelo://app?vid=fd0d3195-a222-4a69-a6a8-0786757b5026","ios":"levelo://app?vid=fd0d3195-a222-4a69-a6a8-0786757b5026"},"vehicle_type_id":"4","last_reported":1702562819,"current_range_meters":20800,"station_id":"ce4bgr92rcd13ifvqc6g","pricing_plan_id":"free"},{"bike_id":"63506cc9-8014-44db-b920-011f0d9737ca","system_id":"levelo_inurba_marseille","lat":43.313558,"lon":5.367204,"is_reserved":false,"is_disabled":false,"rental_uris":{"android":"levelo://app?vid=63506cc9-8014-44db-b920-011f0d9737ca","ios":"levelo://app?vid=63506cc9-8014-44db-b920-011f0d9737ca"},"vehicle_type_id":"4","last_reported":1702562819,"current_range_meters":16400,"station_id":"ce4bgr92rcd13ifvqc6g","pricing_plan_id":"free"},{"bike_id":"84fb6133-0fe4-4a0a-bb08-af103338ef6c","system_id":"levelo_inurba_marseille","lat":43.31358,"lon":5.3672,"is_reserved":false,"is_disabled":false,"rental_uris":{"android":"levelo://app?vid=84fb6133-0fe4-4a0a-bb08-af103338ef6c","ios":"levelo://app?vid=84fb6133-0fe4-4a0a-bb08-af103338ef6c"},"vehicle_type_id":"4","last_reported":1702562819,"current_range_meters":5200,"station_id":"ce4bgr92rcd13ifvqc6g","pricing_plan_id":"free"},{"bike_id":"49e5abb6-f09f-4b7e-bdeb-52461f3f6eb2","system_id":"levelo_inurba_marseille","lat":43.313391,"lon":5.36706,"is_reserved":false,"is_disabled":false,"rental_uris":{"android":"levelo://app?vid=49e5abb6-f09f-4b7e-bdeb-52461f3f6eb2","ios":"levelo://app?vid=49e5abb6-f09f-4b7e-bdeb-52461f3f6eb2"},"vehicle_type_id":"4","last_reported":1702562819,"current_range_meters":17600,"station_id":"ce4bgr92rcd13ifvqc6g","pricing_plan_id":"free"},{"bike_id":"33e8d0a6-b2a8-4156-b786-d5622f35b13b","system_id":"levelo_inurba_marseille","lat":43.31365,"lon":5.367173,"is_reserved":false,"is_disabled":false,"rental_uris":{"android":"levelo://app?vid=33e8d0a6-b2a8-4156-b786-d5622f35b13b","ios":"levelo://app?vid=33e8d0a6-b2a8-4156-b786-d5622f35b13b"},"vehicle_type_id":"4","last_reported":1702562819,"current_range_meters":31200,"station_id":"ce4bgr92rcd13ifvqc6g","pricing_plan_id":"free"},{"bike_id":"4e8da820-d94c-4282-a15b-0d99d45343d6","system_id":"levelo_inurba_marseille","lat":43.312239,"lon":5.368562,"is_reserved":false,"is_disabled":false,"rental_uris":{"android":"levelo://app?vid=4e8da820-d94c-4282-a15b-0d99d45343d6","ios":"levelo://app?vid=4e8da820-d94c-4282-a15b-0d99d45343d6"},"vehicle_type_id":"4","last_reported":1702562819,"current_range_meters":31600,"station_id":"ce4bgl92rcd13ifvqbq0","pricing_plan_id":"free"},{"bike_id":"b78c9a51-0e04-4998-b6ca-7a16de769080","system_id":"levelo_inurba_marseille","lat":43.312239,"lon":5.368562,"is_reserved":false,"is_disabled":false,"rental_uris":{"android":"levelo://app?vid=b78c9a51-0e04-4998-b6ca-7a16de769080","ios":"levelo://app?vid=b78c9a51-0e04-4998-b6ca-7a16de769080"},"vehicle_type_id":"4","last_reported":1702562819,"current_range_meters":31600,"station_id":"ce4bgl92rcd13ifvqbq0","pricing_plan_id":"free"},{"bike_id":"5a037603-ad63-44df-b177-426009f2951c","system_id":"levelo_inurba_marseille","lat":43.312239,"lon":5.368562,"is_reserved":false,"is_disabled":false,"rental_uris":{"android":"levelo://app?vid=5a037603-ad63-44df-b177-426009f2951c","ios":"levelo://app?vid=5a037603-ad63-44df-b177-426009f2951c"},"vehicle_type_id":"4","last_reported":1702562819,"current_range_meters":31600,"station_id":"ce4bgl92rcd13ifvqbq0","pricing_plan_id":"free"},{"bike_id":"782ba954-8744-44a8-ac2c-1af11b08b18d","system_id":"levelo_inurba_marseille","lat":43.312239,"lon":5.368562,"is_reserved":false,"is_disabled":false,"rental_uris":{"android":"levelo://app?vid=782ba954-8744-44a8-ac2c-1af11b08b18d","ios":"levelo://app?vid=782ba954-8744-44a8-ac2c-1af11b08b18d"},"vehicle_type_id":"4","last_reported":1702562819,"current_range_meters":31200,"station_id":"ce4bgl92rcd13ifvqbq0","pricing_plan_id":"free"},{"bike_id":"59074f10-9bc7-4ffd-8bc8-559090846504","system_id":"levelo_inurba_marseille","lat":43.312239,"lon":5.368562,"is_reserved":false,"is_disabled":false,"rental_uris":{"android":"levelo://app?vid=59074f10-9bc7-4ffd-8bc8-559090846504","ios":"levelo://app?vid=59074f10-9bc7-4ffd-8bc8-559090846504"},"vehicle_type_id":"4","last_reported":1702562819,"current_range_meters":22000,"station_id":"ce4bgl92rcd13ifvqbq0","pricing_plan_id":"free"},{"bike_id":"249c5c95-2a82-4ee7-a6b1-5b1349e69411","system_id":"levelo_inurba_marseille","lat":43.309076,"lon":5.368465,"is_reserved":false,"is_disabled":false,"rental_uris":{"android":"levelo://app?vid=249c5c95-2a82-4ee7-a6b1-5b1349e69411","ios":"levelo://app?vid=249c5c95-2a82-4ee7-a6b1-5b1349e69411"},"vehicle_type_id":"4","last_reported":1702562819,"current_range_meters":5600,"station_id":"ce4bgn92rcd13ifvqbvg","pricing_plan_id":"free"},{"bike_id":"51fbed6e-dc60-4118-b993-e2a8ed4f7f17","system_id":"levelo_inurba_marseille","lat":43.309076,"lon":5.368465,"is_reserved":false,"is_disabled":false,"rental_uris":{"android":"levelo://app?vid=51fbed6e-dc60-4118-b993-e2a8ed4f7f17","ios":"levelo://app?vid=51fbed6e-dc60-4118-b993-e2a8ed4f7f17"},"vehicle_type_id":"4","last_reported":1702562819,"current_range_meters":31200,"station_id":"ce4bgn92rcd13ifvqbvg","pricing_plan_id":"free"},{"bike_id":"8a1cffcf-f58c-40e9-bd54-602e521cc411","system_id":"levelo_inurba_marseille","lat":43.309076,"lon":5.368465,"is_reserved":false,"is_disabled":false,"rental_uris":{"android":"levelo://app?vid=8a1cffcf-f58c-40e9-bd54-602e521cc411","ios":"levelo://app?vid=8a1cffcf-f58c-40e9-bd54-602e521cc411"},"vehicle_type_id":"4","last_reported":1702562819,"current_range_meters":28000,"station_id":"ce4bgn92rcd13ifvqbvg","pricing_plan_id":"free"},{"bike_id":"6598fe0a-0e14-432a-8111-f8b14e8fe7d0","system_id":"levelo_inurba_marseille","lat":43.31539,"lon":5.37306,"is_reserved":false,"is_disabled":false,"rental_uris":{"android":"levelo://app?vid=6598fe0a-0e14-432a-8111-f8b14e8fe7d0","ios":"levelo://app?vid=6598fe0a-0e14-432a-8111-f8b14e8fe7d0"},"vehicle_type_id":"4","last_reported":1702562819,"current_range_meters":24400,"station_id":"","pricing_plan_id":"free"},{"bike_id":"d9f06614-0365-4523-99f4-b88a5f27a317","system_id":"levelo_inurba_marseille","lat":43.3088,"lon":5.37202,"is_reserved":false,"is_disabled":false,"rental_uris":{"android":"levelo://app?vid=d9f06614-0365-4523-99f4-b88a5f27a317","ios":"levelo://app?vid=d9f06614-0365-4523-99f4-b88a5f27a317"},"vehicle_type_id":"4","last_reported":1702562819,"current_range_meters":17600,"station_id":"ce4bguh2rcd13ifvqckg","pricing_plan_id":"free"},{"bike_id":"3f8b821f-e430-4a35-bf14-f8b6e777ea11","system_id":"levelo_inurba_marseille","lat":43.313939,"lon":5.375306,"is_reserved":false,"is_disabled":false,"rental_uris":{"android":"levelo://app?vid=3f8b821f-e430-4a35-bf14-f8b6e777ea11","ios":"levelo://app?vid=3f8b821f-e430-4a35-bf14-f8b6e777ea11"},"vehicle_type_id":"4","last_reported":1702562819,"current_range_meters":3600,"station_id":"","pricing_plan_id":"free"},{"bike_id":"92f8d9e5-4c07-4c25-b463-3dbab6914bc2","system_id":"levelo_inurba_marseille","lat":43.305368,"lon":5.367343,"is_reserved":false,"is_disabled":false,"rental_uris":{"android":"levelo://app?vid=92f8d9e5-4c07-4c25-b463-3dbab6914bc2","ios":"levelo://app?vid=92f8d9e5-4c07-4c25-b463-3dbab6914bc2"},"vehicle_type_id":"4","last_reported":1702562819,"current_range_meters":14800,"station_id":"ce4bgrp2rcd13ifvqc9g","pricing_plan_id":"free"},{"bike_id":"955e4ab2-16e5-44e8-a986-a2f50ff96c06","system_id":"levelo_inurba_marseille","lat":43.305382,"lon":5.365389,"is_reserved":false,"is_disabled":false,"rental_uris":{"android":"levelo://app?vid=955e4ab2-16e5-44e8-a986-a2f50ff96c06","ios":"levelo://app?vid=955e4ab2-16e5-44e8-a986-a2f50ff96c06"},"vehicle_type_id":"4","last_reported":1702562819,"current_range_meters":23200,"station_id":"","pricing_plan_id":"free"},{"bike_id":"941d75e1-ac45-4bc2-9b84-3b43a9ee3b39","system_id":"levelo_inurba_marseille","lat":43.305368,"lon":5.367343,"is_reserved":false,"is_disabled":false,"rental_uris":{"android":"levelo://app?vid=941d75e1-ac45-4bc2-9b84-3b43a9ee3b39","ios":"levelo://app?vid=941d75e1-ac45-4bc2-9b84-3b43a9ee3b39"},"vehicle_type_id":"4","last_reported":1702562819,"current_range_meters":16000,"station_id":"ce4bgrp2rcd13ifvqc9g","pricing_plan_id":"free"},{"bike_id":"21db55fb-26e2-4400-9351-c897baffe75c","system_id":"levelo_inurba_marseille","lat":43.305706,"lon":5.365654,"is_reserved":false,"is_disabled":false,"rental_uris":{"android":"levelo://app?vid=21db55fb-26e2-4400-9351-c897baffe75c","ios":"levelo://app?vid=21db55fb-26e2-4400-9351-c897baffe75c"},"vehicle_type_id":"4","last_reported":1702562819,"current_range_meters":29600,"station_id":"ce4bgs12rcd13ifvqcag","pricing_plan_id":"free"},{"bike_id":"5f74c2c5-1b52-4f04-9a66-34a5640ed1e3","system_id":"levelo_inurba_marseille","lat":43.311125,"lon":5.377624,"is_reserved":false,"is_disabled":false,"rental_uris":{"android":"levelo://app?vid=5f74c2c5-1b52-4f04-9a66-34a5640ed1e3","ios":"levelo://app?vid=5f74c2c5-1b52-4f04-9a66-34a5640ed1e3"},"vehicle_type_id":"4","last_reported":1702562819,"current_range_meters":7200,"station_id":"ce4bgt92rcd13ifvqcg0","pricing_plan_id":"free"},{"bike_id":"6dac830e-02f2-4ff2-85ca-153130d6bdd5","system_id":"levelo_inurba_marseille","lat":43.307945,"lon":5.376487,"is_reserved":false,"is_disabled":false,"rental_uris":{"android":"levelo://app?vid=6dac830e-02f2-4ff2-85ca-153130d6bdd5","ios":"levelo://app?vid=6dac830e-02f2-4ff2-85ca-153130d6bdd5"},"vehicle_type_id":"4","last_reported":1702562819,"current_range_meters":26800,"station_id":"ce4bgv92rcd13ifvqcq0","pricing_plan_id":"free"},{"bike_id":"35dc5cef-d338-467c-9809-4e1edc5efaa4","system_id":"levelo_inurba_marseille","lat":43.317075,"lon":5.377367,"is_reserved":false,"is_disabled":false,"rental_uris":{"android":"levelo://app?vid=35dc5cef-d338-467c-9809-4e1edc5efaa4","ios":"levelo://app?vid=35dc5cef-d338-467c-9809-4e1edc5efaa4"},"vehicle_type_id":"4","last_reported":1702562819,"current_range_meters":27200,"station_id":"ce4bgth2rcd13ifvqch0","pricing_plan_id":"free"},{"bike_id":"c4d05ef1-3b61-4ccd-b07a-e2b987be52a3","system_id":"levelo_inurba_marseille","lat":43.303046,"lon":5.368981,"is_reserved":false,"is_disabled":false,"rental_uris":{"android":"levelo://app?vid=c4d05ef1-3b61-4ccd-b07a-e2b987be52a3","ios":"levelo://app?vid=c4d05ef1-3b61-4ccd-b07a-e2b987be52a3"},"vehicle_type_id":"4","last_reported":1702562819,"current_range_meters":27200,"station_id":"ce4bgqh2rcd13ifvqc5g","pricing_plan_id":"free"},{"bike_id":"1e9e1ade-de23-4b8a-9abb-bbb7cafb2990","system_id":"levelo_inurba_marseille","lat":43.31526,"lon":5.38046,"is_reserved":false,"is_disabled":false,"rental_uris":{"android":"levelo://app?vid=1e9e1ade-de23-4b8a-9abb-bbb7cafb2990","ios":"levelo://app?vid=1e9e1ade-de23-4b8a-9abb-bbb7cafb2990"},"vehicle_type_id":"4","last_reported":1702562819,"current_range_meters":27600,"station_id":"ce4bhsp2rcd13ifvqi50","pricing_plan_id":"free"},{"bike_id":"96736128-3d68-472b-8ccb-f9888aaf50e3","system_id":"levelo_inurba_marseille","lat":43.30463,"lon":5.37906,"is_reserved":false,"is_disabled":false,"rental_uris":{"android":"levelo://app?vid=96736128-3d68-472b-8ccb-f9888aaf50e3","ios":"levelo://app?vid=96736128-3d68-472b-8ccb-f9888aaf50e3"},"vehicle_type_id":"4","last_reported":1702562819,"current_range_meters":21600,"station_id":"ce4bgup2rcd13ifvqcn0","pricing_plan_id":"free"},{"bike_id":"1ec93e67-fda2-4a88-99f6-767e3a5d8562","system_id":"levelo_inurba_marseille","lat":43.304606,"lon":5.379026,"is_reserved":false,"is_disabled":false,"rental_uris":{"android":"levelo://app?vid=1ec93e67-fda2-4a88-99f6-767e3a5d8562","ios":"levelo://app?vid=1ec93e67-fda2-4a88-99f6-767e3a5d8562"},"vehicle_type_id":"4","last_reported":1702562819,"current_range_meters":13600,"station_id":"ce4bgup2rcd13ifvqcn0","pricing_plan_id":"free"},{"bike_id":"0f2766a3-5e5b-4b6c-a92c-02aefad059ad","system_id":"levelo_inurba_marseille","lat":43.302784,"lon":5.377158,"is_reserved":false,"is_disabled":false,"rental_uris":{"android":"levelo://app?vid=0f2766a3-5e5b-4b6c-a92c-02aefad059ad","ios":"levelo://app?vid=0f2766a3-5e5b-4b6c-a92c-02aefad059ad"},"vehicle_type_id":"4","last_reported":1702562819,"current_range_meters":9200,"station_id":"ce4bguh2rcd13ifvqcj0","pricing_plan_id":"free"},{"bike_id":"58589d44-ba0d-4ead-900b-fc63587c2832","system_id":"levelo_inurba_marseille","lat":43.302784,"lon":5.377158,"is_reserved":false,"is_disabled":false,"rental_uris":{"android":"levelo://app?vid=58589d44-ba0d-4ead-900b-fc63587c2832","ios":"levelo://app?vid=58589d44-ba0d-4ead-900b-fc63587c2832"},"vehicle_type_id":"4","last_reported":1702562819,"current_range_meters":17200,"station_id":"ce4bguh2rcd13ifvqcj0","pricing_plan_id":"free"},{"bike_id":"cc530d5a-f22d-4a93-a126-cd14ae6ac4d3","system_id":"levelo_inurba_marseille","lat":43.299724,"lon":5.371829,"is_reserved":false,"is_disabled":false,"rental_uris":{"android":"levelo://app?vid=cc530d5a-f22d-4a93-a126-cd14ae6ac4d3","ios":"levelo://app?vid=cc530d5a-f22d-4a93-a126-cd14ae6ac4d3"},"vehicle_type_id":"4","last_reported":1702562819,"current_range_meters":22400,"station_id":"ce4bgr92rcd13ifvqc7g","pricing_plan_id":"free"},{"bike_id":"f19b0271-3547-4695-b18f-fbd263cb12d9","system_id":"levelo_inurba_marseille","lat":43.299277,"lon":5.365473,"is_reserved":false,"is_disabled":false,"rental_uris":{"android":"levelo://app?vid=f19b0271-3547-4695-b18f-fbd263cb12d9","ios":"levelo://app?vid=f19b0271-3547-4695-b18f-fbd263cb12d9"},"vehicle_type_id":"4","last_reported":1702562819,"current_range_meters":8800,"station_id":"ce4bgm92rcd13ifvqbr0","pricing_plan_id":"free"},{"bike_id":"652e87ac-c7c7-4d93-971a-9e30c0276c72","system_id":"levelo_inurba_marseille","lat":43.305364,"lon":5.384119,"is_reserved":false,"is_disabled":false,"rental_uris":{"android":"levelo://app?vid=652e87ac-c7c7-4d93-971a-9e30c0276c72","ios":"levelo://app?vid=652e87ac-c7c7-4d93-971a-9e30c0276c72"},"vehicle_type_id":"4","last_reported":1702562819,"current_range_meters":30800,"station_id":"ce4bgg92rcd13ifvqb30","pricing_plan_id":"free"},{"bike_id":"ef1106cb-f131-49ab-93c5-811fe1dd48b5","system_id":"levelo_inurba_marseille","lat":43.298433,"lon":5.362774,"is_reserved":false,"is_disabled":false,"rental_uris":{"android":"levelo://app?vid=ef1106cb-f131-49ab-93c5-811fe1dd48b5","ios":"levelo://app?vid=ef1106cb-f131-49ab-93c5-811fe1dd48b5"},"vehicle_type_id":"4","last_reported":1702562819,"current_range_meters":31200,"station_id":"ce4bgpp2rcd13ifvqc3g","pricing_plan_id":"free"},{"bike_id":"cf880a93-689f-496b-b06b-64d66a80d22d","system_id":"levelo_inurba_marseille","lat":43.298433,"lon":5.362774,"is_reserved":false,"is_disabled":false,"rental_uris":{"android":"levelo://app?vid=cf880a93-689f-496b-b06b-64d66a80d22d","ios":"levelo://app?vid=cf880a93-689f-496b-b06b-64d66a80d22d"},"vehicle_type_id":"4","last_reported":1702562819,"current_range_meters":28000,"station_id":"ce4bgpp2rcd13ifvqc3g","pricing_plan_id":"free"},{"bike_id":"63121347-acf5-46d5-89cb-12b5626174ed","system_id":"levelo_inurba_marseille","lat":43.298433,"lon":5.362774,"is_reserved":false,"is_disabled":false,"rental_uris":{"android":"levelo://app?vid=63121347-acf5-46d5-89cb-12b5626174ed","ios":"levelo://app?vid=63121347-acf5-46d5-89cb-12b5626174ed"},"vehicle_type_id":"4","last_reported":1702562819,"current_range_meters":28800,"station_id":"ce4bgpp2rcd13ifvqc3g","pricing_plan_id":"free"},{"bike_id":"17236dfb-b8d1-4802-8b11-8755a04199a7","system_id":"levelo_inurba_marseille","lat":43.299084,"lon":5.374739,"is_reserved":false,"is_disabled":false,"rental_uris":{"android":"levelo://app?vid=17236dfb-b8d1-4802-8b11-8755a04199a7","ios":"levelo://app?vid=17236dfb-b8d1-4802-8b11-8755a04199a7"},"vehicle_type_id":"4","last_reported":1702562819,"current_range_meters":14000,"station_id":"ce4bgjh2rcd13ifvqbg0","pricing_plan_id":"free"},{"bike_id":"ed5f0256-776d-4300-ad00-c107bee05a60","system_id":"levelo_inurba_marseille","lat":43.322872,"lon":5.382756,"is_reserved":false,"is_disabled":false,"rental_uris":{"android":"levelo://app?vid=ed5f0256-776d-4300-ad00-c107bee05a60","ios":"levelo://app?vid=ed5f0256-776d-4300-ad00-c107bee05a60"},"vehicle_type_id":"4","last_reported":1702562819,"current_range_meters":22800,"station_id":"ce4bhr12rcd13ifvqhqg","pricing_plan_id":"free"},{"bike_id":"e220caa9-4c1d-47af-a1fd-4204bed585e7","system_id":"levelo_inurba_marseille","lat":43.297163,"lon":5.365866,"is_reserved":false,"is_disabled":false,"rental_uris":{"android":"levelo://app?vid=e220caa9-4c1d-47af-a1fd-4204bed585e7","ios":"levelo://app?vid=e220caa9-4c1d-47af-a1fd-4204bed585e7"},"vehicle_type_id":"4","last_reported":1702562819,"current_range_meters":23600,"station_id":"ce4bgn12rcd13ifvqbt0","pricing_plan_id":"free"},{"bike_id":"2c095bd7-bc78-4563-9288-54bbb3329bde","system_id":"levelo_inurba_marseille","lat":43.299028,"lon":5.381509,"is_reserved":false,"is_disabled":false,"rental_uris":{"android":"levelo://app?vid=2c095bd7-bc78-4563-9288-54bbb3329bde","ios":"levelo://app?vid=2c095bd7-bc78-4563-9288-54bbb3329bde"},"vehicle_type_id":"4","last_reported":1702562819,"current_range_meters":26800,"station_id":"ce4bgj12rcd13ifvqbc0","pricing_plan_id":"free"},{"bike_id":"6fa473cc-bb32-4878-a1e3-621b49bf645b","system_id":"levelo_inurba_marseille","lat":43.29805,"lon":5.38092,"is_reserved":false,"is_disabled":false,"rental_uris":{"android":"levelo://app?vid=6fa473cc-bb32-4878-a1e3-621b49bf645b","ios":"levelo://app?vid=6fa473cc-bb32-4878-a1e3-621b49bf645b"},"vehicle_type_id":"4","last_reported":1702562819,"current_range_meters":26800,"station_id":"","pricing_plan_id":"free"},{"bike_id":"43a88fdd-261e-4efc-a41e-2646eb5182d9","system_id":"levelo_inurba_marseille","lat":43.29794,"lon":5.38096,"is_reserved":false,"is_disabled":false,"rental_uris":{"android":"levelo://app?vid=43a88fdd-261e-4efc-a41e-2646eb5182d9","ios":"levelo://app?vid=43a88fdd-261e-4efc-a41e-2646eb5182d9"},"vehicle_type_id":"4","last_reported":1702562819,"current_range_meters":31200,"station_id":"ce4bgip2rcd13ifvqbb0","pricing_plan_id":"free"},{"bike_id":"48b89cf8-371e-42d1-baa4-5f0d1a0c5dbd","system_id":"levelo_inurba_marseille","lat":43.304278,"lon":5.388868,"is_reserved":false,"is_disabled":false,"rental_uris":{"android":"levelo://app?vid=48b89cf8-371e-42d1-baa4-5f0d1a0c5dbd","ios":"levelo://app?vid=48b89cf8-371e-42d1-baa4-5f0d1a0c5dbd"},"vehicle_type_id":"4","last_reported":1702562819,"current_range_meters":12800,"station_id":"ce4bgk12rcd13ifvqbi0","pricing_plan_id":"free"},{"bike_id":"3b7c23e6-2376-4a96-a4fb-7e0468ee1dce","system_id":"levelo_inurba_marseille","lat":43.304278,"lon":5.388868,"is_reserved":false,"is_disabled":false,"rental_uris":{"android":"levelo://app?vid=3b7c23e6-2376-4a96-a4fb-7e0468ee1dce","ios":"levelo://app?vid=3b7c23e6-2376-4a96-a4fb-7e0468ee1dce"},"vehicle_type_id":"4","last_reported":1702562819,"current_range_meters":21600,"station_id":"ce4bgk12rcd13ifvqbi0","pricing_plan_id":"free"},{"bike_id":"af15c5f6-a1c9-45de-b1f9-ab3ae0200ee7","system_id":"levelo_inurba_marseille","lat":43.2957,"lon":5.37518,"is_reserved":false,"is_disabled":false,"rental_uris":{"android":"levelo://app?vid=af15c5f6-a1c9-45de-b1f9-ab3ae0200ee7","ios":"levelo://app?vid=af15c5f6-a1c9-45de-b1f9-ab3ae0200ee7"},"vehicle_type_id":"4","last_reported":1702562819,"current_range_meters":28000,"station_id":"ce4bgh92rcd13ifvqb50","pricing_plan_id":"free"},{"bike_id":"31e8c0d1-c3db-4293-ae41-03f43e366ebe","system_id":"levelo_inurba_marseille","lat":43.295332,"lon":5.375005,"is_reserved":false,"is_disabled":false,"rental_uris":{"android":"levelo://app?vid=31e8c0d1-c3db-4293-ae41-03f43e366ebe","ios":"levelo://app?vid=31e8c0d1-c3db-4293-ae41-03f43e366ebe"},"vehicle_type_id":"4","last_reported":1702562819,"current_range_meters":20000,"station_id":"ce4bgkp2rcd13ifvqbmg","pricing_plan_id":"free"},{"bike_id":"125bdc24-e17c-4a2c-a1ea-6e632df5d999","system_id":"levelo_inurba_marseille","lat":43.295279,"lon":5.375048,"is_reserved":false,"is_disabled":false,"rental_uris":{"android":"levelo://app?vid=125bdc24-e17c-4a2c-a1ea-6e632df5d999","ios":"levelo://app?vid=125bdc24-e17c-4a2c-a1ea-6e632df5d999"},"vehicle_type_id":"4","last_reported":1702562819,"current_range_meters":10400,"station_id":"ce4bgkp2rcd13ifvqbmg","pricing_plan_id":"free"},{"bike_id":"098d429c-ab7c-4035-b16c-d2be6e0b951e","system_id":"levelo_inurba_marseille","lat":43.29601,"lon":5.381084,"is_reserved":false,"is_disabled":false,"rental_uris":{"android":"levelo://app?vid=098d429c-ab7c-4035-b16c-d2be6e0b951e","ios":"levelo://app?vid=098d429c-ab7c-4035-b16c-d2be6e0b951e"},"vehicle_type_id":"4","last_reported":1702562819,"current_range_meters":22800,"station_id":"ce4bgl12rcd13ifvqbo0","pricing_plan_id":"free"},{"bike_id":"ed7054e2-92fd-468c-b6e2-672cf4c15015","system_id":"levelo_inurba_marseille","lat":43.293009,"lon":5.374584,"is_reserved":false,"is_disabled":false,"rental_uris":{"android":"levelo://app?vid=ed7054e2-92fd-468c-b6e2-672cf4c15015","ios":"levelo://app?vid=ed7054e2-92fd-468c-b6e2-672cf4c15015"},"vehicle_type_id":"4","last_reported":1702562819,"current_range_meters":29200,"station_id":"ce4bgi12rcd13ifvqb70","pricing_plan_id":"free"},{"bike_id":"4fbd94cb-ed27-4ccf-ae1d-2058d5d5d5ec","system_id":"levelo_inurba_marseille","lat":43.293009,"lon":5.374584,"is_reserved":false,"is_disabled":false,"rental_uris":{"android":"levelo://app?vid=4fbd94cb-ed27-4ccf-ae1d-2058d5d5d5ec","ios":"levelo://app?vid=4fbd94cb-ed27-4ccf-ae1d-2058d5d5d5ec"},"vehicle_type_id":"4","last_reported":1702562819,"current_range_meters":26800,"station_id":"ce4bgi12rcd13ifvqb70","pricing_plan_id":"free"},{"bike_id":"a7bb110a-25e2-40d7-b3bc-84dda3cfc58b","system_id":"levelo_inurba_marseille","lat":43.293009,"lon":5.374584,"is_reserved":false,"is_disabled":false,"rental_uris":{"android":"levelo://app?vid=a7bb110a-25e2-40d7-b3bc-84dda3cfc58b","ios":"levelo://app?vid=a7bb110a-25e2-40d7-b3bc-84dda3cfc58b"},"vehicle_type_id":"4","last_reported":1702562819,"current_range_meters":28000,"station_id":"ce4bgi12rcd13ifvqb70","pricing_plan_id":"free"},{"bike_id":"30f0cb63-e8f9-4297-b161-051d9c0dd5f1","system_id":"levelo_inurba_marseille","lat":43.293009,"lon":5.374584,"is_reserved":false,"is_disabled":false,"rental_uris":{"android":"levelo://app?vid=30f0cb63-e8f9-4297-b161-051d9c0dd5f1","ios":"levelo://app?vid=30f0cb63-e8f9-4297-b161-051d9c0dd5f1"},"vehicle_type_id":"4","last_reported":1702562819,"current_range_meters":25200,"station_id":"ce4bgi12rcd13ifvqb70","pricing_plan_id":"free"},{"bike_id":"6ac01201-e11e-4f98-b179-1209f6a8adb1","system_id":"levelo_inurba_marseille","lat":43.30178,"lon":5.39099,"is_reserved":false,"is_disabled":false,"rental_uris":{"android":"levelo://app?vid=6ac01201-e11e-4f98-b179-1209f6a8adb1","ios":"levelo://app?vid=6ac01201-e11e-4f98-b179-1209f6a8adb1"},"vehicle_type_id":"4","last_reported":1702562819,"current_range_meters":16000,"station_id":"","pricing_plan_id":"free"},{"bike_id":"fbb97595-5e20-4c9c-9453-7dd241fdcdbd","system_id":"levelo_inurba_marseille","lat":43.303002,"lon":5.392142,"is_reserved":false,"is_disabled":false,"rental_uris":{"android":"levelo://app?vid=fbb97595-5e20-4c9c-9453-7dd241fdcdbd","ios":"levelo://app?vid=fbb97595-5e20-4c9c-9453-7dd241fdcdbd"},"vehicle_type_id":"4","last_reported":1702562819,"current_range_meters":7200,"station_id":"ce4bgkh2rcd13ifvqbk0","pricing_plan_id":"free"},{"bike_id":"5e79d752-5706-4424-8d98-ac0a5fa677ae","system_id":"levelo_inurba_marseille","lat":43.2936,"lon":5.37835,"is_reserved":false,"is_disabled":false,"rental_uris":{"android":"levelo://app?vid=5e79d752-5706-4424-8d98-ac0a5fa677ae","ios":"levelo://app?vid=5e79d752-5706-4424-8d98-ac0a5fa677ae"},"vehicle_type_id":"4","last_reported":1702562819,"current_range_meters":26000,"station_id":"ce4bgjh2rcd13ifvqbf0","pricing_plan_id":"free"},{"bike_id":"9f630704-d665-44e8-94c7-f6dca05d7db2","system_id":"levelo_inurba_marseille","lat":43.29194,"lon":5.35824,"is_reserved":false,"is_disabled":false,"rental_uris":{"android":"levelo://app?vid=9f630704-d665-44e8-94c7-f6dca05d7db2","ios":"levelo://app?vid=9f630704-d665-44e8-94c7-f6dca05d7db2"},"vehicle_type_id":"4","last_reported":1702562819,"current_range_meters":22400,"station_id":"ce4bhb12rcd13ifvqel0","pricing_plan_id":"free"},{"bike_id":"a89153a4-ad09-46d5-a60e-9c9651d3af9e","system_id":"levelo_inurba_marseille","lat":43.29529,"lon":5.385581,"is_reserved":false,"is_disabled":false,"rental_uris":{"android":"levelo://app?vid=a89153a4-ad09-46d5-a60e-9c9651d3af9e","ios":"levelo://app?vid=a89153a4-ad09-46d5-a60e-9c9651d3af9e"},"vehicle_type_id":"4","last_reported":1702562819,"current_range_meters":26400,"station_id":"ce4bgih2rcd13ifvqba0","pricing_plan_id":"free"},{"bike_id":"ae282c72-2b63-468a-ad7c-e4e1960f24bb","system_id":"levelo_inurba_marseille","lat":43.29529,"lon":5.385581,"is_reserved":false,"is_disabled":false,"rental_uris":{"android":"levelo://app?vid=ae282c72-2b63-468a-ad7c-e4e1960f24bb","ios":"levelo://app?vid=ae282c72-2b63-468a-ad7c-e4e1960f24bb"},"vehicle_type_id":"4","last_reported":1702562819,"current_range_meters":3600,"station_id":"ce4bgih2rcd13ifvqba0","pricing_plan_id":"free"},{"bike_id":"dd742c0c-7792-4fcb-8961-27bb9abd3e5d","system_id":"levelo_inurba_marseille","lat":43.290779,"lon":5.371482,"is_reserved":false,"is_disabled":false,"rental_uris":{"android":"levelo://app?vid=dd742c0c-7792-4fcb-8961-27bb9abd3e5d","ios":"levelo://app?vid=dd742c0c-7792-4fcb-8961-27bb9abd3e5d"},"vehicle_type_id":"4","last_reported":1702562819,"current_range_meters":3200,"station_id":"ce4bh5p2rcd13ifvqe4g","pricing_plan_id":"free"},{"bike_id":"43710c5e-5925-4219-8fee-64840ec74d31","system_id":"levelo_inurba_marseille","lat":43.331535,"lon":5.384884,"is_reserved":false,"is_disabled":false,"rental_uris":{"android":"levelo://app?vid=43710c5e-5925-4219-8fee-64840ec74d31","ios":"levelo://app?vid=43710c5e-5925-4219-8fee-64840ec74d31"},"vehicle_type_id":"4","last_reported":1702562819,"current_range_meters":22000,"station_id":"ce4bhqp2rcd13ifvqhog","pricing_plan_id":"free"},{"bike_id":"a5da4d2d-36bb-4ba8-b1da-bdcf96e91cff","system_id":"levelo_inurba_marseille","lat":43.289184,"lon":5.366408,"is_reserved":false,"is_disabled":false,"rental_uris":{"android":"levelo://app?vid=a5da4d2d-36bb-4ba8-b1da-bdcf96e91cff","ios":"levelo://app?vid=a5da4d2d-36bb-4ba8-b1da-bdcf96e91cff"},"vehicle_type_id":"4","last_reported":1702562819,"current_range_meters":28800,"station_id":"ce4bhap2rcd13ifvqek0","pricing_plan_id":"free"},{"bike_id":"d2397ff7-108b-48ba-804a-8dc8027d2eb2","system_id":"levelo_inurba_marseille","lat":43.33043,"lon":5.38925,"is_reserved":false,"is_disabled":false,"rental_uris":{"android":"levelo://app?vid=d2397ff7-108b-48ba-804a-8dc8027d2eb2","ios":"levelo://app?vid=d2397ff7-108b-48ba-804a-8dc8027d2eb2"},"vehicle_type_id":"4","last_reported":1702562819,"current_range_meters":28000,"station_id":"ce4bhr92rcd13ifvqhrg","pricing_plan_id":"free"},{"bike_id":"d1509023-daa3-43b6-9b9f-0fd27fe6f64b","system_id":"levelo_inurba_marseille","lat":43.290995,"lon":5.381361,"is_reserved":false,"is_disabled":false,"rental_uris":{"android":"levelo://app?vid=d1509023-daa3-43b6-9b9f-0fd27fe6f64b","ios":"levelo://app?vid=d1509023-daa3-43b6-9b9f-0fd27fe6f64b"},"vehicle_type_id":"4","last_reported":1702562819,"current_range_meters":7200,"station_id":"ce4bh512rcd13ifvqe2g","pricing_plan_id":"free"},{"bike_id":"7f00e588-b6cb-4d93-b5e7-4bc655fa1cdb","system_id":"levelo_inurba_marseille","lat":43.290995,"lon":5.381361,"is_reserved":false,"is_disabled":false,"rental_uris":{"android":"levelo://app?vid=7f00e588-b6cb-4d93-b5e7-4bc655fa1cdb","ios":"levelo://app?vid=7f00e588-b6cb-4d93-b5e7-4bc655fa1cdb"},"vehicle_type_id":"4","last_reported":1702562819,"current_range_meters":22800,"station_id":"ce4bh512rcd13ifvqe2g","pricing_plan_id":"free"},{"bike_id":"b4c9ae8b-9f54-4c41-abc5-b2b3c5bbf131","system_id":"levelo_inurba_marseille","lat":43.297815,"lon":5.393548,"is_reserved":false,"is_disabled":false,"rental_uris":{"android":"levelo://app?vid=b4c9ae8b-9f54-4c41-abc5-b2b3c5bbf131","ios":"levelo://app?vid=b4c9ae8b-9f54-4c41-abc5-b2b3c5bbf131"},"vehicle_type_id":"4","last_reported":1702562819,"current_range_meters":27600,"station_id":"chh1huq6cuj3fo74tm60","pricing_plan_id":"free"},{"bike_id":"683b3549-243a-4e6a-b4e7-b1f456b9d020","system_id":"levelo_inurba_marseille","lat":43.28851,"lon":5.35858,"is_reserved":false,"is_disabled":false,"rental_uris":{"android":"levelo://app?vid=683b3549-243a-4e6a-b4e7-b1f456b9d020","ios":"levelo://app?vid=683b3549-243a-4e6a-b4e7-b1f456b9d020"},"vehicle_type_id":"4","last_reported":1702562819,"current_range_meters":22800,"station_id":"ce4bhb12rcd13ifvqem0","pricing_plan_id":"free"},{"bike_id":"0e4889ce-fde7-4e43-b714-c061779acb35","system_id":"levelo_inurba_marseille","lat":43.309371,"lon":5.401449,"is_reserved":false,"is_disabled":false,"rental_uris":{"android":"levelo://app?vid=0e4889ce-fde7-4e43-b714-c061779acb35","ios":"levelo://app?vid=0e4889ce-fde7-4e43-b714-c061779acb35"},"vehicle_type_id":"4","last_reported":1702562819,"current_range_meters":9200,"station_id":"ce4bgvp2rcd13ifvqct0","pricing_plan_id":"free"},{"bike_id":"719f1c3e-810e-48cb-b1d5-fd10149a54fd","system_id":"levelo_inurba_marseille","lat":43.306412,"lon":5.401035,"is_reserved":false,"is_disabled":false,"rental_uris":{"android":"levelo://app?vid=719f1c3e-810e-48cb-b1d5-fd10149a54fd","ios":"levelo://app?vid=719f1c3e-810e-48cb-b1d5-fd10149a54fd"},"vehicle_type_id":"4","last_reported":1702562819,"current_range_meters":20400,"station_id":"ce4bh112rcd13ifvqda0","pricing_plan_id":"free"},{"bike_id":"1e68ea93-1eaa-4692-a23a-1c3ad6ee9e8d","system_id":"levelo_inurba_marseille","lat":43.28727,"lon":5.36078,"is_reserved":false,"is_disabled":false,"rental_uris":{"android":"levelo://app?vid=1e68ea93-1eaa-4692-a23a-1c3ad6ee9e8d","ios":"levelo://app?vid=1e68ea93-1eaa-4692-a23a-1c3ad6ee9e8d"},"vehicle_type_id":"4","last_reported":1702562819,"current_range_meters":26400,"station_id":"cki0cbj6b192h4jlfktg","pricing_plan_id":"free"},{"bike_id":"ab76c1bc-8f1f-4743-9ef3-b182eda24e45","system_id":"levelo_inurba_marseille","lat":43.290345,"lon":5.38646,"is_reserved":false,"is_disabled":false,"rental_uris":{"android":"levelo://app?vid=ab76c1bc-8f1f-4743-9ef3-b182eda24e45","ios":"levelo://app?vid=ab76c1bc-8f1f-4743-9ef3-b182eda24e45"},"vehicle_type_id":"4","last_reported":1702562819,"current_range_meters":5200,"station_id":"ce4bh4p2rcd13ifvqe0g","pricing_plan_id":"free"},{"bike_id":"ef3bda0c-125b-4452-b211-7845c43f66c0","system_id":"levelo_inurba_marseille","lat":43.290345,"lon":5.38646,"is_reserved":false,"is_disabled":false,"rental_uris":{"android":"levelo://app?vid=ef3bda0c-125b-4452-b211-7845c43f66c0","ios":"levelo://app?vid=ef3bda0c-125b-4452-b211-7845c43f66c0"},"vehicle_type_id":"4","last_reported":1702562819,"current_range_meters":12800,"station_id":"ce4bh4p2rcd13ifvqe0g","pricing_plan_id":"free"},{"bike_id":"4c52402f-3a82-4eee-a9e6-e9a9d1057c16","system_id":"levelo_inurba_marseille","lat":43.289307,"lon":5.38406,"is_reserved":false,"is_disabled":false,"rental_uris":{"android":"levelo://app?vid=4c52402f-3a82-4eee-a9e6-e9a9d1057c16","ios":"levelo://app?vid=4c52402f-3a82-4eee-a9e6-e9a9d1057c16"},"vehicle_type_id":"4","last_reported":1702562819,"current_range_meters":28000,"station_id":"ce4bh612rcd13ifvqe6g","pricing_plan_id":"free"},{"bike_id":"dbda1a7d-a087-4abc-a2ec-0e8116c6e52e","system_id":"levelo_inurba_marseille","lat":43.290345,"lon":5.38646,"is_reserved":false,"is_disabled":false,"rental_uris":{"android":"levelo://app?vid=dbda1a7d-a087-4abc-a2ec-0e8116c6e52e","ios":"levelo://app?vid=dbda1a7d-a087-4abc-a2ec-0e8116c6e52e"},"vehicle_type_id":"4","last_reported":1702562819,"current_range_meters":10400,"station_id":"ce4bh4p2rcd13ifvqe0g","pricing_plan_id":"free"},{"bike_id":"c1d0c0af-5775-42d7-8d59-5abd9d8c429d","system_id":"levelo_inurba_marseille","lat":43.29024,"lon":5.38649,"is_reserved":false,"is_disabled":false,"rental_uris":{"android":"levelo://app?vid=c1d0c0af-5775-42d7-8d59-5abd9d8c429d","ios":"levelo://app?vid=c1d0c0af-5775-42d7-8d59-5abd9d8c429d"},"vehicle_type_id":"4","last_reported":1702562819,"current_range_meters":24000,"station_id":"","pricing_plan_id":"free"},{"bike_id":"72863ef3-3ef3-47aa-9a38-93400570ebd2","system_id":"levelo_inurba_marseille","lat":43.287185,"lon":5.379373,"is_reserved":false,"is_disabled":false,"rental_uris":{"android":"levelo://app?vid=72863ef3-3ef3-47aa-9a38-93400570ebd2","ios":"levelo://app?vid=72863ef3-3ef3-47aa-9a38-93400570ebd2"},"vehicle_type_id":"4","last_reported":1702562819,"current_range_meters":20400,"station_id":"ce4bh9p2rcd13ifvqec0","pricing_plan_id":"free"},{"bike_id":"d7ad651c-4579-4056-8a60-bc95e9f287cf","system_id":"levelo_inurba_marseille","lat":43.287185,"lon":5.379373,"is_reserved":false,"is_disabled":false,"rental_uris":{"android":"levelo://app?vid=d7ad651c-4579-4056-8a60-bc95e9f287cf","ios":"levelo://app?vid=d7ad651c-4579-4056-8a60-bc95e9f287cf"},"vehicle_type_id":"4","last_reported":1702562819,"current_range_meters":20800,"station_id":"ce4bh9p2rcd13ifvqec0","pricing_plan_id":"free"},{"bike_id":"249e10a3-53ff-48e8-b6a2-e29fc56aff65","system_id":"levelo_inurba_marseille","lat":43.287185,"lon":5.379373,"is_reserved":false,"is_disabled":false,"rental_uris":{"android":"levelo://app?vid=249e10a3-53ff-48e8-b6a2-e29fc56aff65","ios":"levelo://app?vid=249e10a3-53ff-48e8-b6a2-e29fc56aff65"},"vehicle_type_id":"4","last_reported":1702562819,"current_range_meters":25600,"station_id":"ce4bh9p2rcd13ifvqec0","pricing_plan_id":"free"},{"bike_id":"3ca90a74-756f-44fe-9365-5b3d14e8f9fc","system_id":"levelo_inurba_marseille","lat":43.30006,"lon":5.40073,"is_reserved":false,"is_disabled":false,"rental_uris":{"android":"levelo://app?vid=3ca90a74-756f-44fe-9365-5b3d14e8f9fc","ios":"levelo://app?vid=3ca90a74-756f-44fe-9365-5b3d14e8f9fc"},"vehicle_type_id":"4","last_reported":1702562819,"current_range_meters":29600,"station_id":"","pricing_plan_id":"free"},{"bike_id":"32b2c5e7-4732-44c3-b5ee-d4941b28480c","system_id":"levelo_inurba_marseille","lat":43.316828,"lon":5.404723,"is_reserved":false,"is_disabled":false,"rental_uris":{"android":"levelo://app?vid=32b2c5e7-4732-44c3-b5ee-d4941b28480c","ios":"levelo://app?vid=32b2c5e7-4732-44c3-b5ee-d4941b28480c"},"vehicle_type_id":"4","last_reported":1702562819,"current_range_meters":5600,"station_id":"ce4bh012rcd13ifvqd00","pricing_plan_id":"free"},{"bike_id":"2e561e80-6259-4368-86e7-4f23807a139a","system_id":"levelo_inurba_marseille","lat":43.316828,"lon":5.404723,"is_reserved":false,"is_disabled":false,"rental_uris":{"android":"levelo://app?vid=2e561e80-6259-4368-86e7-4f23807a139a","ios":"levelo://app?vid=2e561e80-6259-4368-86e7-4f23807a139a"},"vehicle_type_id":"4","last_reported":1702562819,"current_range_meters":14000,"station_id":"ce4bh012rcd13ifvqd00","pricing_plan_id":"free"},{"bike_id":"e9fa3744-bac3-43a8-9abb-45079bc25202","system_id":"levelo_inurba_marseille","lat":43.285856,"lon":5.350771,"is_reserved":false,"is_disabled":false,"rental_uris":{"android":"levelo://app?vid=e9fa3744-bac3-43a8-9abb-45079bc25202","ios":"levelo://app?vid=e9fa3744-bac3-43a8-9abb-45079bc25202"},"vehicle_type_id":"4","last_reported":1702562819,"current_range_meters":22000,"station_id":"ce4bhch2rcd13ifvqeug","pricing_plan_id":"free"},{"bike_id":"bbb00f67-cf65-4f13-9f01-e2aee0844f8e","system_id":"levelo_inurba_marseille","lat":43.28612,"lon":5.35102,"is_reserved":false,"is_disabled":false,"rental_uris":{"android":"levelo://app?vid=bbb00f67-cf65-4f13-9f01-e2aee0844f8e","ios":"levelo://app?vid=bbb00f67-cf65-4f13-9f01-e2aee0844f8e"},"vehicle_type_id":"4","last_reported":1702562819,"current_range_meters":31200,"station_id":"ce4bhch2rcd13ifvqeug","pricing_plan_id":"free"},{"bike_id":"560deef1-534a-42b3-8314-0f1681ba770d","system_id":"levelo_inurba_marseille","lat":43.284793,"lon":5.384113,"is_reserved":false,"is_disabled":false,"rental_uris":{"android":"levelo://app?vid=560deef1-534a-42b3-8314-0f1681ba770d","ios":"levelo://app?vid=560deef1-534a-42b3-8314-0f1681ba770d"},"vehicle_type_id":"4","last_reported":1702562819,"current_range_meters":14000,"station_id":"ce4bh512rcd13ifvqe3g","pricing_plan_id":"free"},{"bike_id":"d6eb7b99-807c-473c-98e7-0bc13aee5d15","system_id":"levelo_inurba_marseille","lat":43.283494,"lon":5.380945,"is_reserved":false,"is_disabled":false,"rental_uris":{"android":"levelo://app?vid=d6eb7b99-807c-473c-98e7-0bc13aee5d15","ios":"levelo://app?vid=d6eb7b99-807c-473c-98e7-0bc13aee5d15"},"vehicle_type_id":"4","last_reported":1702562819,"current_range_meters":21200,"station_id":"ce4bh412rcd13ifvqdr0","pricing_plan_id":"free"},{"bike_id":"816ccb34-e7bb-4dbf-b990-d346bb37f480","system_id":"levelo_inurba_marseille","lat":43.283494,"lon":5.380945,"is_reserved":false,"is_disabled":false,"rental_uris":{"android":"levelo://app?vid=816ccb34-e7bb-4dbf-b990-d346bb37f480","ios":"levelo://app?vid=816ccb34-e7bb-4dbf-b990-d346bb37f480"},"vehicle_type_id":"4","last_reported":1702562819,"current_range_meters":16000,"station_id":"ce4bh412rcd13ifvqdr0","pricing_plan_id":"free"},{"bike_id":"101672cb-2284-4db1-aa30-7070225489b9","system_id":"levelo_inurba_marseille","lat":43.283498,"lon":5.380948,"is_reserved":false,"is_disabled":false,"rental_uris":{"android":"levelo://app?vid=101672cb-2284-4db1-aa30-7070225489b9","ios":"levelo://app?vid=101672cb-2284-4db1-aa30-7070225489b9"},"vehicle_type_id":"4","last_reported":1702562819,"current_range_meters":9200,"station_id":"ce4bh412rcd13ifvqdr0","pricing_plan_id":"free"},{"bike_id":"5186808e-95da-46b8-8c36-b2072963457d","system_id":"levelo_inurba_marseille","lat":43.282744,"lon":5.350533,"is_reserved":false,"is_disabled":false,"rental_uris":{"android":"levelo://app?vid=5186808e-95da-46b8-8c36-b2072963457d","ios":"levelo://app?vid=5186808e-95da-46b8-8c36-b2072963457d"},"vehicle_type_id":"4","last_reported":1702562819,"current_range_meters":19600,"station_id":"ce4bhbp2rcd13ifvqerg","pricing_plan_id":"free"},{"bike_id":"7d69e23f-a4fc-4e60-bc55-784b24d258d2","system_id":"levelo_inurba_marseille","lat":43.29041,"lon":5.399634,"is_reserved":false,"is_disabled":false,"rental_uris":{"android":"levelo://app?vid=7d69e23f-a4fc-4e60-bc55-784b24d258d2","ios":"levelo://app?vid=7d69e23f-a4fc-4e60-bc55-784b24d258d2"},"vehicle_type_id":"4","last_reported":1702562819,"current_range_meters":4000,"station_id":"ce4bh392rcd13ifvqdm0","pricing_plan_id":"free"},{"bike_id":"77330320-8ccb-4092-91ed-43f91c0119a3","system_id":"levelo_inurba_marseille","lat":43.281044,"lon":5.378308,"is_reserved":false,"is_disabled":false,"rental_uris":{"android":"levelo://app?vid=77330320-8ccb-4092-91ed-43f91c0119a3","ios":"levelo://app?vid=77330320-8ccb-4092-91ed-43f91c0119a3"},"vehicle_type_id":"4","last_reported":1702562819,"current_range_meters":22000,"station_id":"ce4bha12rcd13ifvqee0","pricing_plan_id":"free"},{"bike_id":"dee68766-d5de-4982-bd8b-45c3f2fea505","system_id":"levelo_inurba_marseille","lat":43.28573,"lon":5.394992,"is_reserved":false,"is_disabled":false,"rental_uris":{"android":"levelo://app?vid=dee68766-d5de-4982-bd8b-45c3f2fea505","ios":"levelo://app?vid=dee68766-d5de-4982-bd8b-45c3f2fea505"},"vehicle_type_id":"4","last_reported":1702562819,"current_range_meters":9200,"station_id":"ce4bh292rcd13ifvqdg0","pricing_plan_id":"free"},{"bike_id":"2fac1d20-794c-4a27-913b-cd3d828cd7c6","system_id":"levelo_inurba_marseille","lat":43.326605,"lon":5.409903,"is_reserved":false,"is_disabled":false,"rental_uris":{"android":"levelo://app?vid=2fac1d20-794c-4a27-913b-cd3d828cd7c6","ios":"levelo://app?vid=2fac1d20-794c-4a27-913b-cd3d828cd7c6"},"vehicle_type_id":"4","last_reported":1702562819,"current_range_meters":25200,"station_id":"ce4bhpp2rcd13ifvqhgg","pricing_plan_id":"free"},{"bike_id":"98f31671-f862-47d7-b4e9-09287a18c663","system_id":"levelo_inurba_marseille","lat":43.292569,"lon":5.409107,"is_reserved":false,"is_disabled":false,"rental_uris":{"android":"levelo://app?vid=98f31671-f862-47d7-b4e9-09287a18c663","ios":"levelo://app?vid=98f31671-f862-47d7-b4e9-09287a18c663"},"vehicle_type_id":"4","last_reported":1702562819,"current_range_meters":26400,"station_id":"ce4bh192rcd13ifvqdc0","pricing_plan_id":"free"},{"bike_id":"93160ac2-f71b-47ff-989a-a8354ea99363","system_id":"levelo_inurba_marseille","lat":43.292569,"lon":5.409107,"is_reserved":false,"is_disabled":false,"rental_uris":{"android":"levelo://app?vid=93160ac2-f71b-47ff-989a-a8354ea99363","ios":"levelo://app?vid=93160ac2-f71b-47ff-989a-a8354ea99363"},"vehicle_type_id":"4","last_reported":1702562819,"current_range_meters":25200,"station_id":"ce4bh192rcd13ifvqdc0","pricing_plan_id":"free"},{"bike_id":"9a125995-9b1e-4ec5-a1ae-fec8b0e288cf","system_id":"levelo_inurba_marseille","lat":43.292571,"lon":5.409107,"is_reserved":false,"is_disabled":false,"rental_uris":{"android":"levelo://app?vid=9a125995-9b1e-4ec5-a1ae-fec8b0e288cf","ios":"levelo://app?vid=9a125995-9b1e-4ec5-a1ae-fec8b0e288cf"},"vehicle_type_id":"4","last_reported":1702562819,"current_range_meters":28000,"station_id":"ce4bh192rcd13ifvqdc0","pricing_plan_id":"free"},{"bike_id":"44d93f86-6321-4de3-bbc1-780bc3cf4cb8","system_id":"levelo_inurba_marseille","lat":43.325233,"lon":5.414318,"is_reserved":false,"is_disabled":false,"rental_uris":{"android":"levelo://app?vid=44d93f86-6321-4de3-bbc1-780bc3cf4cb8","ios":"levelo://app?vid=44d93f86-6321-4de3-bbc1-780bc3cf4cb8"},"vehicle_type_id":"4","last_reported":1702562819,"current_range_meters":27200,"station_id":"ce4bhq12rcd13ifvqhhg","pricing_plan_id":"free"},{"bike_id":"18798d10-68cb-4939-a9cd-c2e4c42c8a60","system_id":"levelo_inurba_marseille","lat":43.278401,"lon":5.392152,"is_reserved":false,"is_disabled":false,"rental_uris":{"android":"levelo://app?vid=18798d10-68cb-4939-a9cd-c2e4c42c8a60","ios":"levelo://app?vid=18798d10-68cb-4939-a9cd-c2e4c42c8a60"},"vehicle_type_id":"4","last_reported":1702562819,"current_range_meters":23200,"station_id":"ce4bhjp2rcd13ifvqga0","pricing_plan_id":"free"},{"bike_id":"c4cfb68b-0ac0-4a8c-b786-f9b41850db55","system_id":"levelo_inurba_marseille","lat":43.273613,"lon":5.362705,"is_reserved":false,"is_disabled":false,"rental_uris":{"android":"levelo://app?vid=c4cfb68b-0ac0-4a8c-b786-f9b41850db55","ios":"levelo://app?vid=c4cfb68b-0ac0-4a8c-b786-f9b41850db55"},"vehicle_type_id":"4","last_reported":1702562819,"current_range_meters":28000,"station_id":"ce4bhbh2rcd13ifvqeo0","pricing_plan_id":"free"},{"bike_id":"ccaa59a6-7d99-4a18-9e46-95087d495809","system_id":"levelo_inurba_marseille","lat":43.273613,"lon":5.362705,"is_reserved":false,"is_disabled":false,"rental_uris":{"android":"levelo://app?vid=ccaa59a6-7d99-4a18-9e46-95087d495809","ios":"levelo://app?vid=ccaa59a6-7d99-4a18-9e46-95087d495809"},"vehicle_type_id":"4","last_reported":1702562819,"current_range_meters":27200,"station_id":"ce4bhbh2rcd13ifvqeo0","pricing_plan_id":"free"},{"bike_id":"fac95fad-492a-4f29-b8d3-464cdc304e46","system_id":"levelo_inurba_marseille","lat":43.275625,"lon":5.384392,"is_reserved":false,"is_disabled":false,"rental_uris":{"android":"levelo://app?vid=fac95fad-492a-4f29-b8d3-464cdc304e46","ios":"levelo://app?vid=fac95fad-492a-4f29-b8d3-464cdc304e46"},"vehicle_type_id":"4","last_reported":1702562819,"current_range_meters":24800,"station_id":"ce4bhh92rcd13ifvqfi0","pricing_plan_id":"free"},{"bike_id":"8e838614-7153-460b-99f5-ff9e1a9ca04d","system_id":"levelo_inurba_marseille","lat":43.336134,"lon":5.410341,"is_reserved":false,"is_disabled":false,"rental_uris":{"android":"levelo://app?vid=8e838614-7153-460b-99f5-ff9e1a9ca04d","ios":"levelo://app?vid=8e838614-7153-460b-99f5-ff9e1a9ca04d"},"vehicle_type_id":"4","last_reported":1702562819,"current_range_meters":18000,"station_id":"ce4bhqh2rcd13ifvqhmg","pricing_plan_id":"free"},{"bike_id":"db5d3f95-12ab-4dd1-bcec-3e273949312a","system_id":"levelo_inurba_marseille","lat":43.276771,"lon":5.388799,"is_reserved":false,"is_disabled":false,"rental_uris":{"android":"levelo://app?vid=db5d3f95-12ab-4dd1-bcec-3e273949312a","ios":"levelo://app?vid=db5d3f95-12ab-4dd1-bcec-3e273949312a"},"vehicle_type_id":"4","last_reported":1702562819,"current_range_meters":24000,"station_id":"ce4bhi12rcd13ifvqfo0","pricing_plan_id":"free"},{"bike_id":"7c16ae43-23bf-456f-91ee-1b1041501b91","system_id":"levelo_inurba_marseille","lat":43.276583,"lon":5.388813,"is_reserved":false,"is_disabled":false,"rental_uris":{"android":"levelo://app?vid=7c16ae43-23bf-456f-91ee-1b1041501b91","ios":"levelo://app?vid=7c16ae43-23bf-456f-91ee-1b1041501b91"},"vehicle_type_id":"4","last_reported":1702562819,"current_range_meters":1600,"station_id":"ce4bhi12rcd13ifvqfo0","pricing_plan_id":"free"},{"bike_id":"55f8cf7b-a384-4860-b1f5-075034029351","system_id":"levelo_inurba_marseille","lat":43.31715,"lon":5.42399,"is_reserved":false,"is_disabled":false,"rental_uris":{"android":"levelo://app?vid=55f8cf7b-a384-4860-b1f5-075034029351","ios":"levelo://app?vid=55f8cf7b-a384-4860-b1f5-075034029351"},"vehicle_type_id":"4","last_reported":1702562819,"current_range_meters":20800,"station_id":"ce4bhp92rcd13ifvqhbg","pricing_plan_id":"free"},{"bike_id":"ac2c58ee-191e-4bb0-956f-1c831f336570","system_id":"levelo_inurba_marseille","lat":43.340804,"lon":5.410219,"is_reserved":false,"is_disabled":false,"rental_uris":{"android":"levelo://app?vid=ac2c58ee-191e-4bb0-956f-1c831f336570","ios":"levelo://app?vid=ac2c58ee-191e-4bb0-956f-1c831f336570"},"vehicle_type_id":"4","last_reported":1702562819,"current_range_meters":26400,"station_id":"ce4bhqh2rcd13ifvqhlg","pricing_plan_id":"free"},{"bike_id":"c1bb8d87-2ec8-43f9-90cc-c1323bd02da6","system_id":"levelo_inurba_marseille","lat":43.340804,"lon":5.410219,"is_reserved":false,"is_disabled":false,"rental_uris":{"android":"levelo://app?vid=c1bb8d87-2ec8-43f9-90cc-c1323bd02da6","ios":"levelo://app?vid=c1bb8d87-2ec8-43f9-90cc-c1323bd02da6"},"vehicle_type_id":"4","last_reported":1702562819,"current_range_meters":21200,"station_id":"ce4bhqh2rcd13ifvqhlg","pricing_plan_id":"free"},{"bike_id":"3ca2c2d2-99b0-4aa6-a05d-e30f02e6a7fb","system_id":"levelo_inurba_marseille","lat":43.276092,"lon":5.395289,"is_reserved":false,"is_disabled":false,"rental_uris":{"android":"levelo://app?vid=3ca2c2d2-99b0-4aa6-a05d-e30f02e6a7fb","ios":"levelo://app?vid=3ca2c2d2-99b0-4aa6-a05d-e30f02e6a7fb"},"vehicle_type_id":"4","last_reported":1702562819,"current_range_meters":29600,"station_id":"","pricing_plan_id":"free"},{"bike_id":"9a24561f-b3b9-4ffc-9e3b-b231643b962d","system_id":"levelo_inurba_marseille","lat":43.283502,"lon":5.386471,"is_reserved":false,"is_disabled":false,"rental_uris":{"android":"levelo://app?vid=9a24561f-b3b9-4ffc-9e3b-b231643b962d","ios":"levelo://app?vid=9a24561f-b3b9-4ffc-9e3b-b231643b962d"},"vehicle_type_id":"4","last_reported":1702562819,"current_range_meters":13600,"station_id":"ce4bh492rcd13ifvqdvg","pricing_plan_id":"free"},{"bike_id":"0b1f3767-ffec-4683-83c0-14492170b1b4","system_id":"levelo_inurba_marseille","lat":43.295511,"lon":5.422926,"is_reserved":false,"is_disabled":false,"rental_uris":{"android":"levelo://app?vid=0b1f3767-ffec-4683-83c0-14492170b1b4","ios":"levelo://app?vid=0b1f3767-ffec-4683-83c0-14492170b1b4"},"vehicle_type_id":"4","last_reported":1702562819,"current_range_meters":17200,"station_id":"ce4bhph2rcd13ifvqhdg","pricing_plan_id":"free"},{"bike_id":"6772ba5c-60e2-464d-8b08-9fde0a9a4740","system_id":"levelo_inurba_marseille","lat":43.272124,"lon":5.391768,"is_reserved":false,"is_disabled":false,"rental_uris":{"android":"levelo://app?vid=6772ba5c-60e2-464d-8b08-9fde0a9a4740","ios":"levelo://app?vid=6772ba5c-60e2-464d-8b08-9fde0a9a4740"},"vehicle_type_id":"4","last_reported":1702562819,"current_range_meters":10000,"station_id":"ce4bhhp2rcd13ifvqfm0","pricing_plan_id":"free"},{"bike_id":"f7ba1bd1-0b64-4579-812f-07ee12780698","system_id":"levelo_inurba_marseille","lat":43.26554,"lon":5.37282,"is_reserved":false,"is_disabled":false,"rental_uris":{"android":"levelo://app?vid=f7ba1bd1-0b64-4579-812f-07ee12780698","ios":"levelo://app?vid=f7ba1bd1-0b64-4579-812f-07ee12780698"},"vehicle_type_id":"4","last_reported":1702562819,"current_range_meters":31200,"station_id":"ce4bhg12rcd13ifvqf70","pricing_plan_id":"free"},{"bike_id":"6ed9a9b0-eeef-4de0-a34b-cab56517fd5a","system_id":"levelo_inurba_marseille","lat":43.26949,"lon":5.40262,"is_reserved":false,"is_disabled":false,"rental_uris":{"android":"levelo://app?vid=6ed9a9b0-eeef-4de0-a34b-cab56517fd5a","ios":"levelo://app?vid=6ed9a9b0-eeef-4de0-a34b-cab56517fd5a"},"vehicle_type_id":"4","last_reported":1702562819,"current_range_meters":0,"station_id":"cjm6bp8fraef2m0cb0m0","pricing_plan_id":"free"},{"bike_id":"42afcb68-666d-4f36-a2b7-0f116103e654","system_id":"levelo_inurba_marseille","lat":43.261858,"lon":5.374424,"is_reserved":false,"is_disabled":false,"rental_uris":{"android":"levelo://app?vid=42afcb68-666d-4f36-a2b7-0f116103e654","ios":"levelo://app?vid=42afcb68-666d-4f36-a2b7-0f116103e654"},"vehicle_type_id":"4","last_reported":1702562819,"current_range_meters":30800,"station_id":"ce4bhgp2rcd13ifvqfc0","pricing_plan_id":"free"},{"bike_id":"b6938647-2397-4611-817c-2b79f86944cf","system_id":"levelo_inurba_marseille","lat":43.26186,"lon":5.37447,"is_reserved":false,"is_disabled":false,"rental_uris":{"android":"levelo://app?vid=b6938647-2397-4611-817c-2b79f86944cf","ios":"levelo://app?vid=b6938647-2397-4611-817c-2b79f86944cf"},"vehicle_type_id":"4","last_reported":1702562819,"current_range_meters":14000,"station_id":"ce4bhgp2rcd13ifvqfc0","pricing_plan_id":"free"},{"bike_id":"9c2ff6ff-4b0d-4f55-ba05-f2cbbd018860","system_id":"levelo_inurba_marseille","lat":43.261782,"lon":5.374515,"is_reserved":false,"is_disabled":false,"rental_uris":{"android":"levelo://app?vid=9c2ff6ff-4b0d-4f55-ba05-f2cbbd018860","ios":"levelo://app?vid=9c2ff6ff-4b0d-4f55-ba05-f2cbbd018860"},"vehicle_type_id":"4","last_reported":1702562819,"current_range_meters":26000,"station_id":"ce4bhgp2rcd13ifvqfc0","pricing_plan_id":"free"},{"bike_id":"2a9b5c26-716b-49ad-a0d0-742f445ef661","system_id":"levelo_inurba_marseille","lat":43.26205,"lon":5.379247,"is_reserved":false,"is_disabled":false,"rental_uris":{"android":"levelo://app?vid=2a9b5c26-716b-49ad-a0d0-742f445ef661","ios":"levelo://app?vid=2a9b5c26-716b-49ad-a0d0-742f445ef661"},"vehicle_type_id":"4","last_reported":1702562819,"current_range_meters":30000,"station_id":"ce4bhjp2rcd13ifvqg90","pricing_plan_id":"free"},{"bike_id":"293b0fd3-65b1-42bb-807b-a77a51ee2260","system_id":"levelo_inurba_marseille","lat":43.271388,"lon":5.409269,"is_reserved":false,"is_disabled":false,"rental_uris":{"android":"levelo://app?vid=293b0fd3-65b1-42bb-807b-a77a51ee2260","ios":"levelo://app?vid=293b0fd3-65b1-42bb-807b-a77a51ee2260"},"vehicle_type_id":"4","last_reported":1702562819,"current_range_meters":30000,"station_id":"ce4bhl12rcd13ifvqgf0","pricing_plan_id":"free"},{"bike_id":"c1a8efc5-2e3d-49d0-904c-c79a29112631","system_id":"levelo_inurba_marseille","lat":43.26202,"lon":5.379299,"is_reserved":false,"is_disabled":false,"rental_uris":{"android":"levelo://app?vid=c1a8efc5-2e3d-49d0-904c-c79a29112631","ios":"levelo://app?vid=c1a8efc5-2e3d-49d0-904c-c79a29112631"},"vehicle_type_id":"4","last_reported":1702562819,"current_range_meters":31600,"station_id":"ce4bhjp2rcd13ifvqg90","pricing_plan_id":"free"},{"bike_id":"ae6f9245-5cb7-449d-b038-f2de69599c57","system_id":"levelo_inurba_marseille","lat":43.26202,"lon":5.379299,"is_reserved":false,"is_disabled":false,"rental_uris":{"android":"levelo://app?vid=ae6f9245-5cb7-449d-b038-f2de69599c57","ios":"levelo://app?vid=ae6f9245-5cb7-449d-b038-f2de69599c57"},"vehicle_type_id":"4","last_reported":1702562819,"current_range_meters":20800,"station_id":"ce4bhjp2rcd13ifvqg90","pricing_plan_id":"free"},{"bike_id":"85bb6876-09dd-4248-8295-9261388e0935","system_id":"levelo_inurba_marseille","lat":43.271368,"lon":5.40928,"is_reserved":false,"is_disabled":false,"rental_uris":{"android":"levelo://app?vid=85bb6876-09dd-4248-8295-9261388e0935","ios":"levelo://app?vid=85bb6876-09dd-4248-8295-9261388e0935"},"vehicle_type_id":"4","last_reported":1702562819,"current_range_meters":8800,"station_id":"ce4bhl12rcd13ifvqgf0","pricing_plan_id":"free"},{"bike_id":"d1d32a8f-6061-42f8-beac-ce290461e74b","system_id":"levelo_inurba_marseille","lat":43.271368,"lon":5.40928,"is_reserved":false,"is_disabled":false,"rental_uris":{"android":"levelo://app?vid=d1d32a8f-6061-42f8-beac-ce290461e74b","ios":"levelo://app?vid=d1d32a8f-6061-42f8-beac-ce290461e74b"},"vehicle_type_id":"4","last_reported":1702562819,"current_range_meters":27200,"station_id":"ce4bhl12rcd13ifvqgf0","pricing_plan_id":"free"},{"bike_id":"9ff9ecae-2b4f-4539-a9a9-ab0253748a72","system_id":"levelo_inurba_marseille","lat":43.267959,"lon":5.402685,"is_reserved":false,"is_disabled":false,"rental_uris":{"android":"levelo://app?vid=9ff9ecae-2b4f-4539-a9a9-ab0253748a72","ios":"levelo://app?vid=9ff9ecae-2b4f-4539-a9a9-ab0253748a72"},"vehicle_type_id":"4","last_reported":1702562819,"current_range_meters":2000,"station_id":"ce501612rcd8frsf0b60","pricing_plan_id":"free"},{"bike_id":"81a6f7c7-e876-4da9-9acc-cd51e761bff2","system_id":"levelo_inurba_marseille","lat":43.267959,"lon":5.402687,"is_reserved":false,"is_disabled":false,"rental_uris":{"android":"levelo://app?vid=81a6f7c7-e876-4da9-9acc-cd51e761bff2","ios":"levelo://app?vid=81a6f7c7-e876-4da9-9acc-cd51e761bff2"},"vehicle_type_id":"4","last_reported":1702562819,"current_range_meters":26800,"station_id":"ce501612rcd8frsf0b60","pricing_plan_id":"free"},{"bike_id":"96ba9d10-482b-4b54-ba33-7a67558f4e06","system_id":"levelo_inurba_marseille","lat":43.264994,"lon":5.395409,"is_reserved":false,"is_disabled":false,"rental_uris":{"android":"levelo://app?vid=96ba9d10-482b-4b54-ba33-7a67558f4e06","ios":"levelo://app?vid=96ba9d10-482b-4b54-ba33-7a67558f4e06"},"vehicle_type_id":"4","last_reported":1702562819,"current_range_meters":14400,"station_id":"","pricing_plan_id":"free"},{"bike_id":"38a4a3ac-b01c-43e0-abb4-5a012521fc8c","system_id":"levelo_inurba_marseille","lat":43.298768,"lon":5.43643,"is_reserved":false,"is_disabled":false,"rental_uris":{"android":"levelo://app?vid=38a4a3ac-b01c-43e0-abb4-5a012521fc8c","ios":"levelo://app?vid=38a4a3ac-b01c-43e0-abb4-5a012521fc8c"},"vehicle_type_id":"4","last_reported":1702562819,"current_range_meters":30000,"station_id":"ce4bhpp2rcd13ifvqhfg","pricing_plan_id":"free"},{"bike_id":"77b2a286-354b-40cc-be5e-9ae26145de61","system_id":"levelo_inurba_marseille","lat":43.281541,"lon":5.426456,"is_reserved":false,"is_disabled":false,"rental_uris":{"android":"levelo://app?vid=77b2a286-354b-40cc-be5e-9ae26145de61","ios":"levelo://app?vid=77b2a286-354b-40cc-be5e-9ae26145de61"},"vehicle_type_id":"4","last_reported":1702562819,"current_range_meters":22400,"station_id":"ce4bhnh2rcd13ifvqgug","pricing_plan_id":"free"},{"bike_id":"990dec83-864c-48f8-ad62-938f975eea41","system_id":"levelo_inurba_marseille","lat":43.2607,"lon":5.393983,"is_reserved":false,"is_disabled":false,"rental_uris":{"android":"levelo://app?vid=990dec83-864c-48f8-ad62-938f975eea41","ios":"levelo://app?vid=990dec83-864c-48f8-ad62-938f975eea41"},"vehicle_type_id":"4","last_reported":1702562819,"current_range_meters":6800,"station_id":"ce4bhh92rcd13ifvqfj0","pricing_plan_id":"free"},{"bike_id":"7767d44a-601b-4d39-95ad-9fd63259ccc4","system_id":"levelo_inurba_marseille","lat":43.275028,"lon":5.424534,"is_reserved":false,"is_disabled":false,"rental_uris":{"android":"levelo://app?vid=7767d44a-601b-4d39-95ad-9fd63259ccc4","ios":"levelo://app?vid=7767d44a-601b-4d39-95ad-9fd63259ccc4"},"vehicle_type_id":"4","last_reported":1702562819,"current_range_meters":19200,"station_id":"ce4bhn92rcd13ifvqgrg","pricing_plan_id":"free"},{"bike_id":"8930228e-77b2-4434-a368-ffee58eccf81","system_id":"levelo_inurba_marseille","lat":43.25575,"lon":5.38247,"is_reserved":false,"is_disabled":false,"rental_uris":{"android":"levelo://app?vid=8930228e-77b2-4434-a368-ffee58eccf81","ios":"levelo://app?vid=8930228e-77b2-4434-a368-ffee58eccf81"},"vehicle_type_id":"4","last_reported":1702562819,"current_range_meters":6400,"station_id":"ce4bhih2rcd13ifvqfs0","pricing_plan_id":"free"},{"bike_id":"ecf01aad-11c2-411e-91d2-0e6db3600a9b","system_id":"levelo_inurba_marseille","lat":43.25813,"lon":5.39429,"is_reserved":false,"is_disabled":false,"rental_uris":{"android":"levelo://app?vid=ecf01aad-11c2-411e-91d2-0e6db3600a9b","ios":"levelo://app?vid=ecf01aad-11c2-411e-91d2-0e6db3600a9b"},"vehicle_type_id":"4","last_reported":1702562819,"current_range_meters":12800,"station_id":"ce4bhip2rcd13ifvqft0","pricing_plan_id":"free"},{"bike_id":"9d3a85b4-3ffa-45ee-a0ed-d032bf9b456e","system_id":"levelo_inurba_marseille","lat":43.25868,"lon":5.39905,"is_reserved":false,"is_disabled":false,"rental_uris":{"android":"levelo://app?vid=9d3a85b4-3ffa-45ee-a0ed-d032bf9b456e","ios":"levelo://app?vid=9d3a85b4-3ffa-45ee-a0ed-d032bf9b456e"},"vehicle_type_id":"4","last_reported":1702562819,"current_range_meters":0,"station_id":"ce4bhl92rcd13ifvqghg","pricing_plan_id":"free"},{"bike_id":"8a323e35-243b-43c4-8f87-dc55c092f39e","system_id":"levelo_inurba_marseille","lat":43.259013,"lon":5.409301,"is_reserved":false,"is_disabled":false,"rental_uris":{"android":"levelo://app?vid=8a323e35-243b-43c4-8f87-dc55c092f39e","ios":"levelo://app?vid=8a323e35-243b-43c4-8f87-dc55c092f39e"},"vehicle_type_id":"4","last_reported":1702562819,"current_range_meters":19600,"station_id":"ce4bhm92rcd13ifvqglg","pricing_plan_id":"free"},{"bike_id":"7fd3a47f-aeff-40bc-994e-1546c4310c29","system_id":"levelo_inurba_marseille","lat":43.259013,"lon":5.409301,"is_reserved":false,"is_disabled":false,"rental_uris":{"android":"levelo://app?vid=7fd3a47f-aeff-40bc-994e-1546c4310c29","ios":"levelo://app?vid=7fd3a47f-aeff-40bc-994e-1546c4310c29"},"vehicle_type_id":"4","last_reported":1702562819,"current_range_meters":9600,"station_id":"ce4bhm92rcd13ifvqglg","pricing_plan_id":"free"},{"bike_id":"c921bc1a-d32f-485e-8749-d090a34ab8b9","system_id":"levelo_inurba_marseille","lat":43.250009,"lon":5.389195,"is_reserved":false,"is_disabled":false,"rental_uris":{"android":"levelo://app?vid=c921bc1a-d32f-485e-8749-d090a34ab8b9","ios":"levelo://app?vid=c921bc1a-d32f-485e-8749-d090a34ab8b9"},"vehicle_type_id":"4","last_reported":1702562819,"current_range_meters":4400,"station_id":"ce4bhgp2rcd13ifvqfd0","pricing_plan_id":"free"},{"bike_id":"f097b67e-0598-416d-a63d-0ee465e3ac10","system_id":"levelo_inurba_marseille","lat":43.2479,"lon":5.374457,"is_reserved":false,"is_disabled":false,"rental_uris":{"android":"levelo://app?vid=f097b67e-0598-416d-a63d-0ee465e3ac10","ios":"levelo://app?vid=f097b67e-0598-416d-a63d-0ee465e3ac10"},"vehicle_type_id":"4","last_reported":1702562819,"current_range_meters":29200,"station_id":"ce4bhgh2rcd13ifvqfb0","pricing_plan_id":"free"},{"bike_id":"41141c1c-d172-4264-ae0f-545f42a7f1d0","system_id":"levelo_inurba_marseille","lat":43.250966,"lon":5.395186,"is_reserved":false,"is_disabled":false,"rental_uris":{"android":"levelo://app?vid=41141c1c-d172-4264-ae0f-545f42a7f1d0","ios":"levelo://app?vid=41141c1c-d172-4264-ae0f-545f42a7f1d0"},"vehicle_type_id":"4","last_reported":1702562819,"current_range_meters":21600,"station_id":"ce4bhm12rcd13ifvqgkg","pricing_plan_id":"free"},{"bike_id":"3b0c33de-4617-43ad-a623-8354a5ab045e","system_id":"levelo_inurba_marseille","lat":43.24693,"lon":5.382096,"is_reserved":false,"is_disabled":false,"rental_uris":{"android":"levelo://app?vid=3b0c33de-4617-43ad-a623-8354a5ab045e","ios":"levelo://app?vid=3b0c33de-4617-43ad-a623-8354a5ab045e"},"vehicle_type_id":"4","last_reported":1702562819,"current_range_meters":4800,"station_id":"ce4bhih2rcd13ifvqfr0","pricing_plan_id":"free"},{"bike_id":"3fd9d478-d509-4fd0-ad0b-eb3b24fce254","system_id":"levelo_inurba_marseille","lat":43.2408,"lon":5.3776,"is_reserved":false,"is_disabled":false,"rental_uris":{"android":"levelo://app?vid=3fd9d478-d509-4fd0-ad0b-eb3b24fce254","ios":"levelo://app?vid=3fd9d478-d509-4fd0-ad0b-eb3b24fce254"},"vehicle_type_id":"4","last_reported":1702562819,"current_range_meters":31200,"station_id":"ce4bhnp2rcd13ifvqgvg","pricing_plan_id":"free"},{"bike_id":"9f2429a3-b9f1-4d3d-9d72-bd3392247e6e","system_id":"levelo_inurba_marseille","lat":43.240782,"lon":5.377563,"is_reserved":false,"is_disabled":false,"rental_uris":{"android":"levelo://app?vid=9f2429a3-b9f1-4d3d-9d72-bd3392247e6e","ios":"levelo://app?vid=9f2429a3-b9f1-4d3d-9d72-bd3392247e6e"},"vehicle_type_id":"4","last_reported":1702562819,"current_range_meters":31200,"station_id":"ce4bhnp2rcd13ifvqgvg","pricing_plan_id":"free"},{"bike_id":"77a25dcb-42c7-459f-9088-d1a09eec1776","system_id":"levelo_inurba_marseille","lat":43.24076,"lon":5.37758,"is_reserved":false,"is_disabled":false,"rental_uris":{"android":"levelo://app?vid=77a25dcb-42c7-459f-9088-d1a09eec1776","ios":"levelo://app?vid=77a25dcb-42c7-459f-9088-d1a09eec1776"},"vehicle_type_id":"4","last_reported":1702562819,"current_range_meters":14400,"station_id":"ce4bhnp2rcd13ifvqgvg","pricing_plan_id":"free"},{"bike_id":"ce62fb7a-dc52-4661-8d3b-fe2f670b6f60","system_id":"levelo_inurba_marseille","lat":43.24076,"lon":5.3776,"is_reserved":false,"is_disabled":false,"rental_uris":{"android":"levelo://app?vid=ce62fb7a-dc52-4661-8d3b-fe2f670b6f60","ios":"levelo://app?vid=ce62fb7a-dc52-4661-8d3b-fe2f670b6f60"},"vehicle_type_id":"4","last_reported":1702562819,"current_range_meters":2800,"station_id":"ce4bhnp2rcd13ifvqgvg","pricing_plan_id":"free"},{"bike_id":"7181a3fc-4966-47fa-a1bc-6597b1a21606","system_id":"levelo_inurba_marseille","lat":43.24072,"lon":5.3776,"is_reserved":false,"is_disabled":false,"rental_uris":{"android":"levelo://app?vid=7181a3fc-4966-47fa-a1bc-6597b1a21606","ios":"levelo://app?vid=7181a3fc-4966-47fa-a1bc-6597b1a21606"},"vehicle_type_id":"4","last_reported":1702562819,"current_range_meters":17600,"station_id":"ce4bhnp2rcd13ifvqgvg","pricing_plan_id":"free"},{"bike_id":"9a8c4184-8b4d-4870-984d-5b3ed5be8f0e","system_id":"levelo_inurba_marseille","lat":43.240623,"lon":5.377642,"is_reserved":false,"is_disabled":false,"rental_uris":{"android":"levelo://app?vid=9a8c4184-8b4d-4870-984d-5b3ed5be8f0e","ios":"levelo://app?vid=9a8c4184-8b4d-4870-984d-5b3ed5be8f0e"},"vehicle_type_id":"4","last_reported":1702562819,"current_range_meters":28000,"station_id":"ce4bhnp2rcd13ifvqgvg","pricing_plan_id":"free"},{"bike_id":"b9704be7-bf55-4c51-9eb0-ccd081eb72a4","system_id":"levelo_inurba_marseille","lat":43.2407,"lon":5.37764,"is_reserved":false,"is_disabled":false,"rental_uris":{"android":"levelo://app?vid=b9704be7-bf55-4c51-9eb0-ccd081eb72a4","ios":"levelo://app?vid=b9704be7-bf55-4c51-9eb0-ccd081eb72a4"},"vehicle_type_id":"4","last_reported":1702562819,"current_range_meters":31600,"station_id":"ce4bhnp2rcd13ifvqgvg","pricing_plan_id":"free"},{"bike_id":"db79a0b7-2eb5-4a4f-93cf-70b6122e3cc6","system_id":"levelo_inurba_marseille","lat":43.24069,"lon":5.37759,"is_reserved":false,"is_disabled":false,"rental_uris":{"android":"levelo://app?vid=db79a0b7-2eb5-4a4f-93cf-70b6122e3cc6","ios":"levelo://app?vid=db79a0b7-2eb5-4a4f-93cf-70b6122e3cc6"},"vehicle_type_id":"4","last_reported":1702562819,"current_range_meters":31200,"station_id":"ce4bhnp2rcd13ifvqgvg","pricing_plan_id":"free"},{"bike_id":"e7aa122c-cdc7-40b9-b560-ad5e1f4738c1","system_id":"levelo_inurba_marseille","lat":43.240623,"lon":5.377642,"is_reserved":false,"is_disabled":false,"rental_uris":{"android":"levelo://app?vid=e7aa122c-cdc7-40b9-b560-ad5e1f4738c1","ios":"levelo://app?vid=e7aa122c-cdc7-40b9-b560-ad5e1f4738c1"},"vehicle_type_id":"4","last_reported":1702562819,"current_range_meters":30800,"station_id":"ce4bhnp2rcd13ifvqgvg","pricing_plan_id":"free"},{"bike_id":"417c4bb2-53a9-4a4c-a128-5a6478c52446","system_id":"levelo_inurba_marseille","lat":43.239588,"lon":5.366238,"is_reserved":false,"is_disabled":false,"rental_uris":{"android":"levelo://app?vid=417c4bb2-53a9-4a4c-a128-5a6478c52446","ios":"levelo://app?vid=417c4bb2-53a9-4a4c-a128-5a6478c52446"},"vehicle_type_id":"4","last_reported":1702562819,"current_range_meters":23200,"station_id":"ce4bhi12rcd13ifvqfp0","pricing_plan_id":"free"},{"bike_id":"463cc425-7ea2-4c45-a7d7-e70447af8a25","system_id":"levelo_inurba_marseille","lat":43.23962,"lon":5.36638,"is_reserved":false,"is_disabled":false,"rental_uris":{"android":"levelo://app?vid=463cc425-7ea2-4c45-a7d7-e70447af8a25","ios":"levelo://app?vid=463cc425-7ea2-4c45-a7d7-e70447af8a25"},"vehicle_type_id":"4","last_reported":1702562819,"current_range_meters":28400,"station_id":"ce4bhi12rcd13ifvqfp0","pricing_plan_id":"free"},{"bike_id":"3a814a24-07d8-4e6f-9e30-e43634a525e4","system_id":"levelo_inurba_marseille","lat":43.23961,"lon":5.3665,"is_reserved":false,"is_disabled":false,"rental_uris":{"android":"levelo://app?vid=3a814a24-07d8-4e6f-9e30-e43634a525e4","ios":"levelo://app?vid=3a814a24-07d8-4e6f-9e30-e43634a525e4"},"vehicle_type_id":"4","last_reported":1702562819,"current_range_meters":7200,"station_id":"ce4bhi12rcd13ifvqfp0","pricing_plan_id":"free"},{"bike_id":"bd9e882e-8231-4591-99b6-c2b58d6bcfc0","system_id":"levelo_inurba_marseille","lat":43.24178,"lon":5.39734,"is_reserved":false,"is_disabled":false,"rental_uris":{"android":"levelo://app?vid=bd9e882e-8231-4591-99b6-c2b58d6bcfc0","ios":"levelo://app?vid=bd9e882e-8231-4591-99b6-c2b58d6bcfc0"},"vehicle_type_id":"4","last_reported":1702562819,"current_range_meters":16400,"station_id":"ce4bhn12rcd13ifvqgpg","pricing_plan_id":"free"},{"bike_id":"95f75991-87a3-49c7-9e10-1ebd776a35c2","system_id":"levelo_inurba_marseille","lat":43.231919,"lon":5.355532,"is_reserved":false,"is_disabled":false,"rental_uris":{"android":"levelo://app?vid=95f75991-87a3-49c7-9e10-1ebd776a35c2","ios":"levelo://app?vid=95f75991-87a3-49c7-9e10-1ebd776a35c2"},"vehicle_type_id":"4","last_reported":1702562819,"current_range_meters":21600,"station_id":"ce4bhu92rcd13ifvqi70","pricing_plan_id":"free"},{"bike_id":"06866d47-2c37-4144-baca-d9ea40f74b26","system_id":"levelo_inurba_marseille","lat":43.231562,"lon":5.436933,"is_reserved":false,"is_disabled":false,"rental_uris":{"android":"levelo://app?vid=06866d47-2c37-4144-baca-d9ea40f74b26","ios":"levelo://app?vid=06866d47-2c37-4144-baca-d9ea40f74b26"},"vehicle_type_id":"4","last_reported":1702562819,"current_range_meters":0,"station_id":"ce4bhmp2rcd13ifvqgog","pricing_plan_id":"free"},{"bike_id":"be72807a-9a7f-4d6b-9ec7-53daa8856b96","system_id":"levelo_inurba_marseille","lat":43.231562,"lon":5.436933,"is_reserved":false,"is_disabled":false,"rental_uris":{"android":"levelo://app?vid=be72807a-9a7f-4d6b-9ec7-53daa8856b96","ios":"levelo://app?vid=be72807a-9a7f-4d6b-9ec7-53daa8856b96"},"vehicle_type_id":"4","last_reported":1702562819,"current_range_meters":4000,"station_id":"ce4bhmp2rcd13ifvqgog","pricing_plan_id":"free"},{"bike_id":"2bfd76a0-1e79-4241-ad52-f5a596eddc26","system_id":"levelo_inurba_marseille","lat":43.23155,"lon":5.43711,"is_reserved":false,"is_disabled":false,"rental_uris":{"android":"levelo://app?vid=2bfd76a0-1e79-4241-ad52-f5a596eddc26","ios":"levelo://app?vid=2bfd76a0-1e79-4241-ad52-f5a596eddc26"},"vehicle_type_id":"4","last_reported":1702562819,"current_range_meters":30800,"station_id":"ce4bhmp2rcd13ifvqgog","pricing_plan_id":"free"},{"bike_id":"f6419703-0daf-4ce1-8be0-92733369fcca","system_id":"levelo_inurba_marseille","lat":43.231562,"lon":5.436933,"is_reserved":false,"is_disabled":false,"rental_uris":{"android":"levelo://app?vid=f6419703-0daf-4ce1-8be0-92733369fcca","ios":"levelo://app?vid=f6419703-0daf-4ce1-8be0-92733369fcca"},"vehicle_type_id":"4","last_reported":1702562819,"current_range_meters":15600,"station_id":"ce4bhmp2rcd13ifvqgog","pricing_plan_id":"free"},{"bike_id":"4fa388d2-5dbe-456c-aae4-95aa38c16702","system_id":"levelo_inurba_marseille","lat":43.23153,"lon":5.4371,"is_reserved":false,"is_disabled":false,"rental_uris":{"android":"levelo://app?vid=4fa388d2-5dbe-456c-aae4-95aa38c16702","ios":"levelo://app?vid=4fa388d2-5dbe-456c-aae4-95aa38c16702"},"vehicle_type_id":"4","last_reported":1702562819,"current_range_meters":6800,"station_id":"ce4bhmp2rcd13ifvqgog","pricing_plan_id":"free"},{"bike_id":"ca5e62ab-ad96-4c53-a03e-be2c50cd695e","system_id":"levelo_inurba_marseille","lat":43.23152,"lon":5.43712,"is_reserved":false,"is_disabled":false,"rental_uris":{"android":"levelo://app?vid=ca5e62ab-ad96-4c53-a03e-be2c50cd695e","ios":"levelo://app?vid=ca5e62ab-ad96-4c53-a03e-be2c50cd695e"},"vehicle_type_id":"4","last_reported":1702562819,"current_range_meters":8000,"station_id":"ce4bhmp2rcd13ifvqgog","pricing_plan_id":"free"},{"bike_id":"edd0328e-4f4d-4404-b1ac-6a3c4f9973e8","system_id":"levelo_inurba_marseille","lat":43.231562,"lon":5.436933,"is_reserved":false,"is_disabled":false,"rental_uris":{"android":"levelo://app?vid=edd0328e-4f4d-4404-b1ac-6a3c4f9973e8","ios":"levelo://app?vid=edd0328e-4f4d-4404-b1ac-6a3c4f9973e8"},"vehicle_type_id":"4","last_reported":1702562819,"current_range_meters":15200,"station_id":"ce4bhmp2rcd13ifvqgog","pricing_plan_id":"free"},{"bike_id":"6cea6bdb-1531-4d45-b328-310f6ac07e41","system_id":"levelo_inurba_marseille","lat":43.2315,"lon":5.43713,"is_reserved":false,"is_disabled":false,"rental_uris":{"android":"levelo://app?vid=6cea6bdb-1531-4d45-b328-310f6ac07e41","ios":"levelo://app?vid=6cea6bdb-1531-4d45-b328-310f6ac07e41"},"vehicle_type_id":"4","last_reported":1702562819,"current_range_meters":19600,"station_id":"ce4bhmp2rcd13ifvqgog","pricing_plan_id":"free"},{"bike_id":"b569a46d-e980-4041-aabf-063e4829ad55","system_id":"levelo_inurba_marseille","lat":43.23152,"lon":5.43718,"is_reserved":false,"is_disabled":false,"rental_uris":{"android":"levelo://app?vid=b569a46d-e980-4041-aabf-063e4829ad55","ios":"levelo://app?vid=b569a46d-e980-4041-aabf-063e4829ad55"},"vehicle_type_id":"4","last_reported":1702562819,"current_range_meters":26000,"station_id":"ce4bhmp2rcd13ifvqgog","pricing_plan_id":"free"},{"bike_id":"4b56c5a8-b830-4918-b74a-41a7f1965b9c","system_id":"levelo_inurba_marseille","lat":43.23146,"lon":5.43712,"is_reserved":false,"is_disabled":false,"rental_uris":{"android":"levelo://app?vid=4b56c5a8-b830-4918-b74a-41a7f1965b9c","ios":"levelo://app?vid=4b56c5a8-b830-4918-b74a-41a7f1965b9c"},"vehicle_type_id":"4","last_reported":1702562819,"current_range_meters":31200,"station_id":"ce4bhmp2rcd13ifvqgog","pricing_plan_id":"free"},{"bike_id":"ae4ddecf-40fa-483c-a214-73fd38f74dd6","system_id":"levelo_inurba_marseille","lat":43.231562,"lon":5.436933,"is_reserved":false,"is_disabled":false,"rental_uris":{"android":"levelo://app?vid=ae4ddecf-40fa-483c-a214-73fd38f74dd6","ios":"levelo://app?vid=ae4ddecf-40fa-483c-a214-73fd38f74dd6"},"vehicle_type_id":"4","last_reported":1702562819,"current_range_meters":30400,"station_id":"ce4bhmp2rcd13ifvqgog","pricing_plan_id":"free"},{"bike_id":"5baad603-16af-4b46-9899-8c12c42ef7f0","system_id":"levelo_inurba_marseille","lat":43.231562,"lon":5.436933,"is_reserved":false,"is_disabled":false,"rental_uris":{"android":"levelo://app?vid=5baad603-16af-4b46-9899-8c12c42ef7f0","ios":"levelo://app?vid=5baad603-16af-4b46-9899-8c12c42ef7f0"},"vehicle_type_id":"4","last_reported":1702562819,"current_range_meters":31200,"station_id":"ce4bhmp2rcd13ifvqgog","pricing_plan_id":"free"}]}}