{"last_updated":1730228879,"ttl":60,"version":"2.2","data":{"bikes":[{"bike_id":"e0594c9b-1912-4f09-958a-91f8a4561c29","system_id":"levelo_inurba_marseille","lat":43.24388,"lon":5.37061,"is_reserved":false,"is_disabled":false,"rental_uris":{"android":"levelo://app?vid=e0594c9b-1912-4f09-958a-91f8a4561c29","ios":"levelo://app?vid=e0594c9b-1912-4f09-958a-91f8a4561c29"},"vehicle_type_id":"4","last_reported":1730228879,"current_range_meters":16400,"station_id":"ce4bhhh2rcd13ifvqfk0","pricing_plan_id":"cebpf4jnsgd1na2vs0mg"},{"bike_id":"6daefb7d-890b-4927-bca4-1e9b57c2727d","system_id":"levelo_inurba_marseille","lat":43.27187,"lon":5.41001,"is_reserved":false,"is_disabled":false,"rental_uris":{"android":"levelo://app?vid=6daefb7d-890b-4927-bca4-1e9b57c2727d","ios":"levelo://app?vid=6daefb7d-890b-4927-bca4-1e9b57c2727d"},"vehicle_type_id":"4","last_reported":1730228879,"current_range_meters":6400,"station_id":"ce4bhl12rcd13ifvqgf0","pricing_plan_id":"cebpf4jnsgd1na2vs0mg"},{"bike_id":"e1d18b81-986d-4e87-b61a-22535be9c7fe","system_id":"levelo_inurba_marseille","lat":43.27068,"lon":5.42276,"is_reserved":false,"is_disabled":false,"rental_uris":{"android":"levelo://app?vid=e1d18b81-986d-4e87-b61a-22535be9c7fe","ios":"levelo://app?vid=e1d18b81-986d-4e87-b61a-22535be9c7fe"},"vehicle_type_id":"4","last_reported":1730228879,"current_range_meters":8000,"station_id":"ce4bhk92rcd13ifvqgb0","pricing_plan_id":"cebpf4jnsgd1na2vs0mg"},{"bike_id":"3b4fffce-b26d-49fd-ba69-7df7ed4b5279","system_id":"levelo_inurba_marseille","lat":43.27996,"lon":5.41656,"is_reserved":false,"is_disabled":false,"rental_uris":{"android":"levelo://app?vid=3b4fffce-b26d-49fd-ba69-7df7ed4b5279","ios":"levelo://app?vid=3b4fffce-b26d-49fd-ba69-7df7ed4b5279"},"vehicle_type_id":"4","last_reported":1730228879,"current_range_meters":24800,"station_id":"ce4bho12rcd13ifvqh1g","pricing_plan_id":"cebpf4jnsgd1na2vs0mg"},{"bike_id":"b52db6c8-b0a1-4b62-8f44-58c640e7354a","system_id":"levelo_inurba_marseille","lat":43.29527,"lon":5.39029,"is_reserved":false,"is_disabled":false,"rental_uris":{"android":"levelo://app?vid=b52db6c8-b0a1-4b62-8f44-58c640e7354a","ios":"levelo://app?vid=b52db6c8-b0a1-4b62-8f44-58c640e7354a"},"vehicle_type_id":"4","last_reported":1730228879,"current_range_meters":26000,"station_id":"ce4bh3p2rcd13ifvqdp0","pricing_plan_id":"cebpf4jnsgd1na2vs0mg"},{"bike_id":"e69003c5-61d9-410c-8600-03d60dc443c9","system_id":"levelo_inurba_marseille","lat":43.32482,"lon":5.36571,"is_reserved":false,"is_disabled":false,"rental_uris":{"android":"levelo://app?vid=e69003c5-61d9-410c-8600-03d60dc443c9","ios":"levelo://app?vid=e69003c5-61d9-410c-8600-03d60dc443c9"},"vehicle_type_id":"4","last_reported":1730228879,"current_range_meters":33600,"station_id":"ce4bhs12rcd13ifvqhvg","pricing_plan_id":"cebpf4jnsgd1na2vs0mg"},{"bike_id":"9cd28ed1-51d4-469f-80b1-db1aa7224fd9","system_id":"levelo_inurba_marseille","lat":43.31893,"lon":5.40739,"is_reserved":false,"is_disabled":false,"rental_uris":{"android":"levelo://app?vid=9cd28ed1-51d4-469f-80b1-db1aa7224fd9","ios":"levelo://app?vid=9cd28ed1-51d4-469f-80b1-db1aa7224fd9"},"vehicle_type_id":"4","last_reported":1730228879,"current_range_meters":33600,"station_id":"ce4bhq12rcd13ifvqhig","pricing_plan_id":"cebpf4jnsgd1na2vs0mg"},{"bike_id":"d375d3c3-9328-45e6-98da-ecff5f924f0c","system_id":"levelo_inurba_marseille","lat":43.32364,"lon":5.38888,"is_reserved":false,"is_disabled":false,"rental_uris":{"android":"levelo://app?vid=d375d3c3-9328-45e6-98da-ecff5f924f0c","ios":"levelo://app?vid=d375d3c3-9328-45e6-98da-ecff5f924f0c"},"vehicle_type_id":"4","last_reported":1730228879,"current_range_meters":11600,"station_id":"ce4bhqp2rcd13ifvqhog","pricing_plan_id":"cebpf4jnsgd1na2vs0mg"},{"bike_id":"2389c4fb-7585-4c47-8852-4f3be0c7bd97","system_id":"levelo_inurba_marseille","lat":43.29518,"lon":5.39396,"is_reserved":false,"is_disabled":false,"rental_uris":{"android":"levelo://app?vid=2389c4fb-7585-4c47-8852-4f3be0c7bd97","ios":"levelo://app?vid=2389c4fb-7585-4c47-8852-4f3be0c7bd97"},"vehicle_type_id":"4","last_reported":1730228879,"current_range_meters":22000,"station_id":"ce4bh292rcd13ifvqdf0","pricing_plan_id":"cebpf4jnsgd1na2vs0mg"},{"bike_id":"66a04495-273a-47df-ac95-d7c1740f1ef3","system_id":"levelo_inurba_marseille","lat":43.278245,"lon":5.406905,"is_reserved":false,"is_disabled":false,"rental_uris":{"android":"levelo://app?vid=66a04495-273a-47df-ac95-d7c1740f1ef3","ios":"levelo://app?vid=66a04495-273a-47df-ac95-d7c1740f1ef3"},"vehicle_type_id":"4","last_reported":1730228879,"current_range_meters":26000,"station_id":"ce4bhnh2rcd13ifvqgtg","pricing_plan_id":"cebpf4jnsgd1na2vs0mg"},{"bike_id":"c3236a4e-2756-4ecb-ac23-f49684f77afa","system_id":"levelo_inurba_marseille","lat":43.29569,"lon":5.37528,"is_reserved":false,"is_disabled":false,"rental_uris":{"android":"levelo://app?vid=c3236a4e-2756-4ecb-ac23-f49684f77afa","ios":"levelo://app?vid=c3236a4e-2756-4ecb-ac23-f49684f77afa"},"vehicle_type_id":"4","last_reported":1730228879,"current_range_meters":22800,"station_id":"ce4bgh92rcd13ifvqb50","pricing_plan_id":"cebpf4jnsgd1na2vs0mg"},{"bike_id":"34c349c4-c8e0-46ba-aa9f-66ac07aea23e","system_id":"levelo_inurba_marseille","lat":43.33026,"lon":5.39043,"is_reserved":false,"is_disabled":false,"rental_uris":{"android":"levelo://app?vid=34c349c4-c8e0-46ba-aa9f-66ac07aea23e","ios":"levelo://app?vid=34c349c4-c8e0-46ba-aa9f-66ac07aea23e"},"vehicle_type_id":"4","last_reported":1730228879,"current_range_meters":38800,"station_id":"ce4bhr92rcd13ifvqhrg","pricing_plan_id":"cebpf4jnsgd1na2vs0mg"},{"bike_id":"4f1f9de2-9f27-45fd-8075-793797defffa","system_id":"levelo_inurba_marseille","lat":43.28928,"lon":5.38387,"is_reserved":false,"is_disabled":false,"rental_uris":{"android":"levelo://app?vid=4f1f9de2-9f27-45fd-8075-793797defffa","ios":"levelo://app?vid=4f1f9de2-9f27-45fd-8075-793797defffa"},"vehicle_type_id":"4","last_reported":1730228879,"current_range_meters":12800,"station_id":"ce4bh612rcd13ifvqe6g","pricing_plan_id":"cebpf4jnsgd1na2vs0mg"},{"bike_id":"3713ca50-eced-45b1-bf48-4c2e0879cc91","system_id":"levelo_inurba_marseille","lat":43.24545,"lon":5.39528,"is_reserved":false,"is_disabled":false,"rental_uris":{"android":"levelo://app?vid=3713ca50-eced-45b1-bf48-4c2e0879cc91","ios":"levelo://app?vid=3713ca50-eced-45b1-bf48-4c2e0879cc91"},"vehicle_type_id":"4","last_reported":1730228879,"current_range_meters":16800,"station_id":"ce4bhlp2rcd13ifvqgjg","pricing_plan_id":"cebpf4jnsgd1na2vs0mg"},{"bike_id":"d653eed6-1b6a-491d-a742-5b6d867c9741","system_id":"levelo_inurba_marseille","lat":43.32372,"lon":5.3888,"is_reserved":false,"is_disabled":false,"rental_uris":{"android":"levelo://app?vid=d653eed6-1b6a-491d-a742-5b6d867c9741","ios":"levelo://app?vid=d653eed6-1b6a-491d-a742-5b6d867c9741"},"vehicle_type_id":"4","last_reported":1730228879,"current_range_meters":9600,"station_id":"ce4bhqp2rcd13ifvqhog","pricing_plan_id":"cebpf4jnsgd1na2vs0mg"},{"bike_id":"b1a3b332-11d2-4ca1-b2cb-7f0a1f4a6a99","system_id":"levelo_inurba_marseille","lat":43.280945,"lon":5.401339,"is_reserved":false,"is_disabled":false,"rental_uris":{"android":"levelo://app?vid=b1a3b332-11d2-4ca1-b2cb-7f0a1f4a6a99","ios":"levelo://app?vid=b1a3b332-11d2-4ca1-b2cb-7f0a1f4a6a99"},"vehicle_type_id":"4","last_reported":1730228879,"current_range_meters":4800,"station_id":"ce4bho92rcd13ifvqh4g","pricing_plan_id":"cebpf4jnsgd1na2vs0mg"},{"bike_id":"b2c05f9f-585e-4b3d-8a48-b202ea6bf660","system_id":"levelo_inurba_marseille","lat":43.24172,"lon":5.36401,"is_reserved":false,"is_disabled":false,"rental_uris":{"android":"levelo://app?vid=b2c05f9f-585e-4b3d-8a48-b202ea6bf660","ios":"levelo://app?vid=b2c05f9f-585e-4b3d-8a48-b202ea6bf660"},"vehicle_type_id":"4","last_reported":1730228879,"current_range_meters":16800,"station_id":"cpo36qri1sfpv3e86is0","pricing_plan_id":"cebpf4jnsgd1na2vs0mg"},{"bike_id":"8fc79203-99b3-4a31-8722-6d8c6bda12a8","system_id":"levelo_inurba_marseille","lat":43.29558,"lon":5.42292,"is_reserved":false,"is_disabled":false,"rental_uris":{"android":"levelo://app?vid=8fc79203-99b3-4a31-8722-6d8c6bda12a8","ios":"levelo://app?vid=8fc79203-99b3-4a31-8722-6d8c6bda12a8"},"vehicle_type_id":"4","last_reported":1730228879,"current_range_meters":9600,"station_id":"ce4bhph2rcd13ifvqhdg","pricing_plan_id":"cebpf4jnsgd1na2vs0mg"},{"bike_id":"c0dbc9f4-fb22-4246-82e5-b5fe10e8ccd3","system_id":"levelo_inurba_marseille","lat":43.30142,"lon":5.37428,"is_reserved":false,"is_disabled":false,"rental_uris":{"android":"levelo://app?vid=c0dbc9f4-fb22-4246-82e5-b5fe10e8ccd3","ios":"levelo://app?vid=c0dbc9f4-fb22-4246-82e5-b5fe10e8ccd3"},"vehicle_type_id":"4","last_reported":1730228879,"current_range_meters":11600,"station_id":"ce4bgs92rcd13ifvqcc0","pricing_plan_id":"cebpf4jnsgd1na2vs0mg"},{"bike_id":"ba7ba5eb-5ac5-4b4c-b7a9-497ce0ff6e3c","system_id":"levelo_inurba_marseille","lat":43.30427,"lon":5.38889,"is_reserved":false,"is_disabled":false,"rental_uris":{"android":"levelo://app?vid=ba7ba5eb-5ac5-4b4c-b7a9-497ce0ff6e3c","ios":"levelo://app?vid=ba7ba5eb-5ac5-4b4c-b7a9-497ce0ff6e3c"},"vehicle_type_id":"4","last_reported":1730228879,"current_range_meters":22000,"station_id":"ce4bgk12rcd13ifvqbi0","pricing_plan_id":"cebpf4jnsgd1na2vs0mg"},{"bike_id":"ff2a3d71-ffd5-4528-9de3-b9aa551060dc","system_id":"levelo_inurba_marseille","lat":43.29217,"lon":5.36061,"is_reserved":false,"is_disabled":false,"rental_uris":{"android":"levelo://app?vid=ff2a3d71-ffd5-4528-9de3-b9aa551060dc","ios":"levelo://app?vid=ff2a3d71-ffd5-4528-9de3-b9aa551060dc"},"vehicle_type_id":"4","last_reported":1730228879,"current_range_meters":38800,"station_id":"ce4bhbh2rcd13ifvqeqg","pricing_plan_id":"cebpf4jnsgd1na2vs0mg"},{"bike_id":"79753c44-2696-48d8-8503-a28f55e7f2ea","system_id":"levelo_inurba_marseille","lat":43.31332,"lon":5.39697,"is_reserved":false,"is_disabled":false,"rental_uris":{"android":"levelo://app?vid=79753c44-2696-48d8-8503-a28f55e7f2ea","ios":"levelo://app?vid=79753c44-2696-48d8-8503-a28f55e7f2ea"},"vehicle_type_id":"4","last_reported":1730228879,"current_range_meters":30800,"station_id":"ce4bgvp2rcd13ifvqcu0","pricing_plan_id":"cebpf4jnsgd1na2vs0mg"},{"bike_id":"209691fb-0077-46b7-911d-62fe9fe8ea46","system_id":"levelo_inurba_marseille","lat":43.27988,"lon":5.40006,"is_reserved":false,"is_disabled":false,"rental_uris":{"android":"levelo://app?vid=209691fb-0077-46b7-911d-62fe9fe8ea46","ios":"levelo://app?vid=209691fb-0077-46b7-911d-62fe9fe8ea46"},"vehicle_type_id":"4","last_reported":1730228879,"current_range_meters":26800,"station_id":"ce4bho92rcd13ifvqh4g","pricing_plan_id":"cebpf4jnsgd1na2vs0mg"},{"bike_id":"8cffab5a-26c8-46dc-9ec1-c9d337d8b03e","system_id":"levelo_inurba_marseille","lat":43.30795,"lon":5.43525,"is_reserved":false,"is_disabled":false,"rental_uris":{"android":"levelo://app?vid=8cffab5a-26c8-46dc-9ec1-c9d337d8b03e","ios":"levelo://app?vid=8cffab5a-26c8-46dc-9ec1-c9d337d8b03e"},"vehicle_type_id":"4","last_reported":1730228879,"current_range_meters":8000,"station_id":"ce4bhph2rcd13ifvqheg","pricing_plan_id":"cebpf4jnsgd1na2vs0mg"},{"bike_id":"7bf3c3a2-691b-4b03-9809-e7065537c696","system_id":"levelo_inurba_marseille","lat":43.27981,"lon":5.38722,"is_reserved":false,"is_disabled":false,"rental_uris":{"android":"levelo://app?vid=7bf3c3a2-691b-4b03-9809-e7065537c696","ios":"levelo://app?vid=7bf3c3a2-691b-4b03-9809-e7065537c696"},"vehicle_type_id":"4","last_reported":1730228879,"current_range_meters":38800,"station_id":"ce4bhg12rcd13ifvqf80","pricing_plan_id":"cebpf4jnsgd1na2vs0mg"},{"bike_id":"e9db3b7a-8c23-4ef5-a372-9ad490f0f78e","system_id":"levelo_inurba_marseille","lat":43.29527,"lon":5.38552,"is_reserved":false,"is_disabled":false,"rental_uris":{"android":"levelo://app?vid=e9db3b7a-8c23-4ef5-a372-9ad490f0f78e","ios":"levelo://app?vid=e9db3b7a-8c23-4ef5-a372-9ad490f0f78e"},"vehicle_type_id":"4","last_reported":1730228879,"current_range_meters":38800,"station_id":"ce4bgih2rcd13ifvqba0","pricing_plan_id":"cebpf4jnsgd1na2vs0mg"},{"bike_id":"8270dd05-fbb6-4f42-ab14-409f47976da7","system_id":"levelo_inurba_marseille","lat":43.28721,"lon":5.37941,"is_reserved":false,"is_disabled":false,"rental_uris":{"android":"levelo://app?vid=8270dd05-fbb6-4f42-ab14-409f47976da7","ios":"levelo://app?vid=8270dd05-fbb6-4f42-ab14-409f47976da7"},"vehicle_type_id":"4","last_reported":1730228879,"current_range_meters":32800,"station_id":"ce4bh9p2rcd13ifvqec0","pricing_plan_id":"cebpf4jnsgd1na2vs0mg"},{"bike_id":"c5ab8f86-3c93-447c-b767-f885bdebd2ff","system_id":"levelo_inurba_marseille","lat":43.27071,"lon":5.42282,"is_reserved":false,"is_disabled":false,"rental_uris":{"android":"levelo://app?vid=c5ab8f86-3c93-447c-b767-f885bdebd2ff","ios":"levelo://app?vid=c5ab8f86-3c93-447c-b767-f885bdebd2ff"},"vehicle_type_id":"4","last_reported":1730228879,"current_range_meters":38400,"station_id":"ce4bhk92rcd13ifvqgb0","pricing_plan_id":"cebpf4jnsgd1na2vs0mg"},{"bike_id":"6bfb62a6-63c3-4bd5-8676-7b2f3dd6580d","system_id":"levelo_inurba_marseille","lat":43.28153,"lon":5.42645,"is_reserved":false,"is_disabled":false,"rental_uris":{"android":"levelo://app?vid=6bfb62a6-63c3-4bd5-8676-7b2f3dd6580d","ios":"levelo://app?vid=6bfb62a6-63c3-4bd5-8676-7b2f3dd6580d"},"vehicle_type_id":"4","last_reported":1730228879,"current_range_meters":17600,"station_id":"ce4bhnh2rcd13ifvqgug","pricing_plan_id":"cebpf4jnsgd1na2vs0mg"},{"bike_id":"70bb78fe-4bef-4d56-a833-affc0bdfc9f3","system_id":"levelo_inurba_marseille","lat":43.23193,"lon":5.35558,"is_reserved":false,"is_disabled":false,"rental_uris":{"android":"levelo://app?vid=70bb78fe-4bef-4d56-a833-affc0bdfc9f3","ios":"levelo://app?vid=70bb78fe-4bef-4d56-a833-affc0bdfc9f3"},"vehicle_type_id":"4","last_reported":1730228879,"current_range_meters":38800,"station_id":"ce4bhu92rcd13ifvqi70","pricing_plan_id":"cebpf4jnsgd1na2vs0mg"},{"bike_id":"562f1d40-097d-45e6-9056-0c1663a51972","system_id":"levelo_inurba_marseille","lat":43.25114,"lon":5.40326,"is_reserved":false,"is_disabled":false,"rental_uris":{"android":"levelo://app?vid=562f1d40-097d-45e6-9056-0c1663a51972","ios":"levelo://app?vid=562f1d40-097d-45e6-9056-0c1663a51972"},"vehicle_type_id":"4","last_reported":1730228879,"current_range_meters":9600,"station_id":"ce4bhlh2rcd13ifvqgig","pricing_plan_id":"cebpf4jnsgd1na2vs0mg"},{"bike_id":"1a23e5a8-eaa2-49bf-921e-448b5e886ed3","system_id":"levelo_inurba_marseille","lat":43.28183,"lon":5.37889,"is_reserved":false,"is_disabled":false,"rental_uris":{"android":"levelo://app?vid=1a23e5a8-eaa2-49bf-921e-448b5e886ed3","ios":"levelo://app?vid=1a23e5a8-eaa2-49bf-921e-448b5e886ed3"},"vehicle_type_id":"4","last_reported":1730228879,"current_range_meters":24400,"station_id":"ce4bha12rcd13ifvqee0","pricing_plan_id":"cebpf4jnsgd1na2vs0mg"},{"bike_id":"5c244c3d-8fd7-4c95-b825-2f7fe2f15994","system_id":"levelo_inurba_marseille","lat":43.23186,"lon":5.35546,"is_reserved":false,"is_disabled":false,"rental_uris":{"android":"levelo://app?vid=5c244c3d-8fd7-4c95-b825-2f7fe2f15994","ios":"levelo://app?vid=5c244c3d-8fd7-4c95-b825-2f7fe2f15994"},"vehicle_type_id":"4","last_reported":1730228879,"current_range_meters":28000,"station_id":"ce4bhu92rcd13ifvqi70","pricing_plan_id":"cebpf4jnsgd1na2vs0mg"},{"bike_id":"3128776c-62b4-4d1a-bb84-b20cd347c24c","system_id":"levelo_inurba_marseille","lat":43.24544,"lon":5.39522,"is_reserved":false,"is_disabled":false,"rental_uris":{"android":"levelo://app?vid=3128776c-62b4-4d1a-bb84-b20cd347c24c","ios":"levelo://app?vid=3128776c-62b4-4d1a-bb84-b20cd347c24c"},"vehicle_type_id":"4","last_reported":1730228879,"current_range_meters":10000,"station_id":"ce4bhlp2rcd13ifvqgjg","pricing_plan_id":"cebpf4jnsgd1na2vs0mg"},{"bike_id":"654b66a0-bb3e-458c-857d-fb14e4f716cd","system_id":"levelo_inurba_marseille","lat":43.30583,"lon":5.39342,"is_reserved":false,"is_disabled":false,"rental_uris":{"android":"levelo://app?vid=654b66a0-bb3e-458c-857d-fb14e4f716cd","ios":"levelo://app?vid=654b66a0-bb3e-458c-857d-fb14e4f716cd"},"vehicle_type_id":"4","last_reported":1730228879,"current_range_meters":3600,"station_id":"ce4bh0p2rcd13ifvqd80","pricing_plan_id":"cebpf4jnsgd1na2vs0mg"},{"bike_id":"f5091baa-79f3-43a0-aebf-8e619aefa02a","system_id":"levelo_inurba_marseille","lat":43.241008,"lon":5.378381,"is_reserved":false,"is_disabled":false,"rental_uris":{"android":"levelo://app?vid=f5091baa-79f3-43a0-aebf-8e619aefa02a","ios":"levelo://app?vid=f5091baa-79f3-43a0-aebf-8e619aefa02a"},"vehicle_type_id":"4","last_reported":1730228879,"current_range_meters":24400,"station_id":"ce4bhnp2rcd13ifvqgvg","pricing_plan_id":"cebpf4jnsgd1na2vs0mg"},{"bike_id":"c6472a4b-15fb-475c-a800-9db188055ce2","system_id":"levelo_inurba_marseille","lat":43.25829,"lon":5.39435,"is_reserved":false,"is_disabled":false,"rental_uris":{"android":"levelo://app?vid=c6472a4b-15fb-475c-a800-9db188055ce2","ios":"levelo://app?vid=c6472a4b-15fb-475c-a800-9db188055ce2"},"vehicle_type_id":"4","last_reported":1730228879,"current_range_meters":17200,"station_id":"ce4bhip2rcd13ifvqft0","pricing_plan_id":"cebpf4jnsgd1na2vs0mg"},{"bike_id":"1c36e968-b9ec-4e4e-a73e-52f85b4ded24","system_id":"levelo_inurba_marseille","lat":43.27173,"lon":5.40998,"is_reserved":false,"is_disabled":false,"rental_uris":{"android":"levelo://app?vid=1c36e968-b9ec-4e4e-a73e-52f85b4ded24","ios":"levelo://app?vid=1c36e968-b9ec-4e4e-a73e-52f85b4ded24"},"vehicle_type_id":"4","last_reported":1730228879,"current_range_meters":13600,"station_id":"ce4bhl12rcd13ifvqgf0","pricing_plan_id":"cebpf4jnsgd1na2vs0mg"},{"bike_id":"1001b789-5a01-41df-8dd4-852d1e877df9","system_id":"levelo_inurba_marseille","lat":43.28002,"lon":5.40012,"is_reserved":false,"is_disabled":false,"rental_uris":{"android":"levelo://app?vid=1001b789-5a01-41df-8dd4-852d1e877df9","ios":"levelo://app?vid=1001b789-5a01-41df-8dd4-852d1e877df9"},"vehicle_type_id":"4","last_reported":1730228879,"current_range_meters":33600,"station_id":"ce4bho92rcd13ifvqh4g","pricing_plan_id":"cebpf4jnsgd1na2vs0mg"},{"bike_id":"92adf987-4779-4b78-ad9c-8e29ab9175f3","system_id":"levelo_inurba_marseille","lat":43.23194,"lon":5.35551,"is_reserved":false,"is_disabled":false,"rental_uris":{"android":"levelo://app?vid=92adf987-4779-4b78-ad9c-8e29ab9175f3","ios":"levelo://app?vid=92adf987-4779-4b78-ad9c-8e29ab9175f3"},"vehicle_type_id":"4","last_reported":1730228879,"current_range_meters":17600,"station_id":"ce4bhu92rcd13ifvqi70","pricing_plan_id":"cebpf4jnsgd1na2vs0mg"},{"bike_id":"ff7b48b0-eeb0-486c-b1a7-95a5a36a3c5e","system_id":"levelo_inurba_marseille","lat":43.28703,"lon":5.39984,"is_reserved":false,"is_disabled":false,"rental_uris":{"android":"levelo://app?vid=ff7b48b0-eeb0-486c-b1a7-95a5a36a3c5e","ios":"levelo://app?vid=ff7b48b0-eeb0-486c-b1a7-95a5a36a3c5e"},"vehicle_type_id":"4","last_reported":1730228879,"current_range_meters":24800,"station_id":"ce4bho92rcd13ifvqh3g","pricing_plan_id":"cebpf4jnsgd1na2vs0mg"},{"bike_id":"ba4cccac-d0c2-4d26-8c3c-f3aeb4df3107","system_id":"levelo_inurba_marseille","lat":43.28151,"lon":5.42641,"is_reserved":false,"is_disabled":false,"rental_uris":{"android":"levelo://app?vid=ba4cccac-d0c2-4d26-8c3c-f3aeb4df3107","ios":"levelo://app?vid=ba4cccac-d0c2-4d26-8c3c-f3aeb4df3107"},"vehicle_type_id":"4","last_reported":1730228879,"current_range_meters":5600,"station_id":"ce4bhnh2rcd13ifvqgug","pricing_plan_id":"cebpf4jnsgd1na2vs0mg"},{"bike_id":"c03f3456-93bb-418a-8ce0-ca351e254b4e","system_id":"levelo_inurba_marseille","lat":43.31759,"lon":5.39017,"is_reserved":false,"is_disabled":false,"rental_uris":{"android":"levelo://app?vid=c03f3456-93bb-418a-8ce0-ca351e254b4e","ios":"levelo://app?vid=c03f3456-93bb-418a-8ce0-ca351e254b4e"},"vehicle_type_id":"4","last_reported":1730228879,"current_range_meters":38800,"station_id":"ce4bhqp2rcd13ifvqhng","pricing_plan_id":"cebpf4jnsgd1na2vs0mg"},{"bike_id":"5311be4a-f2be-40f5-9047-b61a2b1ccbc3","system_id":"levelo_inurba_marseille","lat":43.29183,"lon":5.3931,"is_reserved":false,"is_disabled":false,"rental_uris":{"android":"levelo://app?vid=5311be4a-f2be-40f5-9047-b61a2b1ccbc3","ios":"levelo://app?vid=5311be4a-f2be-40f5-9047-b61a2b1ccbc3"},"vehicle_type_id":"4","last_reported":1730228879,"current_range_meters":38800,"station_id":"ce4bh192rcd13ifvqdd0","pricing_plan_id":"cebpf4jnsgd1na2vs0mg"},{"bike_id":"3eacef56-e200-4054-9b0c-156c6ef1c7f9","system_id":"levelo_inurba_marseille","lat":43.32405,"lon":5.36993,"is_reserved":false,"is_disabled":false,"rental_uris":{"android":"levelo://app?vid=3eacef56-e200-4054-9b0c-156c6ef1c7f9","ios":"levelo://app?vid=3eacef56-e200-4054-9b0c-156c6ef1c7f9"},"vehicle_type_id":"4","last_reported":1730228879,"current_range_meters":35600,"station_id":"","pricing_plan_id":"cebpf4jnsgd1na2vs0mg"},{"bike_id":"3928d2b2-5322-4bfc-935c-f02931565366","system_id":"levelo_inurba_marseille","lat":43.27998,"lon":5.41663,"is_reserved":false,"is_disabled":false,"rental_uris":{"android":"levelo://app?vid=3928d2b2-5322-4bfc-935c-f02931565366","ios":"levelo://app?vid=3928d2b2-5322-4bfc-935c-f02931565366"},"vehicle_type_id":"4","last_reported":1730228879,"current_range_meters":15200,"station_id":"ce4bho12rcd13ifvqh1g","pricing_plan_id":"cebpf4jnsgd1na2vs0mg"},{"bike_id":"669541bb-ec23-44c5-bb83-c3650de83fee","system_id":"levelo_inurba_marseille","lat":43.279956,"lon":5.416642,"is_reserved":false,"is_disabled":false,"rental_uris":{"android":"levelo://app?vid=669541bb-ec23-44c5-bb83-c3650de83fee","ios":"levelo://app?vid=669541bb-ec23-44c5-bb83-c3650de83fee"},"vehicle_type_id":"4","last_reported":1730228879,"current_range_meters":4400,"station_id":"ce4bho12rcd13ifvqh1g","pricing_plan_id":"cebpf4jnsgd1na2vs0mg"},{"bike_id":"e5112a06-14cc-481c-86b3-83cdcf026f3e","system_id":"levelo_inurba_marseille","lat":43.29531,"lon":5.38543,"is_reserved":false,"is_disabled":false,"rental_uris":{"android":"levelo://app?vid=e5112a06-14cc-481c-86b3-83cdcf026f3e","ios":"levelo://app?vid=e5112a06-14cc-481c-86b3-83cdcf026f3e"},"vehicle_type_id":"4","last_reported":1730228879,"current_range_meters":33200,"station_id":"ce4bgih2rcd13ifvqba0","pricing_plan_id":"cebpf4jnsgd1na2vs0mg"},{"bike_id":"e3bfaa78-9ac6-44ac-939d-83a965291944","system_id":"levelo_inurba_marseille","lat":43.29025,"lon":5.38639,"is_reserved":false,"is_disabled":false,"rental_uris":{"android":"levelo://app?vid=e3bfaa78-9ac6-44ac-939d-83a965291944","ios":"levelo://app?vid=e3bfaa78-9ac6-44ac-939d-83a965291944"},"vehicle_type_id":"4","last_reported":1730228879,"current_range_meters":25600,"station_id":"ce4bh4p2rcd13ifvqe0g","pricing_plan_id":"cebpf4jnsgd1na2vs0mg"},{"bike_id":"86b8222b-fabd-447a-bba1-fa7cb533ac4f","system_id":"levelo_inurba_marseille","lat":43.29711,"lon":5.36618,"is_reserved":false,"is_disabled":false,"rental_uris":{"android":"levelo://app?vid=86b8222b-fabd-447a-bba1-fa7cb533ac4f","ios":"levelo://app?vid=86b8222b-fabd-447a-bba1-fa7cb533ac4f"},"vehicle_type_id":"4","last_reported":1730228879,"current_range_meters":36800,"station_id":"ce4bgn12rcd13ifvqbt0","pricing_plan_id":"cebpf4jnsgd1na2vs0mg"},{"bike_id":"2b8094c9-b86b-40cd-828f-5b450e6cd053","system_id":"levelo_inurba_marseille","lat":43.29526,"lon":5.38548,"is_reserved":false,"is_disabled":false,"rental_uris":{"android":"levelo://app?vid=2b8094c9-b86b-40cd-828f-5b450e6cd053","ios":"levelo://app?vid=2b8094c9-b86b-40cd-828f-5b450e6cd053"},"vehicle_type_id":"4","last_reported":1730228879,"current_range_meters":6800,"station_id":"ce4bgih2rcd13ifvqba0","pricing_plan_id":"cebpf4jnsgd1na2vs0mg"},{"bike_id":"98068fff-0ea9-402a-83fe-c96429d47f95","system_id":"levelo_inurba_marseille","lat":43.30442,"lon":5.38897,"is_reserved":false,"is_disabled":false,"rental_uris":{"android":"levelo://app?vid=98068fff-0ea9-402a-83fe-c96429d47f95","ios":"levelo://app?vid=98068fff-0ea9-402a-83fe-c96429d47f95"},"vehicle_type_id":"4","last_reported":1730228879,"current_range_meters":14000,"station_id":"ce4bgk12rcd13ifvqbi0","pricing_plan_id":"cebpf4jnsgd1na2vs0mg"},{"bike_id":"5980eff0-2983-4490-abe0-954e1d393fe1","system_id":"levelo_inurba_marseille","lat":43.31269,"lon":5.40172,"is_reserved":false,"is_disabled":false,"rental_uris":{"android":"levelo://app?vid=5980eff0-2983-4490-abe0-954e1d393fe1","ios":"levelo://app?vid=5980eff0-2983-4490-abe0-954e1d393fe1"},"vehicle_type_id":"4","last_reported":1730228879,"current_range_meters":16400,"station_id":"ce4bh092rcd13ifvqd30","pricing_plan_id":"cebpf4jnsgd1na2vs0mg"},{"bike_id":"5cf78dd3-55c7-41df-8165-80cbac8db0f4","system_id":"levelo_inurba_marseille","lat":43.30207,"lon":5.39465,"is_reserved":false,"is_disabled":false,"rental_uris":{"android":"levelo://app?vid=5cf78dd3-55c7-41df-8165-80cbac8db0f4","ios":"levelo://app?vid=5cf78dd3-55c7-41df-8165-80cbac8db0f4"},"vehicle_type_id":"4","last_reported":1730228879,"current_range_meters":36400,"station_id":"ce4bh0p2rcd13ifvqd70","pricing_plan_id":"cebpf4jnsgd1na2vs0mg"},{"bike_id":"4dc2f2d3-4901-46da-bca6-1e5f1ae2cd1d","system_id":"levelo_inurba_marseille","lat":43.30557,"lon":5.36556,"is_reserved":false,"is_disabled":false,"rental_uris":{"android":"levelo://app?vid=4dc2f2d3-4901-46da-bca6-1e5f1ae2cd1d","ios":"levelo://app?vid=4dc2f2d3-4901-46da-bca6-1e5f1ae2cd1d"},"vehicle_type_id":"4","last_reported":1730228879,"current_range_meters":20000,"station_id":"ce4bgs12rcd13ifvqcag","pricing_plan_id":"cebpf4jnsgd1na2vs0mg"},{"bike_id":"54454bef-56f4-4fd7-9cf7-c57a75a8c623","system_id":"levelo_inurba_marseille","lat":43.31708,"lon":5.37745,"is_reserved":false,"is_disabled":false,"rental_uris":{"android":"levelo://app?vid=54454bef-56f4-4fd7-9cf7-c57a75a8c623","ios":"levelo://app?vid=54454bef-56f4-4fd7-9cf7-c57a75a8c623"},"vehicle_type_id":"4","last_reported":1730228879,"current_range_meters":37600,"station_id":"ce4bgth2rcd13ifvqch0","pricing_plan_id":"cebpf4jnsgd1na2vs0mg"},{"bike_id":"1fa42e74-00db-413a-b8d0-81975fc0cdc9","system_id":"levelo_inurba_marseille","lat":43.269541,"lon":5.386312,"is_reserved":false,"is_disabled":false,"rental_uris":{"android":"levelo://app?vid=1fa42e74-00db-413a-b8d0-81975fc0cdc9","ios":"levelo://app?vid=1fa42e74-00db-413a-b8d0-81975fc0cdc9"},"vehicle_type_id":"4","last_reported":1730228879,"current_range_meters":2800,"station_id":"ce4bhh92rcd13ifvqfh0","pricing_plan_id":"cebpf4jnsgd1na2vs0mg"},{"bike_id":"95208fd0-9511-41b8-afc8-22ba850710ba","system_id":"levelo_inurba_marseille","lat":43.28616,"lon":5.35103,"is_reserved":false,"is_disabled":false,"rental_uris":{"android":"levelo://app?vid=95208fd0-9511-41b8-afc8-22ba850710ba","ios":"levelo://app?vid=95208fd0-9511-41b8-afc8-22ba850710ba"},"vehicle_type_id":"4","last_reported":1730228879,"current_range_meters":16800,"station_id":"ce4bhch2rcd13ifvqeug","pricing_plan_id":"cebpf4jnsgd1na2vs0mg"},{"bike_id":"67b13166-f7fe-4d17-b492-ad16f4957dda","system_id":"levelo_inurba_marseille","lat":43.30215,"lon":5.39468,"is_reserved":false,"is_disabled":false,"rental_uris":{"android":"levelo://app?vid=67b13166-f7fe-4d17-b492-ad16f4957dda","ios":"levelo://app?vid=67b13166-f7fe-4d17-b492-ad16f4957dda"},"vehicle_type_id":"4","last_reported":1730228879,"current_range_meters":6800,"station_id":"ce4bh0p2rcd13ifvqd70","pricing_plan_id":"cebpf4jnsgd1na2vs0mg"},{"bike_id":"538c6c97-8738-4e40-afde-1ced2fc6b778","system_id":"levelo_inurba_marseille","lat":43.33719,"lon":5.39183,"is_reserved":false,"is_disabled":false,"rental_uris":{"android":"levelo://app?vid=538c6c97-8738-4e40-afde-1ced2fc6b778","ios":"levelo://app?vid=538c6c97-8738-4e40-afde-1ced2fc6b778"},"vehicle_type_id":"4","last_reported":1730228879,"current_range_meters":38800,"station_id":"ce4bhr92rcd13ifvqhsg","pricing_plan_id":"cebpf4jnsgd1na2vs0mg"},{"bike_id":"b17d831e-9fa3-4c76-993c-3485bc5641c6","system_id":"levelo_inurba_marseille","lat":43.30793,"lon":5.43529,"is_reserved":false,"is_disabled":false,"rental_uris":{"android":"levelo://app?vid=b17d831e-9fa3-4c76-993c-3485bc5641c6","ios":"levelo://app?vid=b17d831e-9fa3-4c76-993c-3485bc5641c6"},"vehicle_type_id":"4","last_reported":1730228879,"current_range_meters":3600,"station_id":"ce4bhph2rcd13ifvqheg","pricing_plan_id":"cebpf4jnsgd1na2vs0mg"},{"bike_id":"e40111e4-4deb-41a5-ac02-7465c5223951","system_id":"levelo_inurba_marseille","lat":43.2863,"lon":5.38352,"is_reserved":false,"is_disabled":false,"rental_uris":{"android":"levelo://app?vid=e40111e4-4deb-41a5-ac02-7465c5223951","ios":"levelo://app?vid=e40111e4-4deb-41a5-ac02-7465c5223951"},"vehicle_type_id":"4","last_reported":1730228879,"current_range_meters":14400,"station_id":"ce4bh4p2rcd13ifvqe1g","pricing_plan_id":"cebpf4jnsgd1na2vs0mg"},{"bike_id":"05d59e1f-0e0c-49ac-a6f5-1a692eb656a4","system_id":"levelo_inurba_marseille","lat":43.24549,"lon":5.39524,"is_reserved":false,"is_disabled":false,"rental_uris":{"android":"levelo://app?vid=05d59e1f-0e0c-49ac-a6f5-1a692eb656a4","ios":"levelo://app?vid=05d59e1f-0e0c-49ac-a6f5-1a692eb656a4"},"vehicle_type_id":"4","last_reported":1730228879,"current_range_meters":38800,"station_id":"ce4bhlp2rcd13ifvqgjg","pricing_plan_id":"cebpf4jnsgd1na2vs0mg"},{"bike_id":"c497513d-9d1d-4320-a1e3-875a8b21d4c5","system_id":"levelo_inurba_marseille","lat":43.27181,"lon":5.41002,"is_reserved":false,"is_disabled":false,"rental_uris":{"android":"levelo://app?vid=c497513d-9d1d-4320-a1e3-875a8b21d4c5","ios":"levelo://app?vid=c497513d-9d1d-4320-a1e3-875a8b21d4c5"},"vehicle_type_id":"4","last_reported":1730228879,"current_range_meters":36400,"station_id":"ce4bhl12rcd13ifvqgf0","pricing_plan_id":"cebpf4jnsgd1na2vs0mg"},{"bike_id":"e1b8f9fb-e491-40ed-a82e-b7180152c511","system_id":"levelo_inurba_marseille","lat":43.23968,"lon":5.36632,"is_reserved":false,"is_disabled":false,"rental_uris":{"android":"levelo://app?vid=e1b8f9fb-e491-40ed-a82e-b7180152c511","ios":"levelo://app?vid=e1b8f9fb-e491-40ed-a82e-b7180152c511"},"vehicle_type_id":"4","last_reported":1730228879,"current_range_meters":36400,"station_id":"ce4bhi12rcd13ifvqfp0","pricing_plan_id":"cebpf4jnsgd1na2vs0mg"},{"bike_id":"13763b59-1c91-4d0c-9993-5ee56e3c7b36","system_id":"levelo_inurba_marseille","lat":43.29087,"lon":5.35911,"is_reserved":false,"is_disabled":false,"rental_uris":{"android":"levelo://app?vid=13763b59-1c91-4d0c-9993-5ee56e3c7b36","ios":"levelo://app?vid=13763b59-1c91-4d0c-9993-5ee56e3c7b36"},"vehicle_type_id":"4","last_reported":1730228879,"current_range_meters":17200,"station_id":"ce4bha92rcd13ifvqeg0","pricing_plan_id":"cebpf4jnsgd1na2vs0mg"},{"bike_id":"a306c469-7544-4489-af82-e9fb1e9b4215","system_id":"levelo_inurba_marseille","lat":43.23182,"lon":5.39984,"is_reserved":false,"is_disabled":false,"rental_uris":{"android":"levelo://app?vid=a306c469-7544-4489-af82-e9fb1e9b4215","ios":"levelo://app?vid=a306c469-7544-4489-af82-e9fb1e9b4215"},"vehicle_type_id":"4","last_reported":1730228879,"current_range_meters":25200,"station_id":"ce4bhn12rcd13ifvqgqg","pricing_plan_id":"cebpf4jnsgd1na2vs0mg"},{"bike_id":"6235ec86-7722-4b3a-9291-0eda7d1ab6d9","system_id":"levelo_inurba_marseille","lat":43.28157,"lon":5.42645,"is_reserved":false,"is_disabled":false,"rental_uris":{"android":"levelo://app?vid=6235ec86-7722-4b3a-9291-0eda7d1ab6d9","ios":"levelo://app?vid=6235ec86-7722-4b3a-9291-0eda7d1ab6d9"},"vehicle_type_id":"4","last_reported":1730228879,"current_range_meters":38800,"station_id":"ce4bhnh2rcd13ifvqgug","pricing_plan_id":"cebpf4jnsgd1na2vs0mg"},{"bike_id":"95ce8da4-47fe-462b-a370-38ca4912fb9f","system_id":"levelo_inurba_marseille","lat":43.30087,"lon":5.39079,"is_reserved":false,"is_disabled":false,"rental_uris":{"android":"levelo://app?vid=95ce8da4-47fe-462b-a370-38ca4912fb9f","ios":"levelo://app?vid=95ce8da4-47fe-462b-a370-38ca4912fb9f"},"vehicle_type_id":"4","last_reported":1730228879,"current_range_meters":38800,"station_id":"ce4bh192rcd13ifvqdb0","pricing_plan_id":"cebpf4jnsgd1na2vs0mg"},{"bike_id":"b6d1fb3b-dd9f-49c3-9885-b829a332d46d","system_id":"levelo_inurba_marseille","lat":43.29941,"lon":5.36548,"is_reserved":false,"is_disabled":false,"rental_uris":{"android":"levelo://app?vid=b6d1fb3b-dd9f-49c3-9885-b829a332d46d","ios":"levelo://app?vid=b6d1fb3b-dd9f-49c3-9885-b829a332d46d"},"vehicle_type_id":"4","last_reported":1730228879,"current_range_meters":38800,"station_id":"ce4bgm92rcd13ifvqbr0","pricing_plan_id":"cebpf4jnsgd1na2vs0mg"},{"bike_id":"5c65ceec-a61e-462a-8454-5618a3235f96","system_id":"levelo_inurba_marseille","lat":43.31014,"lon":5.39915,"is_reserved":false,"is_disabled":false,"rental_uris":{"android":"levelo://app?vid=5c65ceec-a61e-462a-8454-5618a3235f96","ios":"levelo://app?vid=5c65ceec-a61e-462a-8454-5618a3235f96"},"vehicle_type_id":"4","last_reported":1730228879,"current_range_meters":29600,"station_id":"ce4bh112rcd13ifvqda0","pricing_plan_id":"cebpf4jnsgd1na2vs0mg"},{"bike_id":"e1884659-e7f2-4855-9672-8bbbb33f094d","system_id":"levelo_inurba_marseille","lat":43.308,"lon":5.38159,"is_reserved":false,"is_disabled":false,"rental_uris":{"android":"levelo://app?vid=e1884659-e7f2-4855-9672-8bbbb33f094d","ios":"levelo://app?vid=e1884659-e7f2-4855-9672-8bbbb33f094d"},"vehicle_type_id":"4","last_reported":1730228879,"current_range_meters":27200,"station_id":"ce4bgt12rcd13ifvqce0","pricing_plan_id":"cebpf4jnsgd1na2vs0mg"},{"bike_id":"041ec194-3f5c-487a-9756-9961793b5622","system_id":"levelo_inurba_marseille","lat":43.27995,"lon":5.4002,"is_reserved":false,"is_disabled":false,"rental_uris":{"android":"levelo://app?vid=041ec194-3f5c-487a-9756-9961793b5622","ios":"levelo://app?vid=041ec194-3f5c-487a-9756-9961793b5622"},"vehicle_type_id":"4","last_reported":1730228879,"current_range_meters":20800,"station_id":"ce4bho92rcd13ifvqh4g","pricing_plan_id":"cebpf4jnsgd1na2vs0mg"},{"bike_id":"e3097137-b5d6-42d3-aac7-0b7a2cb63276","system_id":"levelo_inurba_marseille","lat":43.27999,"lon":5.4002,"is_reserved":false,"is_disabled":false,"rental_uris":{"android":"levelo://app?vid=e3097137-b5d6-42d3-aac7-0b7a2cb63276","ios":"levelo://app?vid=e3097137-b5d6-42d3-aac7-0b7a2cb63276"},"vehicle_type_id":"4","last_reported":1730228879,"current_range_meters":18800,"station_id":"ce4bho92rcd13ifvqh4g","pricing_plan_id":"cebpf4jnsgd1na2vs0mg"},{"bike_id":"89c5b7f2-f893-4671-96cb-1270981b81a6","system_id":"levelo_inurba_marseille","lat":43.279667,"lon":5.387528,"is_reserved":false,"is_disabled":false,"rental_uris":{"android":"levelo://app?vid=89c5b7f2-f893-4671-96cb-1270981b81a6","ios":"levelo://app?vid=89c5b7f2-f893-4671-96cb-1270981b81a6"},"vehicle_type_id":"4","last_reported":1730228879,"current_range_meters":38800,"station_id":"ce4bhg12rcd13ifvqf80","pricing_plan_id":"cebpf4jnsgd1na2vs0mg"},{"bike_id":"18f40d74-40ee-46b6-ba85-661e090dab89","system_id":"levelo_inurba_marseille","lat":43.28855,"lon":5.39321,"is_reserved":false,"is_disabled":false,"rental_uris":{"android":"levelo://app?vid=18f40d74-40ee-46b6-ba85-661e090dab89","ios":"levelo://app?vid=18f40d74-40ee-46b6-ba85-661e090dab89"},"vehicle_type_id":"4","last_reported":1730228879,"current_range_meters":38800,"station_id":"ce4bh2p2rcd13ifvqdi0","pricing_plan_id":"cebpf4jnsgd1na2vs0mg"},{"bike_id":"249cb4bc-a2df-40a1-80c6-1afbaa962b9f","system_id":"levelo_inurba_marseille","lat":43.27948,"lon":5.410467,"is_reserved":false,"is_disabled":false,"rental_uris":{"android":"levelo://app?vid=249cb4bc-a2df-40a1-80c6-1afbaa962b9f","ios":"levelo://app?vid=249cb4bc-a2df-40a1-80c6-1afbaa962b9f"},"vehicle_type_id":"4","last_reported":1730228879,"current_range_meters":10800,"station_id":"ce4bhnp2rcd13ifvqh0g","pricing_plan_id":"cebpf4jnsgd1na2vs0mg"},{"bike_id":"6cddfcd3-8c25-494e-b3bc-2b688952c40f","system_id":"levelo_inurba_marseille","lat":43.2942,"lon":5.38631,"is_reserved":false,"is_disabled":false,"rental_uris":{"android":"levelo://app?vid=6cddfcd3-8c25-494e-b3bc-2b688952c40f","ios":"levelo://app?vid=6cddfcd3-8c25-494e-b3bc-2b688952c40f"},"vehicle_type_id":"4","last_reported":1730228879,"current_range_meters":8400,"station_id":"ce4bh2h2rcd13ifvqdh0","pricing_plan_id":"cebpf4jnsgd1na2vs0mg"},{"bike_id":"20dfae4b-0d18-410b-9f7f-08675354fd6a","system_id":"levelo_inurba_marseille","lat":43.30438,"lon":5.38897,"is_reserved":false,"is_disabled":false,"rental_uris":{"android":"levelo://app?vid=20dfae4b-0d18-410b-9f7f-08675354fd6a","ios":"levelo://app?vid=20dfae4b-0d18-410b-9f7f-08675354fd6a"},"vehicle_type_id":"4","last_reported":1730228879,"current_range_meters":20400,"station_id":"ce4bgk12rcd13ifvqbi0","pricing_plan_id":"cebpf4jnsgd1na2vs0mg"},{"bike_id":"b289c58d-90df-4ce5-8f8e-73f7d1b71cc9","system_id":"levelo_inurba_marseille","lat":43.24543,"lon":5.39524,"is_reserved":false,"is_disabled":false,"rental_uris":{"android":"levelo://app?vid=b289c58d-90df-4ce5-8f8e-73f7d1b71cc9","ios":"levelo://app?vid=b289c58d-90df-4ce5-8f8e-73f7d1b71cc9"},"vehicle_type_id":"4","last_reported":1730228879,"current_range_meters":28000,"station_id":"ce4bhlp2rcd13ifvqgjg","pricing_plan_id":"cebpf4jnsgd1na2vs0mg"},{"bike_id":"f58f03d1-9e6f-45be-983e-90f0e7108f6a","system_id":"levelo_inurba_marseille","lat":43.29529,"lon":5.38548,"is_reserved":false,"is_disabled":false,"rental_uris":{"android":"levelo://app?vid=f58f03d1-9e6f-45be-983e-90f0e7108f6a","ios":"levelo://app?vid=f58f03d1-9e6f-45be-983e-90f0e7108f6a"},"vehicle_type_id":"4","last_reported":1730228879,"current_range_meters":30400,"station_id":"ce4bgih2rcd13ifvqba0","pricing_plan_id":"cebpf4jnsgd1na2vs0mg"},{"bike_id":"9d46e0b2-b7a2-490a-aca2-06a1d5481623","system_id":"levelo_inurba_marseille","lat":43.28047,"lon":5.42069,"is_reserved":false,"is_disabled":false,"rental_uris":{"android":"levelo://app?vid=9d46e0b2-b7a2-490a-aca2-06a1d5481623","ios":"levelo://app?vid=9d46e0b2-b7a2-490a-aca2-06a1d5481623"},"vehicle_type_id":"4","last_reported":1730228879,"current_range_meters":16000,"station_id":"","pricing_plan_id":"cebpf4jnsgd1na2vs0mg"},{"bike_id":"fe2904da-4ac6-42de-b232-dbec16338c49","system_id":"levelo_inurba_marseille","lat":43.3369,"lon":5.35748,"is_reserved":false,"is_disabled":false,"rental_uris":{"android":"levelo://app?vid=fe2904da-4ac6-42de-b232-dbec16338c49","ios":"levelo://app?vid=fe2904da-4ac6-42de-b232-dbec16338c49"},"vehicle_type_id":"4","last_reported":1730228879,"current_range_meters":27600,"station_id":"","pricing_plan_id":"cebpf4jnsgd1na2vs0mg"},{"bike_id":"02e7d52e-2c46-4134-81ea-ba31af7b700f","system_id":"levelo_inurba_marseille","lat":43.30205,"lon":5.39456,"is_reserved":false,"is_disabled":false,"rental_uris":{"android":"levelo://app?vid=02e7d52e-2c46-4134-81ea-ba31af7b700f","ios":"levelo://app?vid=02e7d52e-2c46-4134-81ea-ba31af7b700f"},"vehicle_type_id":"4","last_reported":1730228879,"current_range_meters":4000,"station_id":"ce4bh0p2rcd13ifvqd70","pricing_plan_id":"cebpf4jnsgd1na2vs0mg"},{"bike_id":"c11dd61a-aee9-49f1-9e3d-555447f37052","system_id":"levelo_inurba_marseille","lat":43.30132,"lon":5.39853,"is_reserved":false,"is_disabled":false,"rental_uris":{"android":"levelo://app?vid=c11dd61a-aee9-49f1-9e3d-555447f37052","ios":"levelo://app?vid=c11dd61a-aee9-49f1-9e3d-555447f37052"},"vehicle_type_id":"4","last_reported":1730228879,"current_range_meters":6800,"station_id":"ce4bh0h2rcd13ifvqd40","pricing_plan_id":"cebpf4jnsgd1na2vs0mg"},{"bike_id":"929fd36a-b9f6-4c7f-b391-f23b6a1f32b4","system_id":"levelo_inurba_marseille","lat":43.31255,"lon":5.37083,"is_reserved":false,"is_disabled":false,"rental_uris":{"android":"levelo://app?vid=929fd36a-b9f6-4c7f-b391-f23b6a1f32b4","ios":"levelo://app?vid=929fd36a-b9f6-4c7f-b391-f23b6a1f32b4"},"vehicle_type_id":"4","last_reported":1730228879,"current_range_meters":32400,"station_id":"","pricing_plan_id":"cebpf4jnsgd1na2vs0mg"},{"bike_id":"959172c7-f464-4fd2-aa9b-fd2d5bbfa5b6","system_id":"levelo_inurba_marseille","lat":43.3111,"lon":5.37779,"is_reserved":false,"is_disabled":false,"rental_uris":{"android":"levelo://app?vid=959172c7-f464-4fd2-aa9b-fd2d5bbfa5b6","ios":"levelo://app?vid=959172c7-f464-4fd2-aa9b-fd2d5bbfa5b6"},"vehicle_type_id":"4","last_reported":1730228879,"current_range_meters":38400,"station_id":"ce4bgt92rcd13ifvqcg0","pricing_plan_id":"cebpf4jnsgd1na2vs0mg"},{"bike_id":"2c7bdaef-d8d5-4acd-b4ed-3eb16665fd90","system_id":"levelo_inurba_marseille","lat":43.29322,"lon":5.37168,"is_reserved":false,"is_disabled":false,"rental_uris":{"android":"levelo://app?vid=2c7bdaef-d8d5-4acd-b4ed-3eb16665fd90","ios":"levelo://app?vid=2c7bdaef-d8d5-4acd-b4ed-3eb16665fd90"},"vehicle_type_id":"4","last_reported":1730228879,"current_range_meters":8400,"station_id":"ce4bgh92rcd13ifvqb40","pricing_plan_id":"cebpf4jnsgd1na2vs0mg"},{"bike_id":"fe0d64c0-ec38-4c5f-97fd-73683173eb6e","system_id":"levelo_inurba_marseille","lat":43.27992,"lon":5.40016,"is_reserved":false,"is_disabled":false,"rental_uris":{"android":"levelo://app?vid=fe0d64c0-ec38-4c5f-97fd-73683173eb6e","ios":"levelo://app?vid=fe0d64c0-ec38-4c5f-97fd-73683173eb6e"},"vehicle_type_id":"4","last_reported":1730228879,"current_range_meters":37600,"station_id":"ce4bho92rcd13ifvqh4g","pricing_plan_id":"cebpf4jnsgd1na2vs0mg"},{"bike_id":"a8e7d07b-6931-4533-bc70-51aecce152a4","system_id":"levelo_inurba_marseille","lat":43.2582,"lon":5.39436,"is_reserved":false,"is_disabled":false,"rental_uris":{"android":"levelo://app?vid=a8e7d07b-6931-4533-bc70-51aecce152a4","ios":"levelo://app?vid=a8e7d07b-6931-4533-bc70-51aecce152a4"},"vehicle_type_id":"4","last_reported":1730228879,"current_range_meters":25600,"station_id":"ce4bhip2rcd13ifvqft0","pricing_plan_id":"cebpf4jnsgd1na2vs0mg"},{"bike_id":"baf7c465-8d62-47fd-b581-9074cdb7e3ac","system_id":"levelo_inurba_marseille","lat":43.24653,"lon":5.38903,"is_reserved":false,"is_disabled":false,"rental_uris":{"android":"levelo://app?vid=baf7c465-8d62-47fd-b581-9074cdb7e3ac","ios":"levelo://app?vid=baf7c465-8d62-47fd-b581-9074cdb7e3ac"},"vehicle_type_id":"4","last_reported":1730228879,"current_range_meters":37600,"station_id":"ce4bhg12rcd13ifvqf60","pricing_plan_id":"cebpf4jnsgd1na2vs0mg"},{"bike_id":"6c55372d-3929-4cf2-b4ea-30149f454df3","system_id":"levelo_inurba_marseille","lat":43.27989,"lon":5.40009,"is_reserved":false,"is_disabled":false,"rental_uris":{"android":"levelo://app?vid=6c55372d-3929-4cf2-b4ea-30149f454df3","ios":"levelo://app?vid=6c55372d-3929-4cf2-b4ea-30149f454df3"},"vehicle_type_id":"4","last_reported":1730228879,"current_range_meters":30400,"station_id":"ce4bho92rcd13ifvqh4g","pricing_plan_id":"cebpf4jnsgd1na2vs0mg"},{"bike_id":"2bf721a9-5068-4e7a-b0ac-2e9cf92d5b34","system_id":"levelo_inurba_marseille","lat":43.31072,"lon":5.38361,"is_reserved":false,"is_disabled":false,"rental_uris":{"android":"levelo://app?vid=2bf721a9-5068-4e7a-b0ac-2e9cf92d5b34","ios":"levelo://app?vid=2bf721a9-5068-4e7a-b0ac-2e9cf92d5b34"},"vehicle_type_id":"4","last_reported":1730228879,"current_range_meters":38800,"station_id":"ce4bgv92rcd13ifvqcr0","pricing_plan_id":"cebpf4jnsgd1na2vs0mg"},{"bike_id":"ffb0b1ae-5a7c-4775-bcce-95b890558e6d","system_id":"levelo_inurba_marseille","lat":43.29421,"lon":5.38634,"is_reserved":false,"is_disabled":false,"rental_uris":{"android":"levelo://app?vid=ffb0b1ae-5a7c-4775-bcce-95b890558e6d","ios":"levelo://app?vid=ffb0b1ae-5a7c-4775-bcce-95b890558e6d"},"vehicle_type_id":"4","last_reported":1730228879,"current_range_meters":38800,"station_id":"ce4bh2h2rcd13ifvqdh0","pricing_plan_id":"cebpf4jnsgd1na2vs0mg"},{"bike_id":"de26d2e3-435f-4444-a71a-85f92f4cf820","system_id":"levelo_inurba_marseille","lat":43.29517,"lon":5.39043,"is_reserved":false,"is_disabled":false,"rental_uris":{"android":"levelo://app?vid=de26d2e3-435f-4444-a71a-85f92f4cf820","ios":"levelo://app?vid=de26d2e3-435f-4444-a71a-85f92f4cf820"},"vehicle_type_id":"4","last_reported":1730228879,"current_range_meters":26800,"station_id":"ce4bh3p2rcd13ifvqdp0","pricing_plan_id":"cebpf4jnsgd1na2vs0mg"},{"bike_id":"fe831fe5-8016-4099-a869-a23caf4d36e2","system_id":"levelo_inurba_marseille","lat":43.28002,"lon":5.40018,"is_reserved":false,"is_disabled":false,"rental_uris":{"android":"levelo://app?vid=fe831fe5-8016-4099-a869-a23caf4d36e2","ios":"levelo://app?vid=fe831fe5-8016-4099-a869-a23caf4d36e2"},"vehicle_type_id":"4","last_reported":1730228879,"current_range_meters":14400,"station_id":"ce4bho92rcd13ifvqh4g","pricing_plan_id":"cebpf4jnsgd1na2vs0mg"},{"bike_id":"28479175-49ee-4458-b947-381054ff18fd","system_id":"levelo_inurba_marseille","lat":43.29269,"lon":5.36857,"is_reserved":false,"is_disabled":false,"rental_uris":{"android":"levelo://app?vid=28479175-49ee-4458-b947-381054ff18fd","ios":"levelo://app?vid=28479175-49ee-4458-b947-381054ff18fd"},"vehicle_type_id":"4","last_reported":1730228879,"current_range_meters":11200,"station_id":"ce4bhbp2rcd13ifvqesg","pricing_plan_id":"cebpf4jnsgd1na2vs0mg"},{"bike_id":"dd3e05d1-6721-44a0-8ad3-f672e768dc1b","system_id":"levelo_inurba_marseille","lat":43.294653,"lon":5.394111,"is_reserved":false,"is_disabled":false,"rental_uris":{"android":"levelo://app?vid=dd3e05d1-6721-44a0-8ad3-f672e768dc1b","ios":"levelo://app?vid=dd3e05d1-6721-44a0-8ad3-f672e768dc1b"},"vehicle_type_id":"4","last_reported":1730228879,"current_range_meters":22800,"station_id":"ce4bh292rcd13ifvqdf0","pricing_plan_id":"cebpf4jnsgd1na2vs0mg"},{"bike_id":"54963f26-410c-425c-9ba8-646aa5b60f42","system_id":"levelo_inurba_marseille","lat":43.30417,"lon":5.4129,"is_reserved":false,"is_disabled":false,"rental_uris":{"android":"levelo://app?vid=54963f26-410c-425c-9ba8-646aa5b60f42","ios":"levelo://app?vid=54963f26-410c-425c-9ba8-646aa5b60f42"},"vehicle_type_id":"4","last_reported":1730228879,"current_range_meters":6800,"station_id":"ce4bhop2rcd13ifvqh8g","pricing_plan_id":"cebpf4jnsgd1na2vs0mg"},{"bike_id":"47f637b2-e75a-4a0d-aeb9-5f32f372401c","system_id":"levelo_inurba_marseille","lat":43.2903,"lon":5.38646,"is_reserved":false,"is_disabled":false,"rental_uris":{"android":"levelo://app?vid=47f637b2-e75a-4a0d-aeb9-5f32f372401c","ios":"levelo://app?vid=47f637b2-e75a-4a0d-aeb9-5f32f372401c"},"vehicle_type_id":"4","last_reported":1730228879,"current_range_meters":8000,"station_id":"ce4bh4p2rcd13ifvqe0g","pricing_plan_id":"cebpf4jnsgd1na2vs0mg"},{"bike_id":"0b8d31e3-1b05-4b9a-871c-3575a2f007c0","system_id":"levelo_inurba_marseille","lat":43.31711,"lon":5.43707,"is_reserved":false,"is_disabled":false,"rental_uris":{"android":"levelo://app?vid=0b8d31e3-1b05-4b9a-871c-3575a2f007c0","ios":"levelo://app?vid=0b8d31e3-1b05-4b9a-871c-3575a2f007c0"},"vehicle_type_id":"4","last_reported":1730228879,"current_range_meters":9200,"station_id":"ce4bhp92rcd13ifvqhcg","pricing_plan_id":"cebpf4jnsgd1na2vs0mg"},{"bike_id":"93332178-9b61-4a5f-a9d8-7aeffe3c6ab7","system_id":"levelo_inurba_marseille","lat":43.30219,"lon":5.39475,"is_reserved":false,"is_disabled":false,"rental_uris":{"android":"levelo://app?vid=93332178-9b61-4a5f-a9d8-7aeffe3c6ab7","ios":"levelo://app?vid=93332178-9b61-4a5f-a9d8-7aeffe3c6ab7"},"vehicle_type_id":"4","last_reported":1730228879,"current_range_meters":38800,"station_id":"ce4bh0p2rcd13ifvqd70","pricing_plan_id":"cebpf4jnsgd1na2vs0mg"},{"bike_id":"a1f83bf3-eed6-45ed-a98a-d29a1a4fe512","system_id":"levelo_inurba_marseille","lat":43.29934,"lon":5.41311,"is_reserved":false,"is_disabled":false,"rental_uris":{"android":"levelo://app?vid=a1f83bf3-eed6-45ed-a98a-d29a1a4fe512","ios":"levelo://app?vid=a1f83bf3-eed6-45ed-a98a-d29a1a4fe512"},"vehicle_type_id":"4","last_reported":1730228879,"current_range_meters":27600,"station_id":"ce4bhp12rcd13ifvqh9g","pricing_plan_id":"cebpf4jnsgd1na2vs0mg"},{"bike_id":"6a837c5a-938f-4a78-a0ab-620af17ca80b","system_id":"levelo_inurba_marseille","lat":43.31113,"lon":5.37763,"is_reserved":false,"is_disabled":false,"rental_uris":{"android":"levelo://app?vid=6a837c5a-938f-4a78-a0ab-620af17ca80b","ios":"levelo://app?vid=6a837c5a-938f-4a78-a0ab-620af17ca80b"},"vehicle_type_id":"4","last_reported":1730228879,"current_range_meters":11600,"station_id":"ce4bgt92rcd13ifvqcg0","pricing_plan_id":"cebpf4jnsgd1na2vs0mg"},{"bike_id":"2411e135-d925-4cd2-86ff-9243462cd3e8","system_id":"levelo_inurba_marseille","lat":43.315063,"lon":5.372987,"is_reserved":false,"is_disabled":false,"rental_uris":{"android":"levelo://app?vid=2411e135-d925-4cd2-86ff-9243462cd3e8","ios":"levelo://app?vid=2411e135-d925-4cd2-86ff-9243462cd3e8"},"vehicle_type_id":"4","last_reported":1730228879,"current_range_meters":38800,"station_id":"ce4bgt12rcd13ifvqcd0","pricing_plan_id":"cebpf4jnsgd1na2vs0mg"},{"bike_id":"dde3d5e7-4af4-4d25-9b69-48ef795d2a50","system_id":"levelo_inurba_marseille","lat":43.28416,"lon":5.37518,"is_reserved":false,"is_disabled":false,"rental_uris":{"android":"levelo://app?vid=dde3d5e7-4af4-4d25-9b69-48ef795d2a50","ios":"levelo://app?vid=dde3d5e7-4af4-4d25-9b69-48ef795d2a50"},"vehicle_type_id":"4","last_reported":1730228879,"current_range_meters":26800,"station_id":"ce4bh412rcd13ifvqds0","pricing_plan_id":"cebpf4jnsgd1na2vs0mg"},{"bike_id":"766801a5-7dbd-464a-bc56-398e14b9cf78","system_id":"levelo_inurba_marseille","lat":43.29805,"lon":5.37136,"is_reserved":false,"is_disabled":false,"rental_uris":{"android":"levelo://app?vid=766801a5-7dbd-464a-bc56-398e14b9cf78","ios":"levelo://app?vid=766801a5-7dbd-464a-bc56-398e14b9cf78"},"vehicle_type_id":"4","last_reported":1730228879,"current_range_meters":9600,"station_id":"","pricing_plan_id":"cebpf4jnsgd1na2vs0mg"},{"bike_id":"afc8a59e-718c-432c-b226-d6be0903e5fb","system_id":"levelo_inurba_marseille","lat":43.24395,"lon":5.37063,"is_reserved":false,"is_disabled":false,"rental_uris":{"android":"levelo://app?vid=afc8a59e-718c-432c-b226-d6be0903e5fb","ios":"levelo://app?vid=afc8a59e-718c-432c-b226-d6be0903e5fb"},"vehicle_type_id":"4","last_reported":1730228879,"current_range_meters":36800,"station_id":"ce4bhhh2rcd13ifvqfk0","pricing_plan_id":"cebpf4jnsgd1na2vs0mg"},{"bike_id":"05a3978c-ae8f-4c2d-81da-9a71e84d639d","system_id":"levelo_inurba_marseille","lat":43.29415,"lon":5.38626,"is_reserved":false,"is_disabled":false,"rental_uris":{"android":"levelo://app?vid=05a3978c-ae8f-4c2d-81da-9a71e84d639d","ios":"levelo://app?vid=05a3978c-ae8f-4c2d-81da-9a71e84d639d"},"vehicle_type_id":"4","last_reported":1730228879,"current_range_meters":38800,"station_id":"ce4bh2h2rcd13ifvqdh0","pricing_plan_id":"cebpf4jnsgd1na2vs0mg"},{"bike_id":"11251c6c-600b-4fea-b096-d4aec94ae7b7","system_id":"levelo_inurba_marseille","lat":43.30925,"lon":5.40144,"is_reserved":false,"is_disabled":false,"rental_uris":{"android":"levelo://app?vid=11251c6c-600b-4fea-b096-d4aec94ae7b7","ios":"levelo://app?vid=11251c6c-600b-4fea-b096-d4aec94ae7b7"},"vehicle_type_id":"4","last_reported":1730228879,"current_range_meters":28800,"station_id":"ce4bgvp2rcd13ifvqct0","pricing_plan_id":"cebpf4jnsgd1na2vs0mg"},{"bike_id":"31a15459-d87e-45e6-9e6c-d1319d534baa","system_id":"levelo_inurba_marseille","lat":43.30133,"lon":5.39856,"is_reserved":false,"is_disabled":false,"rental_uris":{"android":"levelo://app?vid=31a15459-d87e-45e6-9e6c-d1319d534baa","ios":"levelo://app?vid=31a15459-d87e-45e6-9e6c-d1319d534baa"},"vehicle_type_id":"4","last_reported":1730228879,"current_range_meters":30000,"station_id":"ce4bh0h2rcd13ifvqd40","pricing_plan_id":"cebpf4jnsgd1na2vs0mg"},{"bike_id":"9e50e5dc-d823-4255-81c9-ffdbbbaddbf8","system_id":"levelo_inurba_marseille","lat":43.28854,"lon":5.39332,"is_reserved":false,"is_disabled":false,"rental_uris":{"android":"levelo://app?vid=9e50e5dc-d823-4255-81c9-ffdbbbaddbf8","ios":"levelo://app?vid=9e50e5dc-d823-4255-81c9-ffdbbbaddbf8"},"vehicle_type_id":"4","last_reported":1730228879,"current_range_meters":4400,"station_id":"ce4bh2p2rcd13ifvqdi0","pricing_plan_id":"cebpf4jnsgd1na2vs0mg"},{"bike_id":"84a34f64-d710-4f7b-8f16-f367a9f930e0","system_id":"levelo_inurba_marseille","lat":43.26071,"lon":5.39396,"is_reserved":false,"is_disabled":false,"rental_uris":{"android":"levelo://app?vid=84a34f64-d710-4f7b-8f16-f367a9f930e0","ios":"levelo://app?vid=84a34f64-d710-4f7b-8f16-f367a9f930e0"},"vehicle_type_id":"4","last_reported":1730228879,"current_range_meters":28800,"station_id":"ce4bhh92rcd13ifvqfj0","pricing_plan_id":"cebpf4jnsgd1na2vs0mg"},{"bike_id":"b4a6dcc4-536f-49ec-8d3f-a0b26f2d8dc8","system_id":"levelo_inurba_marseille","lat":43.30417,"lon":5.41279,"is_reserved":false,"is_disabled":false,"rental_uris":{"android":"levelo://app?vid=b4a6dcc4-536f-49ec-8d3f-a0b26f2d8dc8","ios":"levelo://app?vid=b4a6dcc4-536f-49ec-8d3f-a0b26f2d8dc8"},"vehicle_type_id":"4","last_reported":1730228879,"current_range_meters":8000,"station_id":"ce4bhop2rcd13ifvqh8g","pricing_plan_id":"cebpf4jnsgd1na2vs0mg"},{"bike_id":"b3aee190-30d4-43a7-b0cd-f0b8cd9e9c75","system_id":"levelo_inurba_marseille","lat":43.29263,"lon":5.38465,"is_reserved":false,"is_disabled":false,"rental_uris":{"android":"levelo://app?vid=b3aee190-30d4-43a7-b0cd-f0b8cd9e9c75","ios":"levelo://app?vid=b3aee190-30d4-43a7-b0cd-f0b8cd9e9c75"},"vehicle_type_id":"4","last_reported":1730228879,"current_range_meters":8800,"station_id":"ce4bh692rcd13ifvqea0","pricing_plan_id":"cebpf4jnsgd1na2vs0mg"},{"bike_id":"97829264-56ed-47d9-9385-389546635c0f","system_id":"levelo_inurba_marseille","lat":43.28724,"lon":5.37936,"is_reserved":false,"is_disabled":false,"rental_uris":{"android":"levelo://app?vid=97829264-56ed-47d9-9385-389546635c0f","ios":"levelo://app?vid=97829264-56ed-47d9-9385-389546635c0f"},"vehicle_type_id":"4","last_reported":1730228879,"current_range_meters":35600,"station_id":"ce4bh9p2rcd13ifvqec0","pricing_plan_id":"cebpf4jnsgd1na2vs0mg"},{"bike_id":"f0b90e8d-5a51-4c94-9d64-b125714c6e82","system_id":"levelo_inurba_marseille","lat":43.29618,"lon":5.37162,"is_reserved":false,"is_disabled":false,"rental_uris":{"android":"levelo://app?vid=f0b90e8d-5a51-4c94-9d64-b125714c6e82","ios":"levelo://app?vid=f0b90e8d-5a51-4c94-9d64-b125714c6e82"},"vehicle_type_id":"4","last_reported":1730228879,"current_range_meters":37600,"station_id":"","pricing_plan_id":"cebpf4jnsgd1na2vs0mg"},{"bike_id":"a06aaa3a-469c-4c08-9a71-0d7e5c362262","system_id":"levelo_inurba_marseille","lat":43.33723,"lon":5.39184,"is_reserved":false,"is_disabled":false,"rental_uris":{"android":"levelo://app?vid=a06aaa3a-469c-4c08-9a71-0d7e5c362262","ios":"levelo://app?vid=a06aaa3a-469c-4c08-9a71-0d7e5c362262"},"vehicle_type_id":"4","last_reported":1730228879,"current_range_meters":30400,"station_id":"ce4bhr92rcd13ifvqhsg","pricing_plan_id":"cebpf4jnsgd1na2vs0mg"},{"bike_id":"4d0ce9a0-94b7-4906-ab23-abb408a35796","system_id":"levelo_inurba_marseille","lat":43.29289,"lon":5.37459,"is_reserved":false,"is_disabled":false,"rental_uris":{"android":"levelo://app?vid=4d0ce9a0-94b7-4906-ab23-abb408a35796","ios":"levelo://app?vid=4d0ce9a0-94b7-4906-ab23-abb408a35796"},"vehicle_type_id":"4","last_reported":1730228879,"current_range_meters":4800,"station_id":"ce4bgi12rcd13ifvqb70","pricing_plan_id":"cebpf4jnsgd1na2vs0mg"},{"bike_id":"2abc57c4-c82c-4664-83d6-b676386c0623","system_id":"levelo_inurba_marseille","lat":43.3107,"lon":5.38362,"is_reserved":false,"is_disabled":false,"rental_uris":{"android":"levelo://app?vid=2abc57c4-c82c-4664-83d6-b676386c0623","ios":"levelo://app?vid=2abc57c4-c82c-4664-83d6-b676386c0623"},"vehicle_type_id":"4","last_reported":1730228879,"current_range_meters":28000,"station_id":"ce4bgv92rcd13ifvqcr0","pricing_plan_id":"cebpf4jnsgd1na2vs0mg"},{"bike_id":"cf2d9b2a-a115-4a8e-922d-fb2bfe11cd7c","system_id":"levelo_inurba_marseille","lat":43.25001,"lon":5.38926,"is_reserved":false,"is_disabled":false,"rental_uris":{"android":"levelo://app?vid=cf2d9b2a-a115-4a8e-922d-fb2bfe11cd7c","ios":"levelo://app?vid=cf2d9b2a-a115-4a8e-922d-fb2bfe11cd7c"},"vehicle_type_id":"4","last_reported":1730228879,"current_range_meters":17200,"station_id":"ce4bhgp2rcd13ifvqfd0","pricing_plan_id":"cebpf4jnsgd1na2vs0mg"},{"bike_id":"e6011b99-38ff-409a-9dfc-e5eaed959b39","system_id":"levelo_inurba_marseille","lat":43.29026,"lon":5.38644,"is_reserved":false,"is_disabled":false,"rental_uris":{"android":"levelo://app?vid=e6011b99-38ff-409a-9dfc-e5eaed959b39","ios":"levelo://app?vid=e6011b99-38ff-409a-9dfc-e5eaed959b39"},"vehicle_type_id":"4","last_reported":1730228879,"current_range_meters":22000,"station_id":"ce4bh4p2rcd13ifvqe0g","pricing_plan_id":"cebpf4jnsgd1na2vs0mg"},{"bike_id":"f0dd3de4-a99b-41ff-bc93-981f53696e4a","system_id":"levelo_inurba_marseille","lat":43.29784,"lon":5.39351,"is_reserved":false,"is_disabled":false,"rental_uris":{"android":"levelo://app?vid=f0dd3de4-a99b-41ff-bc93-981f53696e4a","ios":"levelo://app?vid=f0dd3de4-a99b-41ff-bc93-981f53696e4a"},"vehicle_type_id":"4","last_reported":1730228879,"current_range_meters":37600,"station_id":"chh1huq6cuj3fo74tm60","pricing_plan_id":"cebpf4jnsgd1na2vs0mg"},{"bike_id":"a0739684-c62b-4061-acb3-02818bfbea3b","system_id":"levelo_inurba_marseille","lat":43.29532,"lon":5.39419,"is_reserved":false,"is_disabled":false,"rental_uris":{"android":"levelo://app?vid=a0739684-c62b-4061-acb3-02818bfbea3b","ios":"levelo://app?vid=a0739684-c62b-4061-acb3-02818bfbea3b"},"vehicle_type_id":"4","last_reported":1730228879,"current_range_meters":38800,"station_id":"ce4bh292rcd13ifvqdf0","pricing_plan_id":"cebpf4jnsgd1na2vs0mg"},{"bike_id":"852e79de-2c06-4ce0-ab48-da376e9b5308","system_id":"levelo_inurba_marseille","lat":43.30209,"lon":5.39471,"is_reserved":false,"is_disabled":false,"rental_uris":{"android":"levelo://app?vid=852e79de-2c06-4ce0-ab48-da376e9b5308","ios":"levelo://app?vid=852e79de-2c06-4ce0-ab48-da376e9b5308"},"vehicle_type_id":"4","last_reported":1730228879,"current_range_meters":39200,"station_id":"ce4bh0p2rcd13ifvqd70","pricing_plan_id":"cebpf4jnsgd1na2vs0mg"},{"bike_id":"88f24c61-ca2d-4430-8381-8e04752fbcf1","system_id":"levelo_inurba_marseille","lat":43.23178,"lon":5.39985,"is_reserved":false,"is_disabled":false,"rental_uris":{"android":"levelo://app?vid=88f24c61-ca2d-4430-8381-8e04752fbcf1","ios":"levelo://app?vid=88f24c61-ca2d-4430-8381-8e04752fbcf1"},"vehicle_type_id":"4","last_reported":1730228879,"current_range_meters":3600,"station_id":"ce4bhn12rcd13ifvqgqg","pricing_plan_id":"cebpf4jnsgd1na2vs0mg"},{"bike_id":"13c85d59-c7cb-409d-b7e2-9aa757f7035f","system_id":"levelo_inurba_marseille","lat":43.32658,"lon":5.40995,"is_reserved":false,"is_disabled":false,"rental_uris":{"android":"levelo://app?vid=13c85d59-c7cb-409d-b7e2-9aa757f7035f","ios":"levelo://app?vid=13c85d59-c7cb-409d-b7e2-9aa757f7035f"},"vehicle_type_id":"4","last_reported":1730228879,"current_range_meters":9200,"station_id":"ce4bhpp2rcd13ifvqhgg","pricing_plan_id":"cebpf4jnsgd1na2vs0mg"},{"bike_id":"5ea475d8-fbf3-460f-872c-01c8b0273f69","system_id":"levelo_inurba_marseille","lat":43.23057,"lon":5.3548,"is_reserved":false,"is_disabled":false,"rental_uris":{"android":"levelo://app?vid=5ea475d8-fbf3-460f-872c-01c8b0273f69","ios":"levelo://app?vid=5ea475d8-fbf3-460f-872c-01c8b0273f69"},"vehicle_type_id":"4","last_reported":1730228879,"current_range_meters":12000,"station_id":"cpo3342slgdg3j2ifvpg","pricing_plan_id":"cebpf4jnsgd1na2vs0mg"},{"bike_id":"65e49c63-9e10-4d30-bcbd-c71d5aabb88b","system_id":"levelo_inurba_marseille","lat":43.33604,"lon":5.41037,"is_reserved":false,"is_disabled":false,"rental_uris":{"android":"levelo://app?vid=65e49c63-9e10-4d30-bcbd-c71d5aabb88b","ios":"levelo://app?vid=65e49c63-9e10-4d30-bcbd-c71d5aabb88b"},"vehicle_type_id":"4","last_reported":1730228879,"current_range_meters":20800,"station_id":"ce4bhqh2rcd13ifvqhmg","pricing_plan_id":"cebpf4jnsgd1na2vs0mg"},{"bike_id":"dd0972d2-2bf5-4c36-9c89-550a52989c38","system_id":"levelo_inurba_marseille","lat":43.24072,"lon":5.37768,"is_reserved":false,"is_disabled":false,"rental_uris":{"android":"levelo://app?vid=dd0972d2-2bf5-4c36-9c89-550a52989c38","ios":"levelo://app?vid=dd0972d2-2bf5-4c36-9c89-550a52989c38"},"vehicle_type_id":"4","last_reported":1730228879,"current_range_meters":10000,"station_id":"ce4bhnp2rcd13ifvqgvg","pricing_plan_id":"cebpf4jnsgd1na2vs0mg"},{"bike_id":"5aecf52a-143c-4328-8118-c219e78a16dc","system_id":"levelo_inurba_marseille","lat":43.24804,"lon":5.37454,"is_reserved":false,"is_disabled":false,"rental_uris":{"android":"levelo://app?vid=5aecf52a-143c-4328-8118-c219e78a16dc","ios":"levelo://app?vid=5aecf52a-143c-4328-8118-c219e78a16dc"},"vehicle_type_id":"4","last_reported":1730228879,"current_range_meters":35600,"station_id":"ce4bhgh2rcd13ifvqfb0","pricing_plan_id":"cebpf4jnsgd1na2vs0mg"},{"bike_id":"19b93e9b-8475-4856-be3e-effc13120edb","system_id":"levelo_inurba_marseille","lat":43.28926,"lon":5.38388,"is_reserved":false,"is_disabled":false,"rental_uris":{"android":"levelo://app?vid=19b93e9b-8475-4856-be3e-effc13120edb","ios":"levelo://app?vid=19b93e9b-8475-4856-be3e-effc13120edb"},"vehicle_type_id":"4","last_reported":1730228879,"current_range_meters":12800,"station_id":"ce4bh612rcd13ifvqe6g","pricing_plan_id":"cebpf4jnsgd1na2vs0mg"},{"bike_id":"aee7f5bd-dd1a-43d3-8332-fe1be419f635","system_id":"levelo_inurba_marseille","lat":43.29514,"lon":5.3904,"is_reserved":false,"is_disabled":false,"rental_uris":{"android":"levelo://app?vid=aee7f5bd-dd1a-43d3-8332-fe1be419f635","ios":"levelo://app?vid=aee7f5bd-dd1a-43d3-8332-fe1be419f635"},"vehicle_type_id":"4","last_reported":1730228879,"current_range_meters":28000,"station_id":"ce4bh3p2rcd13ifvqdp0","pricing_plan_id":"cebpf4jnsgd1na2vs0mg"},{"bike_id":"c21d28b7-cb46-4a85-ab1f-0cb3ee52b623","system_id":"levelo_inurba_marseille","lat":43.23971,"lon":5.36632,"is_reserved":false,"is_disabled":false,"rental_uris":{"android":"levelo://app?vid=c21d28b7-cb46-4a85-ab1f-0cb3ee52b623","ios":"levelo://app?vid=c21d28b7-cb46-4a85-ab1f-0cb3ee52b623"},"vehicle_type_id":"4","last_reported":1730228879,"current_range_meters":13600,"station_id":"ce4bhi12rcd13ifvqfp0","pricing_plan_id":"cebpf4jnsgd1na2vs0mg"},{"bike_id":"880568d1-4140-460a-89e1-52f0e4eb3e79","system_id":"levelo_inurba_marseille","lat":43.2958,"lon":5.36751,"is_reserved":false,"is_disabled":false,"rental_uris":{"android":"levelo://app?vid=880568d1-4140-460a-89e1-52f0e4eb3e79","ios":"levelo://app?vid=880568d1-4140-460a-89e1-52f0e4eb3e79"},"vehicle_type_id":"4","last_reported":1730228879,"current_range_meters":34800,"station_id":"ce4bgph2rcd13ifvqc2g","pricing_plan_id":"cebpf4jnsgd1na2vs0mg"},{"bike_id":"64804dd7-47cd-436a-abea-f63ea9493b3c","system_id":"levelo_inurba_marseille","lat":43.30204,"lon":5.39486,"is_reserved":false,"is_disabled":false,"rental_uris":{"android":"levelo://app?vid=64804dd7-47cd-436a-abea-f63ea9493b3c","ios":"levelo://app?vid=64804dd7-47cd-436a-abea-f63ea9493b3c"},"vehicle_type_id":"4","last_reported":1730228879,"current_range_meters":38800,"station_id":"ce4bh0p2rcd13ifvqd70","pricing_plan_id":"cebpf4jnsgd1na2vs0mg"},{"bike_id":"8bc5687b-ca56-45d1-b9cf-8f936781931b","system_id":"levelo_inurba_marseille","lat":43.29519,"lon":5.39035,"is_reserved":false,"is_disabled":false,"rental_uris":{"android":"levelo://app?vid=8bc5687b-ca56-45d1-b9cf-8f936781931b","ios":"levelo://app?vid=8bc5687b-ca56-45d1-b9cf-8f936781931b"},"vehicle_type_id":"4","last_reported":1730228879,"current_range_meters":8800,"station_id":"ce4bh3p2rcd13ifvqdp0","pricing_plan_id":"cebpf4jnsgd1na2vs0mg"},{"bike_id":"dfc5872c-ff3f-4563-9ec2-6dd2d5ee4136","system_id":"levelo_inurba_marseille","lat":43.290649,"lon":5.381045,"is_reserved":false,"is_disabled":false,"rental_uris":{"android":"levelo://app?vid=dfc5872c-ff3f-4563-9ec2-6dd2d5ee4136","ios":"levelo://app?vid=dfc5872c-ff3f-4563-9ec2-6dd2d5ee4136"},"vehicle_type_id":"4","last_reported":1730228879,"current_range_meters":32000,"station_id":"ce4bh4p2rcd13ifvqe1g","pricing_plan_id":"cebpf4jnsgd1na2vs0mg"},{"bike_id":"aa8f2f7f-13e5-484c-8aed-52ace3be945f","system_id":"levelo_inurba_marseille","lat":43.30426,"lon":5.38893,"is_reserved":false,"is_disabled":false,"rental_uris":{"android":"levelo://app?vid=aa8f2f7f-13e5-484c-8aed-52ace3be945f","ios":"levelo://app?vid=aa8f2f7f-13e5-484c-8aed-52ace3be945f"},"vehicle_type_id":"4","last_reported":1730228879,"current_range_meters":16400,"station_id":"ce4bgk12rcd13ifvqbi0","pricing_plan_id":"cebpf4jnsgd1na2vs0mg"},{"bike_id":"28af1b8f-4d76-4463-aa72-b0d4b3ed8936","system_id":"levelo_inurba_marseille","lat":43.28,"lon":5.40022,"is_reserved":false,"is_disabled":false,"rental_uris":{"android":"levelo://app?vid=28af1b8f-4d76-4463-aa72-b0d4b3ed8936","ios":"levelo://app?vid=28af1b8f-4d76-4463-aa72-b0d4b3ed8936"},"vehicle_type_id":"4","last_reported":1730228879,"current_range_meters":25600,"station_id":"ce4bho92rcd13ifvqh4g","pricing_plan_id":"cebpf4jnsgd1na2vs0mg"},{"bike_id":"977b269d-22d8-4b1e-88e8-a2a02784183e","system_id":"levelo_inurba_marseille","lat":43.28006,"lon":5.4,"is_reserved":false,"is_disabled":false,"rental_uris":{"android":"levelo://app?vid=977b269d-22d8-4b1e-88e8-a2a02784183e","ios":"levelo://app?vid=977b269d-22d8-4b1e-88e8-a2a02784183e"},"vehicle_type_id":"4","last_reported":1730228879,"current_range_meters":27200,"station_id":"ce4bho92rcd13ifvqh4g","pricing_plan_id":"cebpf4jnsgd1na2vs0mg"},{"bike_id":"026b9453-bc52-4163-b0fc-67714528938c","system_id":"levelo_inurba_marseille","lat":43.29504,"lon":5.39045,"is_reserved":false,"is_disabled":false,"rental_uris":{"android":"levelo://app?vid=026b9453-bc52-4163-b0fc-67714528938c","ios":"levelo://app?vid=026b9453-bc52-4163-b0fc-67714528938c"},"vehicle_type_id":"4","last_reported":1730228879,"current_range_meters":34000,"station_id":"ce4bh3p2rcd13ifvqdp0","pricing_plan_id":"cebpf4jnsgd1na2vs0mg"},{"bike_id":"d7351d43-7b54-4d98-a411-248e33c62638","system_id":"levelo_inurba_marseille","lat":43.30887,"lon":5.39657,"is_reserved":false,"is_disabled":false,"rental_uris":{"android":"levelo://app?vid=d7351d43-7b54-4d98-a411-248e33c62638","ios":"levelo://app?vid=d7351d43-7b54-4d98-a411-248e33c62638"},"vehicle_type_id":"4","last_reported":1730228879,"current_range_meters":6400,"station_id":"ce4bh012rcd13ifvqcv0","pricing_plan_id":"cebpf4jnsgd1na2vs0mg"},{"bike_id":"df4abadc-569b-4a61-9e82-5cb4df3c1181","system_id":"levelo_inurba_marseille","lat":43.28723,"lon":5.36081,"is_reserved":false,"is_disabled":false,"rental_uris":{"android":"levelo://app?vid=df4abadc-569b-4a61-9e82-5cb4df3c1181","ios":"levelo://app?vid=df4abadc-569b-4a61-9e82-5cb4df3c1181"},"vehicle_type_id":"4","last_reported":1730228879,"current_range_meters":22000,"station_id":"cki0cbj6b192h4jlfktg","pricing_plan_id":"cebpf4jnsgd1na2vs0mg"},{"bike_id":"092bc003-550f-4c5a-8481-12d5d7a716ab","system_id":"levelo_inurba_marseille","lat":43.33026,"lon":5.3905,"is_reserved":false,"is_disabled":false,"rental_uris":{"android":"levelo://app?vid=092bc003-550f-4c5a-8481-12d5d7a716ab","ios":"levelo://app?vid=092bc003-550f-4c5a-8481-12d5d7a716ab"},"vehicle_type_id":"4","last_reported":1730228879,"current_range_meters":19200,"station_id":"ce4bhr92rcd13ifvqhrg","pricing_plan_id":"cebpf4jnsgd1na2vs0mg"},{"bike_id":"0ebfb6a7-dab7-45cb-a132-f00a7ac28a4d","system_id":"levelo_inurba_marseille","lat":43.27968,"lon":5.38711,"is_reserved":false,"is_disabled":false,"rental_uris":{"android":"levelo://app?vid=0ebfb6a7-dab7-45cb-a132-f00a7ac28a4d","ios":"levelo://app?vid=0ebfb6a7-dab7-45cb-a132-f00a7ac28a4d"},"vehicle_type_id":"4","last_reported":1730228879,"current_range_meters":38800,"station_id":"ce4bhg12rcd13ifvqf80","pricing_plan_id":"cebpf4jnsgd1na2vs0mg"},{"bike_id":"160c3125-d109-49e3-a687-ede78b99dea2","system_id":"levelo_inurba_marseille","lat":43.23191,"lon":5.35548,"is_reserved":false,"is_disabled":false,"rental_uris":{"android":"levelo://app?vid=160c3125-d109-49e3-a687-ede78b99dea2","ios":"levelo://app?vid=160c3125-d109-49e3-a687-ede78b99dea2"},"vehicle_type_id":"4","last_reported":1730228879,"current_range_meters":15200,"station_id":"ce4bhu92rcd13ifvqi70","pricing_plan_id":"cebpf4jnsgd1na2vs0mg"},{"bike_id":"8328c8fc-a79f-412a-9d79-4300f3ae2de3","system_id":"levelo_inurba_marseille","lat":43.29264,"lon":5.38439,"is_reserved":false,"is_disabled":false,"rental_uris":{"android":"levelo://app?vid=8328c8fc-a79f-412a-9d79-4300f3ae2de3","ios":"levelo://app?vid=8328c8fc-a79f-412a-9d79-4300f3ae2de3"},"vehicle_type_id":"4","last_reported":1730228879,"current_range_meters":38800,"station_id":"ce4bh692rcd13ifvqea0","pricing_plan_id":"cebpf4jnsgd1na2vs0mg"},{"bike_id":"7a3f60d6-5589-44b2-bea7-8a929e9b6b4e","system_id":"levelo_inurba_marseille","lat":43.29899,"lon":5.43667,"is_reserved":false,"is_disabled":false,"rental_uris":{"android":"levelo://app?vid=7a3f60d6-5589-44b2-bea7-8a929e9b6b4e","ios":"levelo://app?vid=7a3f60d6-5589-44b2-bea7-8a929e9b6b4e"},"vehicle_type_id":"4","last_reported":1730228879,"current_range_meters":16400,"station_id":"ce4bhpp2rcd13ifvqhfg","pricing_plan_id":"cebpf4jnsgd1na2vs0mg"},{"bike_id":"79bf9c97-a5ea-4f15-9e63-9d99560507ff","system_id":"levelo_inurba_marseille","lat":43.29795,"lon":5.3935,"is_reserved":false,"is_disabled":false,"rental_uris":{"android":"levelo://app?vid=79bf9c97-a5ea-4f15-9e63-9d99560507ff","ios":"levelo://app?vid=79bf9c97-a5ea-4f15-9e63-9d99560507ff"},"vehicle_type_id":"4","last_reported":1730228879,"current_range_meters":24800,"station_id":"chh1huq6cuj3fo74tm60","pricing_plan_id":"cebpf4jnsgd1na2vs0mg"},{"bike_id":"58d379de-16a8-4741-9eba-595efbb72180","system_id":"levelo_inurba_marseille","lat":43.28149,"lon":5.42645,"is_reserved":false,"is_disabled":false,"rental_uris":{"android":"levelo://app?vid=58d379de-16a8-4741-9eba-595efbb72180","ios":"levelo://app?vid=58d379de-16a8-4741-9eba-595efbb72180"},"vehicle_type_id":"4","last_reported":1730228879,"current_range_meters":30400,"station_id":"ce4bhnh2rcd13ifvqgug","pricing_plan_id":"cebpf4jnsgd1na2vs0mg"},{"bike_id":"13f46d9c-5cbe-43fa-9f65-f3ec2f739fd8","system_id":"levelo_inurba_marseille","lat":43.296967,"lon":5.367628,"is_reserved":false,"is_disabled":false,"rental_uris":{"android":"levelo://app?vid=13f46d9c-5cbe-43fa-9f65-f3ec2f739fd8","ios":"levelo://app?vid=13f46d9c-5cbe-43fa-9f65-f3ec2f739fd8"},"vehicle_type_id":"4","last_reported":1730228879,"current_range_meters":2800,"station_id":"ce4bgn12rcd13ifvqbt0","pricing_plan_id":"cebpf4jnsgd1na2vs0mg"},{"bike_id":"f166c615-44b8-4c3e-af9a-466b5236b879","system_id":"levelo_inurba_marseille","lat":43.33604,"lon":5.41029,"is_reserved":false,"is_disabled":false,"rental_uris":{"android":"levelo://app?vid=f166c615-44b8-4c3e-af9a-466b5236b879","ios":"levelo://app?vid=f166c615-44b8-4c3e-af9a-466b5236b879"},"vehicle_type_id":"4","last_reported":1730228879,"current_range_meters":26000,"station_id":"ce4bhqh2rcd13ifvqhmg","pricing_plan_id":"cebpf4jnsgd1na2vs0mg"},{"bike_id":"e6f775ed-7e4f-4942-9f94-dca2cf0052d4","system_id":"levelo_inurba_marseille","lat":43.29259,"lon":5.38441,"is_reserved":false,"is_disabled":false,"rental_uris":{"android":"levelo://app?vid=e6f775ed-7e4f-4942-9f94-dca2cf0052d4","ios":"levelo://app?vid=e6f775ed-7e4f-4942-9f94-dca2cf0052d4"},"vehicle_type_id":"4","last_reported":1730228879,"current_range_meters":14800,"station_id":"ce4bh692rcd13ifvqea0","pricing_plan_id":"cebpf4jnsgd1na2vs0mg"},{"bike_id":"f2c1121c-5c92-4221-a002-33aa3e39f748","system_id":"levelo_inurba_marseille","lat":43.33607,"lon":5.41025,"is_reserved":false,"is_disabled":false,"rental_uris":{"android":"levelo://app?vid=f2c1121c-5c92-4221-a002-33aa3e39f748","ios":"levelo://app?vid=f2c1121c-5c92-4221-a002-33aa3e39f748"},"vehicle_type_id":"4","last_reported":1730228879,"current_range_meters":18000,"station_id":"ce4bhqh2rcd13ifvqhmg","pricing_plan_id":"cebpf4jnsgd1na2vs0mg"},{"bike_id":"9a9631bf-5235-4d0d-af67-60f1da128173","system_id":"levelo_inurba_marseille","lat":43.268,"lon":5.40267,"is_reserved":false,"is_disabled":false,"rental_uris":{"android":"levelo://app?vid=9a9631bf-5235-4d0d-af67-60f1da128173","ios":"levelo://app?vid=9a9631bf-5235-4d0d-af67-60f1da128173"},"vehicle_type_id":"4","last_reported":1730228879,"current_range_meters":9600,"station_id":"ce501612rcd8frsf0b60","pricing_plan_id":"cebpf4jnsgd1na2vs0mg"},{"bike_id":"f793c0ab-64cd-4f7d-816d-e95d724f8dcb","system_id":"levelo_inurba_marseille","lat":43.31323,"lon":5.39693,"is_reserved":false,"is_disabled":false,"rental_uris":{"android":"levelo://app?vid=f793c0ab-64cd-4f7d-816d-e95d724f8dcb","ios":"levelo://app?vid=f793c0ab-64cd-4f7d-816d-e95d724f8dcb"},"vehicle_type_id":"4","last_reported":1730228879,"current_range_meters":27600,"station_id":"ce4bgvp2rcd13ifvqcu0","pricing_plan_id":"cebpf4jnsgd1na2vs0mg"},{"bike_id":"2bc253a6-b529-475e-b719-77af0dc4716f","system_id":"levelo_inurba_marseille","lat":43.29935,"lon":5.40161,"is_reserved":false,"is_disabled":false,"rental_uris":{"android":"levelo://app?vid=2bc253a6-b529-475e-b719-77af0dc4716f","ios":"levelo://app?vid=2bc253a6-b529-475e-b719-77af0dc4716f"},"vehicle_type_id":"4","last_reported":1730228879,"current_range_meters":33600,"station_id":"","pricing_plan_id":"cebpf4jnsgd1na2vs0mg"},{"bike_id":"9b38c58f-bb00-4b83-ab2a-35eb8e3b9863","system_id":"levelo_inurba_marseille","lat":43.30327,"lon":5.40448,"is_reserved":false,"is_disabled":false,"rental_uris":{"android":"levelo://app?vid=9b38c58f-bb00-4b83-ab2a-35eb8e3b9863","ios":"levelo://app?vid=9b38c58f-bb00-4b83-ab2a-35eb8e3b9863"},"vehicle_type_id":"4","last_reported":1730228879,"current_range_meters":38000,"station_id":"ce4bh012rcd13ifvqd10","pricing_plan_id":"cebpf4jnsgd1na2vs0mg"},{"bike_id":"54681318-8e56-4fc9-853d-73c29e589dd8","system_id":"levelo_inurba_marseille","lat":43.285553,"lon":5.383459,"is_reserved":false,"is_disabled":false,"rental_uris":{"android":"levelo://app?vid=54681318-8e56-4fc9-853d-73c29e589dd8","ios":"levelo://app?vid=54681318-8e56-4fc9-853d-73c29e589dd8"},"vehicle_type_id":"4","last_reported":1730228879,"current_range_meters":27200,"station_id":"ce4bh512rcd13ifvqe3g","pricing_plan_id":"cebpf4jnsgd1na2vs0mg"},{"bike_id":"88fe1137-2705-4ce2-83f8-9d82d3af2106","system_id":"levelo_inurba_marseille","lat":43.29584,"lon":5.39878,"is_reserved":false,"is_disabled":false,"rental_uris":{"android":"levelo://app?vid=88fe1137-2705-4ce2-83f8-9d82d3af2106","ios":"levelo://app?vid=88fe1137-2705-4ce2-83f8-9d82d3af2106"},"vehicle_type_id":"4","last_reported":1730228879,"current_range_meters":32800,"station_id":"ce4bh3p2rcd13ifvqdp0","pricing_plan_id":"cebpf4jnsgd1na2vs0mg"},{"bike_id":"e621245d-2fc9-40b8-b411-45bbf88d48dd","system_id":"levelo_inurba_marseille","lat":43.27998,"lon":5.40024,"is_reserved":false,"is_disabled":false,"rental_uris":{"android":"levelo://app?vid=e621245d-2fc9-40b8-b411-45bbf88d48dd","ios":"levelo://app?vid=e621245d-2fc9-40b8-b411-45bbf88d48dd"},"vehicle_type_id":"4","last_reported":1730228879,"current_range_meters":9600,"station_id":"ce4bho92rcd13ifvqh4g","pricing_plan_id":"cebpf4jnsgd1na2vs0mg"},{"bike_id":"f7676f8f-03c4-4ff1-8b68-d709473a863b","system_id":"levelo_inurba_marseille","lat":43.30649,"lon":5.40085,"is_reserved":false,"is_disabled":false,"rental_uris":{"android":"levelo://app?vid=f7676f8f-03c4-4ff1-8b68-d709473a863b","ios":"levelo://app?vid=f7676f8f-03c4-4ff1-8b68-d709473a863b"},"vehicle_type_id":"4","last_reported":1730228879,"current_range_meters":12400,"station_id":"ce4bh112rcd13ifvqda0","pricing_plan_id":"cebpf4jnsgd1na2vs0mg"},{"bike_id":"a1768149-c965-493f-9904-ffde1cbfa282","system_id":"levelo_inurba_marseille","lat":43.31325,"lon":5.39693,"is_reserved":false,"is_disabled":false,"rental_uris":{"android":"levelo://app?vid=a1768149-c965-493f-9904-ffde1cbfa282","ios":"levelo://app?vid=a1768149-c965-493f-9904-ffde1cbfa282"},"vehicle_type_id":"4","last_reported":1730228879,"current_range_meters":36400,"station_id":"ce4bgvp2rcd13ifvqcu0","pricing_plan_id":"cebpf4jnsgd1na2vs0mg"},{"bike_id":"77e37d5e-d428-41b2-9a92-2b0166367370","system_id":"levelo_inurba_marseille","lat":43.24582,"lon":5.39487,"is_reserved":false,"is_disabled":false,"rental_uris":{"android":"levelo://app?vid=77e37d5e-d428-41b2-9a92-2b0166367370","ios":"levelo://app?vid=77e37d5e-d428-41b2-9a92-2b0166367370"},"vehicle_type_id":"4","last_reported":1730228879,"current_range_meters":27200,"station_id":"ce4bhlh2rcd13ifvqgig","pricing_plan_id":"cebpf4jnsgd1na2vs0mg"},{"bike_id":"98720dd9-6d26-4f1f-a1ac-af978555cfd3","system_id":"levelo_inurba_marseille","lat":43.23967,"lon":5.36632,"is_reserved":false,"is_disabled":false,"rental_uris":{"android":"levelo://app?vid=98720dd9-6d26-4f1f-a1ac-af978555cfd3","ios":"levelo://app?vid=98720dd9-6d26-4f1f-a1ac-af978555cfd3"},"vehicle_type_id":"4","last_reported":1730228879,"current_range_meters":6400,"station_id":"ce4bhi12rcd13ifvqfp0","pricing_plan_id":"cebpf4jnsgd1na2vs0mg"},{"bike_id":"22df8697-ca80-42c4-a813-332b1f481e01","system_id":"levelo_inurba_marseille","lat":43.28712,"lon":5.37383,"is_reserved":false,"is_disabled":false,"rental_uris":{"android":"levelo://app?vid=22df8697-ca80-42c4-a813-332b1f481e01","ios":"levelo://app?vid=22df8697-ca80-42c4-a813-332b1f481e01"},"vehicle_type_id":"4","last_reported":1730228879,"current_range_meters":12400,"station_id":"ce4bh3p2rcd13ifvqdq0","pricing_plan_id":"cebpf4jnsgd1na2vs0mg"},{"bike_id":"f89a00b8-5b90-4bd3-84a7-5d0772f21531","system_id":"levelo_inurba_marseille","lat":43.31163,"lon":5.38718,"is_reserved":false,"is_disabled":false,"rental_uris":{"android":"levelo://app?vid=f89a00b8-5b90-4bd3-84a7-5d0772f21531","ios":"levelo://app?vid=f89a00b8-5b90-4bd3-84a7-5d0772f21531"},"vehicle_type_id":"4","last_reported":1730228879,"current_range_meters":30800,"station_id":"ce4bgv12rcd13ifvqcp0","pricing_plan_id":"cebpf4jnsgd1na2vs0mg"},{"bike_id":"5106e4e7-7b70-4f45-9580-b8240412b165","system_id":"levelo_inurba_marseille","lat":43.28697,"lon":5.37388,"is_reserved":false,"is_disabled":false,"rental_uris":{"android":"levelo://app?vid=5106e4e7-7b70-4f45-9580-b8240412b165","ios":"levelo://app?vid=5106e4e7-7b70-4f45-9580-b8240412b165"},"vehicle_type_id":"4","last_reported":1730228879,"current_range_meters":15200,"station_id":"ce4bh3p2rcd13ifvqdq0","pricing_plan_id":"cebpf4jnsgd1na2vs0mg"},{"bike_id":"e290f3fc-39ec-4e80-b1e2-151adcb77361","system_id":"levelo_inurba_marseille","lat":43.29279,"lon":5.40119,"is_reserved":false,"is_disabled":false,"rental_uris":{"android":"levelo://app?vid=e290f3fc-39ec-4e80-b1e2-151adcb77361","ios":"levelo://app?vid=e290f3fc-39ec-4e80-b1e2-151adcb77361"},"vehicle_type_id":"4","last_reported":1730228879,"current_range_meters":21600,"station_id":"ce4bh312rcd13ifvqdk0","pricing_plan_id":"cebpf4jnsgd1na2vs0mg"},{"bike_id":"3ad229b2-210f-4b0b-95af-f3c6c9e6b25f","system_id":"levelo_inurba_marseille","lat":43.3035,"lon":5.41875,"is_reserved":false,"is_disabled":false,"rental_uris":{"android":"levelo://app?vid=3ad229b2-210f-4b0b-95af-f3c6c9e6b25f","ios":"levelo://app?vid=3ad229b2-210f-4b0b-95af-f3c6c9e6b25f"},"vehicle_type_id":"4","last_reported":1730228879,"current_range_meters":24000,"station_id":"ce4bhop2rcd13ifvqh7g","pricing_plan_id":"cebpf4jnsgd1na2vs0mg"},{"bike_id":"b6781193-98d6-43ce-b93e-daef61a6ed5b","system_id":"levelo_inurba_marseille","lat":43.31067,"lon":5.38343,"is_reserved":false,"is_disabled":false,"rental_uris":{"android":"levelo://app?vid=b6781193-98d6-43ce-b93e-daef61a6ed5b","ios":"levelo://app?vid=b6781193-98d6-43ce-b93e-daef61a6ed5b"},"vehicle_type_id":"4","last_reported":1730228879,"current_range_meters":39200,"station_id":"ce4bgv92rcd13ifvqcr0","pricing_plan_id":"cebpf4jnsgd1na2vs0mg"},{"bike_id":"52cd4322-da47-43f1-b749-147e77e1a70f","system_id":"levelo_inurba_marseille","lat":43.2407,"lon":5.37759,"is_reserved":false,"is_disabled":false,"rental_uris":{"android":"levelo://app?vid=52cd4322-da47-43f1-b749-147e77e1a70f","ios":"levelo://app?vid=52cd4322-da47-43f1-b749-147e77e1a70f"},"vehicle_type_id":"4","last_reported":1730228879,"current_range_meters":3200,"station_id":"ce4bhnp2rcd13ifvqgvg","pricing_plan_id":"cebpf4jnsgd1na2vs0mg"},{"bike_id":"4d80f1ff-c4a7-47eb-a5dc-c11c71a17dc6","system_id":"levelo_inurba_marseille","lat":43.27371,"lon":5.36248,"is_reserved":false,"is_disabled":false,"rental_uris":{"android":"levelo://app?vid=4d80f1ff-c4a7-47eb-a5dc-c11c71a17dc6","ios":"levelo://app?vid=4d80f1ff-c4a7-47eb-a5dc-c11c71a17dc6"},"vehicle_type_id":"4","last_reported":1730228879,"current_range_meters":5600,"station_id":"ce4bhbh2rcd13ifvqeo0","pricing_plan_id":"cebpf4jnsgd1na2vs0mg"},{"bike_id":"b93c1657-5bb5-4cdd-a2f6-bbc5a1c4bb43","system_id":"levelo_inurba_marseille","lat":43.29424,"lon":5.38628,"is_reserved":false,"is_disabled":false,"rental_uris":{"android":"levelo://app?vid=b93c1657-5bb5-4cdd-a2f6-bbc5a1c4bb43","ios":"levelo://app?vid=b93c1657-5bb5-4cdd-a2f6-bbc5a1c4bb43"},"vehicle_type_id":"4","last_reported":1730228879,"current_range_meters":19600,"station_id":"ce4bh2h2rcd13ifvqdh0","pricing_plan_id":"cebpf4jnsgd1na2vs0mg"},{"bike_id":"598742e5-754e-4183-a86d-7571dada0eb2","system_id":"levelo_inurba_marseille","lat":43.28411,"lon":5.3752,"is_reserved":false,"is_disabled":false,"rental_uris":{"android":"levelo://app?vid=598742e5-754e-4183-a86d-7571dada0eb2","ios":"levelo://app?vid=598742e5-754e-4183-a86d-7571dada0eb2"},"vehicle_type_id":"4","last_reported":1730228879,"current_range_meters":26000,"station_id":"ce4bh412rcd13ifvqds0","pricing_plan_id":"cebpf4jnsgd1na2vs0mg"},{"bike_id":"ac6f2e5d-1d01-4602-926d-d4c71dc1ff1c","system_id":"levelo_inurba_marseille","lat":43.31169,"lon":5.38717,"is_reserved":false,"is_disabled":false,"rental_uris":{"android":"levelo://app?vid=ac6f2e5d-1d01-4602-926d-d4c71dc1ff1c","ios":"levelo://app?vid=ac6f2e5d-1d01-4602-926d-d4c71dc1ff1c"},"vehicle_type_id":"4","last_reported":1730228879,"current_range_meters":40000,"station_id":"ce4bgv12rcd13ifvqcp0","pricing_plan_id":"cebpf4jnsgd1na2vs0mg"},{"bike_id":"51c0afa0-ed76-45a8-b6c8-d5f47615923f","system_id":"levelo_inurba_marseille","lat":43.29027,"lon":5.38638,"is_reserved":false,"is_disabled":false,"rental_uris":{"android":"levelo://app?vid=51c0afa0-ed76-45a8-b6c8-d5f47615923f","ios":"levelo://app?vid=51c0afa0-ed76-45a8-b6c8-d5f47615923f"},"vehicle_type_id":"4","last_reported":1730228879,"current_range_meters":15200,"station_id":"ce4bh4p2rcd13ifvqe0g","pricing_plan_id":"cebpf4jnsgd1na2vs0mg"},{"bike_id":"42c5b94d-a6e1-4c0e-b3fa-74ef5f2ef0d2","system_id":"levelo_inurba_marseille","lat":43.23962,"lon":5.36629,"is_reserved":false,"is_disabled":false,"rental_uris":{"android":"levelo://app?vid=42c5b94d-a6e1-4c0e-b3fa-74ef5f2ef0d2","ios":"levelo://app?vid=42c5b94d-a6e1-4c0e-b3fa-74ef5f2ef0d2"},"vehicle_type_id":"4","last_reported":1730228879,"current_range_meters":20800,"station_id":"ce4bhi12rcd13ifvqfp0","pricing_plan_id":"cebpf4jnsgd1na2vs0mg"},{"bike_id":"c74f24e5-c481-4881-8bd1-3accb0bc43ae","system_id":"levelo_inurba_marseille","lat":43.27994,"lon":5.40006,"is_reserved":false,"is_disabled":false,"rental_uris":{"android":"levelo://app?vid=c74f24e5-c481-4881-8bd1-3accb0bc43ae","ios":"levelo://app?vid=c74f24e5-c481-4881-8bd1-3accb0bc43ae"},"vehicle_type_id":"4","last_reported":1730228879,"current_range_meters":16000,"station_id":"ce4bho92rcd13ifvqh4g","pricing_plan_id":"cebpf4jnsgd1na2vs0mg"},{"bike_id":"a53d45cf-c1ec-4d69-8b31-455a203693ad","system_id":"levelo_inurba_marseille","lat":43.2621,"lon":5.37446,"is_reserved":false,"is_disabled":false,"rental_uris":{"android":"levelo://app?vid=a53d45cf-c1ec-4d69-8b31-455a203693ad","ios":"levelo://app?vid=a53d45cf-c1ec-4d69-8b31-455a203693ad"},"vehicle_type_id":"4","last_reported":1730228879,"current_range_meters":8000,"station_id":"ce4bhgp2rcd13ifvqfc0","pricing_plan_id":"cebpf4jnsgd1na2vs0mg"},{"bike_id":"f77542f1-ad44-4fda-bcc1-55d073b25f16","system_id":"levelo_inurba_marseille","lat":43.28853,"lon":5.3932,"is_reserved":false,"is_disabled":false,"rental_uris":{"android":"levelo://app?vid=f77542f1-ad44-4fda-bcc1-55d073b25f16","ios":"levelo://app?vid=f77542f1-ad44-4fda-bcc1-55d073b25f16"},"vehicle_type_id":"4","last_reported":1730228879,"current_range_meters":28400,"station_id":"ce4bh2p2rcd13ifvqdi0","pricing_plan_id":"cebpf4jnsgd1na2vs0mg"},{"bike_id":"0cebe45a-7302-469a-b861-6fd094a95414","system_id":"levelo_inurba_marseille","lat":43.2319,"lon":5.35554,"is_reserved":false,"is_disabled":false,"rental_uris":{"android":"levelo://app?vid=0cebe45a-7302-469a-b861-6fd094a95414","ios":"levelo://app?vid=0cebe45a-7302-469a-b861-6fd094a95414"},"vehicle_type_id":"4","last_reported":1730228879,"current_range_meters":7200,"station_id":"ce4bhu92rcd13ifvqi70","pricing_plan_id":"cebpf4jnsgd1na2vs0mg"},{"bike_id":"56b943a0-e48e-453f-bdb7-d8b91f470ac7","system_id":"levelo_inurba_marseille","lat":43.30493,"lon":5.3819,"is_reserved":false,"is_disabled":false,"rental_uris":{"android":"levelo://app?vid=56b943a0-e48e-453f-bdb7-d8b91f470ac7","ios":"levelo://app?vid=56b943a0-e48e-453f-bdb7-d8b91f470ac7"},"vehicle_type_id":"4","last_reported":1730228879,"current_range_meters":9200,"station_id":"","pricing_plan_id":"cebpf4jnsgd1na2vs0mg"},{"bike_id":"b0a22559-e718-4fe2-ad86-bcce1e4a8799","system_id":"levelo_inurba_marseille","lat":43.28709,"lon":5.39999,"is_reserved":false,"is_disabled":false,"rental_uris":{"android":"levelo://app?vid=b0a22559-e718-4fe2-ad86-bcce1e4a8799","ios":"levelo://app?vid=b0a22559-e718-4fe2-ad86-bcce1e4a8799"},"vehicle_type_id":"4","last_reported":1730228879,"current_range_meters":39200,"station_id":"ce4bho92rcd13ifvqh3g","pricing_plan_id":"cebpf4jnsgd1na2vs0mg"},{"bike_id":"e2d01510-443c-44ea-97e0-6e92dc3cfea2","system_id":"levelo_inurba_marseille","lat":43.295563,"lon":5.375214,"is_reserved":false,"is_disabled":false,"rental_uris":{"android":"levelo://app?vid=e2d01510-443c-44ea-97e0-6e92dc3cfea2","ios":"levelo://app?vid=e2d01510-443c-44ea-97e0-6e92dc3cfea2"},"vehicle_type_id":"4","last_reported":1730228879,"current_range_meters":39200,"station_id":"ce4bgh92rcd13ifvqb50","pricing_plan_id":"cebpf4jnsgd1na2vs0mg"},{"bike_id":"237fc59f-9142-4227-b7d6-4eb9c8d5f3ee","system_id":"levelo_inurba_marseille","lat":43.24808,"lon":5.3746,"is_reserved":false,"is_disabled":false,"rental_uris":{"android":"levelo://app?vid=237fc59f-9142-4227-b7d6-4eb9c8d5f3ee","ios":"levelo://app?vid=237fc59f-9142-4227-b7d6-4eb9c8d5f3ee"},"vehicle_type_id":"4","last_reported":1730228879,"current_range_meters":16400,"station_id":"ce4bhgh2rcd13ifvqfb0","pricing_plan_id":"cebpf4jnsgd1na2vs0mg"},{"bike_id":"769025b3-b1ab-4a56-8310-7807acc06298","system_id":"levelo_inurba_marseille","lat":43.28714,"lon":5.37388,"is_reserved":false,"is_disabled":false,"rental_uris":{"android":"levelo://app?vid=769025b3-b1ab-4a56-8310-7807acc06298","ios":"levelo://app?vid=769025b3-b1ab-4a56-8310-7807acc06298"},"vehicle_type_id":"4","last_reported":1730228879,"current_range_meters":39200,"station_id":"ce4bh3p2rcd13ifvqdq0","pricing_plan_id":"cebpf4jnsgd1na2vs0mg"},{"bike_id":"a7139a6f-e2d8-4ea9-916d-a80026ccf44e","system_id":"levelo_inurba_marseille","lat":43.24807,"lon":5.37456,"is_reserved":false,"is_disabled":false,"rental_uris":{"android":"levelo://app?vid=a7139a6f-e2d8-4ea9-916d-a80026ccf44e","ios":"levelo://app?vid=a7139a6f-e2d8-4ea9-916d-a80026ccf44e"},"vehicle_type_id":"4","last_reported":1730228879,"current_range_meters":27200,"station_id":"ce4bhgh2rcd13ifvqfb0","pricing_plan_id":"cebpf4jnsgd1na2vs0mg"},{"bike_id":"7fd0c8f1-1000-4a18-9e5f-72d15ecadddc","system_id":"levelo_inurba_marseille","lat":43.30796,"lon":5.38165,"is_reserved":false,"is_disabled":false,"rental_uris":{"android":"levelo://app?vid=7fd0c8f1-1000-4a18-9e5f-72d15ecadddc","ios":"levelo://app?vid=7fd0c8f1-1000-4a18-9e5f-72d15ecadddc"},"vehicle_type_id":"4","last_reported":1730228879,"current_range_meters":11200,"station_id":"ce4bgt92rcd13ifvqcf0","pricing_plan_id":"cebpf4jnsgd1na2vs0mg"},{"bike_id":"0670a397-ad0f-48c4-af86-903f9b7dd963","system_id":"levelo_inurba_marseille","lat":43.28154,"lon":5.42648,"is_reserved":false,"is_disabled":false,"rental_uris":{"android":"levelo://app?vid=0670a397-ad0f-48c4-af86-903f9b7dd963","ios":"levelo://app?vid=0670a397-ad0f-48c4-af86-903f9b7dd963"},"vehicle_type_id":"4","last_reported":1730228879,"current_range_meters":23200,"station_id":"ce4bhnh2rcd13ifvqgug","pricing_plan_id":"cebpf4jnsgd1na2vs0mg"},{"bike_id":"e3c1417a-7310-44c2-ad26-be6f20483f85","system_id":"levelo_inurba_marseille","lat":43.28,"lon":5.40026,"is_reserved":false,"is_disabled":false,"rental_uris":{"android":"levelo://app?vid=e3c1417a-7310-44c2-ad26-be6f20483f85","ios":"levelo://app?vid=e3c1417a-7310-44c2-ad26-be6f20483f85"},"vehicle_type_id":"4","last_reported":1730228879,"current_range_meters":36800,"station_id":"ce4bho92rcd13ifvqh4g","pricing_plan_id":"cebpf4jnsgd1na2vs0mg"},{"bike_id":"18b30c60-04f1-4e44-b8e1-87a9af63b3eb","system_id":"levelo_inurba_marseille","lat":43.29419,"lon":5.38624,"is_reserved":false,"is_disabled":false,"rental_uris":{"android":"levelo://app?vid=18b30c60-04f1-4e44-b8e1-87a9af63b3eb","ios":"levelo://app?vid=18b30c60-04f1-4e44-b8e1-87a9af63b3eb"},"vehicle_type_id":"4","last_reported":1730228879,"current_range_meters":24000,"station_id":"ce4bh2h2rcd13ifvqdh0","pricing_plan_id":"cebpf4jnsgd1na2vs0mg"},{"bike_id":"fd20c0bf-317d-4bb0-b8ba-ade88bb31067","system_id":"levelo_inurba_marseille","lat":43.29303,"lon":5.37182,"is_reserved":false,"is_disabled":false,"rental_uris":{"android":"levelo://app?vid=fd20c0bf-317d-4bb0-b8ba-ade88bb31067","ios":"levelo://app?vid=fd20c0bf-317d-4bb0-b8ba-ade88bb31067"},"vehicle_type_id":"4","last_reported":1730228879,"current_range_meters":16000,"station_id":"ce4bgh92rcd13ifvqb40","pricing_plan_id":"cebpf4jnsgd1na2vs0mg"},{"bike_id":"c319b457-0774-487c-b671-3fe3c6c44618","system_id":"levelo_inurba_marseille","lat":43.30145,"lon":5.39863,"is_reserved":false,"is_disabled":false,"rental_uris":{"android":"levelo://app?vid=c319b457-0774-487c-b671-3fe3c6c44618","ios":"levelo://app?vid=c319b457-0774-487c-b671-3fe3c6c44618"},"vehicle_type_id":"4","last_reported":1730228879,"current_range_meters":38800,"station_id":"ce4bh0h2rcd13ifvqd40","pricing_plan_id":"cebpf4jnsgd1na2vs0mg"},{"bike_id":"e847bc01-a86c-4865-8690-00dbf9e57cf5","system_id":"levelo_inurba_marseille","lat":43.293638,"lon":5.378481,"is_reserved":false,"is_disabled":false,"rental_uris":{"android":"levelo://app?vid=e847bc01-a86c-4865-8690-00dbf9e57cf5","ios":"levelo://app?vid=e847bc01-a86c-4865-8690-00dbf9e57cf5"},"vehicle_type_id":"4","last_reported":1730228879,"current_range_meters":26000,"station_id":"ce4bgjh2rcd13ifvqbf0","pricing_plan_id":"cebpf4jnsgd1na2vs0mg"},{"bike_id":"0e6dacd7-5ca3-4661-85d2-9761241bc616","system_id":"levelo_inurba_marseille","lat":43.2794,"lon":5.41054,"is_reserved":false,"is_disabled":false,"rental_uris":{"android":"levelo://app?vid=0e6dacd7-5ca3-4661-85d2-9761241bc616","ios":"levelo://app?vid=0e6dacd7-5ca3-4661-85d2-9761241bc616"},"vehicle_type_id":"4","last_reported":1730228879,"current_range_meters":22400,"station_id":"ce4bhnp2rcd13ifvqh0g","pricing_plan_id":"cebpf4jnsgd1na2vs0mg"},{"bike_id":"5abae0c2-b1e8-4d21-b648-24124aa73d9a","system_id":"levelo_inurba_marseille","lat":43.31701,"lon":5.37739,"is_reserved":false,"is_disabled":false,"rental_uris":{"android":"levelo://app?vid=5abae0c2-b1e8-4d21-b648-24124aa73d9a","ios":"levelo://app?vid=5abae0c2-b1e8-4d21-b648-24124aa73d9a"},"vehicle_type_id":"4","last_reported":1730228879,"current_range_meters":12400,"station_id":"ce4bgth2rcd13ifvqch0","pricing_plan_id":"cebpf4jnsgd1na2vs0mg"},{"bike_id":"7f4282af-f01d-4a97-ac61-84d8e9d98276","system_id":"levelo_inurba_marseille","lat":43.30126,"lon":5.39866,"is_reserved":false,"is_disabled":false,"rental_uris":{"android":"levelo://app?vid=7f4282af-f01d-4a97-ac61-84d8e9d98276","ios":"levelo://app?vid=7f4282af-f01d-4a97-ac61-84d8e9d98276"},"vehicle_type_id":"4","last_reported":1730228879,"current_range_meters":38400,"station_id":"ce4bh0h2rcd13ifvqd40","pricing_plan_id":"cebpf4jnsgd1na2vs0mg"},{"bike_id":"57a29866-d708-4cf0-8aa6-7363f85e252a","system_id":"levelo_inurba_marseille","lat":43.31885,"lon":5.40736,"is_reserved":false,"is_disabled":false,"rental_uris":{"android":"levelo://app?vid=57a29866-d708-4cf0-8aa6-7363f85e252a","ios":"levelo://app?vid=57a29866-d708-4cf0-8aa6-7363f85e252a"},"vehicle_type_id":"4","last_reported":1730228879,"current_range_meters":25600,"station_id":"ce4bhq12rcd13ifvqhig","pricing_plan_id":"cebpf4jnsgd1na2vs0mg"},{"bike_id":"5d518288-2712-4be9-8aff-1f5ec6403be2","system_id":"levelo_inurba_marseille","lat":43.27177,"lon":5.41,"is_reserved":false,"is_disabled":false,"rental_uris":{"android":"levelo://app?vid=5d518288-2712-4be9-8aff-1f5ec6403be2","ios":"levelo://app?vid=5d518288-2712-4be9-8aff-1f5ec6403be2"},"vehicle_type_id":"4","last_reported":1730228879,"current_range_meters":18800,"station_id":"ce4bhl12rcd13ifvqgf0","pricing_plan_id":"cebpf4jnsgd1na2vs0mg"},{"bike_id":"aa9f3288-c7ca-4e2b-bf01-c0066e463e9e","system_id":"levelo_inurba_marseille","lat":43.29261,"lon":5.38446,"is_reserved":false,"is_disabled":false,"rental_uris":{"android":"levelo://app?vid=aa9f3288-c7ca-4e2b-bf01-c0066e463e9e","ios":"levelo://app?vid=aa9f3288-c7ca-4e2b-bf01-c0066e463e9e"},"vehicle_type_id":"4","last_reported":1730228879,"current_range_meters":20000,"station_id":"ce4bh692rcd13ifvqea0","pricing_plan_id":"cebpf4jnsgd1na2vs0mg"},{"bike_id":"1b65b5a3-7b33-4214-8b15-08a9cd38a135","system_id":"levelo_inurba_marseille","lat":43.27175,"lon":5.40995,"is_reserved":false,"is_disabled":false,"rental_uris":{"android":"levelo://app?vid=1b65b5a3-7b33-4214-8b15-08a9cd38a135","ios":"levelo://app?vid=1b65b5a3-7b33-4214-8b15-08a9cd38a135"},"vehicle_type_id":"4","last_reported":1730228879,"current_range_meters":20400,"station_id":"ce4bhl12rcd13ifvqgf0","pricing_plan_id":"cebpf4jnsgd1na2vs0mg"},{"bike_id":"6b74f6b7-54de-4296-a9ad-659349dab030","system_id":"levelo_inurba_marseille","lat":43.3133,"lon":5.39691,"is_reserved":false,"is_disabled":false,"rental_uris":{"android":"levelo://app?vid=6b74f6b7-54de-4296-a9ad-659349dab030","ios":"levelo://app?vid=6b74f6b7-54de-4296-a9ad-659349dab030"},"vehicle_type_id":"4","last_reported":1730228879,"current_range_meters":39200,"station_id":"ce4bgvp2rcd13ifvqcu0","pricing_plan_id":"cebpf4jnsgd1na2vs0mg"},{"bike_id":"218a4769-7c25-4739-9405-81b41ca0e65a","system_id":"levelo_inurba_marseille","lat":43.30803,"lon":5.3814,"is_reserved":false,"is_disabled":false,"rental_uris":{"android":"levelo://app?vid=218a4769-7c25-4739-9405-81b41ca0e65a","ios":"levelo://app?vid=218a4769-7c25-4739-9405-81b41ca0e65a"},"vehicle_type_id":"4","last_reported":1730228879,"current_range_meters":37600,"station_id":"ce4bgt12rcd13ifvqce0","pricing_plan_id":"cebpf4jnsgd1na2vs0mg"},{"bike_id":"be0d7294-79fe-406d-9e64-c3827fb03d9a","system_id":"levelo_inurba_marseille","lat":43.27996,"lon":5.40012,"is_reserved":false,"is_disabled":false,"rental_uris":{"android":"levelo://app?vid=be0d7294-79fe-406d-9e64-c3827fb03d9a","ios":"levelo://app?vid=be0d7294-79fe-406d-9e64-c3827fb03d9a"},"vehicle_type_id":"4","last_reported":1730228879,"current_range_meters":11600,"station_id":"ce4bho92rcd13ifvqh4g","pricing_plan_id":"cebpf4jnsgd1na2vs0mg"},{"bike_id":"64b3c1ea-97f6-4b83-a462-545b7601615f","system_id":"levelo_inurba_marseille","lat":43.27439,"lon":5.39013,"is_reserved":false,"is_disabled":false,"rental_uris":{"android":"levelo://app?vid=64b3c1ea-97f6-4b83-a462-545b7601615f","ios":"levelo://app?vid=64b3c1ea-97f6-4b83-a462-545b7601615f"},"vehicle_type_id":"4","last_reported":1730228879,"current_range_meters":28800,"station_id":"","pricing_plan_id":"cebpf4jnsgd1na2vs0mg"},{"bike_id":"942ed41f-7c2c-4bd3-a4a9-0bc4ebed5abc","system_id":"levelo_inurba_marseille","lat":43.32368,"lon":5.38887,"is_reserved":false,"is_disabled":false,"rental_uris":{"android":"levelo://app?vid=942ed41f-7c2c-4bd3-a4a9-0bc4ebed5abc","ios":"levelo://app?vid=942ed41f-7c2c-4bd3-a4a9-0bc4ebed5abc"},"vehicle_type_id":"4","last_reported":1730228879,"current_range_meters":28400,"station_id":"ce4bhqp2rcd13ifvqhog","pricing_plan_id":"cebpf4jnsgd1na2vs0mg"},{"bike_id":"2cd6f005-67ca-4234-9200-f290305a5d27","system_id":"levelo_inurba_marseille","lat":43.271381,"lon":5.409373,"is_reserved":false,"is_disabled":false,"rental_uris":{"android":"levelo://app?vid=2cd6f005-67ca-4234-9200-f290305a5d27","ios":"levelo://app?vid=2cd6f005-67ca-4234-9200-f290305a5d27"},"vehicle_type_id":"4","last_reported":1730228879,"current_range_meters":18800,"station_id":"ce4bhl12rcd13ifvqgf0","pricing_plan_id":"cebpf4jnsgd1na2vs0mg"},{"bike_id":"7e6550d1-ff23-4314-a63a-fde907e33519","system_id":"levelo_inurba_marseille","lat":43.31087,"lon":5.42438,"is_reserved":false,"is_disabled":false,"rental_uris":{"android":"levelo://app?vid=7e6550d1-ff23-4314-a63a-fde907e33519","ios":"levelo://app?vid=7e6550d1-ff23-4314-a63a-fde907e33519"},"vehicle_type_id":"4","last_reported":1730228879,"current_range_meters":38800,"station_id":"ce4bhp92rcd13ifvqhag","pricing_plan_id":"cebpf4jnsgd1na2vs0mg"},{"bike_id":"a5cb1303-a73c-4081-b544-4c2d1bd86c87","system_id":"levelo_inurba_marseille","lat":43.27167,"lon":5.40994,"is_reserved":false,"is_disabled":false,"rental_uris":{"android":"levelo://app?vid=a5cb1303-a73c-4081-b544-4c2d1bd86c87","ios":"levelo://app?vid=a5cb1303-a73c-4081-b544-4c2d1bd86c87"},"vehicle_type_id":"4","last_reported":1730228879,"current_range_meters":10000,"station_id":"ce4bhl12rcd13ifvqgf0","pricing_plan_id":"cebpf4jnsgd1na2vs0mg"},{"bike_id":"bca43888-c141-4d7c-ba82-b09c4ef5f6ad","system_id":"levelo_inurba_marseille","lat":43.2885,"lon":5.39324,"is_reserved":false,"is_disabled":false,"rental_uris":{"android":"levelo://app?vid=bca43888-c141-4d7c-ba82-b09c4ef5f6ad","ios":"levelo://app?vid=bca43888-c141-4d7c-ba82-b09c4ef5f6ad"},"vehicle_type_id":"4","last_reported":1730228879,"current_range_meters":28400,"station_id":"ce4bh2p2rcd13ifvqdi0","pricing_plan_id":"cebpf4jnsgd1na2vs0mg"},{"bike_id":"b04fd783-cff6-431e-83bb-a5e14532441f","system_id":"levelo_inurba_marseille","lat":43.27997,"lon":5.40007,"is_reserved":false,"is_disabled":false,"rental_uris":{"android":"levelo://app?vid=b04fd783-cff6-431e-83bb-a5e14532441f","ios":"levelo://app?vid=b04fd783-cff6-431e-83bb-a5e14532441f"},"vehicle_type_id":"4","last_reported":1730228879,"current_range_meters":9600,"station_id":"ce4bho92rcd13ifvqh4g","pricing_plan_id":"cebpf4jnsgd1na2vs0mg"},{"bike_id":"e5d7fc79-deaa-4d09-b329-6aea675c4874","system_id":"levelo_inurba_marseille","lat":43.32293,"lon":5.38271,"is_reserved":false,"is_disabled":false,"rental_uris":{"android":"levelo://app?vid=e5d7fc79-deaa-4d09-b329-6aea675c4874","ios":"levelo://app?vid=e5d7fc79-deaa-4d09-b329-6aea675c4874"},"vehicle_type_id":"4","last_reported":1730228879,"current_range_meters":14000,"station_id":"ce4bhr12rcd13ifvqhqg","pricing_plan_id":"cebpf4jnsgd1na2vs0mg"},{"bike_id":"b83c58c4-6d93-41f5-88cc-db1a2d404e8d","system_id":"levelo_inurba_marseille","lat":43.27998,"lon":5.40016,"is_reserved":false,"is_disabled":false,"rental_uris":{"android":"levelo://app?vid=b83c58c4-6d93-41f5-88cc-db1a2d404e8d","ios":"levelo://app?vid=b83c58c4-6d93-41f5-88cc-db1a2d404e8d"},"vehicle_type_id":"4","last_reported":1730228879,"current_range_meters":34000,"station_id":"ce4bho92rcd13ifvqh4g","pricing_plan_id":"cebpf4jnsgd1na2vs0mg"},{"bike_id":"f4f9d16a-23ce-49d8-b92f-ce1d4ce09c08","system_id":"levelo_inurba_marseille","lat":43.24084,"lon":5.37743,"is_reserved":false,"is_disabled":false,"rental_uris":{"android":"levelo://app?vid=f4f9d16a-23ce-49d8-b92f-ce1d4ce09c08","ios":"levelo://app?vid=f4f9d16a-23ce-49d8-b92f-ce1d4ce09c08"},"vehicle_type_id":"4","last_reported":1730228879,"current_range_meters":28000,"station_id":"ce4bhnp2rcd13ifvqgvg","pricing_plan_id":"cebpf4jnsgd1na2vs0mg"},{"bike_id":"89e3984a-8aab-4193-b001-89fcd46e7063","system_id":"levelo_inurba_marseille","lat":43.29257,"lon":5.38443,"is_reserved":false,"is_disabled":false,"rental_uris":{"android":"levelo://app?vid=89e3984a-8aab-4193-b001-89fcd46e7063","ios":"levelo://app?vid=89e3984a-8aab-4193-b001-89fcd46e7063"},"vehicle_type_id":"4","last_reported":1730228879,"current_range_meters":22400,"station_id":"ce4bh692rcd13ifvqea0","pricing_plan_id":"cebpf4jnsgd1na2vs0mg"},{"bike_id":"2773c09f-8e8a-4051-a763-95a8383285c3","system_id":"levelo_inurba_marseille","lat":43.29443,"lon":5.39736,"is_reserved":false,"is_disabled":false,"rental_uris":{"android":"levelo://app?vid=2773c09f-8e8a-4051-a763-95a8383285c3","ios":"levelo://app?vid=2773c09f-8e8a-4051-a763-95a8383285c3"},"vehicle_type_id":"4","last_reported":1730228879,"current_range_meters":16400,"station_id":"ce4bh3h2rcd13ifvqdo0","pricing_plan_id":"cebpf4jnsgd1na2vs0mg"},{"bike_id":"aa2c3eab-f2b6-4c31-ac08-f36dc99af9f1","system_id":"levelo_inurba_marseille","lat":43.31696,"lon":5.4047,"is_reserved":false,"is_disabled":false,"rental_uris":{"android":"levelo://app?vid=aa2c3eab-f2b6-4c31-ac08-f36dc99af9f1","ios":"levelo://app?vid=aa2c3eab-f2b6-4c31-ac08-f36dc99af9f1"},"vehicle_type_id":"4","last_reported":1730228879,"current_range_meters":38800,"station_id":"ce4bh012rcd13ifvqd00","pricing_plan_id":"cebpf4jnsgd1na2vs0mg"},