{"last_updated":1773599099,"ttl":60,"version":"2.2","data":{"bikes":[{"bike_id":"9ac9e797-21c5-4c29-9cb6-1b4470cfe4c4","system_id":"levelo_inurba_marseille","lat":43.29032,"lon":5.38645,"is_reserved":false,"is_disabled":false,"rental_uris":{"android":"levelo://app?vid=9ac9e797-21c5-4c29-9cb6-1b4470cfe4c4","ios":"levelo://app?vid=9ac9e797-21c5-4c29-9cb6-1b4470cfe4c4"},"vehicle_type_id":"4","last_reported":1773599099,"current_range_meters":32000,"station_id":"ce4bh4p2rcd13ifvqe0g","pricing_plan_id":"cebpf4jnsgd1na2vs0mg"},{"bike_id":"78b4a3b0-364f-4a8c-9298-50f60f0b0027","system_id":"levelo_inurba_marseille","lat":43.29042,"lon":5.39959,"is_reserved":false,"is_disabled":true,"rental_uris":{"android":"levelo://app?vid=78b4a3b0-364f-4a8c-9298-50f60f0b0027","ios":"levelo://app?vid=78b4a3b0-364f-4a8c-9298-50f60f0b0027"},"vehicle_type_id":"4","last_reported":1773599099,"current_range_meters":32400,"station_id":"ce4bh392rcd13ifvqdm0","pricing_plan_id":"cebpf4jnsgd1na2vs0mg"},{"bike_id":"a9e1d94c-0192-42b7-8417-1fd326761e14","system_id":"levelo_inurba_marseille","lat":43.24659,"lon":5.38159,"is_reserved":false,"is_disabled":false,"rental_uris":{"android":"levelo://app?vid=a9e1d94c-0192-42b7-8417-1fd326761e14","ios":"levelo://app?vid=a9e1d94c-0192-42b7-8417-1fd326761e14"},"vehicle_type_id":"4","last_reported":1773599099,"current_range_meters":26000,"station_id":"ce4bhih2rcd13ifvqfr0","pricing_plan_id":"cebpf4jnsgd1na2vs0mg"},{"bike_id":"e4c6d513-0f75-4d36-ab87-e09b44465632","system_id":"levelo_inurba_marseille","lat":43.27414,"lon":5.36284,"is_reserved":false,"is_disabled":true,"rental_uris":{"android":"levelo://app?vid=e4c6d513-0f75-4d36-ab87-e09b44465632","ios":"levelo://app?vid=e4c6d513-0f75-4d36-ab87-e09b44465632"},"vehicle_type_id":"4","last_reported":1773599099,"current_range_meters":33600,"station_id":"","pricing_plan_id":"cebpf4jnsgd1na2vs0mg"},{"bike_id":"38f2a5c3-b83c-4fa7-81ca-0a644c9af4ab","system_id":"levelo_inurba_marseille","lat":43.32294,"lon":5.38274,"is_reserved":false,"is_disabled":false,"rental_uris":{"android":"levelo://app?vid=38f2a5c3-b83c-4fa7-81ca-0a644c9af4ab","ios":"levelo://app?vid=38f2a5c3-b83c-4fa7-81ca-0a644c9af4ab"},"vehicle_type_id":"4","last_reported":1773599099,"current_range_meters":18800,"station_id":"ce4bhr12rcd13ifvqhqg","pricing_plan_id":"cebpf4jnsgd1na2vs0mg"},{"bike_id":"1cf259df-4e5a-4977-9414-ac7c110ac7b2","system_id":"levelo_inurba_marseille","lat":43.25721,"lon":5.41095,"is_reserved":false,"is_disabled":false,"rental_uris":{"android":"levelo://app?vid=1cf259df-4e5a-4977-9414-ac7c110ac7b2","ios":"levelo://app?vid=1cf259df-4e5a-4977-9414-ac7c110ac7b2"},"vehicle_type_id":"4","last_reported":1773599099,"current_range_meters":30800,"station_id":"ce4bhkp2rcd13ifvqgd0","pricing_plan_id":"cebpf4jnsgd1na2vs0mg"},{"bike_id":"617261f0-2d66-44b2-94ad-a407acbccf0d","system_id":"levelo_inurba_marseille","lat":43.29892,"lon":5.39778,"is_reserved":false,"is_disabled":false,"rental_uris":{"android":"levelo://app?vid=617261f0-2d66-44b2-94ad-a407acbccf0d","ios":"levelo://app?vid=617261f0-2d66-44b2-94ad-a407acbccf0d"},"vehicle_type_id":"4","last_reported":1773599099,"current_range_meters":16400,"station_id":"ce4bh0h2rcd13ifvqd50","pricing_plan_id":"cebpf4jnsgd1na2vs0mg"},{"bike_id":"18f35d94-7133-4b4b-a629-0bec9d48af36","system_id":"levelo_inurba_marseille","lat":43.28478,"lon":5.48397,"is_reserved":false,"is_disabled":false,"rental_uris":{"android":"levelo://app?vid=18f35d94-7133-4b4b-a629-0bec9d48af36","ios":"levelo://app?vid=18f35d94-7133-4b4b-a629-0bec9d48af36"},"vehicle_type_id":"4","last_reported":1773599099,"current_range_meters":22000,"station_id":"","pricing_plan_id":"cebpf4jnsgd1na2vs0mg"},{"bike_id":"058a40ef-aca0-46a1-b31e-3c5dc3514929","system_id":"levelo_inurba_marseille","lat":43.28426,"lon":5.34968,"is_reserved":false,"is_disabled":false,"rental_uris":{"android":"levelo://app?vid=058a40ef-aca0-46a1-b31e-3c5dc3514929","ios":"levelo://app?vid=058a40ef-aca0-46a1-b31e-3c5dc3514929"},"vehicle_type_id":"4","last_reported":1773599099,"current_range_meters":26000,"station_id":"ce4bhbh2rcd13ifvqepg","pricing_plan_id":"cebpf4jnsgd1na2vs0mg"},{"bike_id":"65d10f3b-fdb1-4316-80cd-8ee00585fdd2","system_id":"levelo_inurba_marseille","lat":43.31417,"lon":5.36657,"is_reserved":false,"is_disabled":false,"rental_uris":{"android":"levelo://app?vid=65d10f3b-fdb1-4316-80cd-8ee00585fdd2","ios":"levelo://app?vid=65d10f3b-fdb1-4316-80cd-8ee00585fdd2"},"vehicle_type_id":"4","last_reported":1773599099,"current_range_meters":36800,"station_id":"","pricing_plan_id":"cebpf4jnsgd1na2vs0mg"},{"bike_id":"7db92065-fd6e-4014-982f-daf9b3e1e88d","system_id":"levelo_inurba_marseille","lat":43.25828,"lon":5.39451,"is_reserved":false,"is_disabled":false,"rental_uris":{"android":"levelo://app?vid=7db92065-fd6e-4014-982f-daf9b3e1e88d","ios":"levelo://app?vid=7db92065-fd6e-4014-982f-daf9b3e1e88d"},"vehicle_type_id":"4","last_reported":1773599099,"current_range_meters":9200,"station_id":"ce4bhip2rcd13ifvqft0","pricing_plan_id":"cebpf4jnsgd1na2vs0mg"},{"bike_id":"1243b4d3-cf99-4756-883b-3215b74c3472","system_id":"levelo_inurba_marseille","lat":43.27307,"lon":5.39094,"is_reserved":false,"is_disabled":true,"rental_uris":{"android":"levelo://app?vid=1243b4d3-cf99-4756-883b-3215b74c3472","ios":"levelo://app?vid=1243b4d3-cf99-4756-883b-3215b74c3472"},"vehicle_type_id":"4","last_reported":1773599099,"current_range_meters":800,"station_id":"ce4bhgp2rcd13ifvqfe0","pricing_plan_id":"cebpf4jnsgd1na2vs0mg"},{"bike_id":"0bca780e-422b-4854-83f6-74f6102aad07","system_id":"levelo_inurba_marseille","lat":43.27809,"lon":5.40738,"is_reserved":false,"is_disabled":false,"rental_uris":{"android":"levelo://app?vid=0bca780e-422b-4854-83f6-74f6102aad07","ios":"levelo://app?vid=0bca780e-422b-4854-83f6-74f6102aad07"},"vehicle_type_id":"4","last_reported":1773599099,"current_range_meters":34800,"station_id":"ce4bhnh2rcd13ifvqgtg","pricing_plan_id":"cebpf4jnsgd1na2vs0mg"},{"bike_id":"33b16ff4-aa90-4e96-a65b-80fdeacb58de","system_id":"levelo_inurba_marseille","lat":43.30541,"lon":5.36537,"is_reserved":false,"is_disabled":false,"rental_uris":{"android":"levelo://app?vid=33b16ff4-aa90-4e96-a65b-80fdeacb58de","ios":"levelo://app?vid=33b16ff4-aa90-4e96-a65b-80fdeacb58de"},"vehicle_type_id":"4","last_reported":1773599099,"current_range_meters":23200,"station_id":"ce4bgs12rcd13ifvqcag","pricing_plan_id":"cebpf4jnsgd1na2vs0mg"},{"bike_id":"a078ced6-d429-4156-85ab-301f40f9c90e","system_id":"levelo_inurba_marseille","lat":43.27075,"lon":5.38337,"is_reserved":false,"is_disabled":false,"rental_uris":{"android":"levelo://app?vid=a078ced6-d429-4156-85ab-301f40f9c90e","ios":"levelo://app?vid=a078ced6-d429-4156-85ab-301f40f9c90e"},"vehicle_type_id":"4","last_reported":1773599099,"current_range_meters":31200,"station_id":"st_d3n2fo6cfp8s73cte1j0","pricing_plan_id":"cebpf4jnsgd1na2vs0mg"},{"bike_id":"5e41dc5c-d587-47f2-a73b-209fc0146bcf","system_id":"levelo_inurba_marseille","lat":43.29627,"lon":5.40601,"is_reserved":false,"is_disabled":false,"rental_uris":{"android":"levelo://app?vid=5e41dc5c-d587-47f2-a73b-209fc0146bcf","ios":"levelo://app?vid=5e41dc5c-d587-47f2-a73b-209fc0146bcf"},"vehicle_type_id":"4","last_reported":1773599099,"current_range_meters":17600,"station_id":"ce4bh0h2rcd13ifvqd60","pricing_plan_id":"cebpf4jnsgd1na2vs0mg"},{"bike_id":"8c9b3dae-0149-40eb-baf1-4b5ca1da76df","system_id":"levelo_inurba_marseille","lat":43.30542,"lon":5.36579,"is_reserved":false,"is_disabled":false,"rental_uris":{"android":"levelo://app?vid=8c9b3dae-0149-40eb-baf1-4b5ca1da76df","ios":"levelo://app?vid=8c9b3dae-0149-40eb-baf1-4b5ca1da76df"},"vehicle_type_id":"4","last_reported":1773599099,"current_range_meters":32800,"station_id":"ce4bgs12rcd13ifvqcag","pricing_plan_id":"cebpf4jnsgd1na2vs0mg"},{"bike_id":"6f61d387-d66c-4612-94f7-67c0f0b415c5","system_id":"levelo_inurba_marseille","lat":43.3015,"lon":5.374,"is_reserved":false,"is_disabled":false,"rental_uris":{"android":"levelo://app?vid=6f61d387-d66c-4612-94f7-67c0f0b415c5","ios":"levelo://app?vid=6f61d387-d66c-4612-94f7-67c0f0b415c5"},"vehicle_type_id":"4","last_reported":1773599099,"current_range_meters":26000,"station_id":"ce4bgs92rcd13ifvqcc0","pricing_plan_id":"cebpf4jnsgd1na2vs0mg"},{"bike_id":"da385f78-6396-4965-90a0-0943e7ec39a9","system_id":"levelo_inurba_marseille","lat":43.28401,"lon":5.37532,"is_reserved":false,"is_disabled":false,"rental_uris":{"android":"levelo://app?vid=da385f78-6396-4965-90a0-0943e7ec39a9","ios":"levelo://app?vid=da385f78-6396-4965-90a0-0943e7ec39a9"},"vehicle_type_id":"4","last_reported":1773599099,"current_range_meters":20400,"station_id":"ce4bh412rcd13ifvqds0","pricing_plan_id":"cebpf4jnsgd1na2vs0mg"},{"bike_id":"76018294-dcc7-4c7d-ad2d-1448d43240dc","system_id":"levelo_inurba_marseille","lat":43.2511,"lon":5.40353,"is_reserved":false,"is_disabled":false,"rental_uris":{"android":"levelo://app?vid=76018294-dcc7-4c7d-ad2d-1448d43240dc","ios":"levelo://app?vid=76018294-dcc7-4c7d-ad2d-1448d43240dc"},"vehicle_type_id":"4","last_reported":1773599099,"current_range_meters":24800,"station_id":"ce4bhlh2rcd13ifvqgig","pricing_plan_id":"cebpf4jnsgd1na2vs0mg"},{"bike_id":"0b26cc2e-b780-4870-815f-ab32c01bd97c","system_id":"levelo_inurba_marseille","lat":43.28561,"lon":5.39515,"is_reserved":false,"is_disabled":false,"rental_uris":{"android":"levelo://app?vid=0b26cc2e-b780-4870-815f-ab32c01bd97c","ios":"levelo://app?vid=0b26cc2e-b780-4870-815f-ab32c01bd97c"},"vehicle_type_id":"4","last_reported":1773599099,"current_range_meters":32400,"station_id":"ce4bh292rcd13ifvqdg0","pricing_plan_id":"cebpf4jnsgd1na2vs0mg"},{"bike_id":"701edb85-5aa2-4cdb-ae1a-76fccb058ba0","system_id":"levelo_inurba_marseille","lat":43.30155,"lon":5.37423,"is_reserved":false,"is_disabled":false,"rental_uris":{"android":"levelo://app?vid=701edb85-5aa2-4cdb-ae1a-76fccb058ba0","ios":"levelo://app?vid=701edb85-5aa2-4cdb-ae1a-76fccb058ba0"},"vehicle_type_id":"4","last_reported":1773599099,"current_range_meters":34000,"station_id":"ce4bgs92rcd13ifvqcc0","pricing_plan_id":"cebpf4jnsgd1na2vs0mg"},{"bike_id":"491d8f46-2be8-495f-9728-de67d7e66051","system_id":"levelo_inurba_marseille","lat":43.30794,"lon":5.38191,"is_reserved":false,"is_disabled":false,"rental_uris":{"android":"levelo://app?vid=491d8f46-2be8-495f-9728-de67d7e66051","ios":"levelo://app?vid=491d8f46-2be8-495f-9728-de67d7e66051"},"vehicle_type_id":"4","last_reported":1773599099,"current_range_meters":22400,"station_id":"ce4bgt12rcd13ifvqce0","pricing_plan_id":"cebpf4jnsgd1na2vs0mg"},{"bike_id":"806b261a-db94-4d3f-a83b-ece799b2cd32","system_id":"levelo_inurba_marseille","lat":43.28688,"lon":5.38646,"is_reserved":false,"is_disabled":false,"rental_uris":{"android":"levelo://app?vid=806b261a-db94-4d3f-a83b-ece799b2cd32","ios":"levelo://app?vid=806b261a-db94-4d3f-a83b-ece799b2cd32"},"vehicle_type_id":"4","last_reported":1773599099,"current_range_meters":34800,"station_id":"ce4bh492rcd13ifvqdug","pricing_plan_id":"cebpf4jnsgd1na2vs0mg"},{"bike_id":"13eecf55-fc78-4d2a-b864-65eaaa1152e0","system_id":"levelo_inurba_marseille","lat":43.30181,"lon":5.36609,"is_reserved":false,"is_disabled":false,"rental_uris":{"android":"levelo://app?vid=13eecf55-fc78-4d2a-b864-65eaaa1152e0","ios":"levelo://app?vid=13eecf55-fc78-4d2a-b864-65eaaa1152e0"},"vehicle_type_id":"4","last_reported":1773599099,"current_range_meters":40000,"station_id":"ce4bgrh2rcd13ifvqc8g","pricing_plan_id":"cebpf4jnsgd1na2vs0mg"},{"bike_id":"3c7690d1-a097-4dc1-a920-49c74ad74917","system_id":"levelo_inurba_marseille","lat":43.29074,"lon":5.37152,"is_reserved":false,"is_disabled":true,"rental_uris":{"android":"levelo://app?vid=3c7690d1-a097-4dc1-a920-49c74ad74917","ios":"levelo://app?vid=3c7690d1-a097-4dc1-a920-49c74ad74917"},"vehicle_type_id":"4","last_reported":1773599099,"current_range_meters":26000,"station_id":"ce4bh5p2rcd13ifvqe4g","pricing_plan_id":"cebpf4jnsgd1na2vs0mg"},{"bike_id":"9fdaf863-2190-4d2c-abe8-e311e709d276","system_id":"levelo_inurba_marseille","lat":43.3019,"lon":5.36609,"is_reserved":false,"is_disabled":false,"rental_uris":{"android":"levelo://app?vid=9fdaf863-2190-4d2c-abe8-e311e709d276","ios":"levelo://app?vid=9fdaf863-2190-4d2c-abe8-e311e709d276"},"vehicle_type_id":"4","last_reported":1773599099,"current_range_meters":22800,"station_id":"ce4bgrh2rcd13ifvqc8g","pricing_plan_id":"cebpf4jnsgd1na2vs0mg"},{"bike_id":"2f862d03-e88c-4088-99c2-e008a308cbbf","system_id":"levelo_inurba_marseille","lat":43.23962,"lon":5.36637,"is_reserved":false,"is_disabled":false,"rental_uris":{"android":"levelo://app?vid=2f862d03-e88c-4088-99c2-e008a308cbbf","ios":"levelo://app?vid=2f862d03-e88c-4088-99c2-e008a308cbbf"},"vehicle_type_id":"4","last_reported":1773599099,"current_range_meters":24800,"station_id":"ce4bhi12rcd13ifvqfp0","pricing_plan_id":"cebpf4jnsgd1na2vs0mg"},{"bike_id":"7e7249ab-ffda-4a8b-b45a-917693570120","system_id":"levelo_inurba_marseille","lat":43.28917,"lon":5.36393,"is_reserved":false,"is_disabled":false,"rental_uris":{"android":"levelo://app?vid=7e7249ab-ffda-4a8b-b45a-917693570120","ios":"levelo://app?vid=7e7249ab-ffda-4a8b-b45a-917693570120"},"vehicle_type_id":"4","last_reported":1773599099,"current_range_meters":27600,"station_id":"ce4bhc92rcd13ifvqetg","pricing_plan_id":"cebpf4jnsgd1na2vs0mg"},{"bike_id":"ffad090c-cae3-4270-b25f-e63b153ea950","system_id":"levelo_inurba_marseille","lat":43.26774,"lon":5.39413,"is_reserved":false,"is_disabled":false,"rental_uris":{"android":"levelo://app?vid=ffad090c-cae3-4270-b25f-e63b153ea950","ios":"levelo://app?vid=ffad090c-cae3-4270-b25f-e63b153ea950"},"vehicle_type_id":"4","last_reported":1773599099,"current_range_meters":37600,"station_id":"ce4bhh12rcd13ifvqfg0","pricing_plan_id":"cebpf4jnsgd1na2vs0mg"},{"bike_id":"ced05e86-2551-48cf-8692-7f3559e5deac","system_id":"levelo_inurba_marseille","lat":43.29485,"lon":5.43315,"is_reserved":false,"is_disabled":false,"rental_uris":{"android":"levelo://app?vid=ced05e86-2551-48cf-8692-7f3559e5deac","ios":"levelo://app?vid=ced05e86-2551-48cf-8692-7f3559e5deac"},"vehicle_type_id":"4","last_reported":1773599099,"current_range_meters":3600,"station_id":"st_d3j5ugp08ojc73fj9d10","pricing_plan_id":"cebpf4jnsgd1na2vs0mg"},{"bike_id":"efff3089-d73c-46b0-9c03-7df52f400e09","system_id":"levelo_inurba_marseille","lat":43.27838,"lon":5.39229,"is_reserved":false,"is_disabled":false,"rental_uris":{"android":"levelo://app?vid=efff3089-d73c-46b0-9c03-7df52f400e09","ios":"levelo://app?vid=efff3089-d73c-46b0-9c03-7df52f400e09"},"vehicle_type_id":"4","last_reported":1773599099,"current_range_meters":39200,"station_id":"ce4bhjp2rcd13ifvqga0","pricing_plan_id":"cebpf4jnsgd1na2vs0mg"},{"bike_id":"6152ef78-b464-49f9-b02f-37b215c6d4f3","system_id":"levelo_inurba_marseille","lat":43.25849,"lon":5.39904,"is_reserved":false,"is_disabled":true,"rental_uris":{"android":"levelo://app?vid=6152ef78-b464-49f9-b02f-37b215c6d4f3","ios":"levelo://app?vid=6152ef78-b464-49f9-b02f-37b215c6d4f3"},"vehicle_type_id":"4","last_reported":1773599099,"current_range_meters":38000,"station_id":"ce4bhl92rcd13ifvqghg","pricing_plan_id":"cebpf4jnsgd1na2vs0mg"},{"bike_id":"b89cd1c2-db43-4410-9d32-79ebd5d302f9","system_id":"levelo_inurba_marseille","lat":43.29529,"lon":5.39416,"is_reserved":false,"is_disabled":false,"rental_uris":{"android":"levelo://app?vid=b89cd1c2-db43-4410-9d32-79ebd5d302f9","ios":"levelo://app?vid=b89cd1c2-db43-4410-9d32-79ebd5d302f9"},"vehicle_type_id":"4","last_reported":1773599099,"current_range_meters":38800,"station_id":"ce4bh292rcd13ifvqdf0","pricing_plan_id":"cebpf4jnsgd1na2vs0mg"},{"bike_id":"41ae287c-9cc1-430a-84ca-70506bc523b6","system_id":"levelo_inurba_marseille","lat":43.22557,"lon":5.41634,"is_reserved":false,"is_disabled":false,"rental_uris":{"android":"levelo://app?vid=41ae287c-9cc1-430a-84ca-70506bc523b6","ios":"levelo://app?vid=41ae287c-9cc1-430a-84ca-70506bc523b6"},"vehicle_type_id":"4","last_reported":1773599099,"current_range_meters":33600,"station_id":"st_d2o4gvlbi1j2169b742g","pricing_plan_id":"cebpf4jnsgd1na2vs0mg"},{"bike_id":"fe8dfa27-62f0-46d6-ba43-c3127399aaa0","system_id":"levelo_inurba_marseille","lat":43.29618,"lon":5.42224,"is_reserved":false,"is_disabled":false,"rental_uris":{"android":"levelo://app?vid=fe8dfa27-62f0-46d6-ba43-c3127399aaa0","ios":"levelo://app?vid=fe8dfa27-62f0-46d6-ba43-c3127399aaa0"},"vehicle_type_id":"4","last_reported":1773599099,"current_range_meters":22400,"station_id":"","pricing_plan_id":"cebpf4jnsgd1na2vs0mg"},{"bike_id":"fde23e65-e2cb-46cb-8f9a-49c501c3fb35","system_id":"levelo_inurba_marseille","lat":43.33165,"lon":5.37713,"is_reserved":false,"is_disabled":false,"rental_uris":{"android":"levelo://app?vid=fde23e65-e2cb-46cb-8f9a-49c501c3fb35","ios":"levelo://app?vid=fde23e65-e2cb-46cb-8f9a-49c501c3fb35"},"vehicle_type_id":"4","last_reported":1773599099,"current_range_meters":8000,"station_id":"st_d46cu089ee8s73dldbu0","pricing_plan_id":"cebpf4jnsgd1na2vs0mg"},{"bike_id":"af157042-6b1c-4da1-9339-4547bdca0041","system_id":"levelo_inurba_marseille","lat":43.30563,"lon":5.36508,"is_reserved":false,"is_disabled":false,"rental_uris":{"android":"levelo://app?vid=af157042-6b1c-4da1-9339-4547bdca0041","ios":"levelo://app?vid=af157042-6b1c-4da1-9339-4547bdca0041"},"vehicle_type_id":"4","last_reported":1773599099,"current_range_meters":10800,"station_id":"ce4bgs12rcd13ifvqcag","pricing_plan_id":"cebpf4jnsgd1na2vs0mg"},{"bike_id":"6cd1b79d-1347-474f-9698-eaf7241262db","system_id":"levelo_inurba_marseille","lat":43.28424,"lon":5.34984,"is_reserved":false,"is_disabled":false,"rental_uris":{"android":"levelo://app?vid=6cd1b79d-1347-474f-9698-eaf7241262db","ios":"levelo://app?vid=6cd1b79d-1347-474f-9698-eaf7241262db"},"vehicle_type_id":"4","last_reported":1773599099,"current_range_meters":38400,"station_id":"ce4bhbh2rcd13ifvqepg","pricing_plan_id":"cebpf4jnsgd1na2vs0mg"},{"bike_id":"bba2d762-24c5-424c-8885-ccb819513608","system_id":"levelo_inurba_marseille","lat":43.27672,"lon":5.38937,"is_reserved":false,"is_disabled":true,"rental_uris":{"android":"levelo://app?vid=bba2d762-24c5-424c-8885-ccb819513608","ios":"levelo://app?vid=bba2d762-24c5-424c-8885-ccb819513608"},"vehicle_type_id":"4","last_reported":1773599099,"current_range_meters":9200,"station_id":"ce4bhi12rcd13ifvqfo0","pricing_plan_id":"cebpf4jnsgd1na2vs0mg"},{"bike_id":"1217792c-987d-41a2-8823-875cdd503171","system_id":"levelo_inurba_marseille","lat":43.33169,"lon":5.37726,"is_reserved":false,"is_disabled":false,"rental_uris":{"android":"levelo://app?vid=1217792c-987d-41a2-8823-875cdd503171","ios":"levelo://app?vid=1217792c-987d-41a2-8823-875cdd503171"},"vehicle_type_id":"4","last_reported":1773599099,"current_range_meters":22800,"station_id":"st_d46cu089ee8s73dldbu0","pricing_plan_id":"cebpf4jnsgd1na2vs0mg"},{"bike_id":"b0d8cbcc-8e59-42cd-96c0-7d6c7cb0c4e1","system_id":"levelo_inurba_marseille","lat":43.30928,"lon":5.40177,"is_reserved":false,"is_disabled":false,"rental_uris":{"android":"levelo://app?vid=b0d8cbcc-8e59-42cd-96c0-7d6c7cb0c4e1","ios":"levelo://app?vid=b0d8cbcc-8e59-42cd-96c0-7d6c7cb0c4e1"},"vehicle_type_id":"4","last_reported":1773599099,"current_range_meters":10800,"station_id":"ce4bgvp2rcd13ifvqct0","pricing_plan_id":"cebpf4jnsgd1na2vs0mg"},{"bike_id":"1fa66c7c-5bbe-4c72-8397-ac5bb2c15dc7","system_id":"levelo_inurba_marseille","lat":43.32371,"lon":5.38843,"is_reserved":false,"is_disabled":false,"rental_uris":{"android":"levelo://app?vid=1fa66c7c-5bbe-4c72-8397-ac5bb2c15dc7","ios":"levelo://app?vid=1fa66c7c-5bbe-4c72-8397-ac5bb2c15dc7"},"vehicle_type_id":"4","last_reported":1773599099,"current_range_meters":35200,"station_id":"ce4bhqp2rcd13ifvqhog","pricing_plan_id":"cebpf4jnsgd1na2vs0mg"},{"bike_id":"2c3e9862-6d9e-4def-8308-2994bae5c1ca","system_id":"levelo_inurba_marseille","lat":43.3372,"lon":5.39177,"is_reserved":false,"is_disabled":false,"rental_uris":{"android":"levelo://app?vid=2c3e9862-6d9e-4def-8308-2994bae5c1ca","ios":"levelo://app?vid=2c3e9862-6d9e-4def-8308-2994bae5c1ca"},"vehicle_type_id":"4","last_reported":1773599099,"current_range_meters":32400,"station_id":"ce4bhr92rcd13ifvqhsg","pricing_plan_id":"cebpf4jnsgd1na2vs0mg"},{"bike_id":"aed4118b-a0e3-4071-9098-af6c6a632706","system_id":"levelo_inurba_marseille","lat":43.30147,"lon":5.43114,"is_reserved":false,"is_disabled":false,"rental_uris":{"android":"levelo://app?vid=aed4118b-a0e3-4071-9098-af6c6a632706","ios":"levelo://app?vid=aed4118b-a0e3-4071-9098-af6c6a632706"},"vehicle_type_id":"4","last_reported":1773599099,"current_range_meters":7200,"station_id":"st_d3js3co5814s73ftftug","pricing_plan_id":"cebpf4jnsgd1na2vs0mg"},{"bike_id":"ee97d76b-d430-4b45-b3b0-dd8a973c7e77","system_id":"levelo_inurba_marseille","lat":43.23961,"lon":5.36638,"is_reserved":false,"is_disabled":false,"rental_uris":{"android":"levelo://app?vid=ee97d76b-d430-4b45-b3b0-dd8a973c7e77","ios":"levelo://app?vid=ee97d76b-d430-4b45-b3b0-dd8a973c7e77"},"vehicle_type_id":"4","last_reported":1773599099,"current_range_meters":34000,"station_id":"ce4bhi12rcd13ifvqfp0","pricing_plan_id":"cebpf4jnsgd1na2vs0mg"},{"bike_id":"e3a528d1-30a2-4f90-a1fa-20282ad643b5","system_id":"levelo_inurba_marseille","lat":43.2636,"lon":5.4107,"is_reserved":false,"is_disabled":false,"rental_uris":{"android":"levelo://app?vid=e3a528d1-30a2-4f90-a1fa-20282ad643b5","ios":"levelo://app?vid=e3a528d1-30a2-4f90-a1fa-20282ad643b5"},"vehicle_type_id":"4","last_reported":1773599099,"current_range_meters":28400,"station_id":"st_d4e5ca6na9uc73bfl5fg","pricing_plan_id":"cebpf4jnsgd1na2vs0mg"},{"bike_id":"e7b756cc-5d84-4593-8900-25a15e80ea6e","system_id":"levelo_inurba_marseille","lat":43.24068,"lon":5.37774,"is_reserved":false,"is_disabled":false,"rental_uris":{"android":"levelo://app?vid=e7b756cc-5d84-4593-8900-25a15e80ea6e","ios":"levelo://app?vid=e7b756cc-5d84-4593-8900-25a15e80ea6e"},"vehicle_type_id":"4","last_reported":1773599099,"current_range_meters":33200,"station_id":"ce4bhnp2rcd13ifvqgvg","pricing_plan_id":"cebpf4jnsgd1na2vs0mg"},{"bike_id":"2fd025c2-5d1f-404e-b401-f593d342fd66","system_id":"levelo_inurba_marseille","lat":43.30724,"lon":5.42428,"is_reserved":false,"is_disabled":false,"rental_uris":{"android":"levelo://app?vid=2fd025c2-5d1f-404e-b401-f593d342fd66","ios":"levelo://app?vid=2fd025c2-5d1f-404e-b401-f593d342fd66"},"vehicle_type_id":"4","last_reported":1773599099,"current_range_meters":36000,"station_id":"st_cvj6ca6bvosntc0bfgr0","pricing_plan_id":"cebpf4jnsgd1na2vs0mg"},{"bike_id":"193f3e37-9464-4f96-8f29-4fc2a2a78fd9","system_id":"levelo_inurba_marseille","lat":43.2862,"lon":5.35092,"is_reserved":false,"is_disabled":false,"rental_uris":{"android":"levelo://app?vid=193f3e37-9464-4f96-8f29-4fc2a2a78fd9","ios":"levelo://app?vid=193f3e37-9464-4f96-8f29-4fc2a2a78fd9"},"vehicle_type_id":"4","last_reported":1773599099,"current_range_meters":28800,"station_id":"ce4bhch2rcd13ifvqeug","pricing_plan_id":"cebpf4jnsgd1na2vs0mg"},{"bike_id":"af5a1dfc-fa5f-4ac5-873b-9fe0a40e1ab6","system_id":"levelo_inurba_marseille","lat":43.30805,"lon":5.38159,"is_reserved":false,"is_disabled":false,"rental_uris":{"android":"levelo://app?vid=af5a1dfc-fa5f-4ac5-873b-9fe0a40e1ab6","ios":"levelo://app?vid=af5a1dfc-fa5f-4ac5-873b-9fe0a40e1ab6"},"vehicle_type_id":"4","last_reported":1773599099,"current_range_meters":39200,"station_id":"ce4bgt12rcd13ifvqce0","pricing_plan_id":"cebpf4jnsgd1na2vs0mg"},{"bike_id":"1a90a8d3-c56d-44f0-9e3d-eb117a0cebc5","system_id":"levelo_inurba_marseille","lat":43.24198,"lon":5.39745,"is_reserved":false,"is_disabled":false,"rental_uris":{"android":"levelo://app?vid=1a90a8d3-c56d-44f0-9e3d-eb117a0cebc5","ios":"levelo://app?vid=1a90a8d3-c56d-44f0-9e3d-eb117a0cebc5"},"vehicle_type_id":"4","last_reported":1773599099,"current_range_meters":31200,"station_id":"ce4bhn12rcd13ifvqgpg","pricing_plan_id":"cebpf4jnsgd1na2vs0mg"},{"bike_id":"933f56de-3edc-4b60-b4b3-7e864bbbae53","system_id":"levelo_inurba_marseille","lat":43.27063,"lon":5.38315,"is_reserved":false,"is_disabled":false,"rental_uris":{"android":"levelo://app?vid=933f56de-3edc-4b60-b4b3-7e864bbbae53","ios":"levelo://app?vid=933f56de-3edc-4b60-b4b3-7e864bbbae53"},"vehicle_type_id":"4","last_reported":1773599099,"current_range_meters":16000,"station_id":"st_d3n2fo6cfp8s73cte1j0","pricing_plan_id":"cebpf4jnsgd1na2vs0mg"},{"bike_id":"16a9b4d1-3c1d-430b-b38c-79d0b9d05151","system_id":"levelo_inurba_marseille","lat":43.23217,"lon":5.3555,"is_reserved":false,"is_disabled":false,"rental_uris":{"android":"levelo://app?vid=16a9b4d1-3c1d-430b-b38c-79d0b9d05151","ios":"levelo://app?vid=16a9b4d1-3c1d-430b-b38c-79d0b9d05151"},"vehicle_type_id":"4","last_reported":1773599099,"current_range_meters":24800,"station_id":"ce4bhu92rcd13ifvqi70","pricing_plan_id":"cebpf4jnsgd1na2vs0mg"},{"bike_id":"45215f52-9818-4ff3-af39-1f094cfbc110","system_id":"levelo_inurba_marseille","lat":43.21756,"lon":5.34624,"is_reserved":false,"is_disabled":false,"rental_uris":{"android":"levelo://app?vid=45215f52-9818-4ff3-af39-1f094cfbc110","ios":"levelo://app?vid=45215f52-9818-4ff3-af39-1f094cfbc110"},"vehicle_type_id":"4","last_reported":1773599099,"current_range_meters":11600,"station_id":"st_cvj6r9ubvosntc0bgbag","pricing_plan_id":"cebpf4jnsgd1na2vs0mg"},{"bike_id":"3d951476-aa89-47f5-907d-0788c1744f09","system_id":"levelo_inurba_marseille","lat":43.2534,"lon":5.4217,"is_reserved":false,"is_disabled":false,"rental_uris":{"android":"levelo://app?vid=3d951476-aa89-47f5-907d-0788c1744f09","ios":"levelo://app?vid=3d951476-aa89-47f5-907d-0788c1744f09"},"vehicle_type_id":"4","last_reported":1773599099,"current_range_meters":22800,"station_id":"st_d2m65c5bi1j21697t3ng","pricing_plan_id":"cebpf4jnsgd1na2vs0mg"},{"bike_id":"0cfe6147-16c1-48ba-ba73-5bbc93db4ab4","system_id":"levelo_inurba_marseille","lat":43.27064,"lon":5.38313,"is_reserved":false,"is_disabled":true,"rental_uris":{"android":"levelo://app?vid=0cfe6147-16c1-48ba-ba73-5bbc93db4ab4","ios":"levelo://app?vid=0cfe6147-16c1-48ba-ba73-5bbc93db4ab4"},"vehicle_type_id":"4","last_reported":1773599099,"current_range_meters":37600,"station_id":"st_d3n2fo6cfp8s73cte1j0","pricing_plan_id":"cebpf4jnsgd1na2vs0mg"},{"bike_id":"c57c924b-3373-43fc-9a2c-6d8539988c6e","system_id":"levelo_inurba_marseille","lat":43.30189,"lon":5.36612,"is_reserved":false,"is_disabled":false,"rental_uris":{"android":"levelo://app?vid=c57c924b-3373-43fc-9a2c-6d8539988c6e","ios":"levelo://app?vid=c57c924b-3373-43fc-9a2c-6d8539988c6e"},"vehicle_type_id":"4","last_reported":1773599099,"current_range_meters":32000,"station_id":"ce4bgrh2rcd13ifvqc8g","pricing_plan_id":"cebpf4jnsgd1na2vs0mg"},{"bike_id":"968e0752-94e3-4427-8693-dccfb2dc93c6","system_id":"levelo_inurba_marseille","lat":43.32343,"lon":5.38857,"is_reserved":false,"is_disabled":false,"rental_uris":{"android":"levelo://app?vid=968e0752-94e3-4427-8693-dccfb2dc93c6","ios":"levelo://app?vid=968e0752-94e3-4427-8693-dccfb2dc93c6"},"vehicle_type_id":"4","last_reported":1773599099,"current_range_meters":36000,"station_id":"ce4bhqp2rcd13ifvqhog","pricing_plan_id":"cebpf4jnsgd1na2vs0mg"},{"bike_id":"800a0bd7-e849-4d35-83f8-f00d3b4762b1","system_id":"levelo_inurba_marseille","lat":43.2872,"lon":5.3608,"is_reserved":false,"is_disabled":false,"rental_uris":{"android":"levelo://app?vid=800a0bd7-e849-4d35-83f8-f00d3b4762b1","ios":"levelo://app?vid=800a0bd7-e849-4d35-83f8-f00d3b4762b1"},"vehicle_type_id":"4","last_reported":1773599099,"current_range_meters":23200,"station_id":"cki0cbj6b192h4jlfktg","pricing_plan_id":"cebpf4jnsgd1na2vs0mg"},{"bike_id":"98ff575e-e932-485c-a678-0a491cff6beb","system_id":"levelo_inurba_marseille","lat":43.26366,"lon":5.41077,"is_reserved":false,"is_disabled":false,"rental_uris":{"android":"levelo://app?vid=98ff575e-e932-485c-a678-0a491cff6beb","ios":"levelo://app?vid=98ff575e-e932-485c-a678-0a491cff6beb"},"vehicle_type_id":"4","last_reported":1773599099,"current_range_meters":28800,"station_id":"st_d4e5ca6na9uc73bfl5fg","pricing_plan_id":"cebpf4jnsgd1na2vs0mg"},{"bike_id":"2eb112e0-30fa-4776-b5a6-10d2c0c8b525","system_id":"levelo_inurba_marseille","lat":43.29055,"lon":5.39916,"is_reserved":false,"is_disabled":true,"rental_uris":{"android":"levelo://app?vid=2eb112e0-30fa-4776-b5a6-10d2c0c8b525","ios":"levelo://app?vid=2eb112e0-30fa-4776-b5a6-10d2c0c8b525"},"vehicle_type_id":"4","last_reported":1773599099,"current_range_meters":24000,"station_id":"ce4bh392rcd13ifvqdm0","pricing_plan_id":"cebpf4jnsgd1na2vs0mg"},{"bike_id":"5e37606c-cd45-4546-a107-12352d83874a","system_id":"levelo_inurba_marseille","lat":43.29195,"lon":5.39314,"is_reserved":false,"is_disabled":true,"rental_uris":{"android":"levelo://app?vid=5e37606c-cd45-4546-a107-12352d83874a","ios":"levelo://app?vid=5e37606c-cd45-4546-a107-12352d83874a"},"vehicle_type_id":"4","last_reported":1773599099,"current_range_meters":16400,"station_id":"ce4bh192rcd13ifvqdd0","pricing_plan_id":"cebpf4jnsgd1na2vs0mg"},{"bike_id":"71501c24-7c0d-4212-996a-19e1a1605792","system_id":"levelo_inurba_marseille","lat":43.29499,"lon":5.43318,"is_reserved":false,"is_disabled":false,"rental_uris":{"android":"levelo://app?vid=71501c24-7c0d-4212-996a-19e1a1605792","ios":"levelo://app?vid=71501c24-7c0d-4212-996a-19e1a1605792"},"vehicle_type_id":"4","last_reported":1773599099,"current_range_meters":30400,"station_id":"st_d3j5ugp08ojc73fj9d10","pricing_plan_id":"cebpf4jnsgd1na2vs0mg"},{"bike_id":"cb262abd-8fa3-4907-9d6d-7f138f8b8e6c","system_id":"levelo_inurba_marseille","lat":43.28631,"lon":5.3515,"is_reserved":false,"is_disabled":false,"rental_uris":{"android":"levelo://app?vid=cb262abd-8fa3-4907-9d6d-7f138f8b8e6c","ios":"levelo://app?vid=cb262abd-8fa3-4907-9d6d-7f138f8b8e6c"},"vehicle_type_id":"4","last_reported":1773599099,"current_range_meters":39200,"station_id":"ce4bhch2rcd13ifvqeug","pricing_plan_id":"cebpf4jnsgd1na2vs0mg"},{"bike_id":"0ddbdcf0-3ed3-47c0-ae8e-a0e77cb9b432","system_id":"levelo_inurba_marseille","lat":43.25712,"lon":5.41104,"is_reserved":false,"is_disabled":false,"rental_uris":{"android":"levelo://app?vid=0ddbdcf0-3ed3-47c0-ae8e-a0e77cb9b432","ios":"levelo://app?vid=0ddbdcf0-3ed3-47c0-ae8e-a0e77cb9b432"},"vehicle_type_id":"4","last_reported":1773599099,"current_range_meters":39200,"station_id":"ce4bhkp2rcd13ifvqgd0","pricing_plan_id":"cebpf4jnsgd1na2vs0mg"},{"bike_id":"fab9d42d-0389-4e3c-b710-106effb7d2e6","system_id":"levelo_inurba_marseille","lat":43.27817,"lon":5.40703,"is_reserved":false,"is_disabled":false,"rental_uris":{"android":"levelo://app?vid=fab9d42d-0389-4e3c-b710-106effb7d2e6","ios":"levelo://app?vid=fab9d42d-0389-4e3c-b710-106effb7d2e6"},"vehicle_type_id":"4","last_reported":1773599099,"current_range_meters":30000,"station_id":"ce4bhnh2rcd13ifvqgtg","pricing_plan_id":"cebpf4jnsgd1na2vs0mg"},{"bike_id":"6973bc0a-497d-4669-a2cb-c63cb0fa1dd6","system_id":"levelo_inurba_marseille","lat":43.29616,"lon":5.37196,"is_reserved":false,"is_disabled":false,"rental_uris":{"android":"levelo://app?vid=6973bc0a-497d-4669-a2cb-c63cb0fa1dd6","ios":"levelo://app?vid=6973bc0a-497d-4669-a2cb-c63cb0fa1dd6"},"vehicle_type_id":"4","last_reported":1773599099,"current_range_meters":37600,"station_id":"ce4bgnh2rcd13ifvqc0g","pricing_plan_id":"cebpf4jnsgd1na2vs0mg"},{"bike_id":"a29b970f-b285-425f-be46-e5d395220578","system_id":"levelo_inurba_marseille","lat":43.25106,"lon":5.40354,"is_reserved":false,"is_disabled":false,"rental_uris":{"android":"levelo://app?vid=a29b970f-b285-425f-be46-e5d395220578","ios":"levelo://app?vid=a29b970f-b285-425f-be46-e5d395220578"},"vehicle_type_id":"4","last_reported":1773599099,"current_range_meters":24800,"station_id":"ce4bhlh2rcd13ifvqgig","pricing_plan_id":"cebpf4jnsgd1na2vs0mg"},{"bike_id":"1b76ca95-f18f-46ad-b5e2-115c03b09dc0","system_id":"levelo_inurba_marseille","lat":43.29751,"lon":5.42794,"is_reserved":false,"is_disabled":false,"rental_uris":{"android":"levelo://app?vid=1b76ca95-f18f-46ad-b5e2-115c03b09dc0","ios":"levelo://app?vid=1b76ca95-f18f-46ad-b5e2-115c03b09dc0"},"vehicle_type_id":"4","last_reported":1773599099,"current_range_meters":17200,"station_id":"st_d3md5207bmas73dh9klg","pricing_plan_id":"cebpf4jnsgd1na2vs0mg"},{"bike_id":"aa1ea814-effc-4a82-a7ce-fc6b0be25510","system_id":"levelo_inurba_marseille","lat":43.31858,"lon":5.3697,"is_reserved":false,"is_disabled":false,"rental_uris":{"android":"levelo://app?vid=aa1ea814-effc-4a82-a7ce-fc6b0be25510","ios":"levelo://app?vid=aa1ea814-effc-4a82-a7ce-fc6b0be25510"},"vehicle_type_id":"4","last_reported":1773599099,"current_range_meters":35600,"station_id":"","pricing_plan_id":"cebpf4jnsgd1na2vs0mg"},{"bike_id":"52e7db0c-350f-482f-b340-fbb82d9af1d8","system_id":"levelo_inurba_marseille","lat":43.26529,"lon":5.38964,"is_reserved":false,"is_disabled":false,"rental_uris":{"android":"levelo://app?vid=52e7db0c-350f-482f-b340-fbb82d9af1d8","ios":"levelo://app?vid=52e7db0c-350f-482f-b340-fbb82d9af1d8"},"vehicle_type_id":"4","last_reported":1773599099,"current_range_meters":16800,"station_id":"ce4bhe12rcd13ifvqf30","pricing_plan_id":"cebpf4jnsgd1na2vs0mg"},{"bike_id":"2a4f8eda-7d12-44c5-ad20-8a189bd76664","system_id":"levelo_inurba_marseille","lat":43.30219,"lon":5.40023,"is_reserved":false,"is_disabled":true,"rental_uris":{"android":"levelo://app?vid=2a4f8eda-7d12-44c5-ad20-8a189bd76664","ios":"levelo://app?vid=2a4f8eda-7d12-44c5-ad20-8a189bd76664"},"vehicle_type_id":"4","last_reported":1773599099,"current_range_meters":14400,"station_id":"","pricing_plan_id":"cebpf4jnsgd1na2vs0mg"},{"bike_id":"adb3e066-3d52-48f2-aa5f-de1d01f85bb9","system_id":"levelo_inurba_marseille","lat":43.30213,"lon":5.37423,"is_reserved":false,"is_disabled":false,"rental_uris":{"android":"levelo://app?vid=adb3e066-3d52-48f2-aa5f-de1d01f85bb9","ios":"levelo://app?vid=adb3e066-3d52-48f2-aa5f-de1d01f85bb9"},"vehicle_type_id":"4","last_reported":1773599099,"current_range_meters":16000,"station_id":"","pricing_plan_id":"cebpf4jnsgd1na2vs0mg"},{"bike_id":"962eef5f-cafa-4aa1-b960-66fef66e5235","system_id":"levelo_inurba_marseille","lat":43.29905,"lon":5.37474,"is_reserved":false,"is_disabled":false,"rental_uris":{"android":"levelo://app?vid=962eef5f-cafa-4aa1-b960-66fef66e5235","ios":"levelo://app?vid=962eef5f-cafa-4aa1-b960-66fef66e5235"},"vehicle_type_id":"4","last_reported":1773599099,"current_range_meters":36800,"station_id":"ce4bgjh2rcd13ifvqbg0","pricing_plan_id":"cebpf4jnsgd1na2vs0mg"},{"bike_id":"df5bb365-9582-4f6c-9fdf-6f2e80ba9689","system_id":"levelo_inurba_marseille","lat":43.30655,"lon":5.40082,"is_reserved":false,"is_disabled":false,"rental_uris":{"android":"levelo://app?vid=df5bb365-9582-4f6c-9fdf-6f2e80ba9689","ios":"levelo://app?vid=df5bb365-9582-4f6c-9fdf-6f2e80ba9689"},"vehicle_type_id":"4","last_reported":1773599099,"current_range_meters":11200,"station_id":"ce4bh112rcd13ifvqda0","pricing_plan_id":"cebpf4jnsgd1na2vs0mg"},{"bike_id":"a2330dbf-c3a2-4724-96f4-5d6cfb20b0b7","system_id":"levelo_inurba_marseille","lat":43.29557,"lon":5.42295,"is_reserved":false,"is_disabled":true,"rental_uris":{"android":"levelo://app?vid=a2330dbf-c3a2-4724-96f4-5d6cfb20b0b7","ios":"levelo://app?vid=a2330dbf-c3a2-4724-96f4-5d6cfb20b0b7"},"vehicle_type_id":"4","last_reported":1773599099,"current_range_meters":800,"station_id":"ce4bhph2rcd13ifvqhdg","pricing_plan_id":"cebpf4jnsgd1na2vs0mg"},{"bike_id":"833ead7f-2cc1-415f-b495-f484e1825ff8","system_id":"levelo_inurba_marseille","lat":43.3071,"lon":5.42457,"is_reserved":false,"is_disabled":false,"rental_uris":{"android":"levelo://app?vid=833ead7f-2cc1-415f-b495-f484e1825ff8","ios":"levelo://app?vid=833ead7f-2cc1-415f-b495-f484e1825ff8"},"vehicle_type_id":"4","last_reported":1773599099,"current_range_meters":36400,"station_id":"st_cvj6ca6bvosntc0bfgr0","pricing_plan_id":"cebpf4jnsgd1na2vs0mg"},{"bike_id":"eb2f308c-8a12-4604-91b5-c6e7beca1962","system_id":"levelo_inurba_marseille","lat":43.25574,"lon":5.38247,"is_reserved":false,"is_disabled":false,"rental_uris":{"android":"levelo://app?vid=eb2f308c-8a12-4604-91b5-c6e7beca1962","ios":"levelo://app?vid=eb2f308c-8a12-4604-91b5-c6e7beca1962"},"vehicle_type_id":"4","last_reported":1773599099,"current_range_meters":22400,"station_id":"ce4bhih2rcd13ifvqfs0","pricing_plan_id":"cebpf4jnsgd1na2vs0mg"},{"bike_id":"ec062fde-2e15-4dbb-92cd-dbc3f4ead404","system_id":"levelo_inurba_marseille","lat":43.29116,"lon":5.43276,"is_reserved":false,"is_disabled":true,"rental_uris":{"android":"levelo://app?vid=ec062fde-2e15-4dbb-92cd-dbc3f4ead404","ios":"levelo://app?vid=ec062fde-2e15-4dbb-92cd-dbc3f4ead404"},"vehicle_type_id":"4","last_reported":1773599099,"current_range_meters":25600,"station_id":"","pricing_plan_id":"cebpf4jnsgd1na2vs0mg"},{"bike_id":"27ec4d0c-39bd-4f99-9048-845cafcd9bd1","system_id":"levelo_inurba_marseille","lat":43.30798,"lon":5.38155,"is_reserved":false,"is_disabled":false,"rental_uris":{"android":"levelo://app?vid=27ec4d0c-39bd-4f99-9048-845cafcd9bd1","ios":"levelo://app?vid=27ec4d0c-39bd-4f99-9048-845cafcd9bd1"},"vehicle_type_id":"4","last_reported":1773599099,"current_range_meters":33600,"station_id":"ce4bgt12rcd13ifvqce0","pricing_plan_id":"cebpf4jnsgd1na2vs0mg"},{"bike_id":"85f520fc-113e-4f17-b2a5-245ce16c5540","system_id":"levelo_inurba_marseille","lat":43.25334,"lon":5.42175,"is_reserved":false,"is_disabled":false,"rental_uris":{"android":"levelo://app?vid=85f520fc-113e-4f17-b2a5-245ce16c5540","ios":"levelo://app?vid=85f520fc-113e-4f17-b2a5-245ce16c5540"},"vehicle_type_id":"4","last_reported":1773599099,"current_range_meters":38800,"station_id":"st_d2m65c5bi1j21697t3ng","pricing_plan_id":"cebpf4jnsgd1na2vs0mg"},{"bike_id":"be4b33f3-f666-4b28-9e53-550c3c6e8b23","system_id":"levelo_inurba_marseille","lat":43.28475,"lon":5.48396,"is_reserved":false,"is_disabled":false,"rental_uris":{"android":"levelo://app?vid=be4b33f3-f666-4b28-9e53-550c3c6e8b23","ios":"levelo://app?vid=be4b33f3-f666-4b28-9e53-550c3c6e8b23"},"vehicle_type_id":"4","last_reported":1773599099,"current_range_meters":10800,"station_id":"st_d3svhcjqgbts73a3dn0g","pricing_plan_id":"cebpf4jnsgd1na2vs0mg"},{"bike_id":"ed384f76-c985-4c2e-96be-48d0063bb8fb","system_id":"levelo_inurba_marseille","lat":43.27319,"lon":5.3909,"is_reserved":false,"is_disabled":false,"rental_uris":{"android":"levelo://app?vid=ed384f76-c985-4c2e-96be-48d0063bb8fb","ios":"levelo://app?vid=ed384f76-c985-4c2e-96be-48d0063bb8fb"},"vehicle_type_id":"4","last_reported":1773599099,"current_range_meters":34800,"station_id":"ce4bhgp2rcd13ifvqfe0","pricing_plan_id":"cebpf4jnsgd1na2vs0mg"},{"bike_id":"12f1d2b1-fb1d-483c-863b-27f8c8a4a5fe","system_id":"levelo_inurba_marseille","lat":43.26186,"lon":5.37449,"is_reserved":false,"is_disabled":false,"rental_uris":{"android":"levelo://app?vid=12f1d2b1-fb1d-483c-863b-27f8c8a4a5fe","ios":"levelo://app?vid=12f1d2b1-fb1d-483c-863b-27f8c8a4a5fe"},"vehicle_type_id":"4","last_reported":1773599099,"current_range_meters":30400,"station_id":"ce4bhgp2rcd13ifvqfc0","pricing_plan_id":"cebpf4jnsgd1na2vs0mg"},{"bike_id":"6a484aca-a49d-477e-8029-3d44800101b4","system_id":"levelo_inurba_marseille","lat":43.29193,"lon":5.36075,"is_reserved":false,"is_disabled":false,"rental_uris":{"android":"levelo://app?vid=6a484aca-a49d-477e-8029-3d44800101b4","ios":"levelo://app?vid=6a484aca-a49d-477e-8029-3d44800101b4"},"vehicle_type_id":"4","last_reported":1773599099,"current_range_meters":24800,"station_id":"ce4bhbh2rcd13ifvqeqg","pricing_plan_id":"cebpf4jnsgd1na2vs0mg"},{"bike_id":"193cbe9d-b7d2-421e-9f76-9c8c86aebb4a","system_id":"levelo_inurba_marseille","lat":43.3355,"lon":5.37445,"is_reserved":false,"is_disabled":false,"rental_uris":{"android":"levelo://app?vid=193cbe9d-b7d2-421e-9f76-9c8c86aebb4a","ios":"levelo://app?vid=193cbe9d-b7d2-421e-9f76-9c8c86aebb4a"},"vehicle_type_id":"4","last_reported":1773599099,"current_range_meters":12000,"station_id":"st_d46tts09ee8s73dlu43g","pricing_plan_id":"cebpf4jnsgd1na2vs0mg"},{"bike_id":"698ee0b1-39f7-4342-a106-bf9a89f04321","system_id":"levelo_inurba_marseille","lat":43.2396,"lon":5.36629,"is_reserved":false,"is_disabled":false,"rental_uris":{"android":"levelo://app?vid=698ee0b1-39f7-4342-a106-bf9a89f04321","ios":"levelo://app?vid=698ee0b1-39f7-4342-a106-bf9a89f04321"},"vehicle_type_id":"4","last_reported":1773599099,"current_range_meters":19200,"station_id":"ce4bhi12rcd13ifvqfp0","pricing_plan_id":"cebpf4jnsgd1na2vs0mg"},{"bike_id":"91de8c26-a4ae-4282-976b-d4b287103bef","system_id":"levelo_inurba_marseille","lat":43.29484,"lon":5.43311,"is_reserved":false,"is_disabled":false,"rental_uris":{"android":"levelo://app?vid=91de8c26-a4ae-4282-976b-d4b287103bef","ios":"levelo://app?vid=91de8c26-a4ae-4282-976b-d4b287103bef"},"vehicle_type_id":"4","last_reported":1773599099,"current_range_meters":9600,"station_id":"st_d3j5ugp08ojc73fj9d10","pricing_plan_id":"cebpf4jnsgd1na2vs0mg"},{"bike_id":"a104e8b9-07f2-4a7d-9dec-016c26f28e3d","system_id":"levelo_inurba_marseille","lat":43.30137,"lon":5.37431,"is_reserved":false,"is_disabled":false,"rental_uris":{"android":"levelo://app?vid=a104e8b9-07f2-4a7d-9dec-016c26f28e3d","ios":"levelo://app?vid=a104e8b9-07f2-4a7d-9dec-016c26f28e3d"},"vehicle_type_id":"4","last_reported":1773599099,"current_range_meters":35200,"station_id":"ce4bgs92rcd13ifvqcc0","pricing_plan_id":"cebpf4jnsgd1na2vs0mg"},{"bike_id":"641cab82-5627-4c24-a3b6-dfa17af8941b","system_id":"levelo_inurba_marseille","lat":43.24543,"lon":5.3953,"is_reserved":false,"is_disabled":false,"rental_uris":{"android":"levelo://app?vid=641cab82-5627-4c24-a3b6-dfa17af8941b","ios":"levelo://app?vid=641cab82-5627-4c24-a3b6-dfa17af8941b"},"vehicle_type_id":"4","last_reported":1773599099,"current_range_meters":23200,"station_id":"ce4bhlp2rcd13ifvqgjg","pricing_plan_id":"cebpf4jnsgd1na2vs0mg"},{"bike_id":"fd7cf758-e983-4794-bd70-b9f498bd15ff","system_id":"levelo_inurba_marseille","lat":43.30142,"lon":5.39847,"is_reserved":false,"is_disabled":true,"rental_uris":{"android":"levelo://app?vid=fd7cf758-e983-4794-bd70-b9f498bd15ff","ios":"levelo://app?vid=fd7cf758-e983-4794-bd70-b9f498bd15ff"},"vehicle_type_id":"4","last_reported":1773599099,"current_range_meters":37600,"station_id":"ce4bh0h2rcd13ifvqd40","pricing_plan_id":"cebpf4jnsgd1na2vs0mg"},{"bike_id":"a979051f-4c38-4b8e-a795-1121cdf88367","system_id":"levelo_inurba_marseille","lat":43.31082,"lon":5.42439,"is_reserved":false,"is_disabled":false,"rental_uris":{"android":"levelo://app?vid=a979051f-4c38-4b8e-a795-1121cdf88367","ios":"levelo://app?vid=a979051f-4c38-4b8e-a795-1121cdf88367"},"vehicle_type_id":"4","last_reported":1773599099,"current_range_meters":39200,"station_id":"ce4bhp92rcd13ifvqhag","pricing_plan_id":"cebpf4jnsgd1na2vs0mg"},{"bike_id":"9fc9c49f-ae17-4b94-b8aa-ffe30b7768e5","system_id":"levelo_inurba_marseille","lat":43.24815,"lon":5.37463,"is_reserved":false,"is_disabled":false,"rental_uris":{"android":"levelo://app?vid=9fc9c49f-ae17-4b94-b8aa-ffe30b7768e5","ios":"levelo://app?vid=9fc9c49f-ae17-4b94-b8aa-ffe30b7768e5"},"vehicle_type_id":"4","last_reported":1773599099,"current_range_meters":8800,"station_id":"ce4bhgh2rcd13ifvqfb0","pricing_plan_id":"cebpf4jnsgd1na2vs0mg"},{"bike_id":"d8563821-ffc1-4bf2-84ec-63c9fcde5ffe","system_id":"levelo_inurba_marseille","lat":43.27939,"lon":5.41037,"is_reserved":false,"is_disabled":false,"rental_uris":{"android":"levelo://app?vid=d8563821-ffc1-4bf2-84ec-63c9fcde5ffe","ios":"levelo://app?vid=d8563821-ffc1-4bf2-84ec-63c9fcde5ffe"},"vehicle_type_id":"4","last_reported":1773599099,"current_range_meters":30400,"station_id":"ce4bhnp2rcd13ifvqh0g","pricing_plan_id":"cebpf4jnsgd1na2vs0mg"},{"bike_id":"3d7100c2-5bd5-4a18-a534-e313e8e3db75","system_id":"levelo_inurba_marseille","lat":43.28594,"lon":5.34996,"is_reserved":false,"is_disabled":false,"rental_uris":{"android":"levelo://app?vid=3d7100c2-5bd5-4a18-a534-e313e8e3db75","ios":"levelo://app?vid=3d7100c2-5bd5-4a18-a534-e313e8e3db75"},"vehicle_type_id":"4","last_reported":1773599099,"current_range_meters":25600,"station_id":"","pricing_plan_id":"cebpf4jnsgd1na2vs0mg"},{"bike_id":"24baf80d-27d3-4da0-8127-72f01437a9a6","system_id":"levelo_inurba_marseille","lat":43.29363,"lon":5.37843,"is_reserved":false,"is_disabled":false,"rental_uris":{"android":"levelo://app?vid=24baf80d-27d3-4da0-8127-72f01437a9a6","ios":"levelo://app?vid=24baf80d-27d3-4da0-8127-72f01437a9a6"},"vehicle_type_id":"4","last_reported":1773599099,"current_range_meters":11200,"station_id":"ce4bgjh2rcd13ifvqbf0","pricing_plan_id":"cebpf4jnsgd1na2vs0mg"},{"bike_id":"acbbef11-1175-4fc2-be23-3149665f36b3","system_id":"levelo_inurba_marseille","lat":43.30513,"lon":5.36479,"is_reserved":false,"is_disabled":true,"rental_uris":{"android":"levelo://app?vid=acbbef11-1175-4fc2-be23-3149665f36b3","ios":"levelo://app?vid=acbbef11-1175-4fc2-be23-3149665f36b3"},"vehicle_type_id":"4","last_reported":1773599099,"current_range_meters":20400,"station_id":"","pricing_plan_id":"cebpf4jnsgd1na2vs0mg"},{"bike_id":"146924aa-0df6-4383-ae0f-7b8a2ad4f685","system_id":"levelo_inurba_marseille","lat":43.21195,"lon":5.35066,"is_reserved":false,"is_disabled":false,"rental_uris":{"android":"levelo://app?vid=146924aa-0df6-4383-ae0f-7b8a2ad4f685","ios":"levelo://app?vid=146924aa-0df6-4383-ae0f-7b8a2ad4f685"},"vehicle_type_id":"4","last_reported":1773599099,"current_range_meters":14400,"station_id":"st_cvj6sg6p6f1abm77japg","pricing_plan_id":"cebpf4jnsgd1na2vs0mg"},{"bike_id":"a398e305-5bb3-4ba2-82a4-102dfa2af1e8","system_id":"levelo_inurba_marseille","lat":43.21746,"lon":5.34598,"is_reserved":false,"is_disabled":false,"rental_uris":{"android":"levelo://app?vid=a398e305-5bb3-4ba2-82a4-102dfa2af1e8","ios":"levelo://app?vid=a398e305-5bb3-4ba2-82a4-102dfa2af1e8"},"vehicle_type_id":"4","last_reported":1773599099,"current_range_meters":28400,"station_id":"st_cvj6r9ubvosntc0bgbag","pricing_plan_id":"cebpf4jnsgd1na2vs0mg"},{"bike_id":"adf66083-b02d-4ab9-88f5-30c1e2e4a461","system_id":"levelo_inurba_marseille","lat":43.30299,"lon":5.36907,"is_reserved":false,"is_disabled":false,"rental_uris":{"android":"levelo://app?vid=adf66083-b02d-4ab9-88f5-30c1e2e4a461","ios":"levelo://app?vid=adf66083-b02d-4ab9-88f5-30c1e2e4a461"},"vehicle_type_id":"4","last_reported":1773599099,"current_range_meters":35200,"station_id":"ce4bgqh2rcd13ifvqc5g","pricing_plan_id":"cebpf4jnsgd1na2vs0mg"},{"bike_id":"39511bac-a378-495c-8620-d864725c8485","system_id":"levelo_inurba_marseille","lat":43.25091,"lon":5.3951,"is_reserved":false,"is_disabled":false,"rental_uris":{"android":"levelo://app?vid=39511bac-a378-495c-8620-d864725c8485","ios":"levelo://app?vid=39511bac-a378-495c-8620-d864725c8485"},"vehicle_type_id":"4","last_reported":1773599099,"current_range_meters":39200,"station_id":"ce4bhm12rcd13ifvqgkg","pricing_plan_id":"cebpf4jnsgd1na2vs0mg"},{"bike_id":"673dd333-2d1b-407c-809d-6056f9ddaa6b","system_id":"levelo_inurba_marseille","lat":43.28266,"lon":5.35067,"is_reserved":false,"is_disabled":true,"rental_uris":{"android":"levelo://app?vid=673dd333-2d1b-407c-809d-6056f9ddaa6b","ios":"levelo://app?vid=673dd333-2d1b-407c-809d-6056f9ddaa6b"},"vehicle_type_id":"4","last_reported":1773599099,"current_range_meters":1200,"station_id":"ce4bhbp2rcd13ifvqerg","pricing_plan_id":"cebpf4jnsgd1na2vs0mg"},{"bike_id":"3a46d46a-3434-4c09-9481-ae1049d546b0","system_id":"levelo_inurba_marseille","lat":43.3145,"lon":5.37337,"is_reserved":false,"is_disabled":false,"rental_uris":{"android":"levelo://app?vid=3a46d46a-3434-4c09-9481-ae1049d546b0","ios":"levelo://app?vid=3a46d46a-3434-4c09-9481-ae1049d546b0"},"vehicle_type_id":"4","last_reported":1773599099,"current_range_meters":37600,"station_id":"ce4bgt12rcd13ifvqcd0","pricing_plan_id":"cebpf4jnsgd1na2vs0mg"},{"bike_id":"64069c02-c977-4af0-a752-efe4502ec874","system_id":"levelo_inurba_marseille","lat":43.28482,"lon":5.48389,"is_reserved":false,"is_disabled":false,"rental_uris":{"android":"levelo://app?vid=64069c02-c977-4af0-a752-efe4502ec874","ios":"levelo://app?vid=64069c02-c977-4af0-a752-efe4502ec874"},"vehicle_type_id":"4","last_reported":1773599099,"current_range_meters":36400,"station_id":"","pricing_plan_id":"cebpf4jnsgd1na2vs0mg"},{"bike_id":"030d87a5-4fd6-406c-97be-8b1d2c082c10","system_id":"levelo_inurba_marseille","lat":43.25468,"lon":5.38211,"is_reserved":false,"is_disabled":false,"rental_uris":{"android":"levelo://app?vid=030d87a5-4fd6-406c-97be-8b1d2c082c10","ios":"levelo://app?vid=030d87a5-4fd6-406c-97be-8b1d2c082c10"},"vehicle_type_id":"4","last_reported":1773599099,"current_range_meters":36400,"station_id":"","pricing_plan_id":"cebpf4jnsgd1na2vs0mg"},{"bike_id":"0c60e9f7-419a-402d-bbe7-ab8848add394","system_id":"levelo_inurba_marseille","lat":43.31637,"lon":5.40529,"is_reserved":false,"is_disabled":false,"rental_uris":{"android":"levelo://app?vid=0c60e9f7-419a-402d-bbe7-ab8848add394","ios":"levelo://app?vid=0c60e9f7-419a-402d-bbe7-ab8848add394"},"vehicle_type_id":"4","last_reported":1773599099,"current_range_meters":29600,"station_id":"","pricing_plan_id":"cebpf4jnsgd1na2vs0mg"},{"bike_id":"03f34d7d-917c-4dbc-a948-c509cfdaf4df","system_id":"levelo_inurba_marseille","lat":43.23389,"lon":5.41254,"is_reserved":false,"is_disabled":false,"rental_uris":{"android":"levelo://app?vid=03f34d7d-917c-4dbc-a948-c509cfdaf4df","ios":"levelo://app?vid=03f34d7d-917c-4dbc-a948-c509cfdaf4df"},"vehicle_type_id":"4","last_reported":1773599099,"current_range_meters":20000,"station_id":"","pricing_plan_id":"cebpf4jnsgd1na2vs0mg"},{"bike_id":"6ba02607-5543-4986-b3cb-a1df5f02d1dd","system_id":"levelo_inurba_marseille","lat":43.31402,"lon":5.3671,"is_reserved":false,"is_disabled":false,"rental_uris":{"android":"levelo://app?vid=6ba02607-5543-4986-b3cb-a1df5f02d1dd","ios":"levelo://app?vid=6ba02607-5543-4986-b3cb-a1df5f02d1dd"},"vehicle_type_id":"4","last_reported":1773599099,"current_range_meters":37600,"station_id":"ce4bgr92rcd13ifvqc6g","pricing_plan_id":"cebpf4jnsgd1na2vs0mg"},{"bike_id":"68f8bcec-7291-4d62-b8e4-32de3382d5ae","system_id":"levelo_inurba_marseille","lat":43.30143,"lon":5.37402,"is_reserved":false,"is_disabled":false,"rental_uris":{"android":"levelo://app?vid=68f8bcec-7291-4d62-b8e4-32de3382d5ae","ios":"levelo://app?vid=68f8bcec-7291-4d62-b8e4-32de3382d5ae"},"vehicle_type_id":"4","last_reported":1773599099,"current_range_meters":8800,"station_id":"ce4bgs92rcd13ifvqcc0","pricing_plan_id":"cebpf4jnsgd1na2vs0mg"},{"bike_id":"7bf0a830-d498-457c-a030-91c3bd84fed4","system_id":"levelo_inurba_marseille","lat":43.23191,"lon":5.35558,"is_reserved":false,"is_disabled":false,"rental_uris":{"android":"levelo://app?vid=7bf0a830-d498-457c-a030-91c3bd84fed4","ios":"levelo://app?vid=7bf0a830-d498-457c-a030-91c3bd84fed4"},"vehicle_type_id":"4","last_reported":1773599099,"current_range_meters":30400,"station_id":"ce4bhu92rcd13ifvqi70","pricing_plan_id":"cebpf4jnsgd1na2vs0mg"},{"bike_id":"db5fc025-f609-443b-b481-2f6cefb137d4","system_id":"levelo_inurba_marseille","lat":43.28488,"lon":5.48378,"is_reserved":false,"is_disabled":false,"rental_uris":{"android":"levelo://app?vid=db5fc025-f609-443b-b481-2f6cefb137d4","ios":"levelo://app?vid=db5fc025-f609-443b-b481-2f6cefb137d4"},"vehicle_type_id":"4","last_reported":1773599099,"current_range_meters":28000,"station_id":"","pricing_plan_id":"cebpf4jnsgd1na2vs0mg"},{"bike_id":"3b85e9e8-4938-4ae7-a83e-c8e2526a550f","system_id":"levelo_inurba_marseille","lat":43.24201,"lon":5.36483,"is_reserved":false,"is_disabled":false,"rental_uris":{"android":"levelo://app?vid=3b85e9e8-4938-4ae7-a83e-c8e2526a550f","ios":"levelo://app?vid=3b85e9e8-4938-4ae7-a83e-c8e2526a550f"},"vehicle_type_id":"4","last_reported":1773599099,"current_range_meters":9600,"station_id":"","pricing_plan_id":"cebpf4jnsgd1na2vs0mg"},{"bike_id":"c6384ce6-6b54-4b6d-b227-3cffde6120a6","system_id":"levelo_inurba_marseille","lat":43.30915,"lon":5.40194,"is_reserved":false,"is_disabled":true,"rental_uris":{"android":"levelo://app?vid=c6384ce6-6b54-4b6d-b227-3cffde6120a6","ios":"levelo://app?vid=c6384ce6-6b54-4b6d-b227-3cffde6120a6"},"vehicle_type_id":"4","last_reported":1773599099,"current_range_meters":30400,"station_id":"ce4bgvp2rcd13ifvqct0","pricing_plan_id":"cebpf4jnsgd1na2vs0mg"},{"bike_id":"291874e8-1076-4212-bc5a-785d26390212","system_id":"levelo_inurba_marseille","lat":43.27982,"lon":5.41055,"is_reserved":false,"is_disabled":false,"rental_uris":{"android":"levelo://app?vid=291874e8-1076-4212-bc5a-785d26390212","ios":"levelo://app?vid=291874e8-1076-4212-bc5a-785d26390212"},"vehicle_type_id":"4","last_reported":1773599099,"current_range_meters":18000,"station_id":"ce4bhnp2rcd13ifvqh0g","pricing_plan_id":"cebpf4jnsgd1na2vs0mg"},{"bike_id":"3c1ed8e9-99fc-4294-894f-2389c8144b0d","system_id":"levelo_inurba_marseille","lat":43.24674,"lon":5.38191,"is_reserved":false,"is_disabled":false,"rental_uris":{"android":"levelo://app?vid=3c1ed8e9-99fc-4294-894f-2389c8144b0d","ios":"levelo://app?vid=3c1ed8e9-99fc-4294-894f-2389c8144b0d"},"vehicle_type_id":"4","last_reported":1773599099,"current_range_meters":11600,"station_id":"ce4bhih2rcd13ifvqfr0","pricing_plan_id":"cebpf4jnsgd1na2vs0mg"},{"bike_id":"e3992951-2693-423e-8845-e8948be986e5","system_id":"levelo_inurba_marseille","lat":43.32475,"lon":5.36553,"is_reserved":false,"is_disabled":false,"rental_uris":{"android":"levelo://app?vid=e3992951-2693-423e-8845-e8948be986e5","ios":"levelo://app?vid=e3992951-2693-423e-8845-e8948be986e5"},"vehicle_type_id":"4","last_reported":1773599099,"current_range_meters":39200,"station_id":"ce4bhs12rcd13ifvqhvg","pricing_plan_id":"cebpf4jnsgd1na2vs0mg"},{"bike_id":"e7ae5c95-d527-48cc-944c-1c33cfee8730","system_id":"levelo_inurba_marseille","lat":43.27073,"lon":5.42273,"is_reserved":false,"is_disabled":false,"rental_uris":{"android":"levelo://app?vid=e7ae5c95-d527-48cc-944c-1c33cfee8730","ios":"levelo://app?vid=e7ae5c95-d527-48cc-944c-1c33cfee8730"},"vehicle_type_id":"4","last_reported":1773599099,"current_range_meters":28000,"station_id":"ce4bhk92rcd13ifvqgb0","pricing_plan_id":"cebpf4jnsgd1na2vs0mg"},{"bike_id":"f257dd80-e766-437d-a2a6-656afc6644e8","system_id":"levelo_inurba_marseille","lat":43.3032,"lon":5.40459,"is_reserved":false,"is_disabled":false,"rental_uris":{"android":"levelo://app?vid=f257dd80-e766-437d-a2a6-656afc6644e8","ios":"levelo://app?vid=f257dd80-e766-437d-a2a6-656afc6644e8"},"vehicle_type_id":"4","last_reported":1773599099,"current_range_meters":38000,"station_id":"ce4bh012rcd13ifvqd10","pricing_plan_id":"cebpf4jnsgd1na2vs0mg"},{"bike_id":"de263c28-22df-409e-b364-e2f185fde54e","system_id":"levelo_inurba_marseille","lat":43.29242,"lon":5.38431,"is_reserved":false,"is_disabled":false,"rental_uris":{"android":"levelo://app?vid=de263c28-22df-409e-b364-e2f185fde54e","ios":"levelo://app?vid=de263c28-22df-409e-b364-e2f185fde54e"},"vehicle_type_id":"4","last_reported":1773599099,"current_range_meters":28800,"station_id":"ce4bh692rcd13ifvqea0","pricing_plan_id":"cebpf4jnsgd1na2vs0mg"},{"bike_id":"c0c5d9dc-928d-48b1-bc04-fe5d71707694","system_id":"levelo_inurba_marseille","lat":43.32365,"lon":5.36776,"is_reserved":false,"is_disabled":false,"rental_uris":{"android":"levelo://app?vid=c0c5d9dc-928d-48b1-bc04-fe5d71707694","ios":"levelo://app?vid=c0c5d9dc-928d-48b1-bc04-fe5d71707694"},"vehicle_type_id":"4","last_reported":1773599099,"current_range_meters":32800,"station_id":"ce4bhsh2rcd13ifvqi2g","pricing_plan_id":"cebpf4jnsgd1na2vs0mg"},{"bike_id":"22360622-7e81-4b7a-8e6d-37ee8465bcdb","system_id":"levelo_inurba_marseille","lat":43.2807,"lon":5.39622,"is_reserved":false,"is_disabled":true,"rental_uris":{"android":"levelo://app?vid=22360622-7e81-4b7a-8e6d-37ee8465bcdb","ios":"levelo://app?vid=22360622-7e81-4b7a-8e6d-37ee8465bcdb"},"vehicle_type_id":"4","last_reported":1773599099,"current_range_meters":35200,"station_id":"ce4bho12rcd13ifvqh2g","pricing_plan_id":"cebpf4jnsgd1na2vs0mg"},{"bike_id":"37d43fd8-cdec-4372-bbf9-45ba3794afe0","system_id":"levelo_inurba_marseille","lat":43.29437,"lon":5.39752,"is_reserved":false,"is_disabled":true,"rental_uris":{"android":"levelo://app?vid=37d43fd8-cdec-4372-bbf9-45ba3794afe0","ios":"levelo://app?vid=37d43fd8-cdec-4372-bbf9-45ba3794afe0"},"vehicle_type_id":"4","last_reported":1773599099,"current_range_meters":22800,"station_id":"ce4bh3h2rcd13ifvqdo0","pricing_plan_id":"cebpf4jnsgd1na2vs0mg"},{"bike_id":"475f6229-3b8f-4eab-b8fd-2fbd86f0fb75","system_id":"levelo_inurba_marseille","lat":43.24143,"lon":5.36443,"is_reserved":false,"is_disabled":false,"rental_uris":{"android":"levelo://app?vid=475f6229-3b8f-4eab-b8fd-2fbd86f0fb75","ios":"levelo://app?vid=475f6229-3b8f-4eab-b8fd-2fbd86f0fb75"},"vehicle_type_id":"4","last_reported":1773599099,"current_range_meters":34800,"station_id":"cpo36qri1sfpv3e86is0","pricing_plan_id":"cebpf4jnsgd1na2vs0mg"},{"bike_id":"aaf56433-ee77-470c-b7b6-221e680ae993","system_id":"levelo_inurba_marseille","lat":43.22552,"lon":5.41646,"is_reserved":false,"is_disabled":false,"rental_uris":{"android":"levelo://app?vid=aaf56433-ee77-470c-b7b6-221e680ae993","ios":"levelo://app?vid=aaf56433-ee77-470c-b7b6-221e680ae993"},"vehicle_type_id":"4","last_reported":1773599099,"current_range_meters":37600,"station_id":"st_d2o4gvlbi1j2169b742g","pricing_plan_id":"cebpf4jnsgd1na2vs0mg"},{"bike_id":"3ff3df78-eee4-4716-9de4-5e86fa44030b","system_id":"levelo_inurba_marseille","lat":43.30162,"lon":5.37421,"is_reserved":false,"is_disabled":false,"rental_uris":{"android":"levelo://app?vid=3ff3df78-eee4-4716-9de4-5e86fa44030b","ios":"levelo://app?vid=3ff3df78-eee4-4716-9de4-5e86fa44030b"},"vehicle_type_id":"4","last_reported":1773599099,"current_range_meters":39200,"station_id":"ce4bgs92rcd13ifvqcc0","pricing_plan_id":"cebpf4jnsgd1na2vs0mg"},{"bike_id":"fa95127e-b64f-4956-80d7-20753c90be50","system_id":"levelo_inurba_marseille","lat":43.29379,"lon":5.3991,"is_reserved":false,"is_disabled":true,"rental_uris":{"android":"levelo://app?vid=fa95127e-b64f-4956-80d7-20753c90be50","ios":"levelo://app?vid=fa95127e-b64f-4956-80d7-20753c90be50"},"vehicle_type_id":"4","last_reported":1773599099,"current_range_meters":36800,"station_id":"","pricing_plan_id":"cebpf4jnsgd1na2vs0mg"},{"bike_id":"eb259eb3-17cb-4932-bfd9-164bb2aaf2fe","system_id":"levelo_inurba_marseille","lat":43.23205,"lon":5.35556,"is_reserved":false,"is_disabled":false,"rental_uris":{"android":"levelo://app?vid=eb259eb3-17cb-4932-bfd9-164bb2aaf2fe","ios":"levelo://app?vid=eb259eb3-17cb-4932-bfd9-164bb2aaf2fe"},"vehicle_type_id":"4","last_reported":1773599099,"current_range_meters":37600,"station_id":"ce4bhu92rcd13ifvqi70","pricing_plan_id":"cebpf4jnsgd1na2vs0mg"},{"bike_id":"9f1129e7-2235-4faf-8100-e46743b37449","system_id":"levelo_inurba_marseille","lat":43.25718,"lon":5.41112,"is_reserved":false,"is_disabled":false,"rental_uris":{"android":"levelo://app?vid=9f1129e7-2235-4faf-8100-e46743b37449","ios":"levelo://app?vid=9f1129e7-2235-4faf-8100-e46743b37449"},"vehicle_type_id":"4","last_reported":1773599099,"current_range_meters":37600,"station_id":"ce4bhkp2rcd13ifvqgd0","pricing_plan_id":"cebpf4jnsgd1na2vs0mg"},{"bike_id":"41b16539-d93d-4e64-a8e4-b7d380ab4e3b","system_id":"levelo_inurba_marseille","lat":43.25023,"lon":5.38964,"is_reserved":false,"is_disabled":false,"rental_uris":{"android":"levelo://app?vid=41b16539-d93d-4e64-a8e4-b7d380ab4e3b","ios":"levelo://app?vid=41b16539-d93d-4e64-a8e4-b7d380ab4e3b"},"vehicle_type_id":"4","last_reported":1773599099,"current_range_meters":10000,"station_id":"ce4bhgp2rcd13ifvqfd0","pricing_plan_id":"cebpf4jnsgd1na2vs0mg"},{"bike_id":"f99da3b0-cfd6-4344-bb1c-6c34844412c7","system_id":"levelo_inurba_marseille","lat":43.3109,"lon":5.42434,"is_reserved":false,"is_disabled":false,"rental_uris":{"android":"levelo://app?vid=f99da3b0-cfd6-4344-bb1c-6c34844412c7","ios":"levelo://app?vid=f99da3b0-cfd6-4344-bb1c-6c34844412c7"},"vehicle_type_id":"4","last_reported":1773599099,"current_range_meters":25600,"station_id":"ce4bhp92rcd13ifvqhag","pricing_plan_id":"cebpf4jnsgd1na2vs0mg"},{"bike_id":"27ac43ef-b310-4729-8ed6-886c4b81d2ae","system_id":"levelo_inurba_marseille","lat":43.23214,"lon":5.35552,"is_reserved":false,"is_disabled":false,"rental_uris":{"android":"levelo://app?vid=27ac43ef-b310-4729-8ed6-886c4b81d2ae","ios":"levelo://app?vid=27ac43ef-b310-4729-8ed6-886c4b81d2ae"},"vehicle_type_id":"4","last_reported":1773599099,"current_range_meters":20000,"station_id":"ce4bhu92rcd13ifvqi70","pricing_plan_id":"cebpf4jnsgd1na2vs0mg"},{"bike_id":"a4951a30-7084-4efc-835c-7b8db4704dd8","system_id":"levelo_inurba_marseille","lat":43.2698,"lon":5.40243,"is_reserved":false,"is_disabled":false,"rental_uris":{"android":"levelo://app?vid=a4951a30-7084-4efc-835c-7b8db4704dd8","ios":"levelo://app?vid=a4951a30-7084-4efc-835c-7b8db4704dd8"},"vehicle_type_id":"4","last_reported":1773599099,"current_range_meters":39200,"station_id":"cjm6bp8fraef2m0cb0m0","pricing_plan_id":"cebpf4jnsgd1na2vs0mg"},{"bike_id":"a79fcd2b-2ebe-4f81-a02f-4d6a67e6cab1","system_id":"levelo_inurba_marseille","lat":43.30127,"lon":5.43115,"is_reserved":false,"is_disabled":false,"rental_uris":{"android":"levelo://app?vid=a79fcd2b-2ebe-4f81-a02f-4d6a67e6cab1","ios":"levelo://app?vid=a79fcd2b-2ebe-4f81-a02f-4d6a67e6cab1"},"vehicle_type_id":"4","last_reported":1773599099,"current_range_meters":10800,"station_id":"st_d3js3co5814s73ftftug","pricing_plan_id":"cebpf4jnsgd1na2vs0mg"},{"bike_id":"6e8cbc55-1efb-4ebc-b70e-2a9253dbdc8a","system_id":"levelo_inurba_marseille","lat":43.30736,"lon":5.42449,"is_reserved":false,"is_disabled":false,"rental_uris":{"android":"levelo://app?vid=6e8cbc55-1efb-4ebc-b70e-2a9253dbdc8a","ios":"levelo://app?vid=6e8cbc55-1efb-4ebc-b70e-2a9253dbdc8a"},"vehicle_type_id":"4","last_reported":1773599099,"current_range_meters":21600,"station_id":"st_cvj6ca6bvosntc0bfgr0","pricing_plan_id":"cebpf4jnsgd1na2vs0mg"},{"bike_id":"fceacbae-990b-4213-8c3b-c375f2e5e911","system_id":"levelo_inurba_marseille","lat":43.29813,"lon":5.38056,"is_reserved":false,"is_disabled":true,"rental_uris":{"android":"levelo://app?vid=fceacbae-990b-4213-8c3b-c375f2e5e911","ios":"levelo://app?vid=fceacbae-990b-4213-8c3b-c375f2e5e911"},"vehicle_type_id":"4","last_reported":1773599099,"current_range_meters":17600,"station_id":"ce4bgip2rcd13ifvqbb0","pricing_plan_id":"cebpf4jnsgd1na2vs0mg"},{"bike_id":"88cb8c7f-0ccd-4a01-91f9-3a530d0e94ef","system_id":"levelo_inurba_marseille","lat":43.28623,"lon":5.35072,"is_reserved":false,"is_disabled":false,"rental_uris":{"android":"levelo://app?vid=88cb8c7f-0ccd-4a01-91f9-3a530d0e94ef","ios":"levelo://app?vid=88cb8c7f-0ccd-4a01-91f9-3a530d0e94ef"},"vehicle_type_id":"4","last_reported":1773599099,"current_range_meters":36800,"station_id":"ce4bhch2rcd13ifvqeug","pricing_plan_id":"cebpf4jnsgd1na2vs0mg"},{"bike_id":"466d5686-152b-40db-b82b-75b5e82313ee","system_id":"levelo_inurba_marseille","lat":43.30152,"lon":5.37409,"is_reserved":false,"is_disabled":false,"rental_uris":{"android":"levelo://app?vid=466d5686-152b-40db-b82b-75b5e82313ee","ios":"levelo://app?vid=466d5686-152b-40db-b82b-75b5e82313ee"},"vehicle_type_id":"4","last_reported":1773599099,"current_range_meters":16400,"station_id":"ce4bgs92rcd13ifvqcc0","pricing_plan_id":"cebpf4jnsgd1na2vs0mg"},{"bike_id":"c5bffb78-664b-4d92-be59-5528982594be","system_id":"levelo_inurba_marseille","lat":43.25086,"lon":5.39521,"is_reserved":false,"is_disabled":false,"rental_uris":{"android":"levelo://app?vid=c5bffb78-664b-4d92-be59-5528982594be","ios":"levelo://app?vid=c5bffb78-664b-4d92-be59-5528982594be"},"vehicle_type_id":"4","last_reported":1773599099,"current_range_meters":20000,"station_id":"ce4bhm12rcd13ifvqgkg","pricing_plan_id":"cebpf4jnsgd1na2vs0mg"},{"bike_id":"88baf1fe-4b9b-4c52-81f7-dd067c921a9f","system_id":"levelo_inurba_marseille","lat":43.29816,"lon":5.44061,"is_reserved":false,"is_disabled":false,"rental_uris":{"android":"levelo://app?vid=88baf1fe-4b9b-4c52-81f7-dd067c921a9f","ios":"levelo://app?vid=88baf1fe-4b9b-4c52-81f7-dd067c921a9f"},"vehicle_type_id":"4","last_reported":1773599099,"current_range_meters":9600,"station_id":"st_d3jp68qikq2c7381ktn0","pricing_plan_id":"cebpf4jnsgd1na2vs0mg"},{"bike_id":"18217d73-d36b-4021-98d3-29812d614da9","system_id":"levelo_inurba_marseille","lat":43.2396,"lon":5.3664,"is_reserved":false,"is_disabled":true,"rental_uris":{"android":"levelo://app?vid=18217d73-d36b-4021-98d3-29812d614da9","ios":"levelo://app?vid=18217d73-d36b-4021-98d3-29812d614da9"},"vehicle_type_id":"4","last_reported":1773599099,"current_range_meters":39200,"station_id":"ce4bhi12rcd13ifvqfp0","pricing_plan_id":"cebpf4jnsgd1na2vs0mg"},{"bike_id":"da3d7158-a210-4e6c-94e4-79b68a14544e","system_id":"levelo_inurba_marseille","lat":43.30212,"lon":5.39482,"is_reserved":false,"is_disabled":false,"rental_uris":{"android":"levelo://app?vid=da3d7158-a210-4e6c-94e4-79b68a14544e","ios":"levelo://app?vid=da3d7158-a210-4e6c-94e4-79b68a14544e"},"vehicle_type_id":"4","last_reported":1773599099,"current_range_meters":36400,"station_id":"ce4bh0p2rcd13ifvqd70","pricing_plan_id":"cebpf4jnsgd1na2vs0mg"},{"bike_id":"e4c5b372-6892-4028-8a07-7aa5c5a4433c","system_id":"levelo_inurba_marseille","lat":43.2722,"lon":5.39176,"is_reserved":false,"is_disabled":true,"rental_uris":{"android":"levelo://app?vid=e4c5b372-6892-4028-8a07-7aa5c5a4433c","ios":"levelo://app?vid=e4c5b372-6892-4028-8a07-7aa5c5a4433c"},"vehicle_type_id":"4","last_reported":1773599099,"current_range_meters":12000,"station_id":"ce4bhhp2rcd13ifvqfm0","pricing_plan_id":"cebpf4jnsgd1na2vs0mg"},{"bike_id":"aab66ac3-31b0-4571-9db2-fd483cbf14ec","system_id":"levelo_inurba_marseille","lat":43.27212,"lon":5.39179,"is_reserved":false,"is_disabled":false,"rental_uris":{"android":"levelo://app?vid=aab66ac3-31b0-4571-9db2-fd483cbf14ec","ios":"levelo://app?vid=aab66ac3-31b0-4571-9db2-fd483cbf14ec"},"vehicle_type_id":"4","last_reported":1773599099,"current_range_meters":20800,"station_id":"ce4bhhp2rcd13ifvqfm0","pricing_plan_id":"cebpf4jnsgd1na2vs0mg"},{"bike_id":"534fae4e-5467-465e-9b5b-6a06a0e23f60","system_id":"levelo_inurba_marseille","lat":43.29248,"lon":5.36071,"is_reserved":false,"is_disabled":false,"rental_uris":{"android":"levelo://app?vid=534fae4e-5467-465e-9b5b-6a06a0e23f60","ios":"levelo://app?vid=534fae4e-5467-465e-9b5b-6a06a0e23f60"},"vehicle_type_id":"4","last_reported":1773599099,"current_range_meters":21600,"station_id":"ce4bhbh2rcd13ifvqeqg","pricing_plan_id":"cebpf4jnsgd1na2vs0mg"},{"bike_id":"f986342b-4108-4ed3-b188-ff46fe04b13d","system_id":"levelo_inurba_marseille","lat":43.25823,"lon":5.39444,"is_reserved":false,"is_disabled":true,"rental_uris":{"android":"levelo://app?vid=f986342b-4108-4ed3-b188-ff46fe04b13d","ios":"levelo://app?vid=f986342b-4108-4ed3-b188-ff46fe04b13d"},"vehicle_type_id":"4","last_reported":1773599099,"current_range_meters":36800,"station_id":"ce4bhip2rcd13ifvqft0","pricing_plan_id":"cebpf4jnsgd1na2vs0mg"},{"bike_id":"d008a3ca-bdab-43f7-957e-465391a2d48d","system_id":"levelo_inurba_marseille","lat":43.31709,"lon":5.42385,"is_reserved":false,"is_disabled":false,"rental_uris":{"android":"levelo://app?vid=d008a3ca-bdab-43f7-957e-465391a2d48d","ios":"levelo://app?vid=d008a3ca-bdab-43f7-957e-465391a2d48d"},"vehicle_type_id":"4","last_reported":1773599099,"current_range_meters":25200,"station_id":"ce4bhp92rcd13ifvqhbg","pricing_plan_id":"cebpf4jnsgd1na2vs0mg"},{"bike_id":"620ff2af-052e-41b1-a64f-0ec58b0cc2e0","system_id":"levelo_inurba_marseille","lat":43.30534,"lon":5.36506,"is_reserved":false,"is_disabled":false,"rental_uris":{"android":"levelo://app?vid=620ff2af-052e-41b1-a64f-0ec58b0cc2e0","ios":"levelo://app?vid=620ff2af-052e-41b1-a64f-0ec58b0cc2e0"},"vehicle_type_id":"4","last_reported":1773599099,"current_range_meters":36800,"station_id":"","pricing_plan_id":"cebpf4jnsgd1na2vs0mg"},{"bike_id":"65807dd8-4e9a-4424-87d6-078114446bc9","system_id":"levelo_inurba_marseille","lat":43.2502,"lon":5.4055,"is_reserved":false,"is_disabled":false,"rental_uris":{"android":"levelo://app?vid=65807dd8-4e9a-4424-87d6-078114446bc9","ios":"levelo://app?vid=65807dd8-4e9a-4424-87d6-078114446bc9"},"vehicle_type_id":"4","last_reported":1773599099,"current_range_meters":39200,"station_id":"ce4bhlh2rcd13ifvqgig","pricing_plan_id":"cebpf4jnsgd1na2vs0mg"},{"bike_id":"20d42bb1-435d-40bc-b643-e76d8ada69d0","system_id":"levelo_inurba_marseille","lat":43.28356,"lon":5.3863,"is_reserved":false,"is_disabled":false,"rental_uris":{"android":"levelo://app?vid=20d42bb1-435d-40bc-b643-e76d8ada69d0","ios":"levelo://app?vid=20d42bb1-435d-40bc-b643-e76d8ada69d0"},"vehicle_type_id":"4","last_reported":1773599099,"current_range_meters":6400,"station_id":"ce4bh492rcd13ifvqdvg","pricing_plan_id":"cebpf4jnsgd1na2vs0mg"},{"bike_id":"2da74aad-d5d0-4aee-be79-0fb398f1f69b","system_id":"levelo_inurba_marseille","lat":43.298,"lon":5.38116,"is_reserved":false,"is_disabled":true,"rental_uris":{"android":"levelo://app?vid=2da74aad-d5d0-4aee-be79-0fb398f1f69b","ios":"levelo://app?vid=2da74aad-d5d0-4aee-be79-0fb398f1f69b"},"vehicle_type_id":"4","last_reported":1773599099,"current_range_meters":19200,"station_id":"ce4bgip2rcd13ifvqbb0","pricing_plan_id":"cebpf4jnsgd1na2vs0mg"},{"bike_id":"b61fc4f0-0b5d-40e3-b924-ba214b5f1194","system_id":"levelo_inurba_marseille","lat":43.27836,"lon":5.40707,"is_reserved":false,"is_disabled":true,"rental_uris":{"android":"levelo://app?vid=b61fc4f0-0b5d-40e3-b924-ba214b5f1194","ios":"levelo://app?vid=b61fc4f0-0b5d-40e3-b924-ba214b5f1194"},"vehicle_type_id":"4","last_reported":1773599099,"current_range_meters":29600,"station_id":"ce4bhnh2rcd13ifvqgtg","pricing_plan_id":"cebpf4jnsgd1na2vs0mg"},{"bike_id":"403c1090-a6b1-4366-b75b-027e8e9e6c20","system_id":"levelo_inurba_marseille","lat":43.29268,"lon":5.40915,"is_reserved":false,"is_disabled":false,"rental_uris":{"android":"levelo://app?vid=403c1090-a6b1-4366-b75b-027e8e9e6c20","ios":"levelo://app?vid=403c1090-a6b1-4366-b75b-027e8e9e6c20"},"vehicle_type_id":"4","last_reported":1773599099,"current_range_meters":22400,"station_id":"ce4bh192rcd13ifvqdc0","pricing_plan_id":"cebpf4jnsgd1na2vs0mg"},{"bike_id":"c5e75752-a286-449d-8e67-bace779c66a2","system_id":"levelo_inurba_marseille","lat":43.23181,"lon":5.40012,"is_reserved":false,"is_disabled":false,"rental_uris":{"android":"levelo://app?vid=c5e75752-a286-449d-8e67-bace779c66a2","ios":"levelo://app?vid=c5e75752-a286-449d-8e67-bace779c66a2"},"vehicle_type_id":"4","last_reported":1773599099,"current_range_meters":32000,"station_id":"ce4bhn12rcd13ifvqgqg","pricing_plan_id":"cebpf4jnsgd1na2vs0mg"},{"bike_id":"5ac9f0dc-8c94-42f1-a0d6-ec3ff233a36a","system_id":"levelo_inurba_marseille","lat":43.27104,"lon":5.40298,"is_reserved":false,"is_disabled":false,"rental_uris":{"android":"levelo://app?vid=5ac9f0dc-8c94-42f1-a0d6-ec3ff233a36a","ios":"levelo://app?vid=5ac9f0dc-8c94-42f1-a0d6-ec3ff233a36a"},"vehicle_type_id":"4","last_reported":1773599099,"current_range_meters":39200,"station_id":"ce4bhk92rcd13ifvqgc0","pricing_plan_id":"cebpf4jnsgd1na2vs0mg"},{"bike_id":"feeaa3cb-d492-4b30-9cf3-d781da265e87","system_id":"levelo_inurba_marseille","lat":43.24951,"lon":5.40493,"is_reserved":false,"is_disabled":false,"rental_uris":{"android":"levelo://app?vid=feeaa3cb-d492-4b30-9cf3-d781da265e87","ios":"levelo://app?vid=feeaa3cb-d492-4b30-9cf3-d781da265e87"},"vehicle_type_id":"4","last_reported":1773599099,"current_range_meters":32400,"station_id":"st_d2ngiaodas8pm72gd1h0","pricing_plan_id":"cebpf4jnsgd1na2vs0mg"},{"bike_id":"57bb4d9e-d4d4-4990-bab6-6d06f315dddc","system_id":"levelo_inurba_marseille","lat":43.3016,"lon":5.37417,"is_reserved":false,"is_disabled":false,"rental_uris":{"android":"levelo://app?vid=57bb4d9e-d4d4-4990-bab6-6d06f315dddc","ios":"levelo://app?vid=57bb4d9e-d4d4-4990-bab6-6d06f315dddc"},"vehicle_type_id":"4","last_reported":1773599099,"current_range_meters":33600,"station_id":"ce4bgs92rcd13ifvqcc0","pricing_plan_id":"cebpf4jnsgd1na2vs0mg"},{"bike_id":"2bab96cf-f3bd-4d1e-9a10-e0bfbf596746","system_id":"levelo_inurba_marseille","lat":43.23187,"lon":5.4,"is_reserved":false,"is_disabled":false,"rental_uris":{"android":"levelo://app?vid=2bab96cf-f3bd-4d1e-9a10-e0bfbf596746","ios":"levelo://app?vid=2bab96cf-f3bd-4d1e-9a10-e0bfbf596746"},"vehicle_type_id":"4","last_reported":1773599099,"current_range_meters":28800,"station_id":"ce4bhn12rcd13ifvqgqg","pricing_plan_id":"cebpf4jnsgd1na2vs0mg"},{"bike_id":"ef364c26-b12f-4ac2-8385-acdb623c591d","system_id":"levelo_inurba_marseille","lat":43.22541,"lon":5.4159,"is_reserved":false,"is_disabled":false,"rental_uris":{"android":"levelo://app?vid=ef364c26-b12f-4ac2-8385-acdb623c591d","ios":"levelo://app?vid=ef364c26-b12f-4ac2-8385-acdb623c591d"},"vehicle_type_id":"4","last_reported":1773599099,"current_range_meters":9600,"station_id":"st_d2o4gvlbi1j2169b742g","pricing_plan_id":"cebpf4jnsgd1na2vs0mg"},{"bike_id":"fb0b812d-2e71-4d80-94bc-562e817288fa","system_id":"levelo_inurba_marseille","lat":43.23162,"lon":5.35556,"is_reserved":false,"is_disabled":false,"rental_uris":{"android":"levelo://app?vid=fb0b812d-2e71-4d80-94bc-562e817288fa","ios":"levelo://app?vid=fb0b812d-2e71-4d80-94bc-562e817288fa"},"vehicle_type_id":"4","last_reported":1773599099,"current_range_meters":3600,"station_id":"ce4bhu92rcd13ifvqi70","pricing_plan_id":"cebpf4jnsgd1na2vs0mg"},{"bike_id":"a89f76cd-419e-4d7f-ae28-c16c51ac0137","system_id":"levelo_inurba_marseille","lat":43.289342,"lon":5.396041,"is_reserved":false,"is_disabled":false,"rental_uris":{"android":"levelo://app?vid=a89f76cd-419e-4d7f-ae28-c16c51ac0137","ios":"levelo://app?vid=a89f76cd-419e-4d7f-ae28-c16c51ac0137"},"vehicle_type_id":"4","last_reported":1773599099,"current_range_meters":10800,"station_id":"ce4bh3h2rcd13ifvqdn0","pricing_plan_id":"cebpf4jnsgd1na2vs0mg"},{"bike_id":"8617b24d-bdd2-49e3-beda-5d74fc474252","system_id":"levelo_inurba_marseille","lat":43.28471,"lon":5.48398,"is_reserved":false,"is_disabled":false,"rental_uris":{"android":"levelo://app?vid=8617b24d-bdd2-49e3-beda-5d74fc474252","ios":"levelo://app?vid=8617b24d-bdd2-49e3-beda-5d74fc474252"},"vehicle_type_id":"4","last_reported":1773599099,"current_range_meters":24400,"station_id":"","pricing_plan_id":"cebpf4jnsgd1na2vs0mg"},{"bike_id":"2d6ce0f2-f4a1-46bb-94c8-ab091a0106b7","system_id":"levelo_inurba_marseille","lat":43.26373,"lon":5.41075,"is_reserved":false,"is_disabled":false,"rental_uris":{"android":"levelo://app?vid=2d6ce0f2-f4a1-46bb-94c8-ab091a0106b7","ios":"levelo://app?vid=2d6ce0f2-f4a1-46bb-94c8-ab091a0106b7"},"vehicle_type_id":"4","last_reported":1773599099,"current_range_meters":4400,"station_id":"st_d4e5ca6na9uc73bfl5fg","pricing_plan_id":"cebpf4jnsgd1na2vs0mg"},{"bike_id":"28b12cd8-6764-47a9-abce-4999ea445dd3","system_id":"levelo_inurba_marseille","lat":43.29257,"lon":5.38433,"is_reserved":false,"is_disabled":false,"rental_uris":{"android":"levelo://app?vid=28b12cd8-6764-47a9-abce-4999ea445dd3","ios":"levelo://app?vid=28b12cd8-6764-47a9-abce-4999ea445dd3"},"vehicle_type_id":"4","last_reported":1773599099,"current_range_meters":6400,"station_id":"ce4bh692rcd13ifvqea0","pricing_plan_id":"cebpf4jnsgd1na2vs0mg"},{"bike_id":"5513dccf-31e4-4825-b6d2-d5fbbde55b2d","system_id":"levelo_inurba_marseille","lat":43.27192,"lon":5.40988,"is_reserved":false,"is_disabled":false,"rental_uris":{"android":"levelo://app?vid=5513dccf-31e4-4825-b6d2-d5fbbde55b2d","ios":"levelo://app?vid=5513dccf-31e4-4825-b6d2-d5fbbde55b2d"},"vehicle_type_id":"4","last_reported":1773599099,"current_range_meters":31200,"station_id":"ce4bhl12rcd13ifvqgf0","pricing_plan_id":"cebpf4jnsgd1na2vs0mg"},{"bike_id":"e0f4c726-c891-4b59-a727-5f7bf2fb4325","system_id":"levelo_inurba_marseille","lat":43.28542,"lon":5.44099,"is_reserved":false,"is_disabled":false,"rental_uris":{"android":"levelo://app?vid=e0f4c726-c891-4b59-a727-5f7bf2fb4325","ios":"levelo://app?vid=e0f4c726-c891-4b59-a727-5f7bf2fb4325"},"vehicle_type_id":"4","last_reported":1773599099,"current_range_meters":35600,"station_id":"st_d3j3df2ikq2c7380ej80","pricing_plan_id":"cebpf4jnsgd1na2vs0mg"},{"bike_id":"82c0c316-3d54-4686-bc65-a1a7205fd35f","system_id":"levelo_inurba_marseille","lat":43.24663,"lon":5.38176,"is_reserved":false,"is_disabled":false,"rental_uris":{"android":"levelo://app?vid=82c0c316-3d54-4686-bc65-a1a7205fd35f","ios":"levelo://app?vid=82c0c316-3d54-4686-bc65-a1a7205fd35f"},"vehicle_type_id":"4","last_reported":1773599099,"current_range_meters":10000,"station_id":"ce4bhih2rcd13ifvqfr0","pricing_plan_id":"cebpf4jnsgd1na2vs0mg"},{"bike_id":"3d4208c2-815f-40bf-8bb0-f78b87ee07d6","system_id":"levelo_inurba_marseille","lat":43.28428,"lon":5.34993,"is_reserved":false,"is_disabled":false,"rental_uris":{"android":"levelo://app?vid=3d4208c2-815f-40bf-8bb0-f78b87ee07d6","ios":"levelo://app?vid=3d4208c2-815f-40bf-8bb0-f78b87ee07d6"},"vehicle_type_id":"4","last_reported":1773599099,"current_range_meters":36000,"station_id":"ce4bhbh2rcd13ifvqepg","pricing_plan_id":"cebpf4jnsgd1na2vs0mg"},{"bike_id":"a4bc2e63-1424-4546-bce2-2446518734a4","system_id":"levelo_inurba_marseille","lat":43.30592,"lon":5.39368,"is_reserved":false,"is_disabled":false,"rental_uris":{"android":"levelo://app?vid=a4bc2e63-1424-4546-bce2-2446518734a4","ios":"levelo://app?vid=a4bc2e63-1424-4546-bce2-2446518734a4"},"vehicle_type_id":"4","last_reported":1773599099,"current_range_meters":34800,"station_id":"ce4bh0p2rcd13ifvqd80","pricing_plan_id":"cebpf4jnsgd1na2vs0mg"},{"bike_id":"98617173-6fdc-4310-b875-4375e3808dce","system_id":"levelo_inurba_marseille","lat":43.3037,"lon":5.42497,"is_reserved":false,"is_disabled":false,"rental_uris":{"android":"levelo://app?vid=98617173-6fdc-4310-b875-4375e3808dce","ios":"levelo://app?vid=98617173-6fdc-4310-b875-4375e3808dce"},"vehicle_type_id":"4","last_reported":1773599099,"current_range_meters":28800,"station_id":"ce4bhoh2rcd13ifvqh6g","pricing_plan_id":"cebpf4jnsgd1na2vs0mg"},{"bike_id":"155725a2-4e9c-4e7c-942b-f2b8be31f206","system_id":"levelo_inurba_marseille","lat":43.21735,"lon":5.34603,"is_reserved":false,"is_disabled":false,"rental_uris":{"android":"levelo://app?vid=155725a2-4e9c-4e7c-942b-f2b8be31f206","ios":"levelo://app?vid=155725a2-4e9c-4e7c-942b-f2b8be31f206"},"vehicle_type_id":"4","last_reported":1773599099,"current_range_meters":34800,"station_id":"st_cvj6r9ubvosntc0bgbag","pricing_plan_id":"cebpf4jnsgd1na2vs0mg"},{"bike_id":"56fddcda-c541-44a5-8391-f7fbf087f4ed","system_id":"levelo_inurba_marseille","lat":43.22561,"lon":5.41639,"is_reserved":false,"is_disabled":false,"rental_uris":{"android":"levelo://app?vid=56fddcda-c541-44a5-8391-f7fbf087f4ed","ios":"levelo://app?vid=56fddcda-c541-44a5-8391-f7fbf087f4ed"},"vehicle_type_id":"4","last_reported":1773599099,"current_range_meters":36400,"station_id":"st_d2o4gvlbi1j2169b742g","pricing_plan_id":"cebpf4jnsgd1na2vs0mg"},{"bike_id":"5e62ff30-da89-4bff-93fb-760715bd71df","system_id":"levelo_inurba_marseille","lat":43.30286,"lon":5.37708,"is_reserved":false,"is_disabled":false,"rental_uris":{"android":"levelo://app?vid=5e62ff30-da89-4bff-93fb-760715bd71df","ios":"levelo://app?vid=5e62ff30-da89-4bff-93fb-760715bd71df"},"vehicle_type_id":"4","last_reported":1773599099,"current_range_meters":28800,"station_id":"ce4bguh2rcd13ifvqcj0","pricing_plan_id":"cebpf4jnsgd1na2vs0mg"},{"bike_id":"7d84d8de-e109-43a4-995f-678227f9f2ff","system_id":"levelo_inurba_marseille","lat":43.27057,"lon":5.40253,"is_reserved":false,"is_disabled":false,"rental_uris":{"android":"levelo://app?vid=7d84d8de-e109-43a4-995f-678227f9f2ff","ios":"levelo://app?vid=7d84d8de-e109-43a4-995f-678227f9f2ff"},"vehicle_type_id":"4","last_reported":1773599099,"current_range_meters":38400,"station_id":"ce4bhk92rcd13ifvqgc0","pricing_plan_id":"cebpf4jnsgd1na2vs0mg"},{"bike_id":"162e4c4d-1839-4f38-862f-1e9396c5e259","system_id":"levelo_inurba_marseille","lat":43.30543,"lon":5.36718,"is_reserved":false,"is_disabled":false,"rental_uris":{"android":"levelo://app?vid=162e4c4d-1839-4f38-862f-1e9396c5e259","ios":"levelo://app?vid=162e4c4d-1839-4f38-862f-1e9396c5e259"},"vehicle_type_id":"4","last_reported":1773599099,"current_range_meters":33600,"station_id":"ce4bgrp2rcd13ifvqc9g","pricing_plan_id":"cebpf4jnsgd1na2vs0mg"},{"bike_id":"d213d92d-5289-4183-93be-f84e36b07244","system_id":"levelo_inurba_marseille","lat":43.29012,"lon":5.35623,"is_reserved":false,"is_disabled":false,"rental_uris":{"android":"levelo://app?vid=d213d92d-5289-4183-93be-f84e36b07244","ios":"levelo://app?vid=d213d92d-5289-4183-93be-f84e36b07244"},"vehicle_type_id":"4","last_reported":1773599099,"current_range_meters":23200,"station_id":"ce4bhb92rcd13ifvqen0","pricing_plan_id":"cebpf4jnsgd1na2vs0mg"},{"bike_id":"711e1566-bc3c-4178-82be-57c9ea266344","system_id":"levelo_inurba_marseille","lat":43.27711,"lon":5.38919,"is_reserved":false,"is_disabled":false,"rental_uris":{"android":"levelo://app?vid=711e1566-bc3c-4178-82be-57c9ea266344","ios":"levelo://app?vid=711e1566-bc3c-4178-82be-57c9ea266344"},"vehicle_type_id":"4","last_reported":1773599099,"current_range_meters":39200,"station_id":"ce4bhi12rcd13ifvqfo0","pricing_plan_id":"cebpf4jnsgd1na2vs0mg"},{"bike_id":"f9091acf-5db4-4a20-b1ae-87d3b83f1b76","system_id":"levelo_inurba_marseille","lat":43.29405,"lon":5.39503,"is_reserved":false,"is_disabled":false,"rental_uris":{"android":"levelo://app?vid=f9091acf-5db4-4a20-b1ae-87d3b83f1b76","ios":"levelo://app?vid=f9091acf-5db4-4a20-b1ae-87d3b83f1b76"},"vehicle_type_id":"4","last_reported":1773599099,"current_range_meters":8800,"station_id":"","pricing_plan_id":"cebpf4jnsgd1na2vs0mg"},{"bike_id":"2e2cafb6-e5c3-479c-8a76-66c5dfecc926","system_id":"levelo_inurba_marseille","lat":43.26201,"lon":5.37469,"is_reserved":false,"is_disabled":true,"rental_uris":{"android":"levelo://app?vid=2e2cafb6-e5c3-479c-8a76-66c5dfecc926","ios":"levelo://app?vid=2e2cafb6-e5c3-479c-8a76-66c5dfecc926"},"vehicle_type_id":"4","last_reported":1773599099,"current_range_meters":28400,"station_id":"ce4bhgp2rcd13ifvqfc0","pricing_plan_id":"cebpf4jnsgd1na2vs0mg"},{"bike_id":"66f843e4-1744-4333-9cdc-3ca26dae893a","system_id":"levelo_inurba_marseille","lat":43.3169,"lon":5.39591,"is_reserved":false,"is_disabled":false,"rental_uris":{"android":"levelo://app?vid=66f843e4-1744-4333-9cdc-3ca26dae893a","ios":"levelo://app?vid=66f843e4-1744-4333-9cdc-3ca26dae893a"},"vehicle_type_id":"4","last_reported":1773599099,"current_range_meters":23200,"station_id":"","pricing_plan_id":"cebpf4jnsgd1na2vs0mg"},{"bike_id":"644d8761-d2aa-479f-b0fa-123fe21abd2a","system_id":"levelo_inurba_marseille","lat":43.2418,"lon":5.39725,"is_reserved":false,"is_disabled":false,"rental_uris":{"android":"levelo://app?vid=644d8761-d2aa-479f-b0fa-123fe21abd2a","ios":"levelo://app?vid=644d8761-d2aa-479f-b0fa-123fe21abd2a"},"vehicle_type_id":"4","last_reported":1773599099,"current_range_meters":27200,"station_id":"ce4bhn12rcd13ifvqgpg","pricing_plan_id":"cebpf4jnsgd1na2vs0mg"},{"bike_id":"242e55c9-ac4f-4aec-81c1-865b2142177b","system_id":"levelo_inurba_marseille","lat":43.22932,"lon":5.35403,"is_reserved":false,"is_disabled":false,"rental_uris":{"android":"levelo://app?vid=242e55c9-ac4f-4aec-81c1-865b2142177b","ios":"levelo://app?vid=242e55c9-ac4f-4aec-81c1-865b2142177b"},"vehicle_type_id":"4","last_reported":1773599099,"current_range_meters":8000,"station_id":"cpo3532slgdg3j2ikp40","pricing_plan_id":"cebpf4jnsgd1na2vs0mg"},{"bike_id":"ac325101-b5a7-4f5d-9bc7-aba501847b2e","system_id":"levelo_inurba_marseille","lat":43.27373,"lon":5.36241,"is_reserved":false,"is_disabled":true,"rental_uris":{"android":"levelo://app?vid=ac325101-b5a7-4f5d-9bc7-aba501847b2e","ios":"levelo://app?vid=ac325101-b5a7-4f5d-9bc7-aba501847b2e"},"vehicle_type_id":"4","last_reported":1773599099,"current_range_meters":36800,"station_id":"ce4bhbh2rcd13ifvqeo0","pricing_plan_id":"cebpf4jnsgd1na2vs0mg"},{"bike_id":"cffdf26c-1919-4029-87b5-8b45a2bc0447","system_id":"levelo_inurba_marseille","lat":43.29581,"lon":5.36766,"is_reserved":false,"is_disabled":true,"rental_uris":{"android":"levelo://app?vid=cffdf26c-1919-4029-87b5-8b45a2bc0447","ios":"levelo://app?vid=cffdf26c-1919-4029-87b5-8b45a2bc0447"},"vehicle_type_id":"4","last_reported":1773599099,"current_range_meters":38000,"station_id":"ce4bgph2rcd13ifvqc2g","pricing_plan_id":"cebpf4jnsgd1na2vs0mg"},{"bike_id":"d5a63e25-8c5a-447f-a295-18a457b77d52","system_id":"levelo_inurba_marseille","lat":43.2991,"lon":5.38077,"is_reserved":false,"is_disabled":false,"rental_uris":{"android":"levelo://app?vid=d5a63e25-8c5a-447f-a295-18a457b77d52","ios":"levelo://app?vid=d5a63e25-8c5a-447f-a295-18a457b77d52"},"vehicle_type_id":"4","last_reported":1773599099,"current_range_meters":32000,"station_id":"","pricing_plan_id":"cebpf4jnsgd1na2vs0mg"},{"bike_id":"a4c3098a-b5b8-4a55-bbaa-5e988921d269","system_id":"levelo_inurba_marseille","lat":43.26585,"lon":5.39018,"is_reserved":false,"is_disabled":false,"rental_uris":{"android":"levelo://app?vid=a4c3098a-b5b8-4a55-bbaa-5e988921d269","ios":"levelo://app?vid=a4c3098a-b5b8-4a55-bbaa-5e988921d269"},"vehicle_type_id":"4","last_reported":1773599099,"current_range_meters":20800,"station_id":"ce4bhe12rcd13ifvqf30","pricing_plan_id":"cebpf4jnsgd1na2vs0mg"},{"bike_id":"5ad76827-dbcd-4895-afdb-3b15273992bb","system_id":"levelo_inurba_marseille","lat":43.28711,"lon":5.39997,"is_reserved":false,"is_disabled":true,"rental_uris":{"android":"levelo://app?vid=5ad76827-dbcd-4895-afdb-3b15273992bb","ios":"levelo://app?vid=5ad76827-dbcd-4895-afdb-3b15273992bb"},"vehicle_type_id":"4","last_reported":1773599099,"current_range_meters":31200,"station_id":"ce4bho92rcd13ifvqh3g","pricing_plan_id":"cebpf4jnsgd1na2vs0mg"},{"bike_id":"971f58a1-a8b1-439c-9f6a-5203e2975904","system_id":"levelo_inurba_marseille","lat":43.29566,"lon":5.38579,"is_reserved":false,"is_disabled":true,"rental_uris":{"android":"levelo://app?vid=971f58a1-a8b1-439c-9f6a-5203e2975904","ios":"levelo://app?vid=971f58a1-a8b1-439c-9f6a-5203e2975904"},"vehicle_type_id":"4","last_reported":1773599099,"current_range_meters":27600,"station_id":"ce4bgih2rcd13ifvqba0","pricing_plan_id":"cebpf4jnsgd1na2vs0mg"},{"bike_id":"c94288f2-a497-4ad8-8895-742d04d19603","system_id":"levelo_inurba_marseille","lat":43.29193,"lon":5.35794,"is_reserved":false,"is_disabled":false,"rental_uris":{"android":"levelo://app?vid=c94288f2-a497-4ad8-8895-742d04d19603","ios":"levelo://app?vid=c94288f2-a497-4ad8-8895-742d04d19603"},"vehicle_type_id":"4","last_reported":1773599099,"current_range_meters":27600,"station_id":"ce4bhb12rcd13ifvqel0","pricing_plan_id":"cebpf4jnsgd1na2vs0mg"},{"bike_id":"35421bfe-0191-432b-8ecb-842605e3be68","system_id":"levelo_inurba_marseille","lat":43.26573,"lon":5.39011,"is_reserved":false,"is_disabled":false,"rental_uris":{"android":"levelo://app?vid=35421bfe-0191-432b-8ecb-842605e3be68","ios":"levelo://app?vid=35421bfe-0191-432b-8ecb-842605e3be68"},"vehicle_type_id":"4","last_reported":1773599099,"current_range_meters":39200,"station_id":"ce4bhe12rcd13ifvqf30","pricing_plan_id":"cebpf4jnsgd1na2vs0mg"},{"bike_id":"13b759af-9f39-4385-b233-8157f102d0b7","system_id":"levelo_inurba_marseille","lat":43.23957,"lon":5.36648,"is_reserved":false,"is_disabled":false,"rental_uris":{"android":"levelo://app?vid=13b759af-9f39-4385-b233-8157f102d0b7","ios":"levelo://app?vid=13b759af-9f39-4385-b233-8157f102d0b7"},"vehicle_type_id":"4","last_reported":1773599099,"current_range_meters":38400,"station_id":"ce4bhi12rcd13ifvqfp0","pricing_plan_id":"cebpf4jnsgd1na2vs0mg"},{"bike_id":"af63abbd-18da-43af-aad8-a6b71c750205","system_id":"levelo_inurba_marseille","lat":43.314412,"lon":5.373352,"is_reserved":false,"is_disabled":false,"rental_uris":{"android":"levelo://app?vid=af63abbd-18da-43af-aad8-a6b71c750205","ios":"levelo://app?vid=af63abbd-18da-43af-aad8-a6b71c750205"},"vehicle_type_id":"4","last_reported":1773599099,"current_range_meters":32800,"station_id":"ce4bgt12rcd13ifvqcd0","pricing_plan_id":"cebpf4jnsgd1na2vs0mg"},{"bike_id":"93c8107a-44d9-4b92-a485-08cbd24bb80c","system_id":"levelo_inurba_marseille","lat":43.28627,"lon":5.35102,"is_reserved":false,"is_disabled":false,"rental_uris":{"android":"levelo://app?vid=93c8107a-44d9-4b92-a485-08cbd24bb80c","ios":"levelo://app?vid=93c8107a-44d9-4b92-a485-08cbd24bb80c"},"vehicle_type_id":"4","last_reported":1773599099,"current_range_meters":38800,"station_id":"ce4bhch2rcd13ifvqeug","pricing_plan_id":"cebpf4jnsgd1na2vs0mg"},{"bike_id":"4605d0eb-aef4-494c-b103-fe3cbd9a939f","system_id":"levelo_inurba_marseille","lat":43.26064,"lon":5.39371,"is_reserved":false,"is_disabled":false,"rental_uris":{"android":"levelo://app?vid=4605d0eb-aef4-494c-b103-fe3cbd9a939f","ios":"levelo://app?vid=4605d0eb-aef4-494c-b103-fe3cbd9a939f"},"vehicle_type_id":"4","last_reported":1773599099,"current_range_meters":14400,"station_id":"ce4bhh92rcd13ifvqfj0","pricing_plan_id":"cebpf4jnsgd1na2vs0mg"},{"bike_id":"e2ff8fbe-6ee0-4693-94cc-f4a9ec9cf6bf","system_id":"levelo_inurba_marseille","lat":43.31285,"lon":5.40192,"is_reserved":false,"is_disabled":true,"rental_uris":{"android":"levelo://app?vid=e2ff8fbe-6ee0-4693-94cc-f4a9ec9cf6bf","ios":"levelo://app?vid=e2ff8fbe-6ee0-4693-94cc-f4a9ec9cf6bf"},"vehicle_type_id":"4","last_reported":1773599099,"current_range_meters":8800,"station_id":"ce4bh092rcd13ifvqd30","pricing_plan_id":"cebpf4jnsgd1na2vs0mg"},{"bike_id":"a4e1eda7-e339-4e89-aeab-5ba3de0c460b","system_id":"levelo_inurba_marseille","lat":43.28342,"lon":5.38094,"is_reserved":false,"is_disabled":true,"rental_uris":{"android":"levelo://app?vid=a4e1eda7-e339-4e89-aeab-5ba3de0c460b","ios":"levelo://app?vid=a4e1eda7-e339-4e89-aeab-5ba3de0c460b"},"vehicle_type_id":"4","last_reported":1773599099,"current_range_meters":30400,"station_id":"ce4bh412rcd13ifvqdr0","pricing_plan_id":"cebpf4jnsgd1na2vs0mg"},{"bike_id":"36d46123-1b41-417b-9791-17a81620f364","system_id":"levelo_inurba_marseille","lat":43.32352,"lon":5.36741,"is_reserved":false,"is_disabled":false,"rental_uris":{"android":"levelo://app?vid=36d46123-1b41-417b-9791-17a81620f364","ios":"levelo://app?vid=36d46123-1b41-417b-9791-17a81620f364"},"vehicle_type_id":"4","last_reported":1773599099,"current_range_meters":38400,"station_id":"ce4bhsh2rcd13ifvqi2g","pricing_plan_id":"cebpf4jnsgd1na2vs0mg"},{"bike_id":"15028e6a-9a3a-4cb6-a6c1-f67f84c3a0a0","system_id":"levelo_inurba_marseille","lat":43.27991,"lon":5.40019,"is_reserved":false,"is_disabled":false,"rental_uris":{"android":"levelo://app?vid=15028e6a-9a3a-4cb6-a6c1-f67f84c3a0a0","ios":"levelo://app?vid=15028e6a-9a3a-4cb6-a6c1-f67f84c3a0a0"},"vehicle_type_id":"4","last_reported":1773599099,"current_range_meters":39200,"station_id":"ce4bho92rcd13ifvqh4g","pricing_plan_id":"cebpf4jnsgd1na2vs0mg"},{"bike_id":"176e891c-d922-4cb1-8d68-5d499dc5afe5","system_id":"levelo_inurba_marseille","lat":43.30428,"lon":5.39748,"is_reserved":false,"is_disabled":true,"rental_uris":{"android":"levelo://app?vid=176e891c-d922-4cb1-8d68-5d499dc5afe5","ios":"levelo://app?vid=176e891c-d922-4cb1-8d68-5d499dc5afe5"},"vehicle_type_id":"4","last_reported":1773599099,"current_range_meters":2000,"station_id":"ce4bh092rcd13ifvqd20","pricing_plan_id":"cebpf4jnsgd1na2vs0mg"},{"bike_id":"6849c2a0-537a-4f21-93d8-ac780b42fbab","system_id":"levelo_inurba_marseille","lat":43.29008,"lon":5.35615,"is_reserved":false,"is_disabled":false,"rental_uris":{"android":"levelo://app?vid=6849c2a0-537a-4f21-93d8-ac780b42fbab","ios":"levelo://app?vid=6849c2a0-537a-4f21-93d8-ac780b42fbab"},"vehicle_type_id":"4","last_reported":1773599099,"current_range_meters":36800,"station_id":"ce4bhb92rcd13ifvqen0","pricing_plan_id":"cebpf4jnsgd1na2vs0mg"},{"bike_id":"8f320c5b-93d0-4362-a89f-b2ea17522fe3","system_id":"levelo_inurba_marseille","lat":43.29822,"lon":5.44068,"is_reserved":false,"is_disabled":false,"rental_uris":{"android":"levelo://app?vid=8f320c5b-93d0-4362-a89f-b2ea17522fe3","ios":"levelo://app?vid=8f320c5b-93d0-4362-a89f-b2ea17522fe3"},"vehicle_type_id":"4","last_reported":1773599099,"current_range_meters":13600,"station_id":"st_d3jp68qikq2c7381ktn0","pricing_plan_id":"cebpf4jnsgd1na2vs0mg"},{"bike_id":"da7f86cf-e44a-4069-ac5a-c0af0d80fd2c","system_id":"levelo_inurba_marseille","lat":43.24808,"lon":5.37435,"is_reserved":false,"is_disabled":true,"rental_uris":{"android":"levelo://app?vid=da7f86cf-e44a-4069-ac5a-c0af0d80fd2c","ios":"levelo://app?vid=da7f86cf-e44a-4069-ac5a-c0af0d80fd2c"},"vehicle_type_id":"4","last_reported":1773599099,"current_range_meters":29600,"station_id":"ce4bhgh2rcd13ifvqfb0","pricing_plan_id":"cebpf4jnsgd1na2vs0mg"},{"bike_id":"626a35f0-447c-4bce-95ad-77821380f26a","system_id":"levelo_inurba_marseille","lat":43.3315,"lon":5.3769,"is_reserved":false,"is_disabled":true,"rental_uris":{"android":"levelo://app?vid=626a35f0-447c-4bce-95ad-77821380f26a","ios":"levelo://app?vid=626a35f0-447c-4bce-95ad-77821380f26a"},"vehicle_type_id":"4","last_reported":1773599099,"current_range_meters":33200,"station_id":"st_d46cu089ee8s73dldbu0","pricing_plan_id":"cebpf4jnsgd1na2vs0mg"},{"bike_id":"bb63d02d-c1ed-4615-82e5-40fd91312844","system_id":"levelo_inurba_marseille","lat":43.29046,"lon":5.35796,"is_reserved":false,"is_disabled":true,"rental_uris":{"android":"levelo://app?vid=bb63d02d-c1ed-4615-82e5-40fd91312844","ios":"levelo://app?vid=bb63d02d-c1ed-4615-82e5-40fd91312844"},"vehicle_type_id":"4","last_reported":1773599099,"current_range_meters":26000,"station_id":"","pricing_plan_id":"cebpf4jnsgd1na2vs0mg"},{"bike_id":"234821d0-8ca8-4f3a-a057-3015361c6876","system_id":"levelo_inurba_marseille","lat":43.27207,"lon":5.39181,"is_reserved":false,"is_disabled":true,"rental_uris":{"android":"levelo://app?vid=234821d0-8ca8-4f3a-a057-3015361c6876","ios":"levelo://app?vid=234821d0-8ca8-4f3a-a057-3015361c6876"},"vehicle_type_id":"4","last_reported":1773599099,"current_range_meters":9600,"station_id":"ce4bhhp2rcd13ifvqfm0","pricing_plan_id":"cebpf4jnsgd1na2vs0mg"},{"bike_id":"28c5bfae-9735-415d-a5cc-d8e974aa14a3","system_id":"levelo_inurba_marseille","lat":43.31725,"lon":5.42394,"is_reserved":false,"is_disabled":false,"rental_uris":{"android":"levelo://app?vid=28c5bfae-9735-415d-a5cc-d8e974aa14a3","ios":"levelo://app?vid=28c5bfae-9735-415d-a5cc-d8e974aa14a3"},"vehicle_type_id":"4","last_reported":1773599099,"current_range_meters":8800,"station_id":"ce4bhp92rcd13ifvqhbg","pricing_plan_id":"cebpf4jnsgd1na2vs0mg"},{"bike_id":"6a97526f-2613-4eb8-a1fc-3f08b408dc35","system_id":"levelo_inurba_marseille","lat":43.25867,"lon":5.39907,"is_reserved":false,"is_disabled":false,"rental_uris":{"android":"levelo://app?vid=6a97526f-2613-4eb8-a1fc-3f08b408dc35","ios":"levelo://app?vid=6a97526f-2613-4eb8-a1fc-3f08b408dc35"},"vehicle_type_id":"4","last_reported":1773599099,"current_range_meters":35200,"station_id":"ce4bhl92rcd13ifvqghg","pricing_plan_id":"cebpf4jnsgd1na2vs0mg"},{"bike_id":"ff4b6d80-01c0-4773-a9df-c09bee767e62","system_id":"levelo_inurba_marseille","lat":43.31733,"lon":5.3779,"is_reserved":false,"is_disabled":false,"rental_uris":{"android":"levelo://app?vid=ff4b6d80-01c0-4773-a9df-c09bee767e62","ios":"levelo://app?vid=ff4b6d80-01c0-4773-a9df-c09bee767e62"},"vehicle_type_id":"4","last_reported":1773599099,"current_range_meters":11200,"station_id":"","pricing_plan_id":"cebpf4jnsgd1na2vs0mg"},{"bike_id":"1f19c1df-5525-46d5-8927-d9c972b93968","system_id":"levelo_inurba_marseille","lat":43.27811,"lon":5.40701,"is_reserved":false,"is_disabled":true,"rental_uris":{"android":"levelo://app?vid=1f19c1df-5525-46d5-8927-d9c972b93968","ios":"levelo://app?vid=1f19c1df-5525-46d5-8927-d9c972b93968"},"vehicle_type_id":"4","last_reported":1773599099,"current_range_meters":32000,"station_id":"ce4bhnh2rcd13ifvqgtg","pricing_plan_id":"cebpf4jnsgd1na2vs0mg"},{"bike_id":"9ab41080-c2ed-4e18-8789-6c4a7ab31094","system_id":"levelo_inurba_marseille","lat":43.29782,"lon":5.3811,"is_reserved":false,"is_disabled":true,"rental_uris":{"android":"levelo://app?vid=9ab41080-c2ed-4e18-8789-6c4a7ab31094","ios":"levelo://app?vid=9ab41080-c2ed-4e18-8789-6c4a7ab31094"},"vehicle_type_id":"4","last_reported":1773599099,"current_range_meters":24800,"station_id":"ce4bgip2rcd13ifvqbb0","pricing_plan_id":"cebpf4jnsgd1na2vs0mg"},{"bike_id":"392b2905-1f17-4568-a436-42a6683396ff","system_id":"levelo_inurba_marseille","lat":43.27987,"lon":5.41667,"is_reserved":false,"is_disabled":false,"rental_uris":{"android":"levelo://app?vid=392b2905-1f17-4568-a436-42a6683396ff","ios":"levelo://app?vid=392b2905-1f17-4568-a436-42a6683396ff"},"vehicle_type_id":"4","last_reported":1773599099,"current_range_meters":33600,"station_id":"ce4bho12rcd13ifvqh1g","pricing_plan_id":"cebpf4jnsgd1na2vs0mg"},{"bike_id":"8a0cdd68-4b80-4aa3-b96a-90d8db77ad18","system_id":"levelo_inurba_marseille","lat":43.28664,"lon":5.38669,"is_reserved":false,"is_disabled":false,"rental_uris":{"android":"levelo://app?vid=8a0cdd68-4b80-4aa3-b96a-90d8db77ad18","ios":"levelo://app?vid=8a0cdd68-4b80-4aa3-b96a-90d8db77ad18"},"vehicle_type_id":"4","last_reported":1773599099,"current_range_meters":38800,"station_id":"ce4bh492rcd13ifvqdug","pricing_plan_id":"cebpf4jnsgd1na2vs0mg"},{"bike_id":"e431a4af-622b-4ada-a37c-11e0c592b348","system_id":"levelo_inurba_marseille","lat":43.2501,"lon":5.38908,"is_reserved":false,"is_disabled":true,"rental_uris":{"android":"levelo://app?vid=e431a4af-622b-4ada-a37c-11e0c592b348","ios":"levelo://app?vid=e431a4af-622b-4ada-a37c-11e0c592b348"},"vehicle_type_id":"4","last_reported":1773599099,"current_range_meters":32000,"station_id":"ce4bhgp2rcd13ifvqfd0","pricing_plan_id":"cebpf4jnsgd1na2vs0mg"},{"bike_id":"fcb9fc62-7a00-4e9f-bd41-7cc3d15cbf1b","system_id":"levelo_inurba_marseille","lat":43.28459,"lon":5.35891,"is_reserved":false,"is_disabled":true,"rental_uris":{"android":"levelo://app?vid=fcb9fc62-7a00-4e9f-bd41-7cc3d15cbf1b","ios":"levelo://app?vid=fcb9fc62-7a00-4e9f-bd41-7cc3d15cbf1b"},"vehicle_type_id":"4","last_reported":1773599099,"current_range_meters":0,"station_id":"ce4bhah2rcd13ifvqei0","pricing_plan_id":"cebpf4jnsgd1na2vs0mg"},{"bike_id":"2c490645-85df-4d51-a74f-8f842ea2e84f","system_id":"levelo_inurba_marseille","lat":43.30428,"lon":5.39763,"is_reserved":false,"is_disabled":true,"rental_uris":{"android":"levelo://app?vid=2c490645-85df-4d51-a74f-8f842ea2e84f","ios":"levelo://app?vid=2c490645-85df-4d51-a74f-8f842ea2e84f"},"vehicle_type_id":"4","last_reported":1773599099,"current_range_meters":30400,"station_id":"ce4bh092rcd13ifvqd20","pricing_plan_id":"cebpf4jnsgd1na2vs0mg"},{"bike_id":"a7055674-2465-4004-9fe1-a6099e72abbc","system_id":"levelo_inurba_marseille","lat":43.27822,"lon":5.392,"is_reserved":false,"is_disabled":false,"rental_uris":{"android":"levelo://app?vid=a7055674-2465-4004-9fe1-a6099e72abbc","ios":"levelo://app?vid=a7055674-2465-4004-9fe1-a6099e72abbc"},"vehicle_type_id":"4","last_reported":1773599099,"current_range_meters":38000,"station_id":"ce4bhjp2rcd13ifvqga0","pricing_plan_id":"cebpf4jnsgd1na2vs0mg"},{"bike_id":"6c13deb9-da5b-4363-8175-f3cf0daa9096","system_id":"levelo_inurba_marseille","lat":43.31327,"lon":5.39697,"is_reserved":false,"is_disabled":false,"rental_uris":{"android":"levelo://app?vid=6c13deb9-da5b-4363-8175-f3cf0daa9096","ios":"levelo://app?vid=6c13deb9-da5b-4363-8175-f3cf0daa9096"},"vehicle_type_id":"4","last_reported":1773599099,"current_range_meters":26000,"station_id":"ce4bgvp2rcd13ifvqcu0","pricing_plan_id":"cebpf4jnsgd1na2vs0mg"},{"bike_id":"7ee73e24-7719-47eb-99a4-8723db5811d2","system_id":"levelo_inurba_marseille","lat":43.30397,"lon":5.42479,"is_reserved":false,"is_disabled":false,"rental_uris":{"android":"levelo://app?vid=7ee73e24-7719-47eb-99a4-8723db5811d2","ios":"levelo://app?vid=7ee73e24-7719-47eb-99a4-8723db5811d2"},"vehicle_type_id":"4","last_reported":1773599099,"current_range_meters":32400,"station_id":"ce4bhoh2rcd13ifvqh6g","pricing_plan_id":"cebpf4jnsgd1na2vs0mg"},{"bike_id":"a21cf6b6-1f68-4d95-aad5-884be703e6c1","system_id":"levelo_inurba_marseille","lat":43.31721,"lon":5.42399,"is_reserved":false,"is_disabled":false,"rental_uris":{"android":"levelo://app?vid=a21cf6b6-1f68-4d95-aad5-884be703e6c1","ios":"levelo://app?vid=a21cf6b6-1f68-4d95-aad5-884be703e6c1"},"vehicle_type_id":"4","last_reported":1773599099,"current_range_meters":37600,"station_id":"ce4bhp92rcd13ifvqhbg","pricing_plan_id":"cebpf4jnsgd1na2vs0mg"},{"bike_id":"c2c89eb8-fe8f-4885-86b9-9633fc2e5490","system_id":"levelo_inurba_marseille","lat":43.26369,"lon":5.41079,"is_reserved":false,"is_disabled":false,"rental_uris":{"android":"levelo://app?vid=c2c89eb8-fe8f-4885-86b9-9633fc2e5490","ios":"levelo://app?vid=c2c89eb8-fe8f-4885-86b9-9633fc2e5490"},