{"last_updated":1735042660,"ttl":60,"version":"2.2","data":{"bikes":[{"bike_id":"c69170e2-5b8c-41c8-861b-04b6d81a1590","system_id":"levelo_inurba_marseille","lat":43.25106,"lon":5.40336,"is_reserved":false,"is_disabled":false,"rental_uris":{"android":"levelo://app?vid=c69170e2-5b8c-41c8-861b-04b6d81a1590","ios":"levelo://app?vid=c69170e2-5b8c-41c8-861b-04b6d81a1590"},"vehicle_type_id":"4","last_reported":1735042660,"current_range_meters":35200,"station_id":"ce4bhlh2rcd13ifvqgig","pricing_plan_id":"cebpf4jnsgd1na2vs0mg"},{"bike_id":"7c110a8b-097f-43aa-9eb5-b36685ee5243","system_id":"levelo_inurba_marseille","lat":43.28263,"lon":5.35077,"is_reserved":false,"is_disabled":true,"rental_uris":{"android":"levelo://app?vid=7c110a8b-097f-43aa-9eb5-b36685ee5243","ios":"levelo://app?vid=7c110a8b-097f-43aa-9eb5-b36685ee5243"},"vehicle_type_id":"4","last_reported":1735042660,"current_range_meters":8000,"station_id":"ce4bhbp2rcd13ifvqerg","pricing_plan_id":"cebpf4jnsgd1na2vs0mg"},{"bike_id":"2e17686b-620c-4613-a59b-c8594a2951b6","system_id":"levelo_inurba_marseille","lat":43.2668,"lon":5.38266,"is_reserved":false,"is_disabled":false,"rental_uris":{"android":"levelo://app?vid=2e17686b-620c-4613-a59b-c8594a2951b6","ios":"levelo://app?vid=2e17686b-620c-4613-a59b-c8594a2951b6"},"vehicle_type_id":"4","last_reported":1735042660,"current_range_meters":38800,"station_id":"ce4bhg92rcd13ifvqf90","pricing_plan_id":"cebpf4jnsgd1na2vs0mg"},{"bike_id":"7fd41c03-d4ec-495c-9b99-4e00e2afc323","system_id":"levelo_inurba_marseille","lat":43.30882,"lon":5.39628,"is_reserved":false,"is_disabled":false,"rental_uris":{"android":"levelo://app?vid=7fd41c03-d4ec-495c-9b99-4e00e2afc323","ios":"levelo://app?vid=7fd41c03-d4ec-495c-9b99-4e00e2afc323"},"vehicle_type_id":"4","last_reported":1735042660,"current_range_meters":38800,"station_id":"","pricing_plan_id":"cebpf4jnsgd1na2vs0mg"},{"bike_id":"b876b9e8-156f-407e-86c8-6e71ec54defa","system_id":"levelo_inurba_marseille","lat":43.30147,"lon":5.39831,"is_reserved":false,"is_disabled":false,"rental_uris":{"android":"levelo://app?vid=b876b9e8-156f-407e-86c8-6e71ec54defa","ios":"levelo://app?vid=b876b9e8-156f-407e-86c8-6e71ec54defa"},"vehicle_type_id":"4","last_reported":1735042660,"current_range_meters":30000,"station_id":"ce4bh0h2rcd13ifvqd40","pricing_plan_id":"cebpf4jnsgd1na2vs0mg"},{"bike_id":"166943e1-894d-4532-a833-aec723e74e5f","system_id":"levelo_inurba_marseille","lat":43.28832,"lon":5.39322,"is_reserved":false,"is_disabled":false,"rental_uris":{"android":"levelo://app?vid=166943e1-894d-4532-a833-aec723e74e5f","ios":"levelo://app?vid=166943e1-894d-4532-a833-aec723e74e5f"},"vehicle_type_id":"4","last_reported":1735042660,"current_range_meters":36400,"station_id":"ce4bh2p2rcd13ifvqdi0","pricing_plan_id":"cebpf4jnsgd1na2vs0mg"},{"bike_id":"05ea7e4b-4117-45ef-9b68-18f1a46b929e","system_id":"levelo_inurba_marseille","lat":43.29081,"lon":5.37156,"is_reserved":false,"is_disabled":false,"rental_uris":{"android":"levelo://app?vid=05ea7e4b-4117-45ef-9b68-18f1a46b929e","ios":"levelo://app?vid=05ea7e4b-4117-45ef-9b68-18f1a46b929e"},"vehicle_type_id":"4","last_reported":1735042660,"current_range_meters":38800,"station_id":"ce4bh5p2rcd13ifvqe4g","pricing_plan_id":"cebpf4jnsgd1na2vs0mg"},{"bike_id":"fc51ff1d-28b2-470e-b302-6649996d0bdb","system_id":"levelo_inurba_marseille","lat":43.3015,"lon":5.39838,"is_reserved":false,"is_disabled":false,"rental_uris":{"android":"levelo://app?vid=fc51ff1d-28b2-470e-b302-6649996d0bdb","ios":"levelo://app?vid=fc51ff1d-28b2-470e-b302-6649996d0bdb"},"vehicle_type_id":"4","last_reported":1735042660,"current_range_meters":36400,"station_id":"ce4bh0h2rcd13ifvqd40","pricing_plan_id":"cebpf4jnsgd1na2vs0mg"},{"bike_id":"e5d3b806-c7b1-4096-9272-59cc0d8d9663","system_id":"levelo_inurba_marseille","lat":43.29036,"lon":5.35927,"is_reserved":false,"is_disabled":false,"rental_uris":{"android":"levelo://app?vid=e5d3b806-c7b1-4096-9272-59cc0d8d9663","ios":"levelo://app?vid=e5d3b806-c7b1-4096-9272-59cc0d8d9663"},"vehicle_type_id":"4","last_reported":1735042660,"current_range_meters":26000,"station_id":"ce4bha92rcd13ifvqeg0","pricing_plan_id":"cebpf4jnsgd1na2vs0mg"},{"bike_id":"89a639d4-ff1f-4ff6-8b8c-a4df41cf2c0e","system_id":"levelo_inurba_marseille","lat":43.23961,"lon":5.36631,"is_reserved":false,"is_disabled":false,"rental_uris":{"android":"levelo://app?vid=89a639d4-ff1f-4ff6-8b8c-a4df41cf2c0e","ios":"levelo://app?vid=89a639d4-ff1f-4ff6-8b8c-a4df41cf2c0e"},"vehicle_type_id":"4","last_reported":1735042660,"current_range_meters":26800,"station_id":"ce4bhi12rcd13ifvqfp0","pricing_plan_id":"cebpf4jnsgd1na2vs0mg"},{"bike_id":"3a044041-3464-470e-b37f-dbc05ff5c634","system_id":"levelo_inurba_marseille","lat":43.31708,"lon":5.43706,"is_reserved":false,"is_disabled":false,"rental_uris":{"android":"levelo://app?vid=3a044041-3464-470e-b37f-dbc05ff5c634","ios":"levelo://app?vid=3a044041-3464-470e-b37f-dbc05ff5c634"},"vehicle_type_id":"4","last_reported":1735042660,"current_range_meters":38800,"station_id":"ce4bhp92rcd13ifvqhcg","pricing_plan_id":"cebpf4jnsgd1na2vs0mg"},{"bike_id":"96f67906-c94f-4a78-ae6e-fdff28a17019","system_id":"levelo_inurba_marseille","lat":43.33833,"lon":5.37432,"is_reserved":false,"is_disabled":false,"rental_uris":{"android":"levelo://app?vid=96f67906-c94f-4a78-ae6e-fdff28a17019","ios":"levelo://app?vid=96f67906-c94f-4a78-ae6e-fdff28a17019"},"vehicle_type_id":"4","last_reported":1735042660,"current_range_meters":10000,"station_id":"","pricing_plan_id":"cebpf4jnsgd1na2vs0mg"},{"bike_id":"b411a283-e781-467a-9dd8-9e52e59fbfa5","system_id":"levelo_inurba_marseille","lat":43.28725,"lon":5.36081,"is_reserved":false,"is_disabled":false,"rental_uris":{"android":"levelo://app?vid=b411a283-e781-467a-9dd8-9e52e59fbfa5","ios":"levelo://app?vid=b411a283-e781-467a-9dd8-9e52e59fbfa5"},"vehicle_type_id":"4","last_reported":1735042660,"current_range_meters":39200,"station_id":"cki0cbj6b192h4jlfktg","pricing_plan_id":"cebpf4jnsgd1na2vs0mg"},{"bike_id":"b9c83c83-cf96-4e57-b709-6459d0acaf9f","system_id":"levelo_inurba_marseille","lat":43.26803,"lon":5.4026,"is_reserved":false,"is_disabled":false,"rental_uris":{"android":"levelo://app?vid=b9c83c83-cf96-4e57-b709-6459d0acaf9f","ios":"levelo://app?vid=b9c83c83-cf96-4e57-b709-6459d0acaf9f"},"vehicle_type_id":"4","last_reported":1735042660,"current_range_meters":38800,"station_id":"ce501612rcd8frsf0b60","pricing_plan_id":"cebpf4jnsgd1na2vs0mg"},{"bike_id":"8ba84ccc-8626-48fe-9205-f75891433829","system_id":"levelo_inurba_marseille","lat":43.25504,"lon":5.37649,"is_reserved":false,"is_disabled":false,"rental_uris":{"android":"levelo://app?vid=8ba84ccc-8626-48fe-9205-f75891433829","ios":"levelo://app?vid=8ba84ccc-8626-48fe-9205-f75891433829"},"vehicle_type_id":"4","last_reported":1735042660,"current_range_meters":38800,"station_id":"ce4bhh12rcd13ifvqff0","pricing_plan_id":"cebpf4jnsgd1na2vs0mg"},{"bike_id":"88e2e3f8-7d2e-44f9-a1ea-525564fab90f","system_id":"levelo_inurba_marseille","lat":43.33762,"lon":5.37438,"is_reserved":false,"is_disabled":false,"rental_uris":{"android":"levelo://app?vid=88e2e3f8-7d2e-44f9-a1ea-525564fab90f","ios":"levelo://app?vid=88e2e3f8-7d2e-44f9-a1ea-525564fab90f"},"vehicle_type_id":"4","last_reported":1735042660,"current_range_meters":28000,"station_id":"","pricing_plan_id":"cebpf4jnsgd1na2vs0mg"},{"bike_id":"6c0d88cf-2303-4fc6-bdb3-776a9d505235","system_id":"levelo_inurba_marseille","lat":43.29734,"lon":5.37682,"is_reserved":false,"is_disabled":false,"rental_uris":{"android":"levelo://app?vid=6c0d88cf-2303-4fc6-bdb3-776a9d505235","ios":"levelo://app?vid=6c0d88cf-2303-4fc6-bdb3-776a9d505235"},"vehicle_type_id":"4","last_reported":1735042660,"current_range_meters":17200,"station_id":"ce4bgkh2rcd13ifvqbl0","pricing_plan_id":"cebpf4jnsgd1na2vs0mg"},{"bike_id":"fa3ed25e-9f65-4960-b3cb-77f0d1c71ed6","system_id":"levelo_inurba_marseille","lat":43.28102,"lon":5.37847,"is_reserved":false,"is_disabled":false,"rental_uris":{"android":"levelo://app?vid=fa3ed25e-9f65-4960-b3cb-77f0d1c71ed6","ios":"levelo://app?vid=fa3ed25e-9f65-4960-b3cb-77f0d1c71ed6"},"vehicle_type_id":"4","last_reported":1735042660,"current_range_meters":32400,"station_id":"ce4bha12rcd13ifvqee0","pricing_plan_id":"cebpf4jnsgd1na2vs0mg"},{"bike_id":"15546ba2-38ac-400d-b271-ae9b7236f8a7","system_id":"levelo_inurba_marseille","lat":43.27062,"lon":5.42282,"is_reserved":false,"is_disabled":false,"rental_uris":{"android":"levelo://app?vid=15546ba2-38ac-400d-b271-ae9b7236f8a7","ios":"levelo://app?vid=15546ba2-38ac-400d-b271-ae9b7236f8a7"},"vehicle_type_id":"4","last_reported":1735042660,"current_range_meters":37600,"station_id":"ce4bhk92rcd13ifvqgb0","pricing_plan_id":"cebpf4jnsgd1na2vs0mg"},{"bike_id":"c66abb8e-8df5-4273-a071-f5581230d15b","system_id":"levelo_inurba_marseille","lat":43.30138,"lon":5.37424,"is_reserved":false,"is_disabled":false,"rental_uris":{"android":"levelo://app?vid=c66abb8e-8df5-4273-a071-f5581230d15b","ios":"levelo://app?vid=c66abb8e-8df5-4273-a071-f5581230d15b"},"vehicle_type_id":"4","last_reported":1735042660,"current_range_meters":35200,"station_id":"ce4bgs92rcd13ifvqcc0","pricing_plan_id":"cebpf4jnsgd1na2vs0mg"},{"bike_id":"e954ffb0-0739-49ca-ad65-8a4a1bee9940","system_id":"levelo_inurba_marseille","lat":43.30555,"lon":5.36679,"is_reserved":false,"is_disabled":false,"rental_uris":{"android":"levelo://app?vid=e954ffb0-0739-49ca-ad65-8a4a1bee9940","ios":"levelo://app?vid=e954ffb0-0739-49ca-ad65-8a4a1bee9940"},"vehicle_type_id":"4","last_reported":1735042660,"current_range_meters":30000,"station_id":"ce4bgrp2rcd13ifvqc9g","pricing_plan_id":"cebpf4jnsgd1na2vs0mg"},{"bike_id":"483c1a88-3d76-4ce2-b8a0-18ab3d6306de","system_id":"levelo_inurba_marseille","lat":43.29932,"lon":5.3655,"is_reserved":false,"is_disabled":false,"rental_uris":{"android":"levelo://app?vid=483c1a88-3d76-4ce2-b8a0-18ab3d6306de","ios":"levelo://app?vid=483c1a88-3d76-4ce2-b8a0-18ab3d6306de"},"vehicle_type_id":"4","last_reported":1735042660,"current_range_meters":37600,"station_id":"ce4bgm92rcd13ifvqbr0","pricing_plan_id":"cebpf4jnsgd1na2vs0mg"},{"bike_id":"b7811eea-af26-4a26-8258-d1a33cd672d5","system_id":"levelo_inurba_marseille","lat":43.29303,"lon":5.37441,"is_reserved":false,"is_disabled":false,"rental_uris":{"android":"levelo://app?vid=b7811eea-af26-4a26-8258-d1a33cd672d5","ios":"levelo://app?vid=b7811eea-af26-4a26-8258-d1a33cd672d5"},"vehicle_type_id":"4","last_reported":1735042660,"current_range_meters":32000,"station_id":"ce4bgi12rcd13ifvqb70","pricing_plan_id":"cebpf4jnsgd1na2vs0mg"},{"bike_id":"671b6366-55bc-4b51-a3a4-65fbc5c39302","system_id":"levelo_inurba_marseille","lat":43.32034,"lon":5.41565,"is_reserved":false,"is_disabled":false,"rental_uris":{"android":"levelo://app?vid=671b6366-55bc-4b51-a3a4-65fbc5c39302","ios":"levelo://app?vid=671b6366-55bc-4b51-a3a4-65fbc5c39302"},"vehicle_type_id":"4","last_reported":1735042660,"current_range_meters":30800,"station_id":"ce4bhq92rcd13ifvqhkg","pricing_plan_id":"cebpf4jnsgd1na2vs0mg"},{"bike_id":"cc0c258c-92ee-4b93-8dfd-a030652d3f06","system_id":"levelo_inurba_marseille","lat":43.29729,"lon":5.37694,"is_reserved":false,"is_disabled":false,"rental_uris":{"android":"levelo://app?vid=cc0c258c-92ee-4b93-8dfd-a030652d3f06","ios":"levelo://app?vid=cc0c258c-92ee-4b93-8dfd-a030652d3f06"},"vehicle_type_id":"4","last_reported":1735042660,"current_range_meters":22800,"station_id":"ce4bgkh2rcd13ifvqbl0","pricing_plan_id":"cebpf4jnsgd1na2vs0mg"},{"bike_id":"b3a2c042-ff6d-4143-a276-89576307ef0b","system_id":"levelo_inurba_marseille","lat":43.26929,"lon":5.38918,"is_reserved":false,"is_disabled":false,"rental_uris":{"android":"levelo://app?vid=b3a2c042-ff6d-4143-a276-89576307ef0b","ios":"levelo://app?vid=b3a2c042-ff6d-4143-a276-89576307ef0b"},"vehicle_type_id":"4","last_reported":1735042660,"current_range_meters":29600,"station_id":"ce4bhhh2rcd13ifvqfl0","pricing_plan_id":"cebpf4jnsgd1na2vs0mg"},{"bike_id":"39076371-5d4c-42aa-82bc-3aa69939e51e","system_id":"levelo_inurba_marseille","lat":43.25721,"lon":5.41113,"is_reserved":false,"is_disabled":false,"rental_uris":{"android":"levelo://app?vid=39076371-5d4c-42aa-82bc-3aa69939e51e","ios":"levelo://app?vid=39076371-5d4c-42aa-82bc-3aa69939e51e"},"vehicle_type_id":"4","last_reported":1735042660,"current_range_meters":37600,"station_id":"ce4bhkp2rcd13ifvqgd0","pricing_plan_id":"cebpf4jnsgd1na2vs0mg"},{"bike_id":"3130a1e9-02dc-483e-bca9-c7faabf763a1","system_id":"levelo_inurba_marseille","lat":43.25496,"lon":5.37635,"is_reserved":false,"is_disabled":false,"rental_uris":{"android":"levelo://app?vid=3130a1e9-02dc-483e-bca9-c7faabf763a1","ios":"levelo://app?vid=3130a1e9-02dc-483e-bca9-c7faabf763a1"},"vehicle_type_id":"4","last_reported":1735042660,"current_range_meters":38800,"station_id":"ce4bhh12rcd13ifvqff0","pricing_plan_id":"cebpf4jnsgd1na2vs0mg"},{"bike_id":"ea8c40cc-174b-443f-b73d-f844c946648a","system_id":"levelo_inurba_marseille","lat":43.2464,"lon":5.38907,"is_reserved":false,"is_disabled":false,"rental_uris":{"android":"levelo://app?vid=ea8c40cc-174b-443f-b73d-f844c946648a","ios":"levelo://app?vid=ea8c40cc-174b-443f-b73d-f844c946648a"},"vehicle_type_id":"4","last_reported":1735042660,"current_range_meters":28400,"station_id":"ce4bhg12rcd13ifvqf60","pricing_plan_id":"cebpf4jnsgd1na2vs0mg"},{"bike_id":"b76cea7e-5025-4e14-a8c7-eebf31292c4c","system_id":"levelo_inurba_marseille","lat":43.26064,"lon":5.39399,"is_reserved":false,"is_disabled":true,"rental_uris":{"android":"levelo://app?vid=b76cea7e-5025-4e14-a8c7-eebf31292c4c","ios":"levelo://app?vid=b76cea7e-5025-4e14-a8c7-eebf31292c4c"},"vehicle_type_id":"4","last_reported":1735042660,"current_range_meters":24800,"station_id":"ce4bhh92rcd13ifvqfj0","pricing_plan_id":"cebpf4jnsgd1na2vs0mg"},{"bike_id":"64bd181e-daca-4b41-84bd-e6d84057fcdc","system_id":"levelo_inurba_marseille","lat":43.29023,"lon":5.37561,"is_reserved":false,"is_disabled":false,"rental_uris":{"android":"levelo://app?vid=64bd181e-daca-4b41-84bd-e6d84057fcdc","ios":"levelo://app?vid=64bd181e-daca-4b41-84bd-e6d84057fcdc"},"vehicle_type_id":"4","last_reported":1735042660,"current_range_meters":20400,"station_id":"ce4bh692rcd13ifvqe90","pricing_plan_id":"cebpf4jnsgd1na2vs0mg"},{"bike_id":"6678db6e-3623-4b0f-81a4-00352ba4592f","system_id":"levelo_inurba_marseille","lat":43.30475,"lon":5.37903,"is_reserved":false,"is_disabled":false,"rental_uris":{"android":"levelo://app?vid=6678db6e-3623-4b0f-81a4-00352ba4592f","ios":"levelo://app?vid=6678db6e-3623-4b0f-81a4-00352ba4592f"},"vehicle_type_id":"4","last_reported":1735042660,"current_range_meters":21600,"station_id":"ce4bgup2rcd13ifvqcn0","pricing_plan_id":"cebpf4jnsgd1na2vs0mg"},{"bike_id":"d0533ccb-11ce-46dc-9cca-daa9f7a4985a","system_id":"levelo_inurba_marseille","lat":43.29534,"lon":5.42297,"is_reserved":false,"is_disabled":false,"rental_uris":{"android":"levelo://app?vid=d0533ccb-11ce-46dc-9cca-daa9f7a4985a","ios":"levelo://app?vid=d0533ccb-11ce-46dc-9cca-daa9f7a4985a"},"vehicle_type_id":"4","last_reported":1735042660,"current_range_meters":39200,"station_id":"ce4bhph2rcd13ifvqhdg","pricing_plan_id":"cebpf4jnsgd1na2vs0mg"},{"bike_id":"5d29fc56-dbb2-4006-96bc-27e181f8d4f5","system_id":"levelo_inurba_marseille","lat":43.29851,"lon":5.36275,"is_reserved":false,"is_disabled":false,"rental_uris":{"android":"levelo://app?vid=5d29fc56-dbb2-4006-96bc-27e181f8d4f5","ios":"levelo://app?vid=5d29fc56-dbb2-4006-96bc-27e181f8d4f5"},"vehicle_type_id":"4","last_reported":1735042660,"current_range_meters":35600,"station_id":"ce4bgpp2rcd13ifvqc3g","pricing_plan_id":"cebpf4jnsgd1na2vs0mg"},{"bike_id":"bf0280ad-bda7-4529-a99f-08b28cf99de6","system_id":"levelo_inurba_marseille","lat":43.29934,"lon":5.36533,"is_reserved":false,"is_disabled":false,"rental_uris":{"android":"levelo://app?vid=bf0280ad-bda7-4529-a99f-08b28cf99de6","ios":"levelo://app?vid=bf0280ad-bda7-4529-a99f-08b28cf99de6"},"vehicle_type_id":"4","last_reported":1735042660,"current_range_meters":24800,"station_id":"ce4bgm92rcd13ifvqbr0","pricing_plan_id":"cebpf4jnsgd1na2vs0mg"},{"bike_id":"d6989d89-6423-4f53-879c-2c7845669fb0","system_id":"levelo_inurba_marseille","lat":43.30289,"lon":5.36909,"is_reserved":false,"is_disabled":false,"rental_uris":{"android":"levelo://app?vid=d6989d89-6423-4f53-879c-2c7845669fb0","ios":"levelo://app?vid=d6989d89-6423-4f53-879c-2c7845669fb0"},"vehicle_type_id":"4","last_reported":1735042660,"current_range_meters":24400,"station_id":"ce4bgqh2rcd13ifvqc5g","pricing_plan_id":"cebpf4jnsgd1na2vs0mg"},{"bike_id":"0f6d1249-1a40-499d-a2b8-0e2db0281ee4","system_id":"levelo_inurba_marseille","lat":43.29564,"lon":5.39987,"is_reserved":false,"is_disabled":false,"rental_uris":{"android":"levelo://app?vid=0f6d1249-1a40-499d-a2b8-0e2db0281ee4","ios":"levelo://app?vid=0f6d1249-1a40-499d-a2b8-0e2db0281ee4"},"vehicle_type_id":"4","last_reported":1735042660,"current_range_meters":11200,"station_id":"ce4bh312rcd13ifvqdj0","pricing_plan_id":"cebpf4jnsgd1na2vs0mg"},{"bike_id":"576daf5e-01a3-4579-8e40-035ad7ace8cb","system_id":"levelo_inurba_marseille","lat":43.25735,"lon":5.41099,"is_reserved":false,"is_disabled":false,"rental_uris":{"android":"levelo://app?vid=576daf5e-01a3-4579-8e40-035ad7ace8cb","ios":"levelo://app?vid=576daf5e-01a3-4579-8e40-035ad7ace8cb"},"vehicle_type_id":"4","last_reported":1735042660,"current_range_meters":29600,"station_id":"ce4bhkp2rcd13ifvqgd0","pricing_plan_id":"cebpf4jnsgd1na2vs0mg"},{"bike_id":"e3399fde-b9e4-4fe8-a1bd-1e7933587151","system_id":"levelo_inurba_marseille","lat":43.2956,"lon":5.37518,"is_reserved":false,"is_disabled":false,"rental_uris":{"android":"levelo://app?vid=e3399fde-b9e4-4fe8-a1bd-1e7933587151","ios":"levelo://app?vid=e3399fde-b9e4-4fe8-a1bd-1e7933587151"},"vehicle_type_id":"4","last_reported":1735042660,"current_range_meters":25200,"station_id":"ce4bgh92rcd13ifvqb50","pricing_plan_id":"cebpf4jnsgd1na2vs0mg"},{"bike_id":"56d16b6e-86c6-4d1f-b32a-83ce2d3b9e25","system_id":"levelo_inurba_marseille","lat":43.26955,"lon":5.38634,"is_reserved":false,"is_disabled":false,"rental_uris":{"android":"levelo://app?vid=56d16b6e-86c6-4d1f-b32a-83ce2d3b9e25","ios":"levelo://app?vid=56d16b6e-86c6-4d1f-b32a-83ce2d3b9e25"},"vehicle_type_id":"4","last_reported":1735042660,"current_range_meters":38800,"station_id":"ce4bhh92rcd13ifvqfh0","pricing_plan_id":"cebpf4jnsgd1na2vs0mg"},{"bike_id":"594a798a-beea-4921-ae20-bfc29ec6aedf","system_id":"levelo_inurba_marseille","lat":43.31161,"lon":5.38723,"is_reserved":false,"is_disabled":false,"rental_uris":{"android":"levelo://app?vid=594a798a-beea-4921-ae20-bfc29ec6aedf","ios":"levelo://app?vid=594a798a-beea-4921-ae20-bfc29ec6aedf"},"vehicle_type_id":"4","last_reported":1735042660,"current_range_meters":19200,"station_id":"ce4bgv12rcd13ifvqcp0","pricing_plan_id":"cebpf4jnsgd1na2vs0mg"},{"bike_id":"4a084c7e-6359-4acb-8f25-f015df249fc2","system_id":"levelo_inurba_marseille","lat":43.26496,"lon":5.3955,"is_reserved":false,"is_disabled":false,"rental_uris":{"android":"levelo://app?vid=4a084c7e-6359-4acb-8f25-f015df249fc2","ios":"levelo://app?vid=4a084c7e-6359-4acb-8f25-f015df249fc2"},"vehicle_type_id":"4","last_reported":1735042660,"current_range_meters":38000,"station_id":"ce4bhi12rcd13ifvqfq0","pricing_plan_id":"cebpf4jnsgd1na2vs0mg"},{"bike_id":"1d8b82ef-a5cd-41cb-8afd-841584ba90e9","system_id":"levelo_inurba_marseille","lat":43.28623,"lon":5.3636,"is_reserved":false,"is_disabled":false,"rental_uris":{"android":"levelo://app?vid=1d8b82ef-a5cd-41cb-8afd-841584ba90e9","ios":"levelo://app?vid=1d8b82ef-a5cd-41cb-8afd-841584ba90e9"},"vehicle_type_id":"4","last_reported":1735042660,"current_range_meters":38800,"station_id":"ce4bhah2rcd13ifvqej0","pricing_plan_id":"cebpf4jnsgd1na2vs0mg"},{"bike_id":"eaa93ee8-361b-4bd6-bc3c-a3486958f70d","system_id":"levelo_inurba_marseille","lat":43.29786,"lon":5.37112,"is_reserved":false,"is_disabled":false,"rental_uris":{"android":"levelo://app?vid=eaa93ee8-361b-4bd6-bc3c-a3486958f70d","ios":"levelo://app?vid=eaa93ee8-361b-4bd6-bc3c-a3486958f70d"},"vehicle_type_id":"4","last_reported":1735042660,"current_range_meters":38800,"station_id":"ce4bgop2rcd13ifvqc1g","pricing_plan_id":"cebpf4jnsgd1na2vs0mg"},{"bike_id":"cc8c49e9-0f51-4e24-bfa0-4604edc4f810","system_id":"levelo_inurba_marseille","lat":43.28478,"lon":5.38423,"is_reserved":false,"is_disabled":false,"rental_uris":{"android":"levelo://app?vid=cc8c49e9-0f51-4e24-bfa0-4604edc4f810","ios":"levelo://app?vid=cc8c49e9-0f51-4e24-bfa0-4604edc4f810"},"vehicle_type_id":"4","last_reported":1735042660,"current_range_meters":36800,"station_id":"ce4bh512rcd13ifvqe3g","pricing_plan_id":"cebpf4jnsgd1na2vs0mg"},{"bike_id":"e724f4e5-0922-4e36-91f4-8a4c9d514ff5","system_id":"levelo_inurba_marseille","lat":43.29821,"lon":5.36285,"is_reserved":false,"is_disabled":false,"rental_uris":{"android":"levelo://app?vid=e724f4e5-0922-4e36-91f4-8a4c9d514ff5","ios":"levelo://app?vid=e724f4e5-0922-4e36-91f4-8a4c9d514ff5"},"vehicle_type_id":"4","last_reported":1735042660,"current_range_meters":38000,"station_id":"ce4bgpp2rcd13ifvqc3g","pricing_plan_id":"cebpf4jnsgd1na2vs0mg"},{"bike_id":"b96880af-6b6d-40e1-ad0f-5c01870b0232","system_id":"levelo_inurba_marseille","lat":43.31438,"lon":5.40206,"is_reserved":false,"is_disabled":false,"rental_uris":{"android":"levelo://app?vid=b96880af-6b6d-40e1-ad0f-5c01870b0232","ios":"levelo://app?vid=b96880af-6b6d-40e1-ad0f-5c01870b0232"},"vehicle_type_id":"4","last_reported":1735042660,"current_range_meters":14800,"station_id":"","pricing_plan_id":"cebpf4jnsgd1na2vs0mg"},{"bike_id":"81503ac1-a3c4-4f04-a3f4-dcab4d599b35","system_id":"levelo_inurba_marseille","lat":43.30454,"lon":5.37901,"is_reserved":false,"is_disabled":false,"rental_uris":{"android":"levelo://app?vid=81503ac1-a3c4-4f04-a3f4-dcab4d599b35","ios":"levelo://app?vid=81503ac1-a3c4-4f04-a3f4-dcab4d599b35"},"vehicle_type_id":"4","last_reported":1735042660,"current_range_meters":39200,"station_id":"ce4bgup2rcd13ifvqcn0","pricing_plan_id":"cebpf4jnsgd1na2vs0mg"},{"bike_id":"d98f0b8a-1ef4-43b4-85a1-12b00b5f4de1","system_id":"levelo_inurba_marseille","lat":43.28413,"lon":5.35,"is_reserved":false,"is_disabled":false,"rental_uris":{"android":"levelo://app?vid=d98f0b8a-1ef4-43b4-85a1-12b00b5f4de1","ios":"levelo://app?vid=d98f0b8a-1ef4-43b4-85a1-12b00b5f4de1"},"vehicle_type_id":"4","last_reported":1735042660,"current_range_meters":26800,"station_id":"ce4bhbh2rcd13ifvqepg","pricing_plan_id":"cebpf4jnsgd1na2vs0mg"},{"bike_id":"dd3dbacf-347a-4a33-90ce-76bd61257750","system_id":"levelo_inurba_marseille","lat":43.32079,"lon":5.41556,"is_reserved":false,"is_disabled":true,"rental_uris":{"android":"levelo://app?vid=dd3dbacf-347a-4a33-90ce-76bd61257750","ios":"levelo://app?vid=dd3dbacf-347a-4a33-90ce-76bd61257750"},"vehicle_type_id":"4","last_reported":1735042660,"current_range_meters":38800,"station_id":"ce4bhq92rcd13ifvqhkg","pricing_plan_id":"cebpf4jnsgd1na2vs0mg"},{"bike_id":"fa7b6f51-07ff-4e1f-ba75-2880fb9ee1b2","system_id":"levelo_inurba_marseille","lat":43.24164,"lon":5.36412,"is_reserved":false,"is_disabled":false,"rental_uris":{"android":"levelo://app?vid=fa7b6f51-07ff-4e1f-ba75-2880fb9ee1b2","ios":"levelo://app?vid=fa7b6f51-07ff-4e1f-ba75-2880fb9ee1b2"},"vehicle_type_id":"4","last_reported":1735042660,"current_range_meters":36800,"station_id":"cpo36qri1sfpv3e86is0","pricing_plan_id":"cebpf4jnsgd1na2vs0mg"},{"bike_id":"71bbaaf0-30fa-412b-9088-f880a672af88","system_id":"levelo_inurba_marseille","lat":43.26024,"lon":5.37555,"is_reserved":false,"is_disabled":false,"rental_uris":{"android":"levelo://app?vid=71bbaaf0-30fa-412b-9088-f880a672af88","ios":"levelo://app?vid=71bbaaf0-30fa-412b-9088-f880a672af88"},"vehicle_type_id":"4","last_reported":1735042660,"current_range_meters":28000,"station_id":"ce4bhgh2rcd13ifvqfa0","pricing_plan_id":"cebpf4jnsgd1na2vs0mg"},{"bike_id":"b2f86a97-af08-41b2-8296-7e91d5858232","system_id":"levelo_inurba_marseille","lat":43.29003,"lon":5.35622,"is_reserved":false,"is_disabled":false,"rental_uris":{"android":"levelo://app?vid=b2f86a97-af08-41b2-8296-7e91d5858232","ios":"levelo://app?vid=b2f86a97-af08-41b2-8296-7e91d5858232"},"vehicle_type_id":"4","last_reported":1735042660,"current_range_meters":38800,"station_id":"ce4bhb92rcd13ifvqen0","pricing_plan_id":"cebpf4jnsgd1na2vs0mg"},{"bike_id":"a77224ad-3924-4a82-96f0-bfffbd9386b2","system_id":"levelo_inurba_marseille","lat":43.30581,"lon":5.37253,"is_reserved":false,"is_disabled":false,"rental_uris":{"android":"levelo://app?vid=a77224ad-3924-4a82-96f0-bfffbd9386b2","ios":"levelo://app?vid=a77224ad-3924-4a82-96f0-bfffbd9386b2"},"vehicle_type_id":"4","last_reported":1735042660,"current_range_meters":38800,"station_id":"ce4bgqh2rcd13ifvqc4g","pricing_plan_id":"cebpf4jnsgd1na2vs0mg"},{"bike_id":"980185bd-062a-4071-8686-3ad854900388","system_id":"levelo_inurba_marseille","lat":43.23194,"lon":5.39983,"is_reserved":false,"is_disabled":false,"rental_uris":{"android":"levelo://app?vid=980185bd-062a-4071-8686-3ad854900388","ios":"levelo://app?vid=980185bd-062a-4071-8686-3ad854900388"},"vehicle_type_id":"4","last_reported":1735042660,"current_range_meters":35200,"station_id":"ce4bhn12rcd13ifvqgqg","pricing_plan_id":"cebpf4jnsgd1na2vs0mg"},{"bike_id":"60556ffe-fb8e-4214-8807-9155356b75f3","system_id":"levelo_inurba_marseille","lat":43.31116,"lon":5.37766,"is_reserved":false,"is_disabled":false,"rental_uris":{"android":"levelo://app?vid=60556ffe-fb8e-4214-8807-9155356b75f3","ios":"levelo://app?vid=60556ffe-fb8e-4214-8807-9155356b75f3"},"vehicle_type_id":"4","last_reported":1735042660,"current_range_meters":30400,"station_id":"ce4bgt92rcd13ifvqcg0","pricing_plan_id":"cebpf4jnsgd1na2vs0mg"},{"bike_id":"acdc711f-0743-46ed-bcd0-b221ef49b1e8","system_id":"levelo_inurba_marseille","lat":43.26038,"lon":5.37569,"is_reserved":false,"is_disabled":false,"rental_uris":{"android":"levelo://app?vid=acdc711f-0743-46ed-bcd0-b221ef49b1e8","ios":"levelo://app?vid=acdc711f-0743-46ed-bcd0-b221ef49b1e8"},"vehicle_type_id":"4","last_reported":1735042660,"current_range_meters":39200,"station_id":"ce4bhgh2rcd13ifvqfa0","pricing_plan_id":"cebpf4jnsgd1na2vs0mg"},{"bike_id":"ba746732-e71a-4f84-b019-48330b84614a","system_id":"levelo_inurba_marseille","lat":43.26928,"lon":5.38914,"is_reserved":false,"is_disabled":false,"rental_uris":{"android":"levelo://app?vid=ba746732-e71a-4f84-b019-48330b84614a","ios":"levelo://app?vid=ba746732-e71a-4f84-b019-48330b84614a"},"vehicle_type_id":"4","last_reported":1735042660,"current_range_meters":26000,"station_id":"ce4bhhh2rcd13ifvqfl0","pricing_plan_id":"cebpf4jnsgd1na2vs0mg"},{"bike_id":"f68d00f0-3148-454c-ba66-1d06594aedb3","system_id":"levelo_inurba_marseille","lat":43.299021,"lon":5.381482,"is_reserved":false,"is_disabled":false,"rental_uris":{"android":"levelo://app?vid=f68d00f0-3148-454c-ba66-1d06594aedb3","ios":"levelo://app?vid=f68d00f0-3148-454c-ba66-1d06594aedb3"},"vehicle_type_id":"4","last_reported":1735042660,"current_range_meters":38800,"station_id":"ce4bgj12rcd13ifvqbc0","pricing_plan_id":"cebpf4jnsgd1na2vs0mg"},{"bike_id":"a87760bb-860a-41ff-af6f-797f55d9f68d","system_id":"levelo_inurba_marseille","lat":43.29783,"lon":5.39355,"is_reserved":false,"is_disabled":false,"rental_uris":{"android":"levelo://app?vid=a87760bb-860a-41ff-af6f-797f55d9f68d","ios":"levelo://app?vid=a87760bb-860a-41ff-af6f-797f55d9f68d"},"vehicle_type_id":"4","last_reported":1735042660,"current_range_meters":32400,"station_id":"chh1huq6cuj3fo74tm60","pricing_plan_id":"cebpf4jnsgd1na2vs0mg"},{"bike_id":"afcf14b8-6a9e-422b-b5b4-6431dc1184e3","system_id":"levelo_inurba_marseille","lat":43.29517,"lon":5.37506,"is_reserved":false,"is_disabled":false,"rental_uris":{"android":"levelo://app?vid=afcf14b8-6a9e-422b-b5b4-6431dc1184e3","ios":"levelo://app?vid=afcf14b8-6a9e-422b-b5b4-6431dc1184e3"},"vehicle_type_id":"4","last_reported":1735042660,"current_range_meters":30400,"station_id":"ce4bgkp2rcd13ifvqbmg","pricing_plan_id":"cebpf4jnsgd1na2vs0mg"},{"bike_id":"6461fbe7-1392-4647-a763-93dd6ce7130b","system_id":"levelo_inurba_marseille","lat":43.31688,"lon":5.40471,"is_reserved":false,"is_disabled":false,"rental_uris":{"android":"levelo://app?vid=6461fbe7-1392-4647-a763-93dd6ce7130b","ios":"levelo://app?vid=6461fbe7-1392-4647-a763-93dd6ce7130b"},"vehicle_type_id":"4","last_reported":1735042660,"current_range_meters":20000,"station_id":"ce4bh012rcd13ifvqd00","pricing_plan_id":"cebpf4jnsgd1na2vs0mg"},{"bike_id":"81b54c6c-e258-4e08-a66c-5f3e00bcee48","system_id":"levelo_inurba_marseille","lat":43.2861,"lon":5.37056,"is_reserved":false,"is_disabled":false,"rental_uris":{"android":"levelo://app?vid=81b54c6c-e258-4e08-a66c-5f3e00bcee48","ios":"levelo://app?vid=81b54c6c-e258-4e08-a66c-5f3e00bcee48"},"vehicle_type_id":"4","last_reported":1735042660,"current_range_meters":32000,"station_id":"ce4bht12rcd13ifvqi60","pricing_plan_id":"cebpf4jnsgd1na2vs0mg"},{"bike_id":"3c079412-698a-4ad7-872c-5c56e449290c","system_id":"levelo_inurba_marseille","lat":43.2315,"lon":5.43715,"is_reserved":false,"is_disabled":false,"rental_uris":{"android":"levelo://app?vid=3c079412-698a-4ad7-872c-5c56e449290c","ios":"levelo://app?vid=3c079412-698a-4ad7-872c-5c56e449290c"},"vehicle_type_id":"4","last_reported":1735042660,"current_range_meters":36800,"station_id":"ce4bhmp2rcd13ifvqgog","pricing_plan_id":"cebpf4jnsgd1na2vs0mg"},{"bike_id":"b69e5daa-6fc4-489e-9dfb-42d334521c66","system_id":"levelo_inurba_marseille","lat":43.28595,"lon":5.37059,"is_reserved":false,"is_disabled":false,"rental_uris":{"android":"levelo://app?vid=b69e5daa-6fc4-489e-9dfb-42d334521c66","ios":"levelo://app?vid=b69e5daa-6fc4-489e-9dfb-42d334521c66"},"vehicle_type_id":"4","last_reported":1735042660,"current_range_meters":38800,"station_id":"ce4bht12rcd13ifvqi60","pricing_plan_id":"cebpf4jnsgd1na2vs0mg"},{"bike_id":"eb493c73-faad-4c01-b4aa-27ac99a1af59","system_id":"levelo_inurba_marseille","lat":43.29634,"lon":5.37177,"is_reserved":false,"is_disabled":false,"rental_uris":{"android":"levelo://app?vid=eb493c73-faad-4c01-b4aa-27ac99a1af59","ios":"levelo://app?vid=eb493c73-faad-4c01-b4aa-27ac99a1af59"},"vehicle_type_id":"4","last_reported":1735042660,"current_range_meters":37600,"station_id":"ce4bgnh2rcd13ifvqc0g","pricing_plan_id":"cebpf4jnsgd1na2vs0mg"},{"bike_id":"cdfd034a-3e02-40a2-9d10-a134561ec453","system_id":"levelo_inurba_marseille","lat":43.29626,"lon":5.37172,"is_reserved":false,"is_disabled":false,"rental_uris":{"android":"levelo://app?vid=cdfd034a-3e02-40a2-9d10-a134561ec453","ios":"levelo://app?vid=cdfd034a-3e02-40a2-9d10-a134561ec453"},"vehicle_type_id":"4","last_reported":1735042660,"current_range_meters":23200,"station_id":"ce4bgnh2rcd13ifvqc0g","pricing_plan_id":"cebpf4jnsgd1na2vs0mg"},{"bike_id":"745b61e3-138e-43ed-a4d3-3d3125465bde","system_id":"levelo_inurba_marseille","lat":43.26568,"lon":5.39016,"is_reserved":false,"is_disabled":false,"rental_uris":{"android":"levelo://app?vid=745b61e3-138e-43ed-a4d3-3d3125465bde","ios":"levelo://app?vid=745b61e3-138e-43ed-a4d3-3d3125465bde"},"vehicle_type_id":"4","last_reported":1735042660,"current_range_meters":27600,"station_id":"ce4bhe12rcd13ifvqf30","pricing_plan_id":"cebpf4jnsgd1na2vs0mg"},{"bike_id":"ed1763fd-e266-4e6e-97ea-ed2d302cc781","system_id":"levelo_inurba_marseille","lat":43.28838,"lon":5.3933,"is_reserved":false,"is_disabled":false,"rental_uris":{"android":"levelo://app?vid=ed1763fd-e266-4e6e-97ea-ed2d302cc781","ios":"levelo://app?vid=ed1763fd-e266-4e6e-97ea-ed2d302cc781"},"vehicle_type_id":"4","last_reported":1735042660,"current_range_meters":27600,"station_id":"ce4bh2p2rcd13ifvqdi0","pricing_plan_id":"cebpf4jnsgd1na2vs0mg"},{"bike_id":"b51370d3-bf65-455a-bf39-32559fe3c141","system_id":"levelo_inurba_marseille","lat":43.31888,"lon":5.4073,"is_reserved":false,"is_disabled":false,"rental_uris":{"android":"levelo://app?vid=b51370d3-bf65-455a-bf39-32559fe3c141","ios":"levelo://app?vid=b51370d3-bf65-455a-bf39-32559fe3c141"},"vehicle_type_id":"4","last_reported":1735042660,"current_range_meters":38800,"station_id":"ce4bhq12rcd13ifvqhig","pricing_plan_id":"cebpf4jnsgd1na2vs0mg"},{"bike_id":"2c142a5c-197d-4ab9-b4c8-242a25a03421","system_id":"levelo_inurba_marseille","lat":43.27055,"lon":5.40245,"is_reserved":false,"is_disabled":false,"rental_uris":{"android":"levelo://app?vid=2c142a5c-197d-4ab9-b4c8-242a25a03421","ios":"levelo://app?vid=2c142a5c-197d-4ab9-b4c8-242a25a03421"},"vehicle_type_id":"4","last_reported":1735042660,"current_range_meters":25600,"station_id":"ce4bhk92rcd13ifvqgc0","pricing_plan_id":"cebpf4jnsgd1na2vs0mg"},{"bike_id":"3c4e0256-f269-4ddf-b844-1164990fa822","system_id":"levelo_inurba_marseille","lat":43.25818,"lon":5.39427,"is_reserved":false,"is_disabled":false,"rental_uris":{"android":"levelo://app?vid=3c4e0256-f269-4ddf-b844-1164990fa822","ios":"levelo://app?vid=3c4e0256-f269-4ddf-b844-1164990fa822"},"vehicle_type_id":"4","last_reported":1735042660,"current_range_meters":38800,"station_id":"ce4bhip2rcd13ifvqft0","pricing_plan_id":"cebpf4jnsgd1na2vs0mg"},{"bike_id":"6fc39219-982d-4feb-9b3b-e1ba4db40afe","system_id":"levelo_inurba_marseille","lat":43.29607,"lon":5.38094,"is_reserved":false,"is_disabled":false,"rental_uris":{"android":"levelo://app?vid=6fc39219-982d-4feb-9b3b-e1ba4db40afe","ios":"levelo://app?vid=6fc39219-982d-4feb-9b3b-e1ba4db40afe"},"vehicle_type_id":"4","last_reported":1735042660,"current_range_meters":38800,"station_id":"ce4bgl12rcd13ifvqbo0","pricing_plan_id":"cebpf4jnsgd1na2vs0mg"},{"bike_id":"e73e6057-e6e9-407b-a17e-f4e119a96aba","system_id":"levelo_inurba_marseille","lat":43.32106,"lon":5.36784,"is_reserved":false,"is_disabled":false,"rental_uris":{"android":"levelo://app?vid=e73e6057-e6e9-407b-a17e-f4e119a96aba","ios":"levelo://app?vid=e73e6057-e6e9-407b-a17e-f4e119a96aba"},"vehicle_type_id":"4","last_reported":1735042660,"current_range_meters":36800,"station_id":"ce4bhrh2rcd13ifvqhug","pricing_plan_id":"cebpf4jnsgd1na2vs0mg"},{"bike_id":"8c23ca40-0769-4ca8-b1f0-68e8fb86c54b","system_id":"levelo_inurba_marseille","lat":43.24999,"lon":5.3893,"is_reserved":false,"is_disabled":false,"rental_uris":{"android":"levelo://app?vid=8c23ca40-0769-4ca8-b1f0-68e8fb86c54b","ios":"levelo://app?vid=8c23ca40-0769-4ca8-b1f0-68e8fb86c54b"},"vehicle_type_id":"4","last_reported":1735042660,"current_range_meters":35600,"station_id":"ce4bhgp2rcd13ifvqfd0","pricing_plan_id":"cebpf4jnsgd1na2vs0mg"},{"bike_id":"ff19ce84-10b6-4ffc-b9fc-1625914b166c","system_id":"levelo_inurba_marseille","lat":43.297101,"lon":5.366211,"is_reserved":false,"is_disabled":false,"rental_uris":{"android":"levelo://app?vid=ff19ce84-10b6-4ffc-b9fc-1625914b166c","ios":"levelo://app?vid=ff19ce84-10b6-4ffc-b9fc-1625914b166c"},"vehicle_type_id":"4","last_reported":1735042660,"current_range_meters":25200,"station_id":"ce4bgn12rcd13ifvqbt0","pricing_plan_id":"cebpf4jnsgd1na2vs0mg"},{"bike_id":"8e3312ea-d43b-4e57-9ce7-0eaa54c27222","system_id":"levelo_inurba_marseille","lat":43.30475,"lon":5.37902,"is_reserved":false,"is_disabled":false,"rental_uris":{"android":"levelo://app?vid=8e3312ea-d43b-4e57-9ce7-0eaa54c27222","ios":"levelo://app?vid=8e3312ea-d43b-4e57-9ce7-0eaa54c27222"},"vehicle_type_id":"4","last_reported":1735042660,"current_range_meters":9200,"station_id":"ce4bgup2rcd13ifvqcn0","pricing_plan_id":"cebpf4jnsgd1na2vs0mg"},{"bike_id":"3aafb2be-db46-497e-b623-e07de60fb6bd","system_id":"levelo_inurba_marseille","lat":43.29963,"lon":5.38504,"is_reserved":false,"is_disabled":false,"rental_uris":{"android":"levelo://app?vid=3aafb2be-db46-497e-b623-e07de60fb6bd","ios":"levelo://app?vid=3aafb2be-db46-497e-b623-e07de60fb6bd"},"vehicle_type_id":"4","last_reported":1735042660,"current_range_meters":36400,"station_id":"ce4bgj92rcd13ifvqbd0","pricing_plan_id":"cebpf4jnsgd1na2vs0mg"},{"bike_id":"4bcb37c0-9249-499d-890c-0bbf93d29f8b","system_id":"levelo_inurba_marseille","lat":43.23181,"lon":5.35556,"is_reserved":false,"is_disabled":true,"rental_uris":{"android":"levelo://app?vid=4bcb37c0-9249-499d-890c-0bbf93d29f8b","ios":"levelo://app?vid=4bcb37c0-9249-499d-890c-0bbf93d29f8b"},"vehicle_type_id":"4","last_reported":1735042660,"current_range_meters":16800,"station_id":"ce4bhu92rcd13ifvqi70","pricing_plan_id":"cebpf4jnsgd1na2vs0mg"},{"bike_id":"94b596ff-97d4-43d8-82b1-3b1dc3efa14d","system_id":"levelo_inurba_marseille","lat":43.29563,"lon":5.37527,"is_reserved":false,"is_disabled":false,"rental_uris":{"android":"levelo://app?vid=94b596ff-97d4-43d8-82b1-3b1dc3efa14d","ios":"levelo://app?vid=94b596ff-97d4-43d8-82b1-3b1dc3efa14d"},"vehicle_type_id":"4","last_reported":1735042660,"current_range_meters":11600,"station_id":"ce4bgh92rcd13ifvqb50","pricing_plan_id":"cebpf4jnsgd1na2vs0mg"},{"bike_id":"e3055757-4e5c-471b-bc49-10de19223f16","system_id":"levelo_inurba_marseille","lat":43.32029,"lon":5.41572,"is_reserved":false,"is_disabled":false,"rental_uris":{"android":"levelo://app?vid=e3055757-4e5c-471b-bc49-10de19223f16","ios":"levelo://app?vid=e3055757-4e5c-471b-bc49-10de19223f16"},"vehicle_type_id":"4","last_reported":1735042660,"current_range_meters":35200,"station_id":"ce4bhq92rcd13ifvqhkg","pricing_plan_id":"cebpf4jnsgd1na2vs0mg"},{"bike_id":"ece552a8-7d6f-4514-baf8-cbbab16c1b88","system_id":"levelo_inurba_marseille","lat":43.30139,"lon":5.3742,"is_reserved":false,"is_disabled":true,"rental_uris":{"android":"levelo://app?vid=ece552a8-7d6f-4514-baf8-cbbab16c1b88","ios":"levelo://app?vid=ece552a8-7d6f-4514-baf8-cbbab16c1b88"},"vehicle_type_id":"4","last_reported":1735042660,"current_range_meters":18800,"station_id":"ce4bgs92rcd13ifvqcc0","pricing_plan_id":"cebpf4jnsgd1na2vs0mg"},{"bike_id":"5e655e90-2e8f-4565-afcc-f25ec6da8498","system_id":"levelo_inurba_marseille","lat":43.30142,"lon":5.38078,"is_reserved":false,"is_disabled":false,"rental_uris":{"android":"levelo://app?vid=5e655e90-2e8f-4565-afcc-f25ec6da8498","ios":"levelo://app?vid=5e655e90-2e8f-4565-afcc-f25ec6da8498"},"vehicle_type_id":"4","last_reported":1735042660,"current_range_meters":30000,"station_id":"ce4bgjp2rcd13ifvqbh0","pricing_plan_id":"cebpf4jnsgd1na2vs0mg"},{"bike_id":"fcb43cd2-aa2d-4084-9416-a240ac4d95bf","system_id":"levelo_inurba_marseille","lat":43.29275,"lon":5.40155,"is_reserved":false,"is_disabled":false,"rental_uris":{"android":"levelo://app?vid=fcb43cd2-aa2d-4084-9416-a240ac4d95bf","ios":"levelo://app?vid=fcb43cd2-aa2d-4084-9416-a240ac4d95bf"},"vehicle_type_id":"4","last_reported":1735042660,"current_range_meters":38400,"station_id":"ce4bh312rcd13ifvqdk0","pricing_plan_id":"cebpf4jnsgd1na2vs0mg"},{"bike_id":"3e0dffd7-74ff-4814-97ea-253d3881d122","system_id":"levelo_inurba_marseille","lat":43.29624,"lon":5.37718,"is_reserved":false,"is_disabled":false,"rental_uris":{"android":"levelo://app?vid=3e0dffd7-74ff-4814-97ea-253d3881d122","ios":"levelo://app?vid=3e0dffd7-74ff-4814-97ea-253d3881d122"},"vehicle_type_id":"4","last_reported":1735042660,"current_range_meters":35600,"station_id":"ce4bgi92rcd13ifvqb90","pricing_plan_id":"cebpf4jnsgd1na2vs0mg"},{"bike_id":"343bc065-3555-49ac-90b9-9f9335d87211","system_id":"levelo_inurba_marseille","lat":43.2582,"lon":5.39421,"is_reserved":false,"is_disabled":false,"rental_uris":{"android":"levelo://app?vid=343bc065-3555-49ac-90b9-9f9335d87211","ios":"levelo://app?vid=343bc065-3555-49ac-90b9-9f9335d87211"},"vehicle_type_id":"4","last_reported":1735042660,"current_range_meters":38800,"station_id":"ce4bhip2rcd13ifvqft0","pricing_plan_id":"cebpf4jnsgd1na2vs0mg"},{"bike_id":"ddbfce67-cbf8-4481-9917-3eaa981e7b2e","system_id":"levelo_inurba_marseille","lat":43.22936,"lon":5.35381,"is_reserved":false,"is_disabled":false,"rental_uris":{"android":"levelo://app?vid=ddbfce67-cbf8-4481-9917-3eaa981e7b2e","ios":"levelo://app?vid=ddbfce67-cbf8-4481-9917-3eaa981e7b2e"},"vehicle_type_id":"4","last_reported":1735042660,"current_range_meters":24800,"station_id":"cpo3532slgdg3j2ikp40","pricing_plan_id":"cebpf4jnsgd1na2vs0mg"},{"bike_id":"3f5e1def-7782-4aab-92b6-75714504714a","system_id":"levelo_inurba_marseille","lat":43.29026,"lon":5.38639,"is_reserved":false,"is_disabled":false,"rental_uris":{"android":"levelo://app?vid=3f5e1def-7782-4aab-92b6-75714504714a","ios":"levelo://app?vid=3f5e1def-7782-4aab-92b6-75714504714a"},"vehicle_type_id":"4","last_reported":1735042660,"current_range_meters":33200,"station_id":"ce4bh4p2rcd13ifvqe0g","pricing_plan_id":"cebpf4jnsgd1na2vs0mg"},{"bike_id":"dad6db58-f5bc-4da2-b0b4-3d5d1002166b","system_id":"levelo_inurba_marseille","lat":43.32104,"lon":5.36773,"is_reserved":false,"is_disabled":false,"rental_uris":{"android":"levelo://app?vid=dad6db58-f5bc-4da2-b0b4-3d5d1002166b","ios":"levelo://app?vid=dad6db58-f5bc-4da2-b0b4-3d5d1002166b"},"vehicle_type_id":"4","last_reported":1735042660,"current_range_meters":32000,"station_id":"ce4bhrh2rcd13ifvqhug","pricing_plan_id":"cebpf4jnsgd1na2vs0mg"},{"bike_id":"d215e6a3-2dbb-4240-82c4-dbdd5ce5595f","system_id":"levelo_inurba_marseille","lat":43.29894,"lon":5.3815,"is_reserved":false,"is_disabled":false,"rental_uris":{"android":"levelo://app?vid=d215e6a3-2dbb-4240-82c4-dbdd5ce5595f","ios":"levelo://app?vid=d215e6a3-2dbb-4240-82c4-dbdd5ce5595f"},"vehicle_type_id":"4","last_reported":1735042660,"current_range_meters":39200,"station_id":"ce4bgj12rcd13ifvqbc0","pricing_plan_id":"cebpf4jnsgd1na2vs0mg"},{"bike_id":"6ea7059b-6b20-4d32-90be-7553ce0be53a","system_id":"levelo_inurba_marseille","lat":43.29608,"lon":5.37711,"is_reserved":false,"is_disabled":false,"rental_uris":{"android":"levelo://app?vid=6ea7059b-6b20-4d32-90be-7553ce0be53a","ios":"levelo://app?vid=6ea7059b-6b20-4d32-90be-7553ce0be53a"},"vehicle_type_id":"4","last_reported":1735042660,"current_range_meters":38800,"station_id":"ce4bgi92rcd13ifvqb90","pricing_plan_id":"cebpf4jnsgd1na2vs0mg"},{"bike_id":"5314bcb2-cabd-451d-bc91-3e310b816f83","system_id":"levelo_inurba_marseille","lat":43.29926,"lon":5.37457,"is_reserved":false,"is_disabled":false,"rental_uris":{"android":"levelo://app?vid=5314bcb2-cabd-451d-bc91-3e310b816f83","ios":"levelo://app?vid=5314bcb2-cabd-451d-bc91-3e310b816f83"},"vehicle_type_id":"4","last_reported":1735042660,"current_range_meters":28000,"station_id":"ce4bgjh2rcd13ifvqbg0","pricing_plan_id":"cebpf4jnsgd1na2vs0mg"},{"bike_id":"eca594cc-7507-4ca1-bb28-4c48aaa1a04a","system_id":"levelo_inurba_marseille","lat":43.31712,"lon":5.43708,"is_reserved":false,"is_disabled":false,"rental_uris":{"android":"levelo://app?vid=eca594cc-7507-4ca1-bb28-4c48aaa1a04a","ios":"levelo://app?vid=eca594cc-7507-4ca1-bb28-4c48aaa1a04a"},"vehicle_type_id":"4","last_reported":1735042660,"current_range_meters":38800,"station_id":"ce4bhp92rcd13ifvqhcg","pricing_plan_id":"cebpf4jnsgd1na2vs0mg"},{"bike_id":"1f60e3a9-5bdb-49c1-9912-d728d8f40aa3","system_id":"levelo_inurba_marseille","lat":43.23146,"lon":5.43715,"is_reserved":false,"is_disabled":false,"rental_uris":{"android":"levelo://app?vid=1f60e3a9-5bdb-49c1-9912-d728d8f40aa3","ios":"levelo://app?vid=1f60e3a9-5bdb-49c1-9912-d728d8f40aa3"},"vehicle_type_id":"4","last_reported":1735042660,"current_range_meters":38000,"station_id":"ce4bhmp2rcd13ifvqgog","pricing_plan_id":"cebpf4jnsgd1na2vs0mg"},{"bike_id":"bc00a2d4-9c32-4a25-8c69-2473ecd614a9","system_id":"levelo_inurba_marseille","lat":43.3076,"lon":5.36803,"is_reserved":false,"is_disabled":false,"rental_uris":{"android":"levelo://app?vid=bc00a2d4-9c32-4a25-8c69-2473ecd614a9","ios":"levelo://app?vid=bc00a2d4-9c32-4a25-8c69-2473ecd614a9"},"vehicle_type_id":"4","last_reported":1735042660,"current_range_meters":33600,"station_id":"","pricing_plan_id":"cebpf4jnsgd1na2vs0mg"},{"bike_id":"60e080f3-7ac2-4536-b9e2-482b4db2f89f","system_id":"levelo_inurba_marseille","lat":43.30867,"lon":5.39652,"is_reserved":false,"is_disabled":false,"rental_uris":{"android":"levelo://app?vid=60e080f3-7ac2-4536-b9e2-482b4db2f89f","ios":"levelo://app?vid=60e080f3-7ac2-4536-b9e2-482b4db2f89f"},"vehicle_type_id":"4","last_reported":1735042660,"current_range_meters":32000,"station_id":"ce4bh012rcd13ifvqcv0","pricing_plan_id":"cebpf4jnsgd1na2vs0mg"},{"bike_id":"0090bec0-c359-419d-8896-39312b56605d","system_id":"levelo_inurba_marseille","lat":43.30654,"lon":5.40073,"is_reserved":false,"is_disabled":false,"rental_uris":{"android":"levelo://app?vid=0090bec0-c359-419d-8896-39312b56605d","ios":"levelo://app?vid=0090bec0-c359-419d-8896-39312b56605d"},"vehicle_type_id":"4","last_reported":1735042660,"current_range_meters":24800,"station_id":"ce4bh112rcd13ifvqda0","pricing_plan_id":"cebpf4jnsgd1na2vs0mg"},{"bike_id":"cf12c232-c3a3-4785-8fed-9cea9aa4f082","system_id":"levelo_inurba_marseille","lat":43.276876,"lon":5.388983,"is_reserved":false,"is_disabled":false,"rental_uris":{"android":"levelo://app?vid=cf12c232-c3a3-4785-8fed-9cea9aa4f082","ios":"levelo://app?vid=cf12c232-c3a3-4785-8fed-9cea9aa4f082"},"vehicle_type_id":"4","last_reported":1735042660,"current_range_meters":12400,"station_id":"ce4bhi12rcd13ifvqfo0","pricing_plan_id":"cebpf4jnsgd1na2vs0mg"},{"bike_id":"7d51f556-7ada-4233-9b93-03f8f492aa76","system_id":"levelo_inurba_marseille","lat":43.24536,"lon":5.39532,"is_reserved":false,"is_disabled":true,"rental_uris":{"android":"levelo://app?vid=7d51f556-7ada-4233-9b93-03f8f492aa76","ios":"levelo://app?vid=7d51f556-7ada-4233-9b93-03f8f492aa76"},"vehicle_type_id":"4","last_reported":1735042660,"current_range_meters":8000,"station_id":"ce4bhlp2rcd13ifvqgjg","pricing_plan_id":"cebpf4jnsgd1na2vs0mg"},{"bike_id":"1866340a-45b4-4bd2-ac73-392a4ecb2e72","system_id":"levelo_inurba_marseille","lat":43.29841,"lon":5.36273,"is_reserved":false,"is_disabled":false,"rental_uris":{"android":"levelo://app?vid=1866340a-45b4-4bd2-ac73-392a4ecb2e72","ios":"levelo://app?vid=1866340a-45b4-4bd2-ac73-392a4ecb2e72"},"vehicle_type_id":"4","last_reported":1735042660,"current_range_meters":39200,"station_id":"ce4bgpp2rcd13ifvqc3g","pricing_plan_id":"cebpf4jnsgd1na2vs0mg"},{"bike_id":"50ed8d09-e307-4804-8048-b331687ea0e6","system_id":"levelo_inurba_marseille","lat":43.24671,"lon":5.38157,"is_reserved":false,"is_disabled":false,"rental_uris":{"android":"levelo://app?vid=50ed8d09-e307-4804-8048-b331687ea0e6","ios":"levelo://app?vid=50ed8d09-e307-4804-8048-b331687ea0e6"},"vehicle_type_id":"4","last_reported":1735042660,"current_range_meters":38000,"station_id":"ce4bhih2rcd13ifvqfr0","pricing_plan_id":"cebpf4jnsgd1na2vs0mg"},{"bike_id":"5c1e538e-42a1-46a8-bf52-6e3fd2bbf192","system_id":"levelo_inurba_marseille","lat":43.29294,"lon":5.37465,"is_reserved":false,"is_disabled":false,"rental_uris":{"android":"levelo://app?vid=5c1e538e-42a1-46a8-bf52-6e3fd2bbf192","ios":"levelo://app?vid=5c1e538e-42a1-46a8-bf52-6e3fd2bbf192"},"vehicle_type_id":"4","last_reported":1735042660,"current_range_meters":38800,"station_id":"ce4bgi12rcd13ifvqb70","pricing_plan_id":"cebpf4jnsgd1na2vs0mg"},{"bike_id":"815cf719-9fbb-4c8e-92c0-525f440dfd5e","system_id":"levelo_inurba_marseille","lat":43.26789,"lon":5.39415,"is_reserved":false,"is_disabled":false,"rental_uris":{"android":"levelo://app?vid=815cf719-9fbb-4c8e-92c0-525f440dfd5e","ios":"levelo://app?vid=815cf719-9fbb-4c8e-92c0-525f440dfd5e"},"vehicle_type_id":"4","last_reported":1735042660,"current_range_meters":27200,"station_id":"ce4bhh12rcd13ifvqfg0","pricing_plan_id":"cebpf4jnsgd1na2vs0mg"},{"bike_id":"c2b13e1f-27c5-4ff9-b780-21ce47c387ee","system_id":"levelo_inurba_marseille","lat":43.23182,"lon":5.39987,"is_reserved":false,"is_disabled":false,"rental_uris":{"android":"levelo://app?vid=c2b13e1f-27c5-4ff9-b780-21ce47c387ee","ios":"levelo://app?vid=c2b13e1f-27c5-4ff9-b780-21ce47c387ee"},"vehicle_type_id":"4","last_reported":1735042660,"current_range_meters":38800,"station_id":"ce4bhn12rcd13ifvqgqg","pricing_plan_id":"cebpf4jnsgd1na2vs0mg"},{"bike_id":"836d944f-6d75-4c17-b70a-d071158594dd","system_id":"levelo_inurba_marseille","lat":43.27402,"lon":5.39475,"is_reserved":false,"is_disabled":false,"rental_uris":{"android":"levelo://app?vid=836d944f-6d75-4c17-b70a-d071158594dd","ios":"levelo://app?vid=836d944f-6d75-4c17-b70a-d071158594dd"},"vehicle_type_id":"4","last_reported":1735042660,"current_range_meters":34000,"station_id":"ce4bhdp2rcd13ifvqf20","pricing_plan_id":"cebpf4jnsgd1na2vs0mg"},{"bike_id":"4ac7aebd-1d24-4b30-8594-815221961184","system_id":"levelo_inurba_marseille","lat":43.29709,"lon":5.3772,"is_reserved":false,"is_disabled":false,"rental_uris":{"android":"levelo://app?vid=4ac7aebd-1d24-4b30-8594-815221961184","ios":"levelo://app?vid=4ac7aebd-1d24-4b30-8594-815221961184"},"vehicle_type_id":"4","last_reported":1735042660,"current_range_meters":28400,"station_id":"ce4bgkh2rcd13ifvqbl0","pricing_plan_id":"cebpf4jnsgd1na2vs0mg"},{"bike_id":"13c39096-92de-47dd-a9ee-5b5cda0c5bbc","system_id":"levelo_inurba_marseille","lat":43.24649,"lon":5.38896,"is_reserved":false,"is_disabled":false,"rental_uris":{"android":"levelo://app?vid=13c39096-92de-47dd-a9ee-5b5cda0c5bbc","ios":"levelo://app?vid=13c39096-92de-47dd-a9ee-5b5cda0c5bbc"},"vehicle_type_id":"4","last_reported":1735042660,"current_range_meters":31200,"station_id":"ce4bhg12rcd13ifvqf60","pricing_plan_id":"cebpf4jnsgd1na2vs0mg"},{"bike_id":"c787057b-d2c3-47cb-afbf-5583f193229c","system_id":"levelo_inurba_marseille","lat":43.24646,"lon":5.3891,"is_reserved":false,"is_disabled":false,"rental_uris":{"android":"levelo://app?vid=c787057b-d2c3-47cb-afbf-5583f193229c","ios":"levelo://app?vid=c787057b-d2c3-47cb-afbf-5583f193229c"},"vehicle_type_id":"4","last_reported":1735042660,"current_range_meters":38000,"station_id":"ce4bhg12rcd13ifvqf60","pricing_plan_id":"cebpf4jnsgd1na2vs0mg"},{"bike_id":"d1408c54-5d72-4a56-aaa4-4833cdef7353","system_id":"levelo_inurba_marseille","lat":43.29147,"lon":5.35815,"is_reserved":false,"is_disabled":false,"rental_uris":{"android":"levelo://app?vid=d1408c54-5d72-4a56-aaa4-4833cdef7353","ios":"levelo://app?vid=d1408c54-5d72-4a56-aaa4-4833cdef7353"},"vehicle_type_id":"4","last_reported":1735042660,"current_range_meters":33200,"station_id":"ce4bhb12rcd13ifvqel0","pricing_plan_id":"cebpf4jnsgd1na2vs0mg"},{"bike_id":"e4b16887-d49e-4241-8376-68fc88a85365","system_id":"levelo_inurba_marseille","lat":43.301301,"lon":5.398747,"is_reserved":false,"is_disabled":false,"rental_uris":{"android":"levelo://app?vid=e4b16887-d49e-4241-8376-68fc88a85365","ios":"levelo://app?vid=e4b16887-d49e-4241-8376-68fc88a85365"},"vehicle_type_id":"4","last_reported":1735042660,"current_range_meters":37600,"station_id":"ce4bh0h2rcd13ifvqd40","pricing_plan_id":"cebpf4jnsgd1na2vs0mg"},{"bike_id":"eb416572-2019-4f11-9a74-eae48a595a96","system_id":"levelo_inurba_marseille","lat":43.297862,"lon":5.393478,"is_reserved":false,"is_disabled":false,"rental_uris":{"android":"levelo://app?vid=eb416572-2019-4f11-9a74-eae48a595a96","ios":"levelo://app?vid=eb416572-2019-4f11-9a74-eae48a595a96"},"vehicle_type_id":"4","last_reported":1735042660,"current_range_meters":38800,"station_id":"chh1huq6cuj3fo74tm60","pricing_plan_id":"cebpf4jnsgd1na2vs0mg"},{"bike_id":"2d085a5d-b72c-4ee9-9e33-dbe37f0b8dfd","system_id":"levelo_inurba_marseille","lat":43.29568,"lon":5.37501,"is_reserved":false,"is_disabled":false,"rental_uris":{"android":"levelo://app?vid=2d085a5d-b72c-4ee9-9e33-dbe37f0b8dfd","ios":"levelo://app?vid=2d085a5d-b72c-4ee9-9e33-dbe37f0b8dfd"},"vehicle_type_id":"4","last_reported":1735042660,"current_range_meters":37600,"station_id":"ce4bgh92rcd13ifvqb50","pricing_plan_id":"cebpf4jnsgd1na2vs0mg"},{"bike_id":"69630e74-b2d6-4eaa-90ff-389ab3b57213","system_id":"levelo_inurba_marseille","lat":43.2836,"lon":5.38626,"is_reserved":false,"is_disabled":false,"rental_uris":{"android":"levelo://app?vid=69630e74-b2d6-4eaa-90ff-389ab3b57213","ios":"levelo://app?vid=69630e74-b2d6-4eaa-90ff-389ab3b57213"},"vehicle_type_id":"4","last_reported":1735042660,"current_range_meters":38800,"station_id":"ce4bh492rcd13ifvqdvg","pricing_plan_id":"cebpf4jnsgd1na2vs0mg"},{"bike_id":"8066f755-db4c-4d64-90dc-1bd394e94fa2","system_id":"levelo_inurba_marseille","lat":43.330188,"lon":5.390442,"is_reserved":false,"is_disabled":false,"rental_uris":{"android":"levelo://app?vid=8066f755-db4c-4d64-90dc-1bd394e94fa2","ios":"levelo://app?vid=8066f755-db4c-4d64-90dc-1bd394e94fa2"},"vehicle_type_id":"4","last_reported":1735042660,"current_range_meters":38800,"station_id":"ce4bhr92rcd13ifvqhrg","pricing_plan_id":"cebpf4jnsgd1na2vs0mg"},{"bike_id":"4e6d0ca2-6374-490a-b48e-6cba90785a4f","system_id":"levelo_inurba_marseille","lat":43.24646,"lon":5.389,"is_reserved":false,"is_disabled":false,"rental_uris":{"android":"levelo://app?vid=4e6d0ca2-6374-490a-b48e-6cba90785a4f","ios":"levelo://app?vid=4e6d0ca2-6374-490a-b48e-6cba90785a4f"},"vehicle_type_id":"4","last_reported":1735042660,"current_range_meters":22800,"station_id":"ce4bhg12rcd13ifvqf60","pricing_plan_id":"cebpf4jnsgd1na2vs0mg"},{"bike_id":"6c45c180-c790-4272-b263-031e2128fc6a","system_id":"levelo_inurba_marseille","lat":43.29087,"lon":5.38136,"is_reserved":false,"is_disabled":false,"rental_uris":{"android":"levelo://app?vid=6c45c180-c790-4272-b263-031e2128fc6a","ios":"levelo://app?vid=6c45c180-c790-4272-b263-031e2128fc6a"},"vehicle_type_id":"4","last_reported":1735042660,"current_range_meters":35200,"station_id":"ce4bh512rcd13ifvqe2g","pricing_plan_id":"cebpf4jnsgd1na2vs0mg"},{"bike_id":"a2da62ed-c4ca-4443-a1a1-134c277a106e","system_id":"levelo_inurba_marseille","lat":43.26938,"lon":5.40254,"is_reserved":false,"is_disabled":false,"rental_uris":{"android":"levelo://app?vid=a2da62ed-c4ca-4443-a1a1-134c277a106e","ios":"levelo://app?vid=a2da62ed-c4ca-4443-a1a1-134c277a106e"},"vehicle_type_id":"4","last_reported":1735042660,"current_range_meters":34000,"station_id":"cjm6bp8fraef2m0cb0m0","pricing_plan_id":"cebpf4jnsgd1na2vs0mg"},{"bike_id":"c09ede33-5273-4935-9b4a-b59bf1f1092a","system_id":"levelo_inurba_marseille","lat":43.25823,"lon":5.39427,"is_reserved":false,"is_disabled":false,"rental_uris":{"android":"levelo://app?vid=c09ede33-5273-4935-9b4a-b59bf1f1092a","ios":"levelo://app?vid=c09ede33-5273-4935-9b4a-b59bf1f1092a"},"vehicle_type_id":"4","last_reported":1735042660,"current_range_meters":17200,"station_id":"ce4bhip2rcd13ifvqft0","pricing_plan_id":"cebpf4jnsgd1na2vs0mg"},{"bike_id":"89dde3a7-e099-423e-8e09-63b62753e8b9","system_id":"levelo_inurba_marseille","lat":43.25828,"lon":5.3943,"is_reserved":false,"is_disabled":false,"rental_uris":{"android":"levelo://app?vid=89dde3a7-e099-423e-8e09-63b62753e8b9","ios":"levelo://app?vid=89dde3a7-e099-423e-8e09-63b62753e8b9"},"vehicle_type_id":"4","last_reported":1735042660,"current_range_meters":28400,"station_id":"ce4bhip2rcd13ifvqft0","pricing_plan_id":"cebpf4jnsgd1na2vs0mg"},{"bike_id":"e6f255e7-c3a0-4128-a0b1-f18581ab0420","system_id":"levelo_inurba_marseille","lat":43.29884,"lon":5.38152,"is_reserved":false,"is_disabled":false,"rental_uris":{"android":"levelo://app?vid=e6f255e7-c3a0-4128-a0b1-f18581ab0420","ios":"levelo://app?vid=e6f255e7-c3a0-4128-a0b1-f18581ab0420"},"vehicle_type_id":"4","last_reported":1735042660,"current_range_meters":37600,"station_id":"ce4bgj12rcd13ifvqbc0","pricing_plan_id":"cebpf4jnsgd1na2vs0mg"},{"bike_id":"ba65d07a-204d-4be9-96e0-b91b2ca6d251","system_id":"levelo_inurba_marseille","lat":43.26929,"lon":5.40257,"is_reserved":false,"is_disabled":false,"rental_uris":{"android":"levelo://app?vid=ba65d07a-204d-4be9-96e0-b91b2ca6d251","ios":"levelo://app?vid=ba65d07a-204d-4be9-96e0-b91b2ca6d251"},"vehicle_type_id":"4","last_reported":1735042660,"current_range_meters":38800,"station_id":"cjm6bp8fraef2m0cb0m0","pricing_plan_id":"cebpf4jnsgd1na2vs0mg"},{"bike_id":"cb8bc352-014b-4525-9e65-2a0e8402a18f","system_id":"levelo_inurba_marseille","lat":43.29032,"lon":5.39965,"is_reserved":false,"is_disabled":false,"rental_uris":{"android":"levelo://app?vid=cb8bc352-014b-4525-9e65-2a0e8402a18f","ios":"levelo://app?vid=cb8bc352-014b-4525-9e65-2a0e8402a18f"},"vehicle_type_id":"4","last_reported":1735042660,"current_range_meters":38800,"station_id":"ce4bh392rcd13ifvqdm0","pricing_plan_id":"cebpf4jnsgd1na2vs0mg"},{"bike_id":"43472636-57cd-411f-b3bd-d2bda7647d04","system_id":"levelo_inurba_marseille","lat":43.26935,"lon":5.40256,"is_reserved":false,"is_disabled":false,"rental_uris":{"android":"levelo://app?vid=43472636-57cd-411f-b3bd-d2bda7647d04","ios":"levelo://app?vid=43472636-57cd-411f-b3bd-d2bda7647d04"},"vehicle_type_id":"4","last_reported":1735042660,"current_range_meters":38800,"station_id":"cjm6bp8fraef2m0cb0m0","pricing_plan_id":"cebpf4jnsgd1na2vs0mg"},{"bike_id":"e7547386-25f8-4991-bbba-4cbb031b3664","system_id":"levelo_inurba_marseille","lat":43.291926,"lon":5.39328,"is_reserved":false,"is_disabled":false,"rental_uris":{"android":"levelo://app?vid=e7547386-25f8-4991-bbba-4cbb031b3664","ios":"levelo://app?vid=e7547386-25f8-4991-bbba-4cbb031b3664"},"vehicle_type_id":"4","last_reported":1735042660,"current_range_meters":38000,"station_id":"ce4bh192rcd13ifvqdd0","pricing_plan_id":"cebpf4jnsgd1na2vs0mg"},{"bike_id":"4de59872-1f9a-48bc-bb42-8f3a091a0cf8","system_id":"levelo_inurba_marseille","lat":43.299793,"lon":5.37179,"is_reserved":false,"is_disabled":false,"rental_uris":{"android":"levelo://app?vid=4de59872-1f9a-48bc-bb42-8f3a091a0cf8","ios":"levelo://app?vid=4de59872-1f9a-48bc-bb42-8f3a091a0cf8"},"vehicle_type_id":"4","last_reported":1735042660,"current_range_meters":35200,"station_id":"ce4bgr92rcd13ifvqc7g","pricing_plan_id":"cebpf4jnsgd1na2vs0mg"},{"bike_id":"58975c95-cbcc-4de2-ac6a-2c5c03741a00","system_id":"levelo_inurba_marseille","lat":43.27067,"lon":5.42279,"is_reserved":false,"is_disabled":false,"rental_uris":{"android":"levelo://app?vid=58975c95-cbcc-4de2-ac6a-2c5c03741a00","ios":"levelo://app?vid=58975c95-cbcc-4de2-ac6a-2c5c03741a00"},"vehicle_type_id":"4","last_reported":1735042660,"current_range_meters":38800,"station_id":"ce4bhk92rcd13ifvqgb0","pricing_plan_id":"cebpf4jnsgd1na2vs0mg"},{"bike_id":"148e4798-5139-4feb-a3e9-ef5956394402","system_id":"levelo_inurba_marseille","lat":43.29705,"lon":5.36606,"is_reserved":false,"is_disabled":false,"rental_uris":{"android":"levelo://app?vid=148e4798-5139-4feb-a3e9-ef5956394402","ios":"levelo://app?vid=148e4798-5139-4feb-a3e9-ef5956394402"},"vehicle_type_id":"4","last_reported":1735042660,"current_range_meters":11600,"station_id":"ce4bgn12rcd13ifvqbt0","pricing_plan_id":"cebpf4jnsgd1na2vs0mg"},{"bike_id":"8aacc4b1-5b3b-4399-af62-3df24b068f1c","system_id":"levelo_inurba_marseille","lat":43.28254,"lon":5.35075,"is_reserved":false,"is_disabled":false,"rental_uris":{"android":"levelo://app?vid=8aacc4b1-5b3b-4399-af62-3df24b068f1c","ios":"levelo://app?vid=8aacc4b1-5b3b-4399-af62-3df24b068f1c"},"vehicle_type_id":"4","last_reported":1735042660,"current_range_meters":36800,"station_id":"ce4bhbp2rcd13ifvqerg","pricing_plan_id":"cebpf4jnsgd1na2vs0mg"},{"bike_id":"fb0e6359-3fe6-4009-9014-99d06d5c7222","system_id":"levelo_inurba_marseille","lat":43.2962,"lon":5.37155,"is_reserved":false,"is_disabled":false,"rental_uris":{"android":"levelo://app?vid=fb0e6359-3fe6-4009-9014-99d06d5c7222","ios":"levelo://app?vid=fb0e6359-3fe6-4009-9014-99d06d5c7222"},"vehicle_type_id":"4","last_reported":1735042660,"current_range_meters":35200,"station_id":"ce4bgnh2rcd13ifvqc0g","pricing_plan_id":"cebpf4jnsgd1na2vs0mg"},{"bike_id":"e99546a0-b289-48d7-96f5-5f2a5b9577f1","system_id":"levelo_inurba_marseille","lat":43.27369,"lon":5.36257,"is_reserved":false,"is_disabled":false,"rental_uris":{"android":"levelo://app?vid=e99546a0-b289-48d7-96f5-5f2a5b9577f1","ios":"levelo://app?vid=e99546a0-b289-48d7-96f5-5f2a5b9577f1"},"vehicle_type_id":"4","last_reported":1735042660,"current_range_meters":18000,"station_id":"ce4bhbh2rcd13ifvqeo0","pricing_plan_id":"cebpf4jnsgd1na2vs0mg"},{"bike_id":"d418db26-0dc5-4e9e-8fde-b36764ee5dcd","system_id":"levelo_inurba_marseille","lat":43.2909,"lon":5.38135,"is_reserved":false,"is_disabled":false,"rental_uris":{"android":"levelo://app?vid=d418db26-0dc5-4e9e-8fde-b36764ee5dcd","ios":"levelo://app?vid=d418db26-0dc5-4e9e-8fde-b36764ee5dcd"},"vehicle_type_id":"4","last_reported":1735042660,"current_range_meters":19600,"station_id":"ce4bh512rcd13ifvqe2g","pricing_plan_id":"cebpf4jnsgd1na2vs0mg"},{"bike_id":"5783f472-7468-4bde-a8a4-e8699731eecc","system_id":"levelo_inurba_marseille","lat":43.32018,"lon":5.41577,"is_reserved":false,"is_disabled":false,"rental_uris":{"android":"levelo://app?vid=5783f472-7468-4bde-a8a4-e8699731eecc","ios":"levelo://app?vid=5783f472-7468-4bde-a8a4-e8699731eecc"},"vehicle_type_id":"4","last_reported":1735042660,"current_range_meters":32000,"station_id":"ce4bhq92rcd13ifvqhkg","pricing_plan_id":"cebpf4jnsgd1na2vs0mg"},{"bike_id":"1bfb59b3-5d70-4c84-8077-a6771e996a2b","system_id":"levelo_inurba_marseille","lat":43.29935,"lon":5.36539,"is_reserved":false,"is_disabled":false,"rental_uris":{"android":"levelo://app?vid=1bfb59b3-5d70-4c84-8077-a6771e996a2b","ios":"levelo://app?vid=1bfb59b3-5d70-4c84-8077-a6771e996a2b"},"vehicle_type_id":"4","last_reported":1735042660,"current_range_meters":36400,"station_id":"ce4bgm92rcd13ifvqbr0","pricing_plan_id":"cebpf4jnsgd1na2vs0mg"},{"bike_id":"30a48f1b-7bcd-4f40-8168-cf8c460661fa","system_id":"levelo_inurba_marseille","lat":43.25715,"lon":5.41106,"is_reserved":false,"is_disabled":false,"rental_uris":{"android":"levelo://app?vid=30a48f1b-7bcd-4f40-8168-cf8c460661fa","ios":"levelo://app?vid=30a48f1b-7bcd-4f40-8168-cf8c460661fa"},"vehicle_type_id":"4","last_reported":1735042660,"current_range_meters":20800,"station_id":"ce4bhkp2rcd13ifvqgd0","pricing_plan_id":"cebpf4jnsgd1na2vs0mg"},{"bike_id":"aa5d5d16-a2f6-4c81-8cd4-c9ee96949ae4","system_id":"levelo_inurba_marseille","lat":43.23181,"lon":5.39973,"is_reserved":false,"is_disabled":false,"rental_uris":{"android":"levelo://app?vid=aa5d5d16-a2f6-4c81-8cd4-c9ee96949ae4","ios":"levelo://app?vid=aa5d5d16-a2f6-4c81-8cd4-c9ee96949ae4"},"vehicle_type_id":"4","last_reported":1735042660,"current_range_meters":38800,"station_id":"ce4bhn12rcd13ifvqgqg","pricing_plan_id":"cebpf4jnsgd1na2vs0mg"},{"bike_id":"68db534e-0067-497a-971b-c0ac21bdd722","system_id":"levelo_inurba_marseille","lat":43.26147,"lon":5.37907,"is_reserved":false,"is_disabled":false,"rental_uris":{"android":"levelo://app?vid=68db534e-0067-497a-971b-c0ac21bdd722","ios":"levelo://app?vid=68db534e-0067-497a-971b-c0ac21bdd722"},"vehicle_type_id":"4","last_reported":1735042660,"current_range_meters":34800,"station_id":"","pricing_plan_id":"cebpf4jnsgd1na2vs0mg"},{"bike_id":"1e73c81f-7d8d-42c9-8216-05e0c8d2e4e9","system_id":"levelo_inurba_marseille","lat":43.296159,"lon":5.377224,"is_reserved":false,"is_disabled":false,"rental_uris":{"android":"levelo://app?vid=1e73c81f-7d8d-42c9-8216-05e0c8d2e4e9","ios":"levelo://app?vid=1e73c81f-7d8d-42c9-8216-05e0c8d2e4e9"},"vehicle_type_id":"4","last_reported":1735042660,"current_range_meters":38800,"station_id":"ce4bgi92rcd13ifvqb90","pricing_plan_id":"cebpf4jnsgd1na2vs0mg"},{"bike_id":"180c51e8-707b-4d3a-bce6-60033fd0e9cc","system_id":"levelo_inurba_marseille","lat":43.29894,"lon":5.38157,"is_reserved":false,"is_disabled":false,"rental_uris":{"android":"levelo://app?vid=180c51e8-707b-4d3a-bce6-60033fd0e9cc","ios":"levelo://app?vid=180c51e8-707b-4d3a-bce6-60033fd0e9cc"},"vehicle_type_id":"4","last_reported":1735042660,"current_range_meters":38800,"station_id":"ce4bgj12rcd13ifvqbc0","pricing_plan_id":"cebpf4jnsgd1na2vs0mg"},{"bike_id":"bea19fdb-8eb3-4f91-a4cd-d59bd8812761","system_id":"levelo_inurba_marseille","lat":43.23149,"lon":5.43717,"is_reserved":false,"is_disabled":false,"rental_uris":{"android":"levelo://app?vid=bea19fdb-8eb3-4f91-a4cd-d59bd8812761","ios":"levelo://app?vid=bea19fdb-8eb3-4f91-a4cd-d59bd8812761"},"vehicle_type_id":"4","last_reported":1735042660,"current_range_meters":38800,"station_id":"ce4bhmp2rcd13ifvqgog","pricing_plan_id":"cebpf4jnsgd1na2vs0mg"},{"bike_id":"673ed0fe-3027-4e1f-9efc-2804b0e32190","system_id":"levelo_inurba_marseille","lat":43.26682,"lon":5.38269,"is_reserved":false,"is_disabled":false,"rental_uris":{"android":"levelo://app?vid=673ed0fe-3027-4e1f-9efc-2804b0e32190","ios":"levelo://app?vid=673ed0fe-3027-4e1f-9efc-2804b0e32190"},"vehicle_type_id":"4","last_reported":1735042660,"current_range_meters":33600,"station_id":"ce4bhg92rcd13ifvqf90","pricing_plan_id":"cebpf4jnsgd1na2vs0mg"},{"bike_id":"f8c860b8-7b3e-41b3-8595-785bdfb7ad95","system_id":"levelo_inurba_marseille","lat":43.30793,"lon":5.38152,"is_reserved":false,"is_disabled":false,"rental_uris":{"android":"levelo://app?vid=f8c860b8-7b3e-41b3-8595-785bdfb7ad95","ios":"levelo://app?vid=f8c860b8-7b3e-41b3-8595-785bdfb7ad95"},"vehicle_type_id":"4","last_reported":1735042660,"current_range_meters":32800,"station_id":"ce4bgt12rcd13ifvqce0","pricing_plan_id":"cebpf4jnsgd1na2vs0mg"},{"bike_id":"5b9e7b26-4207-47e8-9946-2953ce319ef5","system_id":"levelo_inurba_marseille","lat":43.25114,"lon":5.40322,"is_reserved":false,"is_disabled":false,"rental_uris":{"android":"levelo://app?vid=5b9e7b26-4207-47e8-9946-2953ce319ef5","ios":"levelo://app?vid=5b9e7b26-4207-47e8-9946-2953ce319ef5"},"vehicle_type_id":"4","last_reported":1735042660,"current_range_meters":22400,"station_id":"ce4bhlh2rcd13ifvqgig","pricing_plan_id":"cebpf4jnsgd1na2vs0mg"},{"bike_id":"4c5312bc-52a9-41e2-a4d0-238589094bed","system_id":"levelo_inurba_marseille","lat":43.29611,"lon":5.3773,"is_reserved":false,"is_disabled":false,"rental_uris":{"android":"levelo://app?vid=4c5312bc-52a9-41e2-a4d0-238589094bed","ios":"levelo://app?vid=4c5312bc-52a9-41e2-a4d0-238589094bed"},"vehicle_type_id":"4","last_reported":1735042660,"current_range_meters":38800,"station_id":"ce4bgi92rcd13ifvqb90","pricing_plan_id":"cebpf4jnsgd1na2vs0mg"},{"bike_id":"8aa29a25-71b0-47b4-8794-3774a275bf08","system_id":"levelo_inurba_marseille","lat":43.27171,"lon":5.40989,"is_reserved":false,"is_disabled":false,"rental_uris":{"android":"levelo://app?vid=8aa29a25-71b0-47b4-8794-3774a275bf08","ios":"levelo://app?vid=8aa29a25-71b0-47b4-8794-3774a275bf08"},"vehicle_type_id":"4","last_reported":1735042660,"current_range_meters":14800,"station_id":"ce4bhl12rcd13ifvqgf0","pricing_plan_id":"cebpf4jnsgd1na2vs0mg"},{"bike_id":"50771762-6294-492b-bae5-db8bd88e73ed","system_id":"levelo_inurba_marseille","lat":43.27425,"lon":5.39414,"is_reserved":false,"is_disabled":false,"rental_uris":{"android":"levelo://app?vid=50771762-6294-492b-bae5-db8bd88e73ed","ios":"levelo://app?vid=50771762-6294-492b-bae5-db8bd88e73ed"},"vehicle_type_id":"4","last_reported":1735042660,"current_range_meters":39200,"station_id":"ce4bhdp2rcd13ifvqf20","pricing_plan_id":"cebpf4jnsgd1na2vs0mg"},{"bike_id":"dce463c5-9ff1-4f15-a0e6-aa5b5723205f","system_id":"levelo_inurba_marseille","lat":43.29723,"lon":5.37685,"is_reserved":false,"is_disabled":false,"rental_uris":{"android":"levelo://app?vid=dce463c5-9ff1-4f15-a0e6-aa5b5723205f","ios":"levelo://app?vid=dce463c5-9ff1-4f15-a0e6-aa5b5723205f"},"vehicle_type_id":"4","last_reported":1735042660,"current_range_meters":38400,"station_id":"ce4bgkh2rcd13ifvqbl0","pricing_plan_id":"cebpf4jnsgd1na2vs0mg"},{"bike_id":"b9248108-92a5-4b77-ba17-3289b105396b","system_id":"levelo_inurba_marseille","lat":43.31728,"lon":5.40457,"is_reserved":false,"is_disabled":true,"rental_uris":{"android":"levelo://app?vid=b9248108-92a5-4b77-ba17-3289b105396b","ios":"levelo://app?vid=b9248108-92a5-4b77-ba17-3289b105396b"},"vehicle_type_id":"4","last_reported":1735042660,"current_range_meters":2800,"station_id":"ce4bh012rcd13ifvqd00","pricing_plan_id":"cebpf4jnsgd1na2vs0mg"},{"bike_id":"60cae0ba-cb54-4a0e-9e6a-3dce2787985d","system_id":"levelo_inurba_marseille","lat":43.29572,"lon":5.39961,"is_reserved":false,"is_disabled":false,"rental_uris":{"android":"levelo://app?vid=60cae0ba-cb54-4a0e-9e6a-3dce2787985d","ios":"levelo://app?vid=60cae0ba-cb54-4a0e-9e6a-3dce2787985d"},"vehicle_type_id":"4","last_reported":1735042660,"current_range_meters":22000,"station_id":"ce4bh312rcd13ifvqdj0","pricing_plan_id":"cebpf4jnsgd1na2vs0mg"},{"bike_id":"82719b16-0394-44a1-963a-3161d6b762b8","system_id":"levelo_inurba_marseille","lat":43.296273,"lon":5.371553,"is_reserved":false,"is_disabled":false,"rental_uris":{"android":"levelo://app?vid=82719b16-0394-44a1-963a-3161d6b762b8","ios":"levelo://app?vid=82719b16-0394-44a1-963a-3161d6b762b8"},"vehicle_type_id":"4","last_reported":1735042660,"current_range_meters":39200,"station_id":"ce4bgnh2rcd13ifvqc0g","pricing_plan_id":"cebpf4jnsgd1na2vs0mg"},{"bike_id":"fbf0ad52-c373-4f9a-a599-782a3acdac7a","system_id":"levelo_inurba_marseille","lat":43.27178,"lon":5.40989,"is_reserved":false,"is_disabled":false,"rental_uris":{"android":"levelo://app?vid=fbf0ad52-c373-4f9a-a599-782a3acdac7a","ios":"levelo://app?vid=fbf0ad52-c373-4f9a-a599-782a3acdac7a"},"vehicle_type_id":"4","last_reported":1735042660,"current_range_meters":28800,"station_id":"ce4bhl12rcd13ifvqgf0","pricing_plan_id":"cebpf4jnsgd1na2vs0mg"},{"bike_id":"c2c0a2cc-6349-45ae-b15e-dbd622209c75","system_id":"levelo_inurba_marseille","lat":43.3203,"lon":5.41556,"is_reserved":false,"is_disabled":false,"rental_uris":{"android":"levelo://app?vid=c2c0a2cc-6349-45ae-b15e-dbd622209c75","ios":"levelo://app?vid=c2c0a2cc-6349-45ae-b15e-dbd622209c75"},"vehicle_type_id":"4","last_reported":1735042660,"current_range_meters":36800,"station_id":"ce4bhq92rcd13ifvqhkg","pricing_plan_id":"cebpf4jnsgd1na2vs0mg"},{"bike_id":"4a35463d-6286-4212-a2c7-04e728adcd62","system_id":"levelo_inurba_marseille","lat":43.28093,"lon":5.37868,"is_reserved":false,"is_disabled":false,"rental_uris":{"android":"levelo://app?vid=4a35463d-6286-4212-a2c7-04e728adcd62","ios":"levelo://app?vid=4a35463d-6286-4212-a2c7-04e728adcd62"},"vehicle_type_id":"4","last_reported":1735042660,"current_range_meters":38800,"station_id":"ce4bha12rcd13ifvqee0","pricing_plan_id":"cebpf4jnsgd1na2vs0mg"},{"bike_id":"555d2fb8-db15-4512-9623-fc5be8f13494","system_id":"levelo_inurba_marseille","lat":43.29309,"lon":5.37177,"is_reserved":false,"is_disabled":false,"rental_uris":{"android":"levelo://app?vid=555d2fb8-db15-4512-9623-fc5be8f13494","ios":"levelo://app?vid=555d2fb8-db15-4512-9623-fc5be8f13494"},"vehicle_type_id":"4","last_reported":1735042660,"current_range_meters":38800,"station_id":"ce4bgh92rcd13ifvqb40","pricing_plan_id":"cebpf4jnsgd1na2vs0mg"},{"bike_id":"89057091-688a-498f-af84-2f421360afdd","system_id":"levelo_inurba_marseille","lat":43.30524,"lon":5.36546,"is_reserved":false,"is_disabled":false,"rental_uris":{"android":"levelo://app?vid=89057091-688a-498f-af84-2f421360afdd","ios":"levelo://app?vid=89057091-688a-498f-af84-2f421360afdd"},"vehicle_type_id":"4","last_reported":1735042660,"current_range_meters":30000,"station_id":"ce4bgs12rcd13ifvqcag","pricing_plan_id":"cebpf4jnsgd1na2vs0mg"},{"bike_id":"4f5db02c-99f9-460e-a880-3ca7100df048","system_id":"levelo_inurba_marseille","lat":43.274037,"lon":5.394473,"is_reserved":false,"is_disabled":false,"rental_uris":{"android":"levelo://app?vid=4f5db02c-99f9-460e-a880-3ca7100df048","ios":"levelo://app?vid=4f5db02c-99f9-460e-a880-3ca7100df048"},"vehicle_type_id":"4","last_reported":1735042660,"current_range_meters":39200,"station_id":"ce4bhdp2rcd13ifvqf20","pricing_plan_id":"cebpf4jnsgd1na2vs0mg"},{"bike_id":"ff9054d0-0972-41bc-9454-b61906dbd580","system_id":"levelo_inurba_marseille","lat":43.26681,"lon":5.38274,"is_reserved":false,"is_disabled":false,"rental_uris":{"android":"levelo://app?vid=ff9054d0-0972-41bc-9454-b61906dbd580","ios":"levelo://app?vid=ff9054d0-0972-41bc-9454-b61906dbd580"},"vehicle_type_id":"4","last_reported":1735042660,"current_range_meters":23200,"station_id":"ce4bhg92rcd13ifvqf90","pricing_plan_id":"cebpf4jnsgd1na2vs0mg"},{"bike_id":"51ed29d5-0e33-4e07-ac9a-c65d939e2edd","system_id":"levelo_inurba_marseille","lat":43.29221,"lon":5.35788,"is_reserved":false,"is_disabled":false,"rental_uris":{"android":"levelo://app?vid=51ed29d5-0e33-4e07-ac9a-c65d939e2edd","ios":"levelo://app?vid=51ed29d5-0e33-4e07-ac9a-c65d939e2edd"},"vehicle_type_id":"4","last_reported":1735042660,"current_range_meters":38000,"station_id":"ce4bhb12rcd13ifvqel0","pricing_plan_id":"cebpf4jnsgd1na2vs0mg"},{"bike_id":"537ef1bf-3a78-45af-b334-3a2c52a599a8","system_id":"levelo_inurba_marseille","lat":43.3414,"lon":5.40902,"is_reserved":false,"is_disabled":false,"rental_uris":{"android":"levelo://app?vid=537ef1bf-3a78-45af-b334-3a2c52a599a8","ios":"levelo://app?vid=537ef1bf-3a78-45af-b334-3a2c52a599a8"},"vehicle_type_id":"4","last_reported":1735042660,"current_range_meters":32000,"station_id":"ce4bhqh2rcd13ifvqhlg","pricing_plan_id":"cebpf4jnsgd1na2vs0mg"},{"bike_id":"9655d676-65ea-4912-961d-3ebbf5af164d","system_id":"levelo_inurba_marseille","lat":43.29383,"lon":5.37849,"is_reserved":false,"is_disabled":false,"rental_uris":{"android":"levelo://app?vid=9655d676-65ea-4912-961d-3ebbf5af164d","ios":"levelo://app?vid=9655d676-65ea-4912-961d-3ebbf5af164d"},"vehicle_type_id":"4","last_reported":1735042660,"current_range_meters":33600,"station_id":"ce4bgjh2rcd13ifvqbf0","pricing_plan_id":"cebpf4jnsgd1na2vs0mg"},{"bike_id":"1bf78bb7-9821-48da-8fd7-8be3805daf93","system_id":"levelo_inurba_marseille","lat":43.29862,"lon":5.39737,"is_reserved":false,"is_disabled":false,"rental_uris":{"android":"levelo://app?vid=1bf78bb7-9821-48da-8fd7-8be3805daf93","ios":"levelo://app?vid=1bf78bb7-9821-48da-8fd7-8be3805daf93"},"vehicle_type_id":"4","last_reported":1735042660,"current_range_meters":38000,"station_id":"ce4bh0h2rcd13ifvqd50","pricing_plan_id":"cebpf4jnsgd1na2vs0mg"},{"bike_id":"4e4b799e-5ff3-46a5-bfce-859f9dca6dfe","system_id":"levelo_inurba_marseille","lat":43.27972,"lon":5.38753,"is_reserved":false,"is_disabled":false,"rental_uris":{"android":"levelo://app?vid=4e4b799e-5ff3-46a5-bfce-859f9dca6dfe","ios":"levelo://app?vid=4e4b799e-5ff3-46a5-bfce-859f9dca6dfe"},"vehicle_type_id":"4","last_reported":1735042660,"current_range_meters":39200,"station_id":"ce4bhg12rcd13ifvqf80","pricing_plan_id":"cebpf4jnsgd1na2vs0mg"},{"bike_id":"b07e0204-2c57-49d1-a1f7-320de8610e25","system_id":"levelo_inurba_marseille","lat":43.29402,"lon":5.37344,"is_reserved":false,"is_disabled":true,"rental_uris":{"android":"levelo://app?vid=b07e0204-2c57-49d1-a1f7-320de8610e25","ios":"levelo://app?vid=b07e0204-2c57-49d1-a1f7-320de8610e25"},"vehicle_type_id":"4","last_reported":1735042660,"current_range_meters":19600,"station_id":"","pricing_plan_id":"cebpf4jnsgd1na2vs0mg"},{"bike_id":"b8cc7cd3-7ec4-46c2-8a1a-a10433eda7e1","system_id":"levelo_inurba_marseille","lat":43.30897,"lon":5.36863,"is_reserved":false,"is_disabled":false,"rental_uris":{"android":"levelo://app?vid=b8cc7cd3-7ec4-46c2-8a1a-a10433eda7e1","ios":"levelo://app?vid=b8cc7cd3-7ec4-46c2-8a1a-a10433eda7e1"},"vehicle_type_id":"4","last_reported":1735042660,"current_range_meters":28800,"station_id":"ce4bgn92rcd13ifvqbvg","pricing_plan_id":"cebpf4jnsgd1na2vs0mg"},{"bike_id":"f97162d8-ac35-4106-9dab-07f272349842","system_id":"levelo_inurba_marseille","lat":43.25822,"lon":5.39436,"is_reserved":false,"is_disabled":false,"rental_uris":{"android":"levelo://app?vid=f97162d8-ac35-4106-9dab-07f272349842","ios":"levelo://app?vid=f97162d8-ac35-4106-9dab-07f272349842"},"vehicle_type_id":"4","last_reported":1735042660,"current_range_meters":37600,"station_id":"ce4bhip2rcd13ifvqft0","pricing_plan_id":"cebpf4jnsgd1na2vs0mg"},{"bike_id":"a22c6c33-be0d-40b1-b535-b083076c3b73","system_id":"levelo_inurba_marseille","lat":43.29719,"lon":5.37691,"is_reserved":false,"is_disabled":false,"rental_uris":{"android":"levelo://app?vid=a22c6c33-be0d-40b1-b535-b083076c3b73","ios":"levelo://app?vid=a22c6c33-be0d-40b1-b535-b083076c3b73"},"vehicle_type_id":"4","last_reported":1735042660,"current_range_meters":22800,"station_id":"ce4bgkh2rcd13ifvqbl0","pricing_plan_id":"cebpf4jnsgd1na2vs0mg"},{"bike_id":"7befd885-7fc8-4dc1-b970-da31c9e46ce6","system_id":"levelo_inurba_marseille","lat":43.26016,"lon":5.37575,"is_reserved":false,"is_disabled":false,"rental_uris":{"android":"levelo://app?vid=7befd885-7fc8-4dc1-b970-da31c9e46ce6","ios":"levelo://app?vid=7befd885-7fc8-4dc1-b970-da31c9e46ce6"},"vehicle_type_id":"4","last_reported":1735042660,"current_range_meters":27600,"station_id":"ce4bhgh2rcd13ifvqfa0","pricing_plan_id":"cebpf4jnsgd1na2vs0mg"},{"bike_id":"6793085b-5378-4b8b-8790-6cbe159c4cfd","system_id":"levelo_inurba_marseille","lat":43.29511,"lon":5.37517,"is_reserved":false,"is_disabled":false,"rental_uris":{"android":"levelo://app?vid=6793085b-5378-4b8b-8790-6cbe159c4cfd","ios":"levelo://app?vid=6793085b-5378-4b8b-8790-6cbe159c4cfd"},"vehicle_type_id":"4","last_reported":1735042660,"current_range_meters":39200,"station_id":"ce4bgkp2rcd13ifvqbmg","pricing_plan_id":"cebpf4jnsgd1na2vs0mg"},{"bike_id":"bd04cbb4-2402-4a18-87e1-831b8038bca8","system_id":"levelo_inurba_marseille","lat":43.3014,"lon":5.3741,"is_reserved":false,"is_disabled":false,"rental_uris":{"android":"levelo://app?vid=bd04cbb4-2402-4a18-87e1-831b8038bca8","ios":"levelo://app?vid=bd04cbb4-2402-4a18-87e1-831b8038bca8"},"vehicle_type_id":"4","last_reported":1735042660,"current_range_meters":30000,"station_id":"ce4bgs92rcd13ifvqcc0","pricing_plan_id":"cebpf4jnsgd1na2vs0mg"},{"bike_id":"a52b6a95-03b2-4a39-91a2-596fa5130c55","system_id":"levelo_inurba_marseille","lat":43.269324,"lon":5.389103,"is_reserved":false,"is_disabled":false,"rental_uris":{"android":"levelo://app?vid=a52b6a95-03b2-4a39-91a2-596fa5130c55","ios":"levelo://app?vid=a52b6a95-03b2-4a39-91a2-596fa5130c55"},"vehicle_type_id":"4","last_reported":1735042660,"current_range_meters":39200,"station_id":"ce4bhhh2rcd13ifvqfl0","pricing_plan_id":"cebpf4jnsgd1na2vs0mg"},{"bike_id":"4c414f1b-f40e-4a37-8051-77fc6cbc936d","system_id":"levelo_inurba_marseille","lat":43.23964,"lon":5.36631,"is_reserved":false,"is_disabled":false,"rental_uris":{"android":"levelo://app?vid=4c414f1b-f40e-4a37-8051-77fc6cbc936d","ios":"levelo://app?vid=4c414f1b-f40e-4a37-8051-77fc6cbc936d"},"vehicle_type_id":"4","last_reported":1735042660,"current_range_meters":10800,"station_id":"ce4bhi12rcd13ifvqfp0","pricing_plan_id":"cebpf4jnsgd1na2vs0mg"},{"bike_id":"1ca6e35e-4519-4a08-8f12-cc97c32227ac","system_id":"levelo_inurba_marseille","lat":43.29781,"lon":5.37111,"is_reserved":false,"is_disabled":false,"rental_uris":{"android":"levelo://app?vid=1ca6e35e-4519-4a08-8f12-cc97c32227ac","ios":"levelo://app?vid=1ca6e35e-4519-4a08-8f12-cc97c32227ac"},"vehicle_type_id":"4","last_reported":1735042660,"current_range_meters":39200,"station_id":"ce4bgop2rcd13ifvqc1g","pricing_plan_id":"cebpf4jnsgd1na2vs0mg"},{"bike_id":"0f9f1654-63fd-4b65-a8fb-a5beee04226f","system_id":"levelo_inurba_marseille","lat":43.29626,"lon":5.37145,"is_reserved":false,"is_disabled":false,"rental_uris":{"android":"levelo://app?vid=0f9f1654-63fd-4b65-a8fb-a5beee04226f","ios":"levelo://app?vid=0f9f1654-63fd-4b65-a8fb-a5beee04226f"},"vehicle_type_id":"4","last_reported":1735042660,"current_range_meters":39200,"station_id":"ce4bgnh2rcd13ifvqc0g","pricing_plan_id":"cebpf4jnsgd1na2vs0mg"},{"bike_id":"db4eb3f1-a618-4c48-a0e8-20afbaef5fd1","system_id":"levelo_inurba_marseille","lat":43.308954,"lon":5.368578,"is_reserved":false,"is_disabled":false,"rental_uris":{"android":"levelo://app?vid=db4eb3f1-a618-4c48-a0e8-20afbaef5fd1","ios":"levelo://app?vid=db4eb3f1-a618-4c48-a0e8-20afbaef5fd1"},"vehicle_type_id":"4","last_reported":1735042660,"current_range_meters":17200,"station_id":"ce4bgn92rcd13ifvqbvg","pricing_plan_id":"cebpf4jnsgd1na2vs0mg"},{"bike_id":"ba1fac6c-8cf2-41b6-9cb8-688f88e95b23","system_id":"levelo_inurba_marseille","lat":43.28412,"lon":5.34988,"is_reserved":false,"is_disabled":false,"rental_uris":{"android":"levelo://app?vid=ba1fac6c-8cf2-41b6-9cb8-688f88e95b23","ios":"levelo://app?vid=ba1fac6c-8cf2-41b6-9cb8-688f88e95b23"},"vehicle_type_id":"4","last_reported":1735042660,"current_range_meters":10000,"station_id":"ce4bhbh2rcd13ifvqepg","pricing_plan_id":"cebpf4jnsgd1na2vs0mg"},{"bike_id":"134f27d3-43ec-49d1-8f23-8a0ad1f5ee6c","system_id":"levelo_inurba_marseille","lat":43.32391,"lon":5.36669,"is_reserved":false,"is_disabled":true,"rental_uris":{"android":"levelo://app?vid=134f27d3-43ec-49d1-8f23-8a0ad1f5ee6c","ios":"levelo://app?vid=134f27d3-43ec-49d1-8f23-8a0ad1f5ee6c"},"vehicle_type_id":"4","last_reported":1735042660,"current_range_meters":26000,"station_id":"ce4bhsh2rcd13ifvqi2g","pricing_plan_id":"cebpf4jnsgd1na2vs0mg"},{"bike_id":"1d07f094-84ee-4aec-a895-af7a16d50541","system_id":"levelo_inurba_marseille","lat":43.29585,"lon":5.38109,"is_reserved":false,"is_disabled":false,"rental_uris":{"android":"levelo://app?vid=1d07f094-84ee-4aec-a895-af7a16d50541","ios":"levelo://app?vid=1d07f094-84ee-4aec-a895-af7a16d50541"},"vehicle_type_id":"4","last_reported":1735042660,"current_range_meters":38800,"station_id":"ce4bgl12rcd13ifvqbo0","pricing_plan_id":"cebpf4jnsgd1na2vs0mg"},{"bike_id":"a8828d72-2518-4685-b76a-9db9d1585400","system_id":"levelo_inurba_marseille","lat":43.28935,"lon":5.39648,"is_reserved":false,"is_disabled":false,"rental_uris":{"android":"levelo://app?vid=a8828d72-2518-4685-b76a-9db9d1585400","ios":"levelo://app?vid=a8828d72-2518-4685-b76a-9db9d1585400"},"vehicle_type_id":"4","last_reported":1735042660,"current_range_meters":17600,"station_id":"ce4bh3h2rcd13ifvqdn0","pricing_plan_id":"cebpf4jnsgd1na2vs0mg"},{"bike_id":"6bca16b1-3eb4-4299-91bc-9740eea99592","system_id":"levelo_inurba_marseille","lat":43.29844,"lon":5.36272,"is_reserved":false,"is_disabled":false,"rental_uris":{"android":"levelo://app?vid=6bca16b1-3eb4-4299-91bc-9740eea99592","ios":"levelo://app?vid=6bca16b1-3eb4-4299-91bc-9740eea99592"},"vehicle_type_id":"4","last_reported":1735042660,"current_range_meters":39200,"station_id":"ce4bgpp2rcd13ifvqc3g","pricing_plan_id":"cebpf4jnsgd1na2vs0mg"},{"bike_id":"b57e6c32-51f5-42e6-8c91-2bb0708eec7f","system_id":"levelo_inurba_marseille","lat":43.27969,"lon":5.38752,"is_reserved":false,"is_disabled":false,"rental_uris":{"android":"levelo://app?vid=b57e6c32-51f5-42e6-8c91-2bb0708eec7f","ios":"levelo://app?vid=b57e6c32-51f5-42e6-8c91-2bb0708eec7f"},"vehicle_type_id":"4","last_reported":1735042660,"current_range_meters":17200,"station_id":"ce4bhg12rcd13ifvqf80","pricing_plan_id":"cebpf4jnsgd1na2vs0mg"},{"bike_id":"e05bf4ea-d74d-49ed-a7dc-94fa3a3cc350","system_id":"levelo_inurba_marseille","lat":43.32364,"lon":5.36756,"is_reserved":false,"is_disabled":false,"rental_uris":{"android":"levelo://app?vid=e05bf4ea-d74d-49ed-a7dc-94fa3a3cc350","ios":"levelo://app?vid=e05bf4ea-d74d-49ed-a7dc-94fa3a3cc350"},"vehicle_type_id":"4","last_reported":1735042660,"current_range_meters":38800,"station_id":"ce4bhsh2rcd13ifvqi2g","pricing_plan_id":"cebpf4jnsgd1na2vs0mg"},{"bike_id":"4414e2df-05d5-471c-9ec4-34cd9dd81ab5","system_id":"levelo_inurba_marseille","lat":43.28933,"lon":5.39627,"is_reserved":false,"is_disabled":false,"rental_uris":{"android":"levelo://app?vid=4414e2df-05d5-471c-9ec4-34cd9dd81ab5","ios":"levelo://app?vid=4414e2df-05d5-471c-9ec4-34cd9dd81ab5"},"vehicle_type_id":"4","last_reported":1735042660,"current_range_meters":38800,"station_id":"ce4bh3h2rcd13ifvqdn0","pricing_plan_id":"cebpf4jnsgd1na2vs0mg"},{"bike_id":"8a48f262-0157-47f4-8e94-0fa657be2950","system_id":"levelo_inurba_marseille","lat":43.29608,"lon":5.37734,"is_reserved":false,"is_disabled":false,"rental_uris":{"android":"levelo://app?vid=8a48f262-0157-47f4-8e94-0fa657be2950","ios":"levelo://app?vid=8a48f262-0157-47f4-8e94-0fa657be2950"},"vehicle_type_id":"4","last_reported":1735042660,"current_range_meters":38400,"station_id":"ce4bgi92rcd13ifvqb90","pricing_plan_id":"cebpf4jnsgd1na2vs0mg"},{"bike_id":"32e4dc15-a42a-42fd-bef3-2f12f80961c8","system_id":"levelo_inurba_marseille","lat":43.29518,"lon":5.37512,"is_reserved":false,"is_disabled":false,"rental_uris":{"android":"levelo://app?vid=32e4dc15-a42a-42fd-bef3-2f12f80961c8","ios":"levelo://app?vid=32e4dc15-a42a-42fd-bef3-2f12f80961c8"},"vehicle_type_id":"4","last_reported":1735042660,"current_range_meters":39200,"station_id":"ce4bgkp2rcd13ifvqbmg","pricing_plan_id":"cebpf4jnsgd1na2vs0mg"},{"bike_id":"b4b5e933-6fa8-43f7-b666-98bcd5590261","system_id":"levelo_inurba_marseille","lat":43.316956,"lon":5.404678,"is_reserved":false,"is_disabled":false,"rental_uris":{"android":"levelo://app?vid=b4b5e933-6fa8-43f7-b666-98bcd5590261","ios":"levelo://app?vid=b4b5e933-6fa8-43f7-b666-98bcd5590261"},"vehicle_type_id":"4","last_reported":1735042660,"current_range_meters":36400,"station_id":"ce4bh012rcd13ifvqd00","pricing_plan_id":"cebpf4jnsgd1na2vs0mg"},{"bike_id":"842888b9-0281-4137-8179-95fdfc851120","system_id":"levelo_inurba_marseille","lat":43.2694,"lon":5.40244,"is_reserved":false,"is_disabled":false,"rental_uris":{"android":"levelo://app?vid=842888b9-0281-4137-8179-95fdfc851120","ios":"levelo://app?vid=842888b9-0281-4137-8179-95fdfc851120"},"vehicle_type_id":"4","last_reported":1735042660,"current_range_meters":36000,"station_id":"cjm6bp8fraef2m0cb0m0","pricing_plan_id":"cebpf4jnsgd1na2vs0mg"},{"bike_id":"0a44265e-3683-43ec-8c07-b2248f833876","system_id":"levelo_inurba_marseille","lat":43.29523,"lon":5.39414,"is_reserved":false,"is_disabled":false,"rental_uris":{"android":"levelo://app?vid=0a44265e-3683-43ec-8c07-b2248f833876","ios":"levelo://app?vid=0a44265e-3683-43ec-8c07-b2248f833876"},"vehicle_type_id":"4","last_reported":1735042660,"current_range_meters":28000,"station_id":"ce4bh292rcd13ifvqdf0","pricing_plan_id":"cebpf4jnsgd1na2vs0mg"},{"bike_id":"eb7162db-c8c6-4690-8699-d3ed3559582d","system_id":"levelo_inurba_marseille","lat":43.27331,"lon":5.39125,"is_reserved":false,"is_disabled":false,"rental_uris":{"android":"levelo://app?vid=eb7162db-c8c6-4690-8699-d3ed3559582d","ios":"levelo://app?vid=eb7162db-c8c6-4690-8699-d3ed3559582d"},"vehicle_type_id":"4","last_reported":1735042660,"current_range_meters":20800,"station_id":"ce4bhgp2rcd13ifvqfe0","pricing_plan_id":"cebpf4jnsgd1na2vs0mg"},{"bike_id":"584301e6-2901-4c73-97f8-5c258dacc73a","system_id":"levelo_inurba_marseille","lat":43.29962,"lon":5.38514,"is_reserved":false,"is_disabled":false,"rental_uris":{"android":"levelo://app?vid=584301e6-2901-4c73-97f8-5c258dacc73a","ios":"levelo://app?vid=584301e6-2901-4c73-97f8-5c258dacc73a"},"vehicle_type_id":"4","last_reported":1735042660,"current_range_meters":39200,"station_id":"ce4bgj92rcd13ifvqbd0","pricing_plan_id":"cebpf4jnsgd1na2vs0mg"},{"bike_id":"2240af41-1533-4669-bbbf-bdc6110caaf8","system_id":"levelo_inurba_marseille","lat":43.29515,"lon":5.39413,"is_reserved":false,"is_disabled":false,"rental_uris":{"android":"levelo://app?vid=2240af41-1533-4669-bbbf-bdc6110caaf8","ios":"levelo://app?vid=2240af41-1533-4669-bbbf-bdc6110caaf8"},"vehicle_type_id":"4","last_reported":1735042660,"current_range_meters":24400,"station_id":"ce4bh292rcd13ifvqdf0","pricing_plan_id":"cebpf4jnsgd1na2vs0mg"},{"bike_id":"ba623d7f-de4d-43e6-9a39-be19938e75fb","system_id":"levelo_inurba_marseille","lat":43.29369,"lon":5.37856,"is_reserved":false,"is_disabled":true,"rental_uris":{"android":"levelo://app?vid=ba623d7f-de4d-43e6-9a39-be19938e75fb","ios":"levelo://app?vid=ba623d7f-de4d-43e6-9a39-be19938e75fb"},"vehicle_type_id":"4","last_reported":1735042660,"current_range_meters":28000,"station_id":"","pricing_plan_id":"cebpf4jnsgd1na2vs0mg"},{"bike_id":"af7a8365-0aa8-48c2-85e3-e0dcc429b742","system_id":"levelo_inurba_marseille","lat":43.24545,"lon":5.39531,"is_reserved":false,"is_disabled":false,"rental_uris":{"android":"levelo://app?vid=af7a8365-0aa8-48c2-85e3-e0dcc429b742","ios":"levelo://app?vid=af7a8365-0aa8-48c2-85e3-e0dcc429b742"},"vehicle_type_id":"4","last_reported":1735042660,"current_range_meters":33600,"station_id":"ce4bhlp2rcd13ifvqgjg","pricing_plan_id":"cebpf4jnsgd1na2vs0mg"},{"bike_id":"c6edaf9e-875b-4557-9927-242b605fc204","system_id":"levelo_inurba_marseille","lat":43.29306,"lon":5.3746,"is_reserved":false,"is_disabled":false,"rental_uris":{"android":"levelo://app?vid=c6edaf9e-875b-4557-9927-242b605fc204","ios":"levelo://app?vid=c6edaf9e-875b-4557-9927-242b605fc204"},"vehicle_type_id":"4","last_reported":1735042660,"current_range_meters":30800,"station_id":"ce4bgi12rcd13ifvqb70","pricing_plan_id":"cebpf4jnsgd1na2vs0mg"},{"bike_id":"3659b392-617b-4724-9530-6f54eec63d8b","system_id":"levelo_inurba_marseille","lat":43.29337,"lon":5.37862,"is_reserved":false,"is_disabled":false,"rental_uris":{"android":"levelo://app?vid=3659b392-617b-4724-9530-6f54eec63d8b","ios":"levelo://app?vid=3659b392-617b-4724-9530-6f54eec63d8b"},"vehicle_type_id":"4","last_reported":1735042660,"current_range_meters":22400,"station_id":"ce4bgjh2rcd13ifvqbf0","pricing_plan_id":"cebpf4jnsgd1na2vs0mg"},{"bike_id":"cc75e465-b471-44bf-911f-187d950f5906","system_id":"levelo_inurba_marseille","lat":43.3026,"lon":5.40074,"is_reserved":false,"is_disabled":false,"rental_uris":{"android":"levelo://app?vid=cc75e465-b471-44bf-911f-187d950f5906","ios":"levelo://app?vid=cc75e465-b471-44bf-911f-187d950f5906"},"vehicle_type_id":"4","last_reported":1735042660,"current_range_meters":36000,"station_id":"ce4bgvh2rcd13ifvqcs0","pricing_plan_id":"cebpf4jnsgd1na2vs0mg"},{"bike_id":"09e62679-b1b5-4c35-8733-0a81c4e0a425","system_id":"levelo_inurba_marseille","lat":43.28847,"lon":5.39311,"is_reserved":false,"is_disabled":false,"rental_uris":{"android":"levelo://app?vid=09e62679-b1b5-4c35-8733-0a81c4e0a425","ios":"levelo://app?vid=09e62679-b1b5-4c35-8733-0a81c4e0a425"},"vehicle_type_id":"4","last_reported":1735042660,"current_range_meters":32400,"station_id":"ce4bh2p2rcd13ifvqdi0","pricing_plan_id":"cebpf4jnsgd1na2vs0mg"},{"bike_id":"4658e600-d5d9-46f2-957c-c8459319b070","system_id":"levelo_inurba_marseille","lat":43.30897,"lon":5.39629,"is_reserved":false,"is_disabled":false,"rental_uris":{"android":"levelo://app?vid=4658e600-d5d9-46f2-957c-c8459319b070","ios":"levelo://app?vid=4658e600-d5d9-46f2-957c-c8459319b070"},"vehicle_type_id":"4","last_reported":1735042660,"current_range_meters":36400,"station_id":"ce4bh012rcd13ifvqcv0","pricing_plan_id":"cebpf4jnsgd1na2vs0mg"},{"bike_id":"874f5c06-95dd-4567-9b8b-79ff1183e4fc","system_id":"levelo_inurba_marseille","lat":43.30527,"lon":5.36709,"is_reserved":false,"is_disabled":false,"rental_uris":{"android":"levelo://app?vid=874f5c06-95dd-4567-9b8b-79ff1183e4fc","ios":"levelo://app?vid=874f5c06-95dd-4567-9b8b-79ff1183e4fc"},"vehicle_type_id":"4","last_reported":1735042660,"current_range_meters":36800,"station_id":"ce4bgrp2rcd13ifvqc9g","pricing_plan_id":"cebpf4jnsgd1na2vs0mg"},{"bike_id":"0f1e0fa6-5237-4f67-b177-ce610325d4bb","system_id":"levelo_inurba_marseille","lat":43.30192,"lon":5.39478,"is_reserved":false,"is_disabled":false,"rental_uris":{"android":"levelo://app?vid=0f1e0fa6-5237-4f67-b177-ce610325d4bb","ios":"levelo://app?vid=0f1e0fa6-5237-4f67-b177-ce610325d4bb"},"vehicle_type_id":"4","last_reported":1735042660,"current_range_meters":36800,"station_id":"ce4bh0p2rcd13ifvqd70","pricing_plan_id":"cebpf4jnsgd1na2vs0mg"},{"bike_id":"89c31185-79e8-41ba-aeec-7ee23fd07219","system_id":"levelo_inurba_marseille","lat":43.26951,"lon":5.38624,"is_reserved":false,"is_disabled":false,"rental_uris":{"android":"levelo://app?vid=89c31185-79e8-41ba-aeec-7ee23fd07219","ios":"levelo://app?vid=89c31185-79e8-41ba-aeec-7ee23fd07219"},"vehicle_type_id":"4","last_reported":1735042660,"current_range_meters":38800,"station_id":"ce4bhh92rcd13ifvqfh0","pricing_plan_id":"cebpf4jnsgd1na2vs0mg"},{"bike_id":"80837625-09a5-408d-80f9-5a428d2f5462","system_id":"levelo_inurba_marseille","lat":43.28587,"lon":5.37094,"is_reserved":false,"is_disabled":false,"rental_uris":{"android":"levelo://app?vid=80837625-09a5-408d-80f9-5a428d2f5462","ios":"levelo://app?vid=80837625-09a5-408d-80f9-5a428d2f5462"},"vehicle_type_id":"4","last_reported":1735042660,"current_range_meters":25200,"station_id":"ce4bht12rcd13ifvqi60","pricing_plan_id":"cebpf4jnsgd1na2vs0mg"},{"bike_id":"86498ffb-a11a-491a-80f2-7d3158886772","system_id":"levelo_inurba_marseille","lat":43.30747,"lon":5.3767,"is_reserved":false,"is_disabled":false,"rental_uris":{"android":"levelo://app?vid=86498ffb-a11a-491a-80f2-7d3158886772","ios":"levelo://app?vid=86498ffb-a11a-491a-80f2-7d3158886772"},"vehicle_type_id":"4","last_reported":1735042660,"current_range_meters":39200,"station_id":"ce4bgv92rcd13ifvqcq0","pricing_plan_id":"cebpf4jnsgd1na2vs0mg"},{"bike_id":"a3c003ca-02ee-48c1-b4b7-bb7885985404","system_id":"levelo_inurba_marseille","lat":43.27966,"lon":5.38741,"is_reserved":false,"is_disabled":false,"rental_uris":{"android":"levelo://app?vid=a3c003ca-02ee-48c1-b4b7-bb7885985404","ios":"levelo://app?vid=a3c003ca-02ee-48c1-b4b7-bb7885985404"},"vehicle_type_id":"4","last_reported":1735042660,"current_range_meters":36800,"station_id":"ce4bhg12rcd13ifvqf80","pricing_plan_id":"cebpf4jnsgd1na2vs0mg"},{"bike_id":"49d79d1e-0a44-4d43-9edf-909eb0de44f0","system_id":"levelo_inurba_marseille","lat":43.27564,"lon":5.38428,"is_reserved":false,"is_disabled":false,"rental_uris":{"android":"levelo://app?vid=49d79d1e-0a44-4d43-9edf-909eb0de44f0","ios":"levelo://app?vid=49d79d1e-0a44-4d43-9edf-909eb0de44f0"},"vehicle_type_id":"4","last_reported":1735042660,"current_range_meters":38800,"station_id":"ce4bhh92rcd13ifvqfi0","pricing_plan_id":"cebpf4jnsgd1na2vs0mg"},{"bike_id":"bd5c44c7-47b4-49bb-b83d-2354ade11583","system_id":"levelo_inurba_marseille","lat":43.25116,"lon":5.40315,"is_reserved":false,"is_disabled":false,"rental_uris":{"android":"levelo://app?vid=bd5c44c7-47b4-49bb-b83d-2354ade11583","ios":"levelo://app?vid=bd5c44c7-47b4-49bb-b83d-2354ade11583"},"vehicle_type_id":"4","last_reported":1735042660,"current_range_meters":38800,"station_id":"ce4bhlh2rcd13ifvqgig","pricing_plan_id":"cebpf4jnsgd1na2vs0mg"},{"bike_id":"613071c9-7acc-47af-a4ae-56c048c26b56","system_id":"levelo_inurba_marseille","lat":43.30908,"lon":5.36857,"is_reserved":false,"is_disabled":false,"rental_uris":{"android":"levelo://app?vid=613071c9-7acc-47af-a4ae-56c048c26b56","ios":"levelo://app?vid=613071c9-7acc-47af-a4ae-56c048c26b56"},"vehicle_type_id":"4","last_reported":1735042660,"current_range_meters":10000,"station_id":"ce4bgn92rcd13ifvqbvg","pricing_plan_id":"cebpf4jnsgd1na2vs0mg"},{"bike_id":"87368043-1654-4831-8caf-c680572c8def","system_id":"levelo_inurba_marseille","lat":43.29616,"lon":5.37723,"is_reserved":false,"is_disabled":false,"rental_uris":{"android":"levelo://app?vid=87368043-1654-4831-8caf-c680572c8def","ios":"levelo://app?vid=87368043-1654-4831-8caf-c680572c8def"},"vehicle_type_id":"4","last_reported":1735042660,"current_range_meters":34800,"station_id":"ce4bgi92rcd13ifvqb90","pricing_plan_id":"cebpf4jnsgd1na2vs0mg"},{"bike_id":"766845ea-dc5d-4857-8258-ce8e55fd055c","system_id":"levelo_inurba_marseille","lat":43.32039,"lon":5.41539,"is_reserved":false,"is_disabled":false,"rental_uris":{"android":"levelo://app?vid=766845ea-dc5d-4857-8258-ce8e55fd055c","ios":"levelo://app?vid=766845ea-dc5d-4857-8258-ce8e55fd055c"},"vehicle_type_id":"4","last_reported":1735042660,"current_range_meters":36400,"station_id":"ce4bhq92rcd13ifvqhkg","pricing_plan_id":"cebpf4jnsgd1na2vs0mg"},{"bike_id":"d94449be-261f-499c-9acf-fca4b011b347","system_id":"levelo_inurba_marseille","lat":43.2972,"lon":5.37678,"is_reserved":false,"is_disabled":false,"rental_uris":{"android":"levelo://app?vid=d94449be-261f-499c-9acf-fca4b011b347","ios":"levelo://app?vid=d94449be-261f-499c-9acf-fca4b011b347"},"vehicle_type_id":"4","last_reported":1735042660,"current_range_meters":38800,"station_id":"ce4bgkh2rcd13ifvqbl0","pricing_plan_id":"cebpf4jnsgd1na2vs0mg"},{"bike_id":"bb7d64ef-7d59-4d65-874c-0ceacfb5be01","system_id":"levelo_inurba_marseille","lat":43.30123,"lon":5.37439,"is_reserved":false,"is_disabled":false,"rental_uris":{"android":"levelo://app?vid=bb7d64ef-7d59-4d65-874c-0ceacfb5be01","ios":"levelo://app?vid=bb7d64ef-7d59-4d65-874c-0ceacfb5be01"},"vehicle_type_id":"4","last_reported":1735042660,"current_range_meters":36400,"station_id":"ce4bgs92rcd13ifvqcc0","pricing_plan_id":"cebpf4jnsgd1na2vs0mg"},{"bike_id":"dac94ecf-3203-4c89-acc0-21c14e979588","system_id":"levelo_inurba_marseille","lat":43.266848,"lon":5.382686,"is_reserved":false,"is_disabled":false,"rental_uris":{"android":"levelo://app?vid=dac94ecf-3203-4c89-acc0-21c14e979588","ios":"levelo://app?vid=dac94ecf-3203-4c89-acc0-21c14e979588"},"vehicle_type_id":"4","last_reported":1735042660,"current_range_meters":16800,"station_id":"ce4bhg92rcd13ifvqf90","pricing_plan_id":"cebpf4jnsgd1na2vs0mg"},{"bike_id":"37ea1698-c94e-4075-b42b-4c610d114d86","system_id":"levelo_inurba_marseille","lat":43.28605,"lon":5.37058,"is_reserved":false,"is_disabled":false,"rental_uris":{"android":"levelo://app?vid=37ea1698-c94e-4075-b42b-4c610d114d86","ios":"levelo://app?vid=37ea1698-c94e-4075-b42b-4c610d114d86"},"vehicle_type_id":"4","last_reported":1735042660,"current_range_meters":25600,"station_id":"ce4bht12rcd13ifvqi60","pricing_plan_id":"cebpf4jnsgd1na2vs0mg"},{"bike_id":"0bafca04-fcc3-4e67-bf97-2b96334defbb","system_id":"levelo_inurba_marseille","lat":43.26767,"lon":5.39427,"is_reserved":false,"is_disabled":false,"rental_uris":{"android":"levelo://app?vid=0bafca04-fcc3-4e67-bf97-2b96334defbb","ios":"levelo://app?vid=0bafca04-fcc3-4e67-bf97-2b96334defbb"},"vehicle_type_id":"4","last_reported":1735042660,"current_range_meters":38800,"station_id":"ce4bhh12rcd13ifvqfg0","pricing_plan_id":"cebpf4jnsgd1na2vs0mg"},{"bike_id":"0eb1fe3b-98d4-44b3-bf9c-7e692a5acbb2","system_id":"levelo_inurba_marseille","lat":43.28482,"lon":5.38413,"is_reserved":false,"is_disabled":false,"rental_uris":{"android":"levelo://app?vid=0eb1fe3b-98d4-44b3-bf9c-7e692a5acbb2","ios":"levelo://app?vid=0eb1fe3b-98d4-44b3-bf9c-7e692a5acbb2"},"vehicle_type_id":"4","last_reported":1735042660,"current_range_meters":25600,"station_id":"ce4bh512rcd13ifvqe3g","pricing_plan_id":"cebpf4jnsgd1na2vs0mg"},{"bike_id":"72bce916-68b4-4572-b535-60a3789d49d8","system_id":"levelo_inurba_marseille","lat":43.32048,"lon":5.41556,"is_reserved":false,"is_disabled":false,"rental_uris":{"android":"levelo://app?vid=72bce916-68b4-4572-b535-60a3789d49d8","ios":"levelo://app?vid=72bce916-68b4-4572-b535-60a3789d49d8"},"vehicle_type_id":"4","last_reported":1735042660,"current_range_meters":38800,"station_id":"ce4bhq92rcd13ifvqhkg","pricing_plan_id":"cebpf4jnsgd1na2vs0mg"},{"bike_id":"eba74fc5-1c67-4eb5-8600-65380a16fc8f","system_id":"levelo_inurba_marseille","lat":43.29376,"lon":5.37836,"is_reserved":false,"is_disabled":false,"rental_uris":{"android":"levelo://app?vid=eba74fc5-1c67-4eb5-8600-65380a16fc8f","ios":"levelo://app?vid=eba74fc5-1c67-4eb5-8600-65380a16fc8f"},"vehicle_type_id":"4","last_reported":1735042660,"current_range_meters":37600,"station_id":"ce4bgjh2rcd13ifvqbf0","pricing_plan_id":"cebpf4jnsgd1na2vs0mg"},{"bike_id":"fcaa428f-5b81-4cef-aa5d-f496099afa0b","system_id":"levelo_inurba_marseille","lat":43.30568,"lon":5.36512,"is_reserved":false,"is_disabled":false,"rental_uris":{"android":"levelo://app?vid=fcaa428f-5b81-4cef-aa5d-f496099afa0b","ios":"levelo://app?vid=fcaa428f-5b81-4cef-aa5d-f496099afa0b"},"vehicle_type_id":"4","last_reported":1735042660,"current_range_meters":37600,"station_id":"ce4bgs12rcd13ifvqcag","pricing_plan_id":"cebpf4jnsgd1na2vs0mg"},{"bike_id":"aff22fb4-87ad-4d9e-8723-bc3c1ff43ce8","system_id":"levelo_inurba_marseille","lat":43.31487,"lon":5.37308,"is_reserved":false,"is_disabled":false,"rental_uris":{"android":"levelo://app?vid=aff22fb4-87ad-4d9e-8723-bc3c1ff43ce8","ios":"levelo://app?vid=aff22fb4-87ad-4d9e-8723-bc3c1ff43ce8"},"vehicle_type_id":"4","last_reported":1735042660,"current_range_meters":36800,"station_id":"ce4bgt12rcd13ifvqcd0","pricing_plan_id":"cebpf4jnsgd1na2vs0mg"},{"bike_id":"78d649df-d029-417d-9a79-e2430816323f","system_id":"levelo_inurba_marseille","lat":43.30128,"lon":5.39838,"is_reserved":false,"is_disabled":false,"rental_uris":{"android":"levelo://app?vid=78d649df-d029-417d-9a79-e2430816323f","ios":"levelo://app?vid=78d649df-d029-417d-9a79-e2430816323f"},"vehicle_type_id":"4","last_reported":1735042660,"current_range_meters":22400,"station_id":"ce4bh0h2rcd13ifvqd40","pricing_plan_id":"cebpf4jnsgd1na2vs0mg"},{"bike_id":"025792c3-9c92-4ea4-b010-7ca85199bada","system_id":"levelo_inurba_marseille","lat":43.28348,"lon":5.38107,"is_reserved":false,"is_disabled":false,"rental_uris":{"android":"levelo://app?vid=025792c3-9c92-4ea4-b010-7ca85199bada","ios":"levelo://app?vid=025792c3-9c92-4ea4-b010-7ca85199bada"},"vehicle_type_id":"4","last_reported":1735042660,"current_range_meters":29600,"station_id":"ce4bh412rcd13ifvqdr0","pricing_plan_id":"cebpf4jnsgd1na2vs0mg"},