{"last_updated":1698366736,"ttl":30,"version":"2.2","data":{"bikes":[{"bike_id":"bad6fb66-4d2a-4206-8f07-1d73ae8b6c1a","system_id":"levelo_inurba_marseille","lat":43.31341,"lon":5.367098,"is_reserved":false,"is_disabled":false,"rental_uris":{"android":"levelo://app?vid=bad6fb66-4d2a-4206-8f07-1d73ae8b6c1a","ios":"levelo://app?vid=bad6fb66-4d2a-4206-8f07-1d73ae8b6c1a"},"vehicle_type_id":"4","last_reported":1698366736,"current_range_meters":0,"station_id":"ce4bgr92rcd13ifvqc6g","pricing_plan_id":"free"},{"bike_id":"6a8446b9-c2d1-4842-9c09-270049839cbd","system_id":"levelo_inurba_marseille","lat":43.314811,"lon":5.373103,"is_reserved":false,"is_disabled":false,"rental_uris":{"android":"levelo://app?vid=6a8446b9-c2d1-4842-9c09-270049839cbd","ios":"levelo://app?vid=6a8446b9-c2d1-4842-9c09-270049839cbd"},"vehicle_type_id":"4","last_reported":1698366736,"current_range_meters":6000,"station_id":"ce4bgt12rcd13ifvqcd0","pricing_plan_id":"free"},{"bike_id":"dbbdea51-7e3d-4271-bd96-c3aabecbd7e2","system_id":"levelo_inurba_marseille","lat":43.315783,"lon":5.372523,"is_reserved":false,"is_disabled":false,"rental_uris":{"android":"levelo://app?vid=dbbdea51-7e3d-4271-bd96-c3aabecbd7e2","ios":"levelo://app?vid=dbbdea51-7e3d-4271-bd96-c3aabecbd7e2"},"vehicle_type_id":"4","last_reported":1698366736,"current_range_meters":14000,"station_id":"","pricing_plan_id":"free"},{"bike_id":"e2d1df0d-946a-43dc-9c51-09bb27b6f5e2","system_id":"levelo_inurba_marseille","lat":43.309034,"lon":5.371783,"is_reserved":false,"is_disabled":false,"rental_uris":{"android":"levelo://app?vid=e2d1df0d-946a-43dc-9c51-09bb27b6f5e2","ios":"levelo://app?vid=e2d1df0d-946a-43dc-9c51-09bb27b6f5e2"},"vehicle_type_id":"4","last_reported":1698366736,"current_range_meters":9600,"station_id":"ce4bguh2rcd13ifvqckg","pricing_plan_id":"free"},{"bike_id":"f252b071-dddd-4e5f-ad07-506846af6d1a","system_id":"levelo_inurba_marseille","lat":43.30543,"lon":5.36539,"is_reserved":false,"is_disabled":false,"rental_uris":{"android":"levelo://app?vid=f252b071-dddd-4e5f-ad07-506846af6d1a","ios":"levelo://app?vid=f252b071-dddd-4e5f-ad07-506846af6d1a"},"vehicle_type_id":"4","last_reported":1698366736,"current_range_meters":27200,"station_id":"ce4bgs12rcd13ifvqcag","pricing_plan_id":"free"},{"bike_id":"e09fcbaa-e1a7-4b21-8427-19e07ac974ce","system_id":"levelo_inurba_marseille","lat":43.305313,"lon":5.367187,"is_reserved":false,"is_disabled":false,"rental_uris":{"android":"levelo://app?vid=e09fcbaa-e1a7-4b21-8427-19e07ac974ce","ios":"levelo://app?vid=e09fcbaa-e1a7-4b21-8427-19e07ac974ce"},"vehicle_type_id":"4","last_reported":1698366736,"current_range_meters":20400,"station_id":"ce4bgrp2rcd13ifvqc9g","pricing_plan_id":"free"},{"bike_id":"2fe6addf-3f28-4e18-9be7-8e324eee151f","system_id":"levelo_inurba_marseille","lat":43.30564,"lon":5.37043,"is_reserved":false,"is_disabled":false,"rental_uris":{"android":"levelo://app?vid=2fe6addf-3f28-4e18-9be7-8e324eee151f","ios":"levelo://app?vid=2fe6addf-3f28-4e18-9be7-8e324eee151f"},"vehicle_type_id":"4","last_reported":1698366736,"current_range_meters":6000,"station_id":"","pricing_plan_id":"free"},{"bike_id":"ddcd6982-63de-4389-92af-17d19391748d","system_id":"levelo_inurba_marseille","lat":43.305989,"lon":5.37225,"is_reserved":false,"is_disabled":false,"rental_uris":{"android":"levelo://app?vid=ddcd6982-63de-4389-92af-17d19391748d","ios":"levelo://app?vid=ddcd6982-63de-4389-92af-17d19391748d"},"vehicle_type_id":"4","last_reported":1698366736,"current_range_meters":22800,"station_id":"ce4bgqh2rcd13ifvqc4g","pricing_plan_id":"free"},{"bike_id":"9fe6c09c-522b-4fbc-8719-03461c3c506b","system_id":"levelo_inurba_marseille","lat":43.305989,"lon":5.37225,"is_reserved":false,"is_disabled":false,"rental_uris":{"android":"levelo://app?vid=9fe6c09c-522b-4fbc-8719-03461c3c506b","ios":"levelo://app?vid=9fe6c09c-522b-4fbc-8719-03461c3c506b"},"vehicle_type_id":"4","last_reported":1698366736,"current_range_meters":28400,"station_id":"ce4bgqh2rcd13ifvqc4g","pricing_plan_id":"free"},{"bike_id":"e9d8a6b7-0962-46a5-be34-414413df4a43","system_id":"levelo_inurba_marseille","lat":43.30594,"lon":5.37218,"is_reserved":false,"is_disabled":false,"rental_uris":{"android":"levelo://app?vid=e9d8a6b7-0962-46a5-be34-414413df4a43","ios":"levelo://app?vid=e9d8a6b7-0962-46a5-be34-414413df4a43"},"vehicle_type_id":"4","last_reported":1698366736,"current_range_meters":19200,"station_id":"ce4bgqh2rcd13ifvqc4g","pricing_plan_id":"free"},{"bike_id":"7f1f957c-9e77-4654-b882-3d45fa08f9d2","system_id":"levelo_inurba_marseille","lat":43.311125,"lon":5.377624,"is_reserved":false,"is_disabled":false,"rental_uris":{"android":"levelo://app?vid=7f1f957c-9e77-4654-b882-3d45fa08f9d2","ios":"levelo://app?vid=7f1f957c-9e77-4654-b882-3d45fa08f9d2"},"vehicle_type_id":"4","last_reported":1698366736,"current_range_meters":10000,"station_id":"ce4bgt92rcd13ifvqcg0","pricing_plan_id":"free"},{"bike_id":"5b334c9d-7f30-4239-a0f2-698e3dcb9023","system_id":"levelo_inurba_marseille","lat":43.311125,"lon":5.377624,"is_reserved":false,"is_disabled":false,"rental_uris":{"android":"levelo://app?vid=5b334c9d-7f30-4239-a0f2-698e3dcb9023","ios":"levelo://app?vid=5b334c9d-7f30-4239-a0f2-698e3dcb9023"},"vehicle_type_id":"4","last_reported":1698366736,"current_range_meters":22800,"station_id":"ce4bgt92rcd13ifvqcg0","pricing_plan_id":"free"},{"bike_id":"3b821798-301e-4ac9-b659-95ac250c3937","system_id":"levelo_inurba_marseille","lat":43.311125,"lon":5.377624,"is_reserved":false,"is_disabled":false,"rental_uris":{"android":"levelo://app?vid=3b821798-301e-4ac9-b659-95ac250c3937","ios":"levelo://app?vid=3b821798-301e-4ac9-b659-95ac250c3937"},"vehicle_type_id":"4","last_reported":1698366736,"current_range_meters":25600,"station_id":"ce4bgt92rcd13ifvqcg0","pricing_plan_id":"free"},{"bike_id":"57e77961-bdf7-436e-a47b-38a3728deda4","system_id":"levelo_inurba_marseille","lat":43.311131,"lon":5.377651,"is_reserved":false,"is_disabled":false,"rental_uris":{"android":"levelo://app?vid=57e77961-bdf7-436e-a47b-38a3728deda4","ios":"levelo://app?vid=57e77961-bdf7-436e-a47b-38a3728deda4"},"vehicle_type_id":"4","last_reported":1698366736,"current_range_meters":28400,"station_id":"ce4bgt92rcd13ifvqcg0","pricing_plan_id":"free"},{"bike_id":"f3070650-47c8-4723-85b2-bf92ad39b7c4","system_id":"levelo_inurba_marseille","lat":43.311131,"lon":5.377651,"is_reserved":false,"is_disabled":false,"rental_uris":{"android":"levelo://app?vid=f3070650-47c8-4723-85b2-bf92ad39b7c4","ios":"levelo://app?vid=f3070650-47c8-4723-85b2-bf92ad39b7c4"},"vehicle_type_id":"4","last_reported":1698366736,"current_range_meters":30800,"station_id":"ce4bgt92rcd13ifvqcg0","pricing_plan_id":"free"},{"bike_id":"fe96f69a-3b8d-4430-bc43-d5d373264d0f","system_id":"levelo_inurba_marseille","lat":43.311125,"lon":5.377624,"is_reserved":false,"is_disabled":false,"rental_uris":{"android":"levelo://app?vid=fe96f69a-3b8d-4430-bc43-d5d373264d0f","ios":"levelo://app?vid=fe96f69a-3b8d-4430-bc43-d5d373264d0f"},"vehicle_type_id":"4","last_reported":1698366736,"current_range_meters":26000,"station_id":"ce4bgt92rcd13ifvqcg0","pricing_plan_id":"free"},{"bike_id":"70b35060-f487-4924-8e28-ed5a1ac6699c","system_id":"levelo_inurba_marseille","lat":43.307945,"lon":5.376487,"is_reserved":false,"is_disabled":false,"rental_uris":{"android":"levelo://app?vid=70b35060-f487-4924-8e28-ed5a1ac6699c","ios":"levelo://app?vid=70b35060-f487-4924-8e28-ed5a1ac6699c"},"vehicle_type_id":"4","last_reported":1698366736,"current_range_meters":13200,"station_id":"ce4bgv92rcd13ifvqcq0","pricing_plan_id":"free"},{"bike_id":"a714a3c1-ed62-495f-aa17-9da6d046c203","system_id":"levelo_inurba_marseille","lat":43.307945,"lon":5.376487,"is_reserved":false,"is_disabled":false,"rental_uris":{"android":"levelo://app?vid=a714a3c1-ed62-495f-aa17-9da6d046c203","ios":"levelo://app?vid=a714a3c1-ed62-495f-aa17-9da6d046c203"},"vehicle_type_id":"4","last_reported":1698366736,"current_range_meters":13200,"station_id":"ce4bgv92rcd13ifvqcq0","pricing_plan_id":"free"},{"bike_id":"5157c626-93b9-48ce-ab32-14a2dfa229fa","system_id":"levelo_inurba_marseille","lat":43.317075,"lon":5.377367,"is_reserved":false,"is_disabled":false,"rental_uris":{"android":"levelo://app?vid=5157c626-93b9-48ce-ab32-14a2dfa229fa","ios":"levelo://app?vid=5157c626-93b9-48ce-ab32-14a2dfa229fa"},"vehicle_type_id":"4","last_reported":1698366736,"current_range_meters":27200,"station_id":"ce4bgth2rcd13ifvqch0","pricing_plan_id":"free"},{"bike_id":"ad2622fc-6a31-47ff-a6b0-012b621e4519","system_id":"levelo_inurba_marseille","lat":43.317075,"lon":5.377367,"is_reserved":false,"is_disabled":false,"rental_uris":{"android":"levelo://app?vid=ad2622fc-6a31-47ff-a6b0-012b621e4519","ios":"levelo://app?vid=ad2622fc-6a31-47ff-a6b0-012b621e4519"},"vehicle_type_id":"4","last_reported":1698366736,"current_range_meters":28400,"station_id":"ce4bgth2rcd13ifvqch0","pricing_plan_id":"free"},{"bike_id":"830402f1-4ef5-4784-83a9-c1ccc3c44e46","system_id":"levelo_inurba_marseille","lat":43.315277,"lon":5.380293,"is_reserved":false,"is_disabled":false,"rental_uris":{"android":"levelo://app?vid=830402f1-4ef5-4784-83a9-c1ccc3c44e46","ios":"levelo://app?vid=830402f1-4ef5-4784-83a9-c1ccc3c44e46"},"vehicle_type_id":"4","last_reported":1698366736,"current_range_meters":8000,"station_id":"ce4bhsp2rcd13ifvqi50","pricing_plan_id":"free"},{"bike_id":"49be05fc-d426-4bcc-9c7a-9d6bfc674fdf","system_id":"levelo_inurba_marseille","lat":43.315373,"lon":5.380369,"is_reserved":false,"is_disabled":false,"rental_uris":{"android":"levelo://app?vid=49be05fc-d426-4bcc-9c7a-9d6bfc674fdf","ios":"levelo://app?vid=49be05fc-d426-4bcc-9c7a-9d6bfc674fdf"},"vehicle_type_id":"4","last_reported":1698366736,"current_range_meters":12000,"station_id":"ce4bhsp2rcd13ifvqi50","pricing_plan_id":"free"},{"bike_id":"3e414d4e-96c0-4800-a7a4-aa091ec2d0b3","system_id":"levelo_inurba_marseille","lat":43.30806,"lon":5.38142,"is_reserved":false,"is_disabled":false,"rental_uris":{"android":"levelo://app?vid=3e414d4e-96c0-4800-a7a4-aa091ec2d0b3","ios":"levelo://app?vid=3e414d4e-96c0-4800-a7a4-aa091ec2d0b3"},"vehicle_type_id":"4","last_reported":1698366736,"current_range_meters":25600,"station_id":"ce4bgt12rcd13ifvqce0","pricing_plan_id":"free"},{"bike_id":"2fa725fd-a145-4d7c-a074-1cc800e14e6d","system_id":"levelo_inurba_marseille","lat":43.308,"lon":5.38153,"is_reserved":false,"is_disabled":false,"rental_uris":{"android":"levelo://app?vid=2fa725fd-a145-4d7c-a074-1cc800e14e6d","ios":"levelo://app?vid=2fa725fd-a145-4d7c-a074-1cc800e14e6d"},"vehicle_type_id":"4","last_reported":1698366736,"current_range_meters":800,"station_id":"ce4bgt12rcd13ifvqce0","pricing_plan_id":"free"},{"bike_id":"8d3f0ef4-3018-49e6-9b02-aff9ce574994","system_id":"levelo_inurba_marseille","lat":43.304606,"lon":5.379026,"is_reserved":false,"is_disabled":false,"rental_uris":{"android":"levelo://app?vid=8d3f0ef4-3018-49e6-9b02-aff9ce574994","ios":"levelo://app?vid=8d3f0ef4-3018-49e6-9b02-aff9ce574994"},"vehicle_type_id":"4","last_reported":1698366736,"current_range_meters":30000,"station_id":"ce4bgup2rcd13ifvqcn0","pricing_plan_id":"free"},{"bike_id":"43d3fa23-fdf9-471f-89fa-a2521153a667","system_id":"levelo_inurba_marseille","lat":43.302784,"lon":5.377158,"is_reserved":false,"is_disabled":false,"rental_uris":{"android":"levelo://app?vid=43d3fa23-fdf9-471f-89fa-a2521153a667","ios":"levelo://app?vid=43d3fa23-fdf9-471f-89fa-a2521153a667"},"vehicle_type_id":"4","last_reported":1698366736,"current_range_meters":31200,"station_id":"ce4bguh2rcd13ifvqcj0","pricing_plan_id":"free"},{"bike_id":"1047bcc5-10ff-460b-bd6f-eac1d4a67db4","system_id":"levelo_inurba_marseille","lat":43.31745,"lon":5.382537,"is_reserved":false,"is_disabled":false,"rental_uris":{"android":"levelo://app?vid=1047bcc5-10ff-460b-bd6f-eac1d4a67db4","ios":"levelo://app?vid=1047bcc5-10ff-460b-bd6f-eac1d4a67db4"},"vehicle_type_id":"4","last_reported":1698366736,"current_range_meters":0,"station_id":"","pricing_plan_id":"free"},{"bike_id":"87f8d1dc-359f-496e-929c-13f66f9fab50","system_id":"levelo_inurba_marseille","lat":43.302784,"lon":5.377158,"is_reserved":false,"is_disabled":false,"rental_uris":{"android":"levelo://app?vid=87f8d1dc-359f-496e-929c-13f66f9fab50","ios":"levelo://app?vid=87f8d1dc-359f-496e-929c-13f66f9fab50"},"vehicle_type_id":"4","last_reported":1698366736,"current_range_meters":28000,"station_id":"ce4bguh2rcd13ifvqcj0","pricing_plan_id":"free"},{"bike_id":"437efc65-a0fd-4032-b101-a33d4a6f16b9","system_id":"levelo_inurba_marseille","lat":43.302826,"lon":5.376974,"is_reserved":false,"is_disabled":false,"rental_uris":{"android":"levelo://app?vid=437efc65-a0fd-4032-b101-a33d4a6f16b9","ios":"levelo://app?vid=437efc65-a0fd-4032-b101-a33d4a6f16b9"},"vehicle_type_id":"4","last_reported":1698366736,"current_range_meters":26000,"station_id":"ce4bguh2rcd13ifvqcj0","pricing_plan_id":"free"},{"bike_id":"f83a6d08-6d56-40f5-941d-d5023c266031","system_id":"levelo_inurba_marseille","lat":43.302784,"lon":5.377158,"is_reserved":false,"is_disabled":false,"rental_uris":{"android":"levelo://app?vid=f83a6d08-6d56-40f5-941d-d5023c266031","ios":"levelo://app?vid=f83a6d08-6d56-40f5-941d-d5023c266031"},"vehicle_type_id":"4","last_reported":1698366736,"current_range_meters":20800,"station_id":"ce4bguh2rcd13ifvqcj0","pricing_plan_id":"free"},{"bike_id":"ffbae5e4-9ee6-4737-b791-9f28ca1d7705","system_id":"levelo_inurba_marseille","lat":43.302784,"lon":5.377158,"is_reserved":false,"is_disabled":false,"rental_uris":{"android":"levelo://app?vid=ffbae5e4-9ee6-4737-b791-9f28ca1d7705","ios":"levelo://app?vid=ffbae5e4-9ee6-4737-b791-9f28ca1d7705"},"vehicle_type_id":"4","last_reported":1698366736,"current_range_meters":26400,"station_id":"ce4bguh2rcd13ifvqcj0","pricing_plan_id":"free"},{"bike_id":"46e59620-997e-486c-a36f-24a6f0541ad5","system_id":"levelo_inurba_marseille","lat":43.319937,"lon":5.381563,"is_reserved":false,"is_disabled":false,"rental_uris":{"android":"levelo://app?vid=46e59620-997e-486c-a36f-24a6f0541ad5","ios":"levelo://app?vid=46e59620-997e-486c-a36f-24a6f0541ad5"},"vehicle_type_id":"4","last_reported":1698366736,"current_range_meters":8800,"station_id":"","pricing_plan_id":"free"},{"bike_id":"bbf9c5d5-2a6f-41ab-85bc-29b392e1e988","system_id":"levelo_inurba_marseille","lat":43.313571,"lon":5.384829,"is_reserved":false,"is_disabled":false,"rental_uris":{"android":"levelo://app?vid=bbf9c5d5-2a6f-41ab-85bc-29b392e1e988","ios":"levelo://app?vid=bbf9c5d5-2a6f-41ab-85bc-29b392e1e988"},"vehicle_type_id":"4","last_reported":1698366736,"current_range_meters":26800,"station_id":"ce4bgt92rcd13ifvqcf0","pricing_plan_id":"free"},{"bike_id":"5e2358d1-432f-475d-a2d4-b492f5d14ba1","system_id":"levelo_inurba_marseille","lat":43.313571,"lon":5.384829,"is_reserved":false,"is_disabled":false,"rental_uris":{"android":"levelo://app?vid=5e2358d1-432f-475d-a2d4-b492f5d14ba1","ios":"levelo://app?vid=5e2358d1-432f-475d-a2d4-b492f5d14ba1"},"vehicle_type_id":"4","last_reported":1698366736,"current_range_meters":29600,"station_id":"ce4bgt92rcd13ifvqcf0","pricing_plan_id":"free"},{"bike_id":"58760f64-c88d-41e8-b0e5-a4aae3fdb6af","system_id":"levelo_inurba_marseille","lat":43.313571,"lon":5.384829,"is_reserved":false,"is_disabled":false,"rental_uris":{"android":"levelo://app?vid=58760f64-c88d-41e8-b0e5-a4aae3fdb6af","ios":"levelo://app?vid=58760f64-c88d-41e8-b0e5-a4aae3fdb6af"},"vehicle_type_id":"4","last_reported":1698366736,"current_range_meters":27600,"station_id":"ce4bgt92rcd13ifvqcf0","pricing_plan_id":"free"},{"bike_id":"effd5dba-c5d8-4932-809f-efc8df8cadd8","system_id":"levelo_inurba_marseille","lat":43.313571,"lon":5.384829,"is_reserved":false,"is_disabled":false,"rental_uris":{"android":"levelo://app?vid=effd5dba-c5d8-4932-809f-efc8df8cadd8","ios":"levelo://app?vid=effd5dba-c5d8-4932-809f-efc8df8cadd8"},"vehicle_type_id":"4","last_reported":1698366736,"current_range_meters":24800,"station_id":"ce4bgt92rcd13ifvqcf0","pricing_plan_id":"free"},{"bike_id":"e34e6484-87ec-4c57-9515-8cc0eab937e3","system_id":"levelo_inurba_marseille","lat":43.313571,"lon":5.384829,"is_reserved":false,"is_disabled":false,"rental_uris":{"android":"levelo://app?vid=e34e6484-87ec-4c57-9515-8cc0eab937e3","ios":"levelo://app?vid=e34e6484-87ec-4c57-9515-8cc0eab937e3"},"vehicle_type_id":"4","last_reported":1698366736,"current_range_meters":22000,"station_id":"ce4bgt92rcd13ifvqcf0","pricing_plan_id":"free"},{"bike_id":"ff5860a4-b7e2-4698-b66b-fd68f1919d11","system_id":"levelo_inurba_marseille","lat":43.313571,"lon":5.384829,"is_reserved":false,"is_disabled":false,"rental_uris":{"android":"levelo://app?vid=ff5860a4-b7e2-4698-b66b-fd68f1919d11","ios":"levelo://app?vid=ff5860a4-b7e2-4698-b66b-fd68f1919d11"},"vehicle_type_id":"4","last_reported":1698366736,"current_range_meters":17600,"station_id":"ce4bgt92rcd13ifvqcf0","pricing_plan_id":"free"},{"bike_id":"1e0a2095-9059-413a-922e-fece9d418686","system_id":"levelo_inurba_marseille","lat":43.299724,"lon":5.371829,"is_reserved":false,"is_disabled":false,"rental_uris":{"android":"levelo://app?vid=1e0a2095-9059-413a-922e-fece9d418686","ios":"levelo://app?vid=1e0a2095-9059-413a-922e-fece9d418686"},"vehicle_type_id":"4","last_reported":1698366736,"current_range_meters":27200,"station_id":"ce4bgr92rcd13ifvqc7g","pricing_plan_id":"free"},{"bike_id":"7d458971-2ea4-465f-ac9b-bae6f2528e62","system_id":"levelo_inurba_marseille","lat":43.299794,"lon":5.373452,"is_reserved":false,"is_disabled":false,"rental_uris":{"android":"levelo://app?vid=7d458971-2ea4-465f-ac9b-bae6f2528e62","ios":"levelo://app?vid=7d458971-2ea4-465f-ac9b-bae6f2528e62"},"vehicle_type_id":"4","last_reported":1698366736,"current_range_meters":0,"station_id":"","pricing_plan_id":"free"},{"bike_id":"97997ef7-b347-4148-ba57-9a15ecc4912d","system_id":"levelo_inurba_marseille","lat":43.320945,"lon":5.38306,"is_reserved":false,"is_disabled":false,"rental_uris":{"android":"levelo://app?vid=97997ef7-b347-4148-ba57-9a15ecc4912d","ios":"levelo://app?vid=97997ef7-b347-4148-ba57-9a15ecc4912d"},"vehicle_type_id":"4","last_reported":1698366736,"current_range_meters":0,"station_id":"","pricing_plan_id":"free"},{"bike_id":"dcda1973-b1e0-48bb-b340-ba07b8e64a20","system_id":"levelo_inurba_marseille","lat":43.298433,"lon":5.362774,"is_reserved":false,"is_disabled":false,"rental_uris":{"android":"levelo://app?vid=dcda1973-b1e0-48bb-b340-ba07b8e64a20","ios":"levelo://app?vid=dcda1973-b1e0-48bb-b340-ba07b8e64a20"},"vehicle_type_id":"4","last_reported":1698366736,"current_range_meters":31200,"station_id":"ce4bgpp2rcd13ifvqc3g","pricing_plan_id":"free"},{"bike_id":"0ec72a90-aebc-485f-88e1-543e94aa7608","system_id":"levelo_inurba_marseille","lat":43.298433,"lon":5.362774,"is_reserved":false,"is_disabled":false,"rental_uris":{"android":"levelo://app?vid=0ec72a90-aebc-485f-88e1-543e94aa7608","ios":"levelo://app?vid=0ec72a90-aebc-485f-88e1-543e94aa7608"},"vehicle_type_id":"4","last_reported":1698366736,"current_range_meters":31200,"station_id":"ce4bgpp2rcd13ifvqc3g","pricing_plan_id":"free"},{"bike_id":"833a0712-69e0-45b5-8917-189d768118d7","system_id":"levelo_inurba_marseille","lat":43.298433,"lon":5.362774,"is_reserved":false,"is_disabled":false,"rental_uris":{"android":"levelo://app?vid=833a0712-69e0-45b5-8917-189d768118d7","ios":"levelo://app?vid=833a0712-69e0-45b5-8917-189d768118d7"},"vehicle_type_id":"4","last_reported":1698366736,"current_range_meters":31600,"station_id":"ce4bgpp2rcd13ifvqc3g","pricing_plan_id":"free"},{"bike_id":"8127c54b-e756-40b5-b097-e205fe57aeb1","system_id":"levelo_inurba_marseille","lat":43.298433,"lon":5.362774,"is_reserved":false,"is_disabled":false,"rental_uris":{"android":"levelo://app?vid=8127c54b-e756-40b5-b097-e205fe57aeb1","ios":"levelo://app?vid=8127c54b-e756-40b5-b097-e205fe57aeb1"},"vehicle_type_id":"4","last_reported":1698366736,"current_range_meters":27600,"station_id":"ce4bgpp2rcd13ifvqc3g","pricing_plan_id":"free"},{"bike_id":"eb0c9504-a0a1-4106-a622-423de2298f7a","system_id":"levelo_inurba_marseille","lat":43.298433,"lon":5.362774,"is_reserved":false,"is_disabled":false,"rental_uris":{"android":"levelo://app?vid=eb0c9504-a0a1-4106-a622-423de2298f7a","ios":"levelo://app?vid=eb0c9504-a0a1-4106-a622-423de2298f7a"},"vehicle_type_id":"4","last_reported":1698366736,"current_range_meters":26800,"station_id":"ce4bgpp2rcd13ifvqc3g","pricing_plan_id":"free"},{"bike_id":"7e69cc48-4da4-4cd2-98c8-e4711d550be5","system_id":"levelo_inurba_marseille","lat":43.298433,"lon":5.362774,"is_reserved":false,"is_disabled":false,"rental_uris":{"android":"levelo://app?vid=7e69cc48-4da4-4cd2-98c8-e4711d550be5","ios":"levelo://app?vid=7e69cc48-4da4-4cd2-98c8-e4711d550be5"},"vehicle_type_id":"4","last_reported":1698366736,"current_range_meters":28800,"station_id":"ce4bgpp2rcd13ifvqc3g","pricing_plan_id":"free"},{"bike_id":"246bc270-c207-4123-ba8e-ae75237fbdb8","system_id":"levelo_inurba_marseille","lat":43.298433,"lon":5.362774,"is_reserved":false,"is_disabled":false,"rental_uris":{"android":"levelo://app?vid=246bc270-c207-4123-ba8e-ae75237fbdb8","ios":"levelo://app?vid=246bc270-c207-4123-ba8e-ae75237fbdb8"},"vehicle_type_id":"4","last_reported":1698366736,"current_range_meters":31200,"station_id":"ce4bgpp2rcd13ifvqc3g","pricing_plan_id":"free"},{"bike_id":"0b5c4a93-a829-4bbb-a50f-b8327cba654f","system_id":"levelo_inurba_marseille","lat":43.311722,"lon":5.387247,"is_reserved":false,"is_disabled":false,"rental_uris":{"android":"levelo://app?vid=0b5c4a93-a829-4bbb-a50f-b8327cba654f","ios":"levelo://app?vid=0b5c4a93-a829-4bbb-a50f-b8327cba654f"},"vehicle_type_id":"4","last_reported":1698366736,"current_range_meters":28800,"station_id":"ce4bgv12rcd13ifvqcp0","pricing_plan_id":"free"},{"bike_id":"0fc5e744-393c-43f8-95a4-a3ce3fe41602","system_id":"levelo_inurba_marseille","lat":43.311722,"lon":5.387247,"is_reserved":false,"is_disabled":false,"rental_uris":{"android":"levelo://app?vid=0fc5e744-393c-43f8-95a4-a3ce3fe41602","ios":"levelo://app?vid=0fc5e744-393c-43f8-95a4-a3ce3fe41602"},"vehicle_type_id":"4","last_reported":1698366736,"current_range_meters":28400,"station_id":"ce4bgv12rcd13ifvqcp0","pricing_plan_id":"free"},{"bike_id":"32eebd9a-d1a5-4472-93e6-397797da6433","system_id":"levelo_inurba_marseille","lat":43.311722,"lon":5.387247,"is_reserved":false,"is_disabled":false,"rental_uris":{"android":"levelo://app?vid=32eebd9a-d1a5-4472-93e6-397797da6433","ios":"levelo://app?vid=32eebd9a-d1a5-4472-93e6-397797da6433"},"vehicle_type_id":"4","last_reported":1698366736,"current_range_meters":3600,"station_id":"ce4bgv12rcd13ifvqcp0","pricing_plan_id":"free"},{"bike_id":"3269c17a-3070-428d-ad68-d62686e7f0c9","system_id":"levelo_inurba_marseille","lat":43.299243,"lon":5.37481,"is_reserved":false,"is_disabled":false,"rental_uris":{"android":"levelo://app?vid=3269c17a-3070-428d-ad68-d62686e7f0c9","ios":"levelo://app?vid=3269c17a-3070-428d-ad68-d62686e7f0c9"},"vehicle_type_id":"4","last_reported":1698366736,"current_range_meters":8800,"station_id":"ce4bgjh2rcd13ifvqbg0","pricing_plan_id":"free"},{"bike_id":"2bf09692-7151-4aba-9fa7-8ce1d6106004","system_id":"levelo_inurba_marseille","lat":43.328303,"lon":5.366873,"is_reserved":false,"is_disabled":false,"rental_uris":{"android":"levelo://app?vid=2bf09692-7151-4aba-9fa7-8ce1d6106004","ios":"levelo://app?vid=2bf09692-7151-4aba-9fa7-8ce1d6106004"},"vehicle_type_id":"4","last_reported":1698366736,"current_range_meters":18800,"station_id":"","pricing_plan_id":"free"},{"bike_id":"b3e63496-ef57-4fe7-9649-3ee98b2a4e91","system_id":"levelo_inurba_marseille","lat":43.32831,"lon":5.36697,"is_reserved":false,"is_disabled":false,"rental_uris":{"android":"levelo://app?vid=b3e63496-ef57-4fe7-9649-3ee98b2a4e91","ios":"levelo://app?vid=b3e63496-ef57-4fe7-9649-3ee98b2a4e91"},"vehicle_type_id":"4","last_reported":1698366736,"current_range_meters":15600,"station_id":"","pricing_plan_id":"free"},{"bike_id":"be82958a-75da-4807-927f-262153a9537d","system_id":"levelo_inurba_marseille","lat":43.297163,"lon":5.365866,"is_reserved":false,"is_disabled":false,"rental_uris":{"android":"levelo://app?vid=be82958a-75da-4807-927f-262153a9537d","ios":"levelo://app?vid=be82958a-75da-4807-927f-262153a9537d"},"vehicle_type_id":"4","last_reported":1698366736,"current_range_meters":30800,"station_id":"ce4bgn12rcd13ifvqbt0","pricing_plan_id":"free"},{"bike_id":"2b988af8-736e-487b-8b7e-6dd620b3df78","system_id":"levelo_inurba_marseille","lat":43.296131,"lon":5.370773,"is_reserved":false,"is_disabled":false,"rental_uris":{"android":"levelo://app?vid=2b988af8-736e-487b-8b7e-6dd620b3df78","ios":"levelo://app?vid=2b988af8-736e-487b-8b7e-6dd620b3df78"},"vehicle_type_id":"4","last_reported":1698366736,"current_range_meters":28400,"station_id":"ce4bgnh2rcd13ifvqc0g","pricing_plan_id":"free"},{"bike_id":"f3d0381f-7a2d-409e-a12f-bd3d9095653d","system_id":"levelo_inurba_marseille","lat":43.329673,"lon":5.365468,"is_reserved":false,"is_disabled":false,"rental_uris":{"android":"levelo://app?vid=f3d0381f-7a2d-409e-a12f-bd3d9095653d","ios":"levelo://app?vid=f3d0381f-7a2d-409e-a12f-bd3d9095653d"},"vehicle_type_id":"4","last_reported":1698366736,"current_range_meters":11200,"station_id":"","pricing_plan_id":"free"},{"bike_id":"cfc661ad-803f-419e-aa2a-4277625e43d4","system_id":"levelo_inurba_marseille","lat":43.309589,"lon":5.390258,"is_reserved":false,"is_disabled":false,"rental_uris":{"android":"levelo://app?vid=cfc661ad-803f-419e-aa2a-4277625e43d4","ios":"levelo://app?vid=cfc661ad-803f-419e-aa2a-4277625e43d4"},"vehicle_type_id":"4","last_reported":1698366736,"current_range_meters":25200,"station_id":"ce4bgup2rcd13ifvqco0","pricing_plan_id":"free"},{"bike_id":"d601eb37-3447-406a-af56-51b14d977400","system_id":"levelo_inurba_marseille","lat":43.309589,"lon":5.390258,"is_reserved":false,"is_disabled":false,"rental_uris":{"android":"levelo://app?vid=d601eb37-3447-406a-af56-51b14d977400","ios":"levelo://app?vid=d601eb37-3447-406a-af56-51b14d977400"},"vehicle_type_id":"4","last_reported":1698366736,"current_range_meters":14000,"station_id":"ce4bgup2rcd13ifvqco0","pricing_plan_id":"free"},{"bike_id":"18b39d38-0c3d-4c31-9a7d-9740b40c2548","system_id":"levelo_inurba_marseille","lat":43.309589,"lon":5.390258,"is_reserved":false,"is_disabled":false,"rental_uris":{"android":"levelo://app?vid=18b39d38-0c3d-4c31-9a7d-9740b40c2548","ios":"levelo://app?vid=18b39d38-0c3d-4c31-9a7d-9740b40c2548"},"vehicle_type_id":"4","last_reported":1698366736,"current_range_meters":28400,"station_id":"ce4bgup2rcd13ifvqco0","pricing_plan_id":"free"},{"bike_id":"b65b438a-7936-450d-93c2-defbccd01acb","system_id":"levelo_inurba_marseille","lat":43.309589,"lon":5.390258,"is_reserved":false,"is_disabled":false,"rental_uris":{"android":"levelo://app?vid=b65b438a-7936-450d-93c2-defbccd01acb","ios":"levelo://app?vid=b65b438a-7936-450d-93c2-defbccd01acb"},"vehicle_type_id":"4","last_reported":1698366736,"current_range_meters":12400,"station_id":"ce4bgup2rcd13ifvqco0","pricing_plan_id":"free"},{"bike_id":"f024c21a-49b5-4f28-99e1-b42cd7ba31ca","system_id":"levelo_inurba_marseille","lat":43.317557,"lon":5.390173,"is_reserved":false,"is_disabled":false,"rental_uris":{"android":"levelo://app?vid=f024c21a-49b5-4f28-99e1-b42cd7ba31ca","ios":"levelo://app?vid=f024c21a-49b5-4f28-99e1-b42cd7ba31ca"},"vehicle_type_id":"4","last_reported":1698366736,"current_range_meters":30400,"station_id":"ce4bhqp2rcd13ifvqhng","pricing_plan_id":"free"},{"bike_id":"ef2e6e61-9280-4b32-a7c8-6a2ff2411b9f","system_id":"levelo_inurba_marseille","lat":43.296281,"lon":5.377037,"is_reserved":false,"is_disabled":false,"rental_uris":{"android":"levelo://app?vid=ef2e6e61-9280-4b32-a7c8-6a2ff2411b9f","ios":"levelo://app?vid=ef2e6e61-9280-4b32-a7c8-6a2ff2411b9f"},"vehicle_type_id":"4","last_reported":1698366736,"current_range_meters":16000,"station_id":"ce4bgi92rcd13ifvqb90","pricing_plan_id":"free"},{"bike_id":"fb8caa77-5c90-4c89-a82d-4f2f9ee5a439","system_id":"levelo_inurba_marseille","lat":43.297309,"lon":5.380563,"is_reserved":false,"is_disabled":false,"rental_uris":{"android":"levelo://app?vid=fb8caa77-5c90-4c89-a82d-4f2f9ee5a439","ios":"levelo://app?vid=fb8caa77-5c90-4c89-a82d-4f2f9ee5a439"},"vehicle_type_id":"4","last_reported":1698366736,"current_range_meters":30400,"station_id":"","pricing_plan_id":"free"},{"bike_id":"b15e2245-c87b-4f7d-b09e-9705cafc41b5","system_id":"levelo_inurba_marseille","lat":43.29969,"lon":5.384934,"is_reserved":false,"is_disabled":false,"rental_uris":{"android":"levelo://app?vid=b15e2245-c87b-4f7d-b09e-9705cafc41b5","ios":"levelo://app?vid=b15e2245-c87b-4f7d-b09e-9705cafc41b5"},"vehicle_type_id":"4","last_reported":1698366736,"current_range_meters":0,"station_id":"ce4bgj92rcd13ifvqbd0","pricing_plan_id":"free"},{"bike_id":"50ba0a4e-dc52-4b36-bbea-ef74378b458b","system_id":"levelo_inurba_marseille","lat":43.29698,"lon":5.3812,"is_reserved":false,"is_disabled":false,"rental_uris":{"android":"levelo://app?vid=50ba0a4e-dc52-4b36-bbea-ef74378b458b","ios":"levelo://app?vid=50ba0a4e-dc52-4b36-bbea-ef74378b458b"},"vehicle_type_id":"4","last_reported":1698366736,"current_range_meters":400,"station_id":"","pricing_plan_id":"free"},{"bike_id":"328d595c-aa89-496b-8c8f-a09d559e03d5","system_id":"levelo_inurba_marseille","lat":43.29306,"lon":5.37179,"is_reserved":false,"is_disabled":false,"rental_uris":{"android":"levelo://app?vid=328d595c-aa89-496b-8c8f-a09d559e03d5","ios":"levelo://app?vid=328d595c-aa89-496b-8c8f-a09d559e03d5"},"vehicle_type_id":"4","last_reported":1698366736,"current_range_meters":11200,"station_id":"ce4bgh92rcd13ifvqb40","pricing_plan_id":"free"},{"bike_id":"e61bde2f-c92f-48f8-bd64-a883486f2c29","system_id":"levelo_inurba_marseille","lat":43.29306,"lon":5.3718,"is_reserved":false,"is_disabled":false,"rental_uris":{"android":"levelo://app?vid=e61bde2f-c92f-48f8-bd64-a883486f2c29","ios":"levelo://app?vid=e61bde2f-c92f-48f8-bd64-a883486f2c29"},"vehicle_type_id":"4","last_reported":1698366736,"current_range_meters":16000,"station_id":"ce4bgh92rcd13ifvqb40","pricing_plan_id":"free"},{"bike_id":"bbab7e28-ee01-4080-b12e-dd8baccd43d0","system_id":"levelo_inurba_marseille","lat":43.32394,"lon":5.389747,"is_reserved":false,"is_disabled":false,"rental_uris":{"android":"levelo://app?vid=bbab7e28-ee01-4080-b12e-dd8baccd43d0","ios":"levelo://app?vid=bbab7e28-ee01-4080-b12e-dd8baccd43d0"},"vehicle_type_id":"4","last_reported":1698366736,"current_range_meters":14800,"station_id":"","pricing_plan_id":"free"},{"bike_id":"1252552a-b813-4a50-af0e-66c3a71e325c","system_id":"levelo_inurba_marseille","lat":43.293259,"lon":5.371586,"is_reserved":false,"is_disabled":false,"rental_uris":{"android":"levelo://app?vid=1252552a-b813-4a50-af0e-66c3a71e325c","ios":"levelo://app?vid=1252552a-b813-4a50-af0e-66c3a71e325c"},"vehicle_type_id":"4","last_reported":1698366736,"current_range_meters":23600,"station_id":"ce4bgh92rcd13ifvqb40","pricing_plan_id":"free"},{"bike_id":"ecd7bd0b-ee2d-4762-adc5-7a3021f6a7d2","system_id":"levelo_inurba_marseille","lat":43.293103,"lon":5.374525,"is_reserved":false,"is_disabled":false,"rental_uris":{"android":"levelo://app?vid=ecd7bd0b-ee2d-4762-adc5-7a3021f6a7d2","ios":"levelo://app?vid=ecd7bd0b-ee2d-4762-adc5-7a3021f6a7d2"},"vehicle_type_id":"4","last_reported":1698366736,"current_range_meters":0,"station_id":"ce4bgi12rcd13ifvqb70","pricing_plan_id":"free"},{"bike_id":"6c320a19-52e6-4d9f-b89b-45e8cd638bef","system_id":"levelo_inurba_marseille","lat":43.305994,"lon":5.393687,"is_reserved":false,"is_disabled":false,"rental_uris":{"android":"levelo://app?vid=6c320a19-52e6-4d9f-b89b-45e8cd638bef","ios":"levelo://app?vid=6c320a19-52e6-4d9f-b89b-45e8cd638bef"},"vehicle_type_id":"4","last_reported":1698366736,"current_range_meters":0,"station_id":"ce4bh0p2rcd13ifvqd80","pricing_plan_id":"free"},{"bike_id":"4b0a8173-69dc-4758-8d4f-d02834a26450","system_id":"levelo_inurba_marseille","lat":43.303002,"lon":5.392142,"is_reserved":false,"is_disabled":false,"rental_uris":{"android":"levelo://app?vid=4b0a8173-69dc-4758-8d4f-d02834a26450","ios":"levelo://app?vid=4b0a8173-69dc-4758-8d4f-d02834a26450"},"vehicle_type_id":"4","last_reported":1698366736,"current_range_meters":27600,"station_id":"ce4bgkh2rcd13ifvqbk0","pricing_plan_id":"free"},{"bike_id":"e425e6a5-c141-449d-9cff-130e7106c980","system_id":"levelo_inurba_marseille","lat":43.300852,"lon":5.390859,"is_reserved":false,"is_disabled":false,"rental_uris":{"android":"levelo://app?vid=e425e6a5-c141-449d-9cff-130e7106c980","ios":"levelo://app?vid=e425e6a5-c141-449d-9cff-130e7106c980"},"vehicle_type_id":"4","last_reported":1698366736,"current_range_meters":29600,"station_id":"ce4bh192rcd13ifvqdb0","pricing_plan_id":"free"},{"bike_id":"eb36023b-e960-436d-8502-f308ce0f7251","system_id":"levelo_inurba_marseille","lat":43.29221,"lon":5.36051,"is_reserved":false,"is_disabled":false,"rental_uris":{"android":"levelo://app?vid=eb36023b-e960-436d-8502-f308ce0f7251","ios":"levelo://app?vid=eb36023b-e960-436d-8502-f308ce0f7251"},"vehicle_type_id":"4","last_reported":1698366736,"current_range_meters":25600,"station_id":"ce4bhbh2rcd13ifvqeqg","pricing_plan_id":"free"},{"bike_id":"ecf3ae2e-c14e-4e1f-916a-6908ae4161c3","system_id":"levelo_inurba_marseille","lat":43.298764,"lon":5.388973,"is_reserved":false,"is_disabled":false,"rental_uris":{"android":"levelo://app?vid=ecf3ae2e-c14e-4e1f-916a-6908ae4161c3","ios":"levelo://app?vid=ecf3ae2e-c14e-4e1f-916a-6908ae4161c3"},"vehicle_type_id":"4","last_reported":1698366736,"current_range_meters":24800,"station_id":"ce4bh392rcd13ifvqdl0","pricing_plan_id":"free"},{"bike_id":"efc8ed57-934e-4669-9f0d-a7490c48ab2c","system_id":"levelo_inurba_marseille","lat":43.291671,"lon":5.371575,"is_reserved":false,"is_disabled":false,"rental_uris":{"android":"levelo://app?vid=efc8ed57-934e-4669-9f0d-a7490c48ab2c","ios":"levelo://app?vid=efc8ed57-934e-4669-9f0d-a7490c48ab2c"},"vehicle_type_id":"4","last_reported":1698366736,"current_range_meters":27200,"station_id":"ce4bha92rcd13ifvqeh0","pricing_plan_id":"free"},{"bike_id":"09d4e7e4-5801-4d63-8060-7a9d51ca010b","system_id":"levelo_inurba_marseille","lat":43.309038,"lon":5.396546,"is_reserved":false,"is_disabled":false,"rental_uris":{"android":"levelo://app?vid=09d4e7e4-5801-4d63-8060-7a9d51ca010b","ios":"levelo://app?vid=09d4e7e4-5801-4d63-8060-7a9d51ca010b"},"vehicle_type_id":"4","last_reported":1698366736,"current_range_meters":4800,"station_id":"ce4bh012rcd13ifvqcv0","pricing_plan_id":"free"},{"bike_id":"c865379a-68f7-4118-9ac2-66ef0f42ba73","system_id":"levelo_inurba_marseille","lat":43.309038,"lon":5.396546,"is_reserved":false,"is_disabled":false,"rental_uris":{"android":"levelo://app?vid=c865379a-68f7-4118-9ac2-66ef0f42ba73","ios":"levelo://app?vid=c865379a-68f7-4118-9ac2-66ef0f42ba73"},"vehicle_type_id":"4","last_reported":1698366736,"current_range_meters":30800,"station_id":"ce4bh012rcd13ifvqcv0","pricing_plan_id":"free"},{"bike_id":"2ce86162-9c3b-4bb6-b3ce-ca57c7b9ee8c","system_id":"levelo_inurba_marseille","lat":43.309038,"lon":5.396546,"is_reserved":false,"is_disabled":false,"rental_uris":{"android":"levelo://app?vid=2ce86162-9c3b-4bb6-b3ce-ca57c7b9ee8c","ios":"levelo://app?vid=2ce86162-9c3b-4bb6-b3ce-ca57c7b9ee8c"},"vehicle_type_id":"4","last_reported":1698366736,"current_range_meters":31200,"station_id":"ce4bh012rcd13ifvqcv0","pricing_plan_id":"free"},{"bike_id":"06b83785-26d6-46d8-b1df-e0e63f3ece80","system_id":"levelo_inurba_marseille","lat":43.309038,"lon":5.396546,"is_reserved":false,"is_disabled":false,"rental_uris":{"android":"levelo://app?vid=06b83785-26d6-46d8-b1df-e0e63f3ece80","ios":"levelo://app?vid=06b83785-26d6-46d8-b1df-e0e63f3ece80"},"vehicle_type_id":"4","last_reported":1698366736,"current_range_meters":28400,"station_id":"ce4bh012rcd13ifvqcv0","pricing_plan_id":"free"},{"bike_id":"0838bcbf-6eee-4f49-b9b2-d220f9970dce","system_id":"levelo_inurba_marseille","lat":43.309038,"lon":5.396546,"is_reserved":false,"is_disabled":false,"rental_uris":{"android":"levelo://app?vid=0838bcbf-6eee-4f49-b9b2-d220f9970dce","ios":"levelo://app?vid=0838bcbf-6eee-4f49-b9b2-d220f9970dce"},"vehicle_type_id":"4","last_reported":1698366736,"current_range_meters":29600,"station_id":"ce4bh012rcd13ifvqcv0","pricing_plan_id":"free"},{"bike_id":"db842c2b-3ca4-4ae6-9422-3cfb385d3cde","system_id":"levelo_inurba_marseille","lat":43.31326,"lon":5.39689,"is_reserved":false,"is_disabled":false,"rental_uris":{"android":"levelo://app?vid=db842c2b-3ca4-4ae6-9422-3cfb385d3cde","ios":"levelo://app?vid=db842c2b-3ca4-4ae6-9422-3cfb385d3cde"},"vehicle_type_id":"4","last_reported":1698366736,"current_range_meters":4000,"station_id":"ce4bgvp2rcd13ifvqcu0","pricing_plan_id":"free"},{"bike_id":"97ac7ef4-35ba-483c-a011-024fae277f0d","system_id":"levelo_inurba_marseille","lat":43.31328,"lon":5.39689,"is_reserved":false,"is_disabled":false,"rental_uris":{"android":"levelo://app?vid=97ac7ef4-35ba-483c-a011-024fae277f0d","ios":"levelo://app?vid=97ac7ef4-35ba-483c-a011-024fae277f0d"},"vehicle_type_id":"4","last_reported":1698366736,"current_range_meters":19200,"station_id":"ce4bgvp2rcd13ifvqcu0","pricing_plan_id":"free"},{"bike_id":"ec013e18-cbd0-4f38-8d7c-cffb52c96db1","system_id":"levelo_inurba_marseille","lat":43.31324,"lon":5.3969,"is_reserved":false,"is_disabled":false,"rental_uris":{"android":"levelo://app?vid=ec013e18-cbd0-4f38-8d7c-cffb52c96db1","ios":"levelo://app?vid=ec013e18-cbd0-4f38-8d7c-cffb52c96db1"},"vehicle_type_id":"4","last_reported":1698366736,"current_range_meters":30000,"station_id":"ce4bgvp2rcd13ifvqcu0","pricing_plan_id":"free"},{"bike_id":"8fd92eac-6fce-48db-b801-19fa67136f98","system_id":"levelo_inurba_marseille","lat":43.31325,"lon":5.39691,"is_reserved":false,"is_disabled":false,"rental_uris":{"android":"levelo://app?vid=8fd92eac-6fce-48db-b801-19fa67136f98","ios":"levelo://app?vid=8fd92eac-6fce-48db-b801-19fa67136f98"},"vehicle_type_id":"4","last_reported":1698366736,"current_range_meters":13600,"station_id":"ce4bgvp2rcd13ifvqcu0","pricing_plan_id":"free"},{"bike_id":"9311829a-230d-4ec8-aca9-741dd60effb4","system_id":"levelo_inurba_marseille","lat":43.309038,"lon":5.396546,"is_reserved":false,"is_disabled":false,"rental_uris":{"android":"levelo://app?vid=9311829a-230d-4ec8-aca9-741dd60effb4","ios":"levelo://app?vid=9311829a-230d-4ec8-aca9-741dd60effb4"},"vehicle_type_id":"4","last_reported":1698366736,"current_range_meters":25600,"station_id":"ce4bh012rcd13ifvqcv0","pricing_plan_id":"free"},{"bike_id":"a9b6a98e-2c6f-43b1-8b07-6753747c3115","system_id":"levelo_inurba_marseille","lat":43.31331,"lon":5.39691,"is_reserved":false,"is_disabled":false,"rental_uris":{"android":"levelo://app?vid=a9b6a98e-2c6f-43b1-8b07-6753747c3115","ios":"levelo://app?vid=a9b6a98e-2c6f-43b1-8b07-6753747c3115"},"vehicle_type_id":"4","last_reported":1698366736,"current_range_meters":12800,"station_id":"ce4bgvp2rcd13ifvqcu0","pricing_plan_id":"free"},{"bike_id":"e95f2fbb-6e6a-4d8b-84a7-7e85837354f6","system_id":"levelo_inurba_marseille","lat":43.309038,"lon":5.396546,"is_reserved":false,"is_disabled":false,"rental_uris":{"android":"levelo://app?vid=e95f2fbb-6e6a-4d8b-84a7-7e85837354f6","ios":"levelo://app?vid=e95f2fbb-6e6a-4d8b-84a7-7e85837354f6"},"vehicle_type_id":"4","last_reported":1698366736,"current_range_meters":31200,"station_id":"ce4bh012rcd13ifvqcv0","pricing_plan_id":"free"},{"bike_id":"36e4c9dc-243b-4544-bef1-1d9f79ced9be","system_id":"levelo_inurba_marseille","lat":43.31329,"lon":5.39696,"is_reserved":false,"is_disabled":false,"rental_uris":{"android":"levelo://app?vid=36e4c9dc-243b-4544-bef1-1d9f79ced9be","ios":"levelo://app?vid=36e4c9dc-243b-4544-bef1-1d9f79ced9be"},"vehicle_type_id":"4","last_reported":1698366736,"current_range_meters":5200,"station_id":"ce4bgvp2rcd13ifvqcu0","pricing_plan_id":"free"},{"bike_id":"923ac3d4-a19e-4fd6-bac7-919e3a14cb4c","system_id":"levelo_inurba_marseille","lat":43.31324,"lon":5.39697,"is_reserved":false,"is_disabled":false,"rental_uris":{"android":"levelo://app?vid=923ac3d4-a19e-4fd6-bac7-919e3a14cb4c","ios":"levelo://app?vid=923ac3d4-a19e-4fd6-bac7-919e3a14cb4c"},"vehicle_type_id":"4","last_reported":1698366736,"current_range_meters":8000,"station_id":"ce4bgvp2rcd13ifvqcu0","pricing_plan_id":"free"},{"bike_id":"6f4b0669-2504-4721-a7c7-298db0c5b367","system_id":"levelo_inurba_marseille","lat":43.309038,"lon":5.396546,"is_reserved":false,"is_disabled":false,"rental_uris":{"android":"levelo://app?vid=6f4b0669-2504-4721-a7c7-298db0c5b367","ios":"levelo://app?vid=6f4b0669-2504-4721-a7c7-298db0c5b367"},"vehicle_type_id":"4","last_reported":1698366736,"current_range_meters":4400,"station_id":"ce4bh012rcd13ifvqcv0","pricing_plan_id":"free"},{"bike_id":"dfacef70-8b7b-4446-92a4-92241579bc69","system_id":"levelo_inurba_marseille","lat":43.3133,"lon":5.39703,"is_reserved":false,"is_disabled":false,"rental_uris":{"android":"levelo://app?vid=dfacef70-8b7b-4446-92a4-92241579bc69","ios":"levelo://app?vid=dfacef70-8b7b-4446-92a4-92241579bc69"},"vehicle_type_id":"4","last_reported":1698366736,"current_range_meters":3200,"station_id":"ce4bgvp2rcd13ifvqcu0","pricing_plan_id":"free"},{"bike_id":"a7f17507-076c-41e0-9e76-fecbcf8fefb3","system_id":"levelo_inurba_marseille","lat":43.308771,"lon":5.396567,"is_reserved":false,"is_disabled":false,"rental_uris":{"android":"levelo://app?vid=a7f17507-076c-41e0-9e76-fecbcf8fefb3","ios":"levelo://app?vid=a7f17507-076c-41e0-9e76-fecbcf8fefb3"},"vehicle_type_id":"4","last_reported":1698366736,"current_range_meters":28800,"station_id":"ce4bh0p2rcd13ifvqd70","pricing_plan_id":"free"},{"bike_id":"ed97be2c-881f-440a-91fb-e326fd53f316","system_id":"levelo_inurba_marseille","lat":43.309038,"lon":5.396546,"is_reserved":false,"is_disabled":false,"rental_uris":{"android":"levelo://app?vid=ed97be2c-881f-440a-91fb-e326fd53f316","ios":"levelo://app?vid=ed97be2c-881f-440a-91fb-e326fd53f316"},"vehicle_type_id":"4","last_reported":1698366736,"current_range_meters":22000,"station_id":"ce4bh012rcd13ifvqcv0","pricing_plan_id":"free"},{"bike_id":"df2b3191-fd59-4c32-81db-453fb48a3c49","system_id":"levelo_inurba_marseille","lat":43.309038,"lon":5.396546,"is_reserved":false,"is_disabled":false,"rental_uris":{"android":"levelo://app?vid=df2b3191-fd59-4c32-81db-453fb48a3c49","ios":"levelo://app?vid=df2b3191-fd59-4c32-81db-453fb48a3c49"},"vehicle_type_id":"4","last_reported":1698366736,"current_range_meters":6800,"station_id":"ce4bh012rcd13ifvqcv0","pricing_plan_id":"free"},{"bike_id":"126d4670-e812-40c6-9f2a-535ee2ec9a6b","system_id":"levelo_inurba_marseille","lat":43.33219,"lon":5.38149,"is_reserved":false,"is_disabled":false,"rental_uris":{"android":"levelo://app?vid=126d4670-e812-40c6-9f2a-535ee2ec9a6b","ios":"levelo://app?vid=126d4670-e812-40c6-9f2a-535ee2ec9a6b"},"vehicle_type_id":"4","last_reported":1698366736,"current_range_meters":1600,"station_id":"","pricing_plan_id":"free"},{"bike_id":"2ab7ca61-d699-46b6-b3b8-979d79b7a26f","system_id":"levelo_inurba_marseille","lat":43.290779,"lon":5.371482,"is_reserved":false,"is_disabled":false,"rental_uris":{"android":"levelo://app?vid=2ab7ca61-d699-46b6-b3b8-979d79b7a26f","ios":"levelo://app?vid=2ab7ca61-d699-46b6-b3b8-979d79b7a26f"},"vehicle_type_id":"4","last_reported":1698366736,"current_range_meters":31200,"station_id":"ce4bh5p2rcd13ifvqe4g","pricing_plan_id":"free"},{"bike_id":"d445e7dc-8f39-4198-8d15-1838ad42556e","system_id":"levelo_inurba_marseille","lat":43.30205,"lon":5.3948,"is_reserved":false,"is_disabled":false,"rental_uris":{"android":"levelo://app?vid=d445e7dc-8f39-4198-8d15-1838ad42556e","ios":"levelo://app?vid=d445e7dc-8f39-4198-8d15-1838ad42556e"},"vehicle_type_id":"4","last_reported":1698366736,"current_range_meters":10400,"station_id":"ce4bh0p2rcd13ifvqd70","pricing_plan_id":"free"},{"bike_id":"3ba9337c-3a4c-4b79-bb22-9c08f678ee27","system_id":"levelo_inurba_marseille","lat":43.3339,"lon":5.37907,"is_reserved":false,"is_disabled":false,"rental_uris":{"android":"levelo://app?vid=3ba9337c-3a4c-4b79-bb22-9c08f678ee27","ios":"levelo://app?vid=3ba9337c-3a4c-4b79-bb22-9c08f678ee27"},"vehicle_type_id":"4","last_reported":1698366736,"current_range_meters":20800,"station_id":"","pricing_plan_id":"free"},{"bike_id":"d17ad875-3cb6-412e-ace1-8930afe48429","system_id":"levelo_inurba_marseille","lat":43.290624,"lon":5.359245,"is_reserved":false,"is_disabled":false,"rental_uris":{"android":"levelo://app?vid=d17ad875-3cb6-412e-ace1-8930afe48429","ios":"levelo://app?vid=d17ad875-3cb6-412e-ace1-8930afe48429"},"vehicle_type_id":"4","last_reported":1698366736,"current_range_meters":30000,"station_id":"ce4bha92rcd13ifvqeg0","pricing_plan_id":"free"},{"bike_id":"38fa35ab-e72b-4426-a32e-7702584167c1","system_id":"levelo_inurba_marseille","lat":43.289184,"lon":5.366408,"is_reserved":false,"is_disabled":false,"rental_uris":{"android":"levelo://app?vid=38fa35ab-e72b-4426-a32e-7702584167c1","ios":"levelo://app?vid=38fa35ab-e72b-4426-a32e-7702584167c1"},"vehicle_type_id":"4","last_reported":1698366736,"current_range_meters":0,"station_id":"ce4bhap2rcd13ifvqek0","pricing_plan_id":"free"},{"bike_id":"b78a19e4-8750-43d2-9e7c-e8786f6187bb","system_id":"levelo_inurba_marseille","lat":43.289184,"lon":5.366408,"is_reserved":false,"is_disabled":false,"rental_uris":{"android":"levelo://app?vid=b78a19e4-8750-43d2-9e7c-e8786f6187bb","ios":"levelo://app?vid=b78a19e4-8750-43d2-9e7c-e8786f6187bb"},"vehicle_type_id":"4","last_reported":1698366736,"current_range_meters":9600,"station_id":"ce4bhap2rcd13ifvqek0","pricing_plan_id":"free"},{"bike_id":"3d28a5fd-b5cb-448d-a4f9-f4843048e091","system_id":"levelo_inurba_marseille","lat":43.289184,"lon":5.366408,"is_reserved":false,"is_disabled":false,"rental_uris":{"android":"levelo://app?vid=3d28a5fd-b5cb-448d-a4f9-f4843048e091","ios":"levelo://app?vid=3d28a5fd-b5cb-448d-a4f9-f4843048e091"},"vehicle_type_id":"4","last_reported":1698366736,"current_range_meters":8800,"station_id":"ce4bhap2rcd13ifvqek0","pricing_plan_id":"free"},{"bike_id":"732c6e7b-b591-422e-9a4b-786075df6f16","system_id":"levelo_inurba_marseille","lat":43.289511,"lon":5.364016,"is_reserved":false,"is_disabled":false,"rental_uris":{"android":"levelo://app?vid=732c6e7b-b591-422e-9a4b-786075df6f16","ios":"levelo://app?vid=732c6e7b-b591-422e-9a4b-786075df6f16"},"vehicle_type_id":"4","last_reported":1698366736,"current_range_meters":9200,"station_id":"ce4bhc92rcd13ifvqetg","pricing_plan_id":"free"},{"bike_id":"7e3b759b-accd-4453-be34-9b5260d006c6","system_id":"levelo_inurba_marseille","lat":43.289184,"lon":5.366408,"is_reserved":false,"is_disabled":false,"rental_uris":{"android":"levelo://app?vid=7e3b759b-accd-4453-be34-9b5260d006c6","ios":"levelo://app?vid=7e3b759b-accd-4453-be34-9b5260d006c6"},"vehicle_type_id":"4","last_reported":1698366736,"current_range_meters":28800,"station_id":"ce4bhap2rcd13ifvqek0","pricing_plan_id":"free"},{"bike_id":"4041cd24-6591-41e8-a9c9-a2c6592c3bf0","system_id":"levelo_inurba_marseille","lat":43.289184,"lon":5.366408,"is_reserved":false,"is_disabled":false,"rental_uris":{"android":"levelo://app?vid=4041cd24-6591-41e8-a9c9-a2c6592c3bf0","ios":"levelo://app?vid=4041cd24-6591-41e8-a9c9-a2c6592c3bf0"},"vehicle_type_id":"4","last_reported":1698366736,"current_range_meters":0,"station_id":"ce4bhap2rcd13ifvqek0","pricing_plan_id":"free"},{"bike_id":"acd39ac4-25e9-48a2-b394-fd4a3a380b4e","system_id":"levelo_inurba_marseille","lat":43.289184,"lon":5.366408,"is_reserved":false,"is_disabled":false,"rental_uris":{"android":"levelo://app?vid=acd39ac4-25e9-48a2-b394-fd4a3a380b4e","ios":"levelo://app?vid=acd39ac4-25e9-48a2-b394-fd4a3a380b4e"},"vehicle_type_id":"4","last_reported":1698366736,"current_range_meters":5600,"station_id":"ce4bhap2rcd13ifvqek0","pricing_plan_id":"free"},{"bike_id":"afa934b0-d45b-4ccf-9771-7d7e5dde2f6c","system_id":"levelo_inurba_marseille","lat":43.290104,"lon":5.356111,"is_reserved":false,"is_disabled":false,"rental_uris":{"android":"levelo://app?vid=afa934b0-d45b-4ccf-9771-7d7e5dde2f6c","ios":"levelo://app?vid=afa934b0-d45b-4ccf-9771-7d7e5dde2f6c"},"vehicle_type_id":"4","last_reported":1698366736,"current_range_meters":26400,"station_id":"ce4bhb92rcd13ifvqen0","pricing_plan_id":"free"},{"bike_id":"328fb4ba-45d5-4673-9505-2ae5fbf0a10a","system_id":"levelo_inurba_marseille","lat":43.330442,"lon":5.389148,"is_reserved":false,"is_disabled":false,"rental_uris":{"android":"levelo://app?vid=328fb4ba-45d5-4673-9505-2ae5fbf0a10a","ios":"levelo://app?vid=328fb4ba-45d5-4673-9505-2ae5fbf0a10a"},"vehicle_type_id":"4","last_reported":1698366736,"current_range_meters":16000,"station_id":"ce4bhr92rcd13ifvqhrg","pricing_plan_id":"free"},{"bike_id":"67ed5437-b1bd-400f-bf0f-02224b572eca","system_id":"levelo_inurba_marseille","lat":43.330442,"lon":5.389148,"is_reserved":false,"is_disabled":false,"rental_uris":{"android":"levelo://app?vid=67ed5437-b1bd-400f-bf0f-02224b572eca","ios":"levelo://app?vid=67ed5437-b1bd-400f-bf0f-02224b572eca"},"vehicle_type_id":"4","last_reported":1698366736,"current_range_meters":5600,"station_id":"ce4bhr92rcd13ifvqhrg","pricing_plan_id":"free"},{"bike_id":"ab52d65b-dfbd-4acf-a626-c6bf3d3dd0f3","system_id":"levelo_inurba_marseille","lat":43.290103,"lon":5.356114,"is_reserved":false,"is_disabled":false,"rental_uris":{"android":"levelo://app?vid=ab52d65b-dfbd-4acf-a626-c6bf3d3dd0f3","ios":"levelo://app?vid=ab52d65b-dfbd-4acf-a626-c6bf3d3dd0f3"},"vehicle_type_id":"4","last_reported":1698366736,"current_range_meters":26000,"station_id":"ce4bhb92rcd13ifvqen0","pricing_plan_id":"free"},{"bike_id":"2632b656-9bc8-44e3-b9bb-62262cd038d6","system_id":"levelo_inurba_marseille","lat":43.29795,"lon":5.39354,"is_reserved":false,"is_disabled":false,"rental_uris":{"android":"levelo://app?vid=2632b656-9bc8-44e3-b9bb-62262cd038d6","ios":"levelo://app?vid=2632b656-9bc8-44e3-b9bb-62262cd038d6"},"vehicle_type_id":"4","last_reported":1698366736,"current_range_meters":30000,"station_id":"chh1huq6cuj3fo74tm60","pricing_plan_id":"free"},{"bike_id":"ae9fe179-7300-4b2a-829a-45acdd82b830","system_id":"levelo_inurba_marseille","lat":43.297815,"lon":5.393548,"is_reserved":false,"is_disabled":false,"rental_uris":{"android":"levelo://app?vid=ae9fe179-7300-4b2a-829a-45acdd82b830","ios":"levelo://app?vid=ae9fe179-7300-4b2a-829a-45acdd82b830"},"vehicle_type_id":"4","last_reported":1698366736,"current_range_meters":28800,"station_id":"chh1huq6cuj3fo74tm60","pricing_plan_id":"free"},{"bike_id":"42b46124-83d4-4893-952b-ca5f8b898e40","system_id":"levelo_inurba_marseille","lat":43.297815,"lon":5.393548,"is_reserved":false,"is_disabled":false,"rental_uris":{"android":"levelo://app?vid=42b46124-83d4-4893-952b-ca5f8b898e40","ios":"levelo://app?vid=42b46124-83d4-4893-952b-ca5f8b898e40"},"vehicle_type_id":"4","last_reported":1698366736,"current_range_meters":25600,"station_id":"chh1huq6cuj3fo74tm60","pricing_plan_id":"free"},{"bike_id":"c2e39fe6-b598-46c4-b7a2-499b763238f5","system_id":"levelo_inurba_marseille","lat":43.29025,"lon":5.38122,"is_reserved":false,"is_disabled":false,"rental_uris":{"android":"levelo://app?vid=c2e39fe6-b598-46c4-b7a2-499b763238f5","ios":"levelo://app?vid=c2e39fe6-b598-46c4-b7a2-499b763238f5"},"vehicle_type_id":"4","last_reported":1698366736,"current_range_meters":31200,"station_id":"ce4bh4p2rcd13ifvqe1g","pricing_plan_id":"free"},{"bike_id":"c237b1d1-8061-47fd-a809-25b2f6aacccb","system_id":"levelo_inurba_marseille","lat":43.28856,"lon":5.358371,"is_reserved":false,"is_disabled":false,"rental_uris":{"android":"levelo://app?vid=c237b1d1-8061-47fd-a809-25b2f6aacccb","ios":"levelo://app?vid=c237b1d1-8061-47fd-a809-25b2f6aacccb"},"vehicle_type_id":"4","last_reported":1698366736,"current_range_meters":0,"station_id":"ce4bhb12rcd13ifvqem0","pricing_plan_id":"free"},{"bike_id":"467c06bf-0dd2-4ef8-95ba-52f905a15e00","system_id":"levelo_inurba_marseille","lat":43.28856,"lon":5.358371,"is_reserved":false,"is_disabled":false,"rental_uris":{"android":"levelo://app?vid=467c06bf-0dd2-4ef8-95ba-52f905a15e00","ios":"levelo://app?vid=467c06bf-0dd2-4ef8-95ba-52f905a15e00"},"vehicle_type_id":"4","last_reported":1698366736,"current_range_meters":21600,"station_id":"ce4bhb12rcd13ifvqem0","pricing_plan_id":"free"},{"bike_id":"ba5a6b03-d9ee-45a1-ab4e-3221915a1392","system_id":"levelo_inurba_marseille","lat":43.28856,"lon":5.358371,"is_reserved":false,"is_disabled":false,"rental_uris":{"android":"levelo://app?vid=ba5a6b03-d9ee-45a1-ab4e-3221915a1392","ios":"levelo://app?vid=ba5a6b03-d9ee-45a1-ab4e-3221915a1392"},"vehicle_type_id":"4","last_reported":1698366736,"current_range_meters":24000,"station_id":"ce4bhb12rcd13ifvqem0","pricing_plan_id":"free"},{"bike_id":"74ffec3a-5c98-4b44-8d85-a8629470f767","system_id":"levelo_inurba_marseille","lat":43.28856,"lon":5.358371,"is_reserved":false,"is_disabled":false,"rental_uris":{"android":"levelo://app?vid=74ffec3a-5c98-4b44-8d85-a8629470f767","ios":"levelo://app?vid=74ffec3a-5c98-4b44-8d85-a8629470f767"},"vehicle_type_id":"4","last_reported":1698366736,"current_range_meters":31200,"station_id":"ce4bhb12rcd13ifvqem0","pricing_plan_id":"free"},{"bike_id":"36a07af5-a1f0-4bf5-959c-9778bc5f00d3","system_id":"levelo_inurba_marseille","lat":43.28856,"lon":5.358371,"is_reserved":false,"is_disabled":false,"rental_uris":{"android":"levelo://app?vid=36a07af5-a1f0-4bf5-959c-9778bc5f00d3","ios":"levelo://app?vid=36a07af5-a1f0-4bf5-959c-9778bc5f00d3"},"vehicle_type_id":"4","last_reported":1698366736,"current_range_meters":19600,"station_id":"ce4bhb12rcd13ifvqem0","pricing_plan_id":"free"},{"bike_id":"aaf7b50a-8c9c-40f0-b32a-4cee3bbaadd5","system_id":"levelo_inurba_marseille","lat":43.28856,"lon":5.358371,"is_reserved":false,"is_disabled":false,"rental_uris":{"android":"levelo://app?vid=aaf7b50a-8c9c-40f0-b32a-4cee3bbaadd5","ios":"levelo://app?vid=aaf7b50a-8c9c-40f0-b32a-4cee3bbaadd5"},"vehicle_type_id":"4","last_reported":1698366736,"current_range_meters":22800,"station_id":"ce4bhb12rcd13ifvqem0","pricing_plan_id":"free"},{"bike_id":"273b4e50-354d-4fc5-bbb3-b6b9fa59133e","system_id":"levelo_inurba_marseille","lat":43.28856,"lon":5.358371,"is_reserved":false,"is_disabled":false,"rental_uris":{"android":"levelo://app?vid=273b4e50-354d-4fc5-bbb3-b6b9fa59133e","ios":"levelo://app?vid=273b4e50-354d-4fc5-bbb3-b6b9fa59133e"},"vehicle_type_id":"4","last_reported":1698366736,"current_range_meters":31600,"station_id":"ce4bhb12rcd13ifvqem0","pricing_plan_id":"free"},{"bike_id":"cf17703e-9609-443c-9b1e-dfff00d213d1","system_id":"levelo_inurba_marseille","lat":43.28856,"lon":5.358371,"is_reserved":false,"is_disabled":false,"rental_uris":{"android":"levelo://app?vid=cf17703e-9609-443c-9b1e-dfff00d213d1","ios":"levelo://app?vid=cf17703e-9609-443c-9b1e-dfff00d213d1"},"vehicle_type_id":"4","last_reported":1698366736,"current_range_meters":21200,"station_id":"ce4bhb12rcd13ifvqem0","pricing_plan_id":"free"},{"bike_id":"103b28b5-c581-4d56-9af7-78fad068f042","system_id":"levelo_inurba_marseille","lat":43.28856,"lon":5.358371,"is_reserved":false,"is_disabled":false,"rental_uris":{"android":"levelo://app?vid=103b28b5-c581-4d56-9af7-78fad068f042","ios":"levelo://app?vid=103b28b5-c581-4d56-9af7-78fad068f042"},"vehicle_type_id":"4","last_reported":1698366736,"current_range_meters":29200,"station_id":"ce4bhb12rcd13ifvqem0","pricing_plan_id":"free"},{"bike_id":"5f238095-c17a-43f4-b5d8-2f2880264da8","system_id":"levelo_inurba_marseille","lat":43.28856,"lon":5.358371,"is_reserved":false,"is_disabled":false,"rental_uris":{"android":"levelo://app?vid=5f238095-c17a-43f4-b5d8-2f2880264da8","ios":"levelo://app?vid=5f238095-c17a-43f4-b5d8-2f2880264da8"},"vehicle_type_id":"4","last_reported":1698366736,"current_range_meters":6800,"station_id":"ce4bhb12rcd13ifvqem0","pricing_plan_id":"free"},{"bike_id":"6512f27c-5b1b-46b0-9fcc-8915b108f2a4","system_id":"levelo_inurba_marseille","lat":43.28856,"lon":5.358371,"is_reserved":false,"is_disabled":false,"rental_uris":{"android":"levelo://app?vid=6512f27c-5b1b-46b0-9fcc-8915b108f2a4","ios":"levelo://app?vid=6512f27c-5b1b-46b0-9fcc-8915b108f2a4"},"vehicle_type_id":"4","last_reported":1698366736,"current_range_meters":31200,"station_id":"ce4bhb12rcd13ifvqem0","pricing_plan_id":"free"},{"bike_id":"7978dc58-9c13-4392-975a-fe091e08d149","system_id":"levelo_inurba_marseille","lat":43.30936,"lon":5.40143,"is_reserved":false,"is_disabled":false,"rental_uris":{"android":"levelo://app?vid=7978dc58-9c13-4392-975a-fe091e08d149","ios":"levelo://app?vid=7978dc58-9c13-4392-975a-fe091e08d149"},"vehicle_type_id":"4","last_reported":1698366736,"current_range_meters":24400,"station_id":"ce4bgvp2rcd13ifvqct0","pricing_plan_id":"free"},{"bike_id":"53fe46d2-e0a3-47e6-ad45-bd8474daf5be","system_id":"levelo_inurba_marseille","lat":43.30937,"lon":5.40144,"is_reserved":false,"is_disabled":false,"rental_uris":{"android":"levelo://app?vid=53fe46d2-e0a3-47e6-ad45-bd8474daf5be","ios":"levelo://app?vid=53fe46d2-e0a3-47e6-ad45-bd8474daf5be"},"vehicle_type_id":"4","last_reported":1698366736,"current_range_meters":28000,"station_id":"ce4bgvp2rcd13ifvqct0","pricing_plan_id":"free"},{"bike_id":"b136d65b-3b48-411d-824f-28f919c5863d","system_id":"levelo_inurba_marseille","lat":43.30931,"lon":5.40147,"is_reserved":false,"is_disabled":false,"rental_uris":{"android":"levelo://app?vid=b136d65b-3b48-411d-824f-28f919c5863d","ios":"levelo://app?vid=b136d65b-3b48-411d-824f-28f919c5863d"},"vehicle_type_id":"4","last_reported":1698366736,"current_range_meters":0,"station_id":"ce4bgvp2rcd13ifvqct0","pricing_plan_id":"free"},{"bike_id":"6b3d72db-02c7-45db-bb5e-ca98d6b23b50","system_id":"levelo_inurba_marseille","lat":43.30935,"lon":5.401504,"is_reserved":false,"is_disabled":false,"rental_uris":{"android":"levelo://app?vid=6b3d72db-02c7-45db-bb5e-ca98d6b23b50","ios":"levelo://app?vid=6b3d72db-02c7-45db-bb5e-ca98d6b23b50"},"vehicle_type_id":"4","last_reported":1698366736,"current_range_meters":800,"station_id":"ce4bgvp2rcd13ifvqct0","pricing_plan_id":"free"},{"bike_id":"9f887929-1e29-4ba8-9a44-88e8cd546c03","system_id":"levelo_inurba_marseille","lat":43.30662,"lon":5.40079,"is_reserved":false,"is_disabled":false,"rental_uris":{"android":"levelo://app?vid=9f887929-1e29-4ba8-9a44-88e8cd546c03","ios":"levelo://app?vid=9f887929-1e29-4ba8-9a44-88e8cd546c03"},"vehicle_type_id":"4","last_reported":1698366736,"current_range_meters":400,"station_id":"ce4bh112rcd13ifvqda0","pricing_plan_id":"free"},{"bike_id":"471ec662-c9d3-4e43-878b-e25d3af38073","system_id":"levelo_inurba_marseille","lat":43.306412,"lon":5.401035,"is_reserved":false,"is_disabled":false,"rental_uris":{"android":"levelo://app?vid=471ec662-c9d3-4e43-878b-e25d3af38073","ios":"levelo://app?vid=471ec662-c9d3-4e43-878b-e25d3af38073"},"vehicle_type_id":"4","last_reported":1698366736,"current_range_meters":31200,"station_id":"ce4bh112rcd13ifvqda0","pricing_plan_id":"free"},{"bike_id":"c5d47269-d7c0-42f5-b1b0-08852bd558b2","system_id":"levelo_inurba_marseille","lat":43.306412,"lon":5.401035,"is_reserved":false,"is_disabled":false,"rental_uris":{"android":"levelo://app?vid=c5d47269-d7c0-42f5-b1b0-08852bd558b2","ios":"levelo://app?vid=c5d47269-d7c0-42f5-b1b0-08852bd558b2"},"vehicle_type_id":"4","last_reported":1698366736,"current_range_meters":31200,"station_id":"ce4bh112rcd13ifvqda0","pricing_plan_id":"free"},{"bike_id":"42fcc381-47ae-4981-905f-5cfc3b051f38","system_id":"levelo_inurba_marseille","lat":43.306412,"lon":5.401035,"is_reserved":false,"is_disabled":false,"rental_uris":{"android":"levelo://app?vid=42fcc381-47ae-4981-905f-5cfc3b051f38","ios":"levelo://app?vid=42fcc381-47ae-4981-905f-5cfc3b051f38"},"vehicle_type_id":"4","last_reported":1698366736,"current_range_meters":16800,"station_id":"ce4bh112rcd13ifvqda0","pricing_plan_id":"free"},{"bike_id":"5d7cf04e-c62a-4cfd-a630-2a495a3d2fa3","system_id":"levelo_inurba_marseille","lat":43.30642,"lon":5.401031,"is_reserved":false,"is_disabled":false,"rental_uris":{"android":"levelo://app?vid=5d7cf04e-c62a-4cfd-a630-2a495a3d2fa3","ios":"levelo://app?vid=5d7cf04e-c62a-4cfd-a630-2a495a3d2fa3"},"vehicle_type_id":"4","last_reported":1698366736,"current_range_meters":31200,"station_id":"ce4bh112rcd13ifvqda0","pricing_plan_id":"free"},{"bike_id":"52457780-5b64-4bcb-8751-5208c1299153","system_id":"levelo_inurba_marseille","lat":43.30642,"lon":5.401031,"is_reserved":false,"is_disabled":false,"rental_uris":{"android":"levelo://app?vid=52457780-5b64-4bcb-8751-5208c1299153","ios":"levelo://app?vid=52457780-5b64-4bcb-8751-5208c1299153"},"vehicle_type_id":"4","last_reported":1698366736,"current_range_meters":24800,"station_id":"ce4bh112rcd13ifvqda0","pricing_plan_id":"free"},{"bike_id":"4fab5033-cd77-4d2e-b7cd-c4ce5cfa6133","system_id":"levelo_inurba_marseille","lat":43.301117,"lon":5.398795,"is_reserved":false,"is_disabled":false,"rental_uris":{"android":"levelo://app?vid=4fab5033-cd77-4d2e-b7cd-c4ce5cfa6133","ios":"levelo://app?vid=4fab5033-cd77-4d2e-b7cd-c4ce5cfa6133"},"vehicle_type_id":"4","last_reported":1698366736,"current_range_meters":20800,"station_id":"ce4bh0h2rcd13ifvqd40","pricing_plan_id":"free"},{"bike_id":"3d2e26e9-5305-4ff5-98c8-68bbfe560163","system_id":"levelo_inurba_marseille","lat":43.30642,"lon":5.401031,"is_reserved":false,"is_disabled":false,"rental_uris":{"android":"levelo://app?vid=3d2e26e9-5305-4ff5-98c8-68bbfe560163","ios":"levelo://app?vid=3d2e26e9-5305-4ff5-98c8-68bbfe560163"},"vehicle_type_id":"4","last_reported":1698366736,"current_range_meters":28400,"station_id":"ce4bh112rcd13ifvqda0","pricing_plan_id":"free"},{"bike_id":"67669660-6cbe-4d81-9e42-8ae27d1c7720","system_id":"levelo_inurba_marseille","lat":43.30642,"lon":5.401031,"is_reserved":false,"is_disabled":false,"rental_uris":{"android":"levelo://app?vid=67669660-6cbe-4d81-9e42-8ae27d1c7720","ios":"levelo://app?vid=67669660-6cbe-4d81-9e42-8ae27d1c7720"},"vehicle_type_id":"4","last_reported":1698366736,"current_range_meters":18800,"station_id":"ce4bh112rcd13ifvqda0","pricing_plan_id":"free"},{"bike_id":"6525955a-30af-4ec2-ab96-435237b14afa","system_id":"levelo_inurba_marseille","lat":43.30129,"lon":5.39868,"is_reserved":false,"is_disabled":false,"rental_uris":{"android":"levelo://app?vid=6525955a-30af-4ec2-ab96-435237b14afa","ios":"levelo://app?vid=6525955a-30af-4ec2-ab96-435237b14afa"},"vehicle_type_id":"4","last_reported":1698366736,"current_range_meters":31200,"station_id":"ce4bh0h2rcd13ifvqd40","pricing_plan_id":"free"},{"bike_id":"093ac43b-f336-476c-816e-f14d9261c038","system_id":"levelo_inurba_marseille","lat":43.28727,"lon":5.36078,"is_reserved":false,"is_disabled":false,"rental_uris":{"android":"levelo://app?vid=093ac43b-f336-476c-816e-f14d9261c038","ios":"levelo://app?vid=093ac43b-f336-476c-816e-f14d9261c038"},"vehicle_type_id":"4","last_reported":1698366736,"current_range_meters":10800,"station_id":"cki0cbj6b192h4jlfktg","pricing_plan_id":"free"},{"bike_id":"660d6ed7-22a0-42ef-b25e-5d46b2b3481e","system_id":"levelo_inurba_marseille","lat":43.28727,"lon":5.36078,"is_reserved":false,"is_disabled":false,"rental_uris":{"android":"levelo://app?vid=660d6ed7-22a0-42ef-b25e-5d46b2b3481e","ios":"levelo://app?vid=660d6ed7-22a0-42ef-b25e-5d46b2b3481e"},"vehicle_type_id":"4","last_reported":1698366736,"current_range_meters":5600,"station_id":"cki0cbj6b192h4jlfktg","pricing_plan_id":"free"},{"bike_id":"f5184829-d73f-4187-ad9f-c1a574747752","system_id":"levelo_inurba_marseille","lat":43.28727,"lon":5.36078,"is_reserved":false,"is_disabled":false,"rental_uris":{"android":"levelo://app?vid=f5184829-d73f-4187-ad9f-c1a574747752","ios":"levelo://app?vid=f5184829-d73f-4187-ad9f-c1a574747752"},"vehicle_type_id":"4","last_reported":1698366736,"current_range_meters":22000,"station_id":"cki0cbj6b192h4jlfktg","pricing_plan_id":"free"},{"bike_id":"c7db2c9d-b0b6-4e65-889e-67383628e35b","system_id":"levelo_inurba_marseille","lat":43.28727,"lon":5.36078,"is_reserved":false,"is_disabled":false,"rental_uris":{"android":"levelo://app?vid=c7db2c9d-b0b6-4e65-889e-67383628e35b","ios":"levelo://app?vid=c7db2c9d-b0b6-4e65-889e-67383628e35b"},"vehicle_type_id":"4","last_reported":1698366736,"current_range_meters":30400,"station_id":"cki0cbj6b192h4jlfktg","pricing_plan_id":"free"},{"bike_id":"bd43e9df-fea5-49b7-8211-033d7a9662cc","system_id":"levelo_inurba_marseille","lat":43.286591,"lon":5.363346,"is_reserved":false,"is_disabled":false,"rental_uris":{"android":"levelo://app?vid=bd43e9df-fea5-49b7-8211-033d7a9662cc","ios":"levelo://app?vid=bd43e9df-fea5-49b7-8211-033d7a9662cc"},"vehicle_type_id":"4","last_reported":1698366736,"current_range_meters":29600,"station_id":"ce4bhah2rcd13ifvqej0","pricing_plan_id":"free"},{"bike_id":"8f40a77a-ccd1-4434-90fa-3dc169c2d9a1","system_id":"levelo_inurba_marseille","lat":43.286591,"lon":5.363346,"is_reserved":false,"is_disabled":false,"rental_uris":{"android":"levelo://app?vid=8f40a77a-ccd1-4434-90fa-3dc169c2d9a1","ios":"levelo://app?vid=8f40a77a-ccd1-4434-90fa-3dc169c2d9a1"},"vehicle_type_id":"4","last_reported":1698366736,"current_range_meters":31200,"station_id":"ce4bhah2rcd13ifvqej0","pricing_plan_id":"free"},{"bike_id":"74effae8-f8ea-4422-9069-984f62c31d3d","system_id":"levelo_inurba_marseille","lat":43.286591,"lon":5.363346,"is_reserved":false,"is_disabled":false,"rental_uris":{"android":"levelo://app?vid=74effae8-f8ea-4422-9069-984f62c31d3d","ios":"levelo://app?vid=74effae8-f8ea-4422-9069-984f62c31d3d"},"vehicle_type_id":"4","last_reported":1698366736,"current_range_meters":29200,"station_id":"ce4bhah2rcd13ifvqej0","pricing_plan_id":"free"},{"bike_id":"55fdb233-c799-4146-8772-0e3b7e53a32c","system_id":"levelo_inurba_marseille","lat":43.286961,"lon":5.373785,"is_reserved":false,"is_disabled":false,"rental_uris":{"android":"levelo://app?vid=55fdb233-c799-4146-8772-0e3b7e53a32c","ios":"levelo://app?vid=55fdb233-c799-4146-8772-0e3b7e53a32c"},"vehicle_type_id":"4","last_reported":1698366736,"current_range_meters":1200,"station_id":"ce4bh3p2rcd13ifvqdq0","pricing_plan_id":"free"},{"bike_id":"7d3af10e-4a60-4fe5-b191-c958f5f7b274","system_id":"levelo_inurba_marseille","lat":43.286961,"lon":5.373785,"is_reserved":false,"is_disabled":false,"rental_uris":{"android":"levelo://app?vid=7d3af10e-4a60-4fe5-b191-c958f5f7b274","ios":"levelo://app?vid=7d3af10e-4a60-4fe5-b191-c958f5f7b274"},"vehicle_type_id":"4","last_reported":1698366736,"current_range_meters":30800,"station_id":"ce4bh3p2rcd13ifvqdq0","pricing_plan_id":"free"},{"bike_id":"268f7213-3648-4d7b-a0e4-e4e6a3a11c28","system_id":"levelo_inurba_marseille","lat":43.295196,"lon":5.39397,"is_reserved":false,"is_disabled":false,"rental_uris":{"android":"levelo://app?vid=268f7213-3648-4d7b-a0e4-e4e6a3a11c28","ios":"levelo://app?vid=268f7213-3648-4d7b-a0e4-e4e6a3a11c28"},"vehicle_type_id":"4","last_reported":1698366736,"current_range_meters":31200,"station_id":"ce4bh292rcd13ifvqdf0","pricing_plan_id":"free"},{"bike_id":"e83c9d5a-a844-4ac7-bb93-f5e0df980361","system_id":"levelo_inurba_marseille","lat":43.286593,"lon":5.363346,"is_reserved":false,"is_disabled":false,"rental_uris":{"android":"levelo://app?vid=e83c9d5a-a844-4ac7-bb93-f5e0df980361","ios":"levelo://app?vid=e83c9d5a-a844-4ac7-bb93-f5e0df980361"},"vehicle_type_id":"4","last_reported":1698366736,"current_range_meters":26000,"station_id":"ce4bhah2rcd13ifvqej0","pricing_plan_id":"free"},{"bike_id":"a21242c4-fe79-4f59-8d49-6be87ca5850e","system_id":"levelo_inurba_marseille","lat":43.295194,"lon":5.39397,"is_reserved":false,"is_disabled":false,"rental_uris":{"android":"levelo://app?vid=a21242c4-fe79-4f59-8d49-6be87ca5850e","ios":"levelo://app?vid=a21242c4-fe79-4f59-8d49-6be87ca5850e"},"vehicle_type_id":"4","last_reported":1698366736,"current_range_meters":29200,"station_id":"ce4bh292rcd13ifvqdf0","pricing_plan_id":"free"},{"bike_id":"210f76b1-476e-42bf-8a3b-5c6babdb2962","system_id":"levelo_inurba_marseille","lat":43.28658,"lon":5.36357,"is_reserved":false,"is_disabled":false,"rental_uris":{"android":"levelo://app?vid=210f76b1-476e-42bf-8a3b-5c6babdb2962","ios":"levelo://app?vid=210f76b1-476e-42bf-8a3b-5c6babdb2962"},"vehicle_type_id":"4","last_reported":1698366736,"current_range_meters":0,"station_id":"ce4bhah2rcd13ifvqej0","pricing_plan_id":"free"},{"bike_id":"9fb770be-ac11-4c89-843d-689d4c8d561b","system_id":"levelo_inurba_marseille","lat":43.28658,"lon":5.3635,"is_reserved":false,"is_disabled":false,"rental_uris":{"android":"levelo://app?vid=9fb770be-ac11-4c89-843d-689d4c8d561b","ios":"levelo://app?vid=9fb770be-ac11-4c89-843d-689d4c8d561b"},"vehicle_type_id":"4","last_reported":1698366736,"current_range_meters":22800,"station_id":"ce4bhah2rcd13ifvqej0","pricing_plan_id":"free"},{"bike_id":"af314f4c-25dc-4199-9ed9-6a21efccfa83","system_id":"levelo_inurba_marseille","lat":43.29535,"lon":5.394014,"is_reserved":false,"is_disabled":false,"rental_uris":{"android":"levelo://app?vid=af314f4c-25dc-4199-9ed9-6a21efccfa83","ios":"levelo://app?vid=af314f4c-25dc-4199-9ed9-6a21efccfa83"},"vehicle_type_id":"4","last_reported":1698366736,"current_range_meters":2400,"station_id":"ce4bh292rcd13ifvqdf0","pricing_plan_id":"free"},{"bike_id":"0b797d3b-b319-448a-95a1-ae27f5cf462e","system_id":"levelo_inurba_marseille","lat":43.286591,"lon":5.363346,"is_reserved":false,"is_disabled":false,"rental_uris":{"android":"levelo://app?vid=0b797d3b-b319-448a-95a1-ae27f5cf462e","ios":"levelo://app?vid=0b797d3b-b319-448a-95a1-ae27f5cf462e"},"vehicle_type_id":"4","last_reported":1698366736,"current_range_meters":27600,"station_id":"ce4bhah2rcd13ifvqej0","pricing_plan_id":"free"},{"bike_id":"2a1943ec-64b5-4db4-8052-1e34bf12be69","system_id":"levelo_inurba_marseille","lat":43.295196,"lon":5.39397,"is_reserved":false,"is_disabled":false,"rental_uris":{"android":"levelo://app?vid=2a1943ec-64b5-4db4-8052-1e34bf12be69","ios":"levelo://app?vid=2a1943ec-64b5-4db4-8052-1e34bf12be69"},"vehicle_type_id":"4","last_reported":1698366736,"current_range_meters":11200,"station_id":"ce4bh292rcd13ifvqdf0","pricing_plan_id":"free"},{"bike_id":"949a28f7-79b9-4563-9d60-745b6fda7388","system_id":"levelo_inurba_marseille","lat":43.295194,"lon":5.39397,"is_reserved":false,"is_disabled":false,"rental_uris":{"android":"levelo://app?vid=949a28f7-79b9-4563-9d60-745b6fda7388","ios":"levelo://app?vid=949a28f7-79b9-4563-9d60-745b6fda7388"},"vehicle_type_id":"4","last_reported":1698366736,"current_range_meters":31200,"station_id":"ce4bh292rcd13ifvqdf0","pricing_plan_id":"free"},{"bike_id":"56879ca5-7ede-428b-be2d-5d01c3b2bc2e","system_id":"levelo_inurba_marseille","lat":43.29527,"lon":5.39403,"is_reserved":false,"is_disabled":false,"rental_uris":{"android":"levelo://app?vid=56879ca5-7ede-428b-be2d-5d01c3b2bc2e","ios":"levelo://app?vid=56879ca5-7ede-428b-be2d-5d01c3b2bc2e"},"vehicle_type_id":"4","last_reported":1698366736,"current_range_meters":20800,"station_id":"ce4bh292rcd13ifvqdf0","pricing_plan_id":"free"},{"bike_id":"67d78ae6-8ae6-4a5e-a213-6b6f564c31e7","system_id":"levelo_inurba_marseille","lat":43.295208,"lon":5.393955,"is_reserved":false,"is_disabled":false,"rental_uris":{"android":"levelo://app?vid=67d78ae6-8ae6-4a5e-a213-6b6f564c31e7","ios":"levelo://app?vid=67d78ae6-8ae6-4a5e-a213-6b6f564c31e7"},"vehicle_type_id":"4","last_reported":1698366736,"current_range_meters":16000,"station_id":"ce4bh292rcd13ifvqdf0","pricing_plan_id":"free"},{"bike_id":"de8a21ef-9e36-42c7-8b71-bf676d03d525","system_id":"levelo_inurba_marseille","lat":43.295252,"lon":5.394023,"is_reserved":false,"is_disabled":false,"rental_uris":{"android":"levelo://app?vid=de8a21ef-9e36-42c7-8b71-bf676d03d525","ios":"levelo://app?vid=de8a21ef-9e36-42c7-8b71-bf676d03d525"},"vehicle_type_id":"4","last_reported":1698366736,"current_range_meters":31200,"station_id":"ce4bh292rcd13ifvqdf0","pricing_plan_id":"free"},{"bike_id":"83995230-7bcb-4a24-86a5-1add2bbcba11","system_id":"levelo_inurba_marseille","lat":43.295252,"lon":5.394023,"is_reserved":false,"is_disabled":false,"rental_uris":{"android":"levelo://app?vid=83995230-7bcb-4a24-86a5-1add2bbcba11","ios":"levelo://app?vid=83995230-7bcb-4a24-86a5-1add2bbcba11"},"vehicle_type_id":"4","last_reported":1698366736,"current_range_meters":30800,"station_id":"ce4bh292rcd13ifvqdf0","pricing_plan_id":"free"},{"bike_id":"b7f64853-c603-42ce-a830-75a718ae75e3","system_id":"levelo_inurba_marseille","lat":43.295194,"lon":5.39397,"is_reserved":false,"is_disabled":false,"rental_uris":{"android":"levelo://app?vid=b7f64853-c603-42ce-a830-75a718ae75e3","ios":"levelo://app?vid=b7f64853-c603-42ce-a830-75a718ae75e3"},"vehicle_type_id":"4","last_reported":1698366736,"current_range_meters":30800,"station_id":"ce4bh292rcd13ifvqdf0","pricing_plan_id":"free"},{"bike_id":"79ff2bf6-47f3-43bb-b2f0-24f7f2bcbbd4","system_id":"levelo_inurba_marseille","lat":43.295194,"lon":5.39397,"is_reserved":false,"is_disabled":false,"rental_uris":{"android":"levelo://app?vid=79ff2bf6-47f3-43bb-b2f0-24f7f2bcbbd4","ios":"levelo://app?vid=79ff2bf6-47f3-43bb-b2f0-24f7f2bcbbd4"},"vehicle_type_id":"4","last_reported":1698366736,"current_range_meters":22000,"station_id":"ce4bh292rcd13ifvqdf0","pricing_plan_id":"free"},{"bike_id":"76c8767f-fde5-48b8-b021-811d11c10faa","system_id":"levelo_inurba_marseille","lat":43.286961,"lon":5.373785,"is_reserved":false,"is_disabled":false,"rental_uris":{"android":"levelo://app?vid=76c8767f-fde5-48b8-b021-811d11c10faa","ios":"levelo://app?vid=76c8767f-fde5-48b8-b021-811d11c10faa"},"vehicle_type_id":"4","last_reported":1698366736,"current_range_meters":28000,"station_id":"ce4bh3p2rcd13ifvqdq0","pricing_plan_id":"free"},{"bike_id":"4f7b26e7-9ee0-4695-aa7d-f5c55f757682","system_id":"levelo_inurba_marseille","lat":43.29514,"lon":5.39402,"is_reserved":false,"is_disabled":false,"rental_uris":{"android":"levelo://app?vid=4f7b26e7-9ee0-4695-aa7d-f5c55f757682","ios":"levelo://app?vid=4f7b26e7-9ee0-4695-aa7d-f5c55f757682"},"vehicle_type_id":"4","last_reported":1698366736,"current_range_meters":11600,"station_id":"ce4bh292rcd13ifvqdf0","pricing_plan_id":"free"},{"bike_id":"72ca48ec-9b45-4bc9-897f-4fd5386200ae","system_id":"levelo_inurba_marseille","lat":43.302759,"lon":5.400793,"is_reserved":false,"is_disabled":false,"rental_uris":{"android":"levelo://app?vid=72ca48ec-9b45-4bc9-897f-4fd5386200ae","ios":"levelo://app?vid=72ca48ec-9b45-4bc9-897f-4fd5386200ae"},"vehicle_type_id":"4","last_reported":1698366736,"current_range_meters":30000,"station_id":"ce4bgvh2rcd13ifvqcs0","pricing_plan_id":"free"},{"bike_id":"2b4f86e8-dd43-408d-b031-dad80b8d6651","system_id":"levelo_inurba_marseille","lat":43.286039,"lon":5.370681,"is_reserved":false,"is_disabled":false,"rental_uris":{"android":"levelo://app?vid=2b4f86e8-dd43-408d-b031-dad80b8d6651","ios":"levelo://app?vid=2b4f86e8-dd43-408d-b031-dad80b8d6651"},"vehicle_type_id":"4","last_reported":1698366736,"current_range_meters":12800,"station_id":"ce4bht12rcd13ifvqi60","pricing_plan_id":"free"},{"bike_id":"237c2e2c-6cb2-4fb4-8f9a-8967233c2b49","system_id":"levelo_inurba_marseille","lat":43.286039,"lon":5.370681,"is_reserved":false,"is_disabled":false,"rental_uris":{"android":"levelo://app?vid=237c2e2c-6cb2-4fb4-8f9a-8967233c2b49","ios":"levelo://app?vid=237c2e2c-6cb2-4fb4-8f9a-8967233c2b49"},"vehicle_type_id":"4","last_reported":1698366736,"current_range_meters":13600,"station_id":"ce4bht12rcd13ifvqi60","pricing_plan_id":"free"},{"bike_id":"bc368e20-93c0-495a-bb4f-cd8ed7ee7f0d","system_id":"levelo_inurba_marseille","lat":43.335307,"lon":5.388143,"is_reserved":false,"is_disabled":false,"rental_uris":{"android":"levelo://app?vid=bc368e20-93c0-495a-bb4f-cd8ed7ee7f0d","ios":"levelo://app?vid=bc368e20-93c0-495a-bb4f-cd8ed7ee7f0d"},"vehicle_type_id":"4","last_reported":1698366736,"current_range_meters":0,"station_id":"","pricing_plan_id":"free"},{"bike_id":"f5181bdc-3fb4-479b-9a75-decacc7a19a3","system_id":"levelo_inurba_marseille","lat":43.284661,"lon":5.358948,"is_reserved":false,"is_disabled":false,"rental_uris":{"android":"levelo://app?vid=f5181bdc-3fb4-479b-9a75-decacc7a19a3","ios":"levelo://app?vid=f5181bdc-3fb4-479b-9a75-decacc7a19a3"},"vehicle_type_id":"4","last_reported":1698366736,"current_range_meters":25600,"station_id":"ce4bhah2rcd13ifvqei0","pricing_plan_id":"free"},{"bike_id":"183def37-1386-4a12-a047-67aedcf55967","system_id":"levelo_inurba_marseille","lat":43.28465,"lon":5.35899,"is_reserved":false,"is_disabled":false,"rental_uris":{"android":"levelo://app?vid=183def37-1386-4a12-a047-67aedcf55967","ios":"levelo://app?vid=183def37-1386-4a12-a047-67aedcf55967"},"vehicle_type_id":"4","last_reported":1698366736,"current_range_meters":23200,"station_id":"ce4bhah2rcd13ifvqei0","pricing_plan_id":"free"},{"bike_id":"7185daa5-fbc0-43db-a858-d478eff48f8c","system_id":"levelo_inurba_marseille","lat":43.28461,"lon":5.35893,"is_reserved":false,"is_disabled":false,"rental_uris":{"android":"levelo://app?vid=7185daa5-fbc0-43db-a858-d478eff48f8c","ios":"levelo://app?vid=7185daa5-fbc0-43db-a858-d478eff48f8c"},"vehicle_type_id":"4","last_reported":1698366736,"current_range_meters":25200,"station_id":"ce4bhah2rcd13ifvqei0","pricing_plan_id":"free"},{"bike_id":"7ed7edaa-ff0b-4be3-8ced-48a9838d6100","system_id":"levelo_inurba_marseille","lat":43.28459,"lon":5.358992,"is_reserved":false,"is_disabled":false,"rental_uris":{"android":"levelo://app?vid=7ed7edaa-ff0b-4be3-8ced-48a9838d6100","ios":"levelo://app?vid=7ed7edaa-ff0b-4be3-8ced-48a9838d6100"},"vehicle_type_id":"4","last_reported":1698366736,"current_range_meters":13200,"station_id":"ce4bhah2rcd13ifvqei0","pricing_plan_id":"free"},{"bike_id":"2fb703da-7db5-4dfe-9833-5d6526f74a72","system_id":"levelo_inurba_marseille","lat":43.28461,"lon":5.35884,"is_reserved":false,"is_disabled":false,"rental_uris":{"android":"levelo://app?vid=2fb703da-7db5-4dfe-9833-5d6526f74a72","ios":"levelo://app?vid=2fb703da-7db5-4dfe-9833-5d6526f74a72"},"vehicle_type_id":"4","last_reported":1698366736,"current_range_meters":17200,"station_id":"ce4bhah2rcd13ifvqei0","pricing_plan_id":"free"},{"bike_id":"87aee81f-4200-4d81-afb3-90e8eec619bf","system_id":"levelo_inurba_marseille","lat":43.284597,"lon":5.35891,"is_reserved":false,"is_disabled":false,"rental_uris":{"android":"levelo://app?vid=87aee81f-4200-4d81-afb3-90e8eec619bf","ios":"levelo://app?vid=87aee81f-4200-4d81-afb3-90e8eec619bf"},"vehicle_type_id":"4","last_reported":1698366736,"current_range_meters":12800,"station_id":"ce4bhah2rcd13ifvqei0","pricing_plan_id":"free"},{"bike_id":"a6cfb8a7-7801-4166-aa70-37aa752d0653","system_id":"levelo_inurba_marseille","lat":43.2846,"lon":5.35884,"is_reserved":false,"is_disabled":false,"rental_uris":{"android":"levelo://app?vid=a6cfb8a7-7801-4166-aa70-37aa752d0653","ios":"levelo://app?vid=a6cfb8a7-7801-4166-aa70-37aa752d0653"},"vehicle_type_id":"4","last_reported":1698366736,"current_range_meters":21600,"station_id":"ce4bhah2rcd13ifvqei0","pricing_plan_id":"free"},{"bike_id":"f7a9341e-504a-4e88-b392-3acefeeb140e","system_id":"levelo_inurba_marseille","lat":43.28459,"lon":5.3589,"is_reserved":false,"is_disabled":false,"rental_uris":{"android":"levelo://app?vid=f7a9341e-504a-4e88-b392-3acefeeb140e","ios":"levelo://app?vid=f7a9341e-504a-4e88-b392-3acefeeb140e"},"vehicle_type_id":"4","last_reported":1698366736,"current_range_meters":11600,"station_id":"ce4bhah2rcd13ifvqei0","pricing_plan_id":"free"},{"bike_id":"52de5ae2-dadc-4e8c-a20b-1d0b08b5c2e7","system_id":"levelo_inurba_marseille","lat":43.28459,"lon":5.35885,"is_reserved":false,"is_disabled":false,"rental_uris":{"android":"levelo://app?vid=52de5ae2-dadc-4e8c-a20b-1d0b08b5c2e7","ios":"levelo://app?vid=52de5ae2-dadc-4e8c-a20b-1d0b08b5c2e7"},"vehicle_type_id":"4","last_reported":1698366736,"current_range_meters":1200,"station_id":"ce4bhah2rcd13ifvqei0","pricing_plan_id":"free"},{"bike_id":"d5c723da-2e09-4c65-aa8a-412b48c6f934","system_id":"levelo_inurba_marseille","lat":43.284584,"lon":5.358865,"is_reserved":false,"is_disabled":false,"rental_uris":{"android":"levelo://app?vid=d5c723da-2e09-4c65-aa8a-412b48c6f934","ios":"levelo://app?vid=d5c723da-2e09-4c65-aa8a-412b48c6f934"},"vehicle_type_id":"4","last_reported":1698366736,"current_range_meters":6400,"station_id":"ce4bhah2rcd13ifvqei0","pricing_plan_id":"free"},{"bike_id":"d6d0a06b-1905-4286-9edc-cc53c82d5c93","system_id":"levelo_inurba_marseille","lat":43.28459,"lon":5.35879,"is_reserved":false,"is_disabled":false,"rental_uris":{"android":"levelo://app?vid=d6d0a06b-1905-4286-9edc-cc53c82d5c93","ios":"levelo://app?vid=d6d0a06b-1905-4286-9edc-cc53c82d5c93"},"vehicle_type_id":"4","last_reported":1698366736,"current_range_meters":26800,"station_id":"ce4bhah2rcd13ifvqei0","pricing_plan_id":"free"},{"bike_id":"6e14d56a-a117-4f39-83cb-b4db63834c6c","system_id":"levelo_inurba_marseille","lat":43.28457,"lon":5.35892,"is_reserved":false,"is_disabled":false,"rental_uris":{"android":"levelo://app?vid=6e14d56a-a117-4f39-83cb-b4db63834c6c","ios":"levelo://app?vid=6e14d56a-a117-4f39-83cb-b4db63834c6c"},"vehicle_type_id":"4","last_reported":1698366736,"current_range_meters":23600,"station_id":"ce4bhah2rcd13ifvqei0","pricing_plan_id":"free"},{"bike_id":"4571873c-38e6-4f84-80cd-4a298d3161fe","system_id":"levelo_inurba_marseille","lat":43.28458,"lon":5.35884,"is_reserved":false,"is_disabled":false,"rental_uris":{"android":"levelo://app?vid=4571873c-38e6-4f84-80cd-4a298d3161fe","ios":"levelo://app?vid=4571873c-38e6-4f84-80cd-4a298d3161fe"},"vehicle_type_id":"4","last_reported":1698366736,"current_range_meters":14800,"station_id":"ce4bhah2rcd13ifvqei0","pricing_plan_id":"free"},{"bike_id":"78853a7f-7e18-47c2-9cbb-f32f48e15430","system_id":"levelo_inurba_marseille","lat":43.284537,"lon":5.358991,"is_reserved":false,"is_disabled":false,"rental_uris":{"android":"levelo://app?vid=78853a7f-7e18-47c2-9cbb-f32f48e15430","ios":"levelo://app?vid=78853a7f-7e18-47c2-9cbb-f32f48e15430"},"vehicle_type_id":"4","last_reported":1698366736,"current_range_meters":5200,"station_id":"ce4bhah2rcd13ifvqei0","pricing_plan_id":"free"},{"bike_id":"54ff11a2-e3d1-454e-ac9f-5b8dfc24c27d","system_id":"levelo_inurba_marseille","lat":43.284549,"lon":5.358838,"is_reserved":false,"is_disabled":false,"rental_uris":{"android":"levelo://app?vid=54ff11a2-e3d1-454e-ac9f-5b8dfc24c27d","ios":"levelo://app?vid=54ff11a2-e3d1-454e-ac9f-5b8dfc24c27d"},"vehicle_type_id":"4","last_reported":1698366736,"current_range_meters":2000,"station_id":"ce4bhah2rcd13ifvqei0","pricing_plan_id":"free"},{"bike_id":"3fac55a9-95c7-4e27-bc47-a3c6808fae3c","system_id":"levelo_inurba_marseille","lat":43.284343,"lon":5.37508,"is_reserved":false,"is_disabled":false,"rental_uris":{"android":"levelo://app?vid=3fac55a9-95c7-4e27-bc47-a3c6808fae3c","ios":"levelo://app?vid=3fac55a9-95c7-4e27-bc47-a3c6808fae3c"},"vehicle_type_id":"4","last_reported":1698366736,"current_range_meters":25600,"station_id":"ce4bh412rcd13ifvqds0","pricing_plan_id":"free"},{"bike_id":"fcfe6e58-e1ea-4941-af22-69c523d0298b","system_id":"levelo_inurba_marseille","lat":43.28605,"lon":5.35109,"is_reserved":false,"is_disabled":false,"rental_uris":{"android":"levelo://app?vid=fcfe6e58-e1ea-4941-af22-69c523d0298b","ios":"levelo://app?vid=fcfe6e58-e1ea-4941-af22-69c523d0298b"},"vehicle_type_id":"4","last_reported":1698366736,"current_range_meters":16400,"station_id":"ce4bhch2rcd13ifvqeug","pricing_plan_id":"free"},{"bike_id":"ccbcd672-1503-46cb-871f-6be9ef4245b1","system_id":"levelo_inurba_marseille","lat":43.284114,"lon":5.37511,"is_reserved":false,"is_disabled":false,"rental_uris":{"android":"levelo://app?vid=ccbcd672-1503-46cb-871f-6be9ef4245b1","ios":"levelo://app?vid=ccbcd672-1503-46cb-871f-6be9ef4245b1"},"vehicle_type_id":"4","last_reported":1698366736,"current_range_meters":0,"station_id":"ce4bh412rcd13ifvqds0","pricing_plan_id":"free"},{"bike_id":"0f55b85f-829c-4447-abee-be7bfdc39d0f","system_id":"levelo_inurba_marseille","lat":43.284088,"lon":5.375193,"is_reserved":false,"is_disabled":false,"rental_uris":{"android":"levelo://app?vid=0f55b85f-829c-4447-abee-be7bfdc39d0f","ios":"levelo://app?vid=0f55b85f-829c-4447-abee-be7bfdc39d0f"},"vehicle_type_id":"4","last_reported":1698366736,"current_range_meters":30800,"station_id":"ce4bh412rcd13ifvqds0","pricing_plan_id":"free"},{"bike_id":"bdbc685f-8e47-415a-9382-f6b9dc9af1a9","system_id":"levelo_inurba_marseille","lat":43.28409,"lon":5.37526,"is_reserved":false,"is_disabled":false,"rental_uris":{"android":"levelo://app?vid=bdbc685f-8e47-415a-9382-f6b9dc9af1a9","ios":"levelo://app?vid=bdbc685f-8e47-415a-9382-f6b9dc9af1a9"},"vehicle_type_id":"4","last_reported":1698366736,"current_range_meters":30400,"station_id":"ce4bh412rcd13ifvqds0","pricing_plan_id":"free"},{"bike_id":"7894c1bb-8711-4476-9eee-137bd92cf0ff","system_id":"levelo_inurba_marseille","lat":43.295713,"lon":5.399639,"is_reserved":false,"is_disabled":false,"rental_uris":{"android":"levelo://app?vid=7894c1bb-8711-4476-9eee-137bd92cf0ff","ios":"levelo://app?vid=7894c1bb-8711-4476-9eee-137bd92cf0ff"},"vehicle_type_id":"4","last_reported":1698366736,"current_range_meters":31200,"station_id":"ce4bh312rcd13ifvqdj0","pricing_plan_id":"free"},{"bike_id":"ccbb4ee0-422f-4c05-a9ec-97870976c4e7","system_id":"levelo_inurba_marseille","lat":43.295713,"lon":5.399639,"is_reserved":false,"is_disabled":false,"rental_uris":{"android":"levelo://app?vid=ccbb4ee0-422f-4c05-a9ec-97870976c4e7","ios":"levelo://app?vid=ccbb4ee0-422f-4c05-a9ec-97870976c4e7"},"vehicle_type_id":"4","last_reported":1698366736,"current_range_meters":31200,"station_id":"ce4bh312rcd13ifvqdj0","pricing_plan_id":"free"},{"bike_id":"4cf5a939-0f4d-4fea-9fb1-bee910a91105","system_id":"levelo_inurba_marseille","lat":43.295713,"lon":5.399639,"is_reserved":false,"is_disabled":false,"rental_uris":{"android":"levelo://app?vid=4cf5a939-0f4d-4fea-9fb1-bee910a91105","ios":"levelo://app?vid=4cf5a939-0f4d-4fea-9fb1-bee910a91105"},"vehicle_type_id":"4","last_reported":1698366736,"current_range_meters":28800,"station_id":"ce4bh312rcd13ifvqdj0","pricing_plan_id":"free"},{"bike_id":"685cb152-dd95-4035-a80f-a18e6ad8926d","system_id":"levelo_inurba_marseille","lat":43.295713,"lon":5.399639,"is_reserved":false,"is_disabled":false,"rental_uris":{"android":"levelo://app?vid=685cb152-dd95-4035-a80f-a18e6ad8926d","ios":"levelo://app?vid=685cb152-dd95-4035-a80f-a18e6ad8926d"},"vehicle_type_id":"4","last_reported":1698366736,"current_range_meters":31200,"station_id":"ce4bh312rcd13ifvqdj0","pricing_plan_id":"free"},{"bike_id":"0e4bf55c-c27e-49dd-b0e9-8acd0baf005d","system_id":"levelo_inurba_marseille","lat":43.295713,"lon":5.399639,"is_reserved":false,"is_disabled":false,"rental_uris":{"android":"levelo://app?vid=0e4bf55c-c27e-49dd-b0e9-8acd0baf005d","ios":"levelo://app?vid=0e4bf55c-c27e-49dd-b0e9-8acd0baf005d"},"vehicle_type_id":"4","last_reported":1698366736,"current_range_meters":31200,"station_id":"ce4bh312rcd13ifvqdj0","pricing_plan_id":"free"},{"bike_id":"354ad8c2-2bd9-4d44-ba73-2b2b5944ca9f","system_id":"levelo_inurba_marseille","lat":43.286595,"lon":5.386795,"is_reserved":false,"is_disabled":false,"rental_uris":{"android":"levelo://app?vid=354ad8c2-2bd9-4d44-ba73-2b2b5944ca9f","ios":"levelo://app?vid=354ad8c2-2bd9-4d44-ba73-2b2b5944ca9f"},"vehicle_type_id":"4","last_reported":1698366736,"current_range_meters":27600,"station_id":"ce4bh492rcd13ifvqdug","pricing_plan_id":"free"},{"bike_id":"d3748560-398b-493e-b915-e5a728c45d13","system_id":"levelo_inurba_marseille","lat":43.319179,"lon":5.407725,"is_reserved":false,"is_disabled":false,"rental_uris":{"android":"levelo://app?vid=d3748560-398b-493e-b915-e5a728c45d13","ios":"levelo://app?vid=d3748560-398b-493e-b915-e5a728c45d13"},"vehicle_type_id":"4","last_reported":1698366736,"current_range_meters":28800,"station_id":"ce4bhq12rcd13ifvqhig","pricing_plan_id":"free"},{"bike_id":"2cf6be09-029f-4822-ac57-fb418c77c98b","system_id":"levelo_inurba_marseille","lat":43.319179,"lon":5.407725,"is_reserved":false,"is_disabled":false,"rental_uris":{"android":"levelo://app?vid=2cf6be09-029f-4822-ac57-fb418c77c98b","ios":"levelo://app?vid=2cf6be09-029f-4822-ac57-fb418c77c98b"},"vehicle_type_id":"4","last_reported":1698366736,"current_range_meters":25200,"station_id":"ce4bhq12rcd13ifvqhig","pricing_plan_id":"free"},{"bike_id":"18ff1f34-2c4b-4968-a376-37ec91878cbc","system_id":"levelo_inurba_marseille","lat":43.319179,"lon":5.407725,"is_reserved":false,"is_disabled":false,"rental_uris":{"android":"levelo://app?vid=18ff1f34-2c4b-4968-a376-37ec91878cbc","ios":"levelo://app?vid=18ff1f34-2c4b-4968-a376-37ec91878cbc"},"vehicle_type_id":"4","last_reported":1698366736,"current_range_meters":17200,"station_id":"ce4bhq12rcd13ifvqhig","pricing_plan_id":"free"},{"bike_id":"a04dca67-8317-445e-90d6-5788929468fd","system_id":"levelo_inurba_marseille","lat":43.33674,"lon":5.39198,"is_reserved":false,"is_disabled":false,"rental_uris":{"android":"levelo://app?vid=a04dca67-8317-445e-90d6-5788929468fd","ios":"levelo://app?vid=a04dca67-8317-445e-90d6-5788929468fd"},"vehicle_type_id":"4","last_reported":1698366736,"current_range_meters":11600,"station_id":"","pricing_plan_id":"free"},{"bike_id":"58151d52-000e-4f58-9173-3c2ae081e146","system_id":"levelo_inurba_marseille","lat":43.337168,"lon":5.391825,"is_reserved":false,"is_disabled":false,"rental_uris":{"android":"levelo://app?vid=58151d52-000e-4f58-9173-3c2ae081e146","ios":"levelo://app?vid=58151d52-000e-4f58-9173-3c2ae081e146"},"vehicle_type_id":"4","last_reported":1698366736,"current_range_meters":24800,"station_id":"ce4bhr92rcd13ifvqhsg","pricing_plan_id":"free"},{"bike_id":"53969905-13ec-4c75-a3dd-981de91518c6","system_id":"levelo_inurba_marseille","lat":43.337168,"lon":5.391825,"is_reserved":false,"is_disabled":false,"rental_uris":{"android":"levelo://app?vid=53969905-13ec-4c75-a3dd-981de91518c6","ios":"levelo://app?vid=53969905-13ec-4c75-a3dd-981de91518c6"},"vehicle_type_id":"4","last_reported":1698366736,"current_range_meters":26400,"station_id":"ce4bhr92rcd13ifvqhsg","pricing_plan_id":"free"},{"bike_id":"023aab67-f221-4b0c-a2f9-b9c8c5a8d582","system_id":"levelo_inurba_marseille","lat":43.33717,"lon":5.391857,"is_reserved":false,"is_disabled":false,"rental_uris":{"android":"levelo://app?vid=023aab67-f221-4b0c-a2f9-b9c8c5a8d582","ios":"levelo://app?vid=023aab67-f221-4b0c-a2f9-b9c8c5a8d582"},"vehicle_type_id":"4","last_reported":1698366736,"current_range_meters":2000,"station_id":"ce4bhr92rcd13ifvqhsg","pricing_plan_id":"free"},{"bike_id":"bd3ad878-c73a-4e25-b4a1-20ae7cef7d6a","system_id":"levelo_inurba_marseille","lat":43.323464,"lon":5.406297,"is_reserved":false,"is_disabled":false,"rental_uris":{"android":"levelo://app?vid=bd3ad878-c73a-4e25-b4a1-20ae7cef7d6a","ios":"levelo://app?vid=bd3ad878-c73a-4e25-b4a1-20ae7cef7d6a"},"vehicle_type_id":"4","last_reported":1698366736,"current_range_meters":24400,"station_id":"ce4bhq92rcd13ifvqhjg","pricing_plan_id":"free"},{"bike_id":"07b016a6-e829-42f7-bd77-b60225a97761","system_id":"levelo_inurba_marseille","lat":43.323464,"lon":5.406297,"is_reserved":false,"is_disabled":false,"rental_uris":{"android":"levelo://app?vid=07b016a6-e829-42f7-bd77-b60225a97761","ios":"levelo://app?vid=07b016a6-e829-42f7-bd77-b60225a97761"},"vehicle_type_id":"4","last_reported":1698366736,"current_range_meters":11200,"station_id":"ce4bhq92rcd13ifvqhjg","pricing_plan_id":"free"},{"bike_id":"d6e0f25c-aaad-4436-9a20-7d785d7e759e","system_id":"levelo_inurba_marseille","lat":43.32521,"lon":5.40572,"is_reserved":false,"is_disabled":false,"rental_uris":{"android":"levelo://app?vid=d6e0f25c-aaad-4436-9a20-7d785d7e759e","ios":"levelo://app?vid=d6e0f25c-aaad-4436-9a20-7d785d7e759e"},"vehicle_type_id":"4","last_reported":1698366736,"current_range_meters":0,"station_id":"","pricing_plan_id":"free"},{"bike_id":"2f666bbb-190f-4291-ade2-95e2c0cfd815","system_id":"levelo_inurba_marseille","lat":43.325281,"lon":5.405683,"is_reserved":false,"is_disabled":false,"rental_uris":{"android":"levelo://app?vid=2f666bbb-190f-4291-ade2-95e2c0cfd815","ios":"levelo://app?vid=2f666bbb-190f-4291-ade2-95e2c0cfd815"},"vehicle_type_id":"4","last_reported":1698366736,"current_range_meters":24000,"station_id":"","pricing_plan_id":"free"},{"bike_id":"b94533b6-c15b-4391-8801-dab19e3c0e7b","system_id":"levelo_inurba_marseille","lat":43.288501,"lon":5.393087,"is_reserved":false,"is_disabled":false,"rental_uris":{"android":"levelo://app?vid=b94533b6-c15b-4391-8801-dab19e3c0e7b","ios":"levelo://app?vid=b94533b6-c15b-4391-8801-dab19e3c0e7b"},"vehicle_type_id":"4","last_reported":1698366736,"current_range_meters":27200,"station_id":"ce4bh2p2rcd13ifvqdi0","pricing_plan_id":"free"},{"bike_id":"10575a1c-a799-47f0-90b0-105ffed573bc","system_id":"levelo_inurba_marseille","lat":43.283498,"lon":5.380948,"is_reserved":false,"is_disabled":false,"rental_uris":{"android":"levelo://app?vid=10575a1c-a799-47f0-90b0-105ffed573bc","ios":"levelo://app?vid=10575a1c-a799-47f0-90b0-105ffed573bc"},"vehicle_type_id":"4","last_reported":1698366736,"current_range_meters":11200,"station_id":"ce4bh412rcd13ifvqdr0","pricing_plan_id":"free"},{"bike_id":"2faa2b7c-f406-43b4-a834-03df393bde92","system_id":"levelo_inurba_marseille","lat":43.284219,"lon":5.3497,"is_reserved":false,"is_disabled":false,"rental_uris":{"android":"levelo://app?vid=2faa2b7c-f406-43b4-a834-03df393bde92","ios":"levelo://app?vid=2faa2b7c-f406-43b4-a834-03df393bde92"},"vehicle_type_id":"4","last_reported":1698366736,"current_range_meters":28400,"station_id":"ce4bhbh2rcd13ifvqepg","pricing_plan_id":"free"},{"bike_id":"21fee848-23ee-43e7-a81e-08ffbddf95e8","system_id":"levelo_inurba_marseille","lat":43.292724,"lon":5.401131,"is_reserved":false,"is_disabled":false,"rental_uris":{"android":"levelo://app?vid=21fee848-23ee-43e7-a81e-08ffbddf95e8","ios":"levelo://app?vid=21fee848-23ee-43e7-a81e-08ffbddf95e8"},"vehicle_type_id":"4","last_reported":1698366736,"current_range_meters":2400,"station_id":"ce4bh312rcd13ifvqdk0","pricing_plan_id":"free"},{"bike_id":"ab600008-1ba2-4e6a-8a10-87359fd5bcbe","system_id":"levelo_inurba_marseille","lat":43.29277,"lon":5.40115,"is_reserved":false,"is_disabled":false,"rental_uris":{"android":"levelo://app?vid=ab600008-1ba2-4e6a-8a10-87359fd5bcbe","ios":"levelo://app?vid=ab600008-1ba2-4e6a-8a10-87359fd5bcbe"},"vehicle_type_id":"4","last_reported":1698366736,"current_range_meters":23200,"station_id":"ce4bh312rcd13ifvqdk0","pricing_plan_id":"free"},{"bike_id":"34e5eec3-d85c-4fd3-940d-3bce2ce9300a","system_id":"levelo_inurba_marseille","lat":43.29274,"lon":5.40115,"is_reserved":false,"is_disabled":false,"rental_uris":{"android":"levelo://app?vid=34e5eec3-d85c-4fd3-940d-3bce2ce9300a","ios":"levelo://app?vid=34e5eec3-d85c-4fd3-940d-3bce2ce9300a"},"vehicle_type_id":"4","last_reported":1698366736,"current_range_meters":0,"station_id":"ce4bh312rcd13ifvqdk0","pricing_plan_id":"free"},{"bike_id":"df6fd779-1a1b-4c1e-9ad3-1f4e9bb6241b","system_id":"levelo_inurba_marseille","lat":43.292724,"lon":5.401131,"is_reserved":false,"is_disabled":false,"rental_uris":{"android":"levelo://app?vid=df6fd779-1a1b-4c1e-9ad3-1f4e9bb6241b","ios":"levelo://app?vid=df6fd779-1a1b-4c1e-9ad3-1f4e9bb6241b"},"vehicle_type_id":"4","last_reported":1698366736,"current_range_meters":14800,"station_id":"ce4bh312rcd13ifvqdk0","pricing_plan_id":"free"},{"bike_id":"16b62504-076d-4aec-928e-cf7cffba3098","system_id":"levelo_inurba_marseille","lat":43.292724,"lon":5.401131,"is_reserved":false,"is_disabled":false,"rental_uris":{"android":"levelo://app?vid=16b62504-076d-4aec-928e-cf7cffba3098","ios":"levelo://app?vid=16b62504-076d-4aec-928e-cf7cffba3098"},"vehicle_type_id":"4","last_reported":1698366736,"current_range_meters":30000,"station_id":"ce4bh312rcd13ifvqdk0","pricing_plan_id":"free"},{"bike_id":"a6e42c8d-a639-40f8-ac84-93d84edf8a47","system_id":"levelo_inurba_marseille","lat":43.282754,"lon":5.350519,"is_reserved":false,"is_disabled":false,"rental_uris":{"android":"levelo://app?vid=a6e42c8d-a639-40f8-ac84-93d84edf8a47","ios":"levelo://app?vid=a6e42c8d-a639-40f8-ac84-93d84edf8a47"},"vehicle_type_id":"4","last_reported":1698366736,"current_range_meters":28400,"station_id":"ce4bhbp2rcd13ifvqerg","pricing_plan_id":"free"},{"bike_id":"49a6032d-7994-4ca0-bfb6-6724ffd67292","system_id":"levelo_inurba_marseille","lat":43.282744,"lon":5.350533,"is_reserved":false,"is_disabled":false,"rental_uris":{"android":"levelo://app?vid=49a6032d-7994-4ca0-bfb6-6724ffd67292","ios":"levelo://app?vid=49a6032d-7994-4ca0-bfb6-6724ffd67292"},"vehicle_type_id":"4","last_reported":1698366736,"current_range_meters":24000,"station_id":"ce4bhbp2rcd13ifvqerg","pricing_plan_id":"free"},{"bike_id":"e8b893cf-c212-4080-99a7-8c87627aefc2","system_id":"levelo_inurba_marseille","lat":43.282717,"lon":5.35064,"is_reserved":false,"is_disabled":false,"rental_uris":{"android":"levelo://app?vid=e8b893cf-c212-4080-99a7-8c87627aefc2","ios":"levelo://app?vid=e8b893cf-c212-4080-99a7-8c87627aefc2"},"vehicle_type_id":"4","last_reported":1698366736,"current_range_meters":29600,"station_id":"ce4bhbp2rcd13ifvqerg","pricing_plan_id":"free"},{"bike_id":"38f91e73-d1c1-4f8e-a145-5cf76b8406cb","system_id":"levelo_inurba_marseille","lat":43.283502,"lon":5.386471,"is_reserved":false,"is_disabled":false,"rental_uris":{"android":"levelo://app?vid=38f91e73-d1c1-4f8e-a145-5cf76b8406cb","ios":"levelo://app?vid=38f91e73-d1c1-4f8e-a145-5cf76b8406cb"},"vehicle_type_id":"4","last_reported":1698366736,"current_range_meters":13200,"station_id":"ce4bh492rcd13ifvqdvg","pricing_plan_id":"free"},{"bike_id":"39182f15-75be-45a5-8967-9a109bc8e6e9","system_id":"levelo_inurba_marseille","lat":43.283502,"lon":5.386471,"is_reserved":false,"is_disabled":false,"rental_uris":{"android":"levelo://app?vid=39182f15-75be-45a5-8967-9a109bc8e6e9","ios":"levelo://app?vid=39182f15-75be-45a5-8967-9a109bc8e6e9"},"vehicle_type_id":"4","last_reported":1698366736,"current_range_meters":31600,"station_id":"ce4bh492rcd13ifvqdvg","pricing_plan_id":"free"},{"bike_id":"83e3782f-f502-4588-9322-3e05fd4098f9","system_id":"levelo_inurba_marseille","lat":43.283502,"lon":5.386471,"is_reserved":false,"is_disabled":false,"rental_uris":{"android":"levelo://app?vid=83e3782f-f502-4588-9322-3e05fd4098f9","ios":"levelo://app?vid=83e3782f-f502-4588-9322-3e05fd4098f9"},"vehicle_type_id":"4","last_reported":1698366736,"current_range_meters":12000,"station_id":"ce4bh492rcd13ifvqdvg","pricing_plan_id":"free"},{"bike_id":"24af9549-2827-4bfd-b4e2-94c90ba6fdeb","system_id":"levelo_inurba_marseille","lat":43.283502,"lon":5.386471,"is_reserved":false,"is_disabled":false,"rental_uris":{"android":"levelo://app?vid=24af9549-2827-4bfd-b4e2-94c90ba6fdeb","ios":"levelo://app?vid=24af9549-2827-4bfd-b4e2-94c90ba6fdeb"},"vehicle_type_id":"4","last_reported":1698366736,"current_range_meters":16400,"station_id":"ce4bh492rcd13ifvqdvg","pricing_plan_id":"free"},{"bike_id":"eae608c4-d84e-4731-b7f0-fdf7ef265fdf","system_id":"levelo_inurba_marseille","lat":43.28039,"lon":5.369297,"is_reserved":false,"is_disabled":false,"rental_uris":{"android":"levelo://app?vid=eae608c4-d84e-4731-b7f0-fdf7ef265fdf","ios":"levelo://app?vid=eae608c4-d84e-4731-b7f0-fdf7ef265fdf"},"vehicle_type_id":"4","last_reported":1698366736,"current_range_meters":31600,"station_id":"ce4bha12rcd13ifvqef0","pricing_plan_id":"free"},{"bike_id":"7f717374-de65-458a-8eb8-0339129a9acc","system_id":"levelo_inurba_marseille","lat":43.282754,"lon":5.350519,"is_reserved":false,"is_disabled":false,"rental_uris":{"android":"levelo://app?vid=7f717374-de65-458a-8eb8-0339129a9acc","ios":"levelo://app?vid=7f717374-de65-458a-8eb8-0339129a9acc"},"vehicle_type_id":"4","last_reported":1698366736,"current_range_meters":31200,"station_id":"ce4bhbp2rcd13ifvqerg","pricing_plan_id":"free"},{"bike_id":"c0449154-414a-4a97-8c66-4ecd834e8e24","system_id":"levelo_inurba_marseille","lat":43.280382,"lon":5.369291,"is_reserved":false,"is_disabled":false,"rental_uris":{"android":"levelo://app?vid=c0449154-414a-4a97-8c66-4ecd834e8e24","ios":"levelo://app?vid=c0449154-414a-4a97-8c66-4ecd834e8e24"},"vehicle_type_id":"4","last_reported":1698366736,"current_range_meters":31200,"station_id":"ce4bha12rcd13ifvqef0","pricing_plan_id":"free"},{"bike_id":"e07921da-31d1-4788-89af-032c6fa02f93","system_id":"levelo_inurba_marseille","lat":43.28039,"lon":5.369297,"is_reserved":false,"is_disabled":false,"rental_uris":{"android":"levelo://app?vid=e07921da-31d1-4788-89af-032c6fa02f93","ios":"levelo://app?vid=e07921da-31d1-4788-89af-032c6fa02f93"},