{"last_updated":1735420038,"ttl":60,"version":"2.2","data":{"bikes":[{"bike_id":"867eee1b-8911-4291-9f9c-4516e42e9116","system_id":"levelo_inurba_marseille","lat":43.28073,"lon":5.39643,"is_reserved":false,"is_disabled":false,"rental_uris":{"android":"levelo://app?vid=867eee1b-8911-4291-9f9c-4516e42e9116","ios":"levelo://app?vid=867eee1b-8911-4291-9f9c-4516e42e9116"},"vehicle_type_id":"4","last_reported":1735420038,"current_range_meters":31200,"station_id":"ce4bho12rcd13ifvqh2g","pricing_plan_id":"cebpf4jnsgd1na2vs0mg"},{"bike_id":"d844f573-ef6f-45b7-9e20-9e7c330608de","system_id":"levelo_inurba_marseille","lat":43.29024,"lon":5.38637,"is_reserved":false,"is_disabled":false,"rental_uris":{"android":"levelo://app?vid=d844f573-ef6f-45b7-9e20-9e7c330608de","ios":"levelo://app?vid=d844f573-ef6f-45b7-9e20-9e7c330608de"},"vehicle_type_id":"4","last_reported":1735420038,"current_range_meters":14800,"station_id":"ce4bh4p2rcd13ifvqe0g","pricing_plan_id":"cebpf4jnsgd1na2vs0mg"},{"bike_id":"1b558756-bf1e-4a18-8435-6ae8b9c6f5d4","system_id":"levelo_inurba_marseille","lat":43.303,"lon":5.39211,"is_reserved":false,"is_disabled":false,"rental_uris":{"android":"levelo://app?vid=1b558756-bf1e-4a18-8435-6ae8b9c6f5d4","ios":"levelo://app?vid=1b558756-bf1e-4a18-8435-6ae8b9c6f5d4"},"vehicle_type_id":"4","last_reported":1735420038,"current_range_meters":38800,"station_id":"ce4bgkh2rcd13ifvqbk0","pricing_plan_id":"cebpf4jnsgd1na2vs0mg"},{"bike_id":"5e0adfc4-c70a-40ff-9e8a-0c76899e809b","system_id":"levelo_inurba_marseille","lat":43.2942,"lon":5.38624,"is_reserved":false,"is_disabled":false,"rental_uris":{"android":"levelo://app?vid=5e0adfc4-c70a-40ff-9e8a-0c76899e809b","ios":"levelo://app?vid=5e0adfc4-c70a-40ff-9e8a-0c76899e809b"},"vehicle_type_id":"4","last_reported":1735420038,"current_range_meters":36400,"station_id":"ce4bh2h2rcd13ifvqdh0","pricing_plan_id":"cebpf4jnsgd1na2vs0mg"},{"bike_id":"6c2e2c19-7f75-44cd-a5ff-6f59687fa325","system_id":"levelo_inurba_marseille","lat":43.29976,"lon":5.38499,"is_reserved":false,"is_disabled":false,"rental_uris":{"android":"levelo://app?vid=6c2e2c19-7f75-44cd-a5ff-6f59687fa325","ios":"levelo://app?vid=6c2e2c19-7f75-44cd-a5ff-6f59687fa325"},"vehicle_type_id":"4","last_reported":1735420038,"current_range_meters":14400,"station_id":"ce4bgj92rcd13ifvqbd0","pricing_plan_id":"cebpf4jnsgd1na2vs0mg"},{"bike_id":"0081e87f-c303-4a7c-9b6f-6bf566a55ca9","system_id":"levelo_inurba_marseille","lat":43.28992,"lon":5.37171,"is_reserved":false,"is_disabled":false,"rental_uris":{"android":"levelo://app?vid=0081e87f-c303-4a7c-9b6f-6bf566a55ca9","ios":"levelo://app?vid=0081e87f-c303-4a7c-9b6f-6bf566a55ca9"},"vehicle_type_id":"4","last_reported":1735420038,"current_range_meters":9600,"station_id":"","pricing_plan_id":"cebpf4jnsgd1na2vs0mg"},{"bike_id":"17467958-a151-40f2-98e4-bb65ea00e49d","system_id":"levelo_inurba_marseille","lat":43.27955,"lon":5.41036,"is_reserved":false,"is_disabled":false,"rental_uris":{"android":"levelo://app?vid=17467958-a151-40f2-98e4-bb65ea00e49d","ios":"levelo://app?vid=17467958-a151-40f2-98e4-bb65ea00e49d"},"vehicle_type_id":"4","last_reported":1735420038,"current_range_meters":36000,"station_id":"ce4bhnp2rcd13ifvqh0g","pricing_plan_id":"cebpf4jnsgd1na2vs0mg"},{"bike_id":"8e3501de-0fdd-4c51-8a37-aa32b9990297","system_id":"levelo_inurba_marseille","lat":43.28573,"lon":5.39496,"is_reserved":false,"is_disabled":false,"rental_uris":{"android":"levelo://app?vid=8e3501de-0fdd-4c51-8a37-aa32b9990297","ios":"levelo://app?vid=8e3501de-0fdd-4c51-8a37-aa32b9990297"},"vehicle_type_id":"4","last_reported":1735420038,"current_range_meters":38800,"station_id":"ce4bh292rcd13ifvqdg0","pricing_plan_id":"cebpf4jnsgd1na2vs0mg"},{"bike_id":"3991aac2-ec7f-43c8-801f-23e11845f2d6","system_id":"levelo_inurba_marseille","lat":43.28168,"lon":5.42589,"is_reserved":false,"is_disabled":false,"rental_uris":{"android":"levelo://app?vid=3991aac2-ec7f-43c8-801f-23e11845f2d6","ios":"levelo://app?vid=3991aac2-ec7f-43c8-801f-23e11845f2d6"},"vehicle_type_id":"4","last_reported":1735420038,"current_range_meters":38800,"station_id":"ce4bhnh2rcd13ifvqgug","pricing_plan_id":"cebpf4jnsgd1na2vs0mg"},{"bike_id":"06450166-35ea-4146-8f52-53bd835ce382","system_id":"levelo_inurba_marseille","lat":43.29608,"lon":5.38103,"is_reserved":false,"is_disabled":false,"rental_uris":{"android":"levelo://app?vid=06450166-35ea-4146-8f52-53bd835ce382","ios":"levelo://app?vid=06450166-35ea-4146-8f52-53bd835ce382"},"vehicle_type_id":"4","last_reported":1735420038,"current_range_meters":22400,"station_id":"ce4bgl12rcd13ifvqbo0","pricing_plan_id":"cebpf4jnsgd1na2vs0mg"},{"bike_id":"7704516a-0606-45b4-83d1-a77cc80ba585","system_id":"levelo_inurba_marseille","lat":43.32047,"lon":5.41539,"is_reserved":false,"is_disabled":false,"rental_uris":{"android":"levelo://app?vid=7704516a-0606-45b4-83d1-a77cc80ba585","ios":"levelo://app?vid=7704516a-0606-45b4-83d1-a77cc80ba585"},"vehicle_type_id":"4","last_reported":1735420038,"current_range_meters":33600,"station_id":"ce4bhq92rcd13ifvqhkg","pricing_plan_id":"cebpf4jnsgd1na2vs0mg"},{"bike_id":"bcdcaf9a-998b-4b9f-9624-c8da03994ef5","system_id":"levelo_inurba_marseille","lat":43.29578,"lon":5.37454,"is_reserved":false,"is_disabled":false,"rental_uris":{"android":"levelo://app?vid=bcdcaf9a-998b-4b9f-9624-c8da03994ef5","ios":"levelo://app?vid=bcdcaf9a-998b-4b9f-9624-c8da03994ef5"},"vehicle_type_id":"4","last_reported":1735420038,"current_range_meters":36000,"station_id":"","pricing_plan_id":"cebpf4jnsgd1na2vs0mg"},{"bike_id":"6ad1742e-8bff-4c51-a529-dfe59edb730a","system_id":"levelo_inurba_marseille","lat":43.29912,"lon":5.37465,"is_reserved":false,"is_disabled":false,"rental_uris":{"android":"levelo://app?vid=6ad1742e-8bff-4c51-a529-dfe59edb730a","ios":"levelo://app?vid=6ad1742e-8bff-4c51-a529-dfe59edb730a"},"vehicle_type_id":"4","last_reported":1735420038,"current_range_meters":31200,"station_id":"ce4bgjh2rcd13ifvqbg0","pricing_plan_id":"cebpf4jnsgd1na2vs0mg"},{"bike_id":"3b3d2c75-4195-4f81-af35-afa13ebc8eea","system_id":"levelo_inurba_marseille","lat":43.27371,"lon":5.36229,"is_reserved":false,"is_disabled":true,"rental_uris":{"android":"levelo://app?vid=3b3d2c75-4195-4f81-af35-afa13ebc8eea","ios":"levelo://app?vid=3b3d2c75-4195-4f81-af35-afa13ebc8eea"},"vehicle_type_id":"4","last_reported":1735420038,"current_range_meters":28800,"station_id":"ce4bhbh2rcd13ifvqeo0","pricing_plan_id":"cebpf4jnsgd1na2vs0mg"},{"bike_id":"4dfae491-9961-4f14-9884-a24863ed59ba","system_id":"levelo_inurba_marseille","lat":43.24804,"lon":5.37453,"is_reserved":false,"is_disabled":false,"rental_uris":{"android":"levelo://app?vid=4dfae491-9961-4f14-9884-a24863ed59ba","ios":"levelo://app?vid=4dfae491-9961-4f14-9884-a24863ed59ba"},"vehicle_type_id":"4","last_reported":1735420038,"current_range_meters":32000,"station_id":"ce4bhgh2rcd13ifvqfb0","pricing_plan_id":"cebpf4jnsgd1na2vs0mg"},{"bike_id":"4eb04e23-baeb-4963-b396-2a56a54b2be0","system_id":"levelo_inurba_marseille","lat":43.28925,"lon":5.38405,"is_reserved":false,"is_disabled":false,"rental_uris":{"android":"levelo://app?vid=4eb04e23-baeb-4963-b396-2a56a54b2be0","ios":"levelo://app?vid=4eb04e23-baeb-4963-b396-2a56a54b2be0"},"vehicle_type_id":"4","last_reported":1735420038,"current_range_meters":37600,"station_id":"ce4bh612rcd13ifvqe6g","pricing_plan_id":"cebpf4jnsgd1na2vs0mg"},{"bike_id":"acdf547b-af9f-48ce-8f30-0548228cd41d","system_id":"levelo_inurba_marseille","lat":43.2987,"lon":5.39722,"is_reserved":false,"is_disabled":false,"rental_uris":{"android":"levelo://app?vid=acdf547b-af9f-48ce-8f30-0548228cd41d","ios":"levelo://app?vid=acdf547b-af9f-48ce-8f30-0548228cd41d"},"vehicle_type_id":"4","last_reported":1735420038,"current_range_meters":26800,"station_id":"ce4bh0h2rcd13ifvqd50","pricing_plan_id":"cebpf4jnsgd1na2vs0mg"},{"bike_id":"f15b4a0d-6378-4ce0-b2fe-570fd0190bba","system_id":"levelo_inurba_marseille","lat":43.29031,"lon":5.38639,"is_reserved":false,"is_disabled":false,"rental_uris":{"android":"levelo://app?vid=f15b4a0d-6378-4ce0-b2fe-570fd0190bba","ios":"levelo://app?vid=f15b4a0d-6378-4ce0-b2fe-570fd0190bba"},"vehicle_type_id":"4","last_reported":1735420038,"current_range_meters":38800,"station_id":"ce4bh4p2rcd13ifvqe0g","pricing_plan_id":"cebpf4jnsgd1na2vs0mg"},{"bike_id":"4afaa01d-2154-4233-8360-224b59b51008","system_id":"levelo_inurba_marseille","lat":43.315,"lon":5.37299,"is_reserved":false,"is_disabled":false,"rental_uris":{"android":"levelo://app?vid=4afaa01d-2154-4233-8360-224b59b51008","ios":"levelo://app?vid=4afaa01d-2154-4233-8360-224b59b51008"},"vehicle_type_id":"4","last_reported":1735420038,"current_range_meters":38800,"station_id":"ce4bgt12rcd13ifvqcd0","pricing_plan_id":"cebpf4jnsgd1na2vs0mg"},{"bike_id":"117c03bc-16b6-4a35-960b-0e18c8649e2d","system_id":"levelo_inurba_marseille","lat":43.29786,"lon":5.38099,"is_reserved":false,"is_disabled":false,"rental_uris":{"android":"levelo://app?vid=117c03bc-16b6-4a35-960b-0e18c8649e2d","ios":"levelo://app?vid=117c03bc-16b6-4a35-960b-0e18c8649e2d"},"vehicle_type_id":"4","last_reported":1735420038,"current_range_meters":34800,"station_id":"ce4bgip2rcd13ifvqbb0","pricing_plan_id":"cebpf4jnsgd1na2vs0mg"},{"bike_id":"74ff8c72-6307-4530-b048-eb1d07ae5925","system_id":"levelo_inurba_marseille","lat":43.29901,"lon":5.38148,"is_reserved":false,"is_disabled":false,"rental_uris":{"android":"levelo://app?vid=74ff8c72-6307-4530-b048-eb1d07ae5925","ios":"levelo://app?vid=74ff8c72-6307-4530-b048-eb1d07ae5925"},"vehicle_type_id":"4","last_reported":1735420038,"current_range_meters":28000,"station_id":"ce4bgj12rcd13ifvqbc0","pricing_plan_id":"cebpf4jnsgd1na2vs0mg"},{"bike_id":"c22bbf32-8fa7-4c11-aec0-e06228310adf","system_id":"levelo_inurba_marseille","lat":43.29615,"lon":5.37722,"is_reserved":false,"is_disabled":false,"rental_uris":{"android":"levelo://app?vid=c22bbf32-8fa7-4c11-aec0-e06228310adf","ios":"levelo://app?vid=c22bbf32-8fa7-4c11-aec0-e06228310adf"},"vehicle_type_id":"4","last_reported":1735420038,"current_range_meters":35200,"station_id":"ce4bgi92rcd13ifvqb90","pricing_plan_id":"cebpf4jnsgd1na2vs0mg"},{"bike_id":"dde23100-284b-476d-b6ea-b936ad5ae2e8","system_id":"levelo_inurba_marseille","lat":43.296,"lon":5.38105,"is_reserved":false,"is_disabled":false,"rental_uris":{"android":"levelo://app?vid=dde23100-284b-476d-b6ea-b936ad5ae2e8","ios":"levelo://app?vid=dde23100-284b-476d-b6ea-b936ad5ae2e8"},"vehicle_type_id":"4","last_reported":1735420038,"current_range_meters":39200,"station_id":"ce4bgl12rcd13ifvqbo0","pricing_plan_id":"cebpf4jnsgd1na2vs0mg"},{"bike_id":"857344dd-6be1-4d34-90e7-6f62afbbef2e","system_id":"levelo_inurba_marseille","lat":43.32104,"lon":5.36776,"is_reserved":false,"is_disabled":false,"rental_uris":{"android":"levelo://app?vid=857344dd-6be1-4d34-90e7-6f62afbbef2e","ios":"levelo://app?vid=857344dd-6be1-4d34-90e7-6f62afbbef2e"},"vehicle_type_id":"4","last_reported":1735420038,"current_range_meters":31200,"station_id":"ce4bhrh2rcd13ifvqhug","pricing_plan_id":"cebpf4jnsgd1na2vs0mg"},{"bike_id":"9e1cf489-f014-4b8c-b10e-b4db73da092b","system_id":"levelo_inurba_marseille","lat":43.27841,"lon":5.39212,"is_reserved":false,"is_disabled":false,"rental_uris":{"android":"levelo://app?vid=9e1cf489-f014-4b8c-b10e-b4db73da092b","ios":"levelo://app?vid=9e1cf489-f014-4b8c-b10e-b4db73da092b"},"vehicle_type_id":"4","last_reported":1735420038,"current_range_meters":25200,"station_id":"ce4bhjp2rcd13ifvqga0","pricing_plan_id":"cebpf4jnsgd1na2vs0mg"},{"bike_id":"ebb6d78e-59e9-467c-bd6f-0ce95ca839c8","system_id":"levelo_inurba_marseille","lat":43.29214,"lon":5.36056,"is_reserved":false,"is_disabled":false,"rental_uris":{"android":"levelo://app?vid=ebb6d78e-59e9-467c-bd6f-0ce95ca839c8","ios":"levelo://app?vid=ebb6d78e-59e9-467c-bd6f-0ce95ca839c8"},"vehicle_type_id":"4","last_reported":1735420038,"current_range_meters":20800,"station_id":"ce4bhbh2rcd13ifvqeqg","pricing_plan_id":"cebpf4jnsgd1na2vs0mg"},{"bike_id":"2aeeb016-c0f4-4948-bd59-1c7a9e3cc1c6","system_id":"levelo_inurba_marseille","lat":43.29671,"lon":5.37295,"is_reserved":false,"is_disabled":false,"rental_uris":{"android":"levelo://app?vid=2aeeb016-c0f4-4948-bd59-1c7a9e3cc1c6","ios":"levelo://app?vid=2aeeb016-c0f4-4948-bd59-1c7a9e3cc1c6"},"vehicle_type_id":"4","last_reported":1735420038,"current_range_meters":16000,"station_id":"ce4bgk12rcd13ifvqbj0","pricing_plan_id":"cebpf4jnsgd1na2vs0mg"},{"bike_id":"3c2a68c2-ee7f-47cb-a403-8a77dc24c831","system_id":"levelo_inurba_marseille","lat":43.27501,"lon":5.4244,"is_reserved":false,"is_disabled":false,"rental_uris":{"android":"levelo://app?vid=3c2a68c2-ee7f-47cb-a403-8a77dc24c831","ios":"levelo://app?vid=3c2a68c2-ee7f-47cb-a403-8a77dc24c831"},"vehicle_type_id":"4","last_reported":1735420038,"current_range_meters":7200,"station_id":"ce4bhn92rcd13ifvqgrg","pricing_plan_id":"cebpf4jnsgd1na2vs0mg"},{"bike_id":"cdca7d98-25a2-4993-8c41-d47f1c31bb9f","system_id":"levelo_inurba_marseille","lat":43.3009,"lon":5.39081,"is_reserved":false,"is_disabled":false,"rental_uris":{"android":"levelo://app?vid=cdca7d98-25a2-4993-8c41-d47f1c31bb9f","ios":"levelo://app?vid=cdca7d98-25a2-4993-8c41-d47f1c31bb9f"},"vehicle_type_id":"4","last_reported":1735420038,"current_range_meters":38400,"station_id":"ce4bh192rcd13ifvqdb0","pricing_plan_id":"cebpf4jnsgd1na2vs0mg"},{"bike_id":"ad66ce9d-e2b2-4064-ae7f-fe87403c632b","system_id":"levelo_inurba_marseille","lat":43.23063,"lon":5.35494,"is_reserved":false,"is_disabled":false,"rental_uris":{"android":"levelo://app?vid=ad66ce9d-e2b2-4064-ae7f-fe87403c632b","ios":"levelo://app?vid=ad66ce9d-e2b2-4064-ae7f-fe87403c632b"},"vehicle_type_id":"4","last_reported":1735420038,"current_range_meters":20400,"station_id":"cpo3342slgdg3j2ifvpg","pricing_plan_id":"cebpf4jnsgd1na2vs0mg"},{"bike_id":"71c8c43d-5e41-472f-89ae-225e5df86457","system_id":"levelo_inurba_marseille","lat":43.28341,"lon":5.38102,"is_reserved":false,"is_disabled":false,"rental_uris":{"android":"levelo://app?vid=71c8c43d-5e41-472f-89ae-225e5df86457","ios":"levelo://app?vid=71c8c43d-5e41-472f-89ae-225e5df86457"},"vehicle_type_id":"4","last_reported":1735420038,"current_range_meters":37600,"station_id":"ce4bh412rcd13ifvqdr0","pricing_plan_id":"cebpf4jnsgd1na2vs0mg"},{"bike_id":"4e6a6b09-c29d-4572-bd03-ffe64c36b39b","system_id":"levelo_inurba_marseille","lat":43.2406,"lon":5.37757,"is_reserved":false,"is_disabled":false,"rental_uris":{"android":"levelo://app?vid=4e6a6b09-c29d-4572-bd03-ffe64c36b39b","ios":"levelo://app?vid=4e6a6b09-c29d-4572-bd03-ffe64c36b39b"},"vehicle_type_id":"4","last_reported":1735420038,"current_range_meters":11600,"station_id":"ce4bhnp2rcd13ifvqgvg","pricing_plan_id":"cebpf4jnsgd1na2vs0mg"},{"bike_id":"2e276ef7-feaf-420f-8098-2c7924a8a5cf","system_id":"levelo_inurba_marseille","lat":43.29043,"lon":5.35922,"is_reserved":false,"is_disabled":false,"rental_uris":{"android":"levelo://app?vid=2e276ef7-feaf-420f-8098-2c7924a8a5cf","ios":"levelo://app?vid=2e276ef7-feaf-420f-8098-2c7924a8a5cf"},"vehicle_type_id":"4","last_reported":1735420038,"current_range_meters":38800,"station_id":"ce4bha92rcd13ifvqeg0","pricing_plan_id":"cebpf4jnsgd1na2vs0mg"},{"bike_id":"753fe1a2-6ec1-4d51-9513-13144401ea46","system_id":"levelo_inurba_marseille","lat":43.29156,"lon":5.37142,"is_reserved":false,"is_disabled":false,"rental_uris":{"android":"levelo://app?vid=753fe1a2-6ec1-4d51-9513-13144401ea46","ios":"levelo://app?vid=753fe1a2-6ec1-4d51-9513-13144401ea46"},"vehicle_type_id":"4","last_reported":1735420038,"current_range_meters":34000,"station_id":"ce4bha92rcd13ifvqeh0","pricing_plan_id":"cebpf4jnsgd1na2vs0mg"},{"bike_id":"2924d707-8197-454c-9f11-6f7bb738d897","system_id":"levelo_inurba_marseille","lat":43.25122,"lon":5.40319,"is_reserved":false,"is_disabled":false,"rental_uris":{"android":"levelo://app?vid=2924d707-8197-454c-9f11-6f7bb738d897","ios":"levelo://app?vid=2924d707-8197-454c-9f11-6f7bb738d897"},"vehicle_type_id":"4","last_reported":1735420038,"current_range_meters":39200,"station_id":"ce4bhlh2rcd13ifvqgig","pricing_plan_id":"cebpf4jnsgd1na2vs0mg"},{"bike_id":"d0533ccb-11ce-46dc-9cca-daa9f7a4985a","system_id":"levelo_inurba_marseille","lat":43.29517,"lon":5.42291,"is_reserved":false,"is_disabled":false,"rental_uris":{"android":"levelo://app?vid=d0533ccb-11ce-46dc-9cca-daa9f7a4985a","ios":"levelo://app?vid=d0533ccb-11ce-46dc-9cca-daa9f7a4985a"},"vehicle_type_id":"4","last_reported":1735420038,"current_range_meters":37600,"station_id":"ce4bhph2rcd13ifvqhdg","pricing_plan_id":"cebpf4jnsgd1na2vs0mg"},{"bike_id":"18ed169b-f8e6-48ff-8d23-5f83e81eb63f","system_id":"levelo_inurba_marseille","lat":43.31691,"lon":5.37753,"is_reserved":false,"is_disabled":false,"rental_uris":{"android":"levelo://app?vid=18ed169b-f8e6-48ff-8d23-5f83e81eb63f","ios":"levelo://app?vid=18ed169b-f8e6-48ff-8d23-5f83e81eb63f"},"vehicle_type_id":"4","last_reported":1735420038,"current_range_meters":36000,"station_id":"ce4bgth2rcd13ifvqch0","pricing_plan_id":"cebpf4jnsgd1na2vs0mg"},{"bike_id":"90914198-22b4-4e25-b0c7-5296cabff233","system_id":"levelo_inurba_marseille","lat":43.29028,"lon":5.3755,"is_reserved":false,"is_disabled":false,"rental_uris":{"android":"levelo://app?vid=90914198-22b4-4e25-b0c7-5296cabff233","ios":"levelo://app?vid=90914198-22b4-4e25-b0c7-5296cabff233"},"vehicle_type_id":"4","last_reported":1735420038,"current_range_meters":32400,"station_id":"ce4bh692rcd13ifvqe90","pricing_plan_id":"cebpf4jnsgd1na2vs0mg"},{"bike_id":"f2704f42-b51f-4196-b348-1cd02aca0967","system_id":"levelo_inurba_marseille","lat":43.24665,"lon":5.38162,"is_reserved":false,"is_disabled":false,"rental_uris":{"android":"levelo://app?vid=f2704f42-b51f-4196-b348-1cd02aca0967","ios":"levelo://app?vid=f2704f42-b51f-4196-b348-1cd02aca0967"},"vehicle_type_id":"4","last_reported":1735420038,"current_range_meters":33200,"station_id":"ce4bhih2rcd13ifvqfr0","pricing_plan_id":"cebpf4jnsgd1na2vs0mg"},{"bike_id":"eeda5123-987e-4be3-b06e-0b68c935bff3","system_id":"levelo_inurba_marseille","lat":43.31478,"lon":5.37305,"is_reserved":false,"is_disabled":false,"rental_uris":{"android":"levelo://app?vid=eeda5123-987e-4be3-b06e-0b68c935bff3","ios":"levelo://app?vid=eeda5123-987e-4be3-b06e-0b68c935bff3"},"vehicle_type_id":"4","last_reported":1735420038,"current_range_meters":22400,"station_id":"ce4bgt12rcd13ifvqcd0","pricing_plan_id":"cebpf4jnsgd1na2vs0mg"},{"bike_id":"13f84696-4405-43e0-b0f5-1a61d67abe32","system_id":"levelo_inurba_marseille","lat":43.27844,"lon":5.39212,"is_reserved":false,"is_disabled":false,"rental_uris":{"android":"levelo://app?vid=13f84696-4405-43e0-b0f5-1a61d67abe32","ios":"levelo://app?vid=13f84696-4405-43e0-b0f5-1a61d67abe32"},"vehicle_type_id":"4","last_reported":1735420038,"current_range_meters":25600,"station_id":"ce4bhjp2rcd13ifvqga0","pricing_plan_id":"cebpf4jnsgd1na2vs0mg"},{"bike_id":"cec46986-8084-4582-9609-3a943ca152f7","system_id":"levelo_inurba_marseille","lat":43.30442,"lon":5.38881,"is_reserved":false,"is_disabled":false,"rental_uris":{"android":"levelo://app?vid=cec46986-8084-4582-9609-3a943ca152f7","ios":"levelo://app?vid=cec46986-8084-4582-9609-3a943ca152f7"},"vehicle_type_id":"4","last_reported":1735420038,"current_range_meters":17600,"station_id":"ce4bgk12rcd13ifvqbi0","pricing_plan_id":"cebpf4jnsgd1na2vs0mg"},{"bike_id":"caab34a4-5264-4b72-a12f-e55159fe93b6","system_id":"levelo_inurba_marseille","lat":43.2708,"lon":5.42274,"is_reserved":false,"is_disabled":false,"rental_uris":{"android":"levelo://app?vid=caab34a4-5264-4b72-a12f-e55159fe93b6","ios":"levelo://app?vid=caab34a4-5264-4b72-a12f-e55159fe93b6"},"vehicle_type_id":"4","last_reported":1735420038,"current_range_meters":28000,"station_id":"ce4bhk92rcd13ifvqgb0","pricing_plan_id":"cebpf4jnsgd1na2vs0mg"},{"bike_id":"16bc4d80-17fb-4b97-9ccf-6ee89704c490","system_id":"levelo_inurba_marseille","lat":43.29567,"lon":5.37521,"is_reserved":false,"is_disabled":false,"rental_uris":{"android":"levelo://app?vid=16bc4d80-17fb-4b97-9ccf-6ee89704c490","ios":"levelo://app?vid=16bc4d80-17fb-4b97-9ccf-6ee89704c490"},"vehicle_type_id":"4","last_reported":1735420038,"current_range_meters":25600,"station_id":"ce4bgh92rcd13ifvqb50","pricing_plan_id":"cebpf4jnsgd1na2vs0mg"},{"bike_id":"d664e964-aa9d-4cad-9c9d-3dfacaa8a71e","system_id":"levelo_inurba_marseille","lat":43.30137,"lon":5.38778,"is_reserved":false,"is_disabled":false,"rental_uris":{"android":"levelo://app?vid=d664e964-aa9d-4cad-9c9d-3dfacaa8a71e","ios":"levelo://app?vid=d664e964-aa9d-4cad-9c9d-3dfacaa8a71e"},"vehicle_type_id":"4","last_reported":1735420038,"current_range_meters":24800,"station_id":"ce4bghh2rcd13ifvqb60","pricing_plan_id":"cebpf4jnsgd1na2vs0mg"},{"bike_id":"90d99472-d498-4463-97df-e8131fd8d863","system_id":"levelo_inurba_marseille","lat":43.29258,"lon":5.38443,"is_reserved":false,"is_disabled":false,"rental_uris":{"android":"levelo://app?vid=90d99472-d498-4463-97df-e8131fd8d863","ios":"levelo://app?vid=90d99472-d498-4463-97df-e8131fd8d863"},"vehicle_type_id":"4","last_reported":1735420038,"current_range_meters":26000,"station_id":"ce4bh692rcd13ifvqea0","pricing_plan_id":"cebpf4jnsgd1na2vs0mg"},{"bike_id":"66fa2585-2039-4042-aec2-0f0b06993c07","system_id":"levelo_inurba_marseille","lat":43.31711,"lon":5.37762,"is_reserved":false,"is_disabled":false,"rental_uris":{"android":"levelo://app?vid=66fa2585-2039-4042-aec2-0f0b06993c07","ios":"levelo://app?vid=66fa2585-2039-4042-aec2-0f0b06993c07"},"vehicle_type_id":"4","last_reported":1735420038,"current_range_meters":38800,"station_id":"ce4bgth2rcd13ifvqch0","pricing_plan_id":"cebpf4jnsgd1na2vs0mg"},{"bike_id":"af24a059-f0b9-4451-8b3e-21219bfba3ca","system_id":"levelo_inurba_marseille","lat":43.32287,"lon":5.3827,"is_reserved":false,"is_disabled":false,"rental_uris":{"android":"levelo://app?vid=af24a059-f0b9-4451-8b3e-21219bfba3ca","ios":"levelo://app?vid=af24a059-f0b9-4451-8b3e-21219bfba3ca"},"vehicle_type_id":"4","last_reported":1735420038,"current_range_meters":38800,"station_id":"ce4bhr12rcd13ifvqhqg","pricing_plan_id":"cebpf4jnsgd1na2vs0mg"},{"bike_id":"2eaf5aab-e12e-4e93-a20d-88a34894165c","system_id":"levelo_inurba_marseille","lat":43.28461,"lon":5.35896,"is_reserved":false,"is_disabled":true,"rental_uris":{"android":"levelo://app?vid=2eaf5aab-e12e-4e93-a20d-88a34894165c","ios":"levelo://app?vid=2eaf5aab-e12e-4e93-a20d-88a34894165c"},"vehicle_type_id":"4","last_reported":1735420038,"current_range_meters":0,"station_id":"ce4bhah2rcd13ifvqei0","pricing_plan_id":"cebpf4jnsgd1na2vs0mg"},{"bike_id":"33e4c278-497a-4992-9269-3f4bd7a2ca60","system_id":"levelo_inurba_marseille","lat":43.29914,"lon":5.37474,"is_reserved":false,"is_disabled":false,"rental_uris":{"android":"levelo://app?vid=33e4c278-497a-4992-9269-3f4bd7a2ca60","ios":"levelo://app?vid=33e4c278-497a-4992-9269-3f4bd7a2ca60"},"vehicle_type_id":"4","last_reported":1735420038,"current_range_meters":38400,"station_id":"ce4bgjh2rcd13ifvqbg0","pricing_plan_id":"cebpf4jnsgd1na2vs0mg"},{"bike_id":"d07ac0e3-849c-44fe-ab38-0273add2ad10","system_id":"levelo_inurba_marseille","lat":43.30896,"lon":5.37195,"is_reserved":false,"is_disabled":false,"rental_uris":{"android":"levelo://app?vid=d07ac0e3-849c-44fe-ab38-0273add2ad10","ios":"levelo://app?vid=d07ac0e3-849c-44fe-ab38-0273add2ad10"},"vehicle_type_id":"4","last_reported":1735420038,"current_range_meters":12800,"station_id":"ce4bguh2rcd13ifvqckg","pricing_plan_id":"cebpf4jnsgd1na2vs0mg"},{"bike_id":"d6b22b82-2ba1-4963-bfff-f54c55c0719c","system_id":"levelo_inurba_marseille","lat":43.31325,"lon":5.39699,"is_reserved":false,"is_disabled":false,"rental_uris":{"android":"levelo://app?vid=d6b22b82-2ba1-4963-bfff-f54c55c0719c","ios":"levelo://app?vid=d6b22b82-2ba1-4963-bfff-f54c55c0719c"},"vehicle_type_id":"4","last_reported":1735420038,"current_range_meters":28800,"station_id":"ce4bgvp2rcd13ifvqcu0","pricing_plan_id":"cebpf4jnsgd1na2vs0mg"},{"bike_id":"b8310779-a1ed-43b8-93c2-4d2a1cabb080","system_id":"levelo_inurba_marseille","lat":43.26505,"lon":5.39543,"is_reserved":false,"is_disabled":false,"rental_uris":{"android":"levelo://app?vid=b8310779-a1ed-43b8-93c2-4d2a1cabb080","ios":"levelo://app?vid=b8310779-a1ed-43b8-93c2-4d2a1cabb080"},"vehicle_type_id":"4","last_reported":1735420038,"current_range_meters":38800,"station_id":"ce4bhi12rcd13ifvqfq0","pricing_plan_id":"cebpf4jnsgd1na2vs0mg"},{"bike_id":"c0c3e5c6-edc3-41c4-8feb-85aaa21b750a","system_id":"levelo_inurba_marseille","lat":43.32006,"lon":5.41552,"is_reserved":false,"is_disabled":false,"rental_uris":{"android":"levelo://app?vid=c0c3e5c6-edc3-41c4-8feb-85aaa21b750a","ios":"levelo://app?vid=c0c3e5c6-edc3-41c4-8feb-85aaa21b750a"},"vehicle_type_id":"4","last_reported":1735420038,"current_range_meters":35200,"station_id":"ce4bhq92rcd13ifvqhkg","pricing_plan_id":"cebpf4jnsgd1na2vs0mg"},{"bike_id":"9f98d7c2-7b73-45e9-a880-31a76fde57c2","system_id":"levelo_inurba_marseille","lat":43.27361,"lon":5.36248,"is_reserved":false,"is_disabled":false,"rental_uris":{"android":"levelo://app?vid=9f98d7c2-7b73-45e9-a880-31a76fde57c2","ios":"levelo://app?vid=9f98d7c2-7b73-45e9-a880-31a76fde57c2"},"vehicle_type_id":"4","last_reported":1735420038,"current_range_meters":7200,"station_id":"ce4bhbh2rcd13ifvqeo0","pricing_plan_id":"cebpf4jnsgd1na2vs0mg"},{"bike_id":"aaaad95a-3362-4c9b-8d93-33b4c6435e21","system_id":"levelo_inurba_marseille","lat":43.29536,"lon":5.38545,"is_reserved":false,"is_disabled":false,"rental_uris":{"android":"levelo://app?vid=aaaad95a-3362-4c9b-8d93-33b4c6435e21","ios":"levelo://app?vid=aaaad95a-3362-4c9b-8d93-33b4c6435e21"},"vehicle_type_id":"4","last_reported":1735420038,"current_range_meters":21600,"station_id":"ce4bgih2rcd13ifvqba0","pricing_plan_id":"cebpf4jnsgd1na2vs0mg"},{"bike_id":"eccfad66-c267-470e-be27-7e3cd3a0d1c8","system_id":"levelo_inurba_marseille","lat":43.265,"lon":5.39559,"is_reserved":false,"is_disabled":false,"rental_uris":{"android":"levelo://app?vid=eccfad66-c267-470e-be27-7e3cd3a0d1c8","ios":"levelo://app?vid=eccfad66-c267-470e-be27-7e3cd3a0d1c8"},"vehicle_type_id":"4","last_reported":1735420038,"current_range_meters":38000,"station_id":"ce4bhi12rcd13ifvqfq0","pricing_plan_id":"cebpf4jnsgd1na2vs0mg"},{"bike_id":"d225e49f-de10-470b-90af-648b3c15cce7","system_id":"levelo_inurba_marseille","lat":43.25723,"lon":5.41095,"is_reserved":false,"is_disabled":false,"rental_uris":{"android":"levelo://app?vid=d225e49f-de10-470b-90af-648b3c15cce7","ios":"levelo://app?vid=d225e49f-de10-470b-90af-648b3c15cce7"},"vehicle_type_id":"4","last_reported":1735420038,"current_range_meters":38800,"station_id":"ce4bhkp2rcd13ifvqgd0","pricing_plan_id":"cebpf4jnsgd1na2vs0mg"},{"bike_id":"ffdb2c0d-1337-4b95-a10f-755453ca9eb2","system_id":"levelo_inurba_marseille","lat":43.29298,"lon":5.3718,"is_reserved":false,"is_disabled":false,"rental_uris":{"android":"levelo://app?vid=ffdb2c0d-1337-4b95-a10f-755453ca9eb2","ios":"levelo://app?vid=ffdb2c0d-1337-4b95-a10f-755453ca9eb2"},"vehicle_type_id":"4","last_reported":1735420038,"current_range_meters":32800,"station_id":"ce4bgh92rcd13ifvqb40","pricing_plan_id":"cebpf4jnsgd1na2vs0mg"},{"bike_id":"05fb7452-2e75-415b-85e8-66f72f2a1cf5","system_id":"levelo_inurba_marseille","lat":43.31359,"lon":5.39161,"is_reserved":false,"is_disabled":false,"rental_uris":{"android":"levelo://app?vid=05fb7452-2e75-415b-85e8-66f72f2a1cf5","ios":"levelo://app?vid=05fb7452-2e75-415b-85e8-66f72f2a1cf5"},"vehicle_type_id":"4","last_reported":1735420038,"current_range_meters":22800,"station_id":"","pricing_plan_id":"cebpf4jnsgd1na2vs0mg"},{"bike_id":"414d5a27-9d60-42ed-9942-5f82cd4d23db","system_id":"levelo_inurba_marseille","lat":43.27496,"lon":5.42447,"is_reserved":false,"is_disabled":false,"rental_uris":{"android":"levelo://app?vid=414d5a27-9d60-42ed-9942-5f82cd4d23db","ios":"levelo://app?vid=414d5a27-9d60-42ed-9942-5f82cd4d23db"},"vehicle_type_id":"4","last_reported":1735420038,"current_range_meters":20800,"station_id":"ce4bhn92rcd13ifvqgrg","pricing_plan_id":"cebpf4jnsgd1na2vs0mg"},{"bike_id":"d6144803-d96b-4980-90a1-d59f6d11564c","system_id":"levelo_inurba_marseille","lat":43.28155,"lon":5.42645,"is_reserved":false,"is_disabled":false,"rental_uris":{"android":"levelo://app?vid=d6144803-d96b-4980-90a1-d59f6d11564c","ios":"levelo://app?vid=d6144803-d96b-4980-90a1-d59f6d11564c"},"vehicle_type_id":"4","last_reported":1735420038,"current_range_meters":9600,"station_id":"ce4bhnh2rcd13ifvqgug","pricing_plan_id":"cebpf4jnsgd1na2vs0mg"},{"bike_id":"c74aa9b1-1e0f-46cb-8704-6e5852910a9d","system_id":"levelo_inurba_marseille","lat":43.26561,"lon":5.39001,"is_reserved":false,"is_disabled":false,"rental_uris":{"android":"levelo://app?vid=c74aa9b1-1e0f-46cb-8704-6e5852910a9d","ios":"levelo://app?vid=c74aa9b1-1e0f-46cb-8704-6e5852910a9d"},"vehicle_type_id":"4","last_reported":1735420038,"current_range_meters":17200,"station_id":"ce4bhe12rcd13ifvqf30","pricing_plan_id":"cebpf4jnsgd1na2vs0mg"},{"bike_id":"8ed5a1f5-589e-42ed-8f11-2d154ce6b9eb","system_id":"levelo_inurba_marseille","lat":43.23964,"lon":5.36632,"is_reserved":false,"is_disabled":false,"rental_uris":{"android":"levelo://app?vid=8ed5a1f5-589e-42ed-8f11-2d154ce6b9eb","ios":"levelo://app?vid=8ed5a1f5-589e-42ed-8f11-2d154ce6b9eb"},"vehicle_type_id":"4","last_reported":1735420038,"current_range_meters":37600,"station_id":"ce4bhi12rcd13ifvqfp0","pricing_plan_id":"cebpf4jnsgd1na2vs0mg"},{"bike_id":"de06c0d0-2db9-4125-a372-f852a51e4c9a","system_id":"levelo_inurba_marseille","lat":43.29158,"lon":5.37151,"is_reserved":false,"is_disabled":false,"rental_uris":{"android":"levelo://app?vid=de06c0d0-2db9-4125-a372-f852a51e4c9a","ios":"levelo://app?vid=de06c0d0-2db9-4125-a372-f852a51e4c9a"},"vehicle_type_id":"4","last_reported":1735420038,"current_range_meters":32000,"station_id":"ce4bha92rcd13ifvqeh0","pricing_plan_id":"cebpf4jnsgd1na2vs0mg"},{"bike_id":"f2771906-c31b-4e20-a9b5-59005e9607b6","system_id":"levelo_inurba_marseille","lat":43.29801,"lon":5.38076,"is_reserved":false,"is_disabled":false,"rental_uris":{"android":"levelo://app?vid=f2771906-c31b-4e20-a9b5-59005e9607b6","ios":"levelo://app?vid=f2771906-c31b-4e20-a9b5-59005e9607b6"},"vehicle_type_id":"4","last_reported":1735420038,"current_range_meters":29600,"station_id":"ce4bgip2rcd13ifvqbb0","pricing_plan_id":"cebpf4jnsgd1na2vs0mg"},{"bike_id":"0648f805-83c3-4f41-94a8-dbc8ddf9855c","system_id":"levelo_inurba_marseille","lat":43.31531,"lon":5.3802,"is_reserved":false,"is_disabled":false,"rental_uris":{"android":"levelo://app?vid=0648f805-83c3-4f41-94a8-dbc8ddf9855c","ios":"levelo://app?vid=0648f805-83c3-4f41-94a8-dbc8ddf9855c"},"vehicle_type_id":"4","last_reported":1735420038,"current_range_meters":38000,"station_id":"ce4bhsp2rcd13ifvqi50","pricing_plan_id":"cebpf4jnsgd1na2vs0mg"},{"bike_id":"394b3a01-d285-4240-9382-c861e1fe0035","system_id":"levelo_inurba_marseille","lat":43.29254,"lon":5.38437,"is_reserved":false,"is_disabled":false,"rental_uris":{"android":"levelo://app?vid=394b3a01-d285-4240-9382-c861e1fe0035","ios":"levelo://app?vid=394b3a01-d285-4240-9382-c861e1fe0035"},"vehicle_type_id":"4","last_reported":1735420038,"current_range_meters":30800,"station_id":"ce4bh692rcd13ifvqea0","pricing_plan_id":"cebpf4jnsgd1na2vs0mg"},{"bike_id":"5c3ea395-3e8e-4cad-994f-ebaf85927680","system_id":"levelo_inurba_marseille","lat":43.29529,"lon":5.3855,"is_reserved":false,"is_disabled":false,"rental_uris":{"android":"levelo://app?vid=5c3ea395-3e8e-4cad-994f-ebaf85927680","ios":"levelo://app?vid=5c3ea395-3e8e-4cad-994f-ebaf85927680"},"vehicle_type_id":"4","last_reported":1735420038,"current_range_meters":8400,"station_id":"ce4bgih2rcd13ifvqba0","pricing_plan_id":"cebpf4jnsgd1na2vs0mg"},{"bike_id":"0c1f6b3d-0a8f-4c32-8c8c-06da8ef000d5","system_id":"levelo_inurba_marseille","lat":43.28681,"lon":5.38664,"is_reserved":false,"is_disabled":false,"rental_uris":{"android":"levelo://app?vid=0c1f6b3d-0a8f-4c32-8c8c-06da8ef000d5","ios":"levelo://app?vid=0c1f6b3d-0a8f-4c32-8c8c-06da8ef000d5"},"vehicle_type_id":"4","last_reported":1735420038,"current_range_meters":36000,"station_id":"ce4bh492rcd13ifvqdug","pricing_plan_id":"cebpf4jnsgd1na2vs0mg"},{"bike_id":"75586ade-f7a4-41b5-afef-c1e2f4499a7d","system_id":"levelo_inurba_marseille","lat":43.30886,"lon":5.3719,"is_reserved":false,"is_disabled":false,"rental_uris":{"android":"levelo://app?vid=75586ade-f7a4-41b5-afef-c1e2f4499a7d","ios":"levelo://app?vid=75586ade-f7a4-41b5-afef-c1e2f4499a7d"},"vehicle_type_id":"4","last_reported":1735420038,"current_range_meters":38000,"station_id":"ce4bguh2rcd13ifvqckg","pricing_plan_id":"cebpf4jnsgd1na2vs0mg"},{"bike_id":"b3bf66fd-e609-467c-a5ee-ab6ea256e2c4","system_id":"levelo_inurba_marseille","lat":43.30793,"lon":5.38153,"is_reserved":false,"is_disabled":false,"rental_uris":{"android":"levelo://app?vid=b3bf66fd-e609-467c-a5ee-ab6ea256e2c4","ios":"levelo://app?vid=b3bf66fd-e609-467c-a5ee-ab6ea256e2c4"},"vehicle_type_id":"4","last_reported":1735420038,"current_range_meters":30800,"station_id":"ce4bgt12rcd13ifvqce0","pricing_plan_id":"cebpf4jnsgd1na2vs0mg"},{"bike_id":"9bc73fcf-974f-4a9c-8ca2-08386b48e208","system_id":"levelo_inurba_marseille","lat":43.29417,"lon":5.38626,"is_reserved":false,"is_disabled":false,"rental_uris":{"android":"levelo://app?vid=9bc73fcf-974f-4a9c-8ca2-08386b48e208","ios":"levelo://app?vid=9bc73fcf-974f-4a9c-8ca2-08386b48e208"},"vehicle_type_id":"4","last_reported":1735420038,"current_range_meters":13600,"station_id":"ce4bh2h2rcd13ifvqdh0","pricing_plan_id":"cebpf4jnsgd1na2vs0mg"},{"bike_id":"ade8f6ef-b3ee-4321-b0e3-fa2122109c5d","system_id":"levelo_inurba_marseille","lat":43.25021,"lon":5.38922,"is_reserved":false,"is_disabled":false,"rental_uris":{"android":"levelo://app?vid=ade8f6ef-b3ee-4321-b0e3-fa2122109c5d","ios":"levelo://app?vid=ade8f6ef-b3ee-4321-b0e3-fa2122109c5d"},"vehicle_type_id":"4","last_reported":1735420038,"current_range_meters":24000,"station_id":"ce4bhgp2rcd13ifvqfd0","pricing_plan_id":"cebpf4jnsgd1na2vs0mg"},{"bike_id":"22fd7190-4a48-4311-a205-02e98d2bbea1","system_id":"levelo_inurba_marseille","lat":43.33727,"lon":5.39186,"is_reserved":false,"is_disabled":false,"rental_uris":{"android":"levelo://app?vid=22fd7190-4a48-4311-a205-02e98d2bbea1","ios":"levelo://app?vid=22fd7190-4a48-4311-a205-02e98d2bbea1"},"vehicle_type_id":"4","last_reported":1735420038,"current_range_meters":38800,"station_id":"ce4bhr92rcd13ifvqhsg","pricing_plan_id":"cebpf4jnsgd1na2vs0mg"},{"bike_id":"c2e178aa-81c8-48f1-83f8-a7e7c71225b2","system_id":"levelo_inurba_marseille","lat":43.30894,"lon":5.37193,"is_reserved":false,"is_disabled":false,"rental_uris":{"android":"levelo://app?vid=c2e178aa-81c8-48f1-83f8-a7e7c71225b2","ios":"levelo://app?vid=c2e178aa-81c8-48f1-83f8-a7e7c71225b2"},"vehicle_type_id":"4","last_reported":1735420038,"current_range_meters":25600,"station_id":"ce4bguh2rcd13ifvqckg","pricing_plan_id":"cebpf4jnsgd1na2vs0mg"},{"bike_id":"56e6ac0b-421a-4cbd-a9dd-83c2c920280c","system_id":"levelo_inurba_marseille","lat":43.25875,"lon":5.39891,"is_reserved":false,"is_disabled":false,"rental_uris":{"android":"levelo://app?vid=56e6ac0b-421a-4cbd-a9dd-83c2c920280c","ios":"levelo://app?vid=56e6ac0b-421a-4cbd-a9dd-83c2c920280c"},"vehicle_type_id":"4","last_reported":1735420038,"current_range_meters":27600,"station_id":"ce4bhl92rcd13ifvqghg","pricing_plan_id":"cebpf4jnsgd1na2vs0mg"},{"bike_id":"b51899bf-eb59-4427-b974-726780043f14","system_id":"levelo_inurba_marseille","lat":43.27944,"lon":5.41046,"is_reserved":false,"is_disabled":false,"rental_uris":{"android":"levelo://app?vid=b51899bf-eb59-4427-b974-726780043f14","ios":"levelo://app?vid=b51899bf-eb59-4427-b974-726780043f14"},"vehicle_type_id":"4","last_reported":1735420038,"current_range_meters":36400,"station_id":"ce4bhnp2rcd13ifvqh0g","pricing_plan_id":"cebpf4jnsgd1na2vs0mg"},{"bike_id":"12b1618d-0fb4-456a-85c6-525a9c9a4a79","system_id":"levelo_inurba_marseille","lat":43.24547,"lon":5.39518,"is_reserved":false,"is_disabled":false,"rental_uris":{"android":"levelo://app?vid=12b1618d-0fb4-456a-85c6-525a9c9a4a79","ios":"levelo://app?vid=12b1618d-0fb4-456a-85c6-525a9c9a4a79"},"vehicle_type_id":"4","last_reported":1735420038,"current_range_meters":38800,"station_id":"ce4bhlp2rcd13ifvqgjg","pricing_plan_id":"cebpf4jnsgd1na2vs0mg"},{"bike_id":"e73e6057-e6e9-407b-a17e-f4e119a96aba","system_id":"levelo_inurba_marseille","lat":43.32111,"lon":5.36769,"is_reserved":false,"is_disabled":false,"rental_uris":{"android":"levelo://app?vid=e73e6057-e6e9-407b-a17e-f4e119a96aba","ios":"levelo://app?vid=e73e6057-e6e9-407b-a17e-f4e119a96aba"},"vehicle_type_id":"4","last_reported":1735420038,"current_range_meters":12800,"station_id":"ce4bhrh2rcd13ifvqhug","pricing_plan_id":"cebpf4jnsgd1na2vs0mg"},{"bike_id":"031dc0ac-f253-4e89-9f68-a0bf92006f1d","system_id":"levelo_inurba_marseille","lat":43.31267,"lon":5.40163,"is_reserved":false,"is_disabled":false,"rental_uris":{"android":"levelo://app?vid=031dc0ac-f253-4e89-9f68-a0bf92006f1d","ios":"levelo://app?vid=031dc0ac-f253-4e89-9f68-a0bf92006f1d"},"vehicle_type_id":"4","last_reported":1735420038,"current_range_meters":38800,"station_id":"ce4bh092rcd13ifvqd30","pricing_plan_id":"cebpf4jnsgd1na2vs0mg"},{"bike_id":"f7c5bc57-cb9a-4b83-bec7-1ac1d80db1c8","system_id":"levelo_inurba_marseille","lat":43.28005,"lon":5.40047,"is_reserved":false,"is_disabled":false,"rental_uris":{"android":"levelo://app?vid=f7c5bc57-cb9a-4b83-bec7-1ac1d80db1c8","ios":"levelo://app?vid=f7c5bc57-cb9a-4b83-bec7-1ac1d80db1c8"},"vehicle_type_id":"4","last_reported":1735420038,"current_range_meters":26800,"station_id":"ce4bh8p2rcd13ifvqeb0","pricing_plan_id":"cebpf4jnsgd1na2vs0mg"},{"bike_id":"9e6d9495-e6fc-46af-bf3a-7dc282e2ba92","system_id":"levelo_inurba_marseille","lat":43.27066,"lon":5.42273,"is_reserved":false,"is_disabled":false,"rental_uris":{"android":"levelo://app?vid=9e6d9495-e6fc-46af-bf3a-7dc282e2ba92","ios":"levelo://app?vid=9e6d9495-e6fc-46af-bf3a-7dc282e2ba92"},"vehicle_type_id":"4","last_reported":1735420038,"current_range_meters":36000,"station_id":"ce4bhk92rcd13ifvqgb0","pricing_plan_id":"cebpf4jnsgd1na2vs0mg"},{"bike_id":"57103b12-06fc-494b-9a1a-1903f8f245d5","system_id":"levelo_inurba_marseille","lat":43.27987,"lon":5.41652,"is_reserved":false,"is_disabled":false,"rental_uris":{"android":"levelo://app?vid=57103b12-06fc-494b-9a1a-1903f8f245d5","ios":"levelo://app?vid=57103b12-06fc-494b-9a1a-1903f8f245d5"},"vehicle_type_id":"4","last_reported":1735420038,"current_range_meters":22000,"station_id":"ce4bho12rcd13ifvqh1g","pricing_plan_id":"cebpf4jnsgd1na2vs0mg"},{"bike_id":"c851116d-99dd-4dac-b2f2-5a1f9d6851a0","system_id":"levelo_inurba_marseille","lat":43.27378,"lon":5.36251,"is_reserved":false,"is_disabled":false,"rental_uris":{"android":"levelo://app?vid=c851116d-99dd-4dac-b2f2-5a1f9d6851a0","ios":"levelo://app?vid=c851116d-99dd-4dac-b2f2-5a1f9d6851a0"},"vehicle_type_id":"4","last_reported":1735420038,"current_range_meters":38800,"station_id":"ce4bhbh2rcd13ifvqeo0","pricing_plan_id":"cebpf4jnsgd1na2vs0mg"},{"bike_id":"3db05973-cc08-4299-9c9c-1e95f6ad1810","system_id":"levelo_inurba_marseille","lat":43.30807,"lon":5.38156,"is_reserved":false,"is_disabled":false,"rental_uris":{"android":"levelo://app?vid=3db05973-cc08-4299-9c9c-1e95f6ad1810","ios":"levelo://app?vid=3db05973-cc08-4299-9c9c-1e95f6ad1810"},"vehicle_type_id":"4","last_reported":1735420038,"current_range_meters":28400,"station_id":"ce4bgt12rcd13ifvqce0","pricing_plan_id":"cebpf4jnsgd1na2vs0mg"},{"bike_id":"d9d97985-8792-47a3-ab8c-09980f6a9900","system_id":"levelo_inurba_marseille","lat":43.2953,"lon":5.375,"is_reserved":false,"is_disabled":true,"rental_uris":{"android":"levelo://app?vid=d9d97985-8792-47a3-ab8c-09980f6a9900","ios":"levelo://app?vid=d9d97985-8792-47a3-ab8c-09980f6a9900"},"vehicle_type_id":"4","last_reported":1735420038,"current_range_meters":9200,"station_id":"ce4bgkp2rcd13ifvqbmg","pricing_plan_id":"cebpf4jnsgd1na2vs0mg"},{"bike_id":"e1e242d1-2cf6-4a1f-8622-55d7b81af7d8","system_id":"levelo_inurba_marseille","lat":43.27813,"lon":5.40728,"is_reserved":false,"is_disabled":false,"rental_uris":{"android":"levelo://app?vid=e1e242d1-2cf6-4a1f-8622-55d7b81af7d8","ios":"levelo://app?vid=e1e242d1-2cf6-4a1f-8622-55d7b81af7d8"},"vehicle_type_id":"4","last_reported":1735420038,"current_range_meters":34800,"station_id":"ce4bhnh2rcd13ifvqgtg","pricing_plan_id":"cebpf4jnsgd1na2vs0mg"},{"bike_id":"62c6d429-3767-4773-be41-bb492a25ccfa","system_id":"levelo_inurba_marseille","lat":43.27939,"lon":5.41043,"is_reserved":false,"is_disabled":false,"rental_uris":{"android":"levelo://app?vid=62c6d429-3767-4773-be41-bb492a25ccfa","ios":"levelo://app?vid=62c6d429-3767-4773-be41-bb492a25ccfa"},"vehicle_type_id":"4","last_reported":1735420038,"current_range_meters":18800,"station_id":"ce4bhnp2rcd13ifvqh0g","pricing_plan_id":"cebpf4jnsgd1na2vs0mg"},{"bike_id":"6a14b937-cc88-4614-a5e4-52dec4d90f5e","system_id":"levelo_inurba_marseille","lat":43.2998,"lon":5.38489,"is_reserved":false,"is_disabled":false,"rental_uris":{"android":"levelo://app?vid=6a14b937-cc88-4614-a5e4-52dec4d90f5e","ios":"levelo://app?vid=6a14b937-cc88-4614-a5e4-52dec4d90f5e"},"vehicle_type_id":"4","last_reported":1735420038,"current_range_meters":27600,"station_id":"ce4bgj92rcd13ifvqbd0","pricing_plan_id":"cebpf4jnsgd1na2vs0mg"},{"bike_id":"51145a9f-1dd5-49ff-b0a8-9d0e3c399b7d","system_id":"levelo_inurba_marseille","lat":43.29061,"lon":5.37166,"is_reserved":false,"is_disabled":false,"rental_uris":{"android":"levelo://app?vid=51145a9f-1dd5-49ff-b0a8-9d0e3c399b7d","ios":"levelo://app?vid=51145a9f-1dd5-49ff-b0a8-9d0e3c399b7d"},"vehicle_type_id":"4","last_reported":1735420038,"current_range_meters":21600,"station_id":"ce4bh5p2rcd13ifvqe4g","pricing_plan_id":"cebpf4jnsgd1na2vs0mg"},{"bike_id":"482b0b80-c53d-4d05-aa82-218b22575b6c","system_id":"levelo_inurba_marseille","lat":43.23161,"lon":5.43687,"is_reserved":false,"is_disabled":true,"rental_uris":{"android":"levelo://app?vid=482b0b80-c53d-4d05-aa82-218b22575b6c","ios":"levelo://app?vid=482b0b80-c53d-4d05-aa82-218b22575b6c"},"vehicle_type_id":"4","last_reported":1735420038,"current_range_meters":8800,"station_id":"ce4bhmp2rcd13ifvqgog","pricing_plan_id":"cebpf4jnsgd1na2vs0mg"},{"bike_id":"691e4db3-4c9c-41ae-918a-319d96400730","system_id":"levelo_inurba_marseille","lat":43.2953,"lon":5.38542,"is_reserved":false,"is_disabled":false,"rental_uris":{"android":"levelo://app?vid=691e4db3-4c9c-41ae-918a-319d96400730","ios":"levelo://app?vid=691e4db3-4c9c-41ae-918a-319d96400730"},"vehicle_type_id":"4","last_reported":1735420038,"current_range_meters":31200,"station_id":"ce4bgih2rcd13ifvqba0","pricing_plan_id":"cebpf4jnsgd1na2vs0mg"},{"bike_id":"614ee957-99b7-47f9-9f55-ce2f091ac44b","system_id":"levelo_inurba_marseille","lat":43.2952,"lon":5.39027,"is_reserved":false,"is_disabled":false,"rental_uris":{"android":"levelo://app?vid=614ee957-99b7-47f9-9f55-ce2f091ac44b","ios":"levelo://app?vid=614ee957-99b7-47f9-9f55-ce2f091ac44b"},"vehicle_type_id":"4","last_reported":1735420038,"current_range_meters":19600,"station_id":"ce4bh3p2rcd13ifvqdp0","pricing_plan_id":"cebpf4jnsgd1na2vs0mg"},{"bike_id":"eacaa08a-1d8e-4e15-978d-0999635c358c","system_id":"levelo_inurba_marseille","lat":43.29189,"lon":5.35798,"is_reserved":false,"is_disabled":false,"rental_uris":{"android":"levelo://app?vid=eacaa08a-1d8e-4e15-978d-0999635c358c","ios":"levelo://app?vid=eacaa08a-1d8e-4e15-978d-0999635c358c"},"vehicle_type_id":"4","last_reported":1735420038,"current_range_meters":38000,"station_id":"ce4bhb12rcd13ifvqel0","pricing_plan_id":"cebpf4jnsgd1na2vs0mg"},{"bike_id":"4f159b3a-7c41-4df4-8fad-ed79f7f1368b","system_id":"levelo_inurba_marseille","lat":43.30887,"lon":5.37201,"is_reserved":false,"is_disabled":false,"rental_uris":{"android":"levelo://app?vid=4f159b3a-7c41-4df4-8fad-ed79f7f1368b","ios":"levelo://app?vid=4f159b3a-7c41-4df4-8fad-ed79f7f1368b"},"vehicle_type_id":"4","last_reported":1735420038,"current_range_meters":30000,"station_id":"ce4bguh2rcd13ifvqckg","pricing_plan_id":"cebpf4jnsgd1na2vs0mg"},{"bike_id":"f0df7473-dab8-4944-8186-e53ab918b63a","system_id":"levelo_inurba_marseille","lat":43.29772,"lon":5.37089,"is_reserved":false,"is_disabled":false,"rental_uris":{"android":"levelo://app?vid=f0df7473-dab8-4944-8186-e53ab918b63a","ios":"levelo://app?vid=f0df7473-dab8-4944-8186-e53ab918b63a"},"vehicle_type_id":"4","last_reported":1735420038,"current_range_meters":36000,"station_id":"ce4bgop2rcd13ifvqc1g","pricing_plan_id":"cebpf4jnsgd1na2vs0mg"},{"bike_id":"6a65b5f4-f935-4b10-b393-4853aba7b25b","system_id":"levelo_inurba_marseille","lat":43.26691,"lon":5.38268,"is_reserved":false,"is_disabled":false,"rental_uris":{"android":"levelo://app?vid=6a65b5f4-f935-4b10-b393-4853aba7b25b","ios":"levelo://app?vid=6a65b5f4-f935-4b10-b393-4853aba7b25b"},"vehicle_type_id":"4","last_reported":1735420038,"current_range_meters":10000,"station_id":"ce4bhg92rcd13ifvqf90","pricing_plan_id":"cebpf4jnsgd1na2vs0mg"},{"bike_id":"f5d5b67e-5236-40d0-be13-cafc5b83ddd4","system_id":"levelo_inurba_marseille","lat":43.30542,"lon":5.38436,"is_reserved":false,"is_disabled":false,"rental_uris":{"android":"levelo://app?vid=f5d5b67e-5236-40d0-be13-cafc5b83ddd4","ios":"levelo://app?vid=f5d5b67e-5236-40d0-be13-cafc5b83ddd4"},"vehicle_type_id":"4","last_reported":1735420038,"current_range_meters":39200,"station_id":"ce4bgg92rcd13ifvqb30","pricing_plan_id":"cebpf4jnsgd1na2vs0mg"},{"bike_id":"fbef8b28-5fd6-475b-91f2-fa4e19e2dd2f","system_id":"levelo_inurba_marseille","lat":43.24545,"lon":5.39521,"is_reserved":false,"is_disabled":false,"rental_uris":{"android":"levelo://app?vid=fbef8b28-5fd6-475b-91f2-fa4e19e2dd2f","ios":"levelo://app?vid=fbef8b28-5fd6-475b-91f2-fa4e19e2dd2f"},"vehicle_type_id":"4","last_reported":1735420038,"current_range_meters":27200,"station_id":"ce4bhlp2rcd13ifvqgjg","pricing_plan_id":"cebpf4jnsgd1na2vs0mg"},{"bike_id":"f6a398ba-af8e-4fe3-a6c0-f28cb0077f88","system_id":"levelo_inurba_marseille","lat":43.281522,"lon":5.42637,"is_reserved":false,"is_disabled":false,"rental_uris":{"android":"levelo://app?vid=f6a398ba-af8e-4fe3-a6c0-f28cb0077f88","ios":"levelo://app?vid=f6a398ba-af8e-4fe3-a6c0-f28cb0077f88"},"vehicle_type_id":"4","last_reported":1735420038,"current_range_meters":24000,"station_id":"ce4bhnh2rcd13ifvqgug","pricing_plan_id":"cebpf4jnsgd1na2vs0mg"},{"bike_id":"2a8090a5-258a-42f6-bdf5-1bde1ba8db3e","system_id":"levelo_inurba_marseille","lat":43.24821,"lon":5.37456,"is_reserved":false,"is_disabled":false,"rental_uris":{"android":"levelo://app?vid=2a8090a5-258a-42f6-bdf5-1bde1ba8db3e","ios":"levelo://app?vid=2a8090a5-258a-42f6-bdf5-1bde1ba8db3e"},"vehicle_type_id":"4","last_reported":1735420038,"current_range_meters":8000,"station_id":"ce4bhgh2rcd13ifvqfb0","pricing_plan_id":"cebpf4jnsgd1na2vs0mg"},{"bike_id":"7bd44d09-e872-4291-b548-1cbe40f16cac","system_id":"levelo_inurba_marseille","lat":43.28202,"lon":5.42583,"is_reserved":false,"is_disabled":false,"rental_uris":{"android":"levelo://app?vid=7bd44d09-e872-4291-b548-1cbe40f16cac","ios":"levelo://app?vid=7bd44d09-e872-4291-b548-1cbe40f16cac"},"vehicle_type_id":"4","last_reported":1735420038,"current_range_meters":26800,"station_id":"","pricing_plan_id":"cebpf4jnsgd1na2vs0mg"},{"bike_id":"113b62cb-5043-40fb-a6ac-b7536881fae4","system_id":"levelo_inurba_marseille","lat":43.30351,"lon":5.41875,"is_reserved":false,"is_disabled":false,"rental_uris":{"android":"levelo://app?vid=113b62cb-5043-40fb-a6ac-b7536881fae4","ios":"levelo://app?vid=113b62cb-5043-40fb-a6ac-b7536881fae4"},"vehicle_type_id":"4","last_reported":1735420038,"current_range_meters":14800,"station_id":"ce4bhop2rcd13ifvqh7g","pricing_plan_id":"cebpf4jnsgd1na2vs0mg"},{"bike_id":"d124b3fa-f3a5-4c6d-bebc-2f7ad1a1004e","system_id":"levelo_inurba_marseille","lat":43.26953,"lon":5.38641,"is_reserved":false,"is_disabled":false,"rental_uris":{"android":"levelo://app?vid=d124b3fa-f3a5-4c6d-bebc-2f7ad1a1004e","ios":"levelo://app?vid=d124b3fa-f3a5-4c6d-bebc-2f7ad1a1004e"},"vehicle_type_id":"4","last_reported":1735420038,"current_range_meters":38800,"station_id":"ce4bhh92rcd13ifvqfh0","pricing_plan_id":"cebpf4jnsgd1na2vs0mg"},{"bike_id":"100ef54d-79f8-4689-8411-ae5cedc3c94e","system_id":"levelo_inurba_marseille","lat":43.29066,"lon":5.37161,"is_reserved":false,"is_disabled":false,"rental_uris":{"android":"levelo://app?vid=100ef54d-79f8-4689-8411-ae5cedc3c94e","ios":"levelo://app?vid=100ef54d-79f8-4689-8411-ae5cedc3c94e"},"vehicle_type_id":"4","last_reported":1735420038,"current_range_meters":13600,"station_id":"ce4bh5p2rcd13ifvqe4g","pricing_plan_id":"cebpf4jnsgd1na2vs0mg"},{"bike_id":"98a38826-a83c-4c18-bc58-68fa8c2c0dd9","system_id":"levelo_inurba_marseille","lat":43.29375,"lon":5.37842,"is_reserved":false,"is_disabled":false,"rental_uris":{"android":"levelo://app?vid=98a38826-a83c-4c18-bc58-68fa8c2c0dd9","ios":"levelo://app?vid=98a38826-a83c-4c18-bc58-68fa8c2c0dd9"},"vehicle_type_id":"4","last_reported":1735420038,"current_range_meters":14400,"station_id":"ce4bgjh2rcd13ifvqbf0","pricing_plan_id":"cebpf4jnsgd1na2vs0mg"},{"bike_id":"84e9960c-5d51-43ec-a5af-2b8f0882416c","system_id":"levelo_inurba_marseille","lat":43.24069,"lon":5.37767,"is_reserved":false,"is_disabled":false,"rental_uris":{"android":"levelo://app?vid=84e9960c-5d51-43ec-a5af-2b8f0882416c","ios":"levelo://app?vid=84e9960c-5d51-43ec-a5af-2b8f0882416c"},"vehicle_type_id":"4","last_reported":1735420038,"current_range_meters":29600,"station_id":"ce4bhnp2rcd13ifvqgvg","pricing_plan_id":"cebpf4jnsgd1na2vs0mg"},{"bike_id":"359ddae0-5d3f-4b29-8d32-daa2bb9138da","system_id":"levelo_inurba_marseille","lat":43.29732,"lon":5.37691,"is_reserved":false,"is_disabled":false,"rental_uris":{"android":"levelo://app?vid=359ddae0-5d3f-4b29-8d32-daa2bb9138da","ios":"levelo://app?vid=359ddae0-5d3f-4b29-8d32-daa2bb9138da"},"vehicle_type_id":"4","last_reported":1735420038,"current_range_meters":32400,"station_id":"ce4bgkh2rcd13ifvqbl0","pricing_plan_id":"cebpf4jnsgd1na2vs0mg"},{"bike_id":"1107b56a-98a5-4a01-8449-9eba086fee5a","system_id":"levelo_inurba_marseille","lat":43.29073,"lon":5.39883,"is_reserved":false,"is_disabled":true,"rental_uris":{"android":"levelo://app?vid=1107b56a-98a5-4a01-8449-9eba086fee5a","ios":"levelo://app?vid=1107b56a-98a5-4a01-8449-9eba086fee5a"},"vehicle_type_id":"4","last_reported":1735420038,"current_range_meters":19200,"station_id":"","pricing_plan_id":"cebpf4jnsgd1na2vs0mg"},{"bike_id":"5b1cd6da-e84a-476d-b462-54b1dc0dcd97","system_id":"levelo_inurba_marseille","lat":43.2928,"lon":5.3684,"is_reserved":false,"is_disabled":false,"rental_uris":{"android":"levelo://app?vid=5b1cd6da-e84a-476d-b462-54b1dc0dcd97","ios":"levelo://app?vid=5b1cd6da-e84a-476d-b462-54b1dc0dcd97"},"vehicle_type_id":"4","last_reported":1735420038,"current_range_meters":36400,"station_id":"ce4bhbp2rcd13ifvqesg","pricing_plan_id":"cebpf4jnsgd1na2vs0mg"},{"bike_id":"b26295a2-53a3-4c96-9a49-718cdfe52e77","system_id":"levelo_inurba_marseille","lat":43.287017,"lon":5.373786,"is_reserved":false,"is_disabled":false,"rental_uris":{"android":"levelo://app?vid=b26295a2-53a3-4c96-9a49-718cdfe52e77","ios":"levelo://app?vid=b26295a2-53a3-4c96-9a49-718cdfe52e77"},"vehicle_type_id":"4","last_reported":1735420038,"current_range_meters":39200,"station_id":"ce4bh3p2rcd13ifvqdq0","pricing_plan_id":"cebpf4jnsgd1na2vs0mg"},{"bike_id":"f98f86cd-bd12-4a77-a017-bbfdfb0a17cc","system_id":"levelo_inurba_marseille","lat":43.26502,"lon":5.39542,"is_reserved":false,"is_disabled":false,"rental_uris":{"android":"levelo://app?vid=f98f86cd-bd12-4a77-a017-bbfdfb0a17cc","ios":"levelo://app?vid=f98f86cd-bd12-4a77-a017-bbfdfb0a17cc"},"vehicle_type_id":"4","last_reported":1735420038,"current_range_meters":38000,"station_id":"ce4bhi12rcd13ifvqfq0","pricing_plan_id":"cebpf4jnsgd1na2vs0mg"},{"bike_id":"c9b97fb7-b709-4c26-ae01-dabf637bc152","system_id":"levelo_inurba_marseille","lat":43.27814,"lon":5.40722,"is_reserved":false,"is_disabled":false,"rental_uris":{"android":"levelo://app?vid=c9b97fb7-b709-4c26-ae01-dabf637bc152","ios":"levelo://app?vid=c9b97fb7-b709-4c26-ae01-dabf637bc152"},"vehicle_type_id":"4","last_reported":1735420038,"current_range_meters":27200,"station_id":"ce4bhnh2rcd13ifvqgtg","pricing_plan_id":"cebpf4jnsgd1na2vs0mg"},{"bike_id":"49030890-65c3-4f0e-95f6-e7e0e1385bce","system_id":"levelo_inurba_marseille","lat":43.24803,"lon":5.37452,"is_reserved":false,"is_disabled":false,"rental_uris":{"android":"levelo://app?vid=49030890-65c3-4f0e-95f6-e7e0e1385bce","ios":"levelo://app?vid=49030890-65c3-4f0e-95f6-e7e0e1385bce"},"vehicle_type_id":"4","last_reported":1735420038,"current_range_meters":28400,"station_id":"ce4bhgh2rcd13ifvqfb0","pricing_plan_id":"cebpf4jnsgd1na2vs0mg"},{"bike_id":"1dbdfecf-2cad-4a6a-b2e9-803687afb870","system_id":"levelo_inurba_marseille","lat":43.30869,"lon":5.37183,"is_reserved":false,"is_disabled":false,"rental_uris":{"android":"levelo://app?vid=1dbdfecf-2cad-4a6a-b2e9-803687afb870","ios":"levelo://app?vid=1dbdfecf-2cad-4a6a-b2e9-803687afb870"},"vehicle_type_id":"4","last_reported":1735420038,"current_range_meters":18800,"station_id":"ce4bguh2rcd13ifvqckg","pricing_plan_id":"cebpf4jnsgd1na2vs0mg"},{"bike_id":"5e5f9118-f1a7-4026-8d57-b98e33d5393e","system_id":"levelo_inurba_marseille","lat":43.29567,"lon":5.37517,"is_reserved":false,"is_disabled":false,"rental_uris":{"android":"levelo://app?vid=5e5f9118-f1a7-4026-8d57-b98e33d5393e","ios":"levelo://app?vid=5e5f9118-f1a7-4026-8d57-b98e33d5393e"},"vehicle_type_id":"4","last_reported":1735420038,"current_range_meters":36000,"station_id":"ce4bgh92rcd13ifvqb50","pricing_plan_id":"cebpf4jnsgd1na2vs0mg"},{"bike_id":"ed49c6a3-5e64-485a-beb0-24d7970e5e6b","system_id":"levelo_inurba_marseille","lat":43.26496,"lon":5.39549,"is_reserved":false,"is_disabled":false,"rental_uris":{"android":"levelo://app?vid=ed49c6a3-5e64-485a-beb0-24d7970e5e6b","ios":"levelo://app?vid=ed49c6a3-5e64-485a-beb0-24d7970e5e6b"},"vehicle_type_id":"4","last_reported":1735420038,"current_range_meters":36800,"station_id":"ce4bhi12rcd13ifvqfq0","pricing_plan_id":"cebpf4jnsgd1na2vs0mg"},{"bike_id":"2fe9bfb1-dc7d-48c7-83c9-8a77ab70a881","system_id":"levelo_inurba_marseille","lat":43.28932,"lon":5.36633,"is_reserved":false,"is_disabled":false,"rental_uris":{"android":"levelo://app?vid=2fe9bfb1-dc7d-48c7-83c9-8a77ab70a881","ios":"levelo://app?vid=2fe9bfb1-dc7d-48c7-83c9-8a77ab70a881"},"vehicle_type_id":"4","last_reported":1735420038,"current_range_meters":10000,"station_id":"ce4bhap2rcd13ifvqek0","pricing_plan_id":"cebpf4jnsgd1na2vs0mg"},{"bike_id":"fd9dccc3-920a-4f08-931a-e49fee0b5433","system_id":"levelo_inurba_marseille","lat":43.29252,"lon":5.40916,"is_reserved":false,"is_disabled":false,"rental_uris":{"android":"levelo://app?vid=fd9dccc3-920a-4f08-931a-e49fee0b5433","ios":"levelo://app?vid=fd9dccc3-920a-4f08-931a-e49fee0b5433"},"vehicle_type_id":"4","last_reported":1735420038,"current_range_meters":39200,"station_id":"ce4bh192rcd13ifvqdc0","pricing_plan_id":"cebpf4jnsgd1na2vs0mg"},{"bike_id":"be908b76-4eae-484a-9e50-70911ef84526","system_id":"levelo_inurba_marseille","lat":43.29361,"lon":5.37849,"is_reserved":false,"is_disabled":false,"rental_uris":{"android":"levelo://app?vid=be908b76-4eae-484a-9e50-70911ef84526","ios":"levelo://app?vid=be908b76-4eae-484a-9e50-70911ef84526"},"vehicle_type_id":"4","last_reported":1735420038,"current_range_meters":38800,"station_id":"ce4bgjh2rcd13ifvqbf0","pricing_plan_id":"cebpf4jnsgd1na2vs0mg"},{"bike_id":"cc6dd841-644e-4a08-a277-17bae369bb08","system_id":"levelo_inurba_marseille","lat":43.29791,"lon":5.3809,"is_reserved":false,"is_disabled":false,"rental_uris":{"android":"levelo://app?vid=cc6dd841-644e-4a08-a277-17bae369bb08","ios":"levelo://app?vid=cc6dd841-644e-4a08-a277-17bae369bb08"},"vehicle_type_id":"4","last_reported":1735420038,"current_range_meters":36800,"station_id":"ce4bgip2rcd13ifvqbb0","pricing_plan_id":"cebpf4jnsgd1na2vs0mg"},{"bike_id":"41e441a8-4ad2-4bf0-81ba-96c35feaf6d8","system_id":"levelo_inurba_marseille","lat":43.28153,"lon":5.42636,"is_reserved":false,"is_disabled":false,"rental_uris":{"android":"levelo://app?vid=41e441a8-4ad2-4bf0-81ba-96c35feaf6d8","ios":"levelo://app?vid=41e441a8-4ad2-4bf0-81ba-96c35feaf6d8"},"vehicle_type_id":"4","last_reported":1735420038,"current_range_meters":32400,"station_id":"ce4bhnh2rcd13ifvqgug","pricing_plan_id":"cebpf4jnsgd1na2vs0mg"},{"bike_id":"709ae17d-e4b3-4756-b5f5-c67b4fadf597","system_id":"levelo_inurba_marseille","lat":43.29797,"lon":5.38099,"is_reserved":false,"is_disabled":false,"rental_uris":{"android":"levelo://app?vid=709ae17d-e4b3-4756-b5f5-c67b4fadf597","ios":"levelo://app?vid=709ae17d-e4b3-4756-b5f5-c67b4fadf597"},"vehicle_type_id":"4","last_reported":1735420038,"current_range_meters":38000,"station_id":"ce4bgip2rcd13ifvqbb0","pricing_plan_id":"cebpf4jnsgd1na2vs0mg"},{"bike_id":"f50c2cb8-8acc-494f-9afc-f1b6976a6cad","system_id":"levelo_inurba_marseille","lat":43.25107,"lon":5.40321,"is_reserved":false,"is_disabled":false,"rental_uris":{"android":"levelo://app?vid=f50c2cb8-8acc-494f-9afc-f1b6976a6cad","ios":"levelo://app?vid=f50c2cb8-8acc-494f-9afc-f1b6976a6cad"},"vehicle_type_id":"4","last_reported":1735420038,"current_range_meters":34800,"station_id":"ce4bhlh2rcd13ifvqgig","pricing_plan_id":"cebpf4jnsgd1na2vs0mg"},{"bike_id":"d2cb3dc8-9c6d-486b-b6fe-943502ea293f","system_id":"levelo_inurba_marseille","lat":43.27177,"lon":5.40983,"is_reserved":false,"is_disabled":false,"rental_uris":{"android":"levelo://app?vid=d2cb3dc8-9c6d-486b-b6fe-943502ea293f","ios":"levelo://app?vid=d2cb3dc8-9c6d-486b-b6fe-943502ea293f"},"vehicle_type_id":"4","last_reported":1735420038,"current_range_meters":11600,"station_id":"ce4bhl12rcd13ifvqgf0","pricing_plan_id":"cebpf4jnsgd1na2vs0mg"},{"bike_id":"5639f52b-1196-4558-b062-4f7891cec443","system_id":"levelo_inurba_marseille","lat":43.28413,"lon":5.37512,"is_reserved":false,"is_disabled":true,"rental_uris":{"android":"levelo://app?vid=5639f52b-1196-4558-b062-4f7891cec443","ios":"levelo://app?vid=5639f52b-1196-4558-b062-4f7891cec443"},"vehicle_type_id":"4","last_reported":1735420038,"current_range_meters":28000,"station_id":"ce4bh412rcd13ifvqds0","pricing_plan_id":"cebpf4jnsgd1na2vs0mg"},{"bike_id":"2b5bba50-01bb-4c82-98f7-f85b668d82ca","system_id":"levelo_inurba_marseille","lat":43.30595,"lon":5.37218,"is_reserved":false,"is_disabled":false,"rental_uris":{"android":"levelo://app?vid=2b5bba50-01bb-4c82-98f7-f85b668d82ca","ios":"levelo://app?vid=2b5bba50-01bb-4c82-98f7-f85b668d82ca"},"vehicle_type_id":"4","last_reported":1735420038,"current_range_meters":38800,"station_id":"ce4bgqh2rcd13ifvqc4g","pricing_plan_id":"cebpf4jnsgd1na2vs0mg"},{"bike_id":"856dde86-659c-422e-ac7e-de9cfc141858","system_id":"levelo_inurba_marseille","lat":43.29604,"lon":5.36713,"is_reserved":false,"is_disabled":false,"rental_uris":{"android":"levelo://app?vid=856dde86-659c-422e-ac7e-de9cfc141858","ios":"levelo://app?vid=856dde86-659c-422e-ac7e-de9cfc141858"},"vehicle_type_id":"4","last_reported":1735420038,"current_range_meters":37600,"station_id":"ce4bgph2rcd13ifvqc2g","pricing_plan_id":"cebpf4jnsgd1na2vs0mg"},{"bike_id":"c4464463-92cc-48b8-b950-7ed437f91335","system_id":"levelo_inurba_marseille","lat":43.29225,"lon":5.36054,"is_reserved":false,"is_disabled":false,"rental_uris":{"android":"levelo://app?vid=c4464463-92cc-48b8-b950-7ed437f91335","ios":"levelo://app?vid=c4464463-92cc-48b8-b950-7ed437f91335"},"vehicle_type_id":"4","last_reported":1735420038,"current_range_meters":37600,"station_id":"ce4bhbh2rcd13ifvqeqg","pricing_plan_id":"cebpf4jnsgd1na2vs0mg"},{"bike_id":"b561c8dd-38e0-48e4-a326-a9f947862345","system_id":"levelo_inurba_marseille","lat":43.2573,"lon":5.41107,"is_reserved":false,"is_disabled":false,"rental_uris":{"android":"levelo://app?vid=b561c8dd-38e0-48e4-a326-a9f947862345","ios":"levelo://app?vid=b561c8dd-38e0-48e4-a326-a9f947862345"},"vehicle_type_id":"4","last_reported":1735420038,"current_range_meters":6400,"station_id":"ce4bhkp2rcd13ifvqgd0","pricing_plan_id":"cebpf4jnsgd1na2vs0mg"},{"bike_id":"356fd92d-e963-40e6-b40e-58fc72ac9553","system_id":"levelo_inurba_marseille","lat":43.32106,"lon":5.36768,"is_reserved":false,"is_disabled":false,"rental_uris":{"android":"levelo://app?vid=356fd92d-e963-40e6-b40e-58fc72ac9553","ios":"levelo://app?vid=356fd92d-e963-40e6-b40e-58fc72ac9553"},"vehicle_type_id":"4","last_reported":1735420038,"current_range_meters":11200,"station_id":"ce4bhrh2rcd13ifvqhug","pricing_plan_id":"cebpf4jnsgd1na2vs0mg"},{"bike_id":"b9946797-e770-48ac-9bc5-6937e6a4e5a7","system_id":"levelo_inurba_marseille","lat":43.25502,"lon":5.37654,"is_reserved":false,"is_disabled":false,"rental_uris":{"android":"levelo://app?vid=b9946797-e770-48ac-9bc5-6937e6a4e5a7","ios":"levelo://app?vid=b9946797-e770-48ac-9bc5-6937e6a4e5a7"},"vehicle_type_id":"4","last_reported":1735420038,"current_range_meters":38800,"station_id":"ce4bhh12rcd13ifvqff0","pricing_plan_id":"cebpf4jnsgd1na2vs0mg"},{"bike_id":"12b64bf2-4ce1-4146-af5b-eb3b72f8d5ae","system_id":"levelo_inurba_marseille","lat":43.25724,"lon":5.4111,"is_reserved":false,"is_disabled":false,"rental_uris":{"android":"levelo://app?vid=12b64bf2-4ce1-4146-af5b-eb3b72f8d5ae","ios":"levelo://app?vid=12b64bf2-4ce1-4146-af5b-eb3b72f8d5ae"},"vehicle_type_id":"4","last_reported":1735420038,"current_range_meters":38800,"station_id":"ce4bhkp2rcd13ifvqgd0","pricing_plan_id":"cebpf4jnsgd1na2vs0mg"},{"bike_id":"73591d89-d3b8-4bf5-ad9f-e2e0a4b88d77","system_id":"levelo_inurba_marseille","lat":43.29531,"lon":5.38541,"is_reserved":false,"is_disabled":false,"rental_uris":{"android":"levelo://app?vid=73591d89-d3b8-4bf5-ad9f-e2e0a4b88d77","ios":"levelo://app?vid=73591d89-d3b8-4bf5-ad9f-e2e0a4b88d77"},"vehicle_type_id":"4","last_reported":1735420038,"current_range_meters":10800,"station_id":"ce4bgih2rcd13ifvqba0","pricing_plan_id":"cebpf4jnsgd1na2vs0mg"},{"bike_id":"64a4f581-f0e9-436e-ac23-a96227ce0f5f","system_id":"levelo_inurba_marseille","lat":43.30787,"lon":5.38171,"is_reserved":false,"is_disabled":false,"rental_uris":{"android":"levelo://app?vid=64a4f581-f0e9-436e-ac23-a96227ce0f5f","ios":"levelo://app?vid=64a4f581-f0e9-436e-ac23-a96227ce0f5f"},"vehicle_type_id":"4","last_reported":1735420038,"current_range_meters":25600,"station_id":"ce4bgt12rcd13ifvqce0","pricing_plan_id":"cebpf4jnsgd1na2vs0mg"},{"bike_id":"a0a23f3e-a7a3-4649-a9f6-4d7c21f4f9e5","system_id":"levelo_inurba_marseille","lat":43.29707,"lon":5.37285,"is_reserved":false,"is_disabled":false,"rental_uris":{"android":"levelo://app?vid=a0a23f3e-a7a3-4649-a9f6-4d7c21f4f9e5","ios":"levelo://app?vid=a0a23f3e-a7a3-4649-a9f6-4d7c21f4f9e5"},"vehicle_type_id":"4","last_reported":1735420038,"current_range_meters":38800,"station_id":"ce4bgk12rcd13ifvqbj0","pricing_plan_id":"cebpf4jnsgd1na2vs0mg"},{"bike_id":"d73cfa5a-3b0d-42cc-935d-071c3403d19c","system_id":"levelo_inurba_marseille","lat":43.29571,"lon":5.37489,"is_reserved":false,"is_disabled":false,"rental_uris":{"android":"levelo://app?vid=d73cfa5a-3b0d-42cc-935d-071c3403d19c","ios":"levelo://app?vid=d73cfa5a-3b0d-42cc-935d-071c3403d19c"},"vehicle_type_id":"4","last_reported":1735420038,"current_range_meters":33600,"station_id":"ce4bgh92rcd13ifvqb50","pricing_plan_id":"cebpf4jnsgd1na2vs0mg"},{"bike_id":"7e1dc608-a820-41f3-8381-31f3794c2504","system_id":"levelo_inurba_marseille","lat":43.27992,"lon":5.41659,"is_reserved":false,"is_disabled":false,"rental_uris":{"android":"levelo://app?vid=7e1dc608-a820-41f3-8381-31f3794c2504","ios":"levelo://app?vid=7e1dc608-a820-41f3-8381-31f3794c2504"},"vehicle_type_id":"4","last_reported":1735420038,"current_range_meters":38800,"station_id":"ce4bho12rcd13ifvqh1g","pricing_plan_id":"cebpf4jnsgd1na2vs0mg"},{"bike_id":"8045ef19-cb1d-4f0c-b3f3-2e8015411f38","system_id":"levelo_inurba_marseille","lat":43.29782,"lon":5.38077,"is_reserved":false,"is_disabled":false,"rental_uris":{"android":"levelo://app?vid=8045ef19-cb1d-4f0c-b3f3-2e8015411f38","ios":"levelo://app?vid=8045ef19-cb1d-4f0c-b3f3-2e8015411f38"},"vehicle_type_id":"4","last_reported":1735420038,"current_range_meters":32800,"station_id":"ce4bgip2rcd13ifvqbb0","pricing_plan_id":"cebpf4jnsgd1na2vs0mg"},{"bike_id":"673ed0fe-3027-4e1f-9efc-2804b0e32190","system_id":"levelo_inurba_marseille","lat":43.2668,"lon":5.38266,"is_reserved":false,"is_disabled":false,"rental_uris":{"android":"levelo://app?vid=673ed0fe-3027-4e1f-9efc-2804b0e32190","ios":"levelo://app?vid=673ed0fe-3027-4e1f-9efc-2804b0e32190"},"vehicle_type_id":"4","last_reported":1735420038,"current_range_meters":10000,"station_id":"ce4bhg92rcd13ifvqf90","pricing_plan_id":"cebpf4jnsgd1na2vs0mg"},{"bike_id":"c2b38636-82b3-4c3a-88d2-48449d43e7b0","system_id":"levelo_inurba_marseille","lat":43.30562,"lon":5.38445,"is_reserved":false,"is_disabled":false,"rental_uris":{"android":"levelo://app?vid=c2b38636-82b3-4c3a-88d2-48449d43e7b0","ios":"levelo://app?vid=c2b38636-82b3-4c3a-88d2-48449d43e7b0"},"vehicle_type_id":"4","last_reported":1735420038,"current_range_meters":38400,"station_id":"ce4bgg92rcd13ifvqb30","pricing_plan_id":"cebpf4jnsgd1na2vs0mg"},{"bike_id":"839d9add-f6be-4f14-b54d-e253e7d94bc5","system_id":"levelo_inurba_marseille","lat":43.31115,"lon":5.37755,"is_reserved":false,"is_disabled":false,"rental_uris":{"android":"levelo://app?vid=839d9add-f6be-4f14-b54d-e253e7d94bc5","ios":"levelo://app?vid=839d9add-f6be-4f14-b54d-e253e7d94bc5"},"vehicle_type_id":"4","last_reported":1735420038,"current_range_meters":36400,"station_id":"ce4bgt92rcd13ifvqcg0","pricing_plan_id":"cebpf4jnsgd1na2vs0mg"},{"bike_id":"17281b94-d9ee-4de2-b86b-bf8a41fceb2b","system_id":"levelo_inurba_marseille","lat":43.25007,"lon":5.3891,"is_reserved":false,"is_disabled":false,"rental_uris":{"android":"levelo://app?vid=17281b94-d9ee-4de2-b86b-bf8a41fceb2b","ios":"levelo://app?vid=17281b94-d9ee-4de2-b86b-bf8a41fceb2b"},"vehicle_type_id":"4","last_reported":1735420038,"current_range_meters":24400,"station_id":"ce4bhgp2rcd13ifvqfd0","pricing_plan_id":"cebpf4jnsgd1na2vs0mg"},{"bike_id":"0b30f2be-0b18-431f-b51c-e455b462ac27","system_id":"levelo_inurba_marseille","lat":43.26795,"lon":5.40258,"is_reserved":false,"is_disabled":false,"rental_uris":{"android":"levelo://app?vid=0b30f2be-0b18-431f-b51c-e455b462ac27","ios":"levelo://app?vid=0b30f2be-0b18-431f-b51c-e455b462ac27"},"vehicle_type_id":"4","last_reported":1735420038,"current_range_meters":37600,"station_id":"ce501612rcd8frsf0b60","pricing_plan_id":"cebpf4jnsgd1na2vs0mg"},{"bike_id":"c8d1c33c-78e9-42be-a881-5b72ffd6d815","system_id":"levelo_inurba_marseille","lat":43.29906,"lon":5.37466,"is_reserved":false,"is_disabled":false,"rental_uris":{"android":"levelo://app?vid=c8d1c33c-78e9-42be-a881-5b72ffd6d815","ios":"levelo://app?vid=c8d1c33c-78e9-42be-a881-5b72ffd6d815"},"vehicle_type_id":"4","last_reported":1735420038,"current_range_meters":39200,"station_id":"ce4bgjh2rcd13ifvqbg0","pricing_plan_id":"cebpf4jnsgd1na2vs0mg"},{"bike_id":"2524961b-2c06-4256-ab6a-2f5342052226","system_id":"levelo_inurba_marseille","lat":43.309049,"lon":5.374651,"is_reserved":false,"is_disabled":false,"rental_uris":{"android":"levelo://app?vid=2524961b-2c06-4256-ab6a-2f5342052226","ios":"levelo://app?vid=2524961b-2c06-4256-ab6a-2f5342052226"},"vehicle_type_id":"4","last_reported":1735420038,"current_range_meters":37600,"station_id":"ce4bgqh2rcd13ifvqc5g","pricing_plan_id":"cebpf4jnsgd1na2vs0mg"},{"bike_id":"182697cb-2219-4e08-8291-846687f91a97","system_id":"levelo_inurba_marseille","lat":43.28155,"lon":5.4264,"is_reserved":false,"is_disabled":false,"rental_uris":{"android":"levelo://app?vid=182697cb-2219-4e08-8291-846687f91a97","ios":"levelo://app?vid=182697cb-2219-4e08-8291-846687f91a97"},"vehicle_type_id":"4","last_reported":1735420038,"current_range_meters":38800,"station_id":"ce4bhnh2rcd13ifvqgug","pricing_plan_id":"cebpf4jnsgd1na2vs0mg"},{"bike_id":"f119d51a-5c20-447e-8a4a-b026c7a23c3c","system_id":"levelo_inurba_marseille","lat":43.31165,"lon":5.38717,"is_reserved":false,"is_disabled":false,"rental_uris":{"android":"levelo://app?vid=f119d51a-5c20-447e-8a4a-b026c7a23c3c","ios":"levelo://app?vid=f119d51a-5c20-447e-8a4a-b026c7a23c3c"},"vehicle_type_id":"4","last_reported":1735420038,"current_range_meters":19200,"station_id":"ce4bgv12rcd13ifvqcp0","pricing_plan_id":"cebpf4jnsgd1na2vs0mg"},{"bike_id":"35142cb1-da84-4465-a902-1b70f5829b31","system_id":"levelo_inurba_marseille","lat":43.25721,"lon":5.41098,"is_reserved":false,"is_disabled":false,"rental_uris":{"android":"levelo://app?vid=35142cb1-da84-4465-a902-1b70f5829b31","ios":"levelo://app?vid=35142cb1-da84-4465-a902-1b70f5829b31"},"vehicle_type_id":"4","last_reported":1735420038,"current_range_meters":38800,"station_id":"ce4bhkp2rcd13ifvqgd0","pricing_plan_id":"cebpf4jnsgd1na2vs0mg"},{"bike_id":"622825f4-100c-4370-a3e7-a2ac977f5898","system_id":"levelo_inurba_marseille","lat":43.29881,"lon":5.38143,"is_reserved":false,"is_disabled":false,"rental_uris":{"android":"levelo://app?vid=622825f4-100c-4370-a3e7-a2ac977f5898","ios":"levelo://app?vid=622825f4-100c-4370-a3e7-a2ac977f5898"},"vehicle_type_id":"4","last_reported":1735420038,"current_range_meters":38800,"station_id":"ce4bgj12rcd13ifvqbc0","pricing_plan_id":"cebpf4jnsgd1na2vs0mg"},{"bike_id":"993e700f-b383-4d1f-a157-302da8a39157","system_id":"levelo_inurba_marseille","lat":43.27957,"lon":5.38735,"is_reserved":false,"is_disabled":false,"rental_uris":{"android":"levelo://app?vid=993e700f-b383-4d1f-a157-302da8a39157","ios":"levelo://app?vid=993e700f-b383-4d1f-a157-302da8a39157"},"vehicle_type_id":"4","last_reported":1735420038,"current_range_meters":36800,"station_id":"ce4bhg12rcd13ifvqf80","pricing_plan_id":"cebpf4jnsgd1na2vs0mg"},{"bike_id":"f32cca47-ddd8-4ccd-b197-1c4f0f381420","system_id":"levelo_inurba_marseille","lat":43.29905,"lon":5.37462,"is_reserved":false,"is_disabled":false,"rental_uris":{"android":"levelo://app?vid=f32cca47-ddd8-4ccd-b197-1c4f0f381420","ios":"levelo://app?vid=f32cca47-ddd8-4ccd-b197-1c4f0f381420"},"vehicle_type_id":"4","last_reported":1735420038,"current_range_meters":37600,"station_id":"ce4bgjh2rcd13ifvqbg0","pricing_plan_id":"cebpf4jnsgd1na2vs0mg"},{"bike_id":"8b2caef2-7af0-44d2-8f46-cb4ab8b932ab","system_id":"levelo_inurba_marseille","lat":43.2606,"lon":5.39396,"is_reserved":false,"is_disabled":false,"rental_uris":{"android":"levelo://app?vid=8b2caef2-7af0-44d2-8f46-cb4ab8b932ab","ios":"levelo://app?vid=8b2caef2-7af0-44d2-8f46-cb4ab8b932ab"},"vehicle_type_id":"4","last_reported":1735420038,"current_range_meters":38800,"station_id":"ce4bhh92rcd13ifvqfj0","pricing_plan_id":"cebpf4jnsgd1na2vs0mg"},{"bike_id":"a0bbff0e-56cf-4023-9db7-f1e3fca408c5","system_id":"levelo_inurba_marseille","lat":43.29018,"lon":5.38633,"is_reserved":false,"is_disabled":false,"rental_uris":{"android":"levelo://app?vid=a0bbff0e-56cf-4023-9db7-f1e3fca408c5","ios":"levelo://app?vid=a0bbff0e-56cf-4023-9db7-f1e3fca408c5"},"vehicle_type_id":"4","last_reported":1735420038,"current_range_meters":31200,"station_id":"ce4bh4p2rcd13ifvqe0g","pricing_plan_id":"cebpf4jnsgd1na2vs0mg"},{"bike_id":"6cbcc705-6e63-4b17-a38d-4b8f3a48d5b6","system_id":"levelo_inurba_marseille","lat":43.29292,"lon":5.37158,"is_reserved":false,"is_disabled":false,"rental_uris":{"android":"levelo://app?vid=6cbcc705-6e63-4b17-a38d-4b8f3a48d5b6","ios":"levelo://app?vid=6cbcc705-6e63-4b17-a38d-4b8f3a48d5b6"},"vehicle_type_id":"4","last_reported":1735420038,"current_range_meters":38800,"station_id":"ce4bgh92rcd13ifvqb40","pricing_plan_id":"cebpf4jnsgd1na2vs0mg"},{"bike_id":"309a9554-13e3-4a27-8da4-4d931614d914","system_id":"levelo_inurba_marseille","lat":43.29049,"lon":5.38105,"is_reserved":false,"is_disabled":true,"rental_uris":{"android":"levelo://app?vid=309a9554-13e3-4a27-8da4-4d931614d914","ios":"levelo://app?vid=309a9554-13e3-4a27-8da4-4d931614d914"},"vehicle_type_id":"4","last_reported":1735420038,"current_range_meters":6800,"station_id":"ce4bh4p2rcd13ifvqe1g","pricing_plan_id":"cebpf4jnsgd1na2vs0mg"},{"bike_id":"e70704c8-6b8b-4794-bea5-fcf58a59041c","system_id":"levelo_inurba_marseille","lat":43.29418,"lon":5.38632,"is_reserved":false,"is_disabled":false,"rental_uris":{"android":"levelo://app?vid=e70704c8-6b8b-4794-bea5-fcf58a59041c","ios":"levelo://app?vid=e70704c8-6b8b-4794-bea5-fcf58a59041c"},"vehicle_type_id":"4","last_reported":1735420038,"current_range_meters":38800,"station_id":"ce4bh2h2rcd13ifvqdh0","pricing_plan_id":"cebpf4jnsgd1na2vs0mg"},{"bike_id":"b7a1bcef-1bda-4d45-aa6d-24d625a053c7","system_id":"levelo_inurba_marseille","lat":43.2942,"lon":5.38626,"is_reserved":false,"is_disabled":false,"rental_uris":{"android":"levelo://app?vid=b7a1bcef-1bda-4d45-aa6d-24d625a053c7","ios":"levelo://app?vid=b7a1bcef-1bda-4d45-aa6d-24d625a053c7"},"vehicle_type_id":"4","last_reported":1735420038,"current_range_meters":16000,"station_id":"ce4bh2h2rcd13ifvqdh0","pricing_plan_id":"cebpf4jnsgd1na2vs0mg"},{"bike_id":"2598d78b-c5cd-4ad1-8306-8c58913fa9c2","system_id":"levelo_inurba_marseille","lat":43.26582,"lon":5.42241,"is_reserved":false,"is_disabled":false,"rental_uris":{"android":"levelo://app?vid=2598d78b-c5cd-4ad1-8306-8c58913fa9c2","ios":"levelo://app?vid=2598d78b-c5cd-4ad1-8306-8c58913fa9c2"},"vehicle_type_id":"4","last_reported":1735420038,"current_range_meters":32800,"station_id":"","pricing_plan_id":"cebpf4jnsgd1na2vs0mg"},{"bike_id":"2d76d9f4-5ac3-420c-b7d3-8710df44025b","system_id":"levelo_inurba_marseille","lat":43.29558,"lon":5.42287,"is_reserved":false,"is_disabled":false,"rental_uris":{"android":"levelo://app?vid=2d76d9f4-5ac3-420c-b7d3-8710df44025b","ios":"levelo://app?vid=2d76d9f4-5ac3-420c-b7d3-8710df44025b"},"vehicle_type_id":"4","last_reported":1735420038,"current_range_meters":12800,"station_id":"ce4bhph2rcd13ifvqhdg","pricing_plan_id":"cebpf4jnsgd1na2vs0mg"},{"bike_id":"5477d212-35e2-4622-b27a-bfe5ff434d03","system_id":"levelo_inurba_marseille","lat":43.337603,"lon":5.374424,"is_reserved":false,"is_disabled":false,"rental_uris":{"android":"levelo://app?vid=5477d212-35e2-4622-b27a-bfe5ff434d03","ios":"levelo://app?vid=5477d212-35e2-4622-b27a-bfe5ff434d03"},"vehicle_type_id":"4","last_reported":1735420038,"current_range_meters":24000,"station_id":"","pricing_plan_id":"cebpf4jnsgd1na2vs0mg"},{"bike_id":"efa53824-6098-4031-9f6b-661c3ddc619c","system_id":"levelo_inurba_marseille","lat":43.2918,"lon":5.4006,"is_reserved":false,"is_disabled":false,"rental_uris":{"android":"levelo://app?vid=efa53824-6098-4031-9f6b-661c3ddc619c","ios":"levelo://app?vid=efa53824-6098-4031-9f6b-661c3ddc619c"},"vehicle_type_id":"4","last_reported":1735420038,"current_range_meters":30800,"station_id":"","pricing_plan_id":"cebpf4jnsgd1na2vs0mg"},{"bike_id":"254571ce-4bff-437b-8e26-03b746d4984d","system_id":"levelo_inurba_marseille","lat":43.31377,"lon":5.38487,"is_reserved":false,"is_disabled":false,"rental_uris":{"android":"levelo://app?vid=254571ce-4bff-437b-8e26-03b746d4984d","ios":"levelo://app?vid=254571ce-4bff-437b-8e26-03b746d4984d"},"vehicle_type_id":"4","last_reported":1735420038,"current_range_meters":36400,"station_id":"ce4bgt92rcd13ifvqcf0","pricing_plan_id":"cebpf4jnsgd1na2vs0mg"},{"bike_id":"ee8cf5f1-3afc-4c7b-8ed3-ddb81b6ed983","system_id":"levelo_inurba_marseille","lat":43.2993,"lon":5.36546,"is_reserved":false,"is_disabled":false,"rental_uris":{"android":"levelo://app?vid=ee8cf5f1-3afc-4c7b-8ed3-ddb81b6ed983","ios":"levelo://app?vid=ee8cf5f1-3afc-4c7b-8ed3-ddb81b6ed983"},"vehicle_type_id":"4","last_reported":1735420038,"current_range_meters":10800,"station_id":"ce4bgm92rcd13ifvqbr0","pricing_plan_id":"cebpf4jnsgd1na2vs0mg"},{"bike_id":"de258b3b-6d55-4e0f-9242-9df5f39b496e","system_id":"levelo_inurba_marseille","lat":43.29804,"lon":5.3808,"is_reserved":false,"is_disabled":false,"rental_uris":{"android":"levelo://app?vid=de258b3b-6d55-4e0f-9242-9df5f39b496e","ios":"levelo://app?vid=de258b3b-6d55-4e0f-9242-9df5f39b496e"},"vehicle_type_id":"4","last_reported":1735420038,"current_range_meters":36400,"station_id":"ce4bgip2rcd13ifvqbb0","pricing_plan_id":"cebpf4jnsgd1na2vs0mg"},{"bike_id":"4543920a-b5e8-44ed-b494-2851c2404e2f","system_id":"levelo_inurba_marseille","lat":43.28649,"lon":5.36351,"is_reserved":false,"is_disabled":false,"rental_uris":{"android":"levelo://app?vid=4543920a-b5e8-44ed-b494-2851c2404e2f","ios":"levelo://app?vid=4543920a-b5e8-44ed-b494-2851c2404e2f"},"vehicle_type_id":"4","last_reported":1735420038,"current_range_meters":27200,"station_id":"ce4bhah2rcd13ifvqej0","pricing_plan_id":"cebpf4jnsgd1na2vs0mg"},{"bike_id":"88b5984c-6754-4288-b0c2-ab7044a16ba7","system_id":"levelo_inurba_marseille","lat":43.297912,"lon":5.393462,"is_reserved":false,"is_disabled":false,"rental_uris":{"android":"levelo://app?vid=88b5984c-6754-4288-b0c2-ab7044a16ba7","ios":"levelo://app?vid=88b5984c-6754-4288-b0c2-ab7044a16ba7"},"vehicle_type_id":"4","last_reported":1735420038,"current_range_meters":39200,"station_id":"chh1huq6cuj3fo74tm60","pricing_plan_id":"cebpf4jnsgd1na2vs0mg"},{"bike_id":"43f28965-368e-4f92-9c92-b98695bf767b","system_id":"levelo_inurba_marseille","lat":43.2953,"lon":5.38548,"is_reserved":false,"is_disabled":false,"rental_uris":{"android":"levelo://app?vid=43f28965-368e-4f92-9c92-b98695bf767b","ios":"levelo://app?vid=43f28965-368e-4f92-9c92-b98695bf767b"},"vehicle_type_id":"4","last_reported":1735420038,"current_range_meters":16400,"station_id":"ce4bgih2rcd13ifvqba0","pricing_plan_id":"cebpf4jnsgd1na2vs0mg"},{"bike_id":"b23c180d-d93e-4d6a-9e6f-42f310c17fa3","system_id":"levelo_inurba_marseille","lat":43.29742,"lon":5.37699,"is_reserved":false,"is_disabled":false,"rental_uris":{"android":"levelo://app?vid=b23c180d-d93e-4d6a-9e6f-42f310c17fa3","ios":"levelo://app?vid=b23c180d-d93e-4d6a-9e6f-42f310c17fa3"},"vehicle_type_id":"4","last_reported":1735420038,"current_range_meters":34800,"station_id":"ce4bgkh2rcd13ifvqbl0","pricing_plan_id":"cebpf4jnsgd1na2vs0mg"},{"bike_id":"9397a9f3-9f96-4b91-ad51-8ffa68a2aeb8","system_id":"levelo_inurba_marseille","lat":43.25929,"lon":5.40904,"is_reserved":false,"is_disabled":true,"rental_uris":{"android":"levelo://app?vid=9397a9f3-9f96-4b91-ad51-8ffa68a2aeb8","ios":"levelo://app?vid=9397a9f3-9f96-4b91-ad51-8ffa68a2aeb8"},"vehicle_type_id":"4","last_reported":1735420038,"current_range_meters":0,"station_id":"ce4bhm92rcd13ifvqglg","pricing_plan_id":"cebpf4jnsgd1na2vs0mg"},{"bike_id":"b1c0ee8d-93e8-4cc8-82d6-c539d877336e","system_id":"levelo_inurba_marseille","lat":43.24384,"lon":5.37041,"is_reserved":false,"is_disabled":false,"rental_uris":{"android":"levelo://app?vid=b1c0ee8d-93e8-4cc8-82d6-c539d877336e","ios":"levelo://app?vid=b1c0ee8d-93e8-4cc8-82d6-c539d877336e"},"vehicle_type_id":"4","last_reported":1735420038,"current_range_meters":38800,"station_id":"ce4bhhh2rcd13ifvqfk0","pricing_plan_id":"cebpf4jnsgd1na2vs0mg"},{"bike_id":"68dd5d0c-b9bd-4b57-a0f1-943bf2df865b","system_id":"levelo_inurba_marseille","lat":43.26205,"lon":5.37445,"is_reserved":false,"is_disabled":false,"rental_uris":{"android":"levelo://app?vid=68dd5d0c-b9bd-4b57-a0f1-943bf2df865b","ios":"levelo://app?vid=68dd5d0c-b9bd-4b57-a0f1-943bf2df865b"},"vehicle_type_id":"4","last_reported":1735420038,"current_range_meters":17200,"station_id":"ce4bhgp2rcd13ifvqfc0","pricing_plan_id":"cebpf4jnsgd1na2vs0mg"},{"bike_id":"b59c2b9b-2b70-4d18-a0f4-0864f501dcb7","system_id":"levelo_inurba_marseille","lat":43.31126,"lon":5.37769,"is_reserved":false,"is_disabled":false,"rental_uris":{"android":"levelo://app?vid=b59c2b9b-2b70-4d18-a0f4-0864f501dcb7","ios":"levelo://app?vid=b59c2b9b-2b70-4d18-a0f4-0864f501dcb7"},"vehicle_type_id":"4","last_reported":1735420038,"current_range_meters":24800,"station_id":"ce4bgt92rcd13ifvqcg0","pricing_plan_id":"cebpf4jnsgd1na2vs0mg"},{"bike_id":"92dd54a8-6297-48ae-9237-9bdc79ec15c4","system_id":"levelo_inurba_marseille","lat":43.2812,"lon":5.37848,"is_reserved":false,"is_disabled":false,"rental_uris":{"android":"levelo://app?vid=92dd54a8-6297-48ae-9237-9bdc79ec15c4","ios":"levelo://app?vid=92dd54a8-6297-48ae-9237-9bdc79ec15c4"},"vehicle_type_id":"4","last_reported":1735420038,"current_range_meters":37600,"station_id":"ce4bha12rcd13ifvqee0","pricing_plan_id":"cebpf4jnsgd1na2vs0mg"},{"bike_id":"430350c0-ddfd-4459-807e-40c865c7f511","system_id":"levelo_inurba_marseille","lat":43.29524,"lon":5.39026,"is_reserved":false,"is_disabled":false,"rental_uris":{"android":"levelo://app?vid=430350c0-ddfd-4459-807e-40c865c7f511","ios":"levelo://app?vid=430350c0-ddfd-4459-807e-40c865c7f511"},"vehicle_type_id":"4","last_reported":1735420038,"current_range_meters":38400,"station_id":"ce4bh3p2rcd13ifvqdp0","pricing_plan_id":"cebpf4jnsgd1na2vs0mg"},{"bike_id":"5a57ae10-c643-44bb-a2ba-5799bc16dbbf","system_id":"levelo_inurba_marseille","lat":43.26799,"lon":5.40268,"is_reserved":false,"is_disabled":false,"rental_uris":{"android":"levelo://app?vid=5a57ae10-c643-44bb-a2ba-5799bc16dbbf","ios":"levelo://app?vid=5a57ae10-c643-44bb-a2ba-5799bc16dbbf"},"vehicle_type_id":"4","last_reported":1735420038,"current_range_meters":38800,"station_id":"ce501612rcd8frsf0b60","pricing_plan_id":"cebpf4jnsgd1na2vs0mg"},{"bike_id":"7f59bf3a-3b2e-45d2-ba4a-484837f9a2df","system_id":"levelo_inurba_marseille","lat":43.26215,"lon":5.37446,"is_reserved":false,"is_disabled":false,"rental_uris":{"android":"levelo://app?vid=7f59bf3a-3b2e-45d2-ba4a-484837f9a2df","ios":"levelo://app?vid=7f59bf3a-3b2e-45d2-ba4a-484837f9a2df"},"vehicle_type_id":"4","last_reported":1735420038,"current_range_meters":19600,"station_id":"ce4bhgp2rcd13ifvqfc0","pricing_plan_id":"cebpf4jnsgd1na2vs0mg"},{"bike_id":"18f320a9-6607-4d36-8c6f-1652222157dc","system_id":"levelo_inurba_marseille","lat":43.24073,"lon":5.3776,"is_reserved":false,"is_disabled":false,"rental_uris":{"android":"levelo://app?vid=18f320a9-6607-4d36-8c6f-1652222157dc","ios":"levelo://app?vid=18f320a9-6607-4d36-8c6f-1652222157dc"},"vehicle_type_id":"4","last_reported":1735420038,"current_range_meters":22800,"station_id":"ce4bhnp2rcd13ifvqgvg","pricing_plan_id":"cebpf4jnsgd1na2vs0mg"},{"bike_id":"0d4cdd10-fbfa-4a4a-b6e0-cd03bf8b18a3","system_id":"levelo_inurba_marseille","lat":43.296166,"lon":5.377104,"is_reserved":false,"is_disabled":false,"rental_uris":{"android":"levelo://app?vid=0d4cdd10-fbfa-4a4a-b6e0-cd03bf8b18a3","ios":"levelo://app?vid=0d4cdd10-fbfa-4a4a-b6e0-cd03bf8b18a3"},"vehicle_type_id":"4","last_reported":1735420038,"current_range_meters":38800,"station_id":"ce4bgi92rcd13ifvqb90","pricing_plan_id":"cebpf4jnsgd1na2vs0mg"},{"bike_id":"27001726-4b0a-4ba0-8261-5a303bdee373","system_id":"levelo_inurba_marseille","lat":43.27574,"lon":5.38386,"is_reserved":false,"is_disabled":false,"rental_uris":{"android":"levelo://app?vid=27001726-4b0a-4ba0-8261-5a303bdee373","ios":"levelo://app?vid=27001726-4b0a-4ba0-8261-5a303bdee373"},"vehicle_type_id":"4","last_reported":1735420038,"current_range_meters":39200,"station_id":"ce4bhh92rcd13ifvqfi0","pricing_plan_id":"cebpf4jnsgd1na2vs0mg"},{"bike_id":"f821925e-3304-41cf-9231-baea52712b70","system_id":"levelo_inurba_marseille","lat":43.31486,"lon":5.37308,"is_reserved":false,"is_disabled":false,"rental_uris":{"android":"levelo://app?vid=f821925e-3304-41cf-9231-baea52712b70","ios":"levelo://app?vid=f821925e-3304-41cf-9231-baea52712b70"},"vehicle_type_id":"4","last_reported":1735420038,"current_range_meters":38000,"station_id":"ce4bgt12rcd13ifvqcd0","pricing_plan_id":"cebpf4jnsgd1na2vs0mg"},{"bike_id":"4d49fba1-893d-49e4-b0d4-9fc516d9534a","system_id":"levelo_inurba_marseille","lat":43.29967,"lon":5.38497,"is_reserved":false,"is_disabled":false,"rental_uris":{"android":"levelo://app?vid=4d49fba1-893d-49e4-b0d4-9fc516d9534a","ios":"levelo://app?vid=4d49fba1-893d-49e4-b0d4-9fc516d9534a"},"vehicle_type_id":"4","last_reported":1735420038,"current_range_meters":32000,"station_id":"ce4bgj92rcd13ifvqbd0","pricing_plan_id":"cebpf4jnsgd1na2vs0mg"},{"bike_id":"9925f51a-d18b-45b4-85cc-29e16c4b5245","system_id":"levelo_inurba_marseille","lat":43.30529,"lon":5.38415,"is_reserved":false,"is_disabled":false,"rental_uris":{"android":"levelo://app?vid=9925f51a-d18b-45b4-85cc-29e16c4b5245","ios":"levelo://app?vid=9925f51a-d18b-45b4-85cc-29e16c4b5245"},"vehicle_type_id":"4","last_reported":1735420038,"current_range_meters":33600,"station_id":"ce4bgg92rcd13ifvqb30","pricing_plan_id":"cebpf4jnsgd1na2vs0mg"},{"bike_id":"eafad4c0-a5ab-445f-94ba-cec7eefdb577","system_id":"levelo_inurba_marseille","lat":43.30528,"lon":5.36709,"is_reserved":false,"is_disabled":false,"rental_uris":{"android":"levelo://app?vid=eafad4c0-a5ab-445f-94ba-cec7eefdb577","ios":"levelo://app?vid=eafad4c0-a5ab-445f-94ba-cec7eefdb577"},"vehicle_type_id":"4","last_reported":1735420038,"current_range_meters":36400,"station_id":"ce4bgrp2rcd13ifvqc9g","pricing_plan_id":"cebpf4jnsgd1na2vs0mg"},{"bike_id":"7d0babd6-e2b2-417a-b537-ce2b4c7e476e","system_id":"levelo_inurba_marseille","lat":43.298025,"lon":5.380975,"is_reserved":false,"is_disabled":false,"rental_uris":{"android":"levelo://app?vid=7d0babd6-e2b2-417a-b537-ce2b4c7e476e","ios":"levelo://app?vid=7d0babd6-e2b2-417a-b537-ce2b4c7e476e"},"vehicle_type_id":"4","last_reported":1735420038,"current_range_meters":27200,"station_id":"ce4bgip2rcd13ifvqbb0","pricing_plan_id":"cebpf4jnsgd1na2vs0mg"},{"bike_id":"b39df5a4-96a4-4a5d-be42-c4c17f2da8c5","system_id":"levelo_inurba_marseille","lat":43.3088,"lon":5.39642,"is_reserved":false,"is_disabled":false,"rental_uris":{"android":"levelo://app?vid=b39df5a4-96a4-4a5d-be42-c4c17f2da8c5","ios":"levelo://app?vid=b39df5a4-96a4-4a5d-be42-c4c17f2da8c5"},"vehicle_type_id":"4","last_reported":1735420038,"current_range_meters":30000,"station_id":"ce4bh012rcd13ifvqcv0","pricing_plan_id":"cebpf4jnsgd1na2vs0mg"},{"bike_id":"1560d899-203a-414b-9dd8-6d05efff7eee","system_id":"levelo_inurba_marseille","lat":43.27703,"lon":5.38895,"is_reserved":false,"is_disabled":false,"rental_uris":{"android":"levelo://app?vid=1560d899-203a-414b-9dd8-6d05efff7eee","ios":"levelo://app?vid=1560d899-203a-414b-9dd8-6d05efff7eee"},"vehicle_type_id":"4","last_reported":1735420038,"current_range_meters":8800,"station_id":"ce4bhi12rcd13ifvqfo0","pricing_plan_id":"cebpf4jnsgd1na2vs0mg"},{"bike_id":"c4fd707c-d047-48ec-b77f-f5859c2695cf","system_id":"levelo_inurba_marseille","lat":43.29255,"lon":5.40905,"is_reserved":false,"is_disabled":false,"rental_uris":{"android":"levelo://app?vid=c4fd707c-d047-48ec-b77f-f5859c2695cf","ios":"levelo://app?vid=c4fd707c-d047-48ec-b77f-f5859c2695cf"},"vehicle_type_id":"4","last_reported":1735420038,"current_range_meters":32000,"station_id":"ce4bh192rcd13ifvqdc0","pricing_plan_id":"cebpf4jnsgd1na2vs0mg"},{"bike_id":"7eeb53ca-6ac6-4389-9214-110ac78b2c17","system_id":"levelo_inurba_marseille","lat":43.30658,"lon":5.40059,"is_reserved":false,"is_disabled":false,"rental_uris":{"android":"levelo://app?vid=7eeb53ca-6ac6-4389-9214-110ac78b2c17","ios":"levelo://app?vid=7eeb53ca-6ac6-4389-9214-110ac78b2c17"},"vehicle_type_id":"4","last_reported":1735420038,"current_range_meters":38800,"station_id":"ce4bh112rcd13ifvqda0","pricing_plan_id":"cebpf4jnsgd1na2vs0mg"},{"bike_id":"c9e5d6c6-5601-4769-be5c-20fef93ca121","system_id":"levelo_inurba_marseille","lat":43.24167,"lon":5.36391,"is_reserved":false,"is_disabled":false,"rental_uris":{"android":"levelo://app?vid=c9e5d6c6-5601-4769-be5c-20fef93ca121","ios":"levelo://app?vid=c9e5d6c6-5601-4769-be5c-20fef93ca121"},"vehicle_type_id":"4","last_reported":1735420038,"current_range_meters":16000,"station_id":"cpo36qri1sfpv3e86is0","pricing_plan_id":"cebpf4jnsgd1na2vs0mg"},{"bike_id":"e23a7d55-7ce1-4f20-a71a-26c06c907d82","system_id":"levelo_inurba_marseille","lat":43.27945,"lon":5.41043,"is_reserved":false,"is_disabled":false,"rental_uris":{"android":"levelo://app?vid=e23a7d55-7ce1-4f20-a71a-26c06c907d82","ios":"levelo://app?vid=e23a7d55-7ce1-4f20-a71a-26c06c907d82"},"vehicle_type_id":"4","last_reported":1735420038,"current_range_meters":38000,"station_id":"ce4bhnp2rcd13ifvqh0g","pricing_plan_id":"cebpf4jnsgd1na2vs0mg"},{"bike_id":"b0c4d0d6-5451-4daa-af56-54957229db80","system_id":"levelo_inurba_marseille","lat":43.32365,"lon":5.36757,"is_reserved":false,"is_disabled":false,"rental_uris":{"android":"levelo://app?vid=b0c4d0d6-5451-4daa-af56-54957229db80","ios":"levelo://app?vid=b0c4d0d6-5451-4daa-af56-54957229db80"},"vehicle_type_id":"4","last_reported":1735420038,"current_range_meters":38000,"station_id":"ce4bhsh2rcd13ifvqi2g","pricing_plan_id":"cebpf4jnsgd1na2vs0mg"},{"bike_id":"5367a292-5564-4681-91cd-97babb89fc00","system_id":"levelo_inurba_marseille","lat":43.2292,"lon":5.35381,"is_reserved":false,"is_disabled":false,"rental_uris":{"android":"levelo://app?vid=5367a292-5564-4681-91cd-97babb89fc00","ios":"levelo://app?vid=5367a292-5564-4681-91cd-97babb89fc00"},"vehicle_type_id":"4","last_reported":1735420038,"current_range_meters":38800,"station_id":"cpo3532slgdg3j2ikp40","pricing_plan_id":"cebpf4jnsgd1na2vs0mg"},{"bike_id":"b63b9eb6-fafc-4c7c-ad91-57273b105b52","system_id":"levelo_inurba_marseille","lat":43.29897,"lon":5.38148,"is_reserved":false,"is_disabled":false,"rental_uris":{"android":"levelo://app?vid=b63b9eb6-fafc-4c7c-ad91-57273b105b52","ios":"levelo://app?vid=b63b9eb6-fafc-4c7c-ad91-57273b105b52"},"vehicle_type_id":"4","last_reported":1735420038,"current_range_meters":38800,"station_id":"ce4bgj12rcd13ifvqbc0","pricing_plan_id":"cebpf4jnsgd1na2vs0mg"},{"bike_id":"eea9a291-5bfa-4e24-9cae-5655da129e69","system_id":"levelo_inurba_marseille","lat":43.3063,"lon":5.40081,"is_reserved":false,"is_disabled":false,"rental_uris":{"android":"levelo://app?vid=eea9a291-5bfa-4e24-9cae-5655da129e69","ios":"levelo://app?vid=eea9a291-5bfa-4e24-9cae-5655da129e69"},"vehicle_type_id":"4","last_reported":1735420038,"current_range_meters":38800,"station_id":"ce4bh112rcd13ifvqda0","pricing_plan_id":"cebpf4jnsgd1na2vs0mg"},{"bike_id":"5c02046d-1ad7-4bbf-8c51-bc86c793dce3","system_id":"levelo_inurba_marseille","lat":43.24067,"lon":5.3776,"is_reserved":false,"is_disabled":false,"rental_uris":{"android":"levelo://app?vid=5c02046d-1ad7-4bbf-8c51-bc86c793dce3","ios":"levelo://app?vid=5c02046d-1ad7-4bbf-8c51-bc86c793dce3"},"vehicle_type_id":"4","last_reported":1735420038,"current_range_meters":38800,"station_id":"ce4bhnp2rcd13ifvqgvg","pricing_plan_id":"cebpf4jnsgd1na2vs0mg"},{"bike_id":"50a3e1ef-3112-43ba-899d-0c8245e0b2c8","system_id":"levelo_inurba_marseille","lat":43.27811,"lon":5.40711,"is_reserved":false,"is_disabled":false,"rental_uris":{"android":"levelo://app?vid=50a3e1ef-3112-43ba-899d-0c8245e0b2c8","ios":"levelo://app?vid=50a3e1ef-3112-43ba-899d-0c8245e0b2c8"},"vehicle_type_id":"4","last_reported":1735420038,"current_range_meters":8000,"station_id":"ce4bhnh2rcd13ifvqgtg","pricing_plan_id":"cebpf4jnsgd1na2vs0mg"},{"bike_id":"0ae1d3b3-a9fe-46c7-ae33-ae19cf9920f9","system_id":"levelo_inurba_marseille","lat":43.2512,"lon":5.40317,"is_reserved":false,"is_disabled":false,"rental_uris":{"android":"levelo://app?vid=0ae1d3b3-a9fe-46c7-ae33-ae19cf9920f9","ios":"levelo://app?vid=0ae1d3b3-a9fe-46c7-ae33-ae19cf9920f9"},"vehicle_type_id":"4","last_reported":1735420038,"current_range_meters":23200,"station_id":"ce4bhlh2rcd13ifvqgig","pricing_plan_id":"cebpf4jnsgd1na2vs0mg"},{"bike_id":"9eb6c8bb-d8b6-45d3-8d05-a863b25db7de","system_id":"levelo_inurba_marseille","lat":43.31691,"lon":5.40479,"is_reserved":false,"is_disabled":false,"rental_uris":{"android":"levelo://app?vid=9eb6c8bb-d8b6-45d3-8d05-a863b25db7de","ios":"levelo://app?vid=9eb6c8bb-d8b6-45d3-8d05-a863b25db7de"},"vehicle_type_id":"4","last_reported":1735420038,"current_range_meters":20000,"station_id":"ce4bh012rcd13ifvqd00","pricing_plan_id":"cebpf4jnsgd1na2vs0mg"},{"bike_id":"3bb6c0a3-c27d-4867-bf76-4190ca2b375a","system_id":"levelo_inurba_marseille","lat":43.26193,"lon":5.37448,"is_reserved":false,"is_disabled":false,"rental_uris":{"android":"levelo://app?vid=3bb6c0a3-c27d-4867-bf76-4190ca2b375a","ios":"levelo://app?vid=3bb6c0a3-c27d-4867-bf76-4190ca2b375a"},"vehicle_type_id":"4","last_reported":1735420038,"current_range_meters":24800,"station_id":"ce4bhgp2rcd13ifvqfc0","pricing_plan_id":"cebpf4jnsgd1na2vs0mg"},{"bike_id":"aee1df5a-e1a7-4198-8e9a-8af139d05686","system_id":"levelo_inurba_marseille","lat":43.29372,"lon":5.37843,"is_reserved":false,"is_disabled":false,"rental_uris":{"android":"levelo://app?vid=aee1df5a-e1a7-4198-8e9a-8af139d05686","ios":"levelo://app?vid=aee1df5a-e1a7-4198-8e9a-8af139d05686"},"vehicle_type_id":"4","last_reported":1735420038,"current_range_meters":38800,"station_id":"ce4bgjh2rcd13ifvqbf0","pricing_plan_id":"cebpf4jnsgd1na2vs0mg"},{"bike_id":"8c713d11-9c52-46e1-add4-4a81c51034de","system_id":"levelo_inurba_marseille","lat":43.2837,"lon":5.38629,"is_reserved":false,"is_disabled":false,"rental_uris":{"android":"levelo://app?vid=8c713d11-9c52-46e1-add4-4a81c51034de","ios":"levelo://app?vid=8c713d11-9c52-46e1-add4-4a81c51034de"},"vehicle_type_id":"4","last_reported":1735420038,"current_range_meters":25200,"station_id":"ce4bh492rcd13ifvqdvg","pricing_plan_id":"cebpf4jnsgd1na2vs0mg"},{"bike_id":"f4c8c275-1f21-4715-808f-735f1fcbbd86","system_id":"levelo_inurba_marseille","lat":43.28939,"lon":5.36641,"is_reserved":false,"is_disabled":false,"rental_uris":{"android":"levelo://app?vid=f4c8c275-1f21-4715-808f-735f1fcbbd86","ios":"levelo://app?vid=f4c8c275-1f21-4715-808f-735f1fcbbd86"},"vehicle_type_id":"4","last_reported":1735420038,"current_range_meters":18800,"station_id":"ce4bhap2rcd13ifvqek0","pricing_plan_id":"cebpf4jnsgd1na2vs0mg"},{"bike_id":"6a29575b-1e36-49ac-86ce-fd989f52fc91","system_id":"levelo_inurba_marseille","lat":43.25828,"lon":5.39437,"is_reserved":false,"is_disabled":false,"rental_uris":{"android":"levelo://app?vid=6a29575b-1e36-49ac-86ce-fd989f52fc91","ios":"levelo://app?vid=6a29575b-1e36-49ac-86ce-fd989f52fc91"},"vehicle_type_id":"4","last_reported":1735420038,"current_range_meters":31200,"station_id":"ce4bhip2rcd13ifvqft0","pricing_plan_id":"cebpf4jnsgd1na2vs0mg"},{"bike_id":"3aa2cb18-9c08-4894-ac01-58081a9d64cf","system_id":"levelo_inurba_marseille","lat":43.28962,"lon":5.37834,"is_reserved":false,"is_disabled":false,"rental_uris":{"android":"levelo://app?vid=3aa2cb18-9c08-4894-ac01-58081a9d64cf","ios":"levelo://app?vid=3aa2cb18-9c08-4894-ac01-58081a9d64cf"},"vehicle_type_id":"4","last_reported":1735420038,"current_range_meters":19600,"station_id":"ce4bh9p2rcd13ifvqed0","pricing_plan_id":"cebpf4jnsgd1na2vs0mg"},{"bike_id":"7ddb5dff-5374-463b-b779-7fa95712fb46","system_id":"levelo_inurba_marseille","lat":43.31117,"lon":5.37778,"is_reserved":false,"is_disabled":false,"rental_uris":{"android":"levelo://app?vid=7ddb5dff-5374-463b-b779-7fa95712fb46","ios":"levelo://app?vid=7ddb5dff-5374-463b-b779-7fa95712fb46"},"vehicle_type_id":"4","last_reported":1735420038,"current_range_meters":38800,"station_id":"ce4bgt92rcd13ifvqcg0","pricing_plan_id":"cebpf4jnsgd1na2vs0mg"},{"bike_id":"0a04b733-cb80-4a76-a378-c32b5b28449c","system_id":"levelo_inurba_marseille","lat":43.32334,"lon":5.40622,"is_reserved":false,"is_disabled":false,"rental_uris":{"android":"levelo://app?vid=0a04b733-cb80-4a76-a378-c32b5b28449c","ios":"levelo://app?vid=0a04b733-cb80-4a76-a378-c32b5b28449c"},"vehicle_type_id":"4","last_reported":1735420038,"current_range_meters":38800,"station_id":"ce4bhq92rcd13ifvqhjg","pricing_plan_id":"cebpf4jnsgd1na2vs0mg"},{"bike_id":"2cbd2142-4ba2-46ee-95f4-b9fdee8579c8","system_id":"levelo_inurba_marseille","lat":43.28614,"lon":5.35101,"is_reserved":false,"is_disabled":false,"rental_uris":{"android":"levelo://app?vid=2cbd2142-4ba2-46ee-95f4-b9fdee8579c8","ios":"levelo://app?vid=2cbd2142-4ba2-46ee-95f4-b9fdee8579c8"},"vehicle_type_id":"4","last_reported":1735420038,"current_range_meters":26800,"station_id":"ce4bhch2rcd13ifvqeug","pricing_plan_id":"cebpf4jnsgd1na2vs0mg"},{"bike_id":"dac94ecf-3203-4c89-acc0-21c14e979588","system_id":"levelo_inurba_marseille","lat":43.26677,"lon":5.38276,"is_reserved":false,"is_disabled":false,"rental_uris":{"android":"levelo://app?vid=dac94ecf-3203-4c89-acc0-21c14e979588","ios":"levelo://app?vid=dac94ecf-3203-4c89-acc0-21c14e979588"},"vehicle_type_id":"4","last_reported":1735420038,"current_range_meters":30400,"station_id":"ce4bhg92rcd13ifvqf90","pricing_plan_id":"cebpf4jnsgd1na2vs0mg"},{"bike_id":"985ffcf1-28bb-424b-96d3-b190b4c66133","system_id":"levelo_inurba_marseille","lat":43.29515,"lon":5.39396,"is_reserved":false,"is_disabled":false,"rental_uris":{"android":"levelo://app?vid=985ffcf1-28bb-424b-96d3-b190b4c66133","ios":"levelo://app?vid=985ffcf1-28bb-424b-96d3-b190b4c66133"},"vehicle_type_id":"4","last_reported":1735420038,"current_range_meters":37600,"station_id":"ce4bh292rcd13ifvqdf0","pricing_plan_id":"cebpf4jnsgd1na2vs0mg"},{"bike_id":"d787e330-e288-4e1c-926a-5bcb7a236ca2","system_id":"levelo_inurba_marseille","lat":43.28155,"lon":5.42637,"is_reserved":false,"is_disabled":false,"rental_uris":{"android":"levelo://app?vid=d787e330-e288-4e1c-926a-5bcb7a236ca2","ios":"levelo://app?vid=d787e330-e288-4e1c-926a-5bcb7a236ca2"},"vehicle_type_id":"4","last_reported":1735420038,"current_range_meters":26800,"station_id":"ce4bhnh2rcd13ifvqgug","pricing_plan_id":"cebpf4jnsgd1na2vs0mg"},{"bike_id":"eaa77e83-6282-4e1e-8a3a-62f591307ab6","system_id":"levelo_inurba_marseille","lat":43.279084,"lon":5.39578,"is_reserved":false,"is_disabled":false,"rental_uris":{"android":"levelo://app?vid=eaa77e83-6282-4e1e-8a3a-62f591307ab6","ios":"levelo://app?vid=eaa77e83-6282-4e1e-8a3a-62f591307ab6"},"vehicle_type_id":"4","last_reported":1735420038,"current_range_meters":35200,"station_id":"ce4bhf92rcd13ifvqf40","pricing_plan_id":"cebpf4jnsgd1na2vs0mg"},{"bike_id":"ca42594c-4c0a-4080-98d3-9312d00d8df7","system_id":"levelo_inurba_marseille","lat":43.23064,"lon":5.35482,"is_reserved":false,"is_disabled":false,"rental_uris":{"android":"levelo://app?vid=ca42594c-4c0a-4080-98d3-9312d00d8df7","ios":"levelo://app?vid=ca42594c-4c0a-4080-98d3-9312d00d8df7"},"vehicle_type_id":"4","last_reported":1735420038,"current_range_meters":10800,"station_id":"cpo3342slgdg3j2ifvpg","pricing_plan_id":"cebpf4jnsgd1na2vs0mg"},{"bike_id":"c08daccd-9b4c-4b76-a69c-de43c8a37003","system_id":"levelo_inurba_marseille","lat":43.29924,"lon":5.36532,"is_reserved":false,"is_disabled":false,"rental_uris":{"android":"levelo://app?vid=c08daccd-9b4c-4b76-a69c-de43c8a37003","ios":"levelo://app?vid=c08daccd-9b4c-4b76-a69c-de43c8a37003"},"vehicle_type_id":"4","last_reported":1735420038,"current_range_meters":12400,"station_id":"ce4bgm92rcd13ifvqbr0","pricing_plan_id":"cebpf4jnsgd1na2vs0mg"},{"bike_id":"fe085e81-ac93-4b41-98ed-e6eb2db57abd","system_id":"levelo_inurba_marseille","lat":43.27067,"lon":5.42284,"is_reserved":false,"is_disabled":false,"rental_uris":{"android":"levelo://app?vid=fe085e81-ac93-4b41-98ed-e6eb2db57abd","ios":"levelo://app?vid=fe085e81-ac93-4b41-98ed-e6eb2db57abd"},"vehicle_type_id":"4","last_reported":1735420038,"current_range_meters":12800,"station_id":"ce4bhk92rcd13ifvqgb0","pricing_plan_id":"cebpf4jnsgd1na2vs0mg"},{"bike_id":"25d3980c-c4bb-4552-b28a-a703e6e340e5","system_id":"levelo_inurba_marseille","lat":43.33587,"lon":5.40998,"is_reserved":false,"is_disabled":false,"rental_uris":{"android":"levelo://app?vid=25d3980c-c4bb-4552-b28a-a703e6e340e5","ios":"levelo://app?vid=25d3980c-c4bb-4552-b28a-a703e6e340e5"},"vehicle_type_id":"4","last_reported":1735420038,"current_range_meters":38000,"station_id":"ce4bhqh2rcd13ifvqhmg","pricing_plan_id":"cebpf4jnsgd1na2vs0mg"},{"bike_id":"79bec974-776f-4b93-8240-3d7167f0162f","system_id":"levelo_inurba_marseille","lat":43.29256,"lon":5.38445,"is_reserved":false,"is_disabled":false,"rental_uris":{"android":"levelo://app?vid=79bec974-776f-4b93-8240-3d7167f0162f","ios":"levelo://app?vid=79bec974-776f-4b93-8240-3d7167f0162f"},"vehicle_type_id":"4","last_reported":1735420038,"current_range_meters":38800,"station_id":"ce4bh692rcd13ifvqea0","pricing_plan_id":"cebpf4jnsgd1na2vs0mg"},{"bike_id":"9c5bca43-a233-42d3-afe6-7aaa0033f973","system_id":"levelo_inurba_marseille","lat":43.31708,"lon":5.37754,"is_reserved":false,"is_disabled":false,"rental_uris":{"android":"levelo://app?vid=9c5bca43-a233-42d3-afe6-7aaa0033f973","ios":"levelo://app?vid=9c5bca43-a233-42d3-afe6-7aaa0033f973"},"vehicle_type_id":"4","last_reported":1735420038,"current_range_meters":12000,"station_id":"ce4bgth2rcd13ifvqch0","pricing_plan_id":"cebpf4jnsgd1na2vs0mg"},