{"last_updated":1701860772,"ttl":30,"version":"2.2","data":{"bikes":[{"bike_id":"17ccae1d-332c-4002-9653-493851ec28f5","system_id":"levelo_inurba_marseille","lat":43.31341,"lon":5.367098,"is_reserved":false,"is_disabled":false,"rental_uris":{"android":"levelo://app?vid=17ccae1d-332c-4002-9653-493851ec28f5","ios":"levelo://app?vid=17ccae1d-332c-4002-9653-493851ec28f5"},"vehicle_type_id":"4","last_reported":1701860772,"current_range_meters":5200,"station_id":"ce4bgr92rcd13ifvqc6g","pricing_plan_id":"free"},{"bike_id":"4823973d-d09b-4cd0-9bae-f0a538770670","system_id":"levelo_inurba_marseille","lat":43.31341,"lon":5.367098,"is_reserved":false,"is_disabled":false,"rental_uris":{"android":"levelo://app?vid=4823973d-d09b-4cd0-9bae-f0a538770670","ios":"levelo://app?vid=4823973d-d09b-4cd0-9bae-f0a538770670"},"vehicle_type_id":"4","last_reported":1701860772,"current_range_meters":30000,"station_id":"ce4bgr92rcd13ifvqc6g","pricing_plan_id":"free"},{"bike_id":"b8580366-d44c-41ac-9767-49cc6e378212","system_id":"levelo_inurba_marseille","lat":43.31341,"lon":5.367098,"is_reserved":false,"is_disabled":false,"rental_uris":{"android":"levelo://app?vid=b8580366-d44c-41ac-9767-49cc6e378212","ios":"levelo://app?vid=b8580366-d44c-41ac-9767-49cc6e378212"},"vehicle_type_id":"4","last_reported":1701860772,"current_range_meters":31600,"station_id":"ce4bgr92rcd13ifvqc6g","pricing_plan_id":"free"},{"bike_id":"5a7f0402-4af0-419c-97b5-cececd569c10","system_id":"levelo_inurba_marseille","lat":43.31341,"lon":5.367098,"is_reserved":false,"is_disabled":false,"rental_uris":{"android":"levelo://app?vid=5a7f0402-4af0-419c-97b5-cececd569c10","ios":"levelo://app?vid=5a7f0402-4af0-419c-97b5-cececd569c10"},"vehicle_type_id":"4","last_reported":1701860772,"current_range_meters":8800,"station_id":"ce4bgr92rcd13ifvqc6g","pricing_plan_id":"free"},{"bike_id":"eb05e2cc-2099-4076-bcc6-b0fc7ad4685a","system_id":"levelo_inurba_marseille","lat":43.31341,"lon":5.367098,"is_reserved":false,"is_disabled":false,"rental_uris":{"android":"levelo://app?vid=eb05e2cc-2099-4076-bcc6-b0fc7ad4685a","ios":"levelo://app?vid=eb05e2cc-2099-4076-bcc6-b0fc7ad4685a"},"vehicle_type_id":"4","last_reported":1701860772,"current_range_meters":18400,"station_id":"ce4bgr92rcd13ifvqc6g","pricing_plan_id":"free"},{"bike_id":"d718462b-5e12-419c-b8c1-529aa5605080","system_id":"levelo_inurba_marseille","lat":43.313391,"lon":5.36706,"is_reserved":false,"is_disabled":false,"rental_uris":{"android":"levelo://app?vid=d718462b-5e12-419c-b8c1-529aa5605080","ios":"levelo://app?vid=d718462b-5e12-419c-b8c1-529aa5605080"},"vehicle_type_id":"4","last_reported":1701860772,"current_range_meters":20400,"station_id":"ce4bgr92rcd13ifvqc6g","pricing_plan_id":"free"},{"bike_id":"6b4a7cfb-cd85-47b0-aa5d-da8f4b3b8fa9","system_id":"levelo_inurba_marseille","lat":43.31341,"lon":5.367098,"is_reserved":false,"is_disabled":false,"rental_uris":{"android":"levelo://app?vid=6b4a7cfb-cd85-47b0-aa5d-da8f4b3b8fa9","ios":"levelo://app?vid=6b4a7cfb-cd85-47b0-aa5d-da8f4b3b8fa9"},"vehicle_type_id":"4","last_reported":1701860772,"current_range_meters":12000,"station_id":"ce4bgr92rcd13ifvqc6g","pricing_plan_id":"free"},{"bike_id":"1fe4fdc4-f7f1-4c06-91a9-6542164f2139","system_id":"levelo_inurba_marseille","lat":43.313391,"lon":5.36706,"is_reserved":false,"is_disabled":false,"rental_uris":{"android":"levelo://app?vid=1fe4fdc4-f7f1-4c06-91a9-6542164f2139","ios":"levelo://app?vid=1fe4fdc4-f7f1-4c06-91a9-6542164f2139"},"vehicle_type_id":"4","last_reported":1701860772,"current_range_meters":18400,"station_id":"ce4bgr92rcd13ifvqc6g","pricing_plan_id":"free"},{"bike_id":"84528a0d-f016-4811-b886-e345342a30b9","system_id":"levelo_inurba_marseille","lat":43.31341,"lon":5.367098,"is_reserved":false,"is_disabled":false,"rental_uris":{"android":"levelo://app?vid=84528a0d-f016-4811-b886-e345342a30b9","ios":"levelo://app?vid=84528a0d-f016-4811-b886-e345342a30b9"},"vehicle_type_id":"4","last_reported":1701860772,"current_range_meters":14000,"station_id":"ce4bgr92rcd13ifvqc6g","pricing_plan_id":"free"},{"bike_id":"8d9c6c5e-c69e-4837-96a5-0fb3ab2ab36b","system_id":"levelo_inurba_marseille","lat":43.313391,"lon":5.36706,"is_reserved":false,"is_disabled":false,"rental_uris":{"android":"levelo://app?vid=8d9c6c5e-c69e-4837-96a5-0fb3ab2ab36b","ios":"levelo://app?vid=8d9c6c5e-c69e-4837-96a5-0fb3ab2ab36b"},"vehicle_type_id":"4","last_reported":1701860772,"current_range_meters":12400,"station_id":"ce4bgr92rcd13ifvqc6g","pricing_plan_id":"free"},{"bike_id":"e00719ba-086a-47b3-8f4f-3f2634239513","system_id":"levelo_inurba_marseille","lat":43.313391,"lon":5.36706,"is_reserved":false,"is_disabled":false,"rental_uris":{"android":"levelo://app?vid=e00719ba-086a-47b3-8f4f-3f2634239513","ios":"levelo://app?vid=e00719ba-086a-47b3-8f4f-3f2634239513"},"vehicle_type_id":"4","last_reported":1701860772,"current_range_meters":31200,"station_id":"ce4bgr92rcd13ifvqc6g","pricing_plan_id":"free"},{"bike_id":"32bd8da0-35c8-4f08-aa9c-5422c3c21892","system_id":"levelo_inurba_marseille","lat":43.313391,"lon":5.36706,"is_reserved":false,"is_disabled":false,"rental_uris":{"android":"levelo://app?vid=32bd8da0-35c8-4f08-aa9c-5422c3c21892","ios":"levelo://app?vid=32bd8da0-35c8-4f08-aa9c-5422c3c21892"},"vehicle_type_id":"4","last_reported":1701860772,"current_range_meters":18000,"station_id":"ce4bgr92rcd13ifvqc6g","pricing_plan_id":"free"},{"bike_id":"af8cf5e9-33c5-4040-8d08-44915b34157d","system_id":"levelo_inurba_marseille","lat":43.312239,"lon":5.368562,"is_reserved":false,"is_disabled":false,"rental_uris":{"android":"levelo://app?vid=af8cf5e9-33c5-4040-8d08-44915b34157d","ios":"levelo://app?vid=af8cf5e9-33c5-4040-8d08-44915b34157d"},"vehicle_type_id":"4","last_reported":1701860772,"current_range_meters":25200,"station_id":"ce4bgl92rcd13ifvqbq0","pricing_plan_id":"free"},{"bike_id":"a4a3a6f5-6956-4dc3-818a-cfb5b5452cbe","system_id":"levelo_inurba_marseille","lat":43.312239,"lon":5.368562,"is_reserved":false,"is_disabled":false,"rental_uris":{"android":"levelo://app?vid=a4a3a6f5-6956-4dc3-818a-cfb5b5452cbe","ios":"levelo://app?vid=a4a3a6f5-6956-4dc3-818a-cfb5b5452cbe"},"vehicle_type_id":"4","last_reported":1701860772,"current_range_meters":29600,"station_id":"ce4bgl92rcd13ifvqbq0","pricing_plan_id":"free"},{"bike_id":"c9935565-0235-41ea-91c8-694a70bc7664","system_id":"levelo_inurba_marseille","lat":43.309076,"lon":5.368465,"is_reserved":false,"is_disabled":false,"rental_uris":{"android":"levelo://app?vid=c9935565-0235-41ea-91c8-694a70bc7664","ios":"levelo://app?vid=c9935565-0235-41ea-91c8-694a70bc7664"},"vehicle_type_id":"4","last_reported":1701860772,"current_range_meters":29200,"station_id":"ce4bgn92rcd13ifvqbvg","pricing_plan_id":"free"},{"bike_id":"932e5f5c-b1dd-4e72-960b-ea060cd7e9c8","system_id":"levelo_inurba_marseille","lat":43.30906,"lon":5.36844,"is_reserved":false,"is_disabled":false,"rental_uris":{"android":"levelo://app?vid=932e5f5c-b1dd-4e72-960b-ea060cd7e9c8","ios":"levelo://app?vid=932e5f5c-b1dd-4e72-960b-ea060cd7e9c8"},"vehicle_type_id":"4","last_reported":1701860772,"current_range_meters":8800,"station_id":"ce4bgn92rcd13ifvqbvg","pricing_plan_id":"free"},{"bike_id":"95957aac-e5d7-4a69-bdfa-3e4eaf4da7a6","system_id":"levelo_inurba_marseille","lat":43.306318,"lon":5.368272,"is_reserved":false,"is_disabled":false,"rental_uris":{"android":"levelo://app?vid=95957aac-e5d7-4a69-bdfa-3e4eaf4da7a6","ios":"levelo://app?vid=95957aac-e5d7-4a69-bdfa-3e4eaf4da7a6"},"vehicle_type_id":"4","last_reported":1701860772,"current_range_meters":22000,"station_id":"","pricing_plan_id":"free"},{"bike_id":"88cf2b55-3d74-4914-b1be-1436eed81270","system_id":"levelo_inurba_marseille","lat":43.30548,"lon":5.36705,"is_reserved":false,"is_disabled":false,"rental_uris":{"android":"levelo://app?vid=88cf2b55-3d74-4914-b1be-1436eed81270","ios":"levelo://app?vid=88cf2b55-3d74-4914-b1be-1436eed81270"},"vehicle_type_id":"4","last_reported":1701860772,"current_range_meters":17600,"station_id":"ce4bgrp2rcd13ifvqc9g","pricing_plan_id":"free"},{"bike_id":"2c62583b-a752-467a-9c2e-41573866bc2d","system_id":"levelo_inurba_marseille","lat":43.30533,"lon":5.36697,"is_reserved":false,"is_disabled":false,"rental_uris":{"android":"levelo://app?vid=2c62583b-a752-467a-9c2e-41573866bc2d","ios":"levelo://app?vid=2c62583b-a752-467a-9c2e-41573866bc2d"},"vehicle_type_id":"4","last_reported":1701860772,"current_range_meters":13600,"station_id":"ce4bgrp2rcd13ifvqc9g","pricing_plan_id":"free"},{"bike_id":"cfbfd12b-7d66-41c9-aaa4-af928ef383cf","system_id":"levelo_inurba_marseille","lat":43.30542,"lon":5.36523,"is_reserved":false,"is_disabled":false,"rental_uris":{"android":"levelo://app?vid=cfbfd12b-7d66-41c9-aaa4-af928ef383cf","ios":"levelo://app?vid=cfbfd12b-7d66-41c9-aaa4-af928ef383cf"},"vehicle_type_id":"4","last_reported":1701860772,"current_range_meters":25200,"station_id":"ce4bgs12rcd13ifvqcag","pricing_plan_id":"free"},{"bike_id":"3974da88-46ef-4d3e-91c6-bd279e95e60a","system_id":"levelo_inurba_marseille","lat":43.305714,"lon":5.365633,"is_reserved":false,"is_disabled":false,"rental_uris":{"android":"levelo://app?vid=3974da88-46ef-4d3e-91c6-bd279e95e60a","ios":"levelo://app?vid=3974da88-46ef-4d3e-91c6-bd279e95e60a"},"vehicle_type_id":"4","last_reported":1701860772,"current_range_meters":24000,"station_id":"ce4bgs12rcd13ifvqcag","pricing_plan_id":"free"},{"bike_id":"f904d2dc-14c3-4ad6-b161-5ad72d4c549c","system_id":"levelo_inurba_marseille","lat":43.30537,"lon":5.36533,"is_reserved":false,"is_disabled":false,"rental_uris":{"android":"levelo://app?vid=f904d2dc-14c3-4ad6-b161-5ad72d4c549c","ios":"levelo://app?vid=f904d2dc-14c3-4ad6-b161-5ad72d4c549c"},"vehicle_type_id":"4","last_reported":1701860772,"current_range_meters":5200,"station_id":"ce4bgs12rcd13ifvqcag","pricing_plan_id":"free"},{"bike_id":"85625443-89fb-4061-8012-250dafc82a12","system_id":"levelo_inurba_marseille","lat":43.305706,"lon":5.365654,"is_reserved":false,"is_disabled":false,"rental_uris":{"android":"levelo://app?vid=85625443-89fb-4061-8012-250dafc82a12","ios":"levelo://app?vid=85625443-89fb-4061-8012-250dafc82a12"},"vehicle_type_id":"4","last_reported":1701860772,"current_range_meters":15600,"station_id":"ce4bgs12rcd13ifvqcag","pricing_plan_id":"free"},{"bike_id":"51c1edf5-ef17-4a5a-a65f-4a85ff207d52","system_id":"levelo_inurba_marseille","lat":43.305706,"lon":5.365654,"is_reserved":false,"is_disabled":false,"rental_uris":{"android":"levelo://app?vid=51c1edf5-ef17-4a5a-a65f-4a85ff207d52","ios":"levelo://app?vid=51c1edf5-ef17-4a5a-a65f-4a85ff207d52"},"vehicle_type_id":"4","last_reported":1701860772,"current_range_meters":16800,"station_id":"ce4bgs12rcd13ifvqcag","pricing_plan_id":"free"},{"bike_id":"923fe58e-06bc-4644-8a72-f090dd649222","system_id":"levelo_inurba_marseille","lat":43.305706,"lon":5.365654,"is_reserved":false,"is_disabled":false,"rental_uris":{"android":"levelo://app?vid=923fe58e-06bc-4644-8a72-f090dd649222","ios":"levelo://app?vid=923fe58e-06bc-4644-8a72-f090dd649222"},"vehicle_type_id":"4","last_reported":1701860772,"current_range_meters":28000,"station_id":"ce4bgs12rcd13ifvqcag","pricing_plan_id":"free"},{"bike_id":"b065b12a-ef87-47d8-8ac6-a38844050d40","system_id":"levelo_inurba_marseille","lat":43.319237,"lon":5.37299,"is_reserved":false,"is_disabled":false,"rental_uris":{"android":"levelo://app?vid=b065b12a-ef87-47d8-8ac6-a38844050d40","ios":"levelo://app?vid=b065b12a-ef87-47d8-8ac6-a38844050d40"},"vehicle_type_id":"4","last_reported":1701860772,"current_range_meters":0,"station_id":"","pricing_plan_id":"free"},{"bike_id":"fb6fd937-527b-4585-9058-0dfdc6436ac8","system_id":"levelo_inurba_marseille","lat":43.31351,"lon":5.37909,"is_reserved":false,"is_disabled":false,"rental_uris":{"android":"levelo://app?vid=fb6fd937-527b-4585-9058-0dfdc6436ac8","ios":"levelo://app?vid=fb6fd937-527b-4585-9058-0dfdc6436ac8"},"vehicle_type_id":"4","last_reported":1701860772,"current_range_meters":6800,"station_id":"","pricing_plan_id":"free"},{"bike_id":"07344513-65a6-4b18-bf05-5118287d8bd5","system_id":"levelo_inurba_marseille","lat":43.30304,"lon":5.368987,"is_reserved":false,"is_disabled":false,"rental_uris":{"android":"levelo://app?vid=07344513-65a6-4b18-bf05-5118287d8bd5","ios":"levelo://app?vid=07344513-65a6-4b18-bf05-5118287d8bd5"},"vehicle_type_id":"4","last_reported":1701860772,"current_range_meters":22400,"station_id":"ce4bgqh2rcd13ifvqc5g","pricing_plan_id":"free"},{"bike_id":"ef9f2323-1471-4838-96c6-aa120aee1ac1","system_id":"levelo_inurba_marseille","lat":43.303046,"lon":5.368981,"is_reserved":false,"is_disabled":false,"rental_uris":{"android":"levelo://app?vid=ef9f2323-1471-4838-96c6-aa120aee1ac1","ios":"levelo://app?vid=ef9f2323-1471-4838-96c6-aa120aee1ac1"},"vehicle_type_id":"4","last_reported":1701860772,"current_range_meters":25600,"station_id":"ce4bgqh2rcd13ifvqc5g","pricing_plan_id":"free"},{"bike_id":"ff661443-914d-437d-a97e-1bb6fcb3d4c2","system_id":"levelo_inurba_marseille","lat":43.30304,"lon":5.368987,"is_reserved":false,"is_disabled":false,"rental_uris":{"android":"levelo://app?vid=ff661443-914d-437d-a97e-1bb6fcb3d4c2","ios":"levelo://app?vid=ff661443-914d-437d-a97e-1bb6fcb3d4c2"},"vehicle_type_id":"4","last_reported":1701860772,"current_range_meters":31200,"station_id":"ce4bgqh2rcd13ifvqc5g","pricing_plan_id":"free"},{"bike_id":"1895302d-df15-4371-809a-d475c8d059c4","system_id":"levelo_inurba_marseille","lat":43.30184,"lon":5.3662,"is_reserved":false,"is_disabled":false,"rental_uris":{"android":"levelo://app?vid=1895302d-df15-4371-809a-d475c8d059c4","ios":"levelo://app?vid=1895302d-df15-4371-809a-d475c8d059c4"},"vehicle_type_id":"4","last_reported":1701860772,"current_range_meters":0,"station_id":"ce4bgrh2rcd13ifvqc8g","pricing_plan_id":"free"},{"bike_id":"a6a11124-1504-43b6-9246-50c6dc865336","system_id":"levelo_inurba_marseille","lat":43.30182,"lon":5.36619,"is_reserved":false,"is_disabled":false,"rental_uris":{"android":"levelo://app?vid=a6a11124-1504-43b6-9246-50c6dc865336","ios":"levelo://app?vid=a6a11124-1504-43b6-9246-50c6dc865336"},"vehicle_type_id":"4","last_reported":1701860772,"current_range_meters":24400,"station_id":"ce4bgrh2rcd13ifvqc8g","pricing_plan_id":"free"},{"bike_id":"71d575e8-eed2-4bcd-bb66-8939863b10da","system_id":"levelo_inurba_marseille","lat":43.30282,"lon":5.37337,"is_reserved":false,"is_disabled":false,"rental_uris":{"android":"levelo://app?vid=71d575e8-eed2-4bcd-bb66-8939863b10da","ios":"levelo://app?vid=71d575e8-eed2-4bcd-bb66-8939863b10da"},"vehicle_type_id":"4","last_reported":1701860772,"current_range_meters":10400,"station_id":"","pricing_plan_id":"free"},{"bike_id":"029e6a08-8bdd-4e09-ad5e-487b13318346","system_id":"levelo_inurba_marseille","lat":43.308012,"lon":5.381511,"is_reserved":false,"is_disabled":false,"rental_uris":{"android":"levelo://app?vid=029e6a08-8bdd-4e09-ad5e-487b13318346","ios":"levelo://app?vid=029e6a08-8bdd-4e09-ad5e-487b13318346"},"vehicle_type_id":"4","last_reported":1701860772,"current_range_meters":0,"station_id":"ce4bgt12rcd13ifvqce0","pricing_plan_id":"free"},{"bike_id":"d351939e-2cc6-4ab0-b1ea-44c9f514edf3","system_id":"levelo_inurba_marseille","lat":43.304606,"lon":5.379026,"is_reserved":false,"is_disabled":false,"rental_uris":{"android":"levelo://app?vid=d351939e-2cc6-4ab0-b1ea-44c9f514edf3","ios":"levelo://app?vid=d351939e-2cc6-4ab0-b1ea-44c9f514edf3"},"vehicle_type_id":"4","last_reported":1701860772,"current_range_meters":18800,"station_id":"ce4bgup2rcd13ifvqcn0","pricing_plan_id":"free"},{"bike_id":"fb5b66cb-aa1e-484f-8e35-9c39b22193ae","system_id":"levelo_inurba_marseille","lat":43.304606,"lon":5.379026,"is_reserved":false,"is_disabled":false,"rental_uris":{"android":"levelo://app?vid=fb5b66cb-aa1e-484f-8e35-9c39b22193ae","ios":"levelo://app?vid=fb5b66cb-aa1e-484f-8e35-9c39b22193ae"},"vehicle_type_id":"4","last_reported":1701860772,"current_range_meters":14800,"station_id":"ce4bgup2rcd13ifvqcn0","pricing_plan_id":"free"},{"bike_id":"073ff213-404e-420a-90f3-2267ccfa7e5b","system_id":"levelo_inurba_marseille","lat":43.304606,"lon":5.379026,"is_reserved":false,"is_disabled":false,"rental_uris":{"android":"levelo://app?vid=073ff213-404e-420a-90f3-2267ccfa7e5b","ios":"levelo://app?vid=073ff213-404e-420a-90f3-2267ccfa7e5b"},"vehicle_type_id":"4","last_reported":1701860772,"current_range_meters":31200,"station_id":"ce4bgup2rcd13ifvqcn0","pricing_plan_id":"free"},{"bike_id":"38c6715d-1a40-4788-a3f2-1d737d5567bc","system_id":"levelo_inurba_marseille","lat":43.304606,"lon":5.379026,"is_reserved":false,"is_disabled":false,"rental_uris":{"android":"levelo://app?vid=38c6715d-1a40-4788-a3f2-1d737d5567bc","ios":"levelo://app?vid=38c6715d-1a40-4788-a3f2-1d737d5567bc"},"vehicle_type_id":"4","last_reported":1701860772,"current_range_meters":31200,"station_id":"ce4bgup2rcd13ifvqcn0","pricing_plan_id":"free"},{"bike_id":"d85887f4-5746-4008-8c64-993028201aed","system_id":"levelo_inurba_marseille","lat":43.298433,"lon":5.362774,"is_reserved":false,"is_disabled":false,"rental_uris":{"android":"levelo://app?vid=d85887f4-5746-4008-8c64-993028201aed","ios":"levelo://app?vid=d85887f4-5746-4008-8c64-993028201aed"},"vehicle_type_id":"4","last_reported":1701860772,"current_range_meters":21600,"station_id":"ce4bgpp2rcd13ifvqc3g","pricing_plan_id":"free"},{"bike_id":"b8ceb684-19e9-43a8-8bce-c6b1b442d666","system_id":"levelo_inurba_marseille","lat":43.302784,"lon":5.377158,"is_reserved":false,"is_disabled":false,"rental_uris":{"android":"levelo://app?vid=b8ceb684-19e9-43a8-8bce-c6b1b442d666","ios":"levelo://app?vid=b8ceb684-19e9-43a8-8bce-c6b1b442d666"},"vehicle_type_id":"4","last_reported":1701860772,"current_range_meters":26400,"station_id":"ce4bguh2rcd13ifvqcj0","pricing_plan_id":"free"},{"bike_id":"29efbc71-f4a2-4c33-9992-43ada0b5b30d","system_id":"levelo_inurba_marseille","lat":43.302784,"lon":5.377158,"is_reserved":false,"is_disabled":false,"rental_uris":{"android":"levelo://app?vid=29efbc71-f4a2-4c33-9992-43ada0b5b30d","ios":"levelo://app?vid=29efbc71-f4a2-4c33-9992-43ada0b5b30d"},"vehicle_type_id":"4","last_reported":1701860772,"current_range_meters":18000,"station_id":"ce4bguh2rcd13ifvqcj0","pricing_plan_id":"free"},{"bike_id":"1e44eb00-5254-457d-b804-b536ef4db324","system_id":"levelo_inurba_marseille","lat":43.319935,"lon":5.381699,"is_reserved":false,"is_disabled":false,"rental_uris":{"android":"levelo://app?vid=1e44eb00-5254-457d-b804-b536ef4db324","ios":"levelo://app?vid=1e44eb00-5254-457d-b804-b536ef4db324"},"vehicle_type_id":"4","last_reported":1701860772,"current_range_meters":11600,"station_id":"ce4bhr12rcd13ifvqhpg","pricing_plan_id":"free"},{"bike_id":"65f8fa65-6ae7-4e94-86fb-6a8a6a019c04","system_id":"levelo_inurba_marseille","lat":43.319935,"lon":5.381699,"is_reserved":false,"is_disabled":false,"rental_uris":{"android":"levelo://app?vid=65f8fa65-6ae7-4e94-86fb-6a8a6a019c04","ios":"levelo://app?vid=65f8fa65-6ae7-4e94-86fb-6a8a6a019c04"},"vehicle_type_id":"4","last_reported":1701860772,"current_range_meters":10000,"station_id":"ce4bhr12rcd13ifvqhpg","pricing_plan_id":"free"},{"bike_id":"30a56e40-85f3-4e15-b42c-e3cceced0144","system_id":"levelo_inurba_marseille","lat":43.319935,"lon":5.381699,"is_reserved":false,"is_disabled":false,"rental_uris":{"android":"levelo://app?vid=30a56e40-85f3-4e15-b42c-e3cceced0144","ios":"levelo://app?vid=30a56e40-85f3-4e15-b42c-e3cceced0144"},"vehicle_type_id":"4","last_reported":1701860772,"current_range_meters":19200,"station_id":"ce4bhr12rcd13ifvqhpg","pricing_plan_id":"free"},{"bike_id":"a7503af2-3416-42b0-89b3-360ea5b90ea2","system_id":"levelo_inurba_marseille","lat":43.319935,"lon":5.381699,"is_reserved":false,"is_disabled":false,"rental_uris":{"android":"levelo://app?vid=a7503af2-3416-42b0-89b3-360ea5b90ea2","ios":"levelo://app?vid=a7503af2-3416-42b0-89b3-360ea5b90ea2"},"vehicle_type_id":"4","last_reported":1701860772,"current_range_meters":24800,"station_id":"ce4bhr12rcd13ifvqhpg","pricing_plan_id":"free"},{"bike_id":"fb6ad46d-3eb6-479e-a807-e2c127cd7872","system_id":"levelo_inurba_marseille","lat":43.31998,"lon":5.38157,"is_reserved":false,"is_disabled":false,"rental_uris":{"android":"levelo://app?vid=fb6ad46d-3eb6-479e-a807-e2c127cd7872","ios":"levelo://app?vid=fb6ad46d-3eb6-479e-a807-e2c127cd7872"},"vehicle_type_id":"4","last_reported":1701860772,"current_range_meters":20000,"station_id":"ce4bhr12rcd13ifvqhpg","pricing_plan_id":"free"},{"bike_id":"8f0e376d-d370-406a-9c0a-dac0b1463e7e","system_id":"levelo_inurba_marseille","lat":43.319997,"lon":5.381594,"is_reserved":false,"is_disabled":false,"rental_uris":{"android":"levelo://app?vid=8f0e376d-d370-406a-9c0a-dac0b1463e7e","ios":"levelo://app?vid=8f0e376d-d370-406a-9c0a-dac0b1463e7e"},"vehicle_type_id":"4","last_reported":1701860772,"current_range_meters":400,"station_id":"ce4bhr12rcd13ifvqhpg","pricing_plan_id":"free"},{"bike_id":"2ba1ec1b-ece1-492c-95dd-b2aaa131858d","system_id":"levelo_inurba_marseille","lat":43.313571,"lon":5.384829,"is_reserved":false,"is_disabled":false,"rental_uris":{"android":"levelo://app?vid=2ba1ec1b-ece1-492c-95dd-b2aaa131858d","ios":"levelo://app?vid=2ba1ec1b-ece1-492c-95dd-b2aaa131858d"},"vehicle_type_id":"4","last_reported":1701860772,"current_range_meters":25200,"station_id":"ce4bgt92rcd13ifvqcf0","pricing_plan_id":"free"},{"bike_id":"5a85e97f-0b9c-4e6b-a209-173903fea644","system_id":"levelo_inurba_marseille","lat":43.299222,"lon":5.365554,"is_reserved":false,"is_disabled":false,"rental_uris":{"android":"levelo://app?vid=5a85e97f-0b9c-4e6b-a209-173903fea644","ios":"levelo://app?vid=5a85e97f-0b9c-4e6b-a209-173903fea644"},"vehicle_type_id":"4","last_reported":1701860772,"current_range_meters":26000,"station_id":"ce4bgm92rcd13ifvqbr0","pricing_plan_id":"free"},{"bike_id":"a268616b-e1fd-4656-88d5-ec2cd6579c0c","system_id":"levelo_inurba_marseille","lat":43.298433,"lon":5.362774,"is_reserved":false,"is_disabled":false,"rental_uris":{"android":"levelo://app?vid=a268616b-e1fd-4656-88d5-ec2cd6579c0c","ios":"levelo://app?vid=a268616b-e1fd-4656-88d5-ec2cd6579c0c"},"vehicle_type_id":"4","last_reported":1701860772,"current_range_meters":20400,"station_id":"ce4bgpp2rcd13ifvqc3g","pricing_plan_id":"free"},{"bike_id":"391c3a78-af65-4585-b7fd-e8d8af182a3e","system_id":"levelo_inurba_marseille","lat":43.298433,"lon":5.362774,"is_reserved":false,"is_disabled":false,"rental_uris":{"android":"levelo://app?vid=391c3a78-af65-4585-b7fd-e8d8af182a3e","ios":"levelo://app?vid=391c3a78-af65-4585-b7fd-e8d8af182a3e"},"vehicle_type_id":"4","last_reported":1701860772,"current_range_meters":28400,"station_id":"ce4bgpp2rcd13ifvqc3g","pricing_plan_id":"free"},{"bike_id":"2e20179d-577c-4689-8b04-7c7d96d1033e","system_id":"levelo_inurba_marseille","lat":43.298433,"lon":5.362774,"is_reserved":false,"is_disabled":false,"rental_uris":{"android":"levelo://app?vid=2e20179d-577c-4689-8b04-7c7d96d1033e","ios":"levelo://app?vid=2e20179d-577c-4689-8b04-7c7d96d1033e"},"vehicle_type_id":"4","last_reported":1701860772,"current_range_meters":26000,"station_id":"ce4bgpp2rcd13ifvqc3g","pricing_plan_id":"free"},{"bike_id":"bd587ead-e56c-471b-acf5-fcae1cf11fb4","system_id":"levelo_inurba_marseille","lat":43.299243,"lon":5.37481,"is_reserved":false,"is_disabled":false,"rental_uris":{"android":"levelo://app?vid=bd587ead-e56c-471b-acf5-fcae1cf11fb4","ios":"levelo://app?vid=bd587ead-e56c-471b-acf5-fcae1cf11fb4"},"vehicle_type_id":"4","last_reported":1701860772,"current_range_meters":18800,"station_id":"ce4bgjh2rcd13ifvqbg0","pricing_plan_id":"free"},{"bike_id":"9dce1356-6276-4758-9895-a281f81469f7","system_id":"levelo_inurba_marseille","lat":43.299243,"lon":5.37481,"is_reserved":false,"is_disabled":false,"rental_uris":{"android":"levelo://app?vid=9dce1356-6276-4758-9895-a281f81469f7","ios":"levelo://app?vid=9dce1356-6276-4758-9895-a281f81469f7"},"vehicle_type_id":"4","last_reported":1701860772,"current_range_meters":19600,"station_id":"ce4bgjh2rcd13ifvqbg0","pricing_plan_id":"free"},{"bike_id":"dfa7ed3e-d243-4b6a-83ed-e8c59d2a5100","system_id":"levelo_inurba_marseille","lat":43.299243,"lon":5.374807,"is_reserved":false,"is_disabled":false,"rental_uris":{"android":"levelo://app?vid=dfa7ed3e-d243-4b6a-83ed-e8c59d2a5100","ios":"levelo://app?vid=dfa7ed3e-d243-4b6a-83ed-e8c59d2a5100"},"vehicle_type_id":"4","last_reported":1701860772,"current_range_meters":30400,"station_id":"ce4bgjh2rcd13ifvqbg0","pricing_plan_id":"free"},{"bike_id":"67533b46-7f90-4c62-8458-29492a728e06","system_id":"levelo_inurba_marseille","lat":43.297794,"lon":5.370888,"is_reserved":false,"is_disabled":false,"rental_uris":{"android":"levelo://app?vid=67533b46-7f90-4c62-8458-29492a728e06","ios":"levelo://app?vid=67533b46-7f90-4c62-8458-29492a728e06"},"vehicle_type_id":"4","last_reported":1701860772,"current_range_meters":20000,"station_id":"ce4bgop2rcd13ifvqc1g","pricing_plan_id":"free"},{"bike_id":"b4879a0b-f87c-476b-ba9f-57011b8686d8","system_id":"levelo_inurba_marseille","lat":43.298218,"lon":5.374416,"is_reserved":false,"is_disabled":false,"rental_uris":{"android":"levelo://app?vid=b4879a0b-f87c-476b-ba9f-57011b8686d8","ios":"levelo://app?vid=b4879a0b-f87c-476b-ba9f-57011b8686d8"},"vehicle_type_id":"4","last_reported":1701860772,"current_range_meters":14000,"station_id":"","pricing_plan_id":"free"},{"bike_id":"73c23a8d-2837-446e-83fd-663e18a9fad1","system_id":"levelo_inurba_marseille","lat":43.3283,"lon":5.36671,"is_reserved":false,"is_disabled":false,"rental_uris":{"android":"levelo://app?vid=73c23a8d-2837-446e-83fd-663e18a9fad1","ios":"levelo://app?vid=73c23a8d-2837-446e-83fd-663e18a9fad1"},"vehicle_type_id":"4","last_reported":1701860772,"current_range_meters":30400,"station_id":"ce4bhs92rcd13ifvqi0g","pricing_plan_id":"free"},{"bike_id":"123cf21b-e79d-41f5-b014-149ab071c1aa","system_id":"levelo_inurba_marseille","lat":43.297163,"lon":5.365866,"is_reserved":false,"is_disabled":false,"rental_uris":{"android":"levelo://app?vid=123cf21b-e79d-41f5-b014-149ab071c1aa","ios":"levelo://app?vid=123cf21b-e79d-41f5-b014-149ab071c1aa"},"vehicle_type_id":"4","last_reported":1701860772,"current_range_meters":21600,"station_id":"ce4bgn12rcd13ifvqbt0","pricing_plan_id":"free"},{"bike_id":"3a2dda2e-3aab-4d0e-a954-793f1706ec09","system_id":"levelo_inurba_marseille","lat":43.29883,"lon":5.37828,"is_reserved":false,"is_disabled":false,"rental_uris":{"android":"levelo://app?vid=3a2dda2e-3aab-4d0e-a954-793f1706ec09","ios":"levelo://app?vid=3a2dda2e-3aab-4d0e-a954-793f1706ec09"},"vehicle_type_id":"4","last_reported":1701860772,"current_range_meters":23200,"station_id":"","pricing_plan_id":"free"},{"bike_id":"fad051df-9150-4866-a68e-71dc1b88d26f","system_id":"levelo_inurba_marseille","lat":43.316538,"lon":5.38954,"is_reserved":false,"is_disabled":false,"rental_uris":{"android":"levelo://app?vid=fad051df-9150-4866-a68e-71dc1b88d26f","ios":"levelo://app?vid=fad051df-9150-4866-a68e-71dc1b88d26f"},"vehicle_type_id":"4","last_reported":1701860772,"current_range_meters":9600,"station_id":"","pricing_plan_id":"free"},{"bike_id":"bddcfba0-a01a-4456-bf47-35df3e1b2f76","system_id":"levelo_inurba_marseille","lat":43.29573,"lon":5.367355,"is_reserved":false,"is_disabled":false,"rental_uris":{"android":"levelo://app?vid=bddcfba0-a01a-4456-bf47-35df3e1b2f76","ios":"levelo://app?vid=bddcfba0-a01a-4456-bf47-35df3e1b2f76"},"vehicle_type_id":"4","last_reported":1701860772,"current_range_meters":30000,"station_id":"ce4bgph2rcd13ifvqc2g","pricing_plan_id":"free"},{"bike_id":"a07d6d0d-10d3-4119-8cc8-ee69f0f8d91c","system_id":"levelo_inurba_marseille","lat":43.29573,"lon":5.367355,"is_reserved":false,"is_disabled":false,"rental_uris":{"android":"levelo://app?vid=a07d6d0d-10d3-4119-8cc8-ee69f0f8d91c","ios":"levelo://app?vid=a07d6d0d-10d3-4119-8cc8-ee69f0f8d91c"},"vehicle_type_id":"4","last_reported":1701860772,"current_range_meters":30800,"station_id":"ce4bgph2rcd13ifvqc2g","pricing_plan_id":"free"},{"bike_id":"20adbcb6-8a5f-447c-acb0-abe4e30f105f","system_id":"levelo_inurba_marseille","lat":43.29573,"lon":5.367355,"is_reserved":false,"is_disabled":false,"rental_uris":{"android":"levelo://app?vid=20adbcb6-8a5f-447c-acb0-abe4e30f105f","ios":"levelo://app?vid=20adbcb6-8a5f-447c-acb0-abe4e30f105f"},"vehicle_type_id":"4","last_reported":1701860772,"current_range_meters":18000,"station_id":"ce4bgph2rcd13ifvqc2g","pricing_plan_id":"free"},{"bike_id":"9e3e37c9-3986-47cf-88d4-f8e76aa43aaf","system_id":"levelo_inurba_marseille","lat":43.29573,"lon":5.367355,"is_reserved":false,"is_disabled":false,"rental_uris":{"android":"levelo://app?vid=9e3e37c9-3986-47cf-88d4-f8e76aa43aaf","ios":"levelo://app?vid=9e3e37c9-3986-47cf-88d4-f8e76aa43aaf"},"vehicle_type_id":"4","last_reported":1701860772,"current_range_meters":23600,"station_id":"ce4bgph2rcd13ifvqc2g","pricing_plan_id":"free"},{"bike_id":"49735078-10bc-431d-be8d-dd6fae0e6b34","system_id":"levelo_inurba_marseille","lat":43.296921,"lon":5.376579,"is_reserved":false,"is_disabled":false,"rental_uris":{"android":"levelo://app?vid=49735078-10bc-431d-be8d-dd6fae0e6b34","ios":"levelo://app?vid=49735078-10bc-431d-be8d-dd6fae0e6b34"},"vehicle_type_id":"4","last_reported":1701860772,"current_range_meters":20400,"station_id":"ce4bgkh2rcd13ifvqbl0","pricing_plan_id":"free"},{"bike_id":"5ecc343e-91b0-4df0-b764-ba91b270ce21","system_id":"levelo_inurba_marseille","lat":43.298037,"lon":5.381066,"is_reserved":false,"is_disabled":false,"rental_uris":{"android":"levelo://app?vid=5ecc343e-91b0-4df0-b764-ba91b270ce21","ios":"levelo://app?vid=5ecc343e-91b0-4df0-b764-ba91b270ce21"},"vehicle_type_id":"4","last_reported":1701860772,"current_range_meters":14000,"station_id":"ce4bgip2rcd13ifvqbb0","pricing_plan_id":"free"},{"bike_id":"07967f1e-00b3-4d63-8ab5-24c06e141a86","system_id":"levelo_inurba_marseille","lat":43.32358,"lon":5.38882,"is_reserved":false,"is_disabled":false,"rental_uris":{"android":"levelo://app?vid=07967f1e-00b3-4d63-8ab5-24c06e141a86","ios":"levelo://app?vid=07967f1e-00b3-4d63-8ab5-24c06e141a86"},"vehicle_type_id":"4","last_reported":1701860772,"current_range_meters":13200,"station_id":"ce4bhqp2rcd13ifvqhog","pricing_plan_id":"free"},{"bike_id":"abe84497-fb17-455f-b511-71d1ec1fd3ce","system_id":"levelo_inurba_marseille","lat":43.32363,"lon":5.38883,"is_reserved":false,"is_disabled":false,"rental_uris":{"android":"levelo://app?vid=abe84497-fb17-455f-b511-71d1ec1fd3ce","ios":"levelo://app?vid=abe84497-fb17-455f-b511-71d1ec1fd3ce"},"vehicle_type_id":"4","last_reported":1701860772,"current_range_meters":5600,"station_id":"ce4bhqp2rcd13ifvqhog","pricing_plan_id":"free"},{"bike_id":"c3643ac2-cdd1-4bd1-99e6-62e33012d634","system_id":"levelo_inurba_marseille","lat":43.32364,"lon":5.38893,"is_reserved":false,"is_disabled":false,"rental_uris":{"android":"levelo://app?vid=c3643ac2-cdd1-4bd1-99e6-62e33012d634","ios":"levelo://app?vid=c3643ac2-cdd1-4bd1-99e6-62e33012d634"},"vehicle_type_id":"4","last_reported":1701860772,"current_range_meters":7600,"station_id":"ce4bhqp2rcd13ifvqhog","pricing_plan_id":"free"},{"bike_id":"42840983-3a0f-4559-a584-f449bdece277","system_id":"levelo_inurba_marseille","lat":43.29601,"lon":5.381084,"is_reserved":false,"is_disabled":false,"rental_uris":{"android":"levelo://app?vid=42840983-3a0f-4559-a584-f449bdece277","ios":"levelo://app?vid=42840983-3a0f-4559-a584-f449bdece277"},"vehicle_type_id":"4","last_reported":1701860772,"current_range_meters":30800,"station_id":"ce4bgl12rcd13ifvqbo0","pricing_plan_id":"free"},{"bike_id":"be278af8-0a23-4819-bf84-9b99111110fa","system_id":"levelo_inurba_marseille","lat":43.292663,"lon":5.376394,"is_reserved":false,"is_disabled":false,"rental_uris":{"android":"levelo://app?vid=be278af8-0a23-4819-bf84-9b99111110fa","ios":"levelo://app?vid=be278af8-0a23-4819-bf84-9b99111110fa"},"vehicle_type_id":"4","last_reported":1701860772,"current_range_meters":16400,"station_id":"ce4bgi12rcd13ifvqb80","pricing_plan_id":"free"},{"bike_id":"b341b9b0-e5a3-4dd4-a58a-ba00e5957c19","system_id":"levelo_inurba_marseille","lat":43.292663,"lon":5.376389,"is_reserved":false,"is_disabled":false,"rental_uris":{"android":"levelo://app?vid=b341b9b0-e5a3-4dd4-a58a-ba00e5957c19","ios":"levelo://app?vid=b341b9b0-e5a3-4dd4-a58a-ba00e5957c19"},"vehicle_type_id":"4","last_reported":1701860772,"current_range_meters":18400,"station_id":"ce4bgi12rcd13ifvqb80","pricing_plan_id":"free"},{"bike_id":"d15392da-a4d7-4933-ad6c-54634f4d17b2","system_id":"levelo_inurba_marseille","lat":43.313291,"lon":5.396838,"is_reserved":false,"is_disabled":false,"rental_uris":{"android":"levelo://app?vid=d15392da-a4d7-4933-ad6c-54634f4d17b2","ios":"levelo://app?vid=d15392da-a4d7-4933-ad6c-54634f4d17b2"},"vehicle_type_id":"4","last_reported":1701860772,"current_range_meters":12800,"station_id":"ce4bgvp2rcd13ifvqcu0","pricing_plan_id":"free"},{"bike_id":"8eb2ffd0-38f0-405b-91bd-7b6a93902e62","system_id":"levelo_inurba_marseille","lat":43.29529,"lon":5.385581,"is_reserved":false,"is_disabled":false,"rental_uris":{"android":"levelo://app?vid=8eb2ffd0-38f0-405b-91bd-7b6a93902e62","ios":"levelo://app?vid=8eb2ffd0-38f0-405b-91bd-7b6a93902e62"},"vehicle_type_id":"4","last_reported":1701860772,"current_range_meters":18400,"station_id":"ce4bgih2rcd13ifvqba0","pricing_plan_id":"free"},{"bike_id":"78d3f41a-7b0e-4b13-a93b-c89abccfb7f4","system_id":"levelo_inurba_marseille","lat":43.289259,"lon":5.366364,"is_reserved":false,"is_disabled":false,"rental_uris":{"android":"levelo://app?vid=78d3f41a-7b0e-4b13-a93b-c89abccfb7f4","ios":"levelo://app?vid=78d3f41a-7b0e-4b13-a93b-c89abccfb7f4"},"vehicle_type_id":"4","last_reported":1701860772,"current_range_meters":24000,"station_id":"","pricing_plan_id":"free"},{"bike_id":"c8b11245-3402-4d5a-bbdb-d24e8aa5709a","system_id":"levelo_inurba_marseille","lat":43.292644,"lon":5.384257,"is_reserved":false,"is_disabled":false,"rental_uris":{"android":"levelo://app?vid=c8b11245-3402-4d5a-bbdb-d24e8aa5709a","ios":"levelo://app?vid=c8b11245-3402-4d5a-bbdb-d24e8aa5709a"},"vehicle_type_id":"4","last_reported":1701860772,"current_range_meters":18400,"station_id":"ce4bh692rcd13ifvqea0","pricing_plan_id":"free"},{"bike_id":"88c582d9-bc21-45c4-80f3-85368493e180","system_id":"levelo_inurba_marseille","lat":43.292644,"lon":5.384257,"is_reserved":false,"is_disabled":false,"rental_uris":{"android":"levelo://app?vid=88c582d9-bc21-45c4-80f3-85368493e180","ios":"levelo://app?vid=88c582d9-bc21-45c4-80f3-85368493e180"},"vehicle_type_id":"4","last_reported":1701860772,"current_range_meters":14800,"station_id":"ce4bh692rcd13ifvqea0","pricing_plan_id":"free"},{"bike_id":"ee567bb9-8683-4399-8cb6-0328e6b43d8c","system_id":"levelo_inurba_marseille","lat":43.33041,"lon":5.38918,"is_reserved":false,"is_disabled":false,"rental_uris":{"android":"levelo://app?vid=ee567bb9-8683-4399-8cb6-0328e6b43d8c","ios":"levelo://app?vid=ee567bb9-8683-4399-8cb6-0328e6b43d8c"},"vehicle_type_id":"4","last_reported":1701860772,"current_range_meters":14000,"station_id":"ce4bhr92rcd13ifvqhrg","pricing_plan_id":"free"},{"bike_id":"f68e2c8b-de08-4ad7-b342-74483183b5be","system_id":"levelo_inurba_marseille","lat":43.33034,"lon":5.38936,"is_reserved":false,"is_disabled":false,"rental_uris":{"android":"levelo://app?vid=f68e2c8b-de08-4ad7-b342-74483183b5be","ios":"levelo://app?vid=f68e2c8b-de08-4ad7-b342-74483183b5be"},"vehicle_type_id":"4","last_reported":1701860772,"current_range_meters":28000,"station_id":"ce4bhr92rcd13ifvqhrg","pricing_plan_id":"free"},{"bike_id":"8afa1f72-1b74-497b-85b6-4b2c83dce8cd","system_id":"levelo_inurba_marseille","lat":43.295169,"lon":5.390426,"is_reserved":false,"is_disabled":false,"rental_uris":{"android":"levelo://app?vid=8afa1f72-1b74-497b-85b6-4b2c83dce8cd","ios":"levelo://app?vid=8afa1f72-1b74-497b-85b6-4b2c83dce8cd"},"vehicle_type_id":"4","last_reported":1701860772,"current_range_meters":0,"station_id":"ce4bh3p2rcd13ifvqdp0","pricing_plan_id":"free"},{"bike_id":"c4847e0d-ef44-4da5-b483-06c4653dd59a","system_id":"levelo_inurba_marseille","lat":43.2901,"lon":5.381269,"is_reserved":false,"is_disabled":false,"rental_uris":{"android":"levelo://app?vid=c4847e0d-ef44-4da5-b483-06c4653dd59a","ios":"levelo://app?vid=c4847e0d-ef44-4da5-b483-06c4653dd59a"},"vehicle_type_id":"4","last_reported":1701860772,"current_range_meters":14000,"station_id":"ce4bh4p2rcd13ifvqe1g","pricing_plan_id":"free"},{"bike_id":"8236769c-fda9-4dc3-a2bf-36d70bfc6bbe","system_id":"levelo_inurba_marseille","lat":43.28853,"lon":5.35844,"is_reserved":false,"is_disabled":false,"rental_uris":{"android":"levelo://app?vid=8236769c-fda9-4dc3-a2bf-36d70bfc6bbe","ios":"levelo://app?vid=8236769c-fda9-4dc3-a2bf-36d70bfc6bbe"},"vehicle_type_id":"4","last_reported":1701860772,"current_range_meters":5600,"station_id":"ce4bhb12rcd13ifvqem0","pricing_plan_id":"free"},{"bike_id":"f0d06f1c-da10-4788-bc57-b251c6352474","system_id":"levelo_inurba_marseille","lat":43.309299,"lon":5.401419,"is_reserved":false,"is_disabled":false,"rental_uris":{"android":"levelo://app?vid=f0d06f1c-da10-4788-bc57-b251c6352474","ios":"levelo://app?vid=f0d06f1c-da10-4788-bc57-b251c6352474"},"vehicle_type_id":"4","last_reported":1701860772,"current_range_meters":9200,"station_id":"","pricing_plan_id":"free"},{"bike_id":"bd1825e8-4e6a-4e6f-87d3-056f04646810","system_id":"levelo_inurba_marseille","lat":43.309371,"lon":5.401449,"is_reserved":false,"is_disabled":false,"rental_uris":{"android":"levelo://app?vid=bd1825e8-4e6a-4e6f-87d3-056f04646810","ios":"levelo://app?vid=bd1825e8-4e6a-4e6f-87d3-056f04646810"},"vehicle_type_id":"4","last_reported":1701860772,"current_range_meters":23200,"station_id":"ce4bgvp2rcd13ifvqct0","pricing_plan_id":"free"},{"bike_id":"2fbea006-0d22-445c-bfc1-d379dcddc1c1","system_id":"levelo_inurba_marseille","lat":43.337474,"lon":5.374721,"is_reserved":false,"is_disabled":false,"rental_uris":{"android":"levelo://app?vid=2fbea006-0d22-445c-bfc1-d379dcddc1c1","ios":"levelo://app?vid=2fbea006-0d22-445c-bfc1-d379dcddc1c1"},"vehicle_type_id":"4","last_reported":1701860772,"current_range_meters":24800,"station_id":"","pricing_plan_id":"free"},{"bike_id":"61e94894-252e-4e6e-9735-b09eceabfad5","system_id":"levelo_inurba_marseille","lat":43.337464,"lon":5.374801,"is_reserved":false,"is_disabled":false,"rental_uris":{"android":"levelo://app?vid=61e94894-252e-4e6e-9735-b09eceabfad5","ios":"levelo://app?vid=61e94894-252e-4e6e-9735-b09eceabfad5"},"vehicle_type_id":"4","last_reported":1701860772,"current_range_meters":30800,"station_id":"","pricing_plan_id":"free"},{"bike_id":"a01a8d62-3f82-430f-8cbf-bf5e5048b82c","system_id":"levelo_inurba_marseille","lat":43.33749,"lon":5.37465,"is_reserved":false,"is_disabled":false,"rental_uris":{"android":"levelo://app?vid=a01a8d62-3f82-430f-8cbf-bf5e5048b82c","ios":"levelo://app?vid=a01a8d62-3f82-430f-8cbf-bf5e5048b82c"},"vehicle_type_id":"4","last_reported":1701860772,"current_range_meters":22400,"station_id":"","pricing_plan_id":"free"},{"bike_id":"b1da507f-59bc-4bfa-9de7-dd18b0d37739","system_id":"levelo_inurba_marseille","lat":43.337515,"lon":5.374499,"is_reserved":false,"is_disabled":false,"rental_uris":{"android":"levelo://app?vid=b1da507f-59bc-4bfa-9de7-dd18b0d37739","ios":"levelo://app?vid=b1da507f-59bc-4bfa-9de7-dd18b0d37739"},"vehicle_type_id":"4","last_reported":1701860772,"current_range_meters":30000,"station_id":"","pricing_plan_id":"free"},{"bike_id":"82aceeed-6a3f-4dcf-9611-c927556a3952","system_id":"levelo_inurba_marseille","lat":43.337579,"lon":5.374603,"is_reserved":false,"is_disabled":false,"rental_uris":{"android":"levelo://app?vid=82aceeed-6a3f-4dcf-9611-c927556a3952","ios":"levelo://app?vid=82aceeed-6a3f-4dcf-9611-c927556a3952"},"vehicle_type_id":"4","last_reported":1701860772,"current_range_meters":28800,"station_id":"","pricing_plan_id":"free"},{"bike_id":"94559e2c-f22c-4ac5-af24-05076ed30144","system_id":"levelo_inurba_marseille","lat":43.337619,"lon":5.374468,"is_reserved":false,"is_disabled":false,"rental_uris":{"android":"levelo://app?vid=94559e2c-f22c-4ac5-af24-05076ed30144","ios":"levelo://app?vid=94559e2c-f22c-4ac5-af24-05076ed30144"},"vehicle_type_id":"4","last_reported":1701860772,"current_range_meters":29600,"station_id":"","pricing_plan_id":"free"},{"bike_id":"f0464f50-e84c-41e8-8839-9b31e220379c","system_id":"levelo_inurba_marseille","lat":43.33758,"lon":5.37484,"is_reserved":false,"is_disabled":false,"rental_uris":{"android":"levelo://app?vid=f0464f50-e84c-41e8-8839-9b31e220379c","ios":"levelo://app?vid=f0464f50-e84c-41e8-8839-9b31e220379c"},"vehicle_type_id":"4","last_reported":1701860772,"current_range_meters":31200,"station_id":"","pricing_plan_id":"free"},{"bike_id":"4159c045-6a43-4667-b616-06cb15160293","system_id":"levelo_inurba_marseille","lat":43.301117,"lon":5.398795,"is_reserved":false,"is_disabled":false,"rental_uris":{"android":"levelo://app?vid=4159c045-6a43-4667-b616-06cb15160293","ios":"levelo://app?vid=4159c045-6a43-4667-b616-06cb15160293"},"vehicle_type_id":"4","last_reported":1701860772,"current_range_meters":5200,"station_id":"ce4bh0h2rcd13ifvqd40","pricing_plan_id":"free"},{"bike_id":"42f1ebac-a8c3-4510-afce-870ec8abe9ef","system_id":"levelo_inurba_marseille","lat":43.298681,"lon":5.397225,"is_reserved":false,"is_disabled":false,"rental_uris":{"android":"levelo://app?vid=42f1ebac-a8c3-4510-afce-870ec8abe9ef","ios":"levelo://app?vid=42f1ebac-a8c3-4510-afce-870ec8abe9ef"},"vehicle_type_id":"4","last_reported":1701860772,"current_range_meters":25200,"station_id":"ce4bh0h2rcd13ifvqd50","pricing_plan_id":"free"},{"bike_id":"f3722882-866b-4eb5-9ca1-b20a218d370a","system_id":"levelo_inurba_marseille","lat":43.286039,"lon":5.370679,"is_reserved":false,"is_disabled":false,"rental_uris":{"android":"levelo://app?vid=f3722882-866b-4eb5-9ca1-b20a218d370a","ios":"levelo://app?vid=f3722882-866b-4eb5-9ca1-b20a218d370a"},"vehicle_type_id":"4","last_reported":1701860772,"current_range_meters":7600,"station_id":"ce4bht12rcd13ifvqi60","pricing_plan_id":"free"},{"bike_id":"d98414f6-31d4-4b0d-a1af-c73216caf205","system_id":"levelo_inurba_marseille","lat":43.284538,"lon":5.358657,"is_reserved":false,"is_disabled":false,"rental_uris":{"android":"levelo://app?vid=d98414f6-31d4-4b0d-a1af-c73216caf205","ios":"levelo://app?vid=d98414f6-31d4-4b0d-a1af-c73216caf205"},"vehicle_type_id":"4","last_reported":1701860772,"current_range_meters":22000,"station_id":"ce4bhah2rcd13ifvqei0","pricing_plan_id":"free"},{"bike_id":"cee552b3-73ad-4fda-8ad6-af744f10f694","system_id":"levelo_inurba_marseille","lat":43.284538,"lon":5.358657,"is_reserved":false,"is_disabled":false,"rental_uris":{"android":"levelo://app?vid=cee552b3-73ad-4fda-8ad6-af744f10f694","ios":"levelo://app?vid=cee552b3-73ad-4fda-8ad6-af744f10f694"},"vehicle_type_id":"4","last_reported":1701860772,"current_range_meters":16000,"station_id":"ce4bhah2rcd13ifvqei0","pricing_plan_id":"free"},{"bike_id":"df718ffb-4daf-46cb-8c4a-21cd0ab771b2","system_id":"levelo_inurba_marseille","lat":43.28612,"lon":5.35103,"is_reserved":false,"is_disabled":false,"rental_uris":{"android":"levelo://app?vid=df718ffb-4daf-46cb-8c4a-21cd0ab771b2","ios":"levelo://app?vid=df718ffb-4daf-46cb-8c4a-21cd0ab771b2"},"vehicle_type_id":"4","last_reported":1701860772,"current_range_meters":24000,"station_id":"ce4bhch2rcd13ifvqeug","pricing_plan_id":"free"},{"bike_id":"74711f14-ddc8-4316-a046-88c0f3a1988c","system_id":"levelo_inurba_marseille","lat":43.286595,"lon":5.386795,"is_reserved":false,"is_disabled":false,"rental_uris":{"android":"levelo://app?vid=74711f14-ddc8-4316-a046-88c0f3a1988c","ios":"levelo://app?vid=74711f14-ddc8-4316-a046-88c0f3a1988c"},"vehicle_type_id":"4","last_reported":1701860772,"current_range_meters":7200,"station_id":"ce4bh492rcd13ifvqdug","pricing_plan_id":"free"},{"bike_id":"bdce97d1-1dd4-462e-8ce9-5c5401b8e703","system_id":"levelo_inurba_marseille","lat":43.337168,"lon":5.391825,"is_reserved":false,"is_disabled":false,"rental_uris":{"android":"levelo://app?vid=bdce97d1-1dd4-462e-8ce9-5c5401b8e703","ios":"levelo://app?vid=bdce97d1-1dd4-462e-8ce9-5c5401b8e703"},"vehicle_type_id":"4","last_reported":1701860772,"current_range_meters":29600,"station_id":"ce4bhr92rcd13ifvqhsg","pricing_plan_id":"free"},{"bike_id":"e9b9a87f-db28-4aeb-8cdf-dbd2a63e2564","system_id":"levelo_inurba_marseille","lat":43.323464,"lon":5.406297,"is_reserved":false,"is_disabled":false,"rental_uris":{"android":"levelo://app?vid=e9b9a87f-db28-4aeb-8cdf-dbd2a63e2564","ios":"levelo://app?vid=e9b9a87f-db28-4aeb-8cdf-dbd2a63e2564"},"vehicle_type_id":"4","last_reported":1701860772,"current_range_meters":26000,"station_id":"ce4bhq92rcd13ifvqhjg","pricing_plan_id":"free"},{"bike_id":"4f2ef520-7e2d-4e18-bde1-f8b4a9fdc705","system_id":"levelo_inurba_marseille","lat":43.283893,"lon":5.380625,"is_reserved":false,"is_disabled":false,"rental_uris":{"android":"levelo://app?vid=4f2ef520-7e2d-4e18-bde1-f8b4a9fdc705","ios":"levelo://app?vid=4f2ef520-7e2d-4e18-bde1-f8b4a9fdc705"},"vehicle_type_id":"4","last_reported":1701860772,"current_range_meters":1600,"station_id":"ce4bh412rcd13ifvqdr0","pricing_plan_id":"free"},{"bike_id":"bccd356d-6b5f-4a11-8f0b-6a41d9b183fe","system_id":"levelo_inurba_marseille","lat":43.284787,"lon":5.384116,"is_reserved":false,"is_disabled":false,"rental_uris":{"android":"levelo://app?vid=bccd356d-6b5f-4a11-8f0b-6a41d9b183fe","ios":"levelo://app?vid=bccd356d-6b5f-4a11-8f0b-6a41d9b183fe"},"vehicle_type_id":"4","last_reported":1701860772,"current_range_meters":1200,"station_id":"ce4bh512rcd13ifvqe3g","pricing_plan_id":"free"},{"bike_id":"853668e9-75b0-4a25-8994-2d431a903c0b","system_id":"levelo_inurba_marseille","lat":43.284219,"lon":5.3497,"is_reserved":false,"is_disabled":false,"rental_uris":{"android":"levelo://app?vid=853668e9-75b0-4a25-8994-2d431a903c0b","ios":"levelo://app?vid=853668e9-75b0-4a25-8994-2d431a903c0b"},"vehicle_type_id":"4","last_reported":1701860772,"current_range_meters":14000,"station_id":"ce4bhbh2rcd13ifvqepg","pricing_plan_id":"free"},{"bike_id":"a0cac094-f36e-4f8f-b1c3-4434d47d9706","system_id":"levelo_inurba_marseille","lat":43.284219,"lon":5.3497,"is_reserved":false,"is_disabled":false,"rental_uris":{"android":"levelo://app?vid=a0cac094-f36e-4f8f-b1c3-4434d47d9706","ios":"levelo://app?vid=a0cac094-f36e-4f8f-b1c3-4434d47d9706"},"vehicle_type_id":"4","last_reported":1701860772,"current_range_meters":18000,"station_id":"ce4bhbh2rcd13ifvqepg","pricing_plan_id":"free"},{"bike_id":"613ab8ec-afaa-44cf-bb21-e3179f4bcc32","system_id":"levelo_inurba_marseille","lat":43.282754,"lon":5.350519,"is_reserved":false,"is_disabled":false,"rental_uris":{"android":"levelo://app?vid=613ab8ec-afaa-44cf-bb21-e3179f4bcc32","ios":"levelo://app?vid=613ab8ec-afaa-44cf-bb21-e3179f4bcc32"},"vehicle_type_id":"4","last_reported":1701860772,"current_range_meters":22800,"station_id":"ce4bhbp2rcd13ifvqerg","pricing_plan_id":"free"},{"bike_id":"82162138-dd5e-4687-96db-0e6d351d432c","system_id":"levelo_inurba_marseille","lat":43.282744,"lon":5.350533,"is_reserved":false,"is_disabled":false,"rental_uris":{"android":"levelo://app?vid=82162138-dd5e-4687-96db-0e6d351d432c","ios":"levelo://app?vid=82162138-dd5e-4687-96db-0e6d351d432c"},"vehicle_type_id":"4","last_reported":1701860772,"current_range_meters":31600,"station_id":"ce4bhbp2rcd13ifvqerg","pricing_plan_id":"free"},{"bike_id":"804ef71e-9b93-4bd9-94f6-49c90ae43b32","system_id":"levelo_inurba_marseille","lat":43.282754,"lon":5.350519,"is_reserved":false,"is_disabled":false,"rental_uris":{"android":"levelo://app?vid=804ef71e-9b93-4bd9-94f6-49c90ae43b32","ios":"levelo://app?vid=804ef71e-9b93-4bd9-94f6-49c90ae43b32"},"vehicle_type_id":"4","last_reported":1701860772,"current_range_meters":15600,"station_id":"ce4bhbp2rcd13ifvqerg","pricing_plan_id":"free"},{"bike_id":"6cc005b4-cf8d-4082-944e-0b1c2e9fe431","system_id":"levelo_inurba_marseille","lat":43.282754,"lon":5.350519,"is_reserved":false,"is_disabled":false,"rental_uris":{"android":"levelo://app?vid=6cc005b4-cf8d-4082-944e-0b1c2e9fe431","ios":"levelo://app?vid=6cc005b4-cf8d-4082-944e-0b1c2e9fe431"},"vehicle_type_id":"4","last_reported":1701860772,"current_range_meters":0,"station_id":"ce4bhbp2rcd13ifvqerg","pricing_plan_id":"free"},{"bike_id":"276d8ac2-5059-405d-9f1b-e8f1340ee18f","system_id":"levelo_inurba_marseille","lat":43.282744,"lon":5.350533,"is_reserved":false,"is_disabled":false,"rental_uris":{"android":"levelo://app?vid=276d8ac2-5059-405d-9f1b-e8f1340ee18f","ios":"levelo://app?vid=276d8ac2-5059-405d-9f1b-e8f1340ee18f"},"vehicle_type_id":"4","last_reported":1701860772,"current_range_meters":25600,"station_id":"ce4bhbp2rcd13ifvqerg","pricing_plan_id":"free"},{"bike_id":"fbc90016-8702-4b4a-b95e-4c8797d06803","system_id":"levelo_inurba_marseille","lat":43.282754,"lon":5.350519,"is_reserved":false,"is_disabled":false,"rental_uris":{"android":"levelo://app?vid=fbc90016-8702-4b4a-b95e-4c8797d06803","ios":"levelo://app?vid=fbc90016-8702-4b4a-b95e-4c8797d06803"},"vehicle_type_id":"4","last_reported":1701860772,"current_range_meters":30400,"station_id":"ce4bhbp2rcd13ifvqerg","pricing_plan_id":"free"},{"bike_id":"d1f7eadb-3945-4c08-8f0c-6944bcb52b9d","system_id":"levelo_inurba_marseille","lat":43.326605,"lon":5.409903,"is_reserved":false,"is_disabled":false,"rental_uris":{"android":"levelo://app?vid=d1f7eadb-3945-4c08-8f0c-6944bcb52b9d","ios":"levelo://app?vid=d1f7eadb-3945-4c08-8f0c-6944bcb52b9d"},"vehicle_type_id":"4","last_reported":1701860772,"current_range_meters":14800,"station_id":"ce4bhpp2rcd13ifvqhgg","pricing_plan_id":"free"},{"bike_id":"135c48e2-0b37-415d-9357-b384f67466be","system_id":"levelo_inurba_marseille","lat":43.279087,"lon":5.380114,"is_reserved":false,"is_disabled":false,"rental_uris":{"android":"levelo://app?vid=135c48e2-0b37-415d-9357-b384f67466be","ios":"levelo://app?vid=135c48e2-0b37-415d-9357-b384f67466be"},"vehicle_type_id":"4","last_reported":1701860772,"current_range_meters":24400,"station_id":"ce4bhf92rcd13ifvqf50","pricing_plan_id":"free"},{"bike_id":"b94b8d0d-662f-4330-ad3a-54ed33102066","system_id":"levelo_inurba_marseille","lat":43.279087,"lon":5.380114,"is_reserved":false,"is_disabled":false,"rental_uris":{"android":"levelo://app?vid=b94b8d0d-662f-4330-ad3a-54ed33102066","ios":"levelo://app?vid=b94b8d0d-662f-4330-ad3a-54ed33102066"},"vehicle_type_id":"4","last_reported":1701860772,"current_range_meters":24400,"station_id":"ce4bhf92rcd13ifvqf50","pricing_plan_id":"free"},{"bike_id":"2006a0bc-e4b2-462c-bc65-d3a9889b453d","system_id":"levelo_inurba_marseille","lat":43.320045,"lon":5.415046,"is_reserved":false,"is_disabled":false,"rental_uris":{"android":"levelo://app?vid=2006a0bc-e4b2-462c-bc65-d3a9889b453d","ios":"levelo://app?vid=2006a0bc-e4b2-462c-bc65-d3a9889b453d"},"vehicle_type_id":"4","last_reported":1701860772,"current_range_meters":28800,"station_id":"ce4bhq92rcd13ifvqhkg","pricing_plan_id":"free"},{"bike_id":"0141a24c-f226-4a96-aec2-ad4a5ca6eac3","system_id":"levelo_inurba_marseille","lat":43.279742,"lon":5.38744,"is_reserved":false,"is_disabled":false,"rental_uris":{"android":"levelo://app?vid=0141a24c-f226-4a96-aec2-ad4a5ca6eac3","ios":"levelo://app?vid=0141a24c-f226-4a96-aec2-ad4a5ca6eac3"},"vehicle_type_id":"4","last_reported":1701860772,"current_range_meters":20400,"station_id":"ce4bhg12rcd13ifvqf80","pricing_plan_id":"free"},{"bike_id":"ea56f206-5c25-4f48-b8df-2e1afccbacf4","system_id":"levelo_inurba_marseille","lat":43.320045,"lon":5.415046,"is_reserved":false,"is_disabled":false,"rental_uris":{"android":"levelo://app?vid=ea56f206-5c25-4f48-b8df-2e1afccbacf4","ios":"levelo://app?vid=ea56f206-5c25-4f48-b8df-2e1afccbacf4"},"vehicle_type_id":"4","last_reported":1701860772,"current_range_meters":31600,"station_id":"ce4bhq92rcd13ifvqhkg","pricing_plan_id":"free"},{"bike_id":"f875c7c6-4aca-4be8-9481-f8750532292f","system_id":"levelo_inurba_marseille","lat":43.325233,"lon":5.414318,"is_reserved":false,"is_disabled":false,"rental_uris":{"android":"levelo://app?vid=f875c7c6-4aca-4be8-9481-f8750532292f","ios":"levelo://app?vid=f875c7c6-4aca-4be8-9481-f8750532292f"},"vehicle_type_id":"4","last_reported":1701860772,"current_range_meters":31600,"station_id":"ce4bhq12rcd13ifvqhhg","pricing_plan_id":"free"},{"bike_id":"379b00c3-53d4-4c68-bd0e-481dfbed790e","system_id":"levelo_inurba_marseille","lat":43.27618,"lon":5.361009,"is_reserved":false,"is_disabled":false,"rental_uris":{"android":"levelo://app?vid=379b00c3-53d4-4c68-bd0e-481dfbed790e","ios":"levelo://app?vid=379b00c3-53d4-4c68-bd0e-481dfbed790e"},"vehicle_type_id":"4","last_reported":1701860772,"current_range_meters":19200,"station_id":"ce4bgj92rcd13ifvqbe0","pricing_plan_id":"free"},{"bike_id":"b48fc1d6-c7da-451a-8c70-234dcc4c8cfe","system_id":"levelo_inurba_marseille","lat":43.325243,"lon":5.414326,"is_reserved":false,"is_disabled":false,"rental_uris":{"android":"levelo://app?vid=b48fc1d6-c7da-451a-8c70-234dcc4c8cfe","ios":"levelo://app?vid=b48fc1d6-c7da-451a-8c70-234dcc4c8cfe"},"vehicle_type_id":"4","last_reported":1701860772,"current_range_meters":30800,"station_id":"ce4bhq12rcd13ifvqhhg","pricing_plan_id":"free"},{"bike_id":"3d87c5f0-b93d-494a-92a8-ca4747021f49","system_id":"levelo_inurba_marseille","lat":43.325233,"lon":5.414318,"is_reserved":false,"is_disabled":false,"rental_uris":{"android":"levelo://app?vid=3d87c5f0-b93d-494a-92a8-ca4747021f49","ios":"levelo://app?vid=3d87c5f0-b93d-494a-92a8-ca4747021f49"},"vehicle_type_id":"4","last_reported":1701860772,"current_range_meters":0,"station_id":"ce4bhq12rcd13ifvqhhg","pricing_plan_id":"free"},{"bike_id":"473126b3-a7ed-4086-ac9d-62afe2108179","system_id":"levelo_inurba_marseille","lat":43.273609,"lon":5.362708,"is_reserved":false,"is_disabled":false,"rental_uris":{"android":"levelo://app?vid=473126b3-a7ed-4086-ac9d-62afe2108179","ios":"levelo://app?vid=473126b3-a7ed-4086-ac9d-62afe2108179"},"vehicle_type_id":"4","last_reported":1701860772,"current_range_meters":30000,"station_id":"ce4bhbh2rcd13ifvqeo0","pricing_plan_id":"free"},{"bike_id":"aa6ce2fc-ad88-4844-a4c0-c13bf514035e","system_id":"levelo_inurba_marseille","lat":43.33612,"lon":5.410321,"is_reserved":false,"is_disabled":false,"rental_uris":{"android":"levelo://app?vid=aa6ce2fc-ad88-4844-a4c0-c13bf514035e","ios":"levelo://app?vid=aa6ce2fc-ad88-4844-a4c0-c13bf514035e"},"vehicle_type_id":"4","last_reported":1701860772,"current_range_meters":31200,"station_id":"ce4bhqh2rcd13ifvqhmg","pricing_plan_id":"free"},{"bike_id":"4dc8b4c6-3c57-4ac8-863c-a18c52532c59","system_id":"levelo_inurba_marseille","lat":43.275625,"lon":5.384392,"is_reserved":false,"is_disabled":false,"rental_uris":{"android":"levelo://app?vid=4dc8b4c6-3c57-4ac8-863c-a18c52532c59","ios":"levelo://app?vid=4dc8b4c6-3c57-4ac8-863c-a18c52532c59"},"vehicle_type_id":"4","last_reported":1701860772,"current_range_meters":30000,"station_id":"ce4bhh92rcd13ifvqfi0","pricing_plan_id":"free"},{"bike_id":"076554a3-e24b-4502-a802-66fb57b131f3","system_id":"levelo_inurba_marseille","lat":43.33612,"lon":5.410321,"is_reserved":false,"is_disabled":false,"rental_uris":{"android":"levelo://app?vid=076554a3-e24b-4502-a802-66fb57b131f3","ios":"levelo://app?vid=076554a3-e24b-4502-a802-66fb57b131f3"},"vehicle_type_id":"4","last_reported":1701860772,"current_range_meters":31200,"station_id":"ce4bhqh2rcd13ifvqhmg","pricing_plan_id":"free"},{"bike_id":"0d6360d2-75d9-4d43-9449-6f2f60f16a7f","system_id":"levelo_inurba_marseille","lat":43.336134,"lon":5.410341,"is_reserved":false,"is_disabled":false,"rental_uris":{"android":"levelo://app?vid=0d6360d2-75d9-4d43-9449-6f2f60f16a7f","ios":"levelo://app?vid=0d6360d2-75d9-4d43-9449-6f2f60f16a7f"},"vehicle_type_id":"4","last_reported":1701860772,"current_range_meters":31600,"station_id":"ce4bhqh2rcd13ifvqhmg","pricing_plan_id":"free"},{"bike_id":"c1c73284-745f-401b-b04b-689c24909521","system_id":"levelo_inurba_marseille","lat":43.336134,"lon":5.410341,"is_reserved":false,"is_disabled":false,"rental_uris":{"android":"levelo://app?vid=c1c73284-745f-401b-b04b-689c24909521","ios":"levelo://app?vid=c1c73284-745f-401b-b04b-689c24909521"},"vehicle_type_id":"4","last_reported":1701860772,"current_range_meters":19200,"station_id":"ce4bhqh2rcd13ifvqhmg","pricing_plan_id":"free"},{"bike_id":"5fa76b81-5e37-444a-908e-bdaaa267bf1c","system_id":"levelo_inurba_marseille","lat":43.273613,"lon":5.362705,"is_reserved":false,"is_disabled":false,"rental_uris":{"android":"levelo://app?vid=5fa76b81-5e37-444a-908e-bdaaa267bf1c","ios":"levelo://app?vid=5fa76b81-5e37-444a-908e-bdaaa267bf1c"},"vehicle_type_id":"4","last_reported":1701860772,"current_range_meters":29600,"station_id":"ce4bhbh2rcd13ifvqeo0","pricing_plan_id":"free"},{"bike_id":"bab02de6-0a9a-4351-bf13-f8c4fa615b8a","system_id":"levelo_inurba_marseille","lat":43.317121,"lon":5.423936,"is_reserved":false,"is_disabled":false,"rental_uris":{"android":"levelo://app?vid=bab02de6-0a9a-4351-bf13-f8c4fa615b8a","ios":"levelo://app?vid=bab02de6-0a9a-4351-bf13-f8c4fa615b8a"},"vehicle_type_id":"4","last_reported":1701860772,"current_range_meters":3600,"station_id":"ce4bhp92rcd13ifvqhbg","pricing_plan_id":"free"},{"bike_id":"989a01d2-f2a9-4c11-8a79-9792d64b5413","system_id":"levelo_inurba_marseille","lat":43.27622,"lon":5.39483,"is_reserved":false,"is_disabled":false,"rental_uris":{"android":"levelo://app?vid=989a01d2-f2a9-4c11-8a79-9792d64b5413","ios":"levelo://app?vid=989a01d2-f2a9-4c11-8a79-9792d64b5413"},"vehicle_type_id":"4","last_reported":1701860772,"current_range_meters":9200,"station_id":"","pricing_plan_id":"free"},{"bike_id":"d274b1da-77c0-4e29-9dc2-a2e765f95340","system_id":"levelo_inurba_marseille","lat":43.310785,"lon":5.424305,"is_reserved":false,"is_disabled":false,"rental_uris":{"android":"levelo://app?vid=d274b1da-77c0-4e29-9dc2-a2e765f95340","ios":"levelo://app?vid=d274b1da-77c0-4e29-9dc2-a2e765f95340"},"vehicle_type_id":"4","last_reported":1701860772,"current_range_meters":31200,"station_id":"ce4bhp92rcd13ifvqhag","pricing_plan_id":"free"},{"bike_id":"910fd3aa-d2e0-4553-894a-6161d41c7fcd","system_id":"levelo_inurba_marseille","lat":43.27567,"lon":5.39542,"is_reserved":false,"is_disabled":false,"rental_uris":{"android":"levelo://app?vid=910fd3aa-d2e0-4553-894a-6161d41c7fcd","ios":"levelo://app?vid=910fd3aa-d2e0-4553-894a-6161d41c7fcd"},"vehicle_type_id":"4","last_reported":1701860772,"current_range_meters":3200,"station_id":"","pricing_plan_id":"free"},{"bike_id":"85a05c56-6d8a-433d-b0c1-925fe133325c","system_id":"levelo_inurba_marseille","lat":43.295523,"lon":5.422926,"is_reserved":false,"is_disabled":false,"rental_uris":{"android":"levelo://app?vid=85a05c56-6d8a-433d-b0c1-925fe133325c","ios":"levelo://app?vid=85a05c56-6d8a-433d-b0c1-925fe133325c"},"vehicle_type_id":"4","last_reported":1701860772,"current_range_meters":25600,"station_id":"ce4bhph2rcd13ifvqhdg","pricing_plan_id":"free"},{"bike_id":"3774b230-b904-4659-8857-4b8e72ad28f6","system_id":"levelo_inurba_marseille","lat":43.272116,"lon":5.391747,"is_reserved":false,"is_disabled":false,"rental_uris":{"android":"levelo://app?vid=3774b230-b904-4659-8857-4b8e72ad28f6","ios":"levelo://app?vid=3774b230-b904-4659-8857-4b8e72ad28f6"},"vehicle_type_id":"4","last_reported":1701860772,"current_range_meters":16400,"station_id":"ce4bhhp2rcd13ifvqfm0","pricing_plan_id":"free"},{"bike_id":"4aaafaa4-5992-4d41-aca4-45ea537c3e9e","system_id":"levelo_inurba_marseille","lat":43.27214,"lon":5.3925,"is_reserved":false,"is_disabled":false,"rental_uris":{"android":"levelo://app?vid=4aaafaa4-5992-4d41-aca4-45ea537c3e9e","ios":"levelo://app?vid=4aaafaa4-5992-4d41-aca4-45ea537c3e9e"},"vehicle_type_id":"4","last_reported":1701860772,"current_range_meters":13600,"station_id":"","pricing_plan_id":"free"},{"bike_id":"ad84dfe1-b880-4863-b7bb-7cd1d6c5f297","system_id":"levelo_inurba_marseille","lat":43.265714,"lon":5.372891,"is_reserved":false,"is_disabled":false,"rental_uris":{"android":"levelo://app?vid=ad84dfe1-b880-4863-b7bb-7cd1d6c5f297","ios":"levelo://app?vid=ad84dfe1-b880-4863-b7bb-7cd1d6c5f297"},"vehicle_type_id":"4","last_reported":1701860772,"current_range_meters":11200,"station_id":"ce4bhg12rcd13ifvqf70","pricing_plan_id":"free"},{"bike_id":"14e7e3c7-dcfe-43d1-9152-ec26d225aa6f","system_id":"levelo_inurba_marseille","lat":43.26561,"lon":5.38998,"is_reserved":false,"is_disabled":false,"rental_uris":{"android":"levelo://app?vid=14e7e3c7-dcfe-43d1-9152-ec26d225aa6f","ios":"levelo://app?vid=14e7e3c7-dcfe-43d1-9152-ec26d225aa6f"},"vehicle_type_id":"4","last_reported":1701860772,"current_range_meters":19600,"station_id":"ce4bhe12rcd13ifvqf30","pricing_plan_id":"free"},{"bike_id":"6fc13b39-dc60-4579-9ec6-d34bdf23f1d4","system_id":"levelo_inurba_marseille","lat":43.265571,"lon":5.390032,"is_reserved":false,"is_disabled":false,"rental_uris":{"android":"levelo://app?vid=6fc13b39-dc60-4579-9ec6-d34bdf23f1d4","ios":"levelo://app?vid=6fc13b39-dc60-4579-9ec6-d34bdf23f1d4"},"vehicle_type_id":"4","last_reported":1701860772,"current_range_meters":29200,"station_id":"ce4bhe12rcd13ifvqf30","pricing_plan_id":"free"},{"bike_id":"f629de2b-e283-405e-bc63-64b64165dab4","system_id":"levelo_inurba_marseille","lat":43.26949,"lon":5.40262,"is_reserved":false,"is_disabled":false,"rental_uris":{"android":"levelo://app?vid=f629de2b-e283-405e-bc63-64b64165dab4","ios":"levelo://app?vid=f629de2b-e283-405e-bc63-64b64165dab4"},"vehicle_type_id":"4","last_reported":1701860772,"current_range_meters":18000,"station_id":"cjm6bp8fraef2m0cb0m0","pricing_plan_id":"free"},{"bike_id":"ea48d76d-9072-44ec-b5e6-3283269e01e2","system_id":"levelo_inurba_marseille","lat":43.26186,"lon":5.37444,"is_reserved":false,"is_disabled":false,"rental_uris":{"android":"levelo://app?vid=ea48d76d-9072-44ec-b5e6-3283269e01e2","ios":"levelo://app?vid=ea48d76d-9072-44ec-b5e6-3283269e01e2"},"vehicle_type_id":"4","last_reported":1701860772,"current_range_meters":15600,"station_id":"ce4bhgp2rcd13ifvqfc0","pricing_plan_id":"free"},{"bike_id":"d34f1926-154d-4d52-992c-e77774b98020","system_id":"levelo_inurba_marseille","lat":43.26185,"lon":5.37445,"is_reserved":false,"is_disabled":false,"rental_uris":{"android":"levelo://app?vid=d34f1926-154d-4d52-992c-e77774b98020","ios":"levelo://app?vid=d34f1926-154d-4d52-992c-e77774b98020"},"vehicle_type_id":"4","last_reported":1701860772,"current_range_meters":14400,"station_id":"ce4bhgp2rcd13ifvqfc0","pricing_plan_id":"free"},{"bike_id":"80de87bc-b145-4309-9130-245a2ab6bfc3","system_id":"levelo_inurba_marseille","lat":43.26184,"lon":5.37443,"is_reserved":false,"is_disabled":false,"rental_uris":{"android":"levelo://app?vid=80de87bc-b145-4309-9130-245a2ab6bfc3","ios":"levelo://app?vid=80de87bc-b145-4309-9130-245a2ab6bfc3"},"vehicle_type_id":"4","last_reported":1701860772,"current_range_meters":28000,"station_id":"ce4bhgp2rcd13ifvqfc0","pricing_plan_id":"free"},{"bike_id":"b0af9688-a936-4e90-9791-121a375ecba2","system_id":"levelo_inurba_marseille","lat":43.262012,"lon":5.379307,"is_reserved":false,"is_disabled":false,"rental_uris":{"android":"levelo://app?vid=b0af9688-a936-4e90-9791-121a375ecba2","ios":"levelo://app?vid=b0af9688-a936-4e90-9791-121a375ecba2"},"vehicle_type_id":"4","last_reported":1701860772,"current_range_meters":20000,"station_id":"ce4bhjp2rcd13ifvqg90","pricing_plan_id":"free"},{"bike_id":"5490973b-d06a-40ee-bc16-1637a7d110d1","system_id":"levelo_inurba_marseille","lat":43.26202,"lon":5.379299,"is_reserved":false,"is_disabled":false,"rental_uris":{"android":"levelo://app?vid=5490973b-d06a-40ee-bc16-1637a7d110d1","ios":"levelo://app?vid=5490973b-d06a-40ee-bc16-1637a7d110d1"},"vehicle_type_id":"4","last_reported":1701860772,"current_range_meters":22000,"station_id":"ce4bhjp2rcd13ifvqg90","pricing_plan_id":"free"},{"bike_id":"37038aca-97ca-4cb2-81d0-9a4826818ca5","system_id":"levelo_inurba_marseille","lat":43.26202,"lon":5.379299,"is_reserved":false,"is_disabled":false,"rental_uris":{"android":"levelo://app?vid=37038aca-97ca-4cb2-81d0-9a4826818ca5","ios":"levelo://app?vid=37038aca-97ca-4cb2-81d0-9a4826818ca5"},"vehicle_type_id":"4","last_reported":1701860772,"current_range_meters":31200,"station_id":"ce4bhjp2rcd13ifvqg90","pricing_plan_id":"free"},{"bike_id":"781f69ff-1870-4a02-8487-6993f6066965","system_id":"levelo_inurba_marseille","lat":43.26202,"lon":5.379299,"is_reserved":false,"is_disabled":false,"rental_uris":{"android":"levelo://app?vid=781f69ff-1870-4a02-8487-6993f6066965","ios":"levelo://app?vid=781f69ff-1870-4a02-8487-6993f6066965"},"vehicle_type_id":"4","last_reported":1701860772,"current_range_meters":800,"station_id":"ce4bhjp2rcd13ifvqg90","pricing_plan_id":"free"},{"bike_id":"649dce02-0c73-4bb2-89c8-ff6b1d2a978e","system_id":"levelo_inurba_marseille","lat":43.2607,"lon":5.393983,"is_reserved":false,"is_disabled":false,"rental_uris":{"android":"levelo://app?vid=649dce02-0c73-4bb2-89c8-ff6b1d2a978e","ios":"levelo://app?vid=649dce02-0c73-4bb2-89c8-ff6b1d2a978e"},"vehicle_type_id":"4","last_reported":1701860772,"current_range_meters":14000,"station_id":"ce4bhh92rcd13ifvqfj0","pricing_plan_id":"free"},{"bike_id":"b17acb79-8ff9-4994-8913-ceea6f4e3c6d","system_id":"levelo_inurba_marseille","lat":43.2607,"lon":5.393983,"is_reserved":false,"is_disabled":false,"rental_uris":{"android":"levelo://app?vid=b17acb79-8ff9-4994-8913-ceea6f4e3c6d","ios":"levelo://app?vid=b17acb79-8ff9-4994-8913-ceea6f4e3c6d"},"vehicle_type_id":"4","last_reported":1701860772,"current_range_meters":11600,"station_id":"ce4bhh92rcd13ifvqfj0","pricing_plan_id":"free"},{"bike_id":"e1cd39b2-a8cb-4db8-8345-244b571b9d03","system_id":"levelo_inurba_marseille","lat":43.2607,"lon":5.393983,"is_reserved":false,"is_disabled":false,"rental_uris":{"android":"levelo://app?vid=e1cd39b2-a8cb-4db8-8345-244b571b9d03","ios":"levelo://app?vid=e1cd39b2-a8cb-4db8-8345-244b571b9d03"},"vehicle_type_id":"4","last_reported":1701860772,"current_range_meters":29200,"station_id":"ce4bhh92rcd13ifvqfj0","pricing_plan_id":"free"},{"bike_id":"df08b0c8-8fc5-4d44-80ef-fa79d34eefa9","system_id":"levelo_inurba_marseille","lat":43.26083,"lon":5.39765,"is_reserved":false,"is_disabled":false,"rental_uris":{"android":"levelo://app?vid=df08b0c8-8fc5-4d44-80ef-fa79d34eefa9","ios":"levelo://app?vid=df08b0c8-8fc5-4d44-80ef-fa79d34eefa9"},"vehicle_type_id":"4","last_reported":1701860772,"current_range_meters":17600,"station_id":"","pricing_plan_id":"free"},{"bike_id":"796379eb-4515-4ec1-9f35-026d8489ea2e","system_id":"levelo_inurba_marseille","lat":43.25582,"lon":5.38233,"is_reserved":false,"is_disabled":false,"rental_uris":{"android":"levelo://app?vid=796379eb-4515-4ec1-9f35-026d8489ea2e","ios":"levelo://app?vid=796379eb-4515-4ec1-9f35-026d8489ea2e"},"vehicle_type_id":"4","last_reported":1701860772,"current_range_meters":22400,"station_id":"ce4bhih2rcd13ifvqfs0","pricing_plan_id":"free"},{"bike_id":"1f2517dd-592c-4266-8461-55777516d029","system_id":"levelo_inurba_marseille","lat":43.25578,"lon":5.38232,"is_reserved":false,"is_disabled":false,"rental_uris":{"android":"levelo://app?vid=1f2517dd-592c-4266-8461-55777516d029","ios":"levelo://app?vid=1f2517dd-592c-4266-8461-55777516d029"},"vehicle_type_id":"4","last_reported":1701860772,"current_range_meters":15600,"station_id":"ce4bhih2rcd13ifvqfs0","pricing_plan_id":"free"},{"bike_id":"b6b4f0ad-8a93-4ad8-894c-455dc0195be0","system_id":"levelo_inurba_marseille","lat":43.25577,"lon":5.38229,"is_reserved":false,"is_disabled":false,"rental_uris":{"android":"levelo://app?vid=b6b4f0ad-8a93-4ad8-894c-455dc0195be0","ios":"levelo://app?vid=b6b4f0ad-8a93-4ad8-894c-455dc0195be0"},"vehicle_type_id":"4","last_reported":1701860772,"current_range_meters":19600,"station_id":"ce4bhih2rcd13ifvqfs0","pricing_plan_id":"free"},{"bike_id":"ead30eeb-cf14-49da-b2f1-659c5ff86b2b","system_id":"levelo_inurba_marseille","lat":43.25576,"lon":5.3823,"is_reserved":false,"is_disabled":false,"rental_uris":{"android":"levelo://app?vid=ead30eeb-cf14-49da-b2f1-659c5ff86b2b","ios":"levelo://app?vid=ead30eeb-cf14-49da-b2f1-659c5ff86b2b"},"vehicle_type_id":"4","last_reported":1701860772,"current_range_meters":28000,"station_id":"ce4bhih2rcd13ifvqfs0","pricing_plan_id":"free"},{"bike_id":"cd43ec16-893c-4ded-8847-b34e32b4dc30","system_id":"levelo_inurba_marseille","lat":43.25576,"lon":5.38239,"is_reserved":false,"is_disabled":false,"rental_uris":{"android":"levelo://app?vid=cd43ec16-893c-4ded-8847-b34e32b4dc30","ios":"levelo://app?vid=cd43ec16-893c-4ded-8847-b34e32b4dc30"},"vehicle_type_id":"4","last_reported":1701860772,"current_range_meters":28400,"station_id":"ce4bhih2rcd13ifvqfs0","pricing_plan_id":"free"},{"bike_id":"7acc7135-771c-4029-aec0-da91ab61267c","system_id":"levelo_inurba_marseille","lat":43.25575,"lon":5.38234,"is_reserved":false,"is_disabled":false,"rental_uris":{"android":"levelo://app?vid=7acc7135-771c-4029-aec0-da91ab61267c","ios":"levelo://app?vid=7acc7135-771c-4029-aec0-da91ab61267c"},"vehicle_type_id":"4","last_reported":1701860772,"current_range_meters":30000,"station_id":"ce4bhih2rcd13ifvqfs0","pricing_plan_id":"free"},{"bike_id":"f6225bef-2316-4fa7-a461-2a35560205b5","system_id":"levelo_inurba_marseille","lat":43.255,"lon":5.3765,"is_reserved":false,"is_disabled":false,"rental_uris":{"android":"levelo://app?vid=f6225bef-2316-4fa7-a461-2a35560205b5","ios":"levelo://app?vid=f6225bef-2316-4fa7-a461-2a35560205b5"},"vehicle_type_id":"4","last_reported":1701860772,"current_range_meters":25200,"station_id":"ce4bhh12rcd13ifvqff0","pricing_plan_id":"free"},{"bike_id":"5e5e7574-4f45-48e4-936b-03f30d961b04","system_id":"levelo_inurba_marseille","lat":43.25498,"lon":5.37652,"is_reserved":false,"is_disabled":false,"rental_uris":{"android":"levelo://app?vid=5e5e7574-4f45-48e4-936b-03f30d961b04","ios":"levelo://app?vid=5e5e7574-4f45-48e4-936b-03f30d961b04"},"vehicle_type_id":"4","last_reported":1701860772,"current_range_meters":17600,"station_id":"ce4bhh12rcd13ifvqff0","pricing_plan_id":"free"},{"bike_id":"43e7b003-fe1d-4b48-9785-5d4121793baf","system_id":"levelo_inurba_marseille","lat":43.25497,"lon":5.37648,"is_reserved":false,"is_disabled":false,"rental_uris":{"android":"levelo://app?vid=43e7b003-fe1d-4b48-9785-5d4121793baf","ios":"levelo://app?vid=43e7b003-fe1d-4b48-9785-5d4121793baf"},"vehicle_type_id":"4","last_reported":1701860772,"current_range_meters":22000,"station_id":"ce4bhh12rcd13ifvqff0","pricing_plan_id":"free"},{"bike_id":"a24b8dfe-73ee-4c76-bad5-c4cde54dee11","system_id":"levelo_inurba_marseille","lat":43.254947,"lon":5.376454,"is_reserved":false,"is_disabled":false,"rental_uris":{"android":"levelo://app?vid=a24b8dfe-73ee-4c76-bad5-c4cde54dee11","ios":"levelo://app?vid=a24b8dfe-73ee-4c76-bad5-c4cde54dee11"},"vehicle_type_id":"4","last_reported":1701860772,"current_range_meters":21200,"station_id":"ce4bhh12rcd13ifvqff0","pricing_plan_id":"free"},{"bike_id":"8f76b8d1-fa52-454f-8458-03a35620fc5e","system_id":"levelo_inurba_marseille","lat":43.258658,"lon":5.398935,"is_reserved":false,"is_disabled":false,"rental_uris":{"android":"levelo://app?vid=8f76b8d1-fa52-454f-8458-03a35620fc5e","ios":"levelo://app?vid=8f76b8d1-fa52-454f-8458-03a35620fc5e"},"vehicle_type_id":"4","last_reported":1701860772,"current_range_meters":11200,"station_id":"ce4bhl92rcd13ifvqghg","pricing_plan_id":"free"},{"bike_id":"50d78045-fcc5-47a3-89c4-74dbb7805bbd","system_id":"levelo_inurba_marseille","lat":43.259009,"lon":5.40929,"is_reserved":false,"is_disabled":false,"rental_uris":{"android":"levelo://app?vid=50d78045-fcc5-47a3-89c4-74dbb7805bbd","ios":"levelo://app?vid=50d78045-fcc5-47a3-89c4-74dbb7805bbd"},"vehicle_type_id":"4","last_reported":1701860772,"current_range_meters":19600,"station_id":"ce4bhm92rcd13ifvqglg","pricing_plan_id":"free"},{"bike_id":"b2a211c2-601f-4a2e-82b4-5e5b1d16fc19","system_id":"levelo_inurba_marseille","lat":43.259013,"lon":5.409301,"is_reserved":false,"is_disabled":false,"rental_uris":{"android":"levelo://app?vid=b2a211c2-601f-4a2e-82b4-5e5b1d16fc19","ios":"levelo://app?vid=b2a211c2-601f-4a2e-82b4-5e5b1d16fc19"},"vehicle_type_id":"4","last_reported":1701860772,"current_range_meters":24400,"station_id":"ce4bhm92rcd13ifvqglg","pricing_plan_id":"free"},{"bike_id":"548c7f17-0194-4147-882d-b89d8371937f","system_id":"levelo_inurba_marseille","lat":43.259013,"lon":5.409301,"is_reserved":false,"is_disabled":false,"rental_uris":{"android":"levelo://app?vid=548c7f17-0194-4147-882d-b89d8371937f","ios":"levelo://app?vid=548c7f17-0194-4147-882d-b89d8371937f"},"vehicle_type_id":"4","last_reported":1701860772,"current_range_meters":4800,"station_id":"ce4bhm92rcd13ifvqglg","pricing_plan_id":"free"},{"bike_id":"f7a3c831-0d71-4769-894a-43870d07313a","system_id":"levelo_inurba_marseille","lat":43.250852,"lon":5.395324,"is_reserved":false,"is_disabled":false,"rental_uris":{"android":"levelo://app?vid=f7a3c831-0d71-4769-894a-43870d07313a","ios":"levelo://app?vid=f7a3c831-0d71-4769-894a-43870d07313a"},"vehicle_type_id":"4","last_reported":1701860772,"current_range_meters":22800,"station_id":"","pricing_plan_id":"free"},{"bike_id":"ff1e4aa2-388f-4317-ae98-075f3505e951","system_id":"levelo_inurba_marseille","lat":43.24693,"lon":5.382096,"is_reserved":false,"is_disabled":false,"rental_uris":{"android":"levelo://app?vid=ff1e4aa2-388f-4317-ae98-075f3505e951","ios":"levelo://app?vid=ff1e4aa2-388f-4317-ae98-075f3505e951"},"vehicle_type_id":"4","last_reported":1701860772,"current_range_meters":7600,"station_id":"ce4bhih2rcd13ifvqfr0","pricing_plan_id":"free"},{"bike_id":"7e46825a-cc07-42c9-9a28-ca5249d29ad4","system_id":"levelo_inurba_marseille","lat":43.246461,"lon":5.389014,"is_reserved":false,"is_disabled":false,"rental_uris":{"android":"levelo://app?vid=7e46825a-cc07-42c9-9a28-ca5249d29ad4","ios":"levelo://app?vid=7e46825a-cc07-42c9-9a28-ca5249d29ad4"},"vehicle_type_id":"4","last_reported":1701860772,"current_range_meters":25200,"station_id":"ce4bhg12rcd13ifvqf60","pricing_plan_id":"free"},{"bike_id":"fd6502c0-948f-4120-8340-e8cce970e043","system_id":"levelo_inurba_marseille","lat":43.245581,"lon":5.395069,"is_reserved":false,"is_disabled":false,"rental_uris":{"android":"levelo://app?vid=fd6502c0-948f-4120-8340-e8cce970e043","ios":"levelo://app?vid=fd6502c0-948f-4120-8340-e8cce970e043"},"vehicle_type_id":"4","last_reported":1701860772,"current_range_meters":0,"station_id":"ce4bhlp2rcd13ifvqgjg","pricing_plan_id":"free"},{"bike_id":"dbb8831c-ffaa-4f0b-a935-ed7179a93d23","system_id":"levelo_inurba_marseille","lat":43.239588,"lon":5.366238,"is_reserved":false,"is_disabled":false,"rental_uris":{"android":"levelo://app?vid=dbb8831c-ffaa-4f0b-a935-ed7179a93d23","ios":"levelo://app?vid=dbb8831c-ffaa-4f0b-a935-ed7179a93d23"},"vehicle_type_id":"4","last_reported":1701860772,"current_range_meters":14000,"station_id":"ce4bhi12rcd13ifvqfp0","pricing_plan_id":"free"},{"bike_id":"ef4af5e2-1e0c-48d3-a327-14e9e7d4feb4","system_id":"levelo_inurba_marseille","lat":43.239588,"lon":5.366238,"is_reserved":false,"is_disabled":false,"rental_uris":{"android":"levelo://app?vid=ef4af5e2-1e0c-48d3-a327-14e9e7d4feb4","ios":"levelo://app?vid=ef4af5e2-1e0c-48d3-a327-14e9e7d4feb4"},"vehicle_type_id":"4","last_reported":1701860772,"current_range_meters":23200,"station_id":"ce4bhi12rcd13ifvqfp0","pricing_plan_id":"free"},{"bike_id":"9c221d60-0ce3-4747-a2c0-588cb5550f28","system_id":"levelo_inurba_marseille","lat":43.239588,"lon":5.366238,"is_reserved":false,"is_disabled":false,"rental_uris":{"android":"levelo://app?vid=9c221d60-0ce3-4747-a2c0-588cb5550f28","ios":"levelo://app?vid=9c221d60-0ce3-4747-a2c0-588cb5550f28"},"vehicle_type_id":"4","last_reported":1701860772,"current_range_meters":13200,"station_id":"ce4bhi12rcd13ifvqfp0","pricing_plan_id":"free"},{"bike_id":"bb7e11cd-e8e4-4c15-a56d-f98678906baa","system_id":"levelo_inurba_marseille","lat":43.241782,"lon":5.397261,"is_reserved":false,"is_disabled":false,"rental_uris":{"android":"levelo://app?vid=bb7e11cd-e8e4-4c15-a56d-f98678906baa","ios":"levelo://app?vid=bb7e11cd-e8e4-4c15-a56d-f98678906baa"},"vehicle_type_id":"4","last_reported":1701860772,"current_range_meters":23600,"station_id":"ce4bhn12rcd13ifvqgpg","pricing_plan_id":"free"},{"bike_id":"488fea8d-5d5d-4e63-bb22-0d336c47de9f","system_id":"levelo_inurba_marseille","lat":43.231919,"lon":5.355532,"is_reserved":false,"is_disabled":false,"rental_uris":{"android":"levelo://app?vid=488fea8d-5d5d-4e63-bb22-0d336c47de9f","ios":"levelo://app?vid=488fea8d-5d5d-4e63-bb22-0d336c47de9f"},"vehicle_type_id":"4","last_reported":1701860772,"current_range_meters":30800,"station_id":"ce4bhu92rcd13ifvqi70","pricing_plan_id":"free"},{"bike_id":"d5908d91-a779-4c80-b8df-b4b2a7ea82cd","system_id":"levelo_inurba_marseille","lat":43.23195,"lon":5.35555,"is_reserved":false,"is_disabled":false,"rental_uris":{"android":"levelo://app?vid=d5908d91-a779-4c80-b8df-b4b2a7ea82cd","ios":"levelo://app?vid=d5908d91-a779-4c80-b8df-b4b2a7ea82cd"},"vehicle_type_id":"4","last_reported":1701860772,"current_range_meters":8400,"station_id":"ce4bhu92rcd13ifvqi70","pricing_plan_id":"free"},{"bike_id":"952bb64a-f2b8-41ed-a0e1-95250067da8a","system_id":"levelo_inurba_marseille","lat":43.231919,"lon":5.355532,"is_reserved":false,"is_disabled":false,"rental_uris":{"android":"levelo://app?vid=952bb64a-f2b8-41ed-a0e1-95250067da8a","ios":"levelo://app?vid=952bb64a-f2b8-41ed-a0e1-95250067da8a"},"vehicle_type_id":"4","last_reported":1701860772,"current_range_meters":31200,"station_id":"ce4bhu92rcd13ifvqi70","pricing_plan_id":"free"},{"bike_id":"d868c0b5-242c-4b9f-b108-cbde91aaec79","system_id":"levelo_inurba_marseille","lat":43.23192,"lon":5.35547,"is_reserved":false,"is_disabled":false,"rental_uris":{"android":"levelo://app?vid=d868c0b5-242c-4b9f-b108-cbde91aaec79","ios":"levelo://app?vid=d868c0b5-242c-4b9f-b108-cbde91aaec79"},"vehicle_type_id":"4","last_reported":1701860772,"current_range_meters":21200,"station_id":"ce4bhu92rcd13ifvqi70","pricing_plan_id":"free"},{"bike_id":"27e0da67-71ec-421f-9dc7-c0e82722cc4a","system_id":"levelo_inurba_marseille","lat":43.231919,"lon":5.355532,"is_reserved":false,"is_disabled":false,"rental_uris":{"android":"levelo://app?vid=27e0da67-71ec-421f-9dc7-c0e82722cc4a","ios":"levelo://app?vid=27e0da67-71ec-421f-9dc7-c0e82722cc4a"},"vehicle_type_id":"4","last_reported":1701860772,"current_range_meters":15200,"station_id":"ce4bhu92rcd13ifvqi70","pricing_plan_id":"free"},{"bike_id":"6c736aaf-3d47-4fdd-bdfa-8a0c66d47e7c","system_id":"levelo_inurba_marseille","lat":43.231919,"lon":5.355532,"is_reserved":false,"is_disabled":false,"rental_uris":{"android":"levelo://app?vid=6c736aaf-3d47-4fdd-bdfa-8a0c66d47e7c","ios":"levelo://app?vid=6c736aaf-3d47-4fdd-bdfa-8a0c66d47e7c"},"vehicle_type_id":"4","last_reported":1701860772,"current_range_meters":13600,"station_id":"ce4bhu92rcd13ifvqi70","pricing_plan_id":"free"},{"bike_id":"ecb69fe0-b950-4f7e-9e11-dd4721371dd6","system_id":"levelo_inurba_marseille","lat":43.2319,"lon":5.3555,"is_reserved":false,"is_disabled":false,"rental_uris":{"android":"levelo://app?vid=ecb69fe0-b950-4f7e-9e11-dd4721371dd6","ios":"levelo://app?vid=ecb69fe0-b950-4f7e-9e11-dd4721371dd6"},"vehicle_type_id":"4","last_reported":1701860772,"current_range_meters":10400,"station_id":"ce4bhu92rcd13ifvqi70","pricing_plan_id":"free"},{"bike_id":"e2fb0602-0025-4bc2-a80e-ca4c6079bddc","system_id":"levelo_inurba_marseille","lat":43.2319,"lon":5.35544,"is_reserved":false,"is_disabled":false,"rental_uris":{"android":"levelo://app?vid=e2fb0602-0025-4bc2-a80e-ca4c6079bddc","ios":"levelo://app?vid=e2fb0602-0025-4bc2-a80e-ca4c6079bddc"},"vehicle_type_id":"4","last_reported":1701860772,"current_range_meters":26000,"station_id":"ce4bhu92rcd13ifvqi70","pricing_plan_id":"free"},{"bike_id":"31764ff6-d6c0-4767-bea3-3fa0c41ee1a1","system_id":"levelo_inurba_marseille","lat":43.231919,"lon":5.355532,"is_reserved":false,"is_disabled":false,"rental_uris":{"android":"levelo://app?vid=31764ff6-d6c0-4767-bea3-3fa0c41ee1a1","ios":"levelo://app?vid=31764ff6-d6c0-4767-bea3-3fa0c41ee1a1"},"vehicle_type_id":"4","last_reported":1701860772,"current_range_meters":30800,"station_id":"ce4bhu92rcd13ifvqi70","pricing_plan_id":"free"},{"bike_id":"cf3102c4-88e0-4a41-86b7-69a76932d3e6","system_id":"levelo_inurba_marseille","lat":43.23187,"lon":5.35542,"is_reserved":false,"is_disabled":false,"rental_uris":{"android":"levelo://app?vid=cf3102c4-88e0-4a41-86b7-69a76932d3e6","ios":"levelo://app?vid=cf3102c4-88e0-4a41-86b7-69a76932d3e6"},"vehicle_type_id":"4","last_reported":1701860772,"current_range_meters":31200,"station_id":"ce4bhu92rcd13ifvqi70","pricing_plan_id":"free"},{"bike_id":"0c803cbc-5e8d-41dc-a430-e74d9c3d4c41","system_id":"levelo_inurba_marseille","lat":43.23186,"lon":5.35546,"is_reserved":false,"is_disabled":false,"rental_uris":{"android":"levelo://app?vid=0c803cbc-5e8d-41dc-a430-e74d9c3d4c41","ios":"levelo://app?vid=0c803cbc-5e8d-41dc-a430-e74d9c3d4c41"},"vehicle_type_id":"4","last_reported":1701860772,"current_range_meters":12000,"station_id":"ce4bhu92rcd13ifvqi70","pricing_plan_id":"free"},{"bike_id":"a9f01e32-07c1-4d10-9c32-3c6d52b0928c","system_id":"levelo_inurba_marseille","lat":43.231793,"lon":5.400044,"is_reserved":false,"is_disabled":false,"rental_uris":{"android":"levelo://app?vid=a9f01e32-07c1-4d10-9c32-3c6d52b0928c","ios":"levelo://app?vid=a9f01e32-07c1-4d10-9c32-3c6d52b0928c"},"vehicle_type_id":"4","last_reported":1701860772,"current_range_meters":23600,"station_id":"ce4bhn12rcd13ifvqgqg","pricing_plan_id":"free"},{"bike_id":"6f14d1ca-de0f-493c-8c57-9fd2dcf618d5","system_id":"levelo_inurba_marseille","lat":43.231794,"lon":5.400052,"is_reserved":false,"is_disabled":false,"rental_uris":{"android":"levelo://app?vid=6f14d1ca-de0f-493c-8c57-9fd2dcf618d5","ios":"levelo://app?vid=6f14d1ca-de0f-493c-8c57-9fd2dcf618d5"},"vehicle_type_id":"4","last_reported":1701860772,"current_range_meters":27200,"station_id":"ce4bhn12rcd13ifvqgqg","pricing_plan_id":"free"},{"bike_id":"2c0910b7-d013-48ae-aefa-5f8a80703a76","system_id":"levelo_inurba_marseille","lat":43.231794,"lon":5.400052,"is_reserved":false,"is_disabled":false,"rental_uris":{"android":"levelo://app?vid=2c0910b7-d013-48ae-aefa-5f8a80703a76","ios":"levelo://app?vid=2c0910b7-d013-48ae-aefa-5f8a80703a76"},"vehicle_type_id":"4","last_reported":1701860772,"current_range_meters":11200,"station_id":"ce4bhn12rcd13ifvqgqg","pricing_plan_id":"free"},{"bike_id":"c39d5760-ad13-44c1-8d63-f3f67c5aa639","system_id":"levelo_inurba_marseille","lat":43.231562,"lon":5.436933,"is_reserved":false,"is_disabled":false,"rental_uris":{"android":"levelo://app?vid=c39d5760-ad13-44c1-8d63-f3f67c5aa639","ios":"levelo://app?vid=c39d5760-ad13-44c1-8d63-f3f67c5aa639"},"vehicle_type_id":"4","last_reported":1701860772,"current_range_meters":24800,"station_id":"ce4bhmp2rcd13ifvqgog","pricing_plan_id":"free"},{"bike_id":"a4e897ab-35a6-4755-8081-21a5f57f03b0","system_id":"levelo_inurba_marseille","lat":43.231562,"lon":5.436933,"is_reserved":false,"is_disabled":false,"rental_uris":{"android":"levelo://app?vid=a4e897ab-35a6-4755-8081-21a5f57f03b0","ios":"levelo://app?vid=a4e897ab-35a6-4755-8081-21a5f57f03b0"},"vehicle_type_id":"4","last_reported":1701860772,"current_range_meters":18800,"station_id":"ce4bhmp2rcd13ifvqgog","pricing_plan_id":"free"},{"bike_id":"ba85ab11-948c-4313-b881-7bf24787a51d","system_id":"levelo_inurba_marseille","lat":43.231562,"lon":5.436933,"is_reserved":false,"is_disabled":false,"rental_uris":{"android":"levelo://app?vid=ba85ab11-948c-4313-b881-7bf24787a51d","ios":"levelo://app?vid=ba85ab11-948c-4313-b881-7bf24787a51d"},"vehicle_type_id":"4","last_reported":1701860772,"current_range_meters":0,"station_id":"ce4bhmp2rcd13ifvqgog","pricing_plan_id":"free"},{"bike_id":"085c2a3e-ea2f-435a-bdf8-b726cd0072cb","system_id":"levelo_inurba_marseille","lat":43.231562,"lon":5.436933,"is_reserved":false,"is_disabled":false,"rental_uris":{"android":"levelo://app?vid=085c2a3e-ea2f-435a-bdf8-b726cd0072cb","ios":"levelo://app?vid=085c2a3e-ea2f-435a-bdf8-b726cd0072cb"},"vehicle_type_id":"4","last_reported":1701860772,"current_range_meters":30400,"station_id":"ce4bhmp2rcd13ifvqgog","pricing_plan_id":"free"},{"bike_id":"1427fd95-5729-4d15-b4e8-8ee7fa8b65ac","system_id":"levelo_inurba_marseille","lat":43.231562,"lon":5.436933,"is_reserved":false,"is_disabled":false,"rental_uris":{"android":"levelo://app?vid=1427fd95-5729-4d15-b4e8-8ee7fa8b65ac","ios":"levelo://app?vid=1427fd95-5729-4d15-b4e8-8ee7fa8b65ac"},"vehicle_type_id":"4","last_reported":1701860772,"current_range_meters":10800,"station_id":"ce4bhmp2rcd13ifvqgog","pricing_plan_id":"free"},{"bike_id":"58108381-81d0-4a6b-8c31-91ea22ee9cd6","system_id":"levelo_inurba_marseille","lat":43.231562,"lon":5.436933,"is_reserved":false,"is_disabled":false,"rental_uris":{"android":"levelo://app?vid=58108381-81d0-4a6b-8c31-91ea22ee9cd6","ios":"levelo://app?vid=58108381-81d0-4a6b-8c31-91ea22ee9cd6"},"vehicle_type_id":"4","last_reported":1701860772,"current_range_meters":31600,"station_id":"ce4bhmp2rcd13ifvqgog","pricing_plan_id":"free"},{"bike_id":"3df0d0fd-f28c-4e89-a057-d30bf91bcde5","system_id":"levelo_inurba_marseille","lat":43.231562,"lon":5.436933,"is_reserved":false,"is_disabled":false,"rental_uris":{"android":"levelo://app?vid=3df0d0fd-f28c-4e89-a057-d30bf91bcde5","ios":"levelo://app?vid=3df0d0fd-f28c-4e89-a057-d30bf91bcde5"},"vehicle_type_id":"4","last_reported":1701860772,"current_range_meters":1200,"station_id":"ce4bhmp2rcd13ifvqgog","pricing_plan_id":"free"},{"bike_id":"b59e5cf7-1b98-4d79-a891-34f1e715ede2","system_id":"levelo_inurba_marseille","lat":43.231562,"lon":5.436933,"is_reserved":false,"is_disabled":false,"rental_uris":{"android":"levelo://app?vid=b59e5cf7-1b98-4d79-a891-34f1e715ede2","ios":"levelo://app?vid=b59e5cf7-1b98-4d79-a891-34f1e715ede2"},"vehicle_type_id":"4","last_reported":1701860772,"current_range_meters":25200,"station_id":"ce4bhmp2rcd13ifvqgog","pricing_plan_id":"free"},{"bike_id":"6acfe63a-90ab-4827-9d18-a32c040ccffb","system_id":"levelo_inurba_marseille","lat":43.231562,"lon":5.436933,"is_reserved":false,"is_disabled":false,"rental_uris":{"android":"levelo://app?vid=6acfe63a-90ab-4827-9d18-a32c040ccffb","ios":"levelo://app?vid=6acfe63a-90ab-4827-9d18-a32c040ccffb"},"vehicle_type_id":"4","last_reported":1701860772,"current_range_meters":16400,"station_id":"ce4bhmp2rcd13ifvqgog","pricing_plan_id":"free"},{"bike_id":"38245e9a-47dc-4456-9bf1-c0e93f657d16","system_id":"levelo_inurba_marseille","lat":43.231562,"lon":5.436933,"is_reserved":false,"is_disabled":false,"rental_uris":{"android":"levelo://app?vid=38245e9a-47dc-4456-9bf1-c0e93f657d16","ios":"levelo://app?vid=38245e9a-47dc-4456-9bf1-c0e93f657d16"},"vehicle_type_id":"4","last_reported":1701860772,"current_range_meters":30800,"station_id":"ce4bhmp2rcd13ifvqgog","pricing_plan_id":"free"},{"bike_id":"87db913b-09e5-4a1a-94bb-e62a8837ca3d","system_id":"levelo_inurba_marseille","lat":43.231562,"lon":5.436933,"is_reserved":false,"is_disabled":false,"rental_uris":{"android":"levelo://app?vid=87db913b-09e5-4a1a-94bb-e62a8837ca3d","ios":"levelo://app?vid=87db913b-09e5-4a1a-94bb-e62a8837ca3d"},"vehicle_type_id":"4","last_reported":1701860772,"current_range_meters":1200,"station_id":"ce4bhmp2rcd13ifvqgog","pricing_plan_id":"free"}]}}