{"last_updated":1758924556,"ttl":60,"version":"2.2","data":{"bikes":[{"bike_id":"5001b619-8a21-45c9-8930-9794a5346fdb","system_id":"levelo_inurba_marseille","lat":43.28764,"lon":5.38565,"is_reserved":false,"is_disabled":false,"rental_uris":{"android":"levelo://app?vid=5001b619-8a21-45c9-8930-9794a5346fdb","ios":"levelo://app?vid=5001b619-8a21-45c9-8930-9794a5346fdb"},"vehicle_type_id":"4","last_reported":1758924556,"current_range_meters":2800,"station_id":"","pricing_plan_id":"cebpf4jnsgd1na2vs0mg"},{"bike_id":"b84a52c4-9b99-429a-80f0-678ba82d2054","system_id":"levelo_inurba_marseille","lat":43.27664,"lon":5.38888,"is_reserved":false,"is_disabled":false,"rental_uris":{"android":"levelo://app?vid=b84a52c4-9b99-429a-80f0-678ba82d2054","ios":"levelo://app?vid=b84a52c4-9b99-429a-80f0-678ba82d2054"},"vehicle_type_id":"4","last_reported":1758924556,"current_range_meters":2000,"station_id":"ce4bhi12rcd13ifvqfo0","pricing_plan_id":"cebpf4jnsgd1na2vs0mg"},{"bike_id":"de4dc238-7f35-4c0f-8cdc-f1c985d38989","system_id":"levelo_inurba_marseille","lat":43.28864,"lon":5.42524,"is_reserved":false,"is_disabled":true,"rental_uris":{"android":"levelo://app?vid=de4dc238-7f35-4c0f-8cdc-f1c985d38989","ios":"levelo://app?vid=de4dc238-7f35-4c0f-8cdc-f1c985d38989"},"vehicle_type_id":"4","last_reported":1758924556,"current_range_meters":2800,"station_id":"","pricing_plan_id":"cebpf4jnsgd1na2vs0mg"},{"bike_id":"d55b41d4-a6ff-4a92-a2f8-39ad42e07ba2","system_id":"levelo_inurba_marseille","lat":43.28842,"lon":5.3584,"is_reserved":false,"is_disabled":false,"rental_uris":{"android":"levelo://app?vid=d55b41d4-a6ff-4a92-a2f8-39ad42e07ba2","ios":"levelo://app?vid=d55b41d4-a6ff-4a92-a2f8-39ad42e07ba2"},"vehicle_type_id":"4","last_reported":1758924556,"current_range_meters":2800,"station_id":"ce4bhb12rcd13ifvqem0","pricing_plan_id":"cebpf4jnsgd1na2vs0mg"},{"bike_id":"1e356530-5799-426f-af4a-3842c4cba460","system_id":"levelo_inurba_marseille","lat":43.23189,"lon":5.39991,"is_reserved":false,"is_disabled":false,"rental_uris":{"android":"levelo://app?vid=1e356530-5799-426f-af4a-3842c4cba460","ios":"levelo://app?vid=1e356530-5799-426f-af4a-3842c4cba460"},"vehicle_type_id":"4","last_reported":1758924556,"current_range_meters":3600,"station_id":"ce4bhn12rcd13ifvqgqg","pricing_plan_id":"cebpf4jnsgd1na2vs0mg"},{"bike_id":"194c48d5-6849-45bf-8a89-f8fcfbf6ac7f","system_id":"levelo_inurba_marseille","lat":43.22565,"lon":5.41613,"is_reserved":false,"is_disabled":false,"rental_uris":{"android":"levelo://app?vid=194c48d5-6849-45bf-8a89-f8fcfbf6ac7f","ios":"levelo://app?vid=194c48d5-6849-45bf-8a89-f8fcfbf6ac7f"},"vehicle_type_id":"4","last_reported":1758924556,"current_range_meters":3600,"station_id":"st_d2o4gvlbi1j2169b742g","pricing_plan_id":"cebpf4jnsgd1na2vs0mg"},{"bike_id":"3cc8249a-b149-4ab0-8a3e-52241bb02fdd","system_id":"levelo_inurba_marseille","lat":43.29703,"lon":5.38007,"is_reserved":false,"is_disabled":false,"rental_uris":{"android":"levelo://app?vid=3cc8249a-b149-4ab0-8a3e-52241bb02fdd","ios":"levelo://app?vid=3cc8249a-b149-4ab0-8a3e-52241bb02fdd"},"vehicle_type_id":"4","last_reported":1758924556,"current_range_meters":3600,"station_id":"","pricing_plan_id":"cebpf4jnsgd1na2vs0mg"},{"bike_id":"fee689bb-cae2-4ff6-9789-75afd812a849","system_id":"levelo_inurba_marseille","lat":43.28,"lon":5.4001,"is_reserved":false,"is_disabled":false,"rental_uris":{"android":"levelo://app?vid=fee689bb-cae2-4ff6-9789-75afd812a849","ios":"levelo://app?vid=fee689bb-cae2-4ff6-9789-75afd812a849"},"vehicle_type_id":"4","last_reported":1758924556,"current_range_meters":4400,"station_id":"ce4bho92rcd13ifvqh4g","pricing_plan_id":"cebpf4jnsgd1na2vs0mg"},{"bike_id":"43a56e56-4ffd-4cce-9fd3-70e2421036aa","system_id":"levelo_inurba_marseille","lat":43.304244,"lon":5.388841,"is_reserved":false,"is_disabled":false,"rental_uris":{"android":"levelo://app?vid=43a56e56-4ffd-4cce-9fd3-70e2421036aa","ios":"levelo://app?vid=43a56e56-4ffd-4cce-9fd3-70e2421036aa"},"vehicle_type_id":"4","last_reported":1758924556,"current_range_meters":4400,"station_id":"ce4bh312rcd13ifvqdj0","pricing_plan_id":"cebpf4jnsgd1na2vs0mg"},{"bike_id":"ccc96698-c690-4059-97c4-4ea301b5b2f7","system_id":"levelo_inurba_marseille","lat":43.30423,"lon":5.41283,"is_reserved":false,"is_disabled":false,"rental_uris":{"android":"levelo://app?vid=ccc96698-c690-4059-97c4-4ea301b5b2f7","ios":"levelo://app?vid=ccc96698-c690-4059-97c4-4ea301b5b2f7"},"vehicle_type_id":"4","last_reported":1758924556,"current_range_meters":4400,"station_id":"ce4bhop2rcd13ifvqh8g","pricing_plan_id":"cebpf4jnsgd1na2vs0mg"},{"bike_id":"eb83b594-799c-42e6-97cc-bd6a41ee032d","system_id":"levelo_inurba_marseille","lat":43.28937,"lon":5.36635,"is_reserved":false,"is_disabled":false,"rental_uris":{"android":"levelo://app?vid=eb83b594-799c-42e6-97cc-bd6a41ee032d","ios":"levelo://app?vid=eb83b594-799c-42e6-97cc-bd6a41ee032d"},"vehicle_type_id":"4","last_reported":1758924556,"current_range_meters":4800,"station_id":"ce4bhap2rcd13ifvqek0","pricing_plan_id":"cebpf4jnsgd1na2vs0mg"},{"bike_id":"588bb5c6-d90f-4edd-b1de-2d2164a39c00","system_id":"levelo_inurba_marseille","lat":43.32948,"lon":5.39046,"is_reserved":false,"is_disabled":false,"rental_uris":{"android":"levelo://app?vid=588bb5c6-d90f-4edd-b1de-2d2164a39c00","ios":"levelo://app?vid=588bb5c6-d90f-4edd-b1de-2d2164a39c00"},"vehicle_type_id":"4","last_reported":1758924556,"current_range_meters":4800,"station_id":"","pricing_plan_id":"cebpf4jnsgd1na2vs0mg"},{"bike_id":"64279a81-ee34-4c3b-b57a-9b62bb0c0a24","system_id":"levelo_inurba_marseille","lat":43.31541,"lon":5.4315,"is_reserved":false,"is_disabled":false,"rental_uris":{"android":"levelo://app?vid=64279a81-ee34-4c3b-b57a-9b62bb0c0a24","ios":"levelo://app?vid=64279a81-ee34-4c3b-b57a-9b62bb0c0a24"},"vehicle_type_id":"4","last_reported":1758924556,"current_range_meters":4800,"station_id":"","pricing_plan_id":"cebpf4jnsgd1na2vs0mg"},{"bike_id":"7d9c893e-52dd-45e6-aa9f-5fa5fcf1a192","system_id":"levelo_inurba_marseille","lat":43.309301,"lon":5.4015,"is_reserved":false,"is_disabled":true,"rental_uris":{"android":"levelo://app?vid=7d9c893e-52dd-45e6-aa9f-5fa5fcf1a192","ios":"levelo://app?vid=7d9c893e-52dd-45e6-aa9f-5fa5fcf1a192"},"vehicle_type_id":"4","last_reported":1758924556,"current_range_meters":5600,"station_id":"ce4bgvp2rcd13ifvqct0","pricing_plan_id":"cebpf4jnsgd1na2vs0mg"},{"bike_id":"beedc081-2f74-4443-83b8-86641378e1ea","system_id":"levelo_inurba_marseille","lat":43.27175,"lon":5.4099,"is_reserved":false,"is_disabled":false,"rental_uris":{"android":"levelo://app?vid=beedc081-2f74-4443-83b8-86641378e1ea","ios":"levelo://app?vid=beedc081-2f74-4443-83b8-86641378e1ea"},"vehicle_type_id":"4","last_reported":1758924556,"current_range_meters":4800,"station_id":"ce4bhl12rcd13ifvqgf0","pricing_plan_id":"cebpf4jnsgd1na2vs0mg"},{"bike_id":"f4fa8d4b-a43d-46ec-9b71-5d336cdb5590","system_id":"levelo_inurba_marseille","lat":43.282642,"lon":5.350744,"is_reserved":false,"is_disabled":false,"rental_uris":{"android":"levelo://app?vid=f4fa8d4b-a43d-46ec-9b71-5d336cdb5590","ios":"levelo://app?vid=f4fa8d4b-a43d-46ec-9b71-5d336cdb5590"},"vehicle_type_id":"4","last_reported":1758924556,"current_range_meters":6000,"station_id":"","pricing_plan_id":"cebpf4jnsgd1na2vs0mg"},{"bike_id":"ee6d8d1b-5a28-418d-8802-2428ed385573","system_id":"levelo_inurba_marseille","lat":43.32121,"lon":5.36761,"is_reserved":false,"is_disabled":false,"rental_uris":{"android":"levelo://app?vid=ee6d8d1b-5a28-418d-8802-2428ed385573","ios":"levelo://app?vid=ee6d8d1b-5a28-418d-8802-2428ed385573"},"vehicle_type_id":"4","last_reported":1758924556,"current_range_meters":6000,"station_id":"ce4bhrh2rcd13ifvqhug","pricing_plan_id":"cebpf4jnsgd1na2vs0mg"},{"bike_id":"c55d44b0-903e-48a3-b79f-4564811904dd","system_id":"levelo_inurba_marseille","lat":43.28703,"lon":5.37393,"is_reserved":false,"is_disabled":false,"rental_uris":{"android":"levelo://app?vid=c55d44b0-903e-48a3-b79f-4564811904dd","ios":"levelo://app?vid=c55d44b0-903e-48a3-b79f-4564811904dd"},"vehicle_type_id":"4","last_reported":1758924556,"current_range_meters":6000,"station_id":"ce4bh3p2rcd13ifvqdq0","pricing_plan_id":"cebpf4jnsgd1na2vs0mg"},{"bike_id":"a4e42ab0-8142-4924-8192-01ca9baa6e57","system_id":"levelo_inurba_marseille","lat":43.2823,"lon":5.39063,"is_reserved":false,"is_disabled":false,"rental_uris":{"android":"levelo://app?vid=a4e42ab0-8142-4924-8192-01ca9baa6e57","ios":"levelo://app?vid=a4e42ab0-8142-4924-8192-01ca9baa6e57"},"vehicle_type_id":"4","last_reported":1758924556,"current_range_meters":6000,"station_id":"ce4bhn92rcd13ifvqgsg","pricing_plan_id":"cebpf4jnsgd1na2vs0mg"},{"bike_id":"7d24d015-c5d6-4baf-924f-8cec3a0eaafb","system_id":"levelo_inurba_marseille","lat":43.309475,"lon":5.390435,"is_reserved":false,"is_disabled":false,"rental_uris":{"android":"levelo://app?vid=7d24d015-c5d6-4baf-924f-8cec3a0eaafb","ios":"levelo://app?vid=7d24d015-c5d6-4baf-924f-8cec3a0eaafb"},"vehicle_type_id":"4","last_reported":1758924556,"current_range_meters":6400,"station_id":"","pricing_plan_id":"cebpf4jnsgd1na2vs0mg"},{"bike_id":"8eae954c-dab6-4303-94f5-569e1c483f62","system_id":"levelo_inurba_marseille","lat":43.29491,"lon":5.4073,"is_reserved":false,"is_disabled":false,"rental_uris":{"android":"levelo://app?vid=8eae954c-dab6-4303-94f5-569e1c483f62","ios":"levelo://app?vid=8eae954c-dab6-4303-94f5-569e1c483f62"},"vehicle_type_id":"4","last_reported":1758924556,"current_range_meters":6800,"station_id":"","pricing_plan_id":"cebpf4jnsgd1na2vs0mg"},{"bike_id":"5cddf758-8a6b-4867-a9f5-82508fe5a8a7","system_id":"levelo_inurba_marseille","lat":43.29512,"lon":5.382,"is_reserved":false,"is_disabled":false,"rental_uris":{"android":"levelo://app?vid=5cddf758-8a6b-4867-a9f5-82508fe5a8a7","ios":"levelo://app?vid=5cddf758-8a6b-4867-a9f5-82508fe5a8a7"},"vehicle_type_id":"4","last_reported":1758924556,"current_range_meters":6800,"station_id":"","pricing_plan_id":"cebpf4jnsgd1na2vs0mg"},{"bike_id":"13a46057-7609-4515-b181-3f9018f1d03c","system_id":"levelo_inurba_marseille","lat":43.317106,"lon":5.377534,"is_reserved":false,"is_disabled":false,"rental_uris":{"android":"levelo://app?vid=13a46057-7609-4515-b181-3f9018f1d03c","ios":"levelo://app?vid=13a46057-7609-4515-b181-3f9018f1d03c"},"vehicle_type_id":"4","last_reported":1758924556,"current_range_meters":6800,"station_id":"ce4bgth2rcd13ifvqch0","pricing_plan_id":"cebpf4jnsgd1na2vs0mg"},{"bike_id":"42598cbd-c0f8-4b84-9c1b-1ffcdfcd6fe5","system_id":"levelo_inurba_marseille","lat":43.25716,"lon":5.41134,"is_reserved":false,"is_disabled":false,"rental_uris":{"android":"levelo://app?vid=42598cbd-c0f8-4b84-9c1b-1ffcdfcd6fe5","ios":"levelo://app?vid=42598cbd-c0f8-4b84-9c1b-1ffcdfcd6fe5"},"vehicle_type_id":"4","last_reported":1758924556,"current_range_meters":7200,"station_id":"ce4bhkp2rcd13ifvqgd0","pricing_plan_id":"cebpf4jnsgd1na2vs0mg"},{"bike_id":"003515e8-8117-44bb-979d-5f47e8d50fda","system_id":"levelo_inurba_marseille","lat":43.30629,"lon":5.37578,"is_reserved":false,"is_disabled":false,"rental_uris":{"android":"levelo://app?vid=003515e8-8117-44bb-979d-5f47e8d50fda","ios":"levelo://app?vid=003515e8-8117-44bb-979d-5f47e8d50fda"},"vehicle_type_id":"4","last_reported":1758924556,"current_range_meters":7200,"station_id":"","pricing_plan_id":"cebpf4jnsgd1na2vs0mg"},{"bike_id":"e074ec6b-0ed3-4370-9175-f9719ed1cfdc","system_id":"levelo_inurba_marseille","lat":43.24632,"lon":5.431433,"is_reserved":false,"is_disabled":false,"rental_uris":{"android":"levelo://app?vid=e074ec6b-0ed3-4370-9175-f9719ed1cfdc","ios":"levelo://app?vid=e074ec6b-0ed3-4370-9175-f9719ed1cfdc"},"vehicle_type_id":"4","last_reported":1758924556,"current_range_meters":7200,"station_id":"st_d2m6c4gdas8pm72e190g","pricing_plan_id":"cebpf4jnsgd1na2vs0mg"},{"bike_id":"05cf823f-d01d-49dc-b7fd-024ca2b99e90","system_id":"levelo_inurba_marseille","lat":43.29439,"lon":5.44397,"is_reserved":false,"is_disabled":false,"rental_uris":{"android":"levelo://app?vid=05cf823f-d01d-49dc-b7fd-024ca2b99e90","ios":"levelo://app?vid=05cf823f-d01d-49dc-b7fd-024ca2b99e90"},"vehicle_type_id":"4","last_reported":1758924556,"current_range_meters":7200,"station_id":"","pricing_plan_id":"cebpf4jnsgd1na2vs0mg"},{"bike_id":"3c19536b-fb5b-4f9a-ab5d-bec9a9d3b963","system_id":"levelo_inurba_marseille","lat":43.24638,"lon":5.38899,"is_reserved":false,"is_disabled":false,"rental_uris":{"android":"levelo://app?vid=3c19536b-fb5b-4f9a-ab5d-bec9a9d3b963","ios":"levelo://app?vid=3c19536b-fb5b-4f9a-ab5d-bec9a9d3b963"},"vehicle_type_id":"4","last_reported":1758924556,"current_range_meters":7200,"station_id":"ce4bhg12rcd13ifvqf60","pricing_plan_id":"cebpf4jnsgd1na2vs0mg"},{"bike_id":"d143b4d9-94a5-4eca-bbe7-9d0fb7d3a215","system_id":"levelo_inurba_marseille","lat":43.28626,"lon":5.35102,"is_reserved":false,"is_disabled":false,"rental_uris":{"android":"levelo://app?vid=d143b4d9-94a5-4eca-bbe7-9d0fb7d3a215","ios":"levelo://app?vid=d143b4d9-94a5-4eca-bbe7-9d0fb7d3a215"},"vehicle_type_id":"4","last_reported":1758924556,"current_range_meters":7200,"station_id":"ce4bhch2rcd13ifvqeug","pricing_plan_id":"cebpf4jnsgd1na2vs0mg"},{"bike_id":"212de2eb-8bbc-413c-b204-9fe1facd76e8","system_id":"levelo_inurba_marseille","lat":43.31272,"lon":5.37821,"is_reserved":false,"is_disabled":false,"rental_uris":{"android":"levelo://app?vid=212de2eb-8bbc-413c-b204-9fe1facd76e8","ios":"levelo://app?vid=212de2eb-8bbc-413c-b204-9fe1facd76e8"},"vehicle_type_id":"4","last_reported":1758924556,"current_range_meters":7200,"station_id":"","pricing_plan_id":"cebpf4jnsgd1na2vs0mg"},{"bike_id":"8cfc4174-b0cd-4d47-9abc-24b60bce3fcc","system_id":"levelo_inurba_marseille","lat":43.284644,"lon":5.374742,"is_reserved":false,"is_disabled":false,"rental_uris":{"android":"levelo://app?vid=8cfc4174-b0cd-4d47-9abc-24b60bce3fcc","ios":"levelo://app?vid=8cfc4174-b0cd-4d47-9abc-24b60bce3fcc"},"vehicle_type_id":"4","last_reported":1758924556,"current_range_meters":7200,"station_id":"ce4bhah2rcd13ifvqei0","pricing_plan_id":"cebpf4jnsgd1na2vs0mg"},{"bike_id":"10570c5a-8e04-4e55-8478-90c821e94d73","system_id":"levelo_inurba_marseille","lat":43.33153,"lon":5.38175,"is_reserved":false,"is_disabled":false,"rental_uris":{"android":"levelo://app?vid=10570c5a-8e04-4e55-8478-90c821e94d73","ios":"levelo://app?vid=10570c5a-8e04-4e55-8478-90c821e94d73"},"vehicle_type_id":"4","last_reported":1758924556,"current_range_meters":7200,"station_id":"","pricing_plan_id":"cebpf4jnsgd1na2vs0mg"},{"bike_id":"d8a2347c-225c-4028-b110-5b8c63be1a5a","system_id":"levelo_inurba_marseille","lat":43.288033,"lon":5.376487,"is_reserved":false,"is_disabled":false,"rental_uris":{"android":"levelo://app?vid=d8a2347c-225c-4028-b110-5b8c63be1a5a","ios":"levelo://app?vid=d8a2347c-225c-4028-b110-5b8c63be1a5a"},"vehicle_type_id":"4","last_reported":1758924556,"current_range_meters":8000,"station_id":"","pricing_plan_id":"cebpf4jnsgd1na2vs0mg"},{"bike_id":"97077d85-71b7-4186-accf-6b32288208e9","system_id":"levelo_inurba_marseille","lat":43.22556,"lon":5.41617,"is_reserved":false,"is_disabled":false,"rental_uris":{"android":"levelo://app?vid=97077d85-71b7-4186-accf-6b32288208e9","ios":"levelo://app?vid=97077d85-71b7-4186-accf-6b32288208e9"},"vehicle_type_id":"4","last_reported":1758924556,"current_range_meters":8000,"station_id":"st_d2o4gvlbi1j2169b742g","pricing_plan_id":"cebpf4jnsgd1na2vs0mg"},{"bike_id":"f897d300-643c-4c7a-951b-f56d70ef23ca","system_id":"levelo_inurba_marseille","lat":43.30337,"lon":5.39068,"is_reserved":false,"is_disabled":false,"rental_uris":{"android":"levelo://app?vid=f897d300-643c-4c7a-951b-f56d70ef23ca","ios":"levelo://app?vid=f897d300-643c-4c7a-951b-f56d70ef23ca"},"vehicle_type_id":"4","last_reported":1758924556,"current_range_meters":8000,"station_id":"","pricing_plan_id":"cebpf4jnsgd1na2vs0mg"},{"bike_id":"aa80a786-e9ff-4a16-9f46-dd824bbc66d7","system_id":"levelo_inurba_marseille","lat":43.300424,"lon":5.436872,"is_reserved":false,"is_disabled":false,"rental_uris":{"android":"levelo://app?vid=aa80a786-e9ff-4a16-9f46-dd824bbc66d7","ios":"levelo://app?vid=aa80a786-e9ff-4a16-9f46-dd824bbc66d7"},"vehicle_type_id":"4","last_reported":1758924556,"current_range_meters":8000,"station_id":"ce4bhpp2rcd13ifvqhfg","pricing_plan_id":"cebpf4jnsgd1na2vs0mg"},{"bike_id":"e0436bf6-c1ca-464f-88d0-f007769da320","system_id":"levelo_inurba_marseille","lat":43.309487,"lon":5.390233,"is_reserved":false,"is_disabled":true,"rental_uris":{"android":"levelo://app?vid=e0436bf6-c1ca-464f-88d0-f007769da320","ios":"levelo://app?vid=e0436bf6-c1ca-464f-88d0-f007769da320"},"vehicle_type_id":"4","last_reported":1758924556,"current_range_meters":8000,"station_id":"","pricing_plan_id":"cebpf4jnsgd1na2vs0mg"},{"bike_id":"e057a4ef-97bf-4e25-9a18-02598bbb0bbf","system_id":"levelo_inurba_marseille","lat":43.24543,"lon":5.39495,"is_reserved":false,"is_disabled":true,"rental_uris":{"android":"levelo://app?vid=e057a4ef-97bf-4e25-9a18-02598bbb0bbf","ios":"levelo://app?vid=e057a4ef-97bf-4e25-9a18-02598bbb0bbf"},"vehicle_type_id":"4","last_reported":1758924556,"current_range_meters":8000,"station_id":"ce4bhlp2rcd13ifvqgjg","pricing_plan_id":"cebpf4jnsgd1na2vs0mg"},{"bike_id":"425cf3c7-5153-4d14-a0e3-660bba8107de","system_id":"levelo_inurba_marseille","lat":43.309373,"lon":5.401604,"is_reserved":false,"is_disabled":false,"rental_uris":{"android":"levelo://app?vid=425cf3c7-5153-4d14-a0e3-660bba8107de","ios":"levelo://app?vid=425cf3c7-5153-4d14-a0e3-660bba8107de"},"vehicle_type_id":"4","last_reported":1758924556,"current_range_meters":8400,"station_id":"ce4bgvp2rcd13ifvqct0","pricing_plan_id":"cebpf4jnsgd1na2vs0mg"},{"bike_id":"14568db5-2437-46e1-a004-fca5da459653","system_id":"levelo_inurba_marseille","lat":43.28696,"lon":5.39519,"is_reserved":false,"is_disabled":true,"rental_uris":{"android":"levelo://app?vid=14568db5-2437-46e1-a004-fca5da459653","ios":"levelo://app?vid=14568db5-2437-46e1-a004-fca5da459653"},"vehicle_type_id":"4","last_reported":1758924556,"current_range_meters":8400,"station_id":"","pricing_plan_id":"cebpf4jnsgd1na2vs0mg"},{"bike_id":"76aa3116-03d7-4296-99f3-de9508da4057","system_id":"levelo_inurba_marseille","lat":43.286546,"lon":5.377352,"is_reserved":false,"is_disabled":false,"rental_uris":{"android":"levelo://app?vid=76aa3116-03d7-4296-99f3-de9508da4057","ios":"levelo://app?vid=76aa3116-03d7-4296-99f3-de9508da4057"},"vehicle_type_id":"4","last_reported":1758924556,"current_range_meters":8400,"station_id":"ce4bha12rcd13ifvqee0","pricing_plan_id":"cebpf4jnsgd1na2vs0mg"},{"bike_id":"116653a1-3eec-436d-acd2-56daa91114ee","system_id":"levelo_inurba_marseille","lat":43.30436,"lon":5.38876,"is_reserved":false,"is_disabled":false,"rental_uris":{"android":"levelo://app?vid=116653a1-3eec-436d-acd2-56daa91114ee","ios":"levelo://app?vid=116653a1-3eec-436d-acd2-56daa91114ee"},"vehicle_type_id":"4","last_reported":1758924556,"current_range_meters":8400,"station_id":"ce4bgk12rcd13ifvqbi0","pricing_plan_id":"cebpf4jnsgd1na2vs0mg"},{"bike_id":"f3dac6d8-b180-4928-85f1-c0e06c666299","system_id":"levelo_inurba_marseille","lat":43.26387,"lon":5.39649,"is_reserved":false,"is_disabled":false,"rental_uris":{"android":"levelo://app?vid=f3dac6d8-b180-4928-85f1-c0e06c666299","ios":"levelo://app?vid=f3dac6d8-b180-4928-85f1-c0e06c666299"},"vehicle_type_id":"4","last_reported":1758924556,"current_range_meters":8400,"station_id":"","pricing_plan_id":"cebpf4jnsgd1na2vs0mg"},{"bike_id":"06200293-547a-4aa3-98c2-bb2707c07211","system_id":"levelo_inurba_marseille","lat":43.23147,"lon":5.4372,"is_reserved":false,"is_disabled":false,"rental_uris":{"android":"levelo://app?vid=06200293-547a-4aa3-98c2-bb2707c07211","ios":"levelo://app?vid=06200293-547a-4aa3-98c2-bb2707c07211"},"vehicle_type_id":"4","last_reported":1758924556,"current_range_meters":8400,"station_id":"ce4bhmp2rcd13ifvqgog","pricing_plan_id":"cebpf4jnsgd1na2vs0mg"},{"bike_id":"c29205f9-3203-46bd-86c8-35b2fb5de87e","system_id":"levelo_inurba_marseille","lat":43.2902,"lon":5.38139,"is_reserved":false,"is_disabled":false,"rental_uris":{"android":"levelo://app?vid=c29205f9-3203-46bd-86c8-35b2fb5de87e","ios":"levelo://app?vid=c29205f9-3203-46bd-86c8-35b2fb5de87e"},"vehicle_type_id":"4","last_reported":1758924556,"current_range_meters":8400,"station_id":"ce4bh4p2rcd13ifvqe1g","pricing_plan_id":"cebpf4jnsgd1na2vs0mg"},{"bike_id":"c7f6a08b-c655-4213-b2ba-7d02e7f382fe","system_id":"levelo_inurba_marseille","lat":43.27988,"lon":5.39483,"is_reserved":false,"is_disabled":false,"rental_uris":{"android":"levelo://app?vid=c7f6a08b-c655-4213-b2ba-7d02e7f382fe","ios":"levelo://app?vid=c7f6a08b-c655-4213-b2ba-7d02e7f382fe"},"vehicle_type_id":"4","last_reported":1758924556,"current_range_meters":8400,"station_id":"","pricing_plan_id":"cebpf4jnsgd1na2vs0mg"},{"bike_id":"6796e583-627d-4cde-9bac-15fbc5520947","system_id":"levelo_inurba_marseille","lat":43.255786,"lon":5.382276,"is_reserved":false,"is_disabled":false,"rental_uris":{"android":"levelo://app?vid=6796e583-627d-4cde-9bac-15fbc5520947","ios":"levelo://app?vid=6796e583-627d-4cde-9bac-15fbc5520947"},"vehicle_type_id":"4","last_reported":1758924556,"current_range_meters":8400,"station_id":"ce4bhih2rcd13ifvqfs0","pricing_plan_id":"cebpf4jnsgd1na2vs0mg"},{"bike_id":"fe939078-5878-4cad-973e-1fc4284a436f","system_id":"levelo_inurba_marseille","lat":43.29352,"lon":5.38636,"is_reserved":false,"is_disabled":false,"rental_uris":{"android":"levelo://app?vid=fe939078-5878-4cad-973e-1fc4284a436f","ios":"levelo://app?vid=fe939078-5878-4cad-973e-1fc4284a436f"},"vehicle_type_id":"4","last_reported":1758924556,"current_range_meters":8400,"station_id":"","pricing_plan_id":"cebpf4jnsgd1na2vs0mg"},{"bike_id":"216d4158-735a-4750-8f01-04eff35c8b90","system_id":"levelo_inurba_marseille","lat":43.27839,"lon":5.39196,"is_reserved":false,"is_disabled":false,"rental_uris":{"android":"levelo://app?vid=216d4158-735a-4750-8f01-04eff35c8b90","ios":"levelo://app?vid=216d4158-735a-4750-8f01-04eff35c8b90"},"vehicle_type_id":"4","last_reported":1758924556,"current_range_meters":8400,"station_id":"ce4bhjp2rcd13ifvqga0","pricing_plan_id":"cebpf4jnsgd1na2vs0mg"},{"bike_id":"d8188c10-fa44-48f3-80bc-0d7af47e2395","system_id":"levelo_inurba_marseille","lat":43.27983,"lon":5.41667,"is_reserved":false,"is_disabled":false,"rental_uris":{"android":"levelo://app?vid=d8188c10-fa44-48f3-80bc-0d7af47e2395","ios":"levelo://app?vid=d8188c10-fa44-48f3-80bc-0d7af47e2395"},"vehicle_type_id":"4","last_reported":1758924556,"current_range_meters":8800,"station_id":"ce4bho12rcd13ifvqh1g","pricing_plan_id":"cebpf4jnsgd1na2vs0mg"},{"bike_id":"78b43ab0-57e9-43ee-b7c6-fbbb1406e224","system_id":"levelo_inurba_marseille","lat":43.25714,"lon":5.41018,"is_reserved":false,"is_disabled":false,"rental_uris":{"android":"levelo://app?vid=78b43ab0-57e9-43ee-b7c6-fbbb1406e224","ios":"levelo://app?vid=78b43ab0-57e9-43ee-b7c6-fbbb1406e224"},"vehicle_type_id":"4","last_reported":1758924556,"current_range_meters":8800,"station_id":"","pricing_plan_id":"cebpf4jnsgd1na2vs0mg"},{"bike_id":"e5303607-da03-4ac7-b81e-b332ede84cf7","system_id":"levelo_inurba_marseille","lat":43.31306,"lon":5.37822,"is_reserved":false,"is_disabled":false,"rental_uris":{"android":"levelo://app?vid=e5303607-da03-4ac7-b81e-b332ede84cf7","ios":"levelo://app?vid=e5303607-da03-4ac7-b81e-b332ede84cf7"},"vehicle_type_id":"4","last_reported":1758924556,"current_range_meters":8800,"station_id":"","pricing_plan_id":"cebpf4jnsgd1na2vs0mg"},{"bike_id":"22e1526a-5d94-480e-9eef-c281aa35345c","system_id":"levelo_inurba_marseille","lat":43.212,"lon":5.35072,"is_reserved":false,"is_disabled":false,"rental_uris":{"android":"levelo://app?vid=22e1526a-5d94-480e-9eef-c281aa35345c","ios":"levelo://app?vid=22e1526a-5d94-480e-9eef-c281aa35345c"},"vehicle_type_id":"4","last_reported":1758924556,"current_range_meters":9200,"station_id":"st_cvj6sg6p6f1abm77japg","pricing_plan_id":"cebpf4jnsgd1na2vs0mg"},{"bike_id":"174dfb4f-f618-4c2f-be1c-ae0d6b405e94","system_id":"levelo_inurba_marseille","lat":43.29703,"lon":5.38277,"is_reserved":false,"is_disabled":false,"rental_uris":{"android":"levelo://app?vid=174dfb4f-f618-4c2f-be1c-ae0d6b405e94","ios":"levelo://app?vid=174dfb4f-f618-4c2f-be1c-ae0d6b405e94"},"vehicle_type_id":"4","last_reported":1758924556,"current_range_meters":9200,"station_id":"","pricing_plan_id":"cebpf4jnsgd1na2vs0mg"},{"bike_id":"96d9d290-3482-406b-a187-2a8b12ccabb2","system_id":"levelo_inurba_marseille","lat":43.28948,"lon":5.37135,"is_reserved":false,"is_disabled":false,"rental_uris":{"android":"levelo://app?vid=96d9d290-3482-406b-a187-2a8b12ccabb2","ios":"levelo://app?vid=96d9d290-3482-406b-a187-2a8b12ccabb2"},"vehicle_type_id":"4","last_reported":1758924556,"current_range_meters":9200,"station_id":"","pricing_plan_id":"cebpf4jnsgd1na2vs0mg"},{"bike_id":"87b16657-eeaf-4a1b-9184-a62af12c6a4d","system_id":"levelo_inurba_marseille","lat":43.27366,"lon":5.36254,"is_reserved":false,"is_disabled":false,"rental_uris":{"android":"levelo://app?vid=87b16657-eeaf-4a1b-9184-a62af12c6a4d","ios":"levelo://app?vid=87b16657-eeaf-4a1b-9184-a62af12c6a4d"},"vehicle_type_id":"4","last_reported":1758924556,"current_range_meters":9200,"station_id":"ce4bhbh2rcd13ifvqeo0","pricing_plan_id":"cebpf4jnsgd1na2vs0mg"},{"bike_id":"1d607556-a7b1-4bf2-a237-d3a9af8ceecb","system_id":"levelo_inurba_marseille","lat":43.29127,"lon":5.38128,"is_reserved":false,"is_disabled":false,"rental_uris":{"android":"levelo://app?vid=1d607556-a7b1-4bf2-a237-d3a9af8ceecb","ios":"levelo://app?vid=1d607556-a7b1-4bf2-a237-d3a9af8ceecb"},"vehicle_type_id":"4","last_reported":1758924556,"current_range_meters":9200,"station_id":"ce4bh512rcd13ifvqe2g","pricing_plan_id":"cebpf4jnsgd1na2vs0mg"},{"bike_id":"888d9833-34a2-4f76-b088-ac5f6b33041d","system_id":"levelo_inurba_marseille","lat":43.244,"lon":5.37066,"is_reserved":false,"is_disabled":false,"rental_uris":{"android":"levelo://app?vid=888d9833-34a2-4f76-b088-ac5f6b33041d","ios":"levelo://app?vid=888d9833-34a2-4f76-b088-ac5f6b33041d"},"vehicle_type_id":"4","last_reported":1758924556,"current_range_meters":9200,"station_id":"ce4bhhh2rcd13ifvqfk0","pricing_plan_id":"cebpf4jnsgd1na2vs0mg"},{"bike_id":"93c45366-c971-43fb-8538-8a09abd49d8b","system_id":"levelo_inurba_marseille","lat":43.29197,"lon":5.38519,"is_reserved":false,"is_disabled":false,"rental_uris":{"android":"levelo://app?vid=93c45366-c971-43fb-8538-8a09abd49d8b","ios":"levelo://app?vid=93c45366-c971-43fb-8538-8a09abd49d8b"},"vehicle_type_id":"4","last_reported":1758924556,"current_range_meters":9200,"station_id":"","pricing_plan_id":"cebpf4jnsgd1na2vs0mg"},{"bike_id":"243422a6-1a5d-460a-8e50-5474e398dc31","system_id":"levelo_inurba_marseille","lat":43.289338,"lon":5.366376,"is_reserved":false,"is_disabled":false,"rental_uris":{"android":"levelo://app?vid=243422a6-1a5d-460a-8e50-5474e398dc31","ios":"levelo://app?vid=243422a6-1a5d-460a-8e50-5474e398dc31"},"vehicle_type_id":"4","last_reported":1758924556,"current_range_meters":9200,"station_id":"ce4bhap2rcd13ifvqek0","pricing_plan_id":"cebpf4jnsgd1na2vs0mg"},{"bike_id":"a898d2fd-6567-4531-a6ba-ae906960be4e","system_id":"levelo_inurba_marseille","lat":43.28945,"lon":5.36387,"is_reserved":false,"is_disabled":false,"rental_uris":{"android":"levelo://app?vid=a898d2fd-6567-4531-a6ba-ae906960be4e","ios":"levelo://app?vid=a898d2fd-6567-4531-a6ba-ae906960be4e"},"vehicle_type_id":"4","last_reported":1758924556,"current_range_meters":9200,"station_id":"ce4bhc92rcd13ifvqetg","pricing_plan_id":"cebpf4jnsgd1na2vs0mg"},{"bike_id":"041cd397-24ab-4e04-af23-07b961e161f4","system_id":"levelo_inurba_marseille","lat":43.337444,"lon":5.374475,"is_reserved":false,"is_disabled":false,"rental_uris":{"android":"levelo://app?vid=041cd397-24ab-4e04-af23-07b961e161f4","ios":"levelo://app?vid=041cd397-24ab-4e04-af23-07b961e161f4"},"vehicle_type_id":"4","last_reported":1758924556,"current_range_meters":9200,"station_id":"","pricing_plan_id":"cebpf4jnsgd1na2vs0mg"},{"bike_id":"3aa864c5-efaa-4a7c-a9ec-0a02883dd8ca","system_id":"levelo_inurba_marseille","lat":43.29021,"lon":5.38131,"is_reserved":false,"is_disabled":false,"rental_uris":{"android":"levelo://app?vid=3aa864c5-efaa-4a7c-a9ec-0a02883dd8ca","ios":"levelo://app?vid=3aa864c5-efaa-4a7c-a9ec-0a02883dd8ca"},"vehicle_type_id":"4","last_reported":1758924556,"current_range_meters":9200,"station_id":"ce4bh4p2rcd13ifvqe1g","pricing_plan_id":"cebpf4jnsgd1na2vs0mg"},{"bike_id":"056340e6-87cc-4977-badd-4753b29b13fd","system_id":"levelo_inurba_marseille","lat":43.29254,"lon":5.40903,"is_reserved":false,"is_disabled":false,"rental_uris":{"android":"levelo://app?vid=056340e6-87cc-4977-badd-4753b29b13fd","ios":"levelo://app?vid=056340e6-87cc-4977-badd-4753b29b13fd"},"vehicle_type_id":"4","last_reported":1758924556,"current_range_meters":9600,"station_id":"ce4bh192rcd13ifvqdc0","pricing_plan_id":"cebpf4jnsgd1na2vs0mg"},{"bike_id":"f9c3bc42-577a-4a1f-b1e4-6248d6861132","system_id":"levelo_inurba_marseille","lat":43.26578,"lon":5.40329,"is_reserved":false,"is_disabled":false,"rental_uris":{"android":"levelo://app?vid=f9c3bc42-577a-4a1f-b1e4-6248d6861132","ios":"levelo://app?vid=f9c3bc42-577a-4a1f-b1e4-6248d6861132"},"vehicle_type_id":"4","last_reported":1758924556,"current_range_meters":9600,"station_id":"ce4bhmp2rcd13ifvqgng","pricing_plan_id":"cebpf4jnsgd1na2vs0mg"},{"bike_id":"5a98c7f5-534f-490b-8167-4dc0387a4c85","system_id":"levelo_inurba_marseille","lat":43.29279,"lon":5.4012,"is_reserved":false,"is_disabled":false,"rental_uris":{"android":"levelo://app?vid=5a98c7f5-534f-490b-8167-4dc0387a4c85","ios":"levelo://app?vid=5a98c7f5-534f-490b-8167-4dc0387a4c85"},"vehicle_type_id":"4","last_reported":1758924556,"current_range_meters":10000,"station_id":"ce4bh312rcd13ifvqdk0","pricing_plan_id":"cebpf4jnsgd1na2vs0mg"},{"bike_id":"75611fb7-df45-4d9f-9db0-a181136cc424","system_id":"levelo_inurba_marseille","lat":43.21753,"lon":5.34599,"is_reserved":false,"is_disabled":true,"rental_uris":{"android":"levelo://app?vid=75611fb7-df45-4d9f-9db0-a181136cc424","ios":"levelo://app?vid=75611fb7-df45-4d9f-9db0-a181136cc424"},"vehicle_type_id":"4","last_reported":1758924556,"current_range_meters":10000,"station_id":"st_cvj6r9ubvosntc0bgbag","pricing_plan_id":"cebpf4jnsgd1na2vs0mg"},{"bike_id":"2ea6d824-7cd1-4347-882e-837038c61772","system_id":"levelo_inurba_marseille","lat":43.28104,"lon":5.37833,"is_reserved":false,"is_disabled":false,"rental_uris":{"android":"levelo://app?vid=2ea6d824-7cd1-4347-882e-837038c61772","ios":"levelo://app?vid=2ea6d824-7cd1-4347-882e-837038c61772"},"vehicle_type_id":"4","last_reported":1758924556,"current_range_meters":9600,"station_id":"ce4bha12rcd13ifvqee0","pricing_plan_id":"cebpf4jnsgd1na2vs0mg"},{"bike_id":"b01b5bc6-6834-41fb-be97-f5b6fb7e9ec8","system_id":"levelo_inurba_marseille","lat":43.26301,"lon":5.39832,"is_reserved":false,"is_disabled":false,"rental_uris":{"android":"levelo://app?vid=b01b5bc6-6834-41fb-be97-f5b6fb7e9ec8","ios":"levelo://app?vid=b01b5bc6-6834-41fb-be97-f5b6fb7e9ec8"},"vehicle_type_id":"4","last_reported":1758924556,"current_range_meters":10000,"station_id":"","pricing_plan_id":"cebpf4jnsgd1na2vs0mg"},{"bike_id":"10a1f6b6-637c-4e45-a304-d180b707ff74","system_id":"levelo_inurba_marseille","lat":43.28433,"lon":5.37518,"is_reserved":false,"is_disabled":false,"rental_uris":{"android":"levelo://app?vid=10a1f6b6-637c-4e45-a304-d180b707ff74","ios":"levelo://app?vid=10a1f6b6-637c-4e45-a304-d180b707ff74"},"vehicle_type_id":"4","last_reported":1758924556,"current_range_meters":10000,"station_id":"ce4bh412rcd13ifvqds0","pricing_plan_id":"cebpf4jnsgd1na2vs0mg"},{"bike_id":"39bb99be-b25d-4119-b9e9-fa26430c15f1","system_id":"levelo_inurba_marseille","lat":43.29249,"lon":5.38459,"is_reserved":false,"is_disabled":false,"rental_uris":{"android":"levelo://app?vid=39bb99be-b25d-4119-b9e9-fa26430c15f1","ios":"levelo://app?vid=39bb99be-b25d-4119-b9e9-fa26430c15f1"},"vehicle_type_id":"4","last_reported":1758924556,"current_range_meters":10000,"station_id":"ce4bh692rcd13ifvqea0","pricing_plan_id":"cebpf4jnsgd1na2vs0mg"},{"bike_id":"fd7db3b2-bf6f-47a6-a193-d9e54fb8924d","system_id":"levelo_inurba_marseille","lat":43.3227,"lon":5.38991,"is_reserved":false,"is_disabled":false,"rental_uris":{"android":"levelo://app?vid=fd7db3b2-bf6f-47a6-a193-d9e54fb8924d","ios":"levelo://app?vid=fd7db3b2-bf6f-47a6-a193-d9e54fb8924d"},"vehicle_type_id":"4","last_reported":1758924556,"current_range_meters":10000,"station_id":"","pricing_plan_id":"cebpf4jnsgd1na2vs0mg"},{"bike_id":"d85a21d7-1e65-4d76-b134-97a257d3c799","system_id":"levelo_inurba_marseille","lat":43.2909,"lon":5.38153,"is_reserved":false,"is_disabled":true,"rental_uris":{"android":"levelo://app?vid=d85a21d7-1e65-4d76-b134-97a257d3c799","ios":"levelo://app?vid=d85a21d7-1e65-4d76-b134-97a257d3c799"},"vehicle_type_id":"4","last_reported":1758924556,"current_range_meters":10000,"station_id":"ce4bh512rcd13ifvqe2g","pricing_plan_id":"cebpf4jnsgd1na2vs0mg"},{"bike_id":"ec19cd43-e389-40f7-a359-1fb928965a5b","system_id":"levelo_inurba_marseille","lat":43.30456,"lon":5.38875,"is_reserved":false,"is_disabled":false,"rental_uris":{"android":"levelo://app?vid=ec19cd43-e389-40f7-a359-1fb928965a5b","ios":"levelo://app?vid=ec19cd43-e389-40f7-a359-1fb928965a5b"},"vehicle_type_id":"4","last_reported":1758924556,"current_range_meters":10000,"station_id":"ce4bgk12rcd13ifvqbi0","pricing_plan_id":"cebpf4jnsgd1na2vs0mg"},{"bike_id":"376bcd1f-630a-4f4d-a49d-a8583356e5a2","system_id":"levelo_inurba_marseille","lat":43.28631,"lon":5.39303,"is_reserved":false,"is_disabled":false,"rental_uris":{"android":"levelo://app?vid=376bcd1f-630a-4f4d-a49d-a8583356e5a2","ios":"levelo://app?vid=376bcd1f-630a-4f4d-a49d-a8583356e5a2"},"vehicle_type_id":"4","last_reported":1758924556,"current_range_meters":10800,"station_id":"","pricing_plan_id":"cebpf4jnsgd1na2vs0mg"},{"bike_id":"2907de3a-cdb7-4c49-945b-9d4546080cdd","system_id":"levelo_inurba_marseille","lat":43.29484,"lon":5.36223,"is_reserved":false,"is_disabled":false,"rental_uris":{"android":"levelo://app?vid=2907de3a-cdb7-4c49-945b-9d4546080cdd","ios":"levelo://app?vid=2907de3a-cdb7-4c49-945b-9d4546080cdd"},"vehicle_type_id":"4","last_reported":1758924556,"current_range_meters":10800,"station_id":"","pricing_plan_id":"cebpf4jnsgd1na2vs0mg"},{"bike_id":"8fb6b312-30ed-4765-90d6-32ed783bc889","system_id":"levelo_inurba_marseille","lat":43.2999,"lon":5.41324,"is_reserved":false,"is_disabled":true,"rental_uris":{"android":"levelo://app?vid=8fb6b312-30ed-4765-90d6-32ed783bc889","ios":"levelo://app?vid=8fb6b312-30ed-4765-90d6-32ed783bc889"},"vehicle_type_id":"4","last_reported":1758924556,"current_range_meters":10800,"station_id":"ce4bhp12rcd13ifvqh9g","pricing_plan_id":"cebpf4jnsgd1na2vs0mg"},{"bike_id":"c975862c-3721-4ac1-a6a4-5b86cf0364aa","system_id":"levelo_inurba_marseille","lat":43.21196,"lon":5.3507,"is_reserved":false,"is_disabled":false,"rental_uris":{"android":"levelo://app?vid=c975862c-3721-4ac1-a6a4-5b86cf0364aa","ios":"levelo://app?vid=c975862c-3721-4ac1-a6a4-5b86cf0364aa"},"vehicle_type_id":"4","last_reported":1758924556,"current_range_meters":10800,"station_id":"st_cvj6sg6p6f1abm77japg","pricing_plan_id":"cebpf4jnsgd1na2vs0mg"},{"bike_id":"8baeac13-7e80-456d-83aa-12e0372d0df5","system_id":"levelo_inurba_marseille","lat":43.32497,"lon":5.37541,"is_reserved":false,"is_disabled":false,"rental_uris":{"android":"levelo://app?vid=8baeac13-7e80-456d-83aa-12e0372d0df5","ios":"levelo://app?vid=8baeac13-7e80-456d-83aa-12e0372d0df5"},"vehicle_type_id":"4","last_reported":1758924556,"current_range_meters":10800,"station_id":"","pricing_plan_id":"cebpf4jnsgd1na2vs0mg"},{"bike_id":"2547ab0a-d261-4ba0-b20d-1172aa2ff3b2","system_id":"levelo_inurba_marseille","lat":43.24677,"lon":5.38148,"is_reserved":false,"is_disabled":false,"rental_uris":{"android":"levelo://app?vid=2547ab0a-d261-4ba0-b20d-1172aa2ff3b2","ios":"levelo://app?vid=2547ab0a-d261-4ba0-b20d-1172aa2ff3b2"},"vehicle_type_id":"4","last_reported":1758924556,"current_range_meters":10800,"station_id":"ce4bhih2rcd13ifvqfr0","pricing_plan_id":"cebpf4jnsgd1na2vs0mg"},{"bike_id":"b77c0c26-5543-49c5-acf9-741f709ee51a","system_id":"levelo_inurba_marseille","lat":43.26484,"lon":5.39537,"is_reserved":false,"is_disabled":true,"rental_uris":{"android":"levelo://app?vid=b77c0c26-5543-49c5-acf9-741f709ee51a","ios":"levelo://app?vid=b77c0c26-5543-49c5-acf9-741f709ee51a"},"vehicle_type_id":"4","last_reported":1758924556,"current_range_meters":10800,"station_id":"ce4bhi12rcd13ifvqfq0","pricing_plan_id":"cebpf4jnsgd1na2vs0mg"},{"bike_id":"a57b3feb-2354-42fe-87fd-e8fcee3a0260","system_id":"levelo_inurba_marseille","lat":43.26953,"lon":5.40241,"is_reserved":false,"is_disabled":false,"rental_uris":{"android":"levelo://app?vid=a57b3feb-2354-42fe-87fd-e8fcee3a0260","ios":"levelo://app?vid=a57b3feb-2354-42fe-87fd-e8fcee3a0260"},"vehicle_type_id":"4","last_reported":1758924556,"current_range_meters":10800,"station_id":"","pricing_plan_id":"cebpf4jnsgd1na2vs0mg"},{"bike_id":"dee81b5b-7c48-4c75-8249-0abe4ffef252","system_id":"levelo_inurba_marseille","lat":43.249472,"lon":5.405002,"is_reserved":false,"is_disabled":false,"rental_uris":{"android":"levelo://app?vid=dee81b5b-7c48-4c75-8249-0abe4ffef252","ios":"levelo://app?vid=dee81b5b-7c48-4c75-8249-0abe4ffef252"},"vehicle_type_id":"4","last_reported":1758924556,"current_range_meters":11200,"station_id":"st_d2ngiaodas8pm72gd1h0","pricing_plan_id":"cebpf4jnsgd1na2vs0mg"},{"bike_id":"46f1329b-c594-4ee4-8557-4bfebb90c7d8","system_id":"levelo_inurba_marseille","lat":43.312163,"lon":5.368509,"is_reserved":false,"is_disabled":false,"rental_uris":{"android":"levelo://app?vid=46f1329b-c594-4ee4-8557-4bfebb90c7d8","ios":"levelo://app?vid=46f1329b-c594-4ee4-8557-4bfebb90c7d8"},"vehicle_type_id":"4","last_reported":1758924556,"current_range_meters":11200,"station_id":"ce4bgl92rcd13ifvqbq0","pricing_plan_id":"cebpf4jnsgd1na2vs0mg"},{"bike_id":"04e1f2fc-a999-4e5d-b642-eb389a3f0235","system_id":"levelo_inurba_marseille","lat":43.30536,"lon":5.36522,"is_reserved":false,"is_disabled":true,"rental_uris":{"android":"levelo://app?vid=04e1f2fc-a999-4e5d-b642-eb389a3f0235","ios":"levelo://app?vid=04e1f2fc-a999-4e5d-b642-eb389a3f0235"},"vehicle_type_id":"4","last_reported":1758924556,"current_range_meters":11200,"station_id":"ce4bgs12rcd13ifvqcag","pricing_plan_id":"cebpf4jnsgd1na2vs0mg"},{"bike_id":"a639c491-c436-478a-8d5d-bd2c30b918ff","system_id":"levelo_inurba_marseille","lat":43.29776,"lon":5.37211,"is_reserved":false,"is_disabled":false,"rental_uris":{"android":"levelo://app?vid=a639c491-c436-478a-8d5d-bd2c30b918ff","ios":"levelo://app?vid=a639c491-c436-478a-8d5d-bd2c30b918ff"},"vehicle_type_id":"4","last_reported":1758924556,"current_range_meters":11200,"station_id":"","pricing_plan_id":"cebpf4jnsgd1na2vs0mg"},{"bike_id":"352f91e9-5fa9-4f13-ae53-d65b7edf6e35","system_id":"levelo_inurba_marseille","lat":43.31686,"lon":5.40478,"is_reserved":false,"is_disabled":false,"rental_uris":{"android":"levelo://app?vid=352f91e9-5fa9-4f13-ae53-d65b7edf6e35","ios":"levelo://app?vid=352f91e9-5fa9-4f13-ae53-d65b7edf6e35"},"vehicle_type_id":"4","last_reported":1758924556,"current_range_meters":10800,"station_id":"ce4bh012rcd13ifvqd00","pricing_plan_id":"cebpf4jnsgd1na2vs0mg"},{"bike_id":"6bcdfc7c-350c-4674-9ede-2928d75a3a1a","system_id":"levelo_inurba_marseille","lat":43.25307,"lon":5.42077,"is_reserved":false,"is_disabled":false,"rental_uris":{"android":"levelo://app?vid=6bcdfc7c-350c-4674-9ede-2928d75a3a1a","ios":"levelo://app?vid=6bcdfc7c-350c-4674-9ede-2928d75a3a1a"},"vehicle_type_id":"4","last_reported":1758924556,"current_range_meters":11200,"station_id":"","pricing_plan_id":"cebpf4jnsgd1na2vs0mg"},{"bike_id":"df649d25-1f44-4471-8cdd-9566da8ef9b9","system_id":"levelo_inurba_marseille","lat":43.31906,"lon":5.39311,"is_reserved":false,"is_disabled":false,"rental_uris":{"android":"levelo://app?vid=df649d25-1f44-4471-8cdd-9566da8ef9b9","ios":"levelo://app?vid=df649d25-1f44-4471-8cdd-9566da8ef9b9"},"vehicle_type_id":"4","last_reported":1758924556,"current_range_meters":11600,"station_id":"","pricing_plan_id":"cebpf4jnsgd1na2vs0mg"},{"bike_id":"6f7da9ea-ed51-485c-9b5c-d086b463c457","system_id":"levelo_inurba_marseille","lat":43.26195,"lon":5.37452,"is_reserved":false,"is_disabled":true,"rental_uris":{"android":"levelo://app?vid=6f7da9ea-ed51-485c-9b5c-d086b463c457","ios":"levelo://app?vid=6f7da9ea-ed51-485c-9b5c-d086b463c457"},"vehicle_type_id":"4","last_reported":1758924556,"current_range_meters":11600,"station_id":"ce4bhgp2rcd13ifvqfc0","pricing_plan_id":"cebpf4jnsgd1na2vs0mg"},{"bike_id":"8dc00af3-5715-49ae-82c9-28552fd6dd37","system_id":"levelo_inurba_marseille","lat":43.28997,"lon":5.35617,"is_reserved":false,"is_disabled":false,"rental_uris":{"android":"levelo://app?vid=8dc00af3-5715-49ae-82c9-28552fd6dd37","ios":"levelo://app?vid=8dc00af3-5715-49ae-82c9-28552fd6dd37"},"vehicle_type_id":"4","last_reported":1758924556,"current_range_meters":11600,"station_id":"ce4bhb92rcd13ifvqen0","pricing_plan_id":"cebpf4jnsgd1na2vs0mg"},{"bike_id":"99520b93-ac28-4b8e-bc72-4ad6f349c3ac","system_id":"levelo_inurba_marseille","lat":43.30325,"lon":5.40442,"is_reserved":false,"is_disabled":false,"rental_uris":{"android":"levelo://app?vid=99520b93-ac28-4b8e-bc72-4ad6f349c3ac","ios":"levelo://app?vid=99520b93-ac28-4b8e-bc72-4ad6f349c3ac"},"vehicle_type_id":"4","last_reported":1758924556,"current_range_meters":11200,"station_id":"ce4bh012rcd13ifvqd10","pricing_plan_id":"cebpf4jnsgd1na2vs0mg"},{"bike_id":"ca7849f4-d722-49c8-ba75-9d23fe49404b","system_id":"levelo_inurba_marseille","lat":43.29261,"lon":5.38442,"is_reserved":false,"is_disabled":false,"rental_uris":{"android":"levelo://app?vid=ca7849f4-d722-49c8-ba75-9d23fe49404b","ios":"levelo://app?vid=ca7849f4-d722-49c8-ba75-9d23fe49404b"},"vehicle_type_id":"4","last_reported":1758924556,"current_range_meters":11600,"station_id":"ce4bh692rcd13ifvqea0","pricing_plan_id":"cebpf4jnsgd1na2vs0mg"},{"bike_id":"d8cef628-e88d-4b50-95c6-0bfb706570fb","system_id":"levelo_inurba_marseille","lat":43.270483,"lon":5.402061,"is_reserved":false,"is_disabled":false,"rental_uris":{"android":"levelo://app?vid=d8cef628-e88d-4b50-95c6-0bfb706570fb","ios":"levelo://app?vid=d8cef628-e88d-4b50-95c6-0bfb706570fb"},"vehicle_type_id":"4","last_reported":1758924556,"current_range_meters":11600,"station_id":"ce4bhl12rcd13ifvqgf0","pricing_plan_id":"cebpf4jnsgd1na2vs0mg"},{"bike_id":"492ad12c-b243-47af-8b99-b8dc1dc5237a","system_id":"levelo_inurba_marseille","lat":43.22937,"lon":5.35368,"is_reserved":false,"is_disabled":false,"rental_uris":{"android":"levelo://app?vid=492ad12c-b243-47af-8b99-b8dc1dc5237a","ios":"levelo://app?vid=492ad12c-b243-47af-8b99-b8dc1dc5237a"},"vehicle_type_id":"4","last_reported":1758924556,"current_range_meters":11600,"station_id":"cpo3532slgdg3j2ikp40","pricing_plan_id":"cebpf4jnsgd1na2vs0mg"},{"bike_id":"f2fe1943-f40a-4ecf-a534-fbb1aecdddfe","system_id":"levelo_inurba_marseille","lat":43.29249,"lon":5.38463,"is_reserved":false,"is_disabled":false,"rental_uris":{"android":"levelo://app?vid=f2fe1943-f40a-4ecf-a534-fbb1aecdddfe","ios":"levelo://app?vid=f2fe1943-f40a-4ecf-a534-fbb1aecdddfe"},"vehicle_type_id":"4","last_reported":1758924556,"current_range_meters":11600,"station_id":"ce4bh692rcd13ifvqea0","pricing_plan_id":"cebpf4jnsgd1na2vs0mg"},{"bike_id":"08292ac0-f4a0-4778-9703-5ac015ee1e3a","system_id":"levelo_inurba_marseille","lat":43.24624,"lon":5.43127,"is_reserved":false,"is_disabled":false,"rental_uris":{"android":"levelo://app?vid=08292ac0-f4a0-4778-9703-5ac015ee1e3a","ios":"levelo://app?vid=08292ac0-f4a0-4778-9703-5ac015ee1e3a"},"vehicle_type_id":"4","last_reported":1758924556,"current_range_meters":12000,"station_id":"st_d2m6c4gdas8pm72e190g","pricing_plan_id":"cebpf4jnsgd1na2vs0mg"},{"bike_id":"c63c789f-70c5-472e-856e-325a0e5df381","system_id":"levelo_inurba_marseille","lat":43.317114,"lon":5.43708,"is_reserved":false,"is_disabled":false,"rental_uris":{"android":"levelo://app?vid=c63c789f-70c5-472e-856e-325a0e5df381","ios":"levelo://app?vid=c63c789f-70c5-472e-856e-325a0e5df381"},"vehicle_type_id":"4","last_reported":1758924556,"current_range_meters":11600,"station_id":"ce4bhp92rcd13ifvqhcg","pricing_plan_id":"cebpf4jnsgd1na2vs0mg"},{"bike_id":"122f1acc-f66a-4b6c-9b2f-40f9ba4c9daf","system_id":"levelo_inurba_marseille","lat":43.281065,"lon":5.378318,"is_reserved":false,"is_disabled":false,"rental_uris":{"android":"levelo://app?vid=122f1acc-f66a-4b6c-9b2f-40f9ba4c9daf","ios":"levelo://app?vid=122f1acc-f66a-4b6c-9b2f-40f9ba4c9daf"},"vehicle_type_id":"4","last_reported":1758924556,"current_range_meters":12000,"station_id":"ce4bha12rcd13ifvqee0","pricing_plan_id":"cebpf4jnsgd1na2vs0mg"},{"bike_id":"ffe7e82a-c1a4-44c5-8be6-3a108e61f1b1","system_id":"levelo_inurba_marseille","lat":43.29036,"lon":5.38641,"is_reserved":false,"is_disabled":false,"rental_uris":{"android":"levelo://app?vid=ffe7e82a-c1a4-44c5-8be6-3a108e61f1b1","ios":"levelo://app?vid=ffe7e82a-c1a4-44c5-8be6-3a108e61f1b1"},"vehicle_type_id":"4","last_reported":1758924556,"current_range_meters":12000,"station_id":"ce4bh4p2rcd13ifvqe0g","pricing_plan_id":"cebpf4jnsgd1na2vs0mg"},{"bike_id":"7266fb39-452a-4e7f-aafa-8725c9c5d955","system_id":"levelo_inurba_marseille","lat":43.27172,"lon":5.40985,"is_reserved":false,"is_disabled":false,"rental_uris":{"android":"levelo://app?vid=7266fb39-452a-4e7f-aafa-8725c9c5d955","ios":"levelo://app?vid=7266fb39-452a-4e7f-aafa-8725c9c5d955"},"vehicle_type_id":"4","last_reported":1758924556,"current_range_meters":12000,"station_id":"ce4bhl12rcd13ifvqgf0","pricing_plan_id":"cebpf4jnsgd1na2vs0mg"},{"bike_id":"3f51e03c-3abb-4dde-8cdd-da596aa3252f","system_id":"levelo_inurba_marseille","lat":43.27672,"lon":5.38893,"is_reserved":false,"is_disabled":true,"rental_uris":{"android":"levelo://app?vid=3f51e03c-3abb-4dde-8cdd-da596aa3252f","ios":"levelo://app?vid=3f51e03c-3abb-4dde-8cdd-da596aa3252f"},"vehicle_type_id":"4","last_reported":1758924556,"current_range_meters":12000,"station_id":"ce4bhi12rcd13ifvqfo0","pricing_plan_id":"cebpf4jnsgd1na2vs0mg"},{"bike_id":"f8128348-f3bf-41cc-8b6e-a6df8137ba43","system_id":"levelo_inurba_marseille","lat":43.2927,"lon":5.38447,"is_reserved":false,"is_disabled":false,"rental_uris":{"android":"levelo://app?vid=f8128348-f3bf-41cc-8b6e-a6df8137ba43","ios":"levelo://app?vid=f8128348-f3bf-41cc-8b6e-a6df8137ba43"},"vehicle_type_id":"4","last_reported":1758924556,"current_range_meters":12000,"station_id":"ce4bh692rcd13ifvqea0","pricing_plan_id":"cebpf4jnsgd1na2vs0mg"},{"bike_id":"9a4f92ed-e086-4038-a651-bbe0613f80bd","system_id":"levelo_inurba_marseille","lat":43.22569,"lon":5.41621,"is_reserved":false,"is_disabled":false,"rental_uris":{"android":"levelo://app?vid=9a4f92ed-e086-4038-a651-bbe0613f80bd","ios":"levelo://app?vid=9a4f92ed-e086-4038-a651-bbe0613f80bd"},"vehicle_type_id":"4","last_reported":1758924556,"current_range_meters":12000,"station_id":"st_d2o4gvlbi1j2169b742g","pricing_plan_id":"cebpf4jnsgd1na2vs0mg"},{"bike_id":"210e0c91-b0a4-489f-bed8-a2c07381a313","system_id":"levelo_inurba_marseille","lat":43.29249,"lon":5.40896,"is_reserved":false,"is_disabled":false,"rental_uris":{"android":"levelo://app?vid=210e0c91-b0a4-489f-bed8-a2c07381a313","ios":"levelo://app?vid=210e0c91-b0a4-489f-bed8-a2c07381a313"},"vehicle_type_id":"4","last_reported":1758924556,"current_range_meters":11600,"station_id":"ce4bh192rcd13ifvqdc0","pricing_plan_id":"cebpf4jnsgd1na2vs0mg"},{"bike_id":"57dc4d48-a588-470d-9e76-731f989cf022","system_id":"levelo_inurba_marseille","lat":43.27178,"lon":5.40985,"is_reserved":false,"is_disabled":false,"rental_uris":{"android":"levelo://app?vid=57dc4d48-a588-470d-9e76-731f989cf022","ios":"levelo://app?vid=57dc4d48-a588-470d-9e76-731f989cf022"},"vehicle_type_id":"4","last_reported":1758924556,"current_range_meters":12000,"station_id":"ce4bhl12rcd13ifvqgf0","pricing_plan_id":"cebpf4jnsgd1na2vs0mg"},{"bike_id":"08fe2b08-b3fa-43f8-ae73-04061f76318d","system_id":"levelo_inurba_marseille","lat":43.305552,"lon":5.365395,"is_reserved":false,"is_disabled":false,"rental_uris":{"android":"levelo://app?vid=08fe2b08-b3fa-43f8-ae73-04061f76318d","ios":"levelo://app?vid=08fe2b08-b3fa-43f8-ae73-04061f76318d"},"vehicle_type_id":"4","last_reported":1758924556,"current_range_meters":12000,"station_id":"","pricing_plan_id":"cebpf4jnsgd1na2vs0mg"},{"bike_id":"10b8d871-07e9-4114-9eb9-6bcce40e7beb","system_id":"levelo_inurba_marseille","lat":43.27045,"lon":5.392226,"is_reserved":false,"is_disabled":false,"rental_uris":{"android":"levelo://app?vid=10b8d871-07e9-4114-9eb9-6bcce40e7beb","ios":"levelo://app?vid=10b8d871-07e9-4114-9eb9-6bcce40e7beb"},"vehicle_type_id":"4","last_reported":1758924556,"current_range_meters":12000,"station_id":"ce4bhe12rcd13ifvqf30","pricing_plan_id":"cebpf4jnsgd1na2vs0mg"},{"bike_id":"13c437d3-2783-407a-b2ba-80161eb7630e","system_id":"levelo_inurba_marseille","lat":43.279,"lon":5.38024,"is_reserved":false,"is_disabled":false,"rental_uris":{"android":"levelo://app?vid=13c437d3-2783-407a-b2ba-80161eb7630e","ios":"levelo://app?vid=13c437d3-2783-407a-b2ba-80161eb7630e"},"vehicle_type_id":"4","last_reported":1758924556,"current_range_meters":11600,"station_id":"ce4bhf92rcd13ifvqf50","pricing_plan_id":"cebpf4jnsgd1na2vs0mg"},{"bike_id":"3be1415e-65a3-4c87-9e41-bbfa45afed45","system_id":"levelo_inurba_marseille","lat":43.29901,"lon":5.43681,"is_reserved":false,"is_disabled":false,"rental_uris":{"android":"levelo://app?vid=3be1415e-65a3-4c87-9e41-bbfa45afed45","ios":"levelo://app?vid=3be1415e-65a3-4c87-9e41-bbfa45afed45"},"vehicle_type_id":"4","last_reported":1758924556,"current_range_meters":12400,"station_id":"ce4bhpp2rcd13ifvqhfg","pricing_plan_id":"cebpf4jnsgd1na2vs0mg"},{"bike_id":"6948e7cf-b0a1-40f5-8c98-6380a618c11b","system_id":"levelo_inurba_marseille","lat":43.27993,"lon":5.41668,"is_reserved":false,"is_disabled":false,"rental_uris":{"android":"levelo://app?vid=6948e7cf-b0a1-40f5-8c98-6380a618c11b","ios":"levelo://app?vid=6948e7cf-b0a1-40f5-8c98-6380a618c11b"},"vehicle_type_id":"4","last_reported":1758924556,"current_range_meters":12400,"station_id":"ce4bho12rcd13ifvqh1g","pricing_plan_id":"cebpf4jnsgd1na2vs0mg"},{"bike_id":"de3747e9-e37c-4cdb-ad1a-9f67e8a91990","system_id":"levelo_inurba_marseille","lat":43.23232,"lon":5.39979,"is_reserved":false,"is_disabled":false,"rental_uris":{"android":"levelo://app?vid=de3747e9-e37c-4cdb-ad1a-9f67e8a91990","ios":"levelo://app?vid=de3747e9-e37c-4cdb-ad1a-9f67e8a91990"},"vehicle_type_id":"4","last_reported":1758924556,"current_range_meters":12400,"station_id":"","pricing_plan_id":"cebpf4jnsgd1na2vs0mg"},{"bike_id":"4407f0c7-f8f2-44c4-b16c-74d5984e3278","system_id":"levelo_inurba_marseille","lat":43.25571,"lon":5.38239,"is_reserved":false,"is_disabled":true,"rental_uris":{"android":"levelo://app?vid=4407f0c7-f8f2-44c4-b16c-74d5984e3278","ios":"levelo://app?vid=4407f0c7-f8f2-44c4-b16c-74d5984e3278"},"vehicle_type_id":"4","last_reported":1758924556,"current_range_meters":12400,"station_id":"ce4bhih2rcd13ifvqfs0","pricing_plan_id":"cebpf4jnsgd1na2vs0mg"},{"bike_id":"6a7cec8d-5791-46cc-bb14-916509c086e4","system_id":"levelo_inurba_marseille","lat":43.303,"lon":5.39209,"is_reserved":false,"is_disabled":false,"rental_uris":{"android":"levelo://app?vid=6a7cec8d-5791-46cc-bb14-916509c086e4","ios":"levelo://app?vid=6a7cec8d-5791-46cc-bb14-916509c086e4"},"vehicle_type_id":"4","last_reported":1758924556,"current_range_meters":12000,"station_id":"ce4bgkh2rcd13ifvqbk0","pricing_plan_id":"cebpf4jnsgd1na2vs0mg"},{"bike_id":"fee74e98-eb52-4f66-a612-109c75f34aa6","system_id":"levelo_inurba_marseille","lat":43.29629,"lon":5.37963,"is_reserved":false,"is_disabled":false,"rental_uris":{"android":"levelo://app?vid=fee74e98-eb52-4f66-a612-109c75f34aa6","ios":"levelo://app?vid=fee74e98-eb52-4f66-a612-109c75f34aa6"},"vehicle_type_id":"4","last_reported":1758924556,"current_range_meters":12400,"station_id":"","pricing_plan_id":"cebpf4jnsgd1na2vs0mg"},{"bike_id":"0b2fda4e-ac18-414b-8b05-54fcdd4fc421","system_id":"levelo_inurba_marseille","lat":43.32291,"lon":5.38255,"is_reserved":false,"is_disabled":false,"rental_uris":{"android":"levelo://app?vid=0b2fda4e-ac18-414b-8b05-54fcdd4fc421","ios":"levelo://app?vid=0b2fda4e-ac18-414b-8b05-54fcdd4fc421"},"vehicle_type_id":"4","last_reported":1758924556,"current_range_meters":12400,"station_id":"ce4bhr12rcd13ifvqhqg","pricing_plan_id":"cebpf4jnsgd1na2vs0mg"},{"bike_id":"a72d417c-362e-4cba-91c3-dce7b2ae75e9","system_id":"levelo_inurba_marseille","lat":43.30662,"lon":5.40081,"is_reserved":false,"is_disabled":false,"rental_uris":{"android":"levelo://app?vid=a72d417c-362e-4cba-91c3-dce7b2ae75e9","ios":"levelo://app?vid=a72d417c-362e-4cba-91c3-dce7b2ae75e9"},"vehicle_type_id":"4","last_reported":1758924556,"current_range_meters":12400,"station_id":"ce4bh112rcd13ifvqda0","pricing_plan_id":"cebpf4jnsgd1na2vs0mg"},{"bike_id":"dbee219e-5153-4b73-9f21-b46d94357ac7","system_id":"levelo_inurba_marseille","lat":43.299091,"lon":5.381304,"is_reserved":false,"is_disabled":true,"rental_uris":{"android":"levelo://app?vid=dbee219e-5153-4b73-9f21-b46d94357ac7","ios":"levelo://app?vid=dbee219e-5153-4b73-9f21-b46d94357ac7"},"vehicle_type_id":"4","last_reported":1758924556,"current_range_meters":12400,"station_id":"ce4bgj12rcd13ifvqbc0","pricing_plan_id":"cebpf4jnsgd1na2vs0mg"},{"bike_id":"77c0e99c-2272-4013-b1be-53a8f1a0125e","system_id":"levelo_inurba_marseille","lat":43.2895,"lon":5.364,"is_reserved":false,"is_disabled":false,"rental_uris":{"android":"levelo://app?vid=77c0e99c-2272-4013-b1be-53a8f1a0125e","ios":"levelo://app?vid=77c0e99c-2272-4013-b1be-53a8f1a0125e"},"vehicle_type_id":"4","last_reported":1758924556,"current_range_meters":12400,"station_id":"ce4bhc92rcd13ifvqetg","pricing_plan_id":"cebpf4jnsgd1na2vs0mg"},{"bike_id":"1f18a9ba-9440-4dd5-a53f-753817bf2134","system_id":"levelo_inurba_marseille","lat":43.2822,"lon":5.39064,"is_reserved":false,"is_disabled":false,"rental_uris":{"android":"levelo://app?vid=1f18a9ba-9440-4dd5-a53f-753817bf2134","ios":"levelo://app?vid=1f18a9ba-9440-4dd5-a53f-753817bf2134"},"vehicle_type_id":"4","last_reported":1758924556,"current_range_meters":12800,"station_id":"ce4bhn92rcd13ifvqgsg","pricing_plan_id":"cebpf4jnsgd1na2vs0mg"},{"bike_id":"cff89afc-fc2e-4a21-b156-855b02c41c7a","system_id":"levelo_inurba_marseille","lat":43.29003,"lon":5.35607,"is_reserved":false,"is_disabled":false,"rental_uris":{"android":"levelo://app?vid=cff89afc-fc2e-4a21-b156-855b02c41c7a","ios":"levelo://app?vid=cff89afc-fc2e-4a21-b156-855b02c41c7a"},"vehicle_type_id":"4","last_reported":1758924556,"current_range_meters":12800,"station_id":"","pricing_plan_id":"cebpf4jnsgd1na2vs0mg"},{"bike_id":"6d6d8da8-e6bd-4401-8227-e4015a556e81","system_id":"levelo_inurba_marseille","lat":43.25118,"lon":5.40317,"is_reserved":false,"is_disabled":false,"rental_uris":{"android":"levelo://app?vid=6d6d8da8-e6bd-4401-8227-e4015a556e81","ios":"levelo://app?vid=6d6d8da8-e6bd-4401-8227-e4015a556e81"},"vehicle_type_id":"4","last_reported":1758924556,"current_range_meters":12800,"station_id":"ce4bhlh2rcd13ifvqgig","pricing_plan_id":"cebpf4jnsgd1na2vs0mg"},{"bike_id":"4967fbfe-ba28-46be-a651-2ceddedb5e6e","system_id":"levelo_inurba_marseille","lat":43.26224,"lon":5.40455,"is_reserved":false,"is_disabled":false,"rental_uris":{"android":"levelo://app?vid=4967fbfe-ba28-46be-a651-2ceddedb5e6e","ios":"levelo://app?vid=4967fbfe-ba28-46be-a651-2ceddedb5e6e"},"vehicle_type_id":"4","last_reported":1758924556,"current_range_meters":12800,"station_id":"ce4bhmh2rcd13ifvqgmg","pricing_plan_id":"cebpf4jnsgd1na2vs0mg"},{"bike_id":"f626f457-0696-4e32-af9e-687030f53c6d","system_id":"levelo_inurba_marseille","lat":43.33764,"lon":5.37466,"is_reserved":false,"is_disabled":false,"rental_uris":{"android":"levelo://app?vid=f626f457-0696-4e32-af9e-687030f53c6d","ios":"levelo://app?vid=f626f457-0696-4e32-af9e-687030f53c6d"},"vehicle_type_id":"4","last_reported":1758924556,"current_range_meters":12800,"station_id":"","pricing_plan_id":"cebpf4jnsgd1na2vs0mg"},{"bike_id":"41fbe864-b9c2-4b8a-a22b-e40ee788b52e","system_id":"levelo_inurba_marseille","lat":43.25079,"lon":5.39501,"is_reserved":false,"is_disabled":false,"rental_uris":{"android":"levelo://app?vid=41fbe864-b9c2-4b8a-a22b-e40ee788b52e","ios":"levelo://app?vid=41fbe864-b9c2-4b8a-a22b-e40ee788b52e"},"vehicle_type_id":"4","last_reported":1758924556,"current_range_meters":12800,"station_id":"ce4bhm12rcd13ifvqgkg","pricing_plan_id":"cebpf4jnsgd1na2vs0mg"},{"bike_id":"be1814db-bf84-4cf5-bb4c-e85c99bcf7f3","system_id":"levelo_inurba_marseille","lat":43.29792,"lon":5.40396,"is_reserved":false,"is_disabled":false,"rental_uris":{"android":"levelo://app?vid=be1814db-bf84-4cf5-bb4c-e85c99bcf7f3","ios":"levelo://app?vid=be1814db-bf84-4cf5-bb4c-e85c99bcf7f3"},"vehicle_type_id":"4","last_reported":1758924556,"current_range_meters":12800,"station_id":"ce4bh112rcd13ifvqd90","pricing_plan_id":"cebpf4jnsgd1na2vs0mg"},{"bike_id":"8cf842e4-76c1-4a82-ad31-66529da65dba","system_id":"levelo_inurba_marseille","lat":43.26715,"lon":5.40194,"is_reserved":false,"is_disabled":false,"rental_uris":{"android":"levelo://app?vid=8cf842e4-76c1-4a82-ad31-66529da65dba","ios":"levelo://app?vid=8cf842e4-76c1-4a82-ad31-66529da65dba"},"vehicle_type_id":"4","last_reported":1758924556,"current_range_meters":13600,"station_id":"","pricing_plan_id":"cebpf4jnsgd1na2vs0mg"},{"bike_id":"45e07bae-690f-4ff3-a8bd-511d32841972","system_id":"levelo_inurba_marseille","lat":43.24758,"lon":5.40103,"is_reserved":false,"is_disabled":false,"rental_uris":{"android":"levelo://app?vid=45e07bae-690f-4ff3-a8bd-511d32841972","ios":"levelo://app?vid=45e07bae-690f-4ff3-a8bd-511d32841972"},"vehicle_type_id":"4","last_reported":1758924556,"current_range_meters":13600,"station_id":"","pricing_plan_id":"cebpf4jnsgd1na2vs0mg"},{"bike_id":"6e1b9ad2-639e-4130-8c68-5696f92e765e","system_id":"levelo_inurba_marseille","lat":43.3153,"lon":5.38023,"is_reserved":false,"is_disabled":false,"rental_uris":{"android":"levelo://app?vid=6e1b9ad2-639e-4130-8c68-5696f92e765e","ios":"levelo://app?vid=6e1b9ad2-639e-4130-8c68-5696f92e765e"},"vehicle_type_id":"4","last_reported":1758924556,"current_range_meters":12800,"station_id":"ce4bhsp2rcd13ifvqi50","pricing_plan_id":"cebpf4jnsgd1na2vs0mg"},{"bike_id":"85782661-163d-4a8b-b5a4-1f0a766faaa2","system_id":"levelo_inurba_marseille","lat":43.24626,"lon":5.43146,"is_reserved":false,"is_disabled":false,"rental_uris":{"android":"levelo://app?vid=85782661-163d-4a8b-b5a4-1f0a766faaa2","ios":"levelo://app?vid=85782661-163d-4a8b-b5a4-1f0a766faaa2"},"vehicle_type_id":"4","last_reported":1758924556,"current_range_meters":13600,"station_id":"st_d2m6c4gdas8pm72e190g","pricing_plan_id":"cebpf4jnsgd1na2vs0mg"},{"bike_id":"bdf98283-e040-4f5f-94a3-6c902d369273","system_id":"levelo_inurba_marseille","lat":43.2975,"lon":5.37649,"is_reserved":false,"is_disabled":true,"rental_uris":{"android":"levelo://app?vid=bdf98283-e040-4f5f-94a3-6c902d369273","ios":"levelo://app?vid=bdf98283-e040-4f5f-94a3-6c902d369273"},"vehicle_type_id":"4","last_reported":1758924556,"current_range_meters":13600,"station_id":"ce4bgkh2rcd13ifvqbl0","pricing_plan_id":"cebpf4jnsgd1na2vs0mg"},{"bike_id":"e068fba2-d5f5-4586-981c-84563a6c6666","system_id":"levelo_inurba_marseille","lat":43.313318,"lon":5.396914,"is_reserved":false,"is_disabled":true,"rental_uris":{"android":"levelo://app?vid=e068fba2-d5f5-4586-981c-84563a6c6666","ios":"levelo://app?vid=e068fba2-d5f5-4586-981c-84563a6c6666"},"vehicle_type_id":"4","last_reported":1758924556,"current_range_meters":13600,"station_id":"ce4bgvp2rcd13ifvqcu0","pricing_plan_id":"cebpf4jnsgd1na2vs0mg"},{"bike_id":"d6a80654-a684-47a2-8ad6-232c95f3dfd6","system_id":"levelo_inurba_marseille","lat":43.30601,"lon":5.39347,"is_reserved":false,"is_disabled":false,"rental_uris":{"android":"levelo://app?vid=d6a80654-a684-47a2-8ad6-232c95f3dfd6","ios":"levelo://app?vid=d6a80654-a684-47a2-8ad6-232c95f3dfd6"},"vehicle_type_id":"4","last_reported":1758924556,"current_range_meters":13600,"station_id":"ce4bh0p2rcd13ifvqd80","pricing_plan_id":"cebpf4jnsgd1na2vs0mg"},{"bike_id":"503d10d2-15aa-41f3-b81b-ef37613da9e4","system_id":"levelo_inurba_marseille","lat":43.29867,"lon":5.3973,"is_reserved":false,"is_disabled":false,"rental_uris":{"android":"levelo://app?vid=503d10d2-15aa-41f3-b81b-ef37613da9e4","ios":"levelo://app?vid=503d10d2-15aa-41f3-b81b-ef37613da9e4"},"vehicle_type_id":"4","last_reported":1758924556,"current_range_meters":13600,"station_id":"ce4bh0h2rcd13ifvqd50","pricing_plan_id":"cebpf4jnsgd1na2vs0mg"},{"bike_id":"22b59ed8-a341-4e6d-b504-ed84f8ddffb6","system_id":"levelo_inurba_marseille","lat":43.30634,"lon":5.40066,"is_reserved":false,"is_disabled":false,"rental_uris":{"android":"levelo://app?vid=22b59ed8-a341-4e6d-b504-ed84f8ddffb6","ios":"levelo://app?vid=22b59ed8-a341-4e6d-b504-ed84f8ddffb6"},"vehicle_type_id":"4","last_reported":1758924556,"current_range_meters":12800,"station_id":"ce4bh112rcd13ifvqda0","pricing_plan_id":"cebpf4jnsgd1na2vs0mg"},{"bike_id":"3652de56-c611-41c6-aa03-7fef6136da9d","system_id":"levelo_inurba_marseille","lat":43.24994,"lon":5.38931,"is_reserved":false,"is_disabled":false,"rental_uris":{"android":"levelo://app?vid=3652de56-c611-41c6-aa03-7fef6136da9d","ios":"levelo://app?vid=3652de56-c611-41c6-aa03-7fef6136da9d"},"vehicle_type_id":"4","last_reported":1758924556,"current_range_meters":14000,"station_id":"ce4bhgp2rcd13ifvqfd0","pricing_plan_id":"cebpf4jnsgd1na2vs0mg"},{"bike_id":"70b7ea01-eb7d-4ad4-9d7b-08819c9c9cd3","system_id":"levelo_inurba_marseille","lat":43.25566,"lon":5.38253,"is_reserved":false,"is_disabled":true,"rental_uris":{"android":"levelo://app?vid=70b7ea01-eb7d-4ad4-9d7b-08819c9c9cd3","ios":"levelo://app?vid=70b7ea01-eb7d-4ad4-9d7b-08819c9c9cd3"},"vehicle_type_id":"4","last_reported":1758924556,"current_range_meters":14000,"station_id":"ce4bhih2rcd13ifvqfs0","pricing_plan_id":"cebpf4jnsgd1na2vs0mg"},{"bike_id":"83c24ba8-e5e4-4dcf-945a-5a9ee254e274","system_id":"levelo_inurba_marseille","lat":43.2707,"lon":5.42273,"is_reserved":false,"is_disabled":false,"rental_uris":{"android":"levelo://app?vid=83c24ba8-e5e4-4dcf-945a-5a9ee254e274","ios":"levelo://app?vid=83c24ba8-e5e4-4dcf-945a-5a9ee254e274"},"vehicle_type_id":"4","last_reported":1758924556,"current_range_meters":14000,"station_id":"ce4bhk92rcd13ifvqgb0","pricing_plan_id":"cebpf4jnsgd1na2vs0mg"},{"bike_id":"5a85c95d-db7c-4aff-bb3e-11fe5a5d2127","system_id":"levelo_inurba_marseille","lat":43.26568,"lon":5.39003,"is_reserved":false,"is_disabled":false,"rental_uris":{"android":"levelo://app?vid=5a85c95d-db7c-4aff-bb3e-11fe5a5d2127","ios":"levelo://app?vid=5a85c95d-db7c-4aff-bb3e-11fe5a5d2127"},"vehicle_type_id":"4","last_reported":1758924556,"current_range_meters":14000,"station_id":"ce4bhe12rcd13ifvqf30","pricing_plan_id":"cebpf4jnsgd1na2vs0mg"},{"bike_id":"087d1eec-71d8-40d1-8eb7-d533d3ec6504","system_id":"levelo_inurba_marseille","lat":43.29874,"lon":5.38906,"is_reserved":false,"is_disabled":false,"rental_uris":{"android":"levelo://app?vid=087d1eec-71d8-40d1-8eb7-d533d3ec6504","ios":"levelo://app?vid=087d1eec-71d8-40d1-8eb7-d533d3ec6504"},"vehicle_type_id":"4","last_reported":1758924556,"current_range_meters":14000,"station_id":"ce4bh392rcd13ifvqdl0","pricing_plan_id":"cebpf4jnsgd1na2vs0mg"},{"bike_id":"9bb4db31-0bf9-4171-bca1-76cb045f53a3","system_id":"levelo_inurba_marseille","lat":43.26924,"lon":5.389081,"is_reserved":false,"is_disabled":true,"rental_uris":{"android":"levelo://app?vid=9bb4db31-0bf9-4171-bca1-76cb045f53a3","ios":"levelo://app?vid=9bb4db31-0bf9-4171-bca1-76cb045f53a3"},"vehicle_type_id":"4","last_reported":1758924556,"current_range_meters":14000,"station_id":"ce4bhhh2rcd13ifvqfl0","pricing_plan_id":"cebpf4jnsgd1na2vs0mg"},{"bike_id":"bc0393b7-d33c-4ccd-b14b-ab85359e112d","system_id":"levelo_inurba_marseille","lat":43.29027,"lon":5.38133,"is_reserved":false,"is_disabled":false,"rental_uris":{"android":"levelo://app?vid=bc0393b7-d33c-4ccd-b14b-ab85359e112d","ios":"levelo://app?vid=bc0393b7-d33c-4ccd-b14b-ab85359e112d"},"vehicle_type_id":"4","last_reported":1758924556,"current_range_meters":14000,"station_id":"ce4bh4p2rcd13ifvqe1g","pricing_plan_id":"cebpf4jnsgd1na2vs0mg"},{"bike_id":"e9965d7f-c60b-4fbd-96cd-93282f8867aa","system_id":"levelo_inurba_marseille","lat":43.25328,"lon":5.42173,"is_reserved":false,"is_disabled":false,"rental_uris":{"android":"levelo://app?vid=e9965d7f-c60b-4fbd-96cd-93282f8867aa","ios":"levelo://app?vid=e9965d7f-c60b-4fbd-96cd-93282f8867aa"},"vehicle_type_id":"4","last_reported":1758924556,"current_range_meters":14000,"station_id":"st_d2m65c5bi1j21697t3ng","pricing_plan_id":"cebpf4jnsgd1na2vs0mg"},{"bike_id":"2a416e7a-1803-402e-9523-74bfe690bd54","system_id":"levelo_inurba_marseille","lat":43.32365,"lon":5.36767,"is_reserved":false,"is_disabled":false,"rental_uris":{"android":"levelo://app?vid=2a416e7a-1803-402e-9523-74bfe690bd54","ios":"levelo://app?vid=2a416e7a-1803-402e-9523-74bfe690bd54"},"vehicle_type_id":"4","last_reported":1758924556,"current_range_meters":14000,"station_id":"ce4bhsh2rcd13ifvqi2g","pricing_plan_id":"cebpf4jnsgd1na2vs0mg"},{"bike_id":"ab915236-e4e0-43d4-b3d0-7dc20b4ec838","system_id":"levelo_inurba_marseille","lat":43.31324,"lon":5.36745,"is_reserved":false,"is_disabled":false,"rental_uris":{"android":"levelo://app?vid=ab915236-e4e0-43d4-b3d0-7dc20b4ec838","ios":"levelo://app?vid=ab915236-e4e0-43d4-b3d0-7dc20b4ec838"},"vehicle_type_id":"4","last_reported":1758924556,"current_range_meters":14000,"station_id":"ce4bgr92rcd13ifvqc6g","pricing_plan_id":"cebpf4jnsgd1na2vs0mg"},{"bike_id":"e415c0a1-6815-47f6-8559-dbef22c3ab6a","system_id":"levelo_inurba_marseille","lat":43.26056,"lon":5.39401,"is_reserved":false,"is_disabled":false,"rental_uris":{"android":"levelo://app?vid=e415c0a1-6815-47f6-8559-dbef22c3ab6a","ios":"levelo://app?vid=e415c0a1-6815-47f6-8559-dbef22c3ab6a"},"vehicle_type_id":"4","last_reported":1758924556,"current_range_meters":14000,"station_id":"ce4bhh92rcd13ifvqfj0","pricing_plan_id":"cebpf4jnsgd1na2vs0mg"},{"bike_id":"15b8abb9-1b82-439d-bef4-2444276aa7c3","system_id":"levelo_inurba_marseille","lat":43.31063,"lon":5.38335,"is_reserved":false,"is_disabled":true,"rental_uris":{"android":"levelo://app?vid=15b8abb9-1b82-439d-bef4-2444276aa7c3","ios":"levelo://app?vid=15b8abb9-1b82-439d-bef4-2444276aa7c3"},"vehicle_type_id":"4","last_reported":1758924556,"current_range_meters":14400,"station_id":"ce4bgv92rcd13ifvqcr0","pricing_plan_id":"cebpf4jnsgd1na2vs0mg"},{"bike_id":"63d52c35-c9c9-44eb-9780-1b2f9145123b","system_id":"levelo_inurba_marseille","lat":43.29627,"lon":5.377037,"is_reserved":false,"is_disabled":false,"rental_uris":{"android":"levelo://app?vid=63d52c35-c9c9-44eb-9780-1b2f9145123b","ios":"levelo://app?vid=63d52c35-c9c9-44eb-9780-1b2f9145123b"},"vehicle_type_id":"4","last_reported":1758924556,"current_range_meters":14400,"station_id":"","pricing_plan_id":"cebpf4jnsgd1na2vs0mg"},{"bike_id":"01bf55f2-4ac6-46f6-8504-3267bf31e1a6","system_id":"levelo_inurba_marseille","lat":43.2973,"lon":5.381787,"is_reserved":false,"is_disabled":false,"rental_uris":{"android":"levelo://app?vid=01bf55f2-4ac6-46f6-8504-3267bf31e1a6","ios":"levelo://app?vid=01bf55f2-4ac6-46f6-8504-3267bf31e1a6"},"vehicle_type_id":"4","last_reported":1758924556,"current_range_meters":14400,"station_id":"","pricing_plan_id":"cebpf4jnsgd1na2vs0mg"},{"bike_id":"9ddf305d-11b2-4f74-ba3c-822d296fcf52","system_id":"levelo_inurba_marseille","lat":43.29068,"lon":5.37161,"is_reserved":false,"is_disabled":false,"rental_uris":{"android":"levelo://app?vid=9ddf305d-11b2-4f74-ba3c-822d296fcf52","ios":"levelo://app?vid=9ddf305d-11b2-4f74-ba3c-822d296fcf52"},"vehicle_type_id":"4","last_reported":1758924556,"current_range_meters":14400,"station_id":"ce4bh5p2rcd13ifvqe4g","pricing_plan_id":"cebpf4jnsgd1na2vs0mg"},{"bike_id":"62529f44-1407-45b5-a57d-0e6b577d523f","system_id":"levelo_inurba_marseille","lat":43.31726,"lon":5.42403,"is_reserved":false,"is_disabled":true,"rental_uris":{"android":"levelo://app?vid=62529f44-1407-45b5-a57d-0e6b577d523f","ios":"levelo://app?vid=62529f44-1407-45b5-a57d-0e6b577d523f"},"vehicle_type_id":"4","last_reported":1758924556,"current_range_meters":14800,"station_id":"ce4bhp92rcd13ifvqhbg","pricing_plan_id":"cebpf4jnsgd1na2vs0mg"},{"bike_id":"ec348589-ff91-45a4-84f8-96a0dc2abb69","system_id":"levelo_inurba_marseille","lat":43.32737,"lon":5.39255,"is_reserved":false,"is_disabled":false,"rental_uris":{"android":"levelo://app?vid=ec348589-ff91-45a4-84f8-96a0dc2abb69","ios":"levelo://app?vid=ec348589-ff91-45a4-84f8-96a0dc2abb69"},"vehicle_type_id":"4","last_reported":1758924556,"current_range_meters":14400,"station_id":"","pricing_plan_id":"cebpf4jnsgd1na2vs0mg"},{"bike_id":"cd52d724-6e36-4c8e-9efa-f35ff15b1a8b","system_id":"levelo_inurba_marseille","lat":43.31719,"lon":5.42393,"is_reserved":false,"is_disabled":false,"rental_uris":{"android":"levelo://app?vid=cd52d724-6e36-4c8e-9efa-f35ff15b1a8b","ios":"levelo://app?vid=cd52d724-6e36-4c8e-9efa-f35ff15b1a8b"},"vehicle_type_id":"4","last_reported":1758924556,"current_range_meters":14400,"station_id":"ce4bhp92rcd13ifvqhbg","pricing_plan_id":"cebpf4jnsgd1na2vs0mg"},{"bike_id":"5d877167-f391-4cf4-830a-d2718a5834ac","system_id":"levelo_inurba_marseille","lat":43.31718,"lon":5.42398,"is_reserved":false,"is_disabled":false,"rental_uris":{"android":"levelo://app?vid=5d877167-f391-4cf4-830a-d2718a5834ac","ios":"levelo://app?vid=5d877167-f391-4cf4-830a-d2718a5834ac"},"vehicle_type_id":"4","last_reported":1758924556,"current_range_meters":14800,"station_id":"ce4bhp92rcd13ifvqhbg","pricing_plan_id":"cebpf4jnsgd1na2vs0mg"},{"bike_id":"35a0f256-02e6-4b4b-ba47-c0815c8c72fb","system_id":"levelo_inurba_marseille","lat":43.28089,"lon":5.37817,"is_reserved":false,"is_disabled":false,"rental_uris":{"android":"levelo://app?vid=35a0f256-02e6-4b4b-ba47-c0815c8c72fb","ios":"levelo://app?vid=35a0f256-02e6-4b4b-ba47-c0815c8c72fb"},"vehicle_type_id":"4","last_reported":1758924556,"current_range_meters":14800,"station_id":"ce4bha12rcd13ifvqee0","pricing_plan_id":"cebpf4jnsgd1na2vs0mg"},{"bike_id":"a6187c30-1c11-4309-be70-335b3ca8c646","system_id":"levelo_inurba_marseille","lat":43.21196,"lon":5.350771,"is_reserved":false,"is_disabled":false,"rental_uris":{"android":"levelo://app?vid=a6187c30-1c11-4309-be70-335b3ca8c646","ios":"levelo://app?vid=a6187c30-1c11-4309-be70-335b3ca8c646"},"vehicle_type_id":"4","last_reported":1758924556,"current_range_meters":14800,"station_id":"","pricing_plan_id":"cebpf4jnsgd1na2vs0mg"},{"bike_id":"aca0d3b9-3123-4490-8e2c-fd1d3a8b8251","system_id":"levelo_inurba_marseille","lat":43.31362,"lon":5.38493,"is_reserved":false,"is_disabled":false,"rental_uris":{"android":"levelo://app?vid=aca0d3b9-3123-4490-8e2c-fd1d3a8b8251","ios":"levelo://app?vid=aca0d3b9-3123-4490-8e2c-fd1d3a8b8251"},"vehicle_type_id":"4","last_reported":1758924556,"current_range_meters":14800,"station_id":"ce4bgt92rcd13ifvqcf0","pricing_plan_id":"cebpf4jnsgd1na2vs0mg"},{"bike_id":"fd1364a5-ff73-488a-b72e-592513140002","system_id":"levelo_inurba_marseille","lat":43.2508,"lon":5.39519,"is_reserved":false,"is_disabled":false,"rental_uris":{"android":"levelo://app?vid=fd1364a5-ff73-488a-b72e-592513140002","ios":"levelo://app?vid=fd1364a5-ff73-488a-b72e-592513140002"},"vehicle_type_id":"4","last_reported":1758924556,"current_range_meters":14800,"station_id":"ce4bhm12rcd13ifvqgkg","pricing_plan_id":"cebpf4jnsgd1na2vs0mg"},{"bike_id":"27623baf-3f1d-454d-8961-43d2a2bff43f","system_id":"levelo_inurba_marseille","lat":43.2918,"lon":5.39315,"is_reserved":false,"is_disabled":false,"rental_uris":{"android":"levelo://app?vid=27623baf-3f1d-454d-8961-43d2a2bff43f","ios":"levelo://app?vid=27623baf-3f1d-454d-8961-43d2a2bff43f"},"vehicle_type_id":"4","last_reported":1758924556,"current_range_meters":14800,"station_id":"ce4bh192rcd13ifvqdd0","pricing_plan_id":"cebpf4jnsgd1na2vs0mg"},{"bike_id":"9ba7a40a-906f-427d-aacc-0ef5818f169f","system_id":"levelo_inurba_marseille","lat":43.309436,"lon":5.390254,"is_reserved":false,"is_disabled":false,"rental_uris":{"android":"levelo://app?vid=9ba7a40a-906f-427d-aacc-0ef5818f169f","ios":"levelo://app?vid=9ba7a40a-906f-427d-aacc-0ef5818f169f"},"vehicle_type_id":"4","last_reported":1758924556,"current_range_meters":15200,"station_id":"ce4bgup2rcd13ifvqco0","pricing_plan_id":"cebpf4jnsgd1na2vs0mg"},{"bike_id":"934ea1ec-b7f6-49a1-9efa-287317d4eb22","system_id":"levelo_inurba_marseille","lat":43.29048,"lon":5.35914,"is_reserved":false,"is_disabled":false,"rental_uris":{"android":"levelo://app?vid=934ea1ec-b7f6-49a1-9efa-287317d4eb22","ios":"levelo://app?vid=934ea1ec-b7f6-49a1-9efa-287317d4eb22"},"vehicle_type_id":"4","last_reported":1758924556,"current_range_meters":15200,"station_id":"","pricing_plan_id":"cebpf4jnsgd1na2vs0mg"},{"bike_id":"ae20b192-0f93-4bce-9407-3138655972be","system_id":"levelo_inurba_marseille","lat":43.28857,"lon":5.39315,"is_reserved":false,"is_disabled":false,"rental_uris":{"android":"levelo://app?vid=ae20b192-0f93-4bce-9407-3138655972be","ios":"levelo://app?vid=ae20b192-0f93-4bce-9407-3138655972be"},"vehicle_type_id":"4","last_reported":1758924556,"current_range_meters":15200,"station_id":"ce4bh2p2rcd13ifvqdi0","pricing_plan_id":"cebpf4jnsgd1na2vs0mg"},{"bike_id":"e8c51c17-19f3-4a36-b51c-2f9ea4777522","system_id":"levelo_inurba_marseille","lat":43.26567,"lon":5.39006,"is_reserved":false,"is_disabled":false,"rental_uris":{"android":"levelo://app?vid=e8c51c17-19f3-4a36-b51c-2f9ea4777522","ios":"levelo://app?vid=e8c51c17-19f3-4a36-b51c-2f9ea4777522"},"vehicle_type_id":"4","last_reported":1758924556,"current_range_meters":15200,"station_id":"ce4bhe12rcd13ifvqf30","pricing_plan_id":"cebpf4jnsgd1na2vs0mg"},{"bike_id":"a4f88e77-dea3-476d-bbf8-e06bbaf7fda2","system_id":"levelo_inurba_marseille","lat":43.29272,"lon":5.40123,"is_reserved":false,"is_disabled":false,"rental_uris":{"android":"levelo://app?vid=a4f88e77-dea3-476d-bbf8-e06bbaf7fda2","ios":"levelo://app?vid=a4f88e77-dea3-476d-bbf8-e06bbaf7fda2"},"vehicle_type_id":"4","last_reported":1758924556,"current_range_meters":15200,"station_id":"ce4bh312rcd13ifvqdk0","pricing_plan_id":"cebpf4jnsgd1na2vs0mg"},{"bike_id":"fc0516a3-c60c-4ef6-aa0f-b20216ddae8e","system_id":"levelo_inurba_marseille","lat":43.28957,"lon":5.37168,"is_reserved":false,"is_disabled":false,"rental_uris":{"android":"levelo://app?vid=fc0516a3-c60c-4ef6-aa0f-b20216ddae8e","ios":"levelo://app?vid=fc0516a3-c60c-4ef6-aa0f-b20216ddae8e"},"vehicle_type_id":"4","last_reported":1758924556,"current_range_meters":15200,"station_id":"","pricing_plan_id":"cebpf4jnsgd1na2vs0mg"},{"bike_id":"5dfe6188-cf51-49fc-b324-419cf8501486","system_id":"levelo_inurba_marseille","lat":43.29448,"lon":5.3867,"is_reserved":false,"is_disabled":false,"rental_uris":{"android":"levelo://app?vid=5dfe6188-cf51-49fc-b324-419cf8501486","ios":"levelo://app?vid=5dfe6188-cf51-49fc-b324-419cf8501486"},"vehicle_type_id":"4","last_reported":1758924556,"current_range_meters":15200,"station_id":"","pricing_plan_id":"cebpf4jnsgd1na2vs0mg"},{"bike_id":"80bdba63-46f3-4274-b0d9-d9711409b6a8","system_id":"levelo_inurba_marseille","lat":43.270752,"lon":5.402497,"is_reserved":false,"is_disabled":false,"rental_uris":{"android":"levelo://app?vid=80bdba63-46f3-4274-b0d9-d9711409b6a8","ios":"levelo://app?vid=80bdba63-46f3-4274-b0d9-d9711409b6a8"},"vehicle_type_id":"4","last_reported":1758924556,"current_range_meters":15200,"station_id":"","pricing_plan_id":"cebpf4jnsgd1na2vs0mg"},{"bike_id":"30e9c8f1-adcd-47fc-bf6a-5fa7f3a9a095","system_id":"levelo_inurba_marseille","lat":43.29893,"lon":5.43664,"is_reserved":false,"is_disabled":false,"rental_uris":{"android":"levelo://app?vid=30e9c8f1-adcd-47fc-bf6a-5fa7f3a9a095","ios":"levelo://app?vid=30e9c8f1-adcd-47fc-bf6a-5fa7f3a9a095"},"vehicle_type_id":"4","last_reported":1758924556,"current_range_meters":15200,"station_id":"ce4bhpp2rcd13ifvqhfg","pricing_plan_id":"cebpf4jnsgd1na2vs0mg"},{"bike_id":"ee925a9c-c600-454e-8837-0da5956fd25f","system_id":"levelo_inurba_marseille","lat":43.229367,"lon":5.353794,"is_reserved":false,"is_disabled":false,"rental_uris":{"android":"levelo://app?vid=ee925a9c-c600-454e-8837-0da5956fd25f","ios":"levelo://app?vid=ee925a9c-c600-454e-8837-0da5956fd25f"},"vehicle_type_id":"4","last_reported":1758924556,"current_range_meters":15200,"station_id":"cpo3532slgdg3j2ikp40","pricing_plan_id":"cebpf4jnsgd1na2vs0mg"},{"bike_id":"4e0e98fa-6000-48b9-9517-5be0768c97ba","system_id":"levelo_inurba_marseille","lat":43.28037,"lon":5.36953,"is_reserved":false,"is_disabled":false,"rental_uris":{"android":"levelo://app?vid=4e0e98fa-6000-48b9-9517-5be0768c97ba","ios":"levelo://app?vid=4e0e98fa-6000-48b9-9517-5be0768c97ba"},"vehicle_type_id":"4","last_reported":1758924556,"current_range_meters":16000,"station_id":"ce4bha12rcd13ifvqef0","pricing_plan_id":"cebpf4jnsgd1na2vs0mg"},{"bike_id":"06d63f68-4721-45fa-b42f-4350b08d4efd","system_id":"levelo_inurba_marseille","lat":43.31335,"lon":5.39667,"is_reserved":false,"is_disabled":false,"rental_uris":{"android":"levelo://app?vid=06d63f68-4721-45fa-b42f-4350b08d4efd","ios":"levelo://app?vid=06d63f68-4721-45fa-b42f-4350b08d4efd"},"vehicle_type_id":"4","last_reported":1758924556,"current_range_meters":16000,"station_id":"ce4bgvp2rcd13ifvqcu0","pricing_plan_id":"cebpf4jnsgd1na2vs0mg"},{"bike_id":"1c14f608-9eb0-4b58-8221-e6e5ed28265b","system_id":"levelo_inurba_marseille","lat":43.24409,"lon":5.3705,"is_reserved":false,"is_disabled":false,"rental_uris":{"android":"levelo://app?vid=1c14f608-9eb0-4b58-8221-e6e5ed28265b","ios":"levelo://app?vid=1c14f608-9eb0-4b58-8221-e6e5ed28265b"},"vehicle_type_id":"4","last_reported":1758924556,"current_range_meters":16000,"station_id":"ce4bhhh2rcd13ifvqfk0","pricing_plan_id":"cebpf4jnsgd1na2vs0mg"},{"bike_id":"e241dfc8-d7f9-404e-a9fb-70b03889b507","system_id":"levelo_inurba_marseille","lat":43.3137,"lon":5.3851,"is_reserved":false,"is_disabled":true,"rental_uris":{"android":"levelo://app?vid=e241dfc8-d7f9-404e-a9fb-70b03889b507","ios":"levelo://app?vid=e241dfc8-d7f9-404e-a9fb-70b03889b507"},"vehicle_type_id":"4","last_reported":1758924556,"current_range_meters":16000,"station_id":"ce4bgt92rcd13ifvqcf0","pricing_plan_id":"cebpf4jnsgd1na2vs0mg"},{"bike_id":"855d7122-4824-46d3-b6c6-d8afb40dfca0","system_id":"levelo_inurba_marseille","lat":43.24056,"lon":5.37733,"is_reserved":false,"is_disabled":false,"rental_uris":{"android":"levelo://app?vid=855d7122-4824-46d3-b6c6-d8afb40dfca0","ios":"levelo://app?vid=855d7122-4824-46d3-b6c6-d8afb40dfca0"},"vehicle_type_id":"4","last_reported":1758924556,"current_range_meters":16000,"station_id":"ce4bhnp2rcd13ifvqgvg","pricing_plan_id":"cebpf4jnsgd1na2vs0mg"},{"bike_id":"052c59a7-1cc4-4bbc-97f5-180981a63118","system_id":"levelo_inurba_marseille","lat":43.2465,"lon":5.43142,"is_reserved":false,"is_disabled":false,"rental_uris":{"android":"levelo://app?vid=052c59a7-1cc4-4bbc-97f5-180981a63118","ios":"levelo://app?vid=052c59a7-1cc4-4bbc-97f5-180981a63118"},"vehicle_type_id":"4","last_reported":1758924556,"current_range_meters":16000,"station_id":"st_d2m6c4gdas8pm72e190g","pricing_plan_id":"cebpf4jnsgd1na2vs0mg"},{"bike_id":"31a2accd-fac1-445a-96a9-4f1a04ab92f2","system_id":"levelo_inurba_marseille","lat":43.32352,"lon":5.4061,"is_reserved":false,"is_disabled":false,"rental_uris":{"android":"levelo://app?vid=31a2accd-fac1-445a-96a9-4f1a04ab92f2","ios":"levelo://app?vid=31a2accd-fac1-445a-96a9-4f1a04ab92f2"},"vehicle_type_id":"4","last_reported":1758924556,"current_range_meters":16000,"station_id":"ce4bhq92rcd13ifvqhjg","pricing_plan_id":"cebpf4jnsgd1na2vs0mg"},{"bike_id":"8c1d5d89-9224-4ca7-944d-7e12066fcb9e","system_id":"levelo_inurba_marseille","lat":43.30035,"lon":5.38841,"is_reserved":false,"is_disabled":false,"rental_uris":{"android":"levelo://app?vid=8c1d5d89-9224-4ca7-944d-7e12066fcb9e","ios":"levelo://app?vid=8c1d5d89-9224-4ca7-944d-7e12066fcb9e"},"vehicle_type_id":"4","last_reported":1758924556,"current_range_meters":16000,"station_id":"","pricing_plan_id":"cebpf4jnsgd1na2vs0mg"},{"bike_id":"71164885-da65-4c04-b17c-b7b56f805a34","system_id":"levelo_inurba_marseille","lat":43.2928,"lon":5.36845,"is_reserved":false,"is_disabled":false,"rental_uris":{"android":"levelo://app?vid=71164885-da65-4c04-b17c-b7b56f805a34","ios":"levelo://app?vid=71164885-da65-4c04-b17c-b7b56f805a34"},"vehicle_type_id":"4","last_reported":1758924556,"current_range_meters":16400,"station_id":"ce4bhbp2rcd13ifvqesg","pricing_plan_id":"cebpf4jnsgd1na2vs0mg"},{"bike_id":"a4916a7f-1135-4918-8a64-f1ddaf49d23c","system_id":"levelo_inurba_marseille","lat":43.28461,"lon":5.35887,"is_reserved":false,"is_disabled":false,"rental_uris":{"android":"levelo://app?vid=a4916a7f-1135-4918-8a64-f1ddaf49d23c","ios":"levelo://app?vid=a4916a7f-1135-4918-8a64-f1ddaf49d23c"},"vehicle_type_id":"4","last_reported":1758924556,"current_range_meters":16400,"station_id":"ce4bhah2rcd13ifvqei0","pricing_plan_id":"cebpf4jnsgd1na2vs0mg"},{"bike_id":"dd97b6b5-b7f4-4eba-afef-2f1e4c7fd3ac","system_id":"levelo_inurba_marseille","lat":43.28483,"lon":5.38422,"is_reserved":false,"is_disabled":false,"rental_uris":{"android":"levelo://app?vid=dd97b6b5-b7f4-4eba-afef-2f1e4c7fd3ac","ios":"levelo://app?vid=dd97b6b5-b7f4-4eba-afef-2f1e4c7fd3ac"},"vehicle_type_id":"4","last_reported":1758924556,"current_range_meters":16400,"station_id":"ce4bh512rcd13ifvqe3g","pricing_plan_id":"cebpf4jnsgd1na2vs0mg"},{"bike_id":"5bb42022-0e19-48bc-a5b4-218bb1d7482e","system_id":"levelo_inurba_marseille","lat":43.31269,"lon":5.37738,"is_reserved":false,"is_disabled":false,"rental_uris":{"android":"levelo://app?vid=5bb42022-0e19-48bc-a5b4-218bb1d7482e","ios":"levelo://app?vid=5bb42022-0e19-48bc-a5b4-218bb1d7482e"},"vehicle_type_id":"4","last_reported":1758924556,"current_range_meters":16400,"station_id":"","pricing_plan_id":"cebpf4jnsgd1na2vs0mg"},{"bike_id":"4bf64cb5-3ee6-47b7-9825-a7132b4b8672","system_id":"levelo_inurba_marseille","lat":43.29266,"lon":5.38436,"is_reserved":false,"is_disabled":false,"rental_uris":{"android":"levelo://app?vid=4bf64cb5-3ee6-47b7-9825-a7132b4b8672","ios":"levelo://app?vid=4bf64cb5-3ee6-47b7-9825-a7132b4b8672"},"vehicle_type_id":"4","last_reported":1758924556,"current_range_meters":16400,"station_id":"ce4bh692rcd13ifvqea0","pricing_plan_id":"cebpf4jnsgd1na2vs0mg"},{"bike_id":"175ed984-4779-4b98-920a-039ca300eaa4","system_id":"levelo_inurba_marseille","lat":43.272958,"lon":5.408012,"is_reserved":false,"is_disabled":false,"rental_uris":{"android":"levelo://app?vid=175ed984-4779-4b98-920a-039ca300eaa4","ios":"levelo://app?vid=175ed984-4779-4b98-920a-039ca300eaa4"},"vehicle_type_id":"4","last_reported":1758924556,"current_range_meters":16800,"station_id":"","pricing_plan_id":"cebpf4jnsgd1na2vs0mg"},{"bike_id":"cd119ae5-1417-41f1-a8e2-920696e70b86","system_id":"levelo_inurba_marseille","lat":43.22563,"lon":5.41626,"is_reserved":false,"is_disabled":false,"rental_uris":{"android":"levelo://app?vid=cd119ae5-1417-41f1-a8e2-920696e70b86","ios":"levelo://app?vid=cd119ae5-1417-41f1-a8e2-920696e70b86"},"vehicle_type_id":"4","last_reported":1758924556,"current_range_meters":16800,"station_id":"st_d2o4gvlbi1j2169b742g","pricing_plan_id":"cebpf4jnsgd1na2vs0mg"},{"bike_id":"34b903ec-4c22-4601-936f-498ff9db95c2","system_id":"levelo_inurba_marseille","lat":43.29865,"lon":5.39735,"is_reserved":false,"is_disabled":false,"rental_uris":{"android":"levelo://app?vid=34b903ec-4c22-4601-936f-498ff9db95c2","ios":"levelo://app?vid=34b903ec-4c22-4601-936f-498ff9db95c2"},"vehicle_type_id":"4","last_reported":1758924556,"current_range_meters":16800,"station_id":"ce4bh0h2rcd13ifvqd50","pricing_plan_id":"cebpf4jnsgd1na2vs0mg"},{"bike_id":"b97777f5-d0e8-46c1-ba55-0326f8586d47","system_id":"levelo_inurba_marseille","lat":43.28865,"lon":5.35863,"is_reserved":false,"is_disabled":false,"rental_uris":{"android":"levelo://app?vid=b97777f5-d0e8-46c1-ba55-0326f8586d47","ios":"levelo://app?vid=b97777f5-d0e8-46c1-ba55-0326f8586d47"},"vehicle_type_id":"4","last_reported":1758924556,"current_range_meters":16800,"station_id":"ce4bhb12rcd13ifvqem0","pricing_plan_id":"cebpf4jnsgd1na2vs0mg"},{"bike_id":"7f09bc43-02a6-468a-9182-731c83281b4a","system_id":"levelo_inurba_marseille","lat":43.26363,"lon":5.37548,"is_reserved":false,"is_disabled":false,"rental_uris":{"android":"levelo://app?vid=7f09bc43-02a6-468a-9182-731c83281b4a","ios":"levelo://app?vid=7f09bc43-02a6-468a-9182-731c83281b4a"},"vehicle_type_id":"4","last_reported":1758924556,"current_range_meters":16800,"station_id":"","pricing_plan_id":"cebpf4jnsgd1na2vs0mg"},{"bike_id":"97e160eb-0d17-4a80-89e3-7431cb98801d","system_id":"levelo_inurba_marseille","lat":43.317209,"lon":5.42394,"is_reserved":false,"is_disabled":false,"rental_uris":{"android":"levelo://app?vid=97e160eb-0d17-4a80-89e3-7431cb98801d","ios":"levelo://app?vid=97e160eb-0d17-4a80-89e3-7431cb98801d"},"vehicle_type_id":"4","last_reported":1758924556,"current_range_meters":16800,"station_id":"ce4bhp92rcd13ifvqhbg","pricing_plan_id":"cebpf4jnsgd1na2vs0mg"},{"bike_id":"46ac5fb6-ac2e-43e8-84c9-c4e46889ea29","system_id":"levelo_inurba_marseille","lat":43.21191,"lon":5.35077,"is_reserved":false,"is_disabled":false,"rental_uris":{"android":"levelo://app?vid=46ac5fb6-ac2e-43e8-84c9-c4e46889ea29","ios":"levelo://app?vid=46ac5fb6-ac2e-43e8-84c9-c4e46889ea29"},"vehicle_type_id":"4","last_reported":1758924556,"current_range_meters":16800,"station_id":"st_cvj6sg6p6f1abm77japg","pricing_plan_id":"cebpf4jnsgd1na2vs0mg"},{"bike_id":"3be171b0-d541-4ec2-91c3-a6f2d595b455","system_id":"levelo_inurba_marseille","lat":43.29096,"lon":5.38151,"is_reserved":false,"is_disabled":false,"rental_uris":{"android":"levelo://app?vid=3be171b0-d541-4ec2-91c3-a6f2d595b455","ios":"levelo://app?vid=3be171b0-d541-4ec2-91c3-a6f2d595b455"},"vehicle_type_id":"4","last_reported":1758924556,"current_range_meters":16800,"station_id":"ce4bh512rcd13ifvqe2g","pricing_plan_id":"cebpf4jnsgd1na2vs0mg"},{"bike_id":"03350417-1098-4d6c-b8fe-9e64358744bf","system_id":"levelo_inurba_marseille","lat":43.31009,"lon":5.37598,"is_reserved":false,"is_disabled":false,"rental_uris":{"android":"levelo://app?vid=03350417-1098-4d6c-b8fe-9e64358744bf","ios":"levelo://app?vid=03350417-1098-4d6c-b8fe-9e64358744bf"},"vehicle_type_id":"4","last_reported":1758924556,"current_range_meters":16800,"station_id":"","pricing_plan_id":"cebpf4jnsgd1na2vs0mg"},{"bike_id":"71649b2c-48f8-4b8a-b9c0-477bd83fa14b","system_id":"levelo_inurba_marseille","lat":43.28443,"lon":5.34992,"is_reserved":false,"is_disabled":true,"rental_uris":{"android":"levelo://app?vid=71649b2c-48f8-4b8a-b9c0-477bd83fa14b","ios":"levelo://app?vid=71649b2c-48f8-4b8a-b9c0-477bd83fa14b"},"vehicle_type_id":"4","last_reported":1758924556,"current_range_meters":17200,"station_id":"ce4bhbh2rcd13ifvqepg","pricing_plan_id":"cebpf4jnsgd1na2vs0mg"},{"bike_id":"9feae468-b8bd-422a-8fcb-2d68fc5ee82c","system_id":"levelo_inurba_marseille","lat":43.3338,"lon":5.42014,"is_reserved":false,"is_disabled":false,"rental_uris":{"android":"levelo://app?vid=9feae468-b8bd-422a-8fcb-2d68fc5ee82c","ios":"levelo://app?vid=9feae468-b8bd-422a-8fcb-2d68fc5ee82c"},"vehicle_type_id":"4","last_reported":1758924556,"current_range_meters":17200,"station_id":"","pricing_plan_id":"cebpf4jnsgd1na2vs0mg"},{"bike_id":"327c041e-5c9e-4b0d-a97c-a2dbaab036ae","system_id":"levelo_inurba_marseille","lat":43.32813,"lon":5.4113,"is_reserved":false,"is_disabled":false,"rental_uris":{"android":"levelo://app?vid=327c041e-5c9e-4b0d-a97c-a2dbaab036ae","ios":"levelo://app?vid=327c041e-5c9e-4b0d-a97c-a2dbaab036ae"},"vehicle_type_id":"4","last_reported":1758924556,"current_range_meters":17200,"station_id":"","pricing_plan_id":"cebpf4jnsgd1na2vs0mg"},{"bike_id":"9298efca-5863-4f45-8b64-7fc54d2feaa7","system_id":"levelo_inurba_marseille","lat":43.28714,"lon":5.37401,"is_reserved":false,"is_disabled":false,"rental_uris":{"android":"levelo://app?vid=9298efca-5863-4f45-8b64-7fc54d2feaa7","ios":"levelo://app?vid=9298efca-5863-4f45-8b64-7fc54d2feaa7"},"vehicle_type_id":"4","last_reported":1758924556,"current_range_meters":17200,"station_id":"ce4bh3p2rcd13ifvqdq0","pricing_plan_id":"cebpf4jnsgd1na2vs0mg"},{"bike_id":"398ee6a3-1ca0-4a39-b8ef-9410f4339bd9","system_id":"levelo_inurba_marseille","lat":43.24184,"lon":5.36372,"is_reserved":false,"is_disabled":false,"rental_uris":{"android":"levelo://app?vid=398ee6a3-1ca0-4a39-b8ef-9410f4339bd9","ios":"levelo://app?vid=398ee6a3-1ca0-4a39-b8ef-9410f4339bd9"},"vehicle_type_id":"4","last_reported":1758924556,"current_range_meters":17200,"station_id":"cpo36qri1sfpv3e86is0","pricing_plan_id":"cebpf4jnsgd1na2vs0mg"},{"bike_id":"665db91b-dd1b-4912-8590-8678ef4e8928","system_id":"levelo_inurba_marseille","lat":43.251353,"lon":5.403084,"is_reserved":false,"is_disabled":false,"rental_uris":{"android":"levelo://app?vid=665db91b-dd1b-4912-8590-8678ef4e8928","ios":"levelo://app?vid=665db91b-dd1b-4912-8590-8678ef4e8928"},"vehicle_type_id":"4","last_reported":1758924556,"current_range_meters":17200,"station_id":"ce4bhlh2rcd13ifvqgig","pricing_plan_id":"cebpf4jnsgd1na2vs0mg"},{"bike_id":"a6909623-e1e2-4462-9590-f7a6a952532d","system_id":"levelo_inurba_marseille","lat":43.28715,"lon":5.39987,"is_reserved":false,"is_disabled":false,"rental_uris":{"android":"levelo://app?vid=a6909623-e1e2-4462-9590-f7a6a952532d","ios":"levelo://app?vid=a6909623-e1e2-4462-9590-f7a6a952532d"},"vehicle_type_id":"4","last_reported":1758924556,"current_range_meters":17200,"station_id":"ce4bho92rcd13ifvqh3g","pricing_plan_id":"cebpf4jnsgd1na2vs0mg"},{"bike_id":"152e7088-bc47-4113-9366-24eb32f78d94","system_id":"levelo_inurba_marseille","lat":43.29254,"lon":5.40911,"is_reserved":false,"is_disabled":false,"rental_uris":{"android":"levelo://app?vid=152e7088-bc47-4113-9366-24eb32f78d94","ios":"levelo://app?vid=152e7088-bc47-4113-9366-24eb32f78d94"},"vehicle_type_id":"4","last_reported":1758924556,"current_range_meters":17200,"station_id":"ce4bh192rcd13ifvqdc0","pricing_plan_id":"cebpf4jnsgd1na2vs0mg"},{"bike_id":"1c3e2cf7-7039-483f-bd2a-6943b321f854","system_id":"levelo_inurba_marseille","lat":43.26417,"lon":5.41114,"is_reserved":false,"is_disabled":false,"rental_uris":{"android":"levelo://app?vid=1c3e2cf7-7039-483f-bd2a-6943b321f854","ios":"levelo://app?vid=1c3e2cf7-7039-483f-bd2a-6943b321f854"},"vehicle_type_id":"4","last_reported":1758924556,"current_range_meters":17200,"station_id":"","pricing_plan_id":"cebpf4jnsgd1na2vs0mg"},{"bike_id":"31028c27-330e-419e-b95a-677487e65d45","system_id":"levelo_inurba_marseille","lat":43.330265,"lon":5.390441,"is_reserved":false,"is_disabled":false,"rental_uris":{"android":"levelo://app?vid=31028c27-330e-419e-b95a-677487e65d45","ios":"levelo://app?vid=31028c27-330e-419e-b95a-677487e65d45"},"vehicle_type_id":"4","last_reported":1758924556,"current_range_meters":17200,"station_id":"ce4bhr92rcd13ifvqhrg","pricing_plan_id":"cebpf4jnsgd1na2vs0mg"},{"bike_id":"b9016f8e-bb9f-4145-af19-c63d7d75d32e","system_id":"levelo_inurba_marseille","lat":43.30945,"lon":5.39027,"is_reserved":false,"is_disabled":false,"rental_uris":{"android":"levelo://app?vid=b9016f8e-bb9f-4145-af19-c63d7d75d32e","ios":"levelo://app?vid=b9016f8e-bb9f-4145-af19-c63d7d75d32e"},"vehicle_type_id":"4","last_reported":1758924556,"current_range_meters":17200,"station_id":"ce4bgup2rcd13ifvqco0","pricing_plan_id":"cebpf4jnsgd1na2vs0mg"},{"bike_id":"367cc5de-fbd0-47d1-8fa2-cb83d9fcf585","system_id":"levelo_inurba_marseille","lat":43.2583,"lon":5.39377,"is_reserved":false,"is_disabled":false,"rental_uris":{"android":"levelo://app?vid=367cc5de-fbd0-47d1-8fa2-cb83d9fcf585","ios":"levelo://app?vid=367cc5de-fbd0-47d1-8fa2-cb83d9fcf585"},"vehicle_type_id":"4","last_reported":1758924556,"current_range_meters":17200,"station_id":"ce4bhip2rcd13ifvqft0","pricing_plan_id":"cebpf4jnsgd1na2vs0mg"},{"bike_id":"a4ba26dc-2f32-48e5-bf18-4cc12ac5d755","system_id":"levelo_inurba_marseille","lat":43.27073,"lon":5.42269,"is_reserved":false,"is_disabled":false,"rental_uris":{"android":"levelo://app?vid=a4ba26dc-2f32-48e5-bf18-4cc12ac5d755","ios":"levelo://app?vid=a4ba26dc-2f32-48e5-bf18-4cc12ac5d755"},"vehicle_type_id":"4","last_reported":1758924556,"current_range_meters":17600,"station_id":"ce4bhk92rcd13ifvqgb0","pricing_plan_id":"cebpf4jnsgd1na2vs0mg"},{"bike_id":"43ebae8e-be0b-44ec-88c3-96e6ab116591","system_id":"levelo_inurba_marseille","lat":43.307724,"lon":5.376286,"is_reserved":false,"is_disabled":false,"rental_uris":{"android":"levelo://app?vid=43ebae8e-be0b-44ec-88c3-96e6ab116591","ios":"levelo://app?vid=43ebae8e-be0b-44ec-88c3-96e6ab116591"},"vehicle_type_id":"4","last_reported":1758924556,"current_range_meters":17600,"station_id":"ce4bgv92rcd13ifvqcq0","pricing_plan_id":"cebpf4jnsgd1na2vs0mg"},{"bike_id":"a9ff7e6a-ad14-458b-9c1f-b7e77d362864","system_id":"levelo_inurba_marseille","lat":43.2885,"lon":5.35848,"is_reserved":false,"is_disabled":false,"rental_uris":{"android":"levelo://app?vid=a9ff7e6a-ad14-458b-9c1f-b7e77d362864","ios":"levelo://app?vid=a9ff7e6a-ad14-458b-9c1f-b7e77d362864"},"vehicle_type_id":"4","last_reported":1758924556,"current_range_meters":17600,"station_id":"ce4bhb12rcd13ifvqem0","pricing_plan_id":"cebpf4jnsgd1na2vs0mg"},{"bike_id":"85c7ac65-0172-4766-8977-f4ba34ed9c93","system_id":"levelo_inurba_marseille","lat":43.25335,"lon":5.42178,"is_reserved":false,"is_disabled":false,"rental_uris":{"android":"levelo://app?vid=85c7ac65-0172-4766-8977-f4ba34ed9c93","ios":"levelo://app?vid=85c7ac65-0172-4766-8977-f4ba34ed9c93"},"vehicle_type_id":"4","last_reported":1758924556,"current_range_meters":17600,"station_id":"st_d2m65c5bi1j21697t3ng","pricing_plan_id":"cebpf4jnsgd1na2vs0mg"},{"bike_id":"82115a18-6cd4-48f2-87ee-746c22595cee","system_id":"levelo_inurba_marseille","lat":43.30158,"lon":5.38105,"is_reserved":false,"is_disabled":true,"rental_uris":{"android":"levelo://app?vid=82115a18-6cd4-48f2-87ee-746c22595cee","ios":"levelo://app?vid=82115a18-6cd4-48f2-87ee-746c22595cee"},"vehicle_type_id":"4","last_reported":1758924556,"current_range_meters":17600,"station_id":"ce4bgjp2rcd13ifvqbh0","pricing_plan_id":"cebpf4jnsgd1na2vs0mg"},{"bike_id":"7bd69ea3-6e81-492a-8e91-d10e7784f441","system_id":"levelo_inurba_marseille","lat":43.32104,"lon":5.36783,"is_reserved":false,"is_disabled":false,"rental_uris":{"android":"levelo://app?vid=7bd69ea3-6e81-492a-8e91-d10e7784f441","ios":"levelo://app?vid=7bd69ea3-6e81-492a-8e91-d10e7784f441"},"vehicle_type_id":"4","last_reported":1758924556,"current_range_meters":17600,"station_id":"ce4bhrh2rcd13ifvqhug","pricing_plan_id":"cebpf4jnsgd1na2vs0mg"},{"bike_id":"1f11705b-4334-4c11-aedc-e2e54ecaa8ed","system_id":"levelo_inurba_marseille","lat":43.30539,"lon":5.38421,"is_reserved":false,"is_disabled":false,"rental_uris":{"android":"levelo://app?vid=1f11705b-4334-4c11-aedc-e2e54ecaa8ed","ios":"levelo://app?vid=1f11705b-4334-4c11-aedc-e2e54ecaa8ed"},"vehicle_type_id":"4","last_reported":1758924556,"current_range_meters":17200,"station_id":"ce4bgg92rcd13ifvqb30","pricing_plan_id":"cebpf4jnsgd1na2vs0mg"},{"bike_id":"21b98d00-a3e4-4f64-9029-39c5707a0872","system_id":"levelo_inurba_marseille","lat":43.31069,"lon":5.38347,"is_reserved":false,"is_disabled":false,"rental_uris":{"android":"levelo://app?vid=21b98d00-a3e4-4f64-9029-39c5707a0872","ios":"levelo://app?vid=21b98d00-a3e4-4f64-9029-39c5707a0872"},"vehicle_type_id":"4","last_reported":1758924556,"current_range_meters":17600,"station_id":"ce4bgv92rcd13ifvqcr0","pricing_plan_id":"cebpf4jnsgd1na2vs0mg"},{"bike_id":"4635c942-f2b1-44bd-8835-1cc392551193","system_id":"levelo_inurba_marseille","lat":43.28425,"lon":5.37558,"is_reserved":false,"is_disabled":false,"rental_uris":{"android":"levelo://app?vid=4635c942-f2b1-44bd-8835-1cc392551193","ios":"levelo://app?vid=4635c942-f2b1-44bd-8835-1cc392551193"},"vehicle_type_id":"4","last_reported":1758924556,"current_range_meters":17600,"station_id":"","pricing_plan_id":"cebpf4jnsgd1na2vs0mg"},{"bike_id":"afb5f42c-bc92-4753-b8b5-463a6aed8244","system_id":"levelo_inurba_marseille","lat":43.29867,"lon":5.39733,"is_reserved":false,"is_disabled":false,"rental_uris":{"android":"levelo://app?vid=afb5f42c-bc92-4753-b8b5-463a6aed8244","ios":"levelo://app?vid=afb5f42c-bc92-4753-b8b5-463a6aed8244"},"vehicle_type_id":"4","last_reported":1758924556,"current_range_meters":17600,"station_id":"ce4bh0h2rcd13ifvqd50","pricing_plan_id":"cebpf4jnsgd1na2vs0mg"},{"bike_id":"b23fb850-684f-43f6-8592-6935a0d57bb2","system_id":"levelo_inurba_marseille","lat":43.28557,"lon":5.39483,"is_reserved":false,"is_disabled":true,"rental_uris":{"android":"levelo://app?vid=b23fb850-684f-43f6-8592-6935a0d57bb2","ios":"levelo://app?vid=b23fb850-684f-43f6-8592-6935a0d57bb2"},"vehicle_type_id":"4","last_reported":1758924556,"current_range_meters":18000,"station_id":"ce4bh292rcd13ifvqdg0","pricing_plan_id":"cebpf4jnsgd1na2vs0mg"},{"bike_id":"71d0631b-eb81-4977-ba97-2d8def997263","system_id":"levelo_inurba_marseille","lat":43.28451,"lon":5.35892,"is_reserved":false,"is_disabled":false,"rental_uris":{"android":"levelo://app?vid=71d0631b-eb81-4977-ba97-2d8def997263","ios":"levelo://app?vid=71d0631b-eb81-4977-ba97-2d8def997263"},"vehicle_type_id":"4","last_reported":1758924556,"current_range_meters":18000,"station_id":"ce4bhah2rcd13ifvqei0","pricing_plan_id":"cebpf4jnsgd1na2vs0mg"},{"bike_id":"5de5a448-9e06-4293-af32-48e8256dee6d","system_id":"levelo_inurba_marseille","lat":43.33744,"lon":5.37442,"is_reserved":false,"is_disabled":false,"rental_uris":{"android":"levelo://app?vid=5de5a448-9e06-4293-af32-48e8256dee6d","ios":"levelo://app?vid=5de5a448-9e06-4293-af32-48e8256dee6d"},"vehicle_type_id":"4","last_reported":1758924556,"current_range_meters":18000,"station_id":"","pricing_plan_id":"cebpf4jnsgd1na2vs0mg"},{"bike_id":"3c70e076-3786-4a50-b2d5-09a1ce0ccebf","system_id":"levelo_inurba_marseille","lat":43.29627,"lon":5.37721,"is_reserved":false,"is_disabled":false,"rental_uris":{"android":"levelo://app?vid=3c70e076-3786-4a50-b2d5-09a1ce0ccebf","ios":"levelo://app?vid=3c70e076-3786-4a50-b2d5-09a1ce0ccebf"},"vehicle_type_id":"4","last_reported":1758924556,"current_range_meters":18000,"station_id":"ce4bgi92rcd13ifvqb90","pricing_plan_id":"cebpf4jnsgd1na2vs0mg"},{"bike_id":"912aeb68-4b25-4bda-9d18-d3328632a172","system_id":"levelo_inurba_marseille","lat":43.288557,"lon":5.35854,"is_reserved":false,"is_disabled":false,"rental_uris":{"android":"levelo://app?vid=912aeb68-4b25-4bda-9d18-d3328632a172","ios":"levelo://app?vid=912aeb68-4b25-4bda-9d18-d3328632a172"},"vehicle_type_id":"4","last_reported":1758924556,"current_range_meters":18000,"station_id":"ce4bhb12rcd13ifvqem0","pricing_plan_id":"cebpf4jnsgd1na2vs0mg"},{"bike_id":"317f2be1-b105-402c-900f-6b3ae07bb4db","system_id":"levelo_inurba_marseille","lat":43.24169,"lon":5.36396,"is_reserved":false,"is_disabled":false,"rental_uris":{"android":"levelo://app?vid=317f2be1-b105-402c-900f-6b3ae07bb4db","ios":"levelo://app?vid=317f2be1-b105-402c-900f-6b3ae07bb4db"},"vehicle_type_id":"4","last_reported":1758924556,"current_range_meters":18000,"station_id":"cpo36qri1sfpv3e86is0","pricing_plan_id":"cebpf4jnsgd1na2vs0mg"},{"bike_id":"1cab1605-6b3d-4fdf-a982-82c459da0097","system_id":"levelo_inurba_marseille","lat":43.28669,"lon":5.36349,"is_reserved":false,"is_disabled":false,"rental_uris":{"android":"levelo://app?vid=1cab1605-6b3d-4fdf-a982-82c459da0097","ios":"levelo://app?vid=1cab1605-6b3d-4fdf-a982-82c459da0097"},"vehicle_type_id":"4","last_reported":1758924556,"current_range_meters":18000,"station_id":"ce4bhah2rcd13ifvqej0","pricing_plan_id":"cebpf4jnsgd1na2vs0mg"},{"bike_id":"4f6f8297-56f1-4522-b376-92ec1ea67153","system_id":"levelo_inurba_marseille","lat":43.30806,"lon":5.38155,"is_reserved":false,"is_disabled":false,"rental_uris":{"android":"levelo://app?vid=4f6f8297-56f1-4522-b376-92ec1ea67153","ios":"levelo://app?vid=4f6f8297-56f1-4522-b376-92ec1ea67153"},"vehicle_type_id":"4","last_reported":1758924556,"current_range_meters":18800,"station_id":"ce4bgt12rcd13ifvqce0","pricing_plan_id":"cebpf4jnsgd1na2vs0mg"},