{"last_updated":1737295633,"ttl":60,"version":"2.2","data":{"bikes":[{"bike_id":"0154f0ae-74fb-4aef-972f-7308a812b49d","system_id":"levelo_inurba_marseille","lat":43.28619,"lon":5.35104,"is_reserved":false,"is_disabled":false,"rental_uris":{"android":"levelo://app?vid=0154f0ae-74fb-4aef-972f-7308a812b49d","ios":"levelo://app?vid=0154f0ae-74fb-4aef-972f-7308a812b49d"},"vehicle_type_id":"4","last_reported":1737295633,"current_range_meters":11200,"station_id":"ce4bhch2rcd13ifvqeug","pricing_plan_id":"cebpf4jnsgd1na2vs0mg"},{"bike_id":"4b8474dc-9549-43ac-87e0-d7acf7542d0b","system_id":"levelo_inurba_marseille","lat":43.29599,"lon":5.37719,"is_reserved":false,"is_disabled":false,"rental_uris":{"android":"levelo://app?vid=4b8474dc-9549-43ac-87e0-d7acf7542d0b","ios":"levelo://app?vid=4b8474dc-9549-43ac-87e0-d7acf7542d0b"},"vehicle_type_id":"4","last_reported":1737295633,"current_range_meters":8800,"station_id":"ce4bgi92rcd13ifvqb90","pricing_plan_id":"cebpf4jnsgd1na2vs0mg"},{"bike_id":"77ea1d95-29ee-4526-ac3e-b63ea46df160","system_id":"levelo_inurba_marseille","lat":43.23078,"lon":5.35492,"is_reserved":false,"is_disabled":true,"rental_uris":{"android":"levelo://app?vid=77ea1d95-29ee-4526-ac3e-b63ea46df160","ios":"levelo://app?vid=77ea1d95-29ee-4526-ac3e-b63ea46df160"},"vehicle_type_id":"4","last_reported":1737295633,"current_range_meters":0,"station_id":"cpo3342slgdg3j2ifvpg","pricing_plan_id":"cebpf4jnsgd1na2vs0mg"},{"bike_id":"d383b76c-b1c5-4112-bf95-e420a42ff72e","system_id":"levelo_inurba_marseille","lat":43.24825,"lon":5.37449,"is_reserved":false,"is_disabled":false,"rental_uris":{"android":"levelo://app?vid=d383b76c-b1c5-4112-bf95-e420a42ff72e","ios":"levelo://app?vid=d383b76c-b1c5-4112-bf95-e420a42ff72e"},"vehicle_type_id":"4","last_reported":1737295633,"current_range_meters":36800,"station_id":"ce4bhgh2rcd13ifvqfb0","pricing_plan_id":"cebpf4jnsgd1na2vs0mg"},{"bike_id":"2d784c23-50ab-47ed-8d7c-1967bfa5d99f","system_id":"levelo_inurba_marseille","lat":43.2305,"lon":5.3549,"is_reserved":false,"is_disabled":false,"rental_uris":{"android":"levelo://app?vid=2d784c23-50ab-47ed-8d7c-1967bfa5d99f","ios":"levelo://app?vid=2d784c23-50ab-47ed-8d7c-1967bfa5d99f"},"vehicle_type_id":"4","last_reported":1737295633,"current_range_meters":24800,"station_id":"cpo3342slgdg3j2ifvpg","pricing_plan_id":"cebpf4jnsgd1na2vs0mg"},{"bike_id":"a5cfd84d-4cae-4412-b199-dcb982d64799","system_id":"levelo_inurba_marseille","lat":43.28439,"lon":5.39136,"is_reserved":false,"is_disabled":true,"rental_uris":{"android":"levelo://app?vid=a5cfd84d-4cae-4412-b199-dcb982d64799","ios":"levelo://app?vid=a5cfd84d-4cae-4412-b199-dcb982d64799"},"vehicle_type_id":"4","last_reported":1737295633,"current_range_meters":0,"station_id":"ce4bhoh2rcd13ifvqh5g","pricing_plan_id":"cebpf4jnsgd1na2vs0mg"},{"bike_id":"ce8a7584-4efd-4b78-a3a8-dcbfb4361658","system_id":"levelo_inurba_marseille","lat":43.27496,"lon":5.42456,"is_reserved":false,"is_disabled":false,"rental_uris":{"android":"levelo://app?vid=ce8a7584-4efd-4b78-a3a8-dcbfb4361658","ios":"levelo://app?vid=ce8a7584-4efd-4b78-a3a8-dcbfb4361658"},"vehicle_type_id":"4","last_reported":1737295633,"current_range_meters":20000,"station_id":"ce4bhn92rcd13ifvqgrg","pricing_plan_id":"cebpf4jnsgd1na2vs0mg"},{"bike_id":"c4c1bbbe-fb86-44e1-9c71-7acc36f8b24a","system_id":"levelo_inurba_marseille","lat":43.32516,"lon":5.36573,"is_reserved":false,"is_disabled":false,"rental_uris":{"android":"levelo://app?vid=c4c1bbbe-fb86-44e1-9c71-7acc36f8b24a","ios":"levelo://app?vid=c4c1bbbe-fb86-44e1-9c71-7acc36f8b24a"},"vehicle_type_id":"4","last_reported":1737295633,"current_range_meters":3200,"station_id":"ce4bhs12rcd13ifvqhvg","pricing_plan_id":"cebpf4jnsgd1na2vs0mg"},{"bike_id":"40073b67-8b50-4bee-bf68-29f1391dc642","system_id":"levelo_inurba_marseille","lat":43.26548,"lon":5.42307,"is_reserved":false,"is_disabled":false,"rental_uris":{"android":"levelo://app?vid=40073b67-8b50-4bee-bf68-29f1391dc642","ios":"levelo://app?vid=40073b67-8b50-4bee-bf68-29f1391dc642"},"vehicle_type_id":"4","last_reported":1737295633,"current_range_meters":25600,"station_id":"","pricing_plan_id":"cebpf4jnsgd1na2vs0mg"},{"bike_id":"90c165c3-eff9-4a4a-8f28-cfa68619e419","system_id":"levelo_inurba_marseille","lat":43.28724,"lon":5.40007,"is_reserved":false,"is_disabled":true,"rental_uris":{"android":"levelo://app?vid=90c165c3-eff9-4a4a-8f28-cfa68619e419","ios":"levelo://app?vid=90c165c3-eff9-4a4a-8f28-cfa68619e419"},"vehicle_type_id":"4","last_reported":1737295633,"current_range_meters":28400,"station_id":"ce4bho92rcd13ifvqh3g","pricing_plan_id":"cebpf4jnsgd1na2vs0mg"},{"bike_id":"fb94779d-1e70-4189-af0a-0c2fab1e0df7","system_id":"levelo_inurba_marseille","lat":43.24389,"lon":5.37066,"is_reserved":false,"is_disabled":false,"rental_uris":{"android":"levelo://app?vid=fb94779d-1e70-4189-af0a-0c2fab1e0df7","ios":"levelo://app?vid=fb94779d-1e70-4189-af0a-0c2fab1e0df7"},"vehicle_type_id":"4","last_reported":1737295633,"current_range_meters":38000,"station_id":"ce4bhhh2rcd13ifvqfk0","pricing_plan_id":"cebpf4jnsgd1na2vs0mg"},{"bike_id":"4975d3c5-1381-4300-914e-0a110da6ae0f","system_id":"levelo_inurba_marseille","lat":43.24054,"lon":5.37764,"is_reserved":false,"is_disabled":false,"rental_uris":{"android":"levelo://app?vid=4975d3c5-1381-4300-914e-0a110da6ae0f","ios":"levelo://app?vid=4975d3c5-1381-4300-914e-0a110da6ae0f"},"vehicle_type_id":"4","last_reported":1737295633,"current_range_meters":38800,"station_id":"ce4bhnp2rcd13ifvqgvg","pricing_plan_id":"cebpf4jnsgd1na2vs0mg"},{"bike_id":"a52cea13-71a0-4661-9fa9-a7b142a6c91d","system_id":"levelo_inurba_marseille","lat":43.30375,"lon":5.41882,"is_reserved":false,"is_disabled":false,"rental_uris":{"android":"levelo://app?vid=a52cea13-71a0-4661-9fa9-a7b142a6c91d","ios":"levelo://app?vid=a52cea13-71a0-4661-9fa9-a7b142a6c91d"},"vehicle_type_id":"4","last_reported":1737295633,"current_range_meters":38800,"station_id":"ce4bhop2rcd13ifvqh7g","pricing_plan_id":"cebpf4jnsgd1na2vs0mg"},{"bike_id":"2fe88d16-af55-4de4-84b3-2988d3ee891a","system_id":"levelo_inurba_marseille","lat":43.30356,"lon":5.41877,"is_reserved":false,"is_disabled":false,"rental_uris":{"android":"levelo://app?vid=2fe88d16-af55-4de4-84b3-2988d3ee891a","ios":"levelo://app?vid=2fe88d16-af55-4de4-84b3-2988d3ee891a"},"vehicle_type_id":"4","last_reported":1737295633,"current_range_meters":38800,"station_id":"ce4bhop2rcd13ifvqh7g","pricing_plan_id":"cebpf4jnsgd1na2vs0mg"},{"bike_id":"46efa326-c02d-4314-a6fe-f05976f22b94","system_id":"levelo_inurba_marseille","lat":43.28016,"lon":5.36952,"is_reserved":false,"is_disabled":false,"rental_uris":{"android":"levelo://app?vid=46efa326-c02d-4314-a6fe-f05976f22b94","ios":"levelo://app?vid=46efa326-c02d-4314-a6fe-f05976f22b94"},"vehicle_type_id":"4","last_reported":1737295633,"current_range_meters":12800,"station_id":"ce4bha12rcd13ifvqef0","pricing_plan_id":"cebpf4jnsgd1na2vs0mg"},{"bike_id":"459b9000-8feb-4c71-865e-73aed414df6d","system_id":"levelo_inurba_marseille","lat":43.27171,"lon":5.40991,"is_reserved":false,"is_disabled":false,"rental_uris":{"android":"levelo://app?vid=459b9000-8feb-4c71-865e-73aed414df6d","ios":"levelo://app?vid=459b9000-8feb-4c71-865e-73aed414df6d"},"vehicle_type_id":"4","last_reported":1737295633,"current_range_meters":30800,"station_id":"ce4bhl12rcd13ifvqgf0","pricing_plan_id":"cebpf4jnsgd1na2vs0mg"},{"bike_id":"763ed4fc-16fd-47a0-aedf-62c028daa66f","system_id":"levelo_inurba_marseille","lat":43.36413,"lon":5.35588,"is_reserved":false,"is_disabled":false,"rental_uris":{"android":"levelo://app?vid=763ed4fc-16fd-47a0-aedf-62c028daa66f","ios":"levelo://app?vid=763ed4fc-16fd-47a0-aedf-62c028daa66f"},"vehicle_type_id":"4","last_reported":1737295633,"current_range_meters":13600,"station_id":"","pricing_plan_id":"cebpf4jnsgd1na2vs0mg"},{"bike_id":"923c8bee-8af9-46f2-96d7-6f33318e9acc","system_id":"levelo_inurba_marseille","lat":43.286638,"lon":5.363621,"is_reserved":false,"is_disabled":false,"rental_uris":{"android":"levelo://app?vid=923c8bee-8af9-46f2-96d7-6f33318e9acc","ios":"levelo://app?vid=923c8bee-8af9-46f2-96d7-6f33318e9acc"},"vehicle_type_id":"4","last_reported":1737295633,"current_range_meters":21600,"station_id":"","pricing_plan_id":"cebpf4jnsgd1na2vs0mg"},{"bike_id":"56855a2d-6aa0-43be-9bd4-39897b793621","system_id":"levelo_inurba_marseille","lat":43.23191,"lon":5.3556,"is_reserved":false,"is_disabled":false,"rental_uris":{"android":"levelo://app?vid=56855a2d-6aa0-43be-9bd4-39897b793621","ios":"levelo://app?vid=56855a2d-6aa0-43be-9bd4-39897b793621"},"vehicle_type_id":"4","last_reported":1737295633,"current_range_meters":8000,"station_id":"ce4bhu92rcd13ifvqi70","pricing_plan_id":"cebpf4jnsgd1na2vs0mg"},{"bike_id":"0661c55e-e3b2-46c0-9cc3-367fc6d006ff","system_id":"levelo_inurba_marseille","lat":43.28846,"lon":5.39319,"is_reserved":false,"is_disabled":false,"rental_uris":{"android":"levelo://app?vid=0661c55e-e3b2-46c0-9cc3-367fc6d006ff","ios":"levelo://app?vid=0661c55e-e3b2-46c0-9cc3-367fc6d006ff"},"vehicle_type_id":"4","last_reported":1737295633,"current_range_meters":36800,"station_id":"ce4bh2p2rcd13ifvqdi0","pricing_plan_id":"cebpf4jnsgd1na2vs0mg"},{"bike_id":"0c5f73cf-e0e8-4f65-bd3a-b767c1efa8ac","system_id":"levelo_inurba_marseille","lat":43.30525,"lon":5.36546,"is_reserved":false,"is_disabled":false,"rental_uris":{"android":"levelo://app?vid=0c5f73cf-e0e8-4f65-bd3a-b767c1efa8ac","ios":"levelo://app?vid=0c5f73cf-e0e8-4f65-bd3a-b767c1efa8ac"},"vehicle_type_id":"4","last_reported":1737295633,"current_range_meters":32000,"station_id":"ce4bgs12rcd13ifvqcag","pricing_plan_id":"cebpf4jnsgd1na2vs0mg"},{"bike_id":"f3c94274-f861-4c89-8bb1-1ebe1a531935","system_id":"levelo_inurba_marseille","lat":43.2501,"lon":5.3893,"is_reserved":false,"is_disabled":false,"rental_uris":{"android":"levelo://app?vid=f3c94274-f861-4c89-8bb1-1ebe1a531935","ios":"levelo://app?vid=f3c94274-f861-4c89-8bb1-1ebe1a531935"},"vehicle_type_id":"4","last_reported":1737295633,"current_range_meters":37600,"station_id":"ce4bhgp2rcd13ifvqfd0","pricing_plan_id":"cebpf4jnsgd1na2vs0mg"},{"bike_id":"ea820ade-d81d-428e-82b9-7f165f7e8e75","system_id":"levelo_inurba_marseille","lat":43.32372,"lon":5.36745,"is_reserved":false,"is_disabled":false,"rental_uris":{"android":"levelo://app?vid=ea820ade-d81d-428e-82b9-7f165f7e8e75","ios":"levelo://app?vid=ea820ade-d81d-428e-82b9-7f165f7e8e75"},"vehicle_type_id":"4","last_reported":1737295633,"current_range_meters":16400,"station_id":"ce4bhsh2rcd13ifvqi2g","pricing_plan_id":"cebpf4jnsgd1na2vs0mg"},{"bike_id":"c29020e0-83ef-4b06-ac4f-c4422257f84a","system_id":"levelo_inurba_marseille","lat":43.36387,"lon":5.35604,"is_reserved":false,"is_disabled":false,"rental_uris":{"android":"levelo://app?vid=c29020e0-83ef-4b06-ac4f-c4422257f84a","ios":"levelo://app?vid=c29020e0-83ef-4b06-ac4f-c4422257f84a"},"vehicle_type_id":"4","last_reported":1737295633,"current_range_meters":18800,"station_id":"","pricing_plan_id":"cebpf4jnsgd1na2vs0mg"},{"bike_id":"4ff08913-7c01-487b-a58b-f06f3ad0548b","system_id":"levelo_inurba_marseille","lat":43.24178,"lon":5.39738,"is_reserved":false,"is_disabled":false,"rental_uris":{"android":"levelo://app?vid=4ff08913-7c01-487b-a58b-f06f3ad0548b","ios":"levelo://app?vid=4ff08913-7c01-487b-a58b-f06f3ad0548b"},"vehicle_type_id":"4","last_reported":1737295633,"current_range_meters":33200,"station_id":"ce4bhn12rcd13ifvqgpg","pricing_plan_id":"cebpf4jnsgd1na2vs0mg"},{"bike_id":"41d211e1-d354-4c08-89d0-496308f02215","system_id":"levelo_inurba_marseille","lat":43.29607,"lon":5.38108,"is_reserved":false,"is_disabled":false,"rental_uris":{"android":"levelo://app?vid=41d211e1-d354-4c08-89d0-496308f02215","ios":"levelo://app?vid=41d211e1-d354-4c08-89d0-496308f02215"},"vehicle_type_id":"4","last_reported":1737295633,"current_range_meters":24400,"station_id":"ce4bgl12rcd13ifvqbo0","pricing_plan_id":"cebpf4jnsgd1na2vs0mg"},{"bike_id":"03130477-5de0-4f40-b2f5-8e95486c51e6","system_id":"levelo_inurba_marseille","lat":43.26808,"lon":5.40265,"is_reserved":false,"is_disabled":false,"rental_uris":{"android":"levelo://app?vid=03130477-5de0-4f40-b2f5-8e95486c51e6","ios":"levelo://app?vid=03130477-5de0-4f40-b2f5-8e95486c51e6"},"vehicle_type_id":"4","last_reported":1737295633,"current_range_meters":38800,"station_id":"ce501612rcd8frsf0b60","pricing_plan_id":"cebpf4jnsgd1na2vs0mg"},{"bike_id":"4d4ec566-516b-4793-a5be-68a8e0188dc4","system_id":"levelo_inurba_marseille","lat":43.33036,"lon":5.39053,"is_reserved":false,"is_disabled":false,"rental_uris":{"android":"levelo://app?vid=4d4ec566-516b-4793-a5be-68a8e0188dc4","ios":"levelo://app?vid=4d4ec566-516b-4793-a5be-68a8e0188dc4"},"vehicle_type_id":"4","last_reported":1737295633,"current_range_meters":38800,"station_id":"ce4bhr92rcd13ifvqhrg","pricing_plan_id":"cebpf4jnsgd1na2vs0mg"},{"bike_id":"b672b566-ae6e-4181-a2cb-0155be334a04","system_id":"levelo_inurba_marseille","lat":43.28955,"lon":5.36656,"is_reserved":false,"is_disabled":true,"rental_uris":{"android":"levelo://app?vid=b672b566-ae6e-4181-a2cb-0155be334a04","ios":"levelo://app?vid=b672b566-ae6e-4181-a2cb-0155be334a04"},"vehicle_type_id":"4","last_reported":1737295633,"current_range_meters":33200,"station_id":"ce4bhap2rcd13ifvqek0","pricing_plan_id":"cebpf4jnsgd1na2vs0mg"},{"bike_id":"defdde33-3189-4e57-b162-1f492837be1f","system_id":"levelo_inurba_marseille","lat":43.30798,"lon":5.38159,"is_reserved":false,"is_disabled":false,"rental_uris":{"android":"levelo://app?vid=defdde33-3189-4e57-b162-1f492837be1f","ios":"levelo://app?vid=defdde33-3189-4e57-b162-1f492837be1f"},"vehicle_type_id":"4","last_reported":1737295633,"current_range_meters":30000,"station_id":"ce4bgt12rcd13ifvqce0","pricing_plan_id":"cebpf4jnsgd1na2vs0mg"},{"bike_id":"04e7f6b2-1170-476d-8eb7-54bc6ab7d23c","system_id":"levelo_inurba_marseille","lat":43.243884,"lon":5.370563,"is_reserved":false,"is_disabled":false,"rental_uris":{"android":"levelo://app?vid=04e7f6b2-1170-476d-8eb7-54bc6ab7d23c","ios":"levelo://app?vid=04e7f6b2-1170-476d-8eb7-54bc6ab7d23c"},"vehicle_type_id":"4","last_reported":1737295633,"current_range_meters":37600,"station_id":"ce4bhhh2rcd13ifvqfk0","pricing_plan_id":"cebpf4jnsgd1na2vs0mg"},{"bike_id":"9fda8341-8ebd-48b4-a0b7-9c720a53a019","system_id":"levelo_inurba_marseille","lat":43.278411,"lon":5.39929,"is_reserved":false,"is_disabled":false,"rental_uris":{"android":"levelo://app?vid=9fda8341-8ebd-48b4-a0b7-9c720a53a019","ios":"levelo://app?vid=9fda8341-8ebd-48b4-a0b7-9c720a53a019"},"vehicle_type_id":"4","last_reported":1737295633,"current_range_meters":4800,"station_id":"ce4bho92rcd13ifvqh4g","pricing_plan_id":"cebpf4jnsgd1na2vs0mg"},{"bike_id":"f7db12f8-2d27-4a43-b546-412af9768422","system_id":"levelo_inurba_marseille","lat":43.29356,"lon":5.37839,"is_reserved":false,"is_disabled":false,"rental_uris":{"android":"levelo://app?vid=f7db12f8-2d27-4a43-b546-412af9768422","ios":"levelo://app?vid=f7db12f8-2d27-4a43-b546-412af9768422"},"vehicle_type_id":"4","last_reported":1737295633,"current_range_meters":19200,"station_id":"ce4bgjh2rcd13ifvqbf0","pricing_plan_id":"cebpf4jnsgd1na2vs0mg"},{"bike_id":"cea64e77-9def-4cf1-afb3-a04b48db7a22","system_id":"levelo_inurba_marseille","lat":43.28421,"lon":5.34988,"is_reserved":false,"is_disabled":false,"rental_uris":{"android":"levelo://app?vid=cea64e77-9def-4cf1-afb3-a04b48db7a22","ios":"levelo://app?vid=cea64e77-9def-4cf1-afb3-a04b48db7a22"},"vehicle_type_id":"4","last_reported":1737295633,"current_range_meters":10000,"station_id":"ce4bhbh2rcd13ifvqepg","pricing_plan_id":"cebpf4jnsgd1na2vs0mg"},{"bike_id":"df581145-fd95-4a77-a27c-2465bbb559bf","system_id":"levelo_inurba_marseille","lat":43.24684,"lon":5.38144,"is_reserved":false,"is_disabled":false,"rental_uris":{"android":"levelo://app?vid=df581145-fd95-4a77-a27c-2465bbb559bf","ios":"levelo://app?vid=df581145-fd95-4a77-a27c-2465bbb559bf"},"vehicle_type_id":"4","last_reported":1737295633,"current_range_meters":28000,"station_id":"ce4bhih2rcd13ifvqfr0","pricing_plan_id":"cebpf4jnsgd1na2vs0mg"},{"bike_id":"a1268425-e1b2-45b1-8fbc-9391b8140126","system_id":"levelo_inurba_marseille","lat":43.24383,"lon":5.37057,"is_reserved":false,"is_disabled":false,"rental_uris":{"android":"levelo://app?vid=a1268425-e1b2-45b1-8fbc-9391b8140126","ios":"levelo://app?vid=a1268425-e1b2-45b1-8fbc-9391b8140126"},"vehicle_type_id":"4","last_reported":1737295633,"current_range_meters":28800,"station_id":"ce4bhhh2rcd13ifvqfk0","pricing_plan_id":"cebpf4jnsgd1na2vs0mg"},{"bike_id":"501ab4fd-c09d-4978-b056-79da026409be","system_id":"levelo_inurba_marseille","lat":43.26237,"lon":5.40442,"is_reserved":false,"is_disabled":false,"rental_uris":{"android":"levelo://app?vid=501ab4fd-c09d-4978-b056-79da026409be","ios":"levelo://app?vid=501ab4fd-c09d-4978-b056-79da026409be"},"vehicle_type_id":"4","last_reported":1737295633,"current_range_meters":36000,"station_id":"","pricing_plan_id":"cebpf4jnsgd1na2vs0mg"},{"bike_id":"fd696ea5-d4a5-4e3e-a979-e5953f474b0d","system_id":"levelo_inurba_marseille","lat":43.29893,"lon":5.4367,"is_reserved":false,"is_disabled":false,"rental_uris":{"android":"levelo://app?vid=fd696ea5-d4a5-4e3e-a979-e5953f474b0d","ios":"levelo://app?vid=fd696ea5-d4a5-4e3e-a979-e5953f474b0d"},"vehicle_type_id":"4","last_reported":1737295633,"current_range_meters":32400,"station_id":"ce4bhpp2rcd13ifvqhfg","pricing_plan_id":"cebpf4jnsgd1na2vs0mg"},{"bike_id":"f899eb35-eda5-485f-9fa1-5334f06d1ba5","system_id":"levelo_inurba_marseille","lat":43.29051,"lon":5.37177,"is_reserved":false,"is_disabled":false,"rental_uris":{"android":"levelo://app?vid=f899eb35-eda5-485f-9fa1-5334f06d1ba5","ios":"levelo://app?vid=f899eb35-eda5-485f-9fa1-5334f06d1ba5"},"vehicle_type_id":"4","last_reported":1737295633,"current_range_meters":30400,"station_id":"ce4bh5p2rcd13ifvqe4g","pricing_plan_id":"cebpf4jnsgd1na2vs0mg"},{"bike_id":"086ad4fb-b13c-46de-8f3d-4e38f7d002e1","system_id":"levelo_inurba_marseille","lat":43.29642,"lon":5.37147,"is_reserved":false,"is_disabled":false,"rental_uris":{"android":"levelo://app?vid=086ad4fb-b13c-46de-8f3d-4e38f7d002e1","ios":"levelo://app?vid=086ad4fb-b13c-46de-8f3d-4e38f7d002e1"},"vehicle_type_id":"4","last_reported":1737295633,"current_range_meters":38800,"station_id":"ce4bgnh2rcd13ifvqc0g","pricing_plan_id":"cebpf4jnsgd1na2vs0mg"},{"bike_id":"11a07483-ac44-4656-9163-136ce72ccf2e","system_id":"levelo_inurba_marseille","lat":43.30603,"lon":5.36526,"is_reserved":false,"is_disabled":false,"rental_uris":{"android":"levelo://app?vid=11a07483-ac44-4656-9163-136ce72ccf2e","ios":"levelo://app?vid=11a07483-ac44-4656-9163-136ce72ccf2e"},"vehicle_type_id":"4","last_reported":1737295633,"current_range_meters":38800,"station_id":"ce4bgs12rcd13ifvqcag","pricing_plan_id":"cebpf4jnsgd1na2vs0mg"},{"bike_id":"3a731730-e771-49da-936d-6c5bde95e753","system_id":"levelo_inurba_marseille","lat":43.243901,"lon":5.370621,"is_reserved":false,"is_disabled":false,"rental_uris":{"android":"levelo://app?vid=3a731730-e771-49da-936d-6c5bde95e753","ios":"levelo://app?vid=3a731730-e771-49da-936d-6c5bde95e753"},"vehicle_type_id":"4","last_reported":1737295633,"current_range_meters":10800,"station_id":"ce4bhhh2rcd13ifvqfk0","pricing_plan_id":"cebpf4jnsgd1na2vs0mg"},{"bike_id":"cd25f333-fd4e-4c60-8178-f47ff2a33434","system_id":"levelo_inurba_marseille","lat":43.24405,"lon":5.37062,"is_reserved":false,"is_disabled":false,"rental_uris":{"android":"levelo://app?vid=cd25f333-fd4e-4c60-8178-f47ff2a33434","ios":"levelo://app?vid=cd25f333-fd4e-4c60-8178-f47ff2a33434"},"vehicle_type_id":"4","last_reported":1737295633,"current_range_meters":24800,"station_id":"ce4bhhh2rcd13ifvqfk0","pricing_plan_id":"cebpf4jnsgd1na2vs0mg"},{"bike_id":"7b5cc4cc-e608-454c-95d4-00c7b5c48c31","system_id":"levelo_inurba_marseille","lat":43.25934,"lon":5.4087,"is_reserved":false,"is_disabled":false,"rental_uris":{"android":"levelo://app?vid=7b5cc4cc-e608-454c-95d4-00c7b5c48c31","ios":"levelo://app?vid=7b5cc4cc-e608-454c-95d4-00c7b5c48c31"},"vehicle_type_id":"4","last_reported":1737295633,"current_range_meters":6800,"station_id":"ce4bhm92rcd13ifvqglg","pricing_plan_id":"cebpf4jnsgd1na2vs0mg"},{"bike_id":"ec14b574-9118-4fb3-9ff8-f695179f00f1","system_id":"levelo_inurba_marseille","lat":43.25237,"lon":5.40289,"is_reserved":false,"is_disabled":false,"rental_uris":{"android":"levelo://app?vid=ec14b574-9118-4fb3-9ff8-f695179f00f1","ios":"levelo://app?vid=ec14b574-9118-4fb3-9ff8-f695179f00f1"},"vehicle_type_id":"4","last_reported":1737295633,"current_range_meters":36800,"station_id":"","pricing_plan_id":"cebpf4jnsgd1na2vs0mg"},{"bike_id":"644b6a66-e713-4aa9-bb95-30a64653cec0","system_id":"levelo_inurba_marseille","lat":43.2749,"lon":5.4244,"is_reserved":false,"is_disabled":false,"rental_uris":{"android":"levelo://app?vid=644b6a66-e713-4aa9-bb95-30a64653cec0","ios":"levelo://app?vid=644b6a66-e713-4aa9-bb95-30a64653cec0"},"vehicle_type_id":"4","last_reported":1737295633,"current_range_meters":16400,"station_id":"ce4bhn92rcd13ifvqgrg","pricing_plan_id":"cebpf4jnsgd1na2vs0mg"},{"bike_id":"ae38ec3d-afde-4eeb-a761-25157030eba5","system_id":"levelo_inurba_marseille","lat":43.30362,"lon":5.41861,"is_reserved":false,"is_disabled":false,"rental_uris":{"android":"levelo://app?vid=ae38ec3d-afde-4eeb-a761-25157030eba5","ios":"levelo://app?vid=ae38ec3d-afde-4eeb-a761-25157030eba5"},"vehicle_type_id":"4","last_reported":1737295633,"current_range_meters":25600,"station_id":"ce4bhop2rcd13ifvqh7g","pricing_plan_id":"cebpf4jnsgd1na2vs0mg"},{"bike_id":"d5d0e588-11b1-480d-a34c-0fc015ee8abb","system_id":"levelo_inurba_marseille","lat":43.28495,"lon":5.4226,"is_reserved":false,"is_disabled":false,"rental_uris":{"android":"levelo://app?vid=d5d0e588-11b1-480d-a34c-0fc015ee8abb","ios":"levelo://app?vid=d5d0e588-11b1-480d-a34c-0fc015ee8abb"},"vehicle_type_id":"4","last_reported":1737295633,"current_range_meters":26000,"station_id":"","pricing_plan_id":"cebpf4jnsgd1na2vs0mg"},{"bike_id":"61ba8cf5-8b6a-4b4f-b312-d60aa68c9710","system_id":"levelo_inurba_marseille","lat":43.24091,"lon":5.37756,"is_reserved":false,"is_disabled":false,"rental_uris":{"android":"levelo://app?vid=61ba8cf5-8b6a-4b4f-b312-d60aa68c9710","ios":"levelo://app?vid=61ba8cf5-8b6a-4b4f-b312-d60aa68c9710"},"vehicle_type_id":"4","last_reported":1737295633,"current_range_meters":38000,"station_id":"ce4bhnp2rcd13ifvqgvg","pricing_plan_id":"cebpf4jnsgd1na2vs0mg"},{"bike_id":"10b8da58-1f12-44b0-8c4c-eff01d48a146","system_id":"levelo_inurba_marseille","lat":43.30645,"lon":5.40081,"is_reserved":false,"is_disabled":true,"rental_uris":{"android":"levelo://app?vid=10b8da58-1f12-44b0-8c4c-eff01d48a146","ios":"levelo://app?vid=10b8da58-1f12-44b0-8c4c-eff01d48a146"},"vehicle_type_id":"4","last_reported":1737295633,"current_range_meters":28000,"station_id":"ce4bh112rcd13ifvqda0","pricing_plan_id":"cebpf4jnsgd1na2vs0mg"},{"bike_id":"ca8aa51d-4833-4c77-8009-59b7c07323a3","system_id":"levelo_inurba_marseille","lat":43.32371,"lon":5.36738,"is_reserved":false,"is_disabled":false,"rental_uris":{"android":"levelo://app?vid=ca8aa51d-4833-4c77-8009-59b7c07323a3","ios":"levelo://app?vid=ca8aa51d-4833-4c77-8009-59b7c07323a3"},"vehicle_type_id":"4","last_reported":1737295633,"current_range_meters":36400,"station_id":"ce4bhsh2rcd13ifvqi2g","pricing_plan_id":"cebpf4jnsgd1na2vs0mg"},{"bike_id":"7cf8d362-e03a-4ace-8ca7-3b3ee6ae7f49","system_id":"levelo_inurba_marseille","lat":43.28637,"lon":5.35086,"is_reserved":false,"is_disabled":false,"rental_uris":{"android":"levelo://app?vid=7cf8d362-e03a-4ace-8ca7-3b3ee6ae7f49","ios":"levelo://app?vid=7cf8d362-e03a-4ace-8ca7-3b3ee6ae7f49"},"vehicle_type_id":"4","last_reported":1737295633,"current_range_meters":25600,"station_id":"ce4bhch2rcd13ifvqeug","pricing_plan_id":"cebpf4jnsgd1na2vs0mg"},{"bike_id":"d93de546-7fe4-48c6-858e-31c30d6fd688","system_id":"levelo_inurba_marseille","lat":43.25598,"lon":5.38246,"is_reserved":false,"is_disabled":false,"rental_uris":{"android":"levelo://app?vid=d93de546-7fe4-48c6-858e-31c30d6fd688","ios":"levelo://app?vid=d93de546-7fe4-48c6-858e-31c30d6fd688"},"vehicle_type_id":"4","last_reported":1737295633,"current_range_meters":10800,"station_id":"ce4bhih2rcd13ifvqfs0","pricing_plan_id":"cebpf4jnsgd1na2vs0mg"},{"bike_id":"9dc49063-283d-43eb-bbfe-31fee7e70777","system_id":"levelo_inurba_marseille","lat":43.312195,"lon":5.368583,"is_reserved":false,"is_disabled":false,"rental_uris":{"android":"levelo://app?vid=9dc49063-283d-43eb-bbfe-31fee7e70777","ios":"levelo://app?vid=9dc49063-283d-43eb-bbfe-31fee7e70777"},"vehicle_type_id":"4","last_reported":1737295633,"current_range_meters":8400,"station_id":"ce4bgl92rcd13ifvqbq0","pricing_plan_id":"cebpf4jnsgd1na2vs0mg"},{"bike_id":"ce0ee56d-180c-40a7-8ee4-1ff6fa737784","system_id":"levelo_inurba_marseille","lat":43.29918,"lon":5.43674,"is_reserved":false,"is_disabled":false,"rental_uris":{"android":"levelo://app?vid=ce0ee56d-180c-40a7-8ee4-1ff6fa737784","ios":"levelo://app?vid=ce0ee56d-180c-40a7-8ee4-1ff6fa737784"},"vehicle_type_id":"4","last_reported":1737295633,"current_range_meters":38800,"station_id":"","pricing_plan_id":"cebpf4jnsgd1na2vs0mg"},{"bike_id":"74bf9fa6-b490-4985-84f6-376c7e8f74e0","system_id":"levelo_inurba_marseille","lat":43.23963,"lon":5.36632,"is_reserved":false,"is_disabled":false,"rental_uris":{"android":"levelo://app?vid=74bf9fa6-b490-4985-84f6-376c7e8f74e0","ios":"levelo://app?vid=74bf9fa6-b490-4985-84f6-376c7e8f74e0"},"vehicle_type_id":"4","last_reported":1737295633,"current_range_meters":24400,"station_id":"ce4bhi12rcd13ifvqfp0","pricing_plan_id":"cebpf4jnsgd1na2vs0mg"},{"bike_id":"e981bed2-32f6-4349-b4d5-67df9eb8bf3a","system_id":"levelo_inurba_marseille","lat":43.26693,"lon":5.38248,"is_reserved":false,"is_disabled":false,"rental_uris":{"android":"levelo://app?vid=e981bed2-32f6-4349-b4d5-67df9eb8bf3a","ios":"levelo://app?vid=e981bed2-32f6-4349-b4d5-67df9eb8bf3a"},"vehicle_type_id":"4","last_reported":1737295633,"current_range_meters":8800,"station_id":"ce4bhg92rcd13ifvqf90","pricing_plan_id":"cebpf4jnsgd1na2vs0mg"},{"bike_id":"57d9fa47-e597-4ea4-913f-9b45079bd718","system_id":"levelo_inurba_marseille","lat":43.33027,"lon":5.39038,"is_reserved":false,"is_disabled":false,"rental_uris":{"android":"levelo://app?vid=57d9fa47-e597-4ea4-913f-9b45079bd718","ios":"levelo://app?vid=57d9fa47-e597-4ea4-913f-9b45079bd718"},"vehicle_type_id":"4","last_reported":1737295633,"current_range_meters":9200,"station_id":"ce4bhr92rcd13ifvqhrg","pricing_plan_id":"cebpf4jnsgd1na2vs0mg"},{"bike_id":"4ec76aa8-1e80-4051-b2ea-1baaf50a61e8","system_id":"levelo_inurba_marseille","lat":43.24133,"lon":5.38103,"is_reserved":false,"is_disabled":false,"rental_uris":{"android":"levelo://app?vid=4ec76aa8-1e80-4051-b2ea-1baaf50a61e8","ios":"levelo://app?vid=4ec76aa8-1e80-4051-b2ea-1baaf50a61e8"},"vehicle_type_id":"4","last_reported":1737295633,"current_range_meters":17600,"station_id":"","pricing_plan_id":"cebpf4jnsgd1na2vs0mg"},{"bike_id":"4bcfd72b-19bb-463c-8a0a-403b711c5c08","system_id":"levelo_inurba_marseille","lat":43.26195,"lon":5.37935,"is_reserved":false,"is_disabled":false,"rental_uris":{"android":"levelo://app?vid=4bcfd72b-19bb-463c-8a0a-403b711c5c08","ios":"levelo://app?vid=4bcfd72b-19bb-463c-8a0a-403b711c5c08"},"vehicle_type_id":"4","last_reported":1737295633,"current_range_meters":6800,"station_id":"ce4bhjp2rcd13ifvqg90","pricing_plan_id":"cebpf4jnsgd1na2vs0mg"},{"bike_id":"bd00f222-ce0c-4f81-a68c-0edabc3e5f6b","system_id":"levelo_inurba_marseille","lat":43.25095,"lon":5.39541,"is_reserved":false,"is_disabled":false,"rental_uris":{"android":"levelo://app?vid=bd00f222-ce0c-4f81-a68c-0edabc3e5f6b","ios":"levelo://app?vid=bd00f222-ce0c-4f81-a68c-0edabc3e5f6b"},"vehicle_type_id":"4","last_reported":1737295633,"current_range_meters":36800,"station_id":"ce4bhm12rcd13ifvqgkg","pricing_plan_id":"cebpf4jnsgd1na2vs0mg"},{"bike_id":"504e7a73-a8fc-4188-a6b2-d41c3f38478c","system_id":"levelo_inurba_marseille","lat":43.30531,"lon":5.36444,"is_reserved":false,"is_disabled":false,"rental_uris":{"android":"levelo://app?vid=504e7a73-a8fc-4188-a6b2-d41c3f38478c","ios":"levelo://app?vid=504e7a73-a8fc-4188-a6b2-d41c3f38478c"},"vehicle_type_id":"4","last_reported":1737295633,"current_range_meters":36000,"station_id":"","pricing_plan_id":"cebpf4jnsgd1na2vs0mg"},{"bike_id":"d400821d-12fc-4b92-a929-07e330bc24b2","system_id":"levelo_inurba_marseille","lat":43.22937,"lon":5.35377,"is_reserved":false,"is_disabled":false,"rental_uris":{"android":"levelo://app?vid=d400821d-12fc-4b92-a929-07e330bc24b2","ios":"levelo://app?vid=d400821d-12fc-4b92-a929-07e330bc24b2"},"vehicle_type_id":"4","last_reported":1737295633,"current_range_meters":38800,"station_id":"cpo3532slgdg3j2ikp40","pricing_plan_id":"cebpf4jnsgd1na2vs0mg"},{"bike_id":"d619951d-7c38-4a42-b3bf-9f8b734f3ce8","system_id":"levelo_inurba_marseille","lat":43.27451,"lon":5.39399,"is_reserved":false,"is_disabled":false,"rental_uris":{"android":"levelo://app?vid=d619951d-7c38-4a42-b3bf-9f8b734f3ce8","ios":"levelo://app?vid=d619951d-7c38-4a42-b3bf-9f8b734f3ce8"},"vehicle_type_id":"4","last_reported":1737295633,"current_range_meters":2800,"station_id":"ce4bhdp2rcd13ifvqf20","pricing_plan_id":"cebpf4jnsgd1na2vs0mg"},{"bike_id":"4104cbba-088f-4383-b2a0-261d17699731","system_id":"levelo_inurba_marseille","lat":43.23979,"lon":5.36642,"is_reserved":false,"is_disabled":false,"rental_uris":{"android":"levelo://app?vid=4104cbba-088f-4383-b2a0-261d17699731","ios":"levelo://app?vid=4104cbba-088f-4383-b2a0-261d17699731"},"vehicle_type_id":"4","last_reported":1737295633,"current_range_meters":36800,"station_id":"ce4bhi12rcd13ifvqfp0","pricing_plan_id":"cebpf4jnsgd1na2vs0mg"},{"bike_id":"85a0fe70-a6ed-43c2-bc01-d0ee99bbe486","system_id":"levelo_inurba_marseille","lat":43.31419,"lon":5.36954,"is_reserved":false,"is_disabled":false,"rental_uris":{"android":"levelo://app?vid=85a0fe70-a6ed-43c2-bc01-d0ee99bbe486","ios":"levelo://app?vid=85a0fe70-a6ed-43c2-bc01-d0ee99bbe486"},"vehicle_type_id":"4","last_reported":1737295633,"current_range_meters":21600,"station_id":"","pricing_plan_id":"cebpf4jnsgd1na2vs0mg"},{"bike_id":"f6607a50-fbbc-4722-8f6f-8500bb90a093","system_id":"levelo_inurba_marseille","lat":43.23178,"lon":5.39976,"is_reserved":false,"is_disabled":false,"rental_uris":{"android":"levelo://app?vid=f6607a50-fbbc-4722-8f6f-8500bb90a093","ios":"levelo://app?vid=f6607a50-fbbc-4722-8f6f-8500bb90a093"},"vehicle_type_id":"4","last_reported":1737295633,"current_range_meters":38000,"station_id":"ce4bhn12rcd13ifvqgqg","pricing_plan_id":"cebpf4jnsgd1na2vs0mg"},{"bike_id":"881f5a56-0072-422c-a05d-eee833d8c733","system_id":"levelo_inurba_marseille","lat":43.33002,"lon":5.37979,"is_reserved":false,"is_disabled":false,"rental_uris":{"android":"levelo://app?vid=881f5a56-0072-422c-a05d-eee833d8c733","ios":"levelo://app?vid=881f5a56-0072-422c-a05d-eee833d8c733"},"vehicle_type_id":"4","last_reported":1737295633,"current_range_meters":36800,"station_id":"","pricing_plan_id":"cebpf4jnsgd1na2vs0mg"},{"bike_id":"28ef1c1e-dd89-43e8-817b-9b489831397b","system_id":"levelo_inurba_marseille","lat":43.27119,"lon":5.39619,"is_reserved":false,"is_disabled":true,"rental_uris":{"android":"levelo://app?vid=28ef1c1e-dd89-43e8-817b-9b489831397b","ios":"levelo://app?vid=28ef1c1e-dd89-43e8-817b-9b489831397b"},"vehicle_type_id":"4","last_reported":1737295633,"current_range_meters":0,"station_id":"","pricing_plan_id":"cebpf4jnsgd1na2vs0mg"},{"bike_id":"a090d58d-a1fb-4921-bd15-f1d1e2db9ea4","system_id":"levelo_inurba_marseille","lat":43.24188,"lon":5.39726,"is_reserved":false,"is_disabled":false,"rental_uris":{"android":"levelo://app?vid=a090d58d-a1fb-4921-bd15-f1d1e2db9ea4","ios":"levelo://app?vid=a090d58d-a1fb-4921-bd15-f1d1e2db9ea4"},"vehicle_type_id":"4","last_reported":1737295633,"current_range_meters":30000,"station_id":"ce4bhn12rcd13ifvqgpg","pricing_plan_id":"cebpf4jnsgd1na2vs0mg"},{"bike_id":"5215d8b3-86aa-4eee-9eb4-2ca66884d9ca","system_id":"levelo_inurba_marseille","lat":43.25487,"lon":5.37646,"is_reserved":false,"is_disabled":true,"rental_uris":{"android":"levelo://app?vid=5215d8b3-86aa-4eee-9eb4-2ca66884d9ca","ios":"levelo://app?vid=5215d8b3-86aa-4eee-9eb4-2ca66884d9ca"},"vehicle_type_id":"4","last_reported":1737295633,"current_range_meters":0,"station_id":"ce4bhh12rcd13ifvqff0","pricing_plan_id":"cebpf4jnsgd1na2vs0mg"},{"bike_id":"4d34c672-9d29-4906-80dd-dfec17e59d7f","system_id":"levelo_inurba_marseille","lat":43.29308,"lon":5.37167,"is_reserved":false,"is_disabled":false,"rental_uris":{"android":"levelo://app?vid=4d34c672-9d29-4906-80dd-dfec17e59d7f","ios":"levelo://app?vid=4d34c672-9d29-4906-80dd-dfec17e59d7f"},"vehicle_type_id":"4","last_reported":1737295633,"current_range_meters":14000,"station_id":"ce4bgh92rcd13ifvqb40","pricing_plan_id":"cebpf4jnsgd1na2vs0mg"},{"bike_id":"c77de84a-305d-47e5-b81a-44313d3b8aa9","system_id":"levelo_inurba_marseille","lat":43.25883,"lon":5.39919,"is_reserved":false,"is_disabled":false,"rental_uris":{"android":"levelo://app?vid=c77de84a-305d-47e5-b81a-44313d3b8aa9","ios":"levelo://app?vid=c77de84a-305d-47e5-b81a-44313d3b8aa9"},"vehicle_type_id":"4","last_reported":1737295633,"current_range_meters":36800,"station_id":"ce4bhl92rcd13ifvqghg","pricing_plan_id":"cebpf4jnsgd1na2vs0mg"},{"bike_id":"357eaeda-fef2-41f2-9ad0-621ae2cc5c09","system_id":"levelo_inurba_marseille","lat":43.33753,"lon":5.37518,"is_reserved":false,"is_disabled":false,"rental_uris":{"android":"levelo://app?vid=357eaeda-fef2-41f2-9ad0-621ae2cc5c09","ios":"levelo://app?vid=357eaeda-fef2-41f2-9ad0-621ae2cc5c09"},"vehicle_type_id":"4","last_reported":1737295633,"current_range_meters":32400,"station_id":"","pricing_plan_id":"cebpf4jnsgd1na2vs0mg"},{"bike_id":"61223d09-d71f-4e96-a161-f6e151ff6ba5","system_id":"levelo_inurba_marseille","lat":43.28617,"lon":5.35104,"is_reserved":false,"is_disabled":false,"rental_uris":{"android":"levelo://app?vid=61223d09-d71f-4e96-a161-f6e151ff6ba5","ios":"levelo://app?vid=61223d09-d71f-4e96-a161-f6e151ff6ba5"},"vehicle_type_id":"4","last_reported":1737295633,"current_range_meters":35200,"station_id":"ce4bhch2rcd13ifvqeug","pricing_plan_id":"cebpf4jnsgd1na2vs0mg"},{"bike_id":"c6e53bde-f82e-4b9c-a774-520f9fd197c7","system_id":"levelo_inurba_marseille","lat":43.28929,"lon":5.38397,"is_reserved":false,"is_disabled":true,"rental_uris":{"android":"levelo://app?vid=c6e53bde-f82e-4b9c-a774-520f9fd197c7","ios":"levelo://app?vid=c6e53bde-f82e-4b9c-a774-520f9fd197c7"},"vehicle_type_id":"4","last_reported":1737295633,"current_range_meters":800,"station_id":"ce4bh612rcd13ifvqe6g","pricing_plan_id":"cebpf4jnsgd1na2vs0mg"},{"bike_id":"5ebc0e23-f2f4-4cc0-bd89-a31a0285ee53","system_id":"levelo_inurba_marseille","lat":43.31713,"lon":5.43707,"is_reserved":false,"is_disabled":false,"rental_uris":{"android":"levelo://app?vid=5ebc0e23-f2f4-4cc0-bd89-a31a0285ee53","ios":"levelo://app?vid=5ebc0e23-f2f4-4cc0-bd89-a31a0285ee53"},"vehicle_type_id":"4","last_reported":1737295633,"current_range_meters":38800,"station_id":"ce4bhp92rcd13ifvqhcg","pricing_plan_id":"cebpf4jnsgd1na2vs0mg"},{"bike_id":"fbdd307e-7610-4d67-b1a4-687f052b3cc6","system_id":"levelo_inurba_marseille","lat":43.29019,"lon":5.38123,"is_reserved":false,"is_disabled":false,"rental_uris":{"android":"levelo://app?vid=fbdd307e-7610-4d67-b1a4-687f052b3cc6","ios":"levelo://app?vid=fbdd307e-7610-4d67-b1a4-687f052b3cc6"},"vehicle_type_id":"4","last_reported":1737295633,"current_range_meters":27600,"station_id":"ce4bh4p2rcd13ifvqe1g","pricing_plan_id":"cebpf4jnsgd1na2vs0mg"},{"bike_id":"e2481d2d-ec3c-436f-9eeb-094327789afd","system_id":"levelo_inurba_marseille","lat":43.2969,"lon":5.42369,"is_reserved":false,"is_disabled":false,"rental_uris":{"android":"levelo://app?vid=e2481d2d-ec3c-436f-9eeb-094327789afd","ios":"levelo://app?vid=e2481d2d-ec3c-436f-9eeb-094327789afd"},"vehicle_type_id":"4","last_reported":1737295633,"current_range_meters":8800,"station_id":"","pricing_plan_id":"cebpf4jnsgd1na2vs0mg"},{"bike_id":"9cd3f5f0-75b2-4530-adb9-eff80f03a492","system_id":"levelo_inurba_marseille","lat":43.2917,"lon":5.38503,"is_reserved":false,"is_disabled":false,"rental_uris":{"android":"levelo://app?vid=9cd3f5f0-75b2-4530-adb9-eff80f03a492","ios":"levelo://app?vid=9cd3f5f0-75b2-4530-adb9-eff80f03a492"},"vehicle_type_id":"4","last_reported":1737295633,"current_range_meters":30400,"station_id":"","pricing_plan_id":"cebpf4jnsgd1na2vs0mg"},{"bike_id":"406cf7e1-dd3a-472a-896f-d09b14680f3c","system_id":"levelo_inurba_marseille","lat":43.260618,"lon":5.394172,"is_reserved":false,"is_disabled":false,"rental_uris":{"android":"levelo://app?vid=406cf7e1-dd3a-472a-896f-d09b14680f3c","ios":"levelo://app?vid=406cf7e1-dd3a-472a-896f-d09b14680f3c"},"vehicle_type_id":"4","last_reported":1737295633,"current_range_meters":26000,"station_id":"ce4bhh92rcd13ifvqfj0","pricing_plan_id":"cebpf4jnsgd1na2vs0mg"},{"bike_id":"e402f20b-ca9f-49a0-9cc4-3f70b65d7881","system_id":"levelo_inurba_marseille","lat":43.3095,"lon":5.3903,"is_reserved":false,"is_disabled":false,"rental_uris":{"android":"levelo://app?vid=e402f20b-ca9f-49a0-9cc4-3f70b65d7881","ios":"levelo://app?vid=e402f20b-ca9f-49a0-9cc4-3f70b65d7881"},"vehicle_type_id":"4","last_reported":1737295633,"current_range_meters":18000,"station_id":"ce4bgup2rcd13ifvqco0","pricing_plan_id":"cebpf4jnsgd1na2vs0mg"},{"bike_id":"01a07bd9-36a1-4c19-a88b-7c9e3a6ee490","system_id":"levelo_inurba_marseille","lat":43.25113,"lon":5.39503,"is_reserved":false,"is_disabled":false,"rental_uris":{"android":"levelo://app?vid=01a07bd9-36a1-4c19-a88b-7c9e3a6ee490","ios":"levelo://app?vid=01a07bd9-36a1-4c19-a88b-7c9e3a6ee490"},"vehicle_type_id":"4","last_reported":1737295633,"current_range_meters":32800,"station_id":"ce4bhm12rcd13ifvqgkg","pricing_plan_id":"cebpf4jnsgd1na2vs0mg"},{"bike_id":"850c2333-a382-4245-9262-9d1484761558","system_id":"levelo_inurba_marseille","lat":43.29226,"lon":5.36063,"is_reserved":false,"is_disabled":false,"rental_uris":{"android":"levelo://app?vid=850c2333-a382-4245-9262-9d1484761558","ios":"levelo://app?vid=850c2333-a382-4245-9262-9d1484761558"},"vehicle_type_id":"4","last_reported":1737295633,"current_range_meters":38800,"station_id":"ce4bhbh2rcd13ifvqeqg","pricing_plan_id":"cebpf4jnsgd1na2vs0mg"},{"bike_id":"d69035b1-a171-4084-bf57-048f664a2d05","system_id":"levelo_inurba_marseille","lat":43.26024,"lon":5.37548,"is_reserved":false,"is_disabled":false,"rental_uris":{"android":"levelo://app?vid=d69035b1-a171-4084-bf57-048f664a2d05","ios":"levelo://app?vid=d69035b1-a171-4084-bf57-048f664a2d05"},"vehicle_type_id":"4","last_reported":1737295633,"current_range_meters":38800,"station_id":"ce4bhgh2rcd13ifvqfa0","pricing_plan_id":"cebpf4jnsgd1na2vs0mg"},{"bike_id":"24d3b331-52fa-4564-a98e-732c1dea4a32","system_id":"levelo_inurba_marseille","lat":43.27498,"lon":5.42456,"is_reserved":false,"is_disabled":true,"rental_uris":{"android":"levelo://app?vid=24d3b331-52fa-4564-a98e-732c1dea4a32","ios":"levelo://app?vid=24d3b331-52fa-4564-a98e-732c1dea4a32"},"vehicle_type_id":"4","last_reported":1737295633,"current_range_meters":38800,"station_id":"ce4bhn92rcd13ifvqgrg","pricing_plan_id":"cebpf4jnsgd1na2vs0mg"},{"bike_id":"3ef515de-7597-4522-bc38-820c674df87d","system_id":"levelo_inurba_marseille","lat":43.26559,"lon":5.37286,"is_reserved":false,"is_disabled":false,"rental_uris":{"android":"levelo://app?vid=3ef515de-7597-4522-bc38-820c674df87d","ios":"levelo://app?vid=3ef515de-7597-4522-bc38-820c674df87d"},"vehicle_type_id":"4","last_reported":1737295633,"current_range_meters":14800,"station_id":"ce4bhg12rcd13ifvqf70","pricing_plan_id":"cebpf4jnsgd1na2vs0mg"},{"bike_id":"524072f1-ace1-43cc-8007-f91dc732b1f7","system_id":"levelo_inurba_marseille","lat":43.25084,"lon":5.39513,"is_reserved":false,"is_disabled":false,"rental_uris":{"android":"levelo://app?vid=524072f1-ace1-43cc-8007-f91dc732b1f7","ios":"levelo://app?vid=524072f1-ace1-43cc-8007-f91dc732b1f7"},"vehicle_type_id":"4","last_reported":1737295633,"current_range_meters":31200,"station_id":"ce4bhm12rcd13ifvqgkg","pricing_plan_id":"cebpf4jnsgd1na2vs0mg"},{"bike_id":"c42268c0-a5e0-42b8-b874-93ef21576df8","system_id":"levelo_inurba_marseille","lat":43.28156,"lon":5.42647,"is_reserved":false,"is_disabled":false,"rental_uris":{"android":"levelo://app?vid=c42268c0-a5e0-42b8-b874-93ef21576df8","ios":"levelo://app?vid=c42268c0-a5e0-42b8-b874-93ef21576df8"},"vehicle_type_id":"4","last_reported":1737295633,"current_range_meters":27600,"station_id":"ce4bhnh2rcd13ifvqgug","pricing_plan_id":"cebpf4jnsgd1na2vs0mg"},{"bike_id":"95f54556-8c5b-42ae-af2a-362adb7edb62","system_id":"levelo_inurba_marseille","lat":43.24073,"lon":5.37762,"is_reserved":false,"is_disabled":false,"rental_uris":{"android":"levelo://app?vid=95f54556-8c5b-42ae-af2a-362adb7edb62","ios":"levelo://app?vid=95f54556-8c5b-42ae-af2a-362adb7edb62"},"vehicle_type_id":"4","last_reported":1737295633,"current_range_meters":20000,"station_id":"ce4bhnp2rcd13ifvqgvg","pricing_plan_id":"cebpf4jnsgd1na2vs0mg"},{"bike_id":"392d5c13-52e3-4447-bb35-77b670143dc4","system_id":"levelo_inurba_marseille","lat":43.2396,"lon":5.36627,"is_reserved":false,"is_disabled":false,"rental_uris":{"android":"levelo://app?vid=392d5c13-52e3-4447-bb35-77b670143dc4","ios":"levelo://app?vid=392d5c13-52e3-4447-bb35-77b670143dc4"},"vehicle_type_id":"4","last_reported":1737295633,"current_range_meters":32800,"station_id":"ce4bhi12rcd13ifvqfp0","pricing_plan_id":"cebpf4jnsgd1na2vs0mg"},{"bike_id":"b2cda95e-1da3-4888-9bcc-3320c5872924","system_id":"levelo_inurba_marseille","lat":43.29256,"lon":5.40911,"is_reserved":false,"is_disabled":false,"rental_uris":{"android":"levelo://app?vid=b2cda95e-1da3-4888-9bcc-3320c5872924","ios":"levelo://app?vid=b2cda95e-1da3-4888-9bcc-3320c5872924"},"vehicle_type_id":"4","last_reported":1737295633,"current_range_meters":32000,"station_id":"ce4bh192rcd13ifvqdc0","pricing_plan_id":"cebpf4jnsgd1na2vs0mg"},{"bike_id":"4291632b-b89c-4c47-8e03-1ac2c74e4815","system_id":"levelo_inurba_marseille","lat":43.24184,"lon":5.397,"is_reserved":false,"is_disabled":false,"rental_uris":{"android":"levelo://app?vid=4291632b-b89c-4c47-8e03-1ac2c74e4815","ios":"levelo://app?vid=4291632b-b89c-4c47-8e03-1ac2c74e4815"},"vehicle_type_id":"4","last_reported":1737295633,"current_range_meters":37600,"station_id":"ce4bhn12rcd13ifvqgpg","pricing_plan_id":"cebpf4jnsgd1na2vs0mg"},{"bike_id":"cb023393-3cf4-4a90-91bf-27968d7b6e27","system_id":"levelo_inurba_marseille","lat":43.24813,"lon":5.37456,"is_reserved":false,"is_disabled":true,"rental_uris":{"android":"levelo://app?vid=cb023393-3cf4-4a90-91bf-27968d7b6e27","ios":"levelo://app?vid=cb023393-3cf4-4a90-91bf-27968d7b6e27"},"vehicle_type_id":"4","last_reported":1737295633,"current_range_meters":0,"station_id":"ce4bhgh2rcd13ifvqfb0","pricing_plan_id":"cebpf4jnsgd1na2vs0mg"},{"bike_id":"8e7b76ca-5077-464a-84f9-764ce4ba6856","system_id":"levelo_inurba_marseille","lat":43.29634,"lon":5.37139,"is_reserved":false,"is_disabled":false,"rental_uris":{"android":"levelo://app?vid=8e7b76ca-5077-464a-84f9-764ce4ba6856","ios":"levelo://app?vid=8e7b76ca-5077-464a-84f9-764ce4ba6856"},"vehicle_type_id":"4","last_reported":1737295633,"current_range_meters":28000,"station_id":"ce4bgnh2rcd13ifvqc0g","pricing_plan_id":"cebpf4jnsgd1na2vs0mg"},{"bike_id":"8df877d7-1d11-424b-bcdb-b0f9eb3ae2e6","system_id":"levelo_inurba_marseille","lat":43.27318,"lon":5.39075,"is_reserved":false,"is_disabled":false,"rental_uris":{"android":"levelo://app?vid=8df877d7-1d11-424b-bcdb-b0f9eb3ae2e6","ios":"levelo://app?vid=8df877d7-1d11-424b-bcdb-b0f9eb3ae2e6"},"vehicle_type_id":"4","last_reported":1737295633,"current_range_meters":23200,"station_id":"ce4bhgp2rcd13ifvqfe0","pricing_plan_id":"cebpf4jnsgd1na2vs0mg"},{"bike_id":"1e0d1457-bf03-47d3-b226-8b5c7421ade9","system_id":"levelo_inurba_marseille","lat":43.28619,"lon":5.35103,"is_reserved":false,"is_disabled":false,"rental_uris":{"android":"levelo://app?vid=1e0d1457-bf03-47d3-b226-8b5c7421ade9","ios":"levelo://app?vid=1e0d1457-bf03-47d3-b226-8b5c7421ade9"},"vehicle_type_id":"4","last_reported":1737295633,"current_range_meters":16800,"station_id":"ce4bhch2rcd13ifvqeug","pricing_plan_id":"cebpf4jnsgd1na2vs0mg"},{"bike_id":"13d3fd97-e21c-4164-8b58-6e6c0cfe1ec1","system_id":"levelo_inurba_marseille","lat":43.28029,"lon":5.36949,"is_reserved":false,"is_disabled":false,"rental_uris":{"android":"levelo://app?vid=13d3fd97-e21c-4164-8b58-6e6c0cfe1ec1","ios":"levelo://app?vid=13d3fd97-e21c-4164-8b58-6e6c0cfe1ec1"},"vehicle_type_id":"4","last_reported":1737295633,"current_range_meters":38800,"station_id":"ce4bha12rcd13ifvqef0","pricing_plan_id":"cebpf4jnsgd1na2vs0mg"},{"bike_id":"9f0f5b74-d025-4783-ac4b-b3badfd4a2e8","system_id":"levelo_inurba_marseille","lat":43.25832,"lon":5.39411,"is_reserved":false,"is_disabled":false,"rental_uris":{"android":"levelo://app?vid=9f0f5b74-d025-4783-ac4b-b3badfd4a2e8","ios":"levelo://app?vid=9f0f5b74-d025-4783-ac4b-b3badfd4a2e8"},"vehicle_type_id":"4","last_reported":1737295633,"current_range_meters":28000,"station_id":"ce4bhip2rcd13ifvqft0","pricing_plan_id":"cebpf4jnsgd1na2vs0mg"},{"bike_id":"9be150cb-96a7-4172-a780-fa2bd1fc7a33","system_id":"levelo_inurba_marseille","lat":43.29905,"lon":5.43653,"is_reserved":false,"is_disabled":false,"rental_uris":{"android":"levelo://app?vid=9be150cb-96a7-4172-a780-fa2bd1fc7a33","ios":"levelo://app?vid=9be150cb-96a7-4172-a780-fa2bd1fc7a33"},"vehicle_type_id":"4","last_reported":1737295633,"current_range_meters":20000,"station_id":"ce4bhpp2rcd13ifvqhfg","pricing_plan_id":"cebpf4jnsgd1na2vs0mg"},{"bike_id":"7173a60e-36f0-437f-9b44-d7db50278ab2","system_id":"levelo_inurba_marseille","lat":43.33031,"lon":5.39043,"is_reserved":false,"is_disabled":false,"rental_uris":{"android":"levelo://app?vid=7173a60e-36f0-437f-9b44-d7db50278ab2","ios":"levelo://app?vid=7173a60e-36f0-437f-9b44-d7db50278ab2"},"vehicle_type_id":"4","last_reported":1737295633,"current_range_meters":28000,"station_id":"ce4bhr92rcd13ifvqhrg","pricing_plan_id":"cebpf4jnsgd1na2vs0mg"},{"bike_id":"13fba3e9-9038-4f40-9fe7-ed848d7cca78","system_id":"levelo_inurba_marseille","lat":43.28416,"lon":5.34982,"is_reserved":false,"is_disabled":false,"rental_uris":{"android":"levelo://app?vid=13fba3e9-9038-4f40-9fe7-ed848d7cca78","ios":"levelo://app?vid=13fba3e9-9038-4f40-9fe7-ed848d7cca78"},"vehicle_type_id":"4","last_reported":1737295633,"current_range_meters":22800,"station_id":"ce4bhbh2rcd13ifvqepg","pricing_plan_id":"cebpf4jnsgd1na2vs0mg"},{"bike_id":"f4a4a406-b0a5-42fc-9236-32e93ac6f6b2","system_id":"levelo_inurba_marseille","lat":43.231489,"lon":5.437015,"is_reserved":false,"is_disabled":true,"rental_uris":{"android":"levelo://app?vid=f4a4a406-b0a5-42fc-9236-32e93ac6f6b2","ios":"levelo://app?vid=f4a4a406-b0a5-42fc-9236-32e93ac6f6b2"},"vehicle_type_id":"4","last_reported":1737295633,"current_range_meters":26000,"station_id":"ce4bhmp2rcd13ifvqgog","pricing_plan_id":"cebpf4jnsgd1na2vs0mg"},{"bike_id":"210ffe2d-27bf-471a-a897-ba0eb55d9e2b","system_id":"levelo_inurba_marseille","lat":43.270753,"lon":5.42274,"is_reserved":false,"is_disabled":false,"rental_uris":{"android":"levelo://app?vid=210ffe2d-27bf-471a-a897-ba0eb55d9e2b","ios":"levelo://app?vid=210ffe2d-27bf-471a-a897-ba0eb55d9e2b"},"vehicle_type_id":"4","last_reported":1737295633,"current_range_meters":35200,"station_id":"ce4bhk92rcd13ifvqgb0","pricing_plan_id":"cebpf4jnsgd1na2vs0mg"},{"bike_id":"a9efb7ea-9249-4c6d-8393-0c83f0970340","system_id":"levelo_inurba_marseille","lat":43.26198,"lon":5.37447,"is_reserved":false,"is_disabled":false,"rental_uris":{"android":"levelo://app?vid=a9efb7ea-9249-4c6d-8393-0c83f0970340","ios":"levelo://app?vid=a9efb7ea-9249-4c6d-8393-0c83f0970340"},"vehicle_type_id":"4","last_reported":1737295633,"current_range_meters":26800,"station_id":"ce4bhgp2rcd13ifvqfc0","pricing_plan_id":"cebpf4jnsgd1na2vs0mg"},{"bike_id":"69f51991-2742-4080-bf5e-edaa52a3e3c6","system_id":"levelo_inurba_marseille","lat":43.299,"lon":5.38154,"is_reserved":false,"is_disabled":false,"rental_uris":{"android":"levelo://app?vid=69f51991-2742-4080-bf5e-edaa52a3e3c6","ios":"levelo://app?vid=69f51991-2742-4080-bf5e-edaa52a3e3c6"},"vehicle_type_id":"4","last_reported":1737295633,"current_range_meters":19600,"station_id":"ce4bgj12rcd13ifvqbc0","pricing_plan_id":"cebpf4jnsgd1na2vs0mg"},{"bike_id":"437717c2-d3d4-444c-a98b-13cb78c76396","system_id":"levelo_inurba_marseille","lat":43.29853,"lon":5.36275,"is_reserved":false,"is_disabled":false,"rental_uris":{"android":"levelo://app?vid=437717c2-d3d4-444c-a98b-13cb78c76396","ios":"levelo://app?vid=437717c2-d3d4-444c-a98b-13cb78c76396"},"vehicle_type_id":"4","last_reported":1737295633,"current_range_meters":27200,"station_id":"ce4bgpp2rcd13ifvqc3g","pricing_plan_id":"cebpf4jnsgd1na2vs0mg"},{"bike_id":"fef06379-4dc4-4e96-8ff4-7c502d8e9f90","system_id":"levelo_inurba_marseille","lat":43.31722,"lon":5.42385,"is_reserved":false,"is_disabled":false,"rental_uris":{"android":"levelo://app?vid=fef06379-4dc4-4e96-8ff4-7c502d8e9f90","ios":"levelo://app?vid=fef06379-4dc4-4e96-8ff4-7c502d8e9f90"},"vehicle_type_id":"4","last_reported":1737295633,"current_range_meters":37600,"station_id":"ce4bhp92rcd13ifvqhbg","pricing_plan_id":"cebpf4jnsgd1na2vs0mg"},{"bike_id":"fd7d4629-1a52-4485-85fa-ae0ed65f58ac","system_id":"levelo_inurba_marseille","lat":43.2796,"lon":5.41051,"is_reserved":false,"is_disabled":false,"rental_uris":{"android":"levelo://app?vid=fd7d4629-1a52-4485-85fa-ae0ed65f58ac","ios":"levelo://app?vid=fd7d4629-1a52-4485-85fa-ae0ed65f58ac"},"vehicle_type_id":"4","last_reported":1737295633,"current_range_meters":25600,"station_id":"ce4bhnp2rcd13ifvqh0g","pricing_plan_id":"cebpf4jnsgd1na2vs0mg"},{"bike_id":"0e6a6d14-e165-4e65-b24a-eef8b35ce0f8","system_id":"levelo_inurba_marseille","lat":43.32547,"lon":5.41448,"is_reserved":false,"is_disabled":false,"rental_uris":{"android":"levelo://app?vid=0e6a6d14-e165-4e65-b24a-eef8b35ce0f8","ios":"levelo://app?vid=0e6a6d14-e165-4e65-b24a-eef8b35ce0f8"},"vehicle_type_id":"4","last_reported":1737295633,"current_range_meters":38400,"station_id":"ce4bhq12rcd13ifvqhhg","pricing_plan_id":"cebpf4jnsgd1na2vs0mg"},{"bike_id":"0b347ee2-2808-4cbd-aafe-e2b2194ac787","system_id":"levelo_inurba_marseille","lat":43.25951,"lon":5.40905,"is_reserved":false,"is_disabled":false,"rental_uris":{"android":"levelo://app?vid=0b347ee2-2808-4cbd-aafe-e2b2194ac787","ios":"levelo://app?vid=0b347ee2-2808-4cbd-aafe-e2b2194ac787"},"vehicle_type_id":"4","last_reported":1737295633,"current_range_meters":38800,"station_id":"ce4bhm92rcd13ifvqglg","pricing_plan_id":"cebpf4jnsgd1na2vs0mg"},{"bike_id":"10726754-67ea-4903-b79d-4e99d42279b1","system_id":"levelo_inurba_marseille","lat":43.26063,"lon":5.39398,"is_reserved":false,"is_disabled":false,"rental_uris":{"android":"levelo://app?vid=10726754-67ea-4903-b79d-4e99d42279b1","ios":"levelo://app?vid=10726754-67ea-4903-b79d-4e99d42279b1"},"vehicle_type_id":"4","last_reported":1737295633,"current_range_meters":16000,"station_id":"ce4bhh92rcd13ifvqfj0","pricing_plan_id":"cebpf4jnsgd1na2vs0mg"},{"bike_id":"234d1550-b7dd-465b-9578-32049a642f2b","system_id":"levelo_inurba_marseille","lat":43.2997,"lon":5.41322,"is_reserved":false,"is_disabled":false,"rental_uris":{"android":"levelo://app?vid=234d1550-b7dd-465b-9578-32049a642f2b","ios":"levelo://app?vid=234d1550-b7dd-465b-9578-32049a642f2b"},"vehicle_type_id":"4","last_reported":1737295633,"current_range_meters":35600,"station_id":"ce4bhp12rcd13ifvqh9g","pricing_plan_id":"cebpf4jnsgd1na2vs0mg"},{"bike_id":"ba62d1ca-5adf-48c1-b4e7-705a806c2530","system_id":"levelo_inurba_marseille","lat":43.24199,"lon":5.39691,"is_reserved":false,"is_disabled":false,"rental_uris":{"android":"levelo://app?vid=ba62d1ca-5adf-48c1-b4e7-705a806c2530","ios":"levelo://app?vid=ba62d1ca-5adf-48c1-b4e7-705a806c2530"},"vehicle_type_id":"4","last_reported":1737295633,"current_range_meters":38800,"station_id":"ce4bhn12rcd13ifvqgpg","pricing_plan_id":"cebpf4jnsgd1na2vs0mg"},{"bike_id":"e7f99d6c-f903-46b1-a712-b41efbe19fab","system_id":"levelo_inurba_marseille","lat":43.30553,"lon":5.3653,"is_reserved":false,"is_disabled":true,"rental_uris":{"android":"levelo://app?vid=e7f99d6c-f903-46b1-a712-b41efbe19fab","ios":"levelo://app?vid=e7f99d6c-f903-46b1-a712-b41efbe19fab"},"vehicle_type_id":"4","last_reported":1737295633,"current_range_meters":2000,"station_id":"ce4bgs12rcd13ifvqcag","pricing_plan_id":"cebpf4jnsgd1na2vs0mg"},{"bike_id":"34a76aa8-d373-4043-a4e9-5f556e9e6100","system_id":"levelo_inurba_marseille","lat":43.28037,"lon":5.36948,"is_reserved":false,"is_disabled":true,"rental_uris":{"android":"levelo://app?vid=34a76aa8-d373-4043-a4e9-5f556e9e6100","ios":"levelo://app?vid=34a76aa8-d373-4043-a4e9-5f556e9e6100"},"vehicle_type_id":"4","last_reported":1737295633,"current_range_meters":0,"station_id":"ce4bha12rcd13ifvqef0","pricing_plan_id":"cebpf4jnsgd1na2vs0mg"},{"bike_id":"8e61aa00-c95c-498a-a2b3-d2ae8bdd9531","system_id":"levelo_inurba_marseille","lat":43.28618,"lon":5.351,"is_reserved":false,"is_disabled":false,"rental_uris":{"android":"levelo://app?vid=8e61aa00-c95c-498a-a2b3-d2ae8bdd9531","ios":"levelo://app?vid=8e61aa00-c95c-498a-a2b3-d2ae8bdd9531"},"vehicle_type_id":"4","last_reported":1737295633,"current_range_meters":7200,"station_id":"ce4bhch2rcd13ifvqeug","pricing_plan_id":"cebpf4jnsgd1na2vs0mg"},{"bike_id":"211d4214-766b-435b-8e63-06014855af64","system_id":"levelo_inurba_marseille","lat":43.29551,"lon":5.42296,"is_reserved":false,"is_disabled":false,"rental_uris":{"android":"levelo://app?vid=211d4214-766b-435b-8e63-06014855af64","ios":"levelo://app?vid=211d4214-766b-435b-8e63-06014855af64"},"vehicle_type_id":"4","last_reported":1737295633,"current_range_meters":28000,"station_id":"ce4bhph2rcd13ifvqhdg","pricing_plan_id":"cebpf4jnsgd1na2vs0mg"},{"bike_id":"82ac6539-9488-4afb-857d-2e1b56421d21","system_id":"levelo_inurba_marseille","lat":43.29603,"lon":5.38108,"is_reserved":false,"is_disabled":false,"rental_uris":{"android":"levelo://app?vid=82ac6539-9488-4afb-857d-2e1b56421d21","ios":"levelo://app?vid=82ac6539-9488-4afb-857d-2e1b56421d21"},"vehicle_type_id":"4","last_reported":1737295633,"current_range_meters":33600,"station_id":"ce4bgl12rcd13ifvqbo0","pricing_plan_id":"cebpf4jnsgd1na2vs0mg"},{"bike_id":"529dc2a7-7a3f-459d-9839-46273633cc3a","system_id":"levelo_inurba_marseille","lat":43.27504,"lon":5.42464,"is_reserved":false,"is_disabled":false,"rental_uris":{"android":"levelo://app?vid=529dc2a7-7a3f-459d-9839-46273633cc3a","ios":"levelo://app?vid=529dc2a7-7a3f-459d-9839-46273633cc3a"},"vehicle_type_id":"4","last_reported":1737295633,"current_range_meters":24400,"station_id":"ce4bhn92rcd13ifvqgrg","pricing_plan_id":"cebpf4jnsgd1na2vs0mg"},{"bike_id":"a2e709f9-6f94-4c83-b323-d7d411dcacbe","system_id":"levelo_inurba_marseille","lat":43.26834,"lon":5.39409,"is_reserved":false,"is_disabled":true,"rental_uris":{"android":"levelo://app?vid=a2e709f9-6f94-4c83-b323-d7d411dcacbe","ios":"levelo://app?vid=a2e709f9-6f94-4c83-b323-d7d411dcacbe"},"vehicle_type_id":"4","last_reported":1737295633,"current_range_meters":1600,"station_id":"ce4bhh12rcd13ifvqfg0","pricing_plan_id":"cebpf4jnsgd1na2vs0mg"},{"bike_id":"56b8e9bc-f750-4815-bc98-9098414d16db","system_id":"levelo_inurba_marseille","lat":43.23199,"lon":5.35546,"is_reserved":false,"is_disabled":true,"rental_uris":{"android":"levelo://app?vid=56b8e9bc-f750-4815-bc98-9098414d16db","ios":"levelo://app?vid=56b8e9bc-f750-4815-bc98-9098414d16db"},"vehicle_type_id":"4","last_reported":1737295633,"current_range_meters":0,"station_id":"ce4bhu92rcd13ifvqi70","pricing_plan_id":"cebpf4jnsgd1na2vs0mg"},{"bike_id":"0e91b70c-1e42-4d65-a90a-72cbd40954b0","system_id":"levelo_inurba_marseille","lat":43.32369,"lon":5.36739,"is_reserved":false,"is_disabled":false,"rental_uris":{"android":"levelo://app?vid=0e91b70c-1e42-4d65-a90a-72cbd40954b0","ios":"levelo://app?vid=0e91b70c-1e42-4d65-a90a-72cbd40954b0"},"vehicle_type_id":"4","last_reported":1737295633,"current_range_meters":8000,"station_id":"ce4bhsh2rcd13ifvqi2g","pricing_plan_id":"cebpf4jnsgd1na2vs0mg"},{"bike_id":"b712d4de-7831-4ea1-8005-7685eb694f77","system_id":"levelo_inurba_marseille","lat":43.28617,"lon":5.35111,"is_reserved":false,"is_disabled":false,"rental_uris":{"android":"levelo://app?vid=b712d4de-7831-4ea1-8005-7685eb694f77","ios":"levelo://app?vid=b712d4de-7831-4ea1-8005-7685eb694f77"},"vehicle_type_id":"4","last_reported":1737295633,"current_range_meters":24800,"station_id":"ce4bhch2rcd13ifvqeug","pricing_plan_id":"cebpf4jnsgd1na2vs0mg"},{"bike_id":"fcff8b6e-6484-4e4c-8d98-9ab325ed2e27","system_id":"levelo_inurba_marseille","lat":43.325,"lon":5.36574,"is_reserved":false,"is_disabled":false,"rental_uris":{"android":"levelo://app?vid=fcff8b6e-6484-4e4c-8d98-9ab325ed2e27","ios":"levelo://app?vid=fcff8b6e-6484-4e4c-8d98-9ab325ed2e27"},"vehicle_type_id":"4","last_reported":1737295633,"current_range_meters":38400,"station_id":"ce4bhs12rcd13ifvqhvg","pricing_plan_id":"cebpf4jnsgd1na2vs0mg"},{"bike_id":"7f6908f7-cfcb-4080-a4c3-d5b221bf885b","system_id":"levelo_inurba_marseille","lat":43.32037,"lon":5.41567,"is_reserved":false,"is_disabled":true,"rental_uris":{"android":"levelo://app?vid=7f6908f7-cfcb-4080-a4c3-d5b221bf885b","ios":"levelo://app?vid=7f6908f7-cfcb-4080-a4c3-d5b221bf885b"},"vehicle_type_id":"4","last_reported":1737295633,"current_range_meters":2000,"station_id":"ce4bhq92rcd13ifvqhkg","pricing_plan_id":"cebpf4jnsgd1na2vs0mg"},{"bike_id":"cbccb98d-efc5-4f47-8dc8-3af1da113619","system_id":"levelo_inurba_marseille","lat":43.31733,"lon":5.42408,"is_reserved":false,"is_disabled":false,"rental_uris":{"android":"levelo://app?vid=cbccb98d-efc5-4f47-8dc8-3af1da113619","ios":"levelo://app?vid=cbccb98d-efc5-4f47-8dc8-3af1da113619"},"vehicle_type_id":"4","last_reported":1737295633,"current_range_meters":30000,"station_id":"ce4bhp92rcd13ifvqhbg","pricing_plan_id":"cebpf4jnsgd1na2vs0mg"},{"bike_id":"2d51ed35-cd4a-4798-ae66-82a7306e8efd","system_id":"levelo_inurba_marseille","lat":43.31919,"lon":5.40725,"is_reserved":false,"is_disabled":false,"rental_uris":{"android":"levelo://app?vid=2d51ed35-cd4a-4798-ae66-82a7306e8efd","ios":"levelo://app?vid=2d51ed35-cd4a-4798-ae66-82a7306e8efd"},"vehicle_type_id":"4","last_reported":1737295633,"current_range_meters":12800,"station_id":"ce4bhq12rcd13ifvqhig","pricing_plan_id":"cebpf4jnsgd1na2vs0mg"},{"bike_id":"94654a18-6a55-41c1-9e09-28c01978247e","system_id":"levelo_inurba_marseille","lat":43.28709,"lon":5.3741,"is_reserved":false,"is_disabled":false,"rental_uris":{"android":"levelo://app?vid=94654a18-6a55-41c1-9e09-28c01978247e","ios":"levelo://app?vid=94654a18-6a55-41c1-9e09-28c01978247e"},"vehicle_type_id":"4","last_reported":1737295633,"current_range_meters":38800,"station_id":"ce4bh3p2rcd13ifvqdq0","pricing_plan_id":"cebpf4jnsgd1na2vs0mg"},{"bike_id":"0966a8a8-2d5b-449d-8d62-52bfeeb2bcde","system_id":"levelo_inurba_marseille","lat":43.2972,"lon":5.37678,"is_reserved":false,"is_disabled":true,"rental_uris":{"android":"levelo://app?vid=0966a8a8-2d5b-449d-8d62-52bfeeb2bcde","ios":"levelo://app?vid=0966a8a8-2d5b-449d-8d62-52bfeeb2bcde"},"vehicle_type_id":"4","last_reported":1737295633,"current_range_meters":37600,"station_id":"ce4bgkh2rcd13ifvqbl0","pricing_plan_id":"cebpf4jnsgd1na2vs0mg"},{"bike_id":"22465212-93af-4e0b-b803-6ee82bba56d5","system_id":"levelo_inurba_marseille","lat":43.33759,"lon":5.3748,"is_reserved":false,"is_disabled":false,"rental_uris":{"android":"levelo://app?vid=22465212-93af-4e0b-b803-6ee82bba56d5","ios":"levelo://app?vid=22465212-93af-4e0b-b803-6ee82bba56d5"},"vehicle_type_id":"4","last_reported":1737295633,"current_range_meters":28000,"station_id":"","pricing_plan_id":"cebpf4jnsgd1na2vs0mg"},{"bike_id":"b7994f42-64ca-4d28-8432-fb14205d66e9","system_id":"levelo_inurba_marseille","lat":43.30546,"lon":5.3656,"is_reserved":false,"is_disabled":false,"rental_uris":{"android":"levelo://app?vid=b7994f42-64ca-4d28-8432-fb14205d66e9","ios":"levelo://app?vid=b7994f42-64ca-4d28-8432-fb14205d66e9"},"vehicle_type_id":"4","last_reported":1737295633,"current_range_meters":36400,"station_id":"ce4bgs12rcd13ifvqcag","pricing_plan_id":"cebpf4jnsgd1na2vs0mg"},{"bike_id":"055d8bca-ac60-4cc1-ad92-3fc29a349e3d","system_id":"levelo_inurba_marseille","lat":43.25499,"lon":5.37651,"is_reserved":false,"is_disabled":false,"rental_uris":{"android":"levelo://app?vid=055d8bca-ac60-4cc1-ad92-3fc29a349e3d","ios":"levelo://app?vid=055d8bca-ac60-4cc1-ad92-3fc29a349e3d"},"vehicle_type_id":"4","last_reported":1737295633,"current_range_meters":38000,"station_id":"ce4bhh12rcd13ifvqff0","pricing_plan_id":"cebpf4jnsgd1na2vs0mg"},{"bike_id":"01f1ff31-689b-418c-8855-79c26daa62ec","system_id":"levelo_inurba_marseille","lat":43.27372,"lon":5.36257,"is_reserved":false,"is_disabled":false,"rental_uris":{"android":"levelo://app?vid=01f1ff31-689b-418c-8855-79c26daa62ec","ios":"levelo://app?vid=01f1ff31-689b-418c-8855-79c26daa62ec"},"vehicle_type_id":"4","last_reported":1737295633,"current_range_meters":30800,"station_id":"ce4bhbh2rcd13ifvqeo0","pricing_plan_id":"cebpf4jnsgd1na2vs0mg"},{"bike_id":"19fb1931-f075-402c-a076-088e72accb76","system_id":"levelo_inurba_marseille","lat":43.248137,"lon":5.374521,"is_reserved":false,"is_disabled":false,"rental_uris":{"android":"levelo://app?vid=19fb1931-f075-402c-a076-088e72accb76","ios":"levelo://app?vid=19fb1931-f075-402c-a076-088e72accb76"},"vehicle_type_id":"4","last_reported":1737295633,"current_range_meters":10800,"station_id":"ce4bhgh2rcd13ifvqfb0","pricing_plan_id":"cebpf4jnsgd1na2vs0mg"},{"bike_id":"0d0a9787-dc25-4549-b9d1-4116921e2b21","system_id":"levelo_inurba_marseille","lat":43.31761,"lon":5.3901,"is_reserved":false,"is_disabled":false,"rental_uris":{"android":"levelo://app?vid=0d0a9787-dc25-4549-b9d1-4116921e2b21","ios":"levelo://app?vid=0d0a9787-dc25-4549-b9d1-4116921e2b21"},"vehicle_type_id":"4","last_reported":1737295633,"current_range_meters":38800,"station_id":"ce4bhqp2rcd13ifvqhng","pricing_plan_id":"cebpf4jnsgd1na2vs0mg"},{"bike_id":"de9cba7b-af48-44df-9a8e-e53010730adf","system_id":"levelo_inurba_marseille","lat":43.26935,"lon":5.40256,"is_reserved":false,"is_disabled":false,"rental_uris":{"android":"levelo://app?vid=de9cba7b-af48-44df-9a8e-e53010730adf","ios":"levelo://app?vid=de9cba7b-af48-44df-9a8e-e53010730adf"},"vehicle_type_id":"4","last_reported":1737295633,"current_range_meters":35200,"station_id":"cjm6bp8fraef2m0cb0m0","pricing_plan_id":"cebpf4jnsgd1na2vs0mg"},{"bike_id":"783424a0-af15-493e-854e-5916c1e26b47","system_id":"levelo_inurba_marseille","lat":43.29652,"lon":5.3717,"is_reserved":false,"is_disabled":false,"rental_uris":{"android":"levelo://app?vid=783424a0-af15-493e-854e-5916c1e26b47","ios":"levelo://app?vid=783424a0-af15-493e-854e-5916c1e26b47"},"vehicle_type_id":"4","last_reported":1737295633,"current_range_meters":38800,"station_id":"ce4bgnh2rcd13ifvqc0g","pricing_plan_id":"cebpf4jnsgd1na2vs0mg"},{"bike_id":"e77e709f-a3d5-445e-88d5-7caf12591840","system_id":"levelo_inurba_marseille","lat":43.23066,"lon":5.3549,"is_reserved":false,"is_disabled":true,"rental_uris":{"android":"levelo://app?vid=e77e709f-a3d5-445e-88d5-7caf12591840","ios":"levelo://app?vid=e77e709f-a3d5-445e-88d5-7caf12591840"},"vehicle_type_id":"4","last_reported":1737295633,"current_range_meters":0,"station_id":"cpo3342slgdg3j2ifvpg","pricing_plan_id":"cebpf4jnsgd1na2vs0mg"},{"bike_id":"d1468d38-e92c-489f-94b4-2bd3fa604b87","system_id":"levelo_inurba_marseille","lat":43.31878,"lon":5.40732,"is_reserved":false,"is_disabled":false,"rental_uris":{"android":"levelo://app?vid=d1468d38-e92c-489f-94b4-2bd3fa604b87","ios":"levelo://app?vid=d1468d38-e92c-489f-94b4-2bd3fa604b87"},"vehicle_type_id":"4","last_reported":1737295633,"current_range_meters":9200,"station_id":"ce4bhq12rcd13ifvqhig","pricing_plan_id":"cebpf4jnsgd1na2vs0mg"},{"bike_id":"c6f874ed-7baa-4ffa-b8dc-93b47368c64c","system_id":"levelo_inurba_marseille","lat":43.27387,"lon":5.36219,"is_reserved":false,"is_disabled":false,"rental_uris":{"android":"levelo://app?vid=c6f874ed-7baa-4ffa-b8dc-93b47368c64c","ios":"levelo://app?vid=c6f874ed-7baa-4ffa-b8dc-93b47368c64c"},"vehicle_type_id":"4","last_reported":1737295633,"current_range_meters":28800,"station_id":"","pricing_plan_id":"cebpf4jnsgd1na2vs0mg"},{"bike_id":"82eafdac-bd81-479d-a7b0-05db8ca76c26","system_id":"levelo_inurba_marseille","lat":43.25834,"lon":5.39454,"is_reserved":false,"is_disabled":true,"rental_uris":{"android":"levelo://app?vid=82eafdac-bd81-479d-a7b0-05db8ca76c26","ios":"levelo://app?vid=82eafdac-bd81-479d-a7b0-05db8ca76c26"},"vehicle_type_id":"4","last_reported":1737295633,"current_range_meters":36000,"station_id":"ce4bhip2rcd13ifvqft0","pricing_plan_id":"cebpf4jnsgd1na2vs0mg"},{"bike_id":"feccc684-a78e-4867-a418-4a62f7d8a354","system_id":"levelo_inurba_marseille","lat":43.26934,"lon":5.4025,"is_reserved":false,"is_disabled":false,"rental_uris":{"android":"levelo://app?vid=feccc684-a78e-4867-a418-4a62f7d8a354","ios":"levelo://app?vid=feccc684-a78e-4867-a418-4a62f7d8a354"},"vehicle_type_id":"4","last_reported":1737295633,"current_range_meters":34800,"station_id":"cjm6bp8fraef2m0cb0m0","pricing_plan_id":"cebpf4jnsgd1na2vs0mg"},{"bike_id":"41225a3d-75a7-4def-b8c4-e62a94cf70b0","system_id":"levelo_inurba_marseille","lat":43.2696,"lon":5.40244,"is_reserved":false,"is_disabled":false,"rental_uris":{"android":"levelo://app?vid=41225a3d-75a7-4def-b8c4-e62a94cf70b0","ios":"levelo://app?vid=41225a3d-75a7-4def-b8c4-e62a94cf70b0"},"vehicle_type_id":"4","last_reported":1737295633,"current_range_meters":33600,"station_id":"cjm6bp8fraef2m0cb0m0","pricing_plan_id":"cebpf4jnsgd1na2vs0mg"},{"bike_id":"0824b6c7-b2ab-4e41-95a3-be99f06e246a","system_id":"levelo_inurba_marseille","lat":43.32055,"lon":5.41534,"is_reserved":false,"is_disabled":false,"rental_uris":{"android":"levelo://app?vid=0824b6c7-b2ab-4e41-95a3-be99f06e246a","ios":"levelo://app?vid=0824b6c7-b2ab-4e41-95a3-be99f06e246a"},"vehicle_type_id":"4","last_reported":1737295633,"current_range_meters":36400,"station_id":"ce4bhq92rcd13ifvqhkg","pricing_plan_id":"cebpf4jnsgd1na2vs0mg"},{"bike_id":"66dc1418-1651-477f-b76d-fad61f5cf84c","system_id":"levelo_inurba_marseille","lat":43.29924,"lon":5.38014,"is_reserved":false,"is_disabled":false,"rental_uris":{"android":"levelo://app?vid=66dc1418-1651-477f-b76d-fad61f5cf84c","ios":"levelo://app?vid=66dc1418-1651-477f-b76d-fad61f5cf84c"},"vehicle_type_id":"4","last_reported":1737295633,"current_range_meters":32000,"station_id":"","pricing_plan_id":"cebpf4jnsgd1na2vs0mg"},{"bike_id":"7a214395-f9e6-49d1-ac27-650b72d950ac","system_id":"levelo_inurba_marseille","lat":43.30199,"lon":5.36633,"is_reserved":false,"is_disabled":false,"rental_uris":{"android":"levelo://app?vid=7a214395-f9e6-49d1-ac27-650b72d950ac","ios":"levelo://app?vid=7a214395-f9e6-49d1-ac27-650b72d950ac"},"vehicle_type_id":"4","last_reported":1737295633,"current_range_meters":38800,"station_id":"ce4bgrh2rcd13ifvqc8g","pricing_plan_id":"cebpf4jnsgd1na2vs0mg"},{"bike_id":"a760e0cc-fd19-4fa5-961b-72d5e2ddeaf9","system_id":"levelo_inurba_marseille","lat":43.2318,"lon":5.39989,"is_reserved":false,"is_disabled":false,"rental_uris":{"android":"levelo://app?vid=a760e0cc-fd19-4fa5-961b-72d5e2ddeaf9","ios":"levelo://app?vid=a760e0cc-fd19-4fa5-961b-72d5e2ddeaf9"},"vehicle_type_id":"4","last_reported":1737295633,"current_range_meters":28400,"station_id":"ce4bhn12rcd13ifvqgqg","pricing_plan_id":"cebpf4jnsgd1na2vs0mg"},{"bike_id":"bfbb067a-cacf-4388-bd22-ef2cbdcad9a9","system_id":"levelo_inurba_marseille","lat":43.26204,"lon":5.37929,"is_reserved":false,"is_disabled":false,"rental_uris":{"android":"levelo://app?vid=bfbb067a-cacf-4388-bd22-ef2cbdcad9a9","ios":"levelo://app?vid=bfbb067a-cacf-4388-bd22-ef2cbdcad9a9"},"vehicle_type_id":"4","last_reported":1737295633,"current_range_meters":38800,"station_id":"ce4bhjp2rcd13ifvqg90","pricing_plan_id":"cebpf4jnsgd1na2vs0mg"},{"bike_id":"f2390374-e060-4fe1-bcfa-cb2711193e58","system_id":"levelo_inurba_marseille","lat":43.25097,"lon":5.39512,"is_reserved":false,"is_disabled":false,"rental_uris":{"android":"levelo://app?vid=f2390374-e060-4fe1-bcfa-cb2711193e58","ios":"levelo://app?vid=f2390374-e060-4fe1-bcfa-cb2711193e58"},"vehicle_type_id":"4","last_reported":1737295633,"current_range_meters":38400,"station_id":"ce4bhm12rcd13ifvqgkg","pricing_plan_id":"cebpf4jnsgd1na2vs0mg"},{"bike_id":"591b3bd2-5685-4ec2-843e-e45d69c9aabd","system_id":"levelo_inurba_marseille","lat":43.26065,"lon":5.39396,"is_reserved":false,"is_disabled":false,"rental_uris":{"android":"levelo://app?vid=591b3bd2-5685-4ec2-843e-e45d69c9aabd","ios":"levelo://app?vid=591b3bd2-5685-4ec2-843e-e45d69c9aabd"},"vehicle_type_id":"4","last_reported":1737295633,"current_range_meters":38800,"station_id":"ce4bhh92rcd13ifvqfj0","pricing_plan_id":"cebpf4jnsgd1na2vs0mg"},{"bike_id":"1b920dba-6e7f-470d-bccb-d5c1dfae071d","system_id":"levelo_inurba_marseille","lat":43.26225,"lon":5.37441,"is_reserved":false,"is_disabled":true,"rental_uris":{"android":"levelo://app?vid=1b920dba-6e7f-470d-bccb-d5c1dfae071d","ios":"levelo://app?vid=1b920dba-6e7f-470d-bccb-d5c1dfae071d"},"vehicle_type_id":"4","last_reported":1737295633,"current_range_meters":0,"station_id":"ce4bhgp2rcd13ifvqfc0","pricing_plan_id":"cebpf4jnsgd1na2vs0mg"},{"bike_id":"c7a332e2-39bf-44c9-91dc-519cd7b578c8","system_id":"levelo_inurba_marseille","lat":43.28412,"lon":5.34976,"is_reserved":false,"is_disabled":false,"rental_uris":{"android":"levelo://app?vid=c7a332e2-39bf-44c9-91dc-519cd7b578c8","ios":"levelo://app?vid=c7a332e2-39bf-44c9-91dc-519cd7b578c8"},"vehicle_type_id":"4","last_reported":1737295633,"current_range_meters":30000,"station_id":"ce4bhbh2rcd13ifvqepg","pricing_plan_id":"cebpf4jnsgd1na2vs0mg"},{"bike_id":"c59ca6e8-0294-4a56-bcae-33a74a3e84a2","system_id":"levelo_inurba_marseille","lat":43.31064,"lon":5.38357,"is_reserved":false,"is_disabled":false,"rental_uris":{"android":"levelo://app?vid=c59ca6e8-0294-4a56-bcae-33a74a3e84a2","ios":"levelo://app?vid=c59ca6e8-0294-4a56-bcae-33a74a3e84a2"},"vehicle_type_id":"4","last_reported":1737295633,"current_range_meters":24000,"station_id":"ce4bgv92rcd13ifvqcr0","pricing_plan_id":"cebpf4jnsgd1na2vs0mg"},{"bike_id":"d468c43b-79f9-4a69-9334-f2e452c76c01","system_id":"levelo_inurba_marseille","lat":43.31227,"lon":5.3684,"is_reserved":false,"is_disabled":false,"rental_uris":{"android":"levelo://app?vid=d468c43b-79f9-4a69-9334-f2e452c76c01","ios":"levelo://app?vid=d468c43b-79f9-4a69-9334-f2e452c76c01"},"vehicle_type_id":"4","last_reported":1737295633,"current_range_meters":33600,"station_id":"ce4bgl92rcd13ifvqbq0","pricing_plan_id":"cebpf4jnsgd1na2vs0mg"},{"bike_id":"a95248e8-7ba2-479e-9b5c-9fb4d8e98c2b","system_id":"levelo_inurba_marseille","lat":43.28106,"lon":5.42193,"is_reserved":false,"is_disabled":true,"rental_uris":{"android":"levelo://app?vid=a95248e8-7ba2-479e-9b5c-9fb4d8e98c2b","ios":"levelo://app?vid=a95248e8-7ba2-479e-9b5c-9fb4d8e98c2b"},"vehicle_type_id":"4","last_reported":1737295633,"current_range_meters":0,"station_id":"","pricing_plan_id":"cebpf4jnsgd1na2vs0mg"},{"bike_id":"246f2aa1-d855-40ee-b8e2-0e541013d632","system_id":"levelo_inurba_marseille","lat":43.27826,"lon":5.40683,"is_reserved":false,"is_disabled":true,"rental_uris":{"android":"levelo://app?vid=246f2aa1-d855-40ee-b8e2-0e541013d632","ios":"levelo://app?vid=246f2aa1-d855-40ee-b8e2-0e541013d632"},"vehicle_type_id":"4","last_reported":1737295633,"current_range_meters":0,"station_id":"ce4bhnh2rcd13ifvqgtg","pricing_plan_id":"cebpf4jnsgd1na2vs0mg"},{"bike_id":"87cefc3a-e36a-4030-9c3f-9fc87455f3e3","system_id":"levelo_inurba_marseille","lat":43.27383,"lon":5.3624,"is_reserved":false,"is_disabled":false,"rental_uris":{"android":"levelo://app?vid=87cefc3a-e36a-4030-9c3f-9fc87455f3e3","ios":"levelo://app?vid=87cefc3a-e36a-4030-9c3f-9fc87455f3e3"},"vehicle_type_id":"4","last_reported":1737295633,"current_range_meters":37600,"station_id":"ce4bhbh2rcd13ifvqeo0","pricing_plan_id":"cebpf4jnsgd1na2vs0mg"},{"bike_id":"1f9c06e7-2f75-45b2-bd3a-0c4d30b72737","system_id":"levelo_inurba_marseille","lat":43.2439,"lon":5.37065,"is_reserved":false,"is_disabled":false,"rental_uris":{"android":"levelo://app?vid=1f9c06e7-2f75-45b2-bd3a-0c4d30b72737","ios":"levelo://app?vid=1f9c06e7-2f75-45b2-bd3a-0c4d30b72737"},"vehicle_type_id":"4","last_reported":1737295633,"current_range_meters":18000,"station_id":"ce4bhhh2rcd13ifvqfk0","pricing_plan_id":"cebpf4jnsgd1na2vs0mg"},{"bike_id":"700bba7f-f624-4ddd-bc5d-c7e3f82eb119","system_id":"levelo_inurba_marseille","lat":43.30809,"lon":5.38148,"is_reserved":false,"is_disabled":false,"rental_uris":{"android":"levelo://app?vid=700bba7f-f624-4ddd-bc5d-c7e3f82eb119","ios":"levelo://app?vid=700bba7f-f624-4ddd-bc5d-c7e3f82eb119"},"vehicle_type_id":"4","last_reported":1737295633,"current_range_meters":38800,"station_id":"ce4bgt12rcd13ifvqce0","pricing_plan_id":"cebpf4jnsgd1na2vs0mg"},{"bike_id":"c0943972-b0b0-4123-8a79-be8a92f5a1d0","system_id":"levelo_inurba_marseille","lat":43.26079,"lon":5.39397,"is_reserved":false,"is_disabled":false,"rental_uris":{"android":"levelo://app?vid=c0943972-b0b0-4123-8a79-be8a92f5a1d0","ios":"levelo://app?vid=c0943972-b0b0-4123-8a79-be8a92f5a1d0"},"vehicle_type_id":"4","last_reported":1737295633,"current_range_meters":19600,"station_id":"ce4bhh92rcd13ifvqfj0","pricing_plan_id":"cebpf4jnsgd1na2vs0mg"},{"bike_id":"1e81dad0-c75a-42f3-98b0-b7b54f50dd46","system_id":"levelo_inurba_marseille","lat":43.26573,"lon":5.37271,"is_reserved":false,"is_disabled":false,"rental_uris":{"android":"levelo://app?vid=1e81dad0-c75a-42f3-98b0-b7b54f50dd46","ios":"levelo://app?vid=1e81dad0-c75a-42f3-98b0-b7b54f50dd46"},"vehicle_type_id":"4","last_reported":1737295633,"current_range_meters":36400,"station_id":"ce4bhg12rcd13ifvqf70","pricing_plan_id":"cebpf4jnsgd1na2vs0mg"},{"bike_id":"2189f33e-4cfd-4f76-9d91-913095d551c4","system_id":"levelo_inurba_marseille","lat":43.30352,"lon":5.39086,"is_reserved":false,"is_disabled":true,"rental_uris":{"android":"levelo://app?vid=2189f33e-4cfd-4f76-9d91-913095d551c4","ios":"levelo://app?vid=2189f33e-4cfd-4f76-9d91-913095d551c4"},"vehicle_type_id":"4","last_reported":1737295633,"current_range_meters":0,"station_id":"","pricing_plan_id":"cebpf4jnsgd1na2vs0mg"},{"bike_id":"4fcec97f-3dee-4be6-8cfe-0cf75b3817b6","system_id":"levelo_inurba_marseille","lat":43.27067,"lon":5.42275,"is_reserved":false,"is_disabled":false,"rental_uris":{"android":"levelo://app?vid=4fcec97f-3dee-4be6-8cfe-0cf75b3817b6","ios":"levelo://app?vid=4fcec97f-3dee-4be6-8cfe-0cf75b3817b6"},"vehicle_type_id":"4","last_reported":1737295633,"current_range_meters":27200,"station_id":"ce4bhk92rcd13ifvqgb0","pricing_plan_id":"cebpf4jnsgd1na2vs0mg"},{"bike_id":"6ccd7fa5-810a-40ef-acfe-cc2ec30582de","system_id":"levelo_inurba_marseille","lat":43.293,"lon":5.37161,"is_reserved":false,"is_disabled":false,"rental_uris":{"android":"levelo://app?vid=6ccd7fa5-810a-40ef-acfe-cc2ec30582de","ios":"levelo://app?vid=6ccd7fa5-810a-40ef-acfe-cc2ec30582de"},"vehicle_type_id":"4","last_reported":1737295633,"current_range_meters":29600,"station_id":"ce4bgh92rcd13ifvqb40","pricing_plan_id":"cebpf4jnsgd1na2vs0mg"},{"bike_id":"668f9767-c78d-438a-96bb-c0760f782967","system_id":"levelo_inurba_marseille","lat":43.26255,"lon":5.37879,"is_reserved":false,"is_disabled":false,"rental_uris":{"android":"levelo://app?vid=668f9767-c78d-438a-96bb-c0760f782967","ios":"levelo://app?vid=668f9767-c78d-438a-96bb-c0760f782967"},"vehicle_type_id":"4","last_reported":1737295633,"current_range_meters":36800,"station_id":"","pricing_plan_id":"cebpf4jnsgd1na2vs0mg"},{"bike_id":"863c1d50-352d-4b6b-9d02-fae9da54221f","system_id":"levelo_inurba_marseille","lat":43.24402,"lon":5.37065,"is_reserved":false,"is_disabled":false,"rental_uris":{"android":"levelo://app?vid=863c1d50-352d-4b6b-9d02-fae9da54221f","ios":"levelo://app?vid=863c1d50-352d-4b6b-9d02-fae9da54221f"},"vehicle_type_id":"4","last_reported":1737295633,"current_range_meters":22800,"station_id":"ce4bhhh2rcd13ifvqfk0","pricing_plan_id":"cebpf4jnsgd1na2vs0mg"},{"bike_id":"34690e36-59e5-407e-afef-3bcf8b420e39","system_id":"levelo_inurba_marseille","lat":43.27068,"lon":5.42278,"is_reserved":false,"is_disabled":false,"rental_uris":{"android":"levelo://app?vid=34690e36-59e5-407e-afef-3bcf8b420e39","ios":"levelo://app?vid=34690e36-59e5-407e-afef-3bcf8b420e39"},"vehicle_type_id":"4","last_reported":1737295633,"current_range_meters":32000,"station_id":"ce4bhk92rcd13ifvqgb0","pricing_plan_id":"cebpf4jnsgd1na2vs0mg"},{"bike_id":"ac68e326-b9ce-475a-bb18-1ef4a90c1541","system_id":"levelo_inurba_marseille","lat":43.30562,"lon":5.36539,"is_reserved":false,"is_disabled":false,"rental_uris":{"android":"levelo://app?vid=ac68e326-b9ce-475a-bb18-1ef4a90c1541","ios":"levelo://app?vid=ac68e326-b9ce-475a-bb18-1ef4a90c1541"},"vehicle_type_id":"4","last_reported":1737295633,"current_range_meters":38800,"station_id":"ce4bgs12rcd13ifvqcag","pricing_plan_id":"cebpf4jnsgd1na2vs0mg"},{"bike_id":"0d5bf58b-8962-4322-87c4-754920ec04ac","system_id":"levelo_inurba_marseille","lat":43.31201,"lon":5.38718,"is_reserved":false,"is_disabled":true,"rental_uris":{"android":"levelo://app?vid=0d5bf58b-8962-4322-87c4-754920ec04ac","ios":"levelo://app?vid=0d5bf58b-8962-4322-87c4-754920ec04ac"},"vehicle_type_id":"4","last_reported":1737295633,"current_range_meters":31200,"station_id":"ce4bgv12rcd13ifvqcp0","pricing_plan_id":"cebpf4jnsgd1na2vs0mg"},{"bike_id":"c92cbb9f-5a8c-4f30-b00a-221ba31b944d","system_id":"levelo_inurba_marseille","lat":43.2843,"lon":5.34979,"is_reserved":false,"is_disabled":true,"rental_uris":{"android":"levelo://app?vid=c92cbb9f-5a8c-4f30-b00a-221ba31b944d","ios":"levelo://app?vid=c92cbb9f-5a8c-4f30-b00a-221ba31b944d"},"vehicle_type_id":"4","last_reported":1737295633,"current_range_meters":30800,"station_id":"ce4bhbh2rcd13ifvqepg","pricing_plan_id":"cebpf4jnsgd1na2vs0mg"},{"bike_id":"41902fd9-fa18-46a4-b43c-51a2cb10a6db","system_id":"levelo_inurba_marseille","lat":43.30355,"lon":5.41888,"is_reserved":false,"is_disabled":false,"rental_uris":{"android":"levelo://app?vid=41902fd9-fa18-46a4-b43c-51a2cb10a6db","ios":"levelo://app?vid=41902fd9-fa18-46a4-b43c-51a2cb10a6db"},"vehicle_type_id":"4","last_reported":1737295633,"current_range_meters":38000,"station_id":"ce4bhop2rcd13ifvqh7g","pricing_plan_id":"cebpf4jnsgd1na2vs0mg"},{"bike_id":"4e35d48b-8446-4e2a-a4c2-e2ce4476ec82","system_id":"levelo_inurba_marseille","lat":43.28487,"lon":5.34965,"is_reserved":false,"is_disabled":false,"rental_uris":{"android":"levelo://app?vid=4e35d48b-8446-4e2a-a4c2-e2ce4476ec82","ios":"levelo://app?vid=4e35d48b-8446-4e2a-a4c2-e2ce4476ec82"},"vehicle_type_id":"4","last_reported":1737295633,"current_range_meters":29600,"station_id":"ce4bhbh2rcd13ifvqepg","pricing_plan_id":"cebpf4jnsgd1na2vs0mg"},{"bike_id":"d7c0872a-e6bf-430f-af66-52a0c0c846ba","system_id":"levelo_inurba_marseille","lat":43.29018,"lon":5.35889,"is_reserved":false,"is_disabled":false,"rental_uris":{"android":"levelo://app?vid=d7c0872a-e6bf-430f-af66-52a0c0c846ba","ios":"levelo://app?vid=d7c0872a-e6bf-430f-af66-52a0c0c846ba"},"vehicle_type_id":"4","last_reported":1737295633,"current_range_meters":15200,"station_id":"ce4bha92rcd13ifvqeg0","pricing_plan_id":"cebpf4jnsgd1na2vs0mg"},{"bike_id":"fe90f7a6-3920-456a-9451-50d213b7000f","system_id":"levelo_inurba_marseille","lat":43.28467,"lon":5.38424,"is_reserved":false,"is_disabled":true,"rental_uris":{"android":"levelo://app?vid=fe90f7a6-3920-456a-9451-50d213b7000f","ios":"levelo://app?vid=fe90f7a6-3920-456a-9451-50d213b7000f"},"vehicle_type_id":"4","last_reported":1737295633,"current_range_meters":32000,"station_id":"ce4bh512rcd13ifvqe3g","pricing_plan_id":"cebpf4jnsgd1na2vs0mg"},{"bike_id":"67fe5a2e-d8fb-4c79-a771-ee3875d3a660","system_id":"levelo_inurba_marseille","lat":43.3373,"lon":5.39186,"is_reserved":false,"is_disabled":false,"rental_uris":{"android":"levelo://app?vid=67fe5a2e-d8fb-4c79-a771-ee3875d3a660","ios":"levelo://app?vid=67fe5a2e-d8fb-4c79-a771-ee3875d3a660"},"vehicle_type_id":"4","last_reported":1737295633,"current_range_meters":38400,"station_id":"ce4bhr92rcd13ifvqhsg","pricing_plan_id":"cebpf4jnsgd1na2vs0mg"},{"bike_id":"040c64bc-8c58-49f0-9db0-fb928abddaf8","system_id":"levelo_inurba_marseille","lat":43.29844,"lon":5.3628,"is_reserved":false,"is_disabled":false,"rental_uris":{"android":"levelo://app?vid=040c64bc-8c58-49f0-9db0-fb928abddaf8","ios":"levelo://app?vid=040c64bc-8c58-49f0-9db0-fb928abddaf8"},"vehicle_type_id":"4","last_reported":1737295633,"current_range_meters":16800,"station_id":"ce4bgpp2rcd13ifvqc3g","pricing_plan_id":"cebpf4jnsgd1na2vs0mg"},{"bike_id":"68834284-6388-4157-bc9a-17ab1f8714d6","system_id":"levelo_inurba_marseille","lat":43.27619,"lon":5.36117,"is_reserved":false,"is_disabled":false,"rental_uris":{"android":"levelo://app?vid=68834284-6388-4157-bc9a-17ab1f8714d6","ios":"levelo://app?vid=68834284-6388-4157-bc9a-17ab1f8714d6"},"vehicle_type_id":"4","last_reported":1737295633,"current_range_meters":22800,"station_id":"ce4bgj92rcd13ifvqbe0","pricing_plan_id":"cebpf4jnsgd1na2vs0mg"},{"bike_id":"aeeb7245-8a7c-4b79-b9ac-efca69f7818a","system_id":"levelo_inurba_marseille","lat":43.32111,"lon":5.36785,"is_reserved":false,"is_disabled":false,"rental_uris":{"android":"levelo://app?vid=aeeb7245-8a7c-4b79-b9ac-efca69f7818a","ios":"levelo://app?vid=aeeb7245-8a7c-4b79-b9ac-efca69f7818a"},"vehicle_type_id":"4","last_reported":1737295633,"current_range_meters":20800,"station_id":"ce4bhrh2rcd13ifvqhug","pricing_plan_id":"cebpf4jnsgd1na2vs0mg"},{"bike_id":"9f2925b7-b122-4801-ac97-79bd2701c6f3","system_id":"levelo_inurba_marseille","lat":43.24094,"lon":5.37743,"is_reserved":false,"is_disabled":false,"rental_uris":{"android":"levelo://app?vid=9f2925b7-b122-4801-ac97-79bd2701c6f3","ios":"levelo://app?vid=9f2925b7-b122-4801-ac97-79bd2701c6f3"},"vehicle_type_id":"4","last_reported":1737295633,"current_range_meters":37600,"station_id":"ce4bhnp2rcd13ifvqgvg","pricing_plan_id":"cebpf4jnsgd1na2vs0mg"},{"bike_id":"bc96d5a7-0429-43a9-9767-4a69c5409402","system_id":"levelo_inurba_marseille","lat":43.30163,"lon":5.37413,"is_reserved":false,"is_disabled":false,"rental_uris":{"android":"levelo://app?vid=bc96d5a7-0429-43a9-9767-4a69c5409402","ios":"levelo://app?vid=bc96d5a7-0429-43a9-9767-4a69c5409402"},"vehicle_type_id":"4","last_reported":1737295633,"current_range_meters":38800,"station_id":"ce4bgs92rcd13ifvqcc0","pricing_plan_id":"cebpf4jnsgd1na2vs0mg"},{"bike_id":"7b52e969-7498-42fb-aafb-034e09ca2f2a","system_id":"levelo_inurba_marseille","lat":43.30836,"lon":5.43535,"is_reserved":false,"is_disabled":false,"rental_uris":{"android":"levelo://app?vid=7b52e969-7498-42fb-aafb-034e09ca2f2a","ios":"levelo://app?vid=7b52e969-7498-42fb-aafb-034e09ca2f2a"},"vehicle_type_id":"4","last_reported":1737295633,"current_range_meters":30000,"station_id":"ce4bhph2rcd13ifvqheg","pricing_plan_id":"cebpf4jnsgd1na2vs0mg"},{"bike_id":"bd6bdf38-4e62-424f-ae55-44f90e620ec6","system_id":"levelo_inurba_marseille","lat":43.26544,"lon":5.37263,"is_reserved":false,"is_disabled":true,"rental_uris":{"android":"levelo://app?vid=bd6bdf38-4e62-424f-ae55-44f90e620ec6","ios":"levelo://app?vid=bd6bdf38-4e62-424f-ae55-44f90e620ec6"},"vehicle_type_id":"4","last_reported":1737295633,"current_range_meters":0,"station_id":"ce4bhg12rcd13ifvqf70","pricing_plan_id":"cebpf4jnsgd1na2vs0mg"},{"bike_id":"472c53f3-ad31-4b0d-a711-2bb1f6ecf1ea","system_id":"levelo_inurba_marseille","lat":43.24847,"lon":5.37439,"is_reserved":false,"is_disabled":false,"rental_uris":{"android":"levelo://app?vid=472c53f3-ad31-4b0d-a711-2bb1f6ecf1ea","ios":"levelo://app?vid=472c53f3-ad31-4b0d-a711-2bb1f6ecf1ea"},"vehicle_type_id":"4","last_reported":1737295633,"current_range_meters":8800,"station_id":"","pricing_plan_id":"cebpf4jnsgd1na2vs0mg"},{"bike_id":"5136cca2-dc79-42d5-a096-5120a2626c68","system_id":"levelo_inurba_marseille","lat":43.3094,"lon":5.40158,"is_reserved":false,"is_disabled":false,"rental_uris":{"android":"levelo://app?vid=5136cca2-dc79-42d5-a096-5120a2626c68","ios":"levelo://app?vid=5136cca2-dc79-42d5-a096-5120a2626c68"},"vehicle_type_id":"4","last_reported":1737295633,"current_range_meters":38000,"station_id":"ce4bgvp2rcd13ifvqct0","pricing_plan_id":"cebpf4jnsgd1na2vs0mg"},{"bike_id":"95f066b0-a843-4331-8aa3-e1baa501636d","system_id":"levelo_inurba_marseille","lat":43.29845,"lon":5.36281,"is_reserved":false,"is_disabled":false,"rental_uris":{"android":"levelo://app?vid=95f066b0-a843-4331-8aa3-e1baa501636d","ios":"levelo://app?vid=95f066b0-a843-4331-8aa3-e1baa501636d"},"vehicle_type_id":"4","last_reported":1737295633,"current_range_meters":14000,"station_id":"ce4bgpp2rcd13ifvqc3g","pricing_plan_id":"cebpf4jnsgd1na2vs0mg"},{"bike_id":"63a0c470-0e3d-4f46-a361-302d7a67e5d2","system_id":"levelo_inurba_marseille","lat":43.24811,"lon":5.37464,"is_reserved":false,"is_disabled":true,"rental_uris":{"android":"levelo://app?vid=63a0c470-0e3d-4f46-a361-302d7a67e5d2","ios":"levelo://app?vid=63a0c470-0e3d-4f46-a361-302d7a67e5d2"},"vehicle_type_id":"4","last_reported":1737295633,"current_range_meters":38000,"station_id":"ce4bhgh2rcd13ifvqfb0","pricing_plan_id":"cebpf4jnsgd1na2vs0mg"},{"bike_id":"d5a4b84a-471f-4edb-a016-4dd0af7e2137","system_id":"levelo_inurba_marseille","lat":43.25873,"lon":5.39913,"is_reserved":false,"is_disabled":false,"rental_uris":{"android":"levelo://app?vid=d5a4b84a-471f-4edb-a016-4dd0af7e2137","ios":"levelo://app?vid=d5a4b84a-471f-4edb-a016-4dd0af7e2137"},"vehicle_type_id":"4","last_reported":1737295633,"current_range_meters":38400,"station_id":"ce4bhl92rcd13ifvqghg","pricing_plan_id":"cebpf4jnsgd1na2vs0mg"},{"bike_id":"5a72bc41-bcf7-4f85-a11d-94b5f1341ea6","system_id":"levelo_inurba_marseille","lat":43.2931,"lon":5.37449,"is_reserved":false,"is_disabled":false,"rental_uris":{"android":"levelo://app?vid=5a72bc41-bcf7-4f85-a11d-94b5f1341ea6","ios":"levelo://app?vid=5a72bc41-bcf7-4f85-a11d-94b5f1341ea6"},"vehicle_type_id":"4","last_reported":1737295633,"current_range_meters":16800,"station_id":"ce4bgi12rcd13ifvqb70","pricing_plan_id":"cebpf4jnsgd1na2vs0mg"},{"bike_id":"50267a36-8428-4ee1-ac27-ac6a771a71af","system_id":"levelo_inurba_marseille","lat":43.33707,"lon":5.35584,"is_reserved":false,"is_disabled":false,"rental_uris":{"android":"levelo://app?vid=50267a36-8428-4ee1-ac27-ac6a771a71af","ios":"levelo://app?vid=50267a36-8428-4ee1-ac27-ac6a771a71af"},"vehicle_type_id":"4","last_reported":1737295633,"current_range_meters":6400,"station_id":"","pricing_plan_id":"cebpf4jnsgd1na2vs0mg"},{"bike_id":"555d6d70-a519-4f8b-97f1-206908587623","system_id":"levelo_inurba_marseille","lat":43.29002,"lon":5.35597,"is_reserved":false,"is_disabled":false,"rental_uris":{"android":"levelo://app?vid=555d6d70-a519-4f8b-97f1-206908587623","ios":"levelo://app?vid=555d6d70-a519-4f8b-97f1-206908587623"},"vehicle_type_id":"4","last_reported":1737295633,"current_range_meters":28000,"station_id":"ce4bhb92rcd13ifvqen0","pricing_plan_id":"cebpf4jnsgd1na2vs0mg"},{"bike_id":"f5863b18-13a1-4c6e-92de-5668ea912ad3","system_id":"levelo_inurba_marseille","lat":43.262164,"lon":5.40445,"is_reserved":false,"is_disabled":true,"rental_uris":{"android":"levelo://app?vid=f5863b18-13a1-4c6e-92de-5668ea912ad3","ios":"levelo://app?vid=f5863b18-13a1-4c6e-92de-5668ea912ad3"},"vehicle_type_id":"4","last_reported":1737295633,"current_range_meters":0,"station_id":"","pricing_plan_id":"cebpf4jnsgd1na2vs0mg"},{"bike_id":"205d2406-e275-47c7-a2ba-c6b414607b98","system_id":"levelo_inurba_marseille","lat":43.305,"lon":5.38096,"is_reserved":false,"is_disabled":false,"rental_uris":{"android":"levelo://app?vid=205d2406-e275-47c7-a2ba-c6b414607b98","ios":"levelo://app?vid=205d2406-e275-47c7-a2ba-c6b414607b98"},"vehicle_type_id":"4","last_reported":1737295633,"current_range_meters":26000,"station_id":"","pricing_plan_id":"cebpf4jnsgd1na2vs0mg"},{"bike_id":"05b658dd-cd62-4f36-b75c-8df5f555482d","system_id":"levelo_inurba_marseille","lat":43.27072,"lon":5.42278,"is_reserved":false,"is_disabled":false,"rental_uris":{"android":"levelo://app?vid=05b658dd-cd62-4f36-b75c-8df5f555482d","ios":"levelo://app?vid=05b658dd-cd62-4f36-b75c-8df5f555482d"},"vehicle_type_id":"4","last_reported":1737295633,"current_range_meters":24800,"station_id":"ce4bhk92rcd13ifvqgb0","pricing_plan_id":"cebpf4jnsgd1na2vs0mg"},{"bike_id":"f508a21d-b248-4aec-b651-f5fadd9eae66","system_id":"levelo_inurba_marseille","lat":43.23965,"lon":5.36626,"is_reserved":false,"is_disabled":false,"rental_uris":{"android":"levelo://app?vid=f508a21d-b248-4aec-b651-f5fadd9eae66","ios":"levelo://app?vid=f508a21d-b248-4aec-b651-f5fadd9eae66"},"vehicle_type_id":"4","last_reported":1737295633,"current_range_meters":32800,"station_id":"ce4bhi12rcd13ifvqfp0","pricing_plan_id":"cebpf4jnsgd1na2vs0mg"},{"bike_id":"46686b70-f375-4947-b209-2f4548c2edcf","system_id":"levelo_inurba_marseille","lat":43.28868,"lon":5.39452,"is_reserved":false,"is_disabled":true,"rental_uris":{"android":"levelo://app?vid=46686b70-f375-4947-b209-2f4548c2edcf","ios":"levelo://app?vid=46686b70-f375-4947-b209-2f4548c2edcf"},"vehicle_type_id":"4","last_reported":1737295633,"current_range_meters":0,"station_id":"","pricing_plan_id":"cebpf4jnsgd1na2vs0mg"},{"bike_id":"62e704a0-dffd-45d5-83c7-9a7e14534940","system_id":"levelo_inurba_marseille","lat":43.28621,"lon":5.351,"is_reserved":false,"is_disabled":false,"rental_uris":{"android":"levelo://app?vid=62e704a0-dffd-45d5-83c7-9a7e14534940","ios":"levelo://app?vid=62e704a0-dffd-45d5-83c7-9a7e14534940"},"vehicle_type_id":"4","last_reported":1737295633,"current_range_meters":32000,"station_id":"ce4bhch2rcd13ifvqeug","pricing_plan_id":"cebpf4jnsgd1na2vs0mg"},{"bike_id":"6e42a6c7-87c2-403e-84fd-d739a3d405a6","system_id":"levelo_inurba_marseille","lat":43.245874,"lon":5.420528,"is_reserved":false,"is_disabled":true,"rental_uris":{"android":"levelo://app?vid=6e42a6c7-87c2-403e-84fd-d739a3d405a6","ios":"levelo://app?vid=6e42a6c7-87c2-403e-84fd-d739a3d405a6"},"vehicle_type_id":"4","last_reported":1737295633,"current_range_meters":0,"station_id":"","pricing_plan_id":"cebpf4jnsgd1na2vs0mg"},{"bike_id":"6ecd6173-42ec-49fa-8634-dc35bf5f690d","system_id":"levelo_inurba_marseille","lat":43.26494,"lon":5.39545,"is_reserved":false,"is_disabled":false,"rental_uris":{"android":"levelo://app?vid=6ecd6173-42ec-49fa-8634-dc35bf5f690d","ios":"levelo://app?vid=6ecd6173-42ec-49fa-8634-dc35bf5f690d"},"vehicle_type_id":"4","last_reported":1737295633,"current_range_meters":35200,"station_id":"ce4bhi12rcd13ifvqfq0","pricing_plan_id":"cebpf4jnsgd1na2vs0mg"},{"bike_id":"abb73d04-354a-4007-8f6d-f74b2d148730","system_id":"levelo_inurba_marseille","lat":43.26065,"lon":5.39395,"is_reserved":false,"is_disabled":false,"rental_uris":{"android":"levelo://app?vid=abb73d04-354a-4007-8f6d-f74b2d148730","ios":"levelo://app?vid=abb73d04-354a-4007-8f6d-f74b2d148730"},"vehicle_type_id":"4","last_reported":1737295633,"current_range_meters":32000,"station_id":"ce4bhh92rcd13ifvqfj0","pricing_plan_id":"cebpf4jnsgd1na2vs0mg"},{"bike_id":"4fe58642-8ec3-4f25-a4fc-eb5dc3dc47a8","system_id":"levelo_inurba_marseille","lat":43.33506,"lon":5.3612,"is_reserved":false,"is_disabled":false,"rental_uris":{"android":"levelo://app?vid=4fe58642-8ec3-4f25-a4fc-eb5dc3dc47a8","ios":"levelo://app?vid=4fe58642-8ec3-4f25-a4fc-eb5dc3dc47a8"},"vehicle_type_id":"4","last_reported":1737295633,"current_range_meters":28800,"station_id":"","pricing_plan_id":"cebpf4jnsgd1na2vs0mg"},{"bike_id":"fc21beed-45dd-4850-b81d-09023555628a","system_id":"levelo_inurba_marseille","lat":43.26619,"lon":5.39547,"is_reserved":false,"is_disabled":false,"rental_uris":{"android":"levelo://app?vid=fc21beed-45dd-4850-b81d-09023555628a","ios":"levelo://app?vid=fc21beed-45dd-4850-b81d-09023555628a"},"vehicle_type_id":"4","last_reported":1737295633,"current_range_meters":36800,"station_id":"","pricing_plan_id":"cebpf4jnsgd1na2vs0mg"},{"bike_id":"b13b74e3-6fc6-41b8-be36-5e4e647718f9","system_id":"levelo_inurba_marseille","lat":43.28045,"lon":5.36953,"is_reserved":false,"is_disabled":false,"rental_uris":{"android":"levelo://app?vid=b13b74e3-6fc6-41b8-be36-5e4e647718f9","ios":"levelo://app?vid=b13b74e3-6fc6-41b8-be36-5e4e647718f9"},"vehicle_type_id":"4","last_reported":1737295633,"current_range_meters":31200,"station_id":"ce4bha12rcd13ifvqef0","pricing_plan_id":"cebpf4jnsgd1na2vs0mg"},{"bike_id":"c32835dd-cfa9-46c7-a259-324ff908b892","system_id":"levelo_inurba_marseille","lat":43.2815,"lon":5.42647,"is_reserved":false,"is_disabled":false,"rental_uris":{"android":"levelo://app?vid=c32835dd-cfa9-46c7-a259-324ff908b892","ios":"levelo://app?vid=c32835dd-cfa9-46c7-a259-324ff908b892"},"vehicle_type_id":"4","last_reported":1737295633,"current_range_meters":34800,"station_id":"ce4bhnh2rcd13ifvqgug","pricing_plan_id":"cebpf4jnsgd1na2vs0mg"},{"bike_id":"3fb57757-9e42-4dd3-9d9d-c7e2acbf7a95","system_id":"levelo_inurba_marseille","lat":43.2466,"lon":5.38165,"is_reserved":false,"is_disabled":false,"rental_uris":{"android":"levelo://app?vid=3fb57757-9e42-4dd3-9d9d-c7e2acbf7a95","ios":"levelo://app?vid=3fb57757-9e42-4dd3-9d9d-c7e2acbf7a95"},"vehicle_type_id":"4","last_reported":1737295633,"current_range_meters":22000,"station_id":"ce4bhih2rcd13ifvqfr0","pricing_plan_id":"cebpf4jnsgd1na2vs0mg"},{"bike_id":"6870a9e0-7988-452a-a0a6-84e136278682","system_id":"levelo_inurba_marseille","lat":43.26554,"lon":5.37317,"is_reserved":false,"is_disabled":false,"rental_uris":{"android":"levelo://app?vid=6870a9e0-7988-452a-a0a6-84e136278682","ios":"levelo://app?vid=6870a9e0-7988-452a-a0a6-84e136278682"},"vehicle_type_id":"4","last_reported":1737295633,"current_range_meters":32800,"station_id":"ce4bhg12rcd13ifvqf70","pricing_plan_id":"cebpf4jnsgd1na2vs0mg"},{"bike_id":"44b00072-7a24-4e09-938e-73296bafd2d3","system_id":"levelo_inurba_marseille","lat":43.31492,"lon":5.37306,"is_reserved":false,"is_disabled":false,"rental_uris":{"android":"levelo://app?vid=44b00072-7a24-4e09-938e-73296bafd2d3","ios":"levelo://app?vid=44b00072-7a24-4e09-938e-73296bafd2d3"},"vehicle_type_id":"4","last_reported":1737295633,"current_range_meters":36000,"station_id":"ce4bgt12rcd13ifvqcd0","pricing_plan_id":"cebpf4jnsgd1na2vs0mg"},{"bike_id":"8d6893ce-9784-4f54-b1d2-57d54414c78c","system_id":"levelo_inurba_marseille","lat":43.28025,"lon":5.36951,"is_reserved":false,"is_disabled":false,"rental_uris":{"android":"levelo://app?vid=8d6893ce-9784-4f54-b1d2-57d54414c78c","ios":"levelo://app?vid=8d6893ce-9784-4f54-b1d2-57d54414c78c"},"vehicle_type_id":"4","last_reported":1737295633,"current_range_meters":38000,"station_id":"ce4bha12rcd13ifvqef0","pricing_plan_id":"cebpf4jnsgd1na2vs0mg"},{"bike_id":"e188db1b-d315-4a12-8274-6f9eab0cf4f6","system_id":"levelo_inurba_marseille","lat":43.29067,"lon":5.35895,"is_reserved":false,"is_disabled":false,"rental_uris":{"android":"levelo://app?vid=e188db1b-d315-4a12-8274-6f9eab0cf4f6","ios":"levelo://app?vid=e188db1b-d315-4a12-8274-6f9eab0cf4f6"},"vehicle_type_id":"4","last_reported":1737295633,"current_range_meters":38400,"station_id":"ce4bha92rcd13ifvqeg0","pricing_plan_id":"cebpf4jnsgd1na2vs0mg"},{"bike_id":"b72d9725-83f4-4834-95fd-cdb738bcd4d7","system_id":"levelo_inurba_marseille","lat":43.28626,"lon":5.35097,"is_reserved":false,"is_disabled":false,"rental_uris":{"android":"levelo://app?vid=b72d9725-83f4-4834-95fd-cdb738bcd4d7","ios":"levelo://app?vid=b72d9725-83f4-4834-95fd-cdb738bcd4d7"},"vehicle_type_id":"4","last_reported":1737295633,"current_range_meters":32000,"station_id":"ce4bhch2rcd13ifvqeug","pricing_plan_id":"cebpf4jnsgd1na2vs0mg"},{"bike_id":"a8701af7-deca-400c-9cb2-c845062564a7","system_id":"levelo_inurba_marseille","lat":43.314377,"lon":5.387715,"is_reserved":false,"is_disabled":false,"rental_uris":{"android":"levelo://app?vid=a8701af7-deca-400c-9cb2-c845062564a7","ios":"levelo://app?vid=a8701af7-deca-400c-9cb2-c845062564a7"},"vehicle_type_id":"4","last_reported":1737295633,"current_range_meters":12000,"station_id":"","pricing_plan_id":"cebpf4jnsgd1na2vs0mg"},{"bike_id":"ab5c884d-2614-4fb1-b342-6ef49bec86bb","system_id":"levelo_inurba_marseille","lat":43.26795,"lon":5.39408,"is_reserved":false,"is_disabled":false,"rental_uris":{"android":"levelo://app?vid=ab5c884d-2614-4fb1-b342-6ef49bec86bb","ios":"levelo://app?vid=ab5c884d-2614-4fb1-b342-6ef49bec86bb"},"vehicle_type_id":"4","last_reported":1737295633,"current_range_meters":19200,"station_id":"ce4bhh12rcd13ifvqfg0","pricing_plan_id":"cebpf4jnsgd1na2vs0mg"},{"bike_id":"bf25d0d3-c313-4bd1-80a8-5eebfd5decfd","system_id":"levelo_inurba_marseille","lat":43.2481,"lon":5.3745,"is_reserved":false,"is_disabled":false,"rental_uris":{"android":"levelo://app?vid=bf25d0d3-c313-4bd1-80a8-5eebfd5decfd","ios":"levelo://app?vid=bf25d0d3-c313-4bd1-80a8-5eebfd5decfd"},"vehicle_type_id":"4","last_reported":1737295633,"current_range_meters":30400,"station_id":"ce4bhgh2rcd13ifvqfb0","pricing_plan_id":"cebpf4jnsgd1na2vs0mg"},{"bike_id":"ee76e385-dc29-4ac5-8128-a5afbe69cc79","system_id":"levelo_inurba_marseille","lat":43.25084,"lon":5.39521,"is_reserved":false,"is_disabled":false,"rental_uris":{"android":"levelo://app?vid=ee76e385-dc29-4ac5-8128-a5afbe69cc79","ios":"levelo://app?vid=ee76e385-dc29-4ac5-8128-a5afbe69cc79"},"vehicle_type_id":"4","last_reported":1737295633,"current_range_meters":38000,"station_id":"ce4bhm12rcd13ifvqgkg","pricing_plan_id":"cebpf4jnsgd1na2vs0mg"},{"bike_id":"841a803a-2245-4563-bb97-892e35a2f174","system_id":"levelo_inurba_marseille","lat":43.28071,"lon":5.3696,"is_reserved":false,"is_disabled":false,"rental_uris":{"android":"levelo://app?vid=841a803a-2245-4563-bb97-892e35a2f174","ios":"levelo://app?vid=841a803a-2245-4563-bb97-892e35a2f174"},"vehicle_type_id":"4","last_reported":1737295633,"current_range_meters":36800,"station_id":"ce4bha12rcd13ifvqef0","pricing_plan_id":"cebpf4jnsgd1na2vs0mg"},{"bike_id":"c73224c5-8662-473f-8844-f010af6d2952","system_id":"levelo_inurba_marseille","lat":43.27191,"lon":5.40991,"is_reserved":false,"is_disabled":true,"rental_uris":{"android":"levelo://app?vid=c73224c5-8662-473f-8844-f010af6d2952","ios":"levelo://app?vid=c73224c5-8662-473f-8844-f010af6d2952"},"vehicle_type_id":"4","last_reported":1737295633,"current_range_meters":18000,"station_id":"ce4bhl12rcd13ifvqgf0","pricing_plan_id":"cebpf4jnsgd1na2vs0mg"},{"bike_id":"31fb05bf-16ef-448c-8b74-a1c12aa40358","system_id":"levelo_inurba_marseille","lat":43.32296,"lon":5.38268,"is_reserved":false,"is_disabled":false,"rental_uris":{"android":"levelo://app?vid=31fb05bf-16ef-448c-8b74-a1c12aa40358","ios":"levelo://app?vid=31fb05bf-16ef-448c-8b74-a1c12aa40358"},"vehicle_type_id":"4","last_reported":1737295633,"current_range_meters":8400,"station_id":"ce4bhr12rcd13ifvqhqg","pricing_plan_id":"cebpf4jnsgd1na2vs0mg"},{"bike_id":"95b517d0-9dcf-47f9-8053-773bec6e6a69","system_id":"levelo_inurba_marseille","lat":43.26695,"lon":5.39548,"is_reserved":false,"is_disabled":false,"rental_uris":{"android":"levelo://app?vid=95b517d0-9dcf-47f9-8053-773bec6e6a69","ios":"levelo://app?vid=95b517d0-9dcf-47f9-8053-773bec6e6a69"},"vehicle_type_id":"4","last_reported":1737295633,"current_range_meters":11600,"station_id":"","pricing_plan_id":"cebpf4jnsgd1na2vs0mg"},{"bike_id":"01e9570d-7adf-43e0-a1ff-dcbe5bfd3cb1","system_id":"levelo_inurba_marseille","lat":43.28426,"lon":5.34985,"is_reserved":false,"is_disabled":false,"rental_uris":{"android":"levelo://app?vid=01e9570d-7adf-43e0-a1ff-dcbe5bfd3cb1","ios":"levelo://app?vid=01e9570d-7adf-43e0-a1ff-dcbe5bfd3cb1"},"vehicle_type_id":"4","last_reported":1737295633,"current_range_meters":22000,"station_id":"ce4bhbh2rcd13ifvqepg","pricing_plan_id":"cebpf4jnsgd1na2vs0mg"},{"bike_id":"7e7e0290-3cf6-4ee5-98ff-16055774e887","system_id":"levelo_inurba_marseille","lat":43.29609,"lon":5.37732,"is_reserved":false,"is_disabled":true,"rental_uris":{"android":"levelo://app?vid=7e7e0290-3cf6-4ee5-98ff-16055774e887","ios":"levelo://app?vid=7e7e0290-3cf6-4ee5-98ff-16055774e887"},"vehicle_type_id":"4","last_reported":1737295633,"current_range_meters":0,"station_id":"ce4bgi92rcd13ifvqb90","pricing_plan_id":"cebpf4jnsgd1na2vs0mg"},