{"last_updated":1727456889,"ttl":60,"version":"2.2","data":{"bikes":[{"bike_id":"dfb5493e-534a-4d44-a211-98ac10902a1a","system_id":"levelo_inurba_marseille","lat":43.29305,"lon":5.37185,"is_reserved":false,"is_disabled":false,"rental_uris":{"android":"levelo://app?vid=dfb5493e-534a-4d44-a211-98ac10902a1a","ios":"levelo://app?vid=dfb5493e-534a-4d44-a211-98ac10902a1a"},"vehicle_type_id":"4","last_reported":1727456889,"current_range_meters":24000,"station_id":"ce4bgh92rcd13ifvqb40","pricing_plan_id":"cebpf4jnsgd1na2vs0mg"},{"bike_id":"d91adc44-5f1a-4cea-8db7-3283d244b03a","system_id":"levelo_inurba_marseille","lat":43.33719,"lon":5.39192,"is_reserved":false,"is_disabled":false,"rental_uris":{"android":"levelo://app?vid=d91adc44-5f1a-4cea-8db7-3283d244b03a","ios":"levelo://app?vid=d91adc44-5f1a-4cea-8db7-3283d244b03a"},"vehicle_type_id":"4","last_reported":1727456889,"current_range_meters":8000,"station_id":"ce4bhr92rcd13ifvqhsg","pricing_plan_id":"cebpf4jnsgd1na2vs0mg"},{"bike_id":"1049a32b-73b5-4e09-aed6-caf56aaf58aa","system_id":"levelo_inurba_marseille","lat":43.24177,"lon":5.3973,"is_reserved":false,"is_disabled":false,"rental_uris":{"android":"levelo://app?vid=1049a32b-73b5-4e09-aed6-caf56aaf58aa","ios":"levelo://app?vid=1049a32b-73b5-4e09-aed6-caf56aaf58aa"},"vehicle_type_id":"4","last_reported":1727456889,"current_range_meters":12800,"station_id":"ce4bhn12rcd13ifvqgpg","pricing_plan_id":"cebpf4jnsgd1na2vs0mg"},{"bike_id":"86d68437-bd88-4647-9a1f-d92ad5fe9c80","system_id":"levelo_inurba_marseille","lat":43.28827,"lon":5.380319,"is_reserved":false,"is_disabled":false,"rental_uris":{"android":"levelo://app?vid=86d68437-bd88-4647-9a1f-d92ad5fe9c80","ios":"levelo://app?vid=86d68437-bd88-4647-9a1f-d92ad5fe9c80"},"vehicle_type_id":"4","last_reported":1727456889,"current_range_meters":6000,"station_id":"ce4bh9p2rcd13ifvqec0","pricing_plan_id":"cebpf4jnsgd1na2vs0mg"},{"bike_id":"4df3ee67-5b4d-45da-9249-ffb967b14f67","system_id":"levelo_inurba_marseille","lat":43.27997,"lon":5.40013,"is_reserved":false,"is_disabled":false,"rental_uris":{"android":"levelo://app?vid=4df3ee67-5b4d-45da-9249-ffb967b14f67","ios":"levelo://app?vid=4df3ee67-5b4d-45da-9249-ffb967b14f67"},"vehicle_type_id":"4","last_reported":1727456889,"current_range_meters":8800,"station_id":"ce4bho92rcd13ifvqh4g","pricing_plan_id":"cebpf4jnsgd1na2vs0mg"},{"bike_id":"22003d49-59a1-4d1e-b11f-ff4d1c68fff9","system_id":"levelo_inurba_marseille","lat":43.26787,"lon":5.39418,"is_reserved":false,"is_disabled":false,"rental_uris":{"android":"levelo://app?vid=22003d49-59a1-4d1e-b11f-ff4d1c68fff9","ios":"levelo://app?vid=22003d49-59a1-4d1e-b11f-ff4d1c68fff9"},"vehicle_type_id":"4","last_reported":1727456889,"current_range_meters":8000,"station_id":"ce4bhh12rcd13ifvqfg0","pricing_plan_id":"cebpf4jnsgd1na2vs0mg"},{"bike_id":"88c96776-6e23-4af1-827b-eccfb462378e","system_id":"levelo_inurba_marseille","lat":43.22929,"lon":5.35377,"is_reserved":false,"is_disabled":false,"rental_uris":{"android":"levelo://app?vid=88c96776-6e23-4af1-827b-eccfb462378e","ios":"levelo://app?vid=88c96776-6e23-4af1-827b-eccfb462378e"},"vehicle_type_id":"4","last_reported":1727456889,"current_range_meters":34800,"station_id":"cpo3532slgdg3j2ikp40","pricing_plan_id":"cebpf4jnsgd1na2vs0mg"},{"bike_id":"d3471a03-9268-4d5b-add7-64120d995ef5","system_id":"levelo_inurba_marseille","lat":43.286684,"lon":5.386812,"is_reserved":false,"is_disabled":false,"rental_uris":{"android":"levelo://app?vid=d3471a03-9268-4d5b-add7-64120d995ef5","ios":"levelo://app?vid=d3471a03-9268-4d5b-add7-64120d995ef5"},"vehicle_type_id":"4","last_reported":1727456889,"current_range_meters":9200,"station_id":"ce4bh492rcd13ifvqdug","pricing_plan_id":"cebpf4jnsgd1na2vs0mg"},{"bike_id":"f6c070ed-f948-4c37-bb3c-81ca482a3eb7","system_id":"levelo_inurba_marseille","lat":43.25,"lon":5.3893,"is_reserved":false,"is_disabled":false,"rental_uris":{"android":"levelo://app?vid=f6c070ed-f948-4c37-bb3c-81ca482a3eb7","ios":"levelo://app?vid=f6c070ed-f948-4c37-bb3c-81ca482a3eb7"},"vehicle_type_id":"4","last_reported":1727456889,"current_range_meters":22400,"station_id":"ce4bhgp2rcd13ifvqfd0","pricing_plan_id":"cebpf4jnsgd1na2vs0mg"},{"bike_id":"989c9571-f896-42fe-99b8-95d938e0c33d","system_id":"levelo_inurba_marseille","lat":43.30149,"lon":5.3743,"is_reserved":false,"is_disabled":false,"rental_uris":{"android":"levelo://app?vid=989c9571-f896-42fe-99b8-95d938e0c33d","ios":"levelo://app?vid=989c9571-f896-42fe-99b8-95d938e0c33d"},"vehicle_type_id":"4","last_reported":1727456889,"current_range_meters":35600,"station_id":"ce4bgs92rcd13ifvqcc0","pricing_plan_id":"cebpf4jnsgd1na2vs0mg"},{"bike_id":"4d472db1-cbfc-4567-9658-076fbfefcf49","system_id":"levelo_inurba_marseille","lat":43.22925,"lon":5.3538,"is_reserved":false,"is_disabled":false,"rental_uris":{"android":"levelo://app?vid=4d472db1-cbfc-4567-9658-076fbfefcf49","ios":"levelo://app?vid=4d472db1-cbfc-4567-9658-076fbfefcf49"},"vehicle_type_id":"4","last_reported":1727456889,"current_range_meters":38800,"station_id":"cpo3532slgdg3j2ikp40","pricing_plan_id":"cebpf4jnsgd1na2vs0mg"},{"bike_id":"948a2b2e-fb68-42e4-9975-ed0b73370397","system_id":"levelo_inurba_marseille","lat":43.30162,"lon":5.39292,"is_reserved":false,"is_disabled":false,"rental_uris":{"android":"levelo://app?vid=948a2b2e-fb68-42e4-9975-ed0b73370397","ios":"levelo://app?vid=948a2b2e-fb68-42e4-9975-ed0b73370397"},"vehicle_type_id":"4","last_reported":1727456889,"current_range_meters":8400,"station_id":"","pricing_plan_id":"cebpf4jnsgd1na2vs0mg"},{"bike_id":"1b4e7c10-6f83-4401-ad90-f65dd11808fe","system_id":"levelo_inurba_marseille","lat":43.27679,"lon":5.38871,"is_reserved":false,"is_disabled":false,"rental_uris":{"android":"levelo://app?vid=1b4e7c10-6f83-4401-ad90-f65dd11808fe","ios":"levelo://app?vid=1b4e7c10-6f83-4401-ad90-f65dd11808fe"},"vehicle_type_id":"4","last_reported":1727456889,"current_range_meters":21600,"station_id":"ce4bhi12rcd13ifvqfo0","pricing_plan_id":"cebpf4jnsgd1na2vs0mg"},{"bike_id":"72cec8e6-9892-4be6-924b-d13877cd0410","system_id":"levelo_inurba_marseille","lat":43.29415,"lon":5.386307,"is_reserved":false,"is_disabled":false,"rental_uris":{"android":"levelo://app?vid=72cec8e6-9892-4be6-924b-d13877cd0410","ios":"levelo://app?vid=72cec8e6-9892-4be6-924b-d13877cd0410"},"vehicle_type_id":"4","last_reported":1727456889,"current_range_meters":23200,"station_id":"ce4bh2h2rcd13ifvqdh0","pricing_plan_id":"cebpf4jnsgd1na2vs0mg"},{"bike_id":"6e788e00-62fc-4fcd-be46-171ba81ea047","system_id":"levelo_inurba_marseille","lat":43.286551,"lon":5.363541,"is_reserved":false,"is_disabled":false,"rental_uris":{"android":"levelo://app?vid=6e788e00-62fc-4fcd-be46-171ba81ea047","ios":"levelo://app?vid=6e788e00-62fc-4fcd-be46-171ba81ea047"},"vehicle_type_id":"4","last_reported":1727456889,"current_range_meters":26800,"station_id":"ce4bhah2rcd13ifvqej0","pricing_plan_id":"cebpf4jnsgd1na2vs0mg"},{"bike_id":"80fe4a40-a502-4db0-b980-a485af7c8744","system_id":"levelo_inurba_marseille","lat":43.33752,"lon":5.37361,"is_reserved":false,"is_disabled":false,"rental_uris":{"android":"levelo://app?vid=80fe4a40-a502-4db0-b980-a485af7c8744","ios":"levelo://app?vid=80fe4a40-a502-4db0-b980-a485af7c8744"},"vehicle_type_id":"4","last_reported":1727456889,"current_range_meters":26000,"station_id":"","pricing_plan_id":"cebpf4jnsgd1na2vs0mg"},{"bike_id":"f21983c5-3265-446d-b37f-836bdc7b0f78","system_id":"levelo_inurba_marseille","lat":43.337444,"lon":5.374475,"is_reserved":false,"is_disabled":false,"rental_uris":{"android":"levelo://app?vid=f21983c5-3265-446d-b37f-836bdc7b0f78","ios":"levelo://app?vid=f21983c5-3265-446d-b37f-836bdc7b0f78"},"vehicle_type_id":"4","last_reported":1727456889,"current_range_meters":16000,"station_id":"","pricing_plan_id":"cebpf4jnsgd1na2vs0mg"},{"bike_id":"5f3d64c1-59e7-40d8-b935-d548fadc5220","system_id":"levelo_inurba_marseille","lat":43.2306,"lon":5.35495,"is_reserved":false,"is_disabled":false,"rental_uris":{"android":"levelo://app?vid=5f3d64c1-59e7-40d8-b935-d548fadc5220","ios":"levelo://app?vid=5f3d64c1-59e7-40d8-b935-d548fadc5220"},"vehicle_type_id":"4","last_reported":1727456889,"current_range_meters":36400,"station_id":"cpo3342slgdg3j2ifvpg","pricing_plan_id":"cebpf4jnsgd1na2vs0mg"},{"bike_id":"56049859-ca7e-49ae-b967-06ef025349c8","system_id":"levelo_inurba_marseille","lat":43.30542,"lon":5.384033,"is_reserved":false,"is_disabled":false,"rental_uris":{"android":"levelo://app?vid=56049859-ca7e-49ae-b967-06ef025349c8","ios":"levelo://app?vid=56049859-ca7e-49ae-b967-06ef025349c8"},"vehicle_type_id":"4","last_reported":1727456889,"current_range_meters":24400,"station_id":"ce4bgg92rcd13ifvqb30","pricing_plan_id":"cebpf4jnsgd1na2vs0mg"},{"bike_id":"c4fa27f1-53d9-4415-b85d-209636472f13","system_id":"levelo_inurba_marseille","lat":43.31999,"lon":5.38153,"is_reserved":false,"is_disabled":false,"rental_uris":{"android":"levelo://app?vid=c4fa27f1-53d9-4415-b85d-209636472f13","ios":"levelo://app?vid=c4fa27f1-53d9-4415-b85d-209636472f13"},"vehicle_type_id":"4","last_reported":1727456889,"current_range_meters":28400,"station_id":"ce4bhr12rcd13ifvqhpg","pricing_plan_id":"cebpf4jnsgd1na2vs0mg"},{"bike_id":"4fba6e72-f557-48a5-97ab-0a5a35554da0","system_id":"levelo_inurba_marseille","lat":43.29082,"lon":5.37176,"is_reserved":false,"is_disabled":false,"rental_uris":{"android":"levelo://app?vid=4fba6e72-f557-48a5-97ab-0a5a35554da0","ios":"levelo://app?vid=4fba6e72-f557-48a5-97ab-0a5a35554da0"},"vehicle_type_id":"4","last_reported":1727456889,"current_range_meters":24800,"station_id":"ce4bh5p2rcd13ifvqe4g","pricing_plan_id":"cebpf4jnsgd1na2vs0mg"},{"bike_id":"919196d8-21ce-403d-8596-e7f52d6f1453","system_id":"levelo_inurba_marseille","lat":43.25,"lon":5.3893,"is_reserved":false,"is_disabled":false,"rental_uris":{"android":"levelo://app?vid=919196d8-21ce-403d-8596-e7f52d6f1453","ios":"levelo://app?vid=919196d8-21ce-403d-8596-e7f52d6f1453"},"vehicle_type_id":"4","last_reported":1727456889,"current_range_meters":9200,"station_id":"ce4bhgp2rcd13ifvqfd0","pricing_plan_id":"cebpf4jnsgd1na2vs0mg"},{"bike_id":"5ac6b5ae-d31a-4c14-a6e2-b1328490fe28","system_id":"levelo_inurba_marseille","lat":43.29702,"lon":5.36597,"is_reserved":false,"is_disabled":false,"rental_uris":{"android":"levelo://app?vid=5ac6b5ae-d31a-4c14-a6e2-b1328490fe28","ios":"levelo://app?vid=5ac6b5ae-d31a-4c14-a6e2-b1328490fe28"},"vehicle_type_id":"4","last_reported":1727456889,"current_range_meters":38800,"station_id":"ce4bgn12rcd13ifvqbt0","pricing_plan_id":"cebpf4jnsgd1na2vs0mg"},{"bike_id":"c55dbd38-99cf-4913-ba44-7024cb8a0050","system_id":"levelo_inurba_marseille","lat":43.29416,"lon":5.3863,"is_reserved":false,"is_disabled":false,"rental_uris":{"android":"levelo://app?vid=c55dbd38-99cf-4913-ba44-7024cb8a0050","ios":"levelo://app?vid=c55dbd38-99cf-4913-ba44-7024cb8a0050"},"vehicle_type_id":"4","last_reported":1727456889,"current_range_meters":8400,"station_id":"ce4bh2h2rcd13ifvqdh0","pricing_plan_id":"cebpf4jnsgd1na2vs0mg"},{"bike_id":"e12148ce-56ad-40cb-aaa4-0b40772a3280","system_id":"levelo_inurba_marseille","lat":43.29417,"lon":5.38622,"is_reserved":false,"is_disabled":false,"rental_uris":{"android":"levelo://app?vid=e12148ce-56ad-40cb-aaa4-0b40772a3280","ios":"levelo://app?vid=e12148ce-56ad-40cb-aaa4-0b40772a3280"},"vehicle_type_id":"4","last_reported":1727456889,"current_range_meters":6800,"station_id":"ce4bh2h2rcd13ifvqdh0","pricing_plan_id":"cebpf4jnsgd1na2vs0mg"},{"bike_id":"f6ee1c06-a603-4ac5-be6f-87aa4226f32f","system_id":"levelo_inurba_marseille","lat":43.32045,"lon":5.41561,"is_reserved":false,"is_disabled":false,"rental_uris":{"android":"levelo://app?vid=f6ee1c06-a603-4ac5-be6f-87aa4226f32f","ios":"levelo://app?vid=f6ee1c06-a603-4ac5-be6f-87aa4226f32f"},"vehicle_type_id":"4","last_reported":1727456889,"current_range_meters":25600,"station_id":"ce4bhq92rcd13ifvqhkg","pricing_plan_id":"cebpf4jnsgd1na2vs0mg"},{"bike_id":"cf3ab17c-bed5-4852-8ec2-a2a3badfcf0f","system_id":"levelo_inurba_marseille","lat":43.316812,"lon":5.404916,"is_reserved":false,"is_disabled":false,"rental_uris":{"android":"levelo://app?vid=cf3ab17c-bed5-4852-8ec2-a2a3badfcf0f","ios":"levelo://app?vid=cf3ab17c-bed5-4852-8ec2-a2a3badfcf0f"},"vehicle_type_id":"4","last_reported":1727456889,"current_range_meters":38800,"station_id":"ce4bh012rcd13ifvqd00","pricing_plan_id":"cebpf4jnsgd1na2vs0mg"},{"bike_id":"e1792dfc-2b2a-453d-a8fa-6d36fcd903e3","system_id":"levelo_inurba_marseille","lat":43.2318,"lon":5.39993,"is_reserved":false,"is_disabled":false,"rental_uris":{"android":"levelo://app?vid=e1792dfc-2b2a-453d-a8fa-6d36fcd903e3","ios":"levelo://app?vid=e1792dfc-2b2a-453d-a8fa-6d36fcd903e3"},"vehicle_type_id":"4","last_reported":1727456889,"current_range_meters":32800,"station_id":"ce4bhn12rcd13ifvqgqg","pricing_plan_id":"cebpf4jnsgd1na2vs0mg"},{"bike_id":"e7e08083-41c4-4b8e-adbd-0f6f4ee2cb93","system_id":"levelo_inurba_marseille","lat":43.29709,"lon":5.36617,"is_reserved":false,"is_disabled":false,"rental_uris":{"android":"levelo://app?vid=e7e08083-41c4-4b8e-adbd-0f6f4ee2cb93","ios":"levelo://app?vid=e7e08083-41c4-4b8e-adbd-0f6f4ee2cb93"},"vehicle_type_id":"4","last_reported":1727456889,"current_range_meters":36400,"station_id":"ce4bgn12rcd13ifvqbt0","pricing_plan_id":"cebpf4jnsgd1na2vs0mg"},{"bike_id":"7d62fa5b-8c78-4ea6-a9a0-b2229d4cff52","system_id":"levelo_inurba_marseille","lat":43.27682,"lon":5.38872,"is_reserved":false,"is_disabled":false,"rental_uris":{"android":"levelo://app?vid=7d62fa5b-8c78-4ea6-a9a0-b2229d4cff52","ios":"levelo://app?vid=7d62fa5b-8c78-4ea6-a9a0-b2229d4cff52"},"vehicle_type_id":"4","last_reported":1727456889,"current_range_meters":4000,"station_id":"ce4bhi12rcd13ifvqfo0","pricing_plan_id":"cebpf4jnsgd1na2vs0mg"},{"bike_id":"196ac4af-2305-4f91-ad63-83a093852941","system_id":"levelo_inurba_marseille","lat":43.28156,"lon":5.42649,"is_reserved":false,"is_disabled":false,"rental_uris":{"android":"levelo://app?vid=196ac4af-2305-4f91-ad63-83a093852941","ios":"levelo://app?vid=196ac4af-2305-4f91-ad63-83a093852941"},"vehicle_type_id":"4","last_reported":1727456889,"current_range_meters":2800,"station_id":"ce4bhnh2rcd13ifvqgug","pricing_plan_id":"cebpf4jnsgd1na2vs0mg"},{"bike_id":"57143ee9-f3b2-4ef3-9a76-2ac34018f952","system_id":"levelo_inurba_marseille","lat":43.279236,"lon":5.407605,"is_reserved":false,"is_disabled":false,"rental_uris":{"android":"levelo://app?vid=57143ee9-f3b2-4ef3-9a76-2ac34018f952","ios":"levelo://app?vid=57143ee9-f3b2-4ef3-9a76-2ac34018f952"},"vehicle_type_id":"4","last_reported":1727456889,"current_range_meters":6400,"station_id":"ce4bgvp2rcd13ifvqct0","pricing_plan_id":"cebpf4jnsgd1na2vs0mg"},{"bike_id":"51ef471e-ffcd-4b86-a0a9-55578387e0ef","system_id":"levelo_inurba_marseille","lat":43.31342,"lon":5.3672,"is_reserved":false,"is_disabled":false,"rental_uris":{"android":"levelo://app?vid=51ef471e-ffcd-4b86-a0a9-55578387e0ef","ios":"levelo://app?vid=51ef471e-ffcd-4b86-a0a9-55578387e0ef"},"vehicle_type_id":"4","last_reported":1727456889,"current_range_meters":8000,"station_id":"ce4bgr92rcd13ifvqc6g","pricing_plan_id":"cebpf4jnsgd1na2vs0mg"},{"bike_id":"fb543793-6e67-408d-a922-2b06c2b84f69","system_id":"levelo_inurba_marseille","lat":43.31274,"lon":5.40173,"is_reserved":false,"is_disabled":false,"rental_uris":{"android":"levelo://app?vid=fb543793-6e67-408d-a922-2b06c2b84f69","ios":"levelo://app?vid=fb543793-6e67-408d-a922-2b06c2b84f69"},"vehicle_type_id":"4","last_reported":1727456889,"current_range_meters":14800,"station_id":"ce4bh092rcd13ifvqd30","pricing_plan_id":"cebpf4jnsgd1na2vs0mg"},{"bike_id":"ee46bd83-4978-4a96-9ac4-999e77c494b8","system_id":"levelo_inurba_marseille","lat":43.29559,"lon":5.42288,"is_reserved":false,"is_disabled":false,"rental_uris":{"android":"levelo://app?vid=ee46bd83-4978-4a96-9ac4-999e77c494b8","ios":"levelo://app?vid=ee46bd83-4978-4a96-9ac4-999e77c494b8"},"vehicle_type_id":"4","last_reported":1727456889,"current_range_meters":3200,"station_id":"ce4bhph2rcd13ifvqhdg","pricing_plan_id":"cebpf4jnsgd1na2vs0mg"},{"bike_id":"dc74da9c-f0ec-48af-800a-5b92fb95dd65","system_id":"levelo_inurba_marseille","lat":43.2319,"lon":5.39982,"is_reserved":false,"is_disabled":false,"rental_uris":{"android":"levelo://app?vid=dc74da9c-f0ec-48af-800a-5b92fb95dd65","ios":"levelo://app?vid=dc74da9c-f0ec-48af-800a-5b92fb95dd65"},"vehicle_type_id":"4","last_reported":1727456889,"current_range_meters":19200,"station_id":"ce4bhn12rcd13ifvqgqg","pricing_plan_id":"cebpf4jnsgd1na2vs0mg"},{"bike_id":"d7885bbd-5020-4172-86c3-920efd8e6c37","system_id":"levelo_inurba_marseille","lat":43.23184,"lon":5.39989,"is_reserved":false,"is_disabled":false,"rental_uris":{"android":"levelo://app?vid=d7885bbd-5020-4172-86c3-920efd8e6c37","ios":"levelo://app?vid=d7885bbd-5020-4172-86c3-920efd8e6c37"},"vehicle_type_id":"4","last_reported":1727456889,"current_range_meters":5600,"station_id":"ce4bhn12rcd13ifvqgqg","pricing_plan_id":"cebpf4jnsgd1na2vs0mg"},{"bike_id":"d21ff17b-21e7-4d89-b345-badb13913dbd","system_id":"levelo_inurba_marseille","lat":43.33021,"lon":5.39037,"is_reserved":false,"is_disabled":false,"rental_uris":{"android":"levelo://app?vid=d21ff17b-21e7-4d89-b345-badb13913dbd","ios":"levelo://app?vid=d21ff17b-21e7-4d89-b345-badb13913dbd"},"vehicle_type_id":"4","last_reported":1727456889,"current_range_meters":24800,"station_id":"ce4bhr92rcd13ifvqhrg","pricing_plan_id":"cebpf4jnsgd1na2vs0mg"},{"bike_id":"ee1fa76c-fb0c-46a1-bdcb-c08ec785eaa0","system_id":"levelo_inurba_marseille","lat":43.29026,"lon":5.38653,"is_reserved":false,"is_disabled":false,"rental_uris":{"android":"levelo://app?vid=ee1fa76c-fb0c-46a1-bdcb-c08ec785eaa0","ios":"levelo://app?vid=ee1fa76c-fb0c-46a1-bdcb-c08ec785eaa0"},"vehicle_type_id":"4","last_reported":1727456889,"current_range_meters":8400,"station_id":"ce4bh4p2rcd13ifvqe0g","pricing_plan_id":"cebpf4jnsgd1na2vs0mg"},{"bike_id":"4c5926a7-abdb-4bb0-8100-d0d5ae39e46c","system_id":"levelo_inurba_marseille","lat":43.29282,"lon":5.36845,"is_reserved":false,"is_disabled":false,"rental_uris":{"android":"levelo://app?vid=4c5926a7-abdb-4bb0-8100-d0d5ae39e46c","ios":"levelo://app?vid=4c5926a7-abdb-4bb0-8100-d0d5ae39e46c"},"vehicle_type_id":"4","last_reported":1727456889,"current_range_meters":37600,"station_id":"ce4bhbp2rcd13ifvqesg","pricing_plan_id":"cebpf4jnsgd1na2vs0mg"},{"bike_id":"31a34788-7337-4df6-a4ed-ccfd831bbffb","system_id":"levelo_inurba_marseille","lat":43.312408,"lon":5.37622,"is_reserved":false,"is_disabled":false,"rental_uris":{"android":"levelo://app?vid=31a34788-7337-4df6-a4ed-ccfd831bbffb","ios":"levelo://app?vid=31a34788-7337-4df6-a4ed-ccfd831bbffb"},"vehicle_type_id":"4","last_reported":1727456889,"current_range_meters":38800,"station_id":"","pricing_plan_id":"cebpf4jnsgd1na2vs0mg"},{"bike_id":"f5e862bd-fbc8-47a1-9335-b59bef578fe2","system_id":"levelo_inurba_marseille","lat":43.32335,"lon":5.40619,"is_reserved":false,"is_disabled":false,"rental_uris":{"android":"levelo://app?vid=f5e862bd-fbc8-47a1-9335-b59bef578fe2","ios":"levelo://app?vid=f5e862bd-fbc8-47a1-9335-b59bef578fe2"},"vehicle_type_id":"4","last_reported":1727456889,"current_range_meters":15200,"station_id":"ce4bhq92rcd13ifvqhjg","pricing_plan_id":"cebpf4jnsgd1na2vs0mg"},{"bike_id":"dc81ca1f-62ec-486e-92ea-5c6be2144907","system_id":"levelo_inurba_marseille","lat":43.32369,"lon":5.38884,"is_reserved":false,"is_disabled":false,"rental_uris":{"android":"levelo://app?vid=dc81ca1f-62ec-486e-92ea-5c6be2144907","ios":"levelo://app?vid=dc81ca1f-62ec-486e-92ea-5c6be2144907"},"vehicle_type_id":"4","last_reported":1727456889,"current_range_meters":17600,"station_id":"ce4bhqp2rcd13ifvqhog","pricing_plan_id":"cebpf4jnsgd1na2vs0mg"},{"bike_id":"0a0ffd0a-33db-4747-b0c7-34cf25a57efc","system_id":"levelo_inurba_marseille","lat":43.30132,"lon":5.39855,"is_reserved":false,"is_disabled":false,"rental_uris":{"android":"levelo://app?vid=0a0ffd0a-33db-4747-b0c7-34cf25a57efc","ios":"levelo://app?vid=0a0ffd0a-33db-4747-b0c7-34cf25a57efc"},"vehicle_type_id":"4","last_reported":1727456889,"current_range_meters":3600,"station_id":"ce4bh0h2rcd13ifvqd40","pricing_plan_id":"cebpf4jnsgd1na2vs0mg"},{"bike_id":"726c52be-ac29-47f7-83a0-0e907614d78b","system_id":"levelo_inurba_marseille","lat":43.295746,"lon":5.367419,"is_reserved":false,"is_disabled":false,"rental_uris":{"android":"levelo://app?vid=726c52be-ac29-47f7-83a0-0e907614d78b","ios":"levelo://app?vid=726c52be-ac29-47f7-83a0-0e907614d78b"},"vehicle_type_id":"4","last_reported":1727456889,"current_range_meters":23200,"station_id":"ce4bgph2rcd13ifvqc2g","pricing_plan_id":"cebpf4jnsgd1na2vs0mg"},{"bike_id":"d1bdffd0-db72-47ad-a26b-7d2fd19579b7","system_id":"levelo_inurba_marseille","lat":43.32658,"lon":5.4099,"is_reserved":false,"is_disabled":false,"rental_uris":{"android":"levelo://app?vid=d1bdffd0-db72-47ad-a26b-7d2fd19579b7","ios":"levelo://app?vid=d1bdffd0-db72-47ad-a26b-7d2fd19579b7"},"vehicle_type_id":"4","last_reported":1727456889,"current_range_meters":16000,"station_id":"ce4bhpp2rcd13ifvqhgg","pricing_plan_id":"cebpf4jnsgd1na2vs0mg"},{"bike_id":"9f1807e5-9cbb-41ae-b83b-188e2e205fb0","system_id":"levelo_inurba_marseille","lat":43.30534,"lon":5.36721,"is_reserved":false,"is_disabled":false,"rental_uris":{"android":"levelo://app?vid=9f1807e5-9cbb-41ae-b83b-188e2e205fb0","ios":"levelo://app?vid=9f1807e5-9cbb-41ae-b83b-188e2e205fb0"},"vehicle_type_id":"4","last_reported":1727456889,"current_range_meters":38000,"station_id":"ce4bgrp2rcd13ifvqc9g","pricing_plan_id":"cebpf4jnsgd1na2vs0mg"},{"bike_id":"eaff5abd-d4ea-46e6-86b8-478167451cb7","system_id":"levelo_inurba_marseille","lat":43.33739,"lon":5.37468,"is_reserved":false,"is_disabled":false,"rental_uris":{"android":"levelo://app?vid=eaff5abd-d4ea-46e6-86b8-478167451cb7","ios":"levelo://app?vid=eaff5abd-d4ea-46e6-86b8-478167451cb7"},"vehicle_type_id":"4","last_reported":1727456889,"current_range_meters":28400,"station_id":"","pricing_plan_id":"cebpf4jnsgd1na2vs0mg"},{"bike_id":"451bdec7-d2c6-436a-9bce-d1f27d4eb4ae","system_id":"levelo_inurba_marseille","lat":43.29975,"lon":5.38514,"is_reserved":false,"is_disabled":false,"rental_uris":{"android":"levelo://app?vid=451bdec7-d2c6-436a-9bce-d1f27d4eb4ae","ios":"levelo://app?vid=451bdec7-d2c6-436a-9bce-d1f27d4eb4ae"},"vehicle_type_id":"4","last_reported":1727456889,"current_range_meters":10800,"station_id":"ce4bgj92rcd13ifvqbd0","pricing_plan_id":"cebpf4jnsgd1na2vs0mg"},{"bike_id":"c9ddebe9-bbf1-4055-bfb5-3cfd374e548c","system_id":"levelo_inurba_marseille","lat":43.28127,"lon":5.38661,"is_reserved":false,"is_disabled":false,"rental_uris":{"android":"levelo://app?vid=c9ddebe9-bbf1-4055-bfb5-3cfd374e548c","ios":"levelo://app?vid=c9ddebe9-bbf1-4055-bfb5-3cfd374e548c"},"vehicle_type_id":"4","last_reported":1727456889,"current_range_meters":16400,"station_id":"ce4bh612rcd13ifvqe6g","pricing_plan_id":"cebpf4jnsgd1na2vs0mg"},{"bike_id":"365ab31b-9253-4024-a0ce-63ac11fd8ed7","system_id":"levelo_inurba_marseille","lat":43.31715,"lon":5.42407,"is_reserved":false,"is_disabled":false,"rental_uris":{"android":"levelo://app?vid=365ab31b-9253-4024-a0ce-63ac11fd8ed7","ios":"levelo://app?vid=365ab31b-9253-4024-a0ce-63ac11fd8ed7"},"vehicle_type_id":"4","last_reported":1727456889,"current_range_meters":11200,"station_id":"ce4bhp92rcd13ifvqhbg","pricing_plan_id":"cebpf4jnsgd1na2vs0mg"},{"bike_id":"03ed2cc1-5aa9-4b8e-be70-7560398fdaf9","system_id":"levelo_inurba_marseille","lat":43.29008,"lon":5.35614,"is_reserved":false,"is_disabled":false,"rental_uris":{"android":"levelo://app?vid=03ed2cc1-5aa9-4b8e-be70-7560398fdaf9","ios":"levelo://app?vid=03ed2cc1-5aa9-4b8e-be70-7560398fdaf9"},"vehicle_type_id":"4","last_reported":1727456889,"current_range_meters":26000,"station_id":"ce4bhb92rcd13ifvqen0","pricing_plan_id":"cebpf4jnsgd1na2vs0mg"},{"bike_id":"9196096e-23c9-4ea4-b059-03ae7c5b1418","system_id":"levelo_inurba_marseille","lat":43.28411,"lon":5.34997,"is_reserved":false,"is_disabled":false,"rental_uris":{"android":"levelo://app?vid=9196096e-23c9-4ea4-b059-03ae7c5b1418","ios":"levelo://app?vid=9196096e-23c9-4ea4-b059-03ae7c5b1418"},"vehicle_type_id":"4","last_reported":1727456889,"current_range_meters":2800,"station_id":"ce4bhbh2rcd13ifvqepg","pricing_plan_id":"cebpf4jnsgd1na2vs0mg"},{"bike_id":"c5e6a7df-723c-40f6-a4cb-2ea2b3c9c56e","system_id":"levelo_inurba_marseille","lat":43.29002,"lon":5.35615,"is_reserved":false,"is_disabled":false,"rental_uris":{"android":"levelo://app?vid=c5e6a7df-723c-40f6-a4cb-2ea2b3c9c56e","ios":"levelo://app?vid=c5e6a7df-723c-40f6-a4cb-2ea2b3c9c56e"},"vehicle_type_id":"4","last_reported":1727456889,"current_range_meters":8800,"station_id":"ce4bhb92rcd13ifvqen0","pricing_plan_id":"cebpf4jnsgd1na2vs0mg"},{"bike_id":"1b8585f5-8fb0-42e3-aeb8-462c15d30517","system_id":"levelo_inurba_marseille","lat":43.2971,"lon":5.36616,"is_reserved":false,"is_disabled":false,"rental_uris":{"android":"levelo://app?vid=1b8585f5-8fb0-42e3-aeb8-462c15d30517","ios":"levelo://app?vid=1b8585f5-8fb0-42e3-aeb8-462c15d30517"},"vehicle_type_id":"4","last_reported":1727456889,"current_range_meters":36800,"station_id":"ce4bgn12rcd13ifvqbt0","pricing_plan_id":"cebpf4jnsgd1na2vs0mg"},{"bike_id":"01b4f5a4-389d-4f3b-bc7d-4a6b061555f5","system_id":"levelo_inurba_marseille","lat":43.24804,"lon":5.37459,"is_reserved":false,"is_disabled":false,"rental_uris":{"android":"levelo://app?vid=01b4f5a4-389d-4f3b-bc7d-4a6b061555f5","ios":"levelo://app?vid=01b4f5a4-389d-4f3b-bc7d-4a6b061555f5"},"vehicle_type_id":"4","last_reported":1727456889,"current_range_meters":11200,"station_id":"ce4bhgh2rcd13ifvqfb0","pricing_plan_id":"cebpf4jnsgd1na2vs0mg"},{"bike_id":"878d6dc6-624a-4bf3-91a3-dc337c2f88c1","system_id":"levelo_inurba_marseille","lat":43.31265,"lon":5.40171,"is_reserved":false,"is_disabled":false,"rental_uris":{"android":"levelo://app?vid=878d6dc6-624a-4bf3-91a3-dc337c2f88c1","ios":"levelo://app?vid=878d6dc6-624a-4bf3-91a3-dc337c2f88c1"},"vehicle_type_id":"4","last_reported":1727456889,"current_range_meters":26000,"station_id":"ce4bh092rcd13ifvqd30","pricing_plan_id":"cebpf4jnsgd1na2vs0mg"},{"bike_id":"f799f8aa-620c-4ace-8a69-a9ac130bb556","system_id":"levelo_inurba_marseille","lat":43.280273,"lon":5.369425,"is_reserved":false,"is_disabled":false,"rental_uris":{"android":"levelo://app?vid=f799f8aa-620c-4ace-8a69-a9ac130bb556","ios":"levelo://app?vid=f799f8aa-620c-4ace-8a69-a9ac130bb556"},"vehicle_type_id":"4","last_reported":1727456889,"current_range_meters":3200,"station_id":"ce4bha12rcd13ifvqef0","pricing_plan_id":"cebpf4jnsgd1na2vs0mg"},{"bike_id":"da298f7a-d6da-4ec0-8187-3cfefdc78e17","system_id":"levelo_inurba_marseille","lat":43.30135,"lon":5.3988,"is_reserved":false,"is_disabled":false,"rental_uris":{"android":"levelo://app?vid=da298f7a-d6da-4ec0-8187-3cfefdc78e17","ios":"levelo://app?vid=da298f7a-d6da-4ec0-8187-3cfefdc78e17"},"vehicle_type_id":"4","last_reported":1727456889,"current_range_meters":20800,"station_id":"ce4bh0h2rcd13ifvqd40","pricing_plan_id":"cebpf4jnsgd1na2vs0mg"},{"bike_id":"a4874859-e197-4d5c-972c-606dc4f1368d","system_id":"levelo_inurba_marseille","lat":43.26031,"lon":5.3755,"is_reserved":false,"is_disabled":false,"rental_uris":{"android":"levelo://app?vid=a4874859-e197-4d5c-972c-606dc4f1368d","ios":"levelo://app?vid=a4874859-e197-4d5c-972c-606dc4f1368d"},"vehicle_type_id":"4","last_reported":1727456889,"current_range_meters":29600,"station_id":"ce4bhgh2rcd13ifvqfa0","pricing_plan_id":"cebpf4jnsgd1na2vs0mg"},{"bike_id":"40f876c2-0ea1-4fd6-9a43-261de586a225","system_id":"levelo_inurba_marseille","lat":43.29623,"lon":5.37153,"is_reserved":false,"is_disabled":false,"rental_uris":{"android":"levelo://app?vid=40f876c2-0ea1-4fd6-9a43-261de586a225","ios":"levelo://app?vid=40f876c2-0ea1-4fd6-9a43-261de586a225"},"vehicle_type_id":"4","last_reported":1727456889,"current_range_meters":27200,"station_id":"ce4bgnh2rcd13ifvqc0g","pricing_plan_id":"cebpf4jnsgd1na2vs0mg"},{"bike_id":"bf50340b-7726-4ce7-9731-4755ab45c19e","system_id":"levelo_inurba_marseille","lat":43.29573,"lon":5.39972,"is_reserved":false,"is_disabled":false,"rental_uris":{"android":"levelo://app?vid=bf50340b-7726-4ce7-9731-4755ab45c19e","ios":"levelo://app?vid=bf50340b-7726-4ce7-9731-4755ab45c19e"},"vehicle_type_id":"4","last_reported":1727456889,"current_range_meters":12800,"station_id":"ce4bh312rcd13ifvqdj0","pricing_plan_id":"cebpf4jnsgd1na2vs0mg"},{"bike_id":"6a5eb81d-33be-4400-b298-f120c39bd5b0","system_id":"levelo_inurba_marseille","lat":43.31989,"lon":5.38149,"is_reserved":false,"is_disabled":false,"rental_uris":{"android":"levelo://app?vid=6a5eb81d-33be-4400-b298-f120c39bd5b0","ios":"levelo://app?vid=6a5eb81d-33be-4400-b298-f120c39bd5b0"},"vehicle_type_id":"4","last_reported":1727456889,"current_range_meters":38800,"station_id":"ce4bhr12rcd13ifvqhpg","pricing_plan_id":"cebpf4jnsgd1na2vs0mg"},{"bike_id":"8c92c84b-f35e-42f7-a154-f1e64bac677e","system_id":"levelo_inurba_marseille","lat":43.24072,"lon":5.37762,"is_reserved":false,"is_disabled":false,"rental_uris":{"android":"levelo://app?vid=8c92c84b-f35e-42f7-a154-f1e64bac677e","ios":"levelo://app?vid=8c92c84b-f35e-42f7-a154-f1e64bac677e"},"vehicle_type_id":"4","last_reported":1727456889,"current_range_meters":5600,"station_id":"ce4bhnp2rcd13ifvqgvg","pricing_plan_id":"cebpf4jnsgd1na2vs0mg"},{"bike_id":"202d0f96-9b89-45a2-b019-3507273a30d5","system_id":"levelo_inurba_marseille","lat":43.23201,"lon":5.39995,"is_reserved":false,"is_disabled":false,"rental_uris":{"android":"levelo://app?vid=202d0f96-9b89-45a2-b019-3507273a30d5","ios":"levelo://app?vid=202d0f96-9b89-45a2-b019-3507273a30d5"},"vehicle_type_id":"4","last_reported":1727456889,"current_range_meters":39200,"station_id":"ce4bhn12rcd13ifvqgqg","pricing_plan_id":"cebpf4jnsgd1na2vs0mg"},{"bike_id":"4daee6f5-453b-4eb3-865d-0b5a4c58cff3","system_id":"levelo_inurba_marseille","lat":43.25501,"lon":5.37652,"is_reserved":false,"is_disabled":false,"rental_uris":{"android":"levelo://app?vid=4daee6f5-453b-4eb3-865d-0b5a4c58cff3","ios":"levelo://app?vid=4daee6f5-453b-4eb3-865d-0b5a4c58cff3"},"vehicle_type_id":"4","last_reported":1727456889,"current_range_meters":3200,"station_id":"ce4bhh12rcd13ifvqff0","pricing_plan_id":"cebpf4jnsgd1na2vs0mg"},{"bike_id":"bf58755e-1938-447e-90a6-052a556b86da","system_id":"levelo_inurba_marseille","lat":43.32038,"lon":5.41576,"is_reserved":false,"is_disabled":false,"rental_uris":{"android":"levelo://app?vid=bf58755e-1938-447e-90a6-052a556b86da","ios":"levelo://app?vid=bf58755e-1938-447e-90a6-052a556b86da"},"vehicle_type_id":"4","last_reported":1727456889,"current_range_meters":8400,"station_id":"ce4bhq92rcd13ifvqhkg","pricing_plan_id":"cebpf4jnsgd1na2vs0mg"},{"bike_id":"2ca505fa-c019-450f-9094-fb1f75868c2d","system_id":"levelo_inurba_marseille","lat":43.27181,"lon":5.40989,"is_reserved":false,"is_disabled":false,"rental_uris":{"android":"levelo://app?vid=2ca505fa-c019-450f-9094-fb1f75868c2d","ios":"levelo://app?vid=2ca505fa-c019-450f-9094-fb1f75868c2d"},"vehicle_type_id":"4","last_reported":1727456889,"current_range_meters":7200,"station_id":"ce4bhl12rcd13ifvqgf0","pricing_plan_id":"cebpf4jnsgd1na2vs0mg"},{"bike_id":"d52851ed-c71e-4a4e-b6b9-3197e713a476","system_id":"levelo_inurba_marseille","lat":43.30541,"lon":5.36563,"is_reserved":false,"is_disabled":false,"rental_uris":{"android":"levelo://app?vid=d52851ed-c71e-4a4e-b6b9-3197e713a476","ios":"levelo://app?vid=d52851ed-c71e-4a4e-b6b9-3197e713a476"},"vehicle_type_id":"4","last_reported":1727456889,"current_range_meters":29600,"station_id":"ce4bgs12rcd13ifvqcag","pricing_plan_id":"cebpf4jnsgd1na2vs0mg"},{"bike_id":"7c9eb86c-99a5-4435-ae7a-b641efc585b8","system_id":"levelo_inurba_marseille","lat":43.23156,"lon":5.43706,"is_reserved":false,"is_disabled":false,"rental_uris":{"android":"levelo://app?vid=7c9eb86c-99a5-4435-ae7a-b641efc585b8","ios":"levelo://app?vid=7c9eb86c-99a5-4435-ae7a-b641efc585b8"},"vehicle_type_id":"4","last_reported":1727456889,"current_range_meters":10000,"station_id":"ce4bhmp2rcd13ifvqgog","pricing_plan_id":"cebpf4jnsgd1na2vs0mg"},{"bike_id":"000f5c0b-520a-4c34-bab1-17fcab09c2c9","system_id":"levelo_inurba_marseille","lat":43.3136,"lon":5.385,"is_reserved":false,"is_disabled":false,"rental_uris":{"android":"levelo://app?vid=000f5c0b-520a-4c34-bab1-17fcab09c2c9","ios":"levelo://app?vid=000f5c0b-520a-4c34-bab1-17fcab09c2c9"},"vehicle_type_id":"4","last_reported":1727456889,"current_range_meters":24000,"station_id":"ce4bgt92rcd13ifvqcf0","pricing_plan_id":"cebpf4jnsgd1na2vs0mg"},{"bike_id":"07b71106-215b-4119-bbab-42727c1d28db","system_id":"levelo_inurba_marseille","lat":43.299286,"lon":5.365369,"is_reserved":false,"is_disabled":false,"rental_uris":{"android":"levelo://app?vid=07b71106-215b-4119-bbab-42727c1d28db","ios":"levelo://app?vid=07b71106-215b-4119-bbab-42727c1d28db"},"vehicle_type_id":"4","last_reported":1727456889,"current_range_meters":7200,"station_id":"ce4bgqh2rcd13ifvqc5g","pricing_plan_id":"cebpf4jnsgd1na2vs0mg"},{"bike_id":"2a0d1acf-c3be-4bf9-823a-101e9d83e939","system_id":"levelo_inurba_marseille","lat":43.22929,"lon":5.35375,"is_reserved":false,"is_disabled":false,"rental_uris":{"android":"levelo://app?vid=2a0d1acf-c3be-4bf9-823a-101e9d83e939","ios":"levelo://app?vid=2a0d1acf-c3be-4bf9-823a-101e9d83e939"},"vehicle_type_id":"4","last_reported":1727456889,"current_range_meters":9200,"station_id":"cpo3532slgdg3j2ikp40","pricing_plan_id":"cebpf4jnsgd1na2vs0mg"},{"bike_id":"06e9f455-6b2c-4a1b-972f-8591f9ca604b","system_id":"levelo_inurba_marseille","lat":43.29541,"lon":5.38554,"is_reserved":false,"is_disabled":false,"rental_uris":{"android":"levelo://app?vid=06e9f455-6b2c-4a1b-972f-8591f9ca604b","ios":"levelo://app?vid=06e9f455-6b2c-4a1b-972f-8591f9ca604b"},"vehicle_type_id":"4","last_reported":1727456889,"current_range_meters":11600,"station_id":"ce4bgih2rcd13ifvqba0","pricing_plan_id":"cebpf4jnsgd1na2vs0mg"},{"bike_id":"c6479572-1c89-43b8-8b2f-1292fe863e3b","system_id":"levelo_inurba_marseille","lat":43.29523,"lon":5.39041,"is_reserved":false,"is_disabled":false,"rental_uris":{"android":"levelo://app?vid=c6479572-1c89-43b8-8b2f-1292fe863e3b","ios":"levelo://app?vid=c6479572-1c89-43b8-8b2f-1292fe863e3b"},"vehicle_type_id":"4","last_reported":1727456889,"current_range_meters":15200,"station_id":"ce4bh3p2rcd13ifvqdp0","pricing_plan_id":"cebpf4jnsgd1na2vs0mg"},{"bike_id":"9232fec6-6cf3-4512-8cb0-488648d4f189","system_id":"levelo_inurba_marseille","lat":43.27949,"lon":5.41055,"is_reserved":false,"is_disabled":false,"rental_uris":{"android":"levelo://app?vid=9232fec6-6cf3-4512-8cb0-488648d4f189","ios":"levelo://app?vid=9232fec6-6cf3-4512-8cb0-488648d4f189"},"vehicle_type_id":"4","last_reported":1727456889,"current_range_meters":3600,"station_id":"ce4bhnp2rcd13ifvqh0g","pricing_plan_id":"cebpf4jnsgd1na2vs0mg"},{"bike_id":"2007af92-5f32-4fa9-ab69-08ff47e88d19","system_id":"levelo_inurba_marseille","lat":43.29419,"lon":5.38622,"is_reserved":false,"is_disabled":false,"rental_uris":{"android":"levelo://app?vid=2007af92-5f32-4fa9-ab69-08ff47e88d19","ios":"levelo://app?vid=2007af92-5f32-4fa9-ab69-08ff47e88d19"},"vehicle_type_id":"4","last_reported":1727456889,"current_range_meters":8400,"station_id":"ce4bh2h2rcd13ifvqdh0","pricing_plan_id":"cebpf4jnsgd1na2vs0mg"},{"bike_id":"219be6ec-bd0c-4fd8-a1fa-e2e2cc5d00c7","system_id":"levelo_inurba_marseille","lat":43.31722,"lon":5.42405,"is_reserved":false,"is_disabled":false,"rental_uris":{"android":"levelo://app?vid=219be6ec-bd0c-4fd8-a1fa-e2e2cc5d00c7","ios":"levelo://app?vid=219be6ec-bd0c-4fd8-a1fa-e2e2cc5d00c7"},"vehicle_type_id":"4","last_reported":1727456889,"current_range_meters":14800,"station_id":"ce4bhp92rcd13ifvqhbg","pricing_plan_id":"cebpf4jnsgd1na2vs0mg"},{"bike_id":"b4b36ed1-30d4-4b58-9423-7ae65b640f5a","system_id":"levelo_inurba_marseille","lat":43.28091,"lon":5.39664,"is_reserved":false,"is_disabled":false,"rental_uris":{"android":"levelo://app?vid=b4b36ed1-30d4-4b58-9423-7ae65b640f5a","ios":"levelo://app?vid=b4b36ed1-30d4-4b58-9423-7ae65b640f5a"},"vehicle_type_id":"4","last_reported":1727456889,"current_range_meters":7200,"station_id":"ce4bho12rcd13ifvqh2g","pricing_plan_id":"cebpf4jnsgd1na2vs0mg"},{"bike_id":"bb49db6a-7c11-4fa0-a851-08f0575185f8","system_id":"levelo_inurba_marseille","lat":43.29777,"lon":5.37112,"is_reserved":false,"is_disabled":false,"rental_uris":{"android":"levelo://app?vid=bb49db6a-7c11-4fa0-a851-08f0575185f8","ios":"levelo://app?vid=bb49db6a-7c11-4fa0-a851-08f0575185f8"},"vehicle_type_id":"4","last_reported":1727456889,"current_range_meters":3200,"station_id":"ce4bgop2rcd13ifvqc1g","pricing_plan_id":"cebpf4jnsgd1na2vs0mg"},{"bike_id":"738e7e6c-8c54-4726-b743-05a0b0cf6bde","system_id":"levelo_inurba_marseille","lat":43.28384,"lon":5.37301,"is_reserved":false,"is_disabled":false,"rental_uris":{"android":"levelo://app?vid=738e7e6c-8c54-4726-b743-05a0b0cf6bde","ios":"levelo://app?vid=738e7e6c-8c54-4726-b743-05a0b0cf6bde"},"vehicle_type_id":"4","last_reported":1727456889,"current_range_meters":20800,"station_id":"","pricing_plan_id":"cebpf4jnsgd1na2vs0mg"},{"bike_id":"434b22e9-aa03-4a4f-9292-53e8032797d3","system_id":"levelo_inurba_marseille","lat":43.31691,"lon":5.40463,"is_reserved":false,"is_disabled":false,"rental_uris":{"android":"levelo://app?vid=434b22e9-aa03-4a4f-9292-53e8032797d3","ios":"levelo://app?vid=434b22e9-aa03-4a4f-9292-53e8032797d3"},"vehicle_type_id":"4","last_reported":1727456889,"current_range_meters":38800,"station_id":"ce4bh012rcd13ifvqd00","pricing_plan_id":"cebpf4jnsgd1na2vs0mg"},{"bike_id":"00e7ed7e-5689-4a46-b519-d942e38cc725","system_id":"levelo_inurba_marseille","lat":43.278748,"lon":5.423922,"is_reserved":false,"is_disabled":false,"rental_uris":{"android":"levelo://app?vid=00e7ed7e-5689-4a46-b519-d942e38cc725","ios":"levelo://app?vid=00e7ed7e-5689-4a46-b519-d942e38cc725"},"vehicle_type_id":"4","last_reported":1727456889,"current_range_meters":18800,"station_id":"","pricing_plan_id":"cebpf4jnsgd1na2vs0mg"},{"bike_id":"c0fe97a8-0d38-4bc5-ab09-2af574a998ee","system_id":"levelo_inurba_marseille","lat":43.29421,"lon":5.3862,"is_reserved":false,"is_disabled":false,"rental_uris":{"android":"levelo://app?vid=c0fe97a8-0d38-4bc5-ab09-2af574a998ee","ios":"levelo://app?vid=c0fe97a8-0d38-4bc5-ab09-2af574a998ee"},"vehicle_type_id":"4","last_reported":1727456889,"current_range_meters":27600,"station_id":"ce4bh2h2rcd13ifvqdh0","pricing_plan_id":"cebpf4jnsgd1na2vs0mg"},{"bike_id":"7df4defa-e90a-4820-ac06-9981801322d4","system_id":"levelo_inurba_marseille","lat":43.31083,"lon":5.40132,"is_reserved":false,"is_disabled":false,"rental_uris":{"android":"levelo://app?vid=7df4defa-e90a-4820-ac06-9981801322d4","ios":"levelo://app?vid=7df4defa-e90a-4820-ac06-9981801322d4"},"vehicle_type_id":"4","last_reported":1727456889,"current_range_meters":12400,"station_id":"","pricing_plan_id":"cebpf4jnsgd1na2vs0mg"},{"bike_id":"57c98770-d356-4eca-8d2c-b73c7d996514","system_id":"levelo_inurba_marseille","lat":43.28419,"lon":5.34999,"is_reserved":false,"is_disabled":false,"rental_uris":{"android":"levelo://app?vid=57c98770-d356-4eca-8d2c-b73c7d996514","ios":"levelo://app?vid=57c98770-d356-4eca-8d2c-b73c7d996514"},"vehicle_type_id":"4","last_reported":1727456889,"current_range_meters":7200,"station_id":"ce4bhbh2rcd13ifvqepg","pricing_plan_id":"cebpf4jnsgd1na2vs0mg"},{"bike_id":"30ea7876-49af-4135-acdc-e48f71e2ae80","system_id":"levelo_inurba_marseille","lat":43.30538,"lon":5.36714,"is_reserved":false,"is_disabled":false,"rental_uris":{"android":"levelo://app?vid=30ea7876-49af-4135-acdc-e48f71e2ae80","ios":"levelo://app?vid=30ea7876-49af-4135-acdc-e48f71e2ae80"},"vehicle_type_id":"4","last_reported":1727456889,"current_range_meters":16000,"station_id":"ce4bgrp2rcd13ifvqc9g","pricing_plan_id":"cebpf4jnsgd1na2vs0mg"},{"bike_id":"fd2b43e0-4573-430f-ba04-de8ee828fc77","system_id":"levelo_inurba_marseille","lat":43.29521,"lon":5.3903,"is_reserved":false,"is_disabled":false,"rental_uris":{"android":"levelo://app?vid=fd2b43e0-4573-430f-ba04-de8ee828fc77","ios":"levelo://app?vid=fd2b43e0-4573-430f-ba04-de8ee828fc77"},"vehicle_type_id":"4","last_reported":1727456889,"current_range_meters":38000,"station_id":"ce4bh3p2rcd13ifvqdp0","pricing_plan_id":"cebpf4jnsgd1na2vs0mg"},{"bike_id":"8898d200-8a1f-4ddc-860a-95fa77040bfc","system_id":"levelo_inurba_marseille","lat":43.29418,"lon":5.38629,"is_reserved":false,"is_disabled":false,"rental_uris":{"android":"levelo://app?vid=8898d200-8a1f-4ddc-860a-95fa77040bfc","ios":"levelo://app?vid=8898d200-8a1f-4ddc-860a-95fa77040bfc"},"vehicle_type_id":"4","last_reported":1727456889,"current_range_meters":36800,"station_id":"ce4bh2h2rcd13ifvqdh0","pricing_plan_id":"cebpf4jnsgd1na2vs0mg"},{"bike_id":"a93ed487-121d-4ead-9d6e-de68e81f444f","system_id":"levelo_inurba_marseille","lat":43.3199,"lon":5.38149,"is_reserved":false,"is_disabled":false,"rental_uris":{"android":"levelo://app?vid=a93ed487-121d-4ead-9d6e-de68e81f444f","ios":"levelo://app?vid=a93ed487-121d-4ead-9d6e-de68e81f444f"},"vehicle_type_id":"4","last_reported":1727456889,"current_range_meters":26800,"station_id":"ce4bhr12rcd13ifvqhpg","pricing_plan_id":"cebpf4jnsgd1na2vs0mg"},{"bike_id":"c9656059-b28e-4b64-b742-b3daf1e4b552","system_id":"levelo_inurba_marseille","lat":43.28994,"lon":5.376,"is_reserved":false,"is_disabled":false,"rental_uris":{"android":"levelo://app?vid=c9656059-b28e-4b64-b742-b3daf1e4b552","ios":"levelo://app?vid=c9656059-b28e-4b64-b742-b3daf1e4b552"},"vehicle_type_id":"4","last_reported":1727456889,"current_range_meters":32400,"station_id":"ce4bh692rcd13ifvqe90","pricing_plan_id":"cebpf4jnsgd1na2vs0mg"},{"bike_id":"4f95a9be-ddd0-4ba8-be85-03329fae2da7","system_id":"levelo_inurba_marseille","lat":43.296009,"lon":5.381031,"is_reserved":false,"is_disabled":false,"rental_uris":{"android":"levelo://app?vid=4f95a9be-ddd0-4ba8-be85-03329fae2da7","ios":"levelo://app?vid=4f95a9be-ddd0-4ba8-be85-03329fae2da7"},"vehicle_type_id":"4","last_reported":1727456889,"current_range_meters":11200,"station_id":"ce4bgl12rcd13ifvqbo0","pricing_plan_id":"cebpf4jnsgd1na2vs0mg"},{"bike_id":"97a8aad0-0dbd-4632-9962-729376b33a04","system_id":"levelo_inurba_marseille","lat":43.29696,"lon":5.36593,"is_reserved":false,"is_disabled":false,"rental_uris":{"android":"levelo://app?vid=97a8aad0-0dbd-4632-9962-729376b33a04","ios":"levelo://app?vid=97a8aad0-0dbd-4632-9962-729376b33a04"},"vehicle_type_id":"4","last_reported":1727456889,"current_range_meters":38800,"station_id":"ce4bgn12rcd13ifvqbt0","pricing_plan_id":"cebpf4jnsgd1na2vs0mg"},{"bike_id":"2c1f8e9c-6d34-48f1-a86d-e37a5a7ef2f9","system_id":"levelo_inurba_marseille","lat":43.280972,"lon":5.378285,"is_reserved":false,"is_disabled":false,"rental_uris":{"android":"levelo://app?vid=2c1f8e9c-6d34-48f1-a86d-e37a5a7ef2f9","ios":"levelo://app?vid=2c1f8e9c-6d34-48f1-a86d-e37a5a7ef2f9"},"vehicle_type_id":"4","last_reported":1727456889,"current_range_meters":3200,"station_id":"ce4bha12rcd13ifvqee0","pricing_plan_id":"cebpf4jnsgd1na2vs0mg"},{"bike_id":"9b74bda6-e85c-47f4-9408-7ed7cce58ce5","system_id":"levelo_inurba_marseille","lat":43.2953,"lon":5.3749,"is_reserved":false,"is_disabled":false,"rental_uris":{"android":"levelo://app?vid=9b74bda6-e85c-47f4-9408-7ed7cce58ce5","ios":"levelo://app?vid=9b74bda6-e85c-47f4-9408-7ed7cce58ce5"},"vehicle_type_id":"4","last_reported":1727456889,"current_range_meters":22000,"station_id":"ce4bgkp2rcd13ifvqbmg","pricing_plan_id":"cebpf4jnsgd1na2vs0mg"},{"bike_id":"aa710de6-9574-4d3a-a9ed-914829fa25ff","system_id":"levelo_inurba_marseille","lat":43.29023,"lon":5.38654,"is_reserved":false,"is_disabled":false,"rental_uris":{"android":"levelo://app?vid=aa710de6-9574-4d3a-a9ed-914829fa25ff","ios":"levelo://app?vid=aa710de6-9574-4d3a-a9ed-914829fa25ff"},"vehicle_type_id":"4","last_reported":1727456889,"current_range_meters":6800,"station_id":"ce4bh4p2rcd13ifvqe0g","pricing_plan_id":"cebpf4jnsgd1na2vs0mg"},{"bike_id":"57f27925-f09b-4742-8ac5-f50951f71149","system_id":"levelo_inurba_marseille","lat":43.31711,"lon":5.43709,"is_reserved":false,"is_disabled":false,"rental_uris":{"android":"levelo://app?vid=57f27925-f09b-4742-8ac5-f50951f71149","ios":"levelo://app?vid=57f27925-f09b-4742-8ac5-f50951f71149"},"vehicle_type_id":"4","last_reported":1727456889,"current_range_meters":10000,"station_id":"ce4bhp92rcd13ifvqhcg","pricing_plan_id":"cebpf4jnsgd1na2vs0mg"},{"bike_id":"842940aa-22ac-4e25-a102-1a33185a1180","system_id":"levelo_inurba_marseille","lat":43.25717,"lon":5.41114,"is_reserved":false,"is_disabled":false,"rental_uris":{"android":"levelo://app?vid=842940aa-22ac-4e25-a102-1a33185a1180","ios":"levelo://app?vid=842940aa-22ac-4e25-a102-1a33185a1180"},"vehicle_type_id":"4","last_reported":1727456889,"current_range_meters":4000,"station_id":"ce4bhkp2rcd13ifvqgd0","pricing_plan_id":"cebpf4jnsgd1na2vs0mg"},{"bike_id":"27394ff8-3f98-4744-963c-0b2ed8c35f84","system_id":"levelo_inurba_marseille","lat":43.31683,"lon":5.40477,"is_reserved":false,"is_disabled":false,"rental_uris":{"android":"levelo://app?vid=27394ff8-3f98-4744-963c-0b2ed8c35f84","ios":"levelo://app?vid=27394ff8-3f98-4744-963c-0b2ed8c35f84"},"vehicle_type_id":"4","last_reported":1727456889,"current_range_meters":7200,"station_id":"ce4bh012rcd13ifvqd00","pricing_plan_id":"cebpf4jnsgd1na2vs0mg"},{"bike_id":"7a6a275e-601f-46b6-9f61-8659c5fffd7f","system_id":"levelo_inurba_marseille","lat":43.29522,"lon":5.39045,"is_reserved":false,"is_disabled":false,"rental_uris":{"android":"levelo://app?vid=7a6a275e-601f-46b6-9f61-8659c5fffd7f","ios":"levelo://app?vid=7a6a275e-601f-46b6-9f61-8659c5fffd7f"},"vehicle_type_id":"4","last_reported":1727456889,"current_range_meters":20400,"station_id":"ce4bh3p2rcd13ifvqdp0","pricing_plan_id":"cebpf4jnsgd1na2vs0mg"},{"bike_id":"102bb06d-ee1a-4ff0-878d-b5bbc3d50620","system_id":"levelo_inurba_marseille","lat":43.26193,"lon":5.37459,"is_reserved":false,"is_disabled":false,"rental_uris":{"android":"levelo://app?vid=102bb06d-ee1a-4ff0-878d-b5bbc3d50620","ios":"levelo://app?vid=102bb06d-ee1a-4ff0-878d-b5bbc3d50620"},"vehicle_type_id":"4","last_reported":1727456889,"current_range_meters":35600,"station_id":"ce4bhgp2rcd13ifvqfc0","pricing_plan_id":"cebpf4jnsgd1na2vs0mg"},{"bike_id":"9033648d-24f7-4c9c-bbae-11267c6254b7","system_id":"levelo_inurba_marseille","lat":43.29045,"lon":5.37594,"is_reserved":false,"is_disabled":false,"rental_uris":{"android":"levelo://app?vid=9033648d-24f7-4c9c-bbae-11267c6254b7","ios":"levelo://app?vid=9033648d-24f7-4c9c-bbae-11267c6254b7"},"vehicle_type_id":"4","last_reported":1727456889,"current_range_meters":30800,"station_id":"ce4bgj92rcd13ifvqbd0","pricing_plan_id":"cebpf4jnsgd1na2vs0mg"},{"bike_id":"84e91030-21f6-4737-b5c1-37d05d2a9806","system_id":"levelo_inurba_marseille","lat":43.30863,"lon":5.3685,"is_reserved":false,"is_disabled":false,"rental_uris":{"android":"levelo://app?vid=84e91030-21f6-4737-b5c1-37d05d2a9806","ios":"levelo://app?vid=84e91030-21f6-4737-b5c1-37d05d2a9806"},"vehicle_type_id":"4","last_reported":1727456889,"current_range_meters":16000,"station_id":"ce4bgn92rcd13ifvqbvg","pricing_plan_id":"cebpf4jnsgd1na2vs0mg"},{"bike_id":"83a9f662-0904-4d33-80b2-b49274389bfc","system_id":"levelo_inurba_marseille","lat":43.31358,"lon":5.38491,"is_reserved":false,"is_disabled":false,"rental_uris":{"android":"levelo://app?vid=83a9f662-0904-4d33-80b2-b49274389bfc","ios":"levelo://app?vid=83a9f662-0904-4d33-80b2-b49274389bfc"},"vehicle_type_id":"4","last_reported":1727456889,"current_range_meters":17200,"station_id":"ce4bgt92rcd13ifvqcf0","pricing_plan_id":"cebpf4jnsgd1na2vs0mg"},{"bike_id":"16af2024-9d31-45fa-a4d0-403bcb439288","system_id":"levelo_inurba_marseille","lat":43.33024,"lon":5.3904,"is_reserved":false,"is_disabled":false,"rental_uris":{"android":"levelo://app?vid=16af2024-9d31-45fa-a4d0-403bcb439288","ios":"levelo://app?vid=16af2024-9d31-45fa-a4d0-403bcb439288"},"vehicle_type_id":"4","last_reported":1727456889,"current_range_meters":8400,"station_id":"ce4bhr92rcd13ifvqhrg","pricing_plan_id":"cebpf4jnsgd1na2vs0mg"},{"bike_id":"64511bca-5629-4266-951c-cd2f5dbe5a46","system_id":"levelo_inurba_marseille","lat":43.22933,"lon":5.35379,"is_reserved":false,"is_disabled":false,"rental_uris":{"android":"levelo://app?vid=64511bca-5629-4266-951c-cd2f5dbe5a46","ios":"levelo://app?vid=64511bca-5629-4266-951c-cd2f5dbe5a46"},"vehicle_type_id":"4","last_reported":1727456889,"current_range_meters":37600,"station_id":"cpo3532slgdg3j2ikp40","pricing_plan_id":"cebpf4jnsgd1na2vs0mg"},{"bike_id":"f373be3c-15de-45b2-b704-18ce7cf29101","system_id":"levelo_inurba_marseille","lat":43.29419,"lon":5.38625,"is_reserved":false,"is_disabled":false,"rental_uris":{"android":"levelo://app?vid=f373be3c-15de-45b2-b704-18ce7cf29101","ios":"levelo://app?vid=f373be3c-15de-45b2-b704-18ce7cf29101"},"vehicle_type_id":"4","last_reported":1727456889,"current_range_meters":24000,"station_id":"ce4bh2h2rcd13ifvqdh0","pricing_plan_id":"cebpf4jnsgd1na2vs0mg"},{"bike_id":"9dce177e-29eb-4275-a43c-8fc400ccb02c","system_id":"levelo_inurba_marseille","lat":43.28001,"lon":5.40016,"is_reserved":false,"is_disabled":false,"rental_uris":{"android":"levelo://app?vid=9dce177e-29eb-4275-a43c-8fc400ccb02c","ios":"levelo://app?vid=9dce177e-29eb-4275-a43c-8fc400ccb02c"},"vehicle_type_id":"4","last_reported":1727456889,"current_range_meters":20000,"station_id":"ce4bho92rcd13ifvqh4g","pricing_plan_id":"cebpf4jnsgd1na2vs0mg"},{"bike_id":"e1438fd9-121d-4f82-80fd-c705d1c8d247","system_id":"levelo_inurba_marseille","lat":43.24662,"lon":5.38168,"is_reserved":false,"is_disabled":false,"rental_uris":{"android":"levelo://app?vid=e1438fd9-121d-4f82-80fd-c705d1c8d247","ios":"levelo://app?vid=e1438fd9-121d-4f82-80fd-c705d1c8d247"},"vehicle_type_id":"4","last_reported":1727456889,"current_range_meters":22800,"station_id":"ce4bhih2rcd13ifvqfr0","pricing_plan_id":"cebpf4jnsgd1na2vs0mg"},{"bike_id":"43c0c15c-7c74-4c12-b23e-4393ebb911d0","system_id":"levelo_inurba_marseille","lat":43.32294,"lon":5.38274,"is_reserved":false,"is_disabled":false,"rental_uris":{"android":"levelo://app?vid=43c0c15c-7c74-4c12-b23e-4393ebb911d0","ios":"levelo://app?vid=43c0c15c-7c74-4c12-b23e-4393ebb911d0"},"vehicle_type_id":"4","last_reported":1727456889,"current_range_meters":39200,"station_id":"ce4bhr12rcd13ifvqhqg","pricing_plan_id":"cebpf4jnsgd1na2vs0mg"},{"bike_id":"54ef9070-bac7-4c76-acc9-2e1ec1c6cb4c","system_id":"levelo_inurba_marseille","lat":43.29202,"lon":5.3933,"is_reserved":false,"is_disabled":false,"rental_uris":{"android":"levelo://app?vid=54ef9070-bac7-4c76-acc9-2e1ec1c6cb4c","ios":"levelo://app?vid=54ef9070-bac7-4c76-acc9-2e1ec1c6cb4c"},"vehicle_type_id":"4","last_reported":1727456889,"current_range_meters":19600,"station_id":"ce4bh192rcd13ifvqdd0","pricing_plan_id":"cebpf4jnsgd1na2vs0mg"},{"bike_id":"94fe0fd2-9891-4065-8d47-63f6218d9867","system_id":"levelo_inurba_marseille","lat":43.304133,"lon":5.388848,"is_reserved":false,"is_disabled":false,"rental_uris":{"android":"levelo://app?vid=94fe0fd2-9891-4065-8d47-63f6218d9867","ios":"levelo://app?vid=94fe0fd2-9891-4065-8d47-63f6218d9867"},"vehicle_type_id":"4","last_reported":1727456889,"current_range_meters":11600,"station_id":"ce4bgk12rcd13ifvqbi0","pricing_plan_id":"cebpf4jnsgd1na2vs0mg"},{"bike_id":"d5b74c70-a66b-4f2c-810d-2594b9a0ef51","system_id":"levelo_inurba_marseille","lat":43.29895,"lon":5.43662,"is_reserved":false,"is_disabled":false,"rental_uris":{"android":"levelo://app?vid=d5b74c70-a66b-4f2c-810d-2594b9a0ef51","ios":"levelo://app?vid=d5b74c70-a66b-4f2c-810d-2594b9a0ef51"},"vehicle_type_id":"4","last_reported":1727456889,"current_range_meters":38800,"station_id":"ce4bhpp2rcd13ifvqhfg","pricing_plan_id":"cebpf4jnsgd1na2vs0mg"},{"bike_id":"77b1eef7-5034-4931-a64e-d7f949108dc0","system_id":"levelo_inurba_marseille","lat":43.25092,"lon":5.39518,"is_reserved":false,"is_disabled":false,"rental_uris":{"android":"levelo://app?vid=77b1eef7-5034-4931-a64e-d7f949108dc0","ios":"levelo://app?vid=77b1eef7-5034-4931-a64e-d7f949108dc0"},"vehicle_type_id":"4","last_reported":1727456889,"current_range_meters":2800,"station_id":"ce4bhm12rcd13ifvqgkg","pricing_plan_id":"cebpf4jnsgd1na2vs0mg"},{"bike_id":"b579715c-20e2-4755-8fdf-8d2fd1b7b809","system_id":"levelo_inurba_marseille","lat":43.337444,"lon":5.374475,"is_reserved":false,"is_disabled":false,"rental_uris":{"android":"levelo://app?vid=b579715c-20e2-4755-8fdf-8d2fd1b7b809","ios":"levelo://app?vid=b579715c-20e2-4755-8fdf-8d2fd1b7b809"},"vehicle_type_id":"4","last_reported":1727456889,"current_range_meters":34000,"station_id":"","pricing_plan_id":"cebpf4jnsgd1na2vs0mg"},{"bike_id":"7d56de46-351c-4d42-aa14-562e88205e86","system_id":"levelo_inurba_marseille","lat":43.3123,"lon":5.36874,"is_reserved":false,"is_disabled":false,"rental_uris":{"android":"levelo://app?vid=7d56de46-351c-4d42-aa14-562e88205e86","ios":"levelo://app?vid=7d56de46-351c-4d42-aa14-562e88205e86"},"vehicle_type_id":"4","last_reported":1727456889,"current_range_meters":30400,"station_id":"ce4bgl92rcd13ifvqbq0","pricing_plan_id":"cebpf4jnsgd1na2vs0mg"},{"bike_id":"ccae6329-e16a-46b2-8a1c-6b41877608ab","system_id":"levelo_inurba_marseille","lat":43.26059,"lon":5.39399,"is_reserved":false,"is_disabled":false,"rental_uris":{"android":"levelo://app?vid=ccae6329-e16a-46b2-8a1c-6b41877608ab","ios":"levelo://app?vid=ccae6329-e16a-46b2-8a1c-6b41877608ab"},"vehicle_type_id":"4","last_reported":1727456889,"current_range_meters":19200,"station_id":"ce4bhh92rcd13ifvqfj0","pricing_plan_id":"cebpf4jnsgd1na2vs0mg"},{"bike_id":"a8ad96dc-e0f4-4a3f-9725-4f83b8c05346","system_id":"levelo_inurba_marseille","lat":43.23183,"lon":5.39989,"is_reserved":false,"is_disabled":false,"rental_uris":{"android":"levelo://app?vid=a8ad96dc-e0f4-4a3f-9725-4f83b8c05346","ios":"levelo://app?vid=a8ad96dc-e0f4-4a3f-9725-4f83b8c05346"},"vehicle_type_id":"4","last_reported":1727456889,"current_range_meters":40000,"station_id":"ce4bhn12rcd13ifvqgqg","pricing_plan_id":"cebpf4jnsgd1na2vs0mg"},{"bike_id":"fd6e197d-3ea4-491e-be63-35531aa72442","system_id":"levelo_inurba_marseille","lat":43.30581,"lon":5.37087,"is_reserved":false,"is_disabled":false,"rental_uris":{"android":"levelo://app?vid=fd6e197d-3ea4-491e-be63-35531aa72442","ios":"levelo://app?vid=fd6e197d-3ea4-491e-be63-35531aa72442"},"vehicle_type_id":"4","last_reported":1727456889,"current_range_meters":9200,"station_id":"","pricing_plan_id":"cebpf4jnsgd1na2vs0mg"},{"bike_id":"0739b01f-3410-477e-b7d9-a99b14579913","system_id":"levelo_inurba_marseille","lat":43.30349,"lon":5.41876,"is_reserved":false,"is_disabled":false,"rental_uris":{"android":"levelo://app?vid=0739b01f-3410-477e-b7d9-a99b14579913","ios":"levelo://app?vid=0739b01f-3410-477e-b7d9-a99b14579913"},"vehicle_type_id":"4","last_reported":1727456889,"current_range_meters":37600,"station_id":"ce4bhop2rcd13ifvqh7g","pricing_plan_id":"cebpf4jnsgd1na2vs0mg"},{"bike_id":"f46a05dd-03d6-4c9a-b521-653fd6faadf2","system_id":"levelo_inurba_marseille","lat":43.27621,"lon":5.36107,"is_reserved":false,"is_disabled":false,"rental_uris":{"android":"levelo://app?vid=f46a05dd-03d6-4c9a-b521-653fd6faadf2","ios":"levelo://app?vid=f46a05dd-03d6-4c9a-b521-653fd6faadf2"},"vehicle_type_id":"4","last_reported":1727456889,"current_range_meters":28800,"station_id":"ce4bgj92rcd13ifvqbe0","pricing_plan_id":"cebpf4jnsgd1na2vs0mg"},{"bike_id":"c40f2b99-ce97-4b03-933a-e2ed32b4fcfc","system_id":"levelo_inurba_marseille","lat":43.31365,"lon":5.38492,"is_reserved":false,"is_disabled":false,"rental_uris":{"android":"levelo://app?vid=c40f2b99-ce97-4b03-933a-e2ed32b4fcfc","ios":"levelo://app?vid=c40f2b99-ce97-4b03-933a-e2ed32b4fcfc"},"vehicle_type_id":"4","last_reported":1727456889,"current_range_meters":36800,"station_id":"ce4bgt92rcd13ifvqcf0","pricing_plan_id":"cebpf4jnsgd1na2vs0mg"},{"bike_id":"39a21b09-2fdc-4dc7-8c16-e12e191b2068","system_id":"levelo_inurba_marseille","lat":43.31087,"lon":5.42431,"is_reserved":false,"is_disabled":false,"rental_uris":{"android":"levelo://app?vid=39a21b09-2fdc-4dc7-8c16-e12e191b2068","ios":"levelo://app?vid=39a21b09-2fdc-4dc7-8c16-e12e191b2068"},"vehicle_type_id":"4","last_reported":1727456889,"current_range_meters":34000,"station_id":"ce4bhp92rcd13ifvqhag","pricing_plan_id":"cebpf4jnsgd1na2vs0mg"},{"bike_id":"e6944f33-199d-4236-8ad7-241285668cf5","system_id":"levelo_inurba_marseille","lat":43.31362,"lon":5.38494,"is_reserved":false,"is_disabled":false,"rental_uris":{"android":"levelo://app?vid=e6944f33-199d-4236-8ad7-241285668cf5","ios":"levelo://app?vid=e6944f33-199d-4236-8ad7-241285668cf5"},"vehicle_type_id":"4","last_reported":1727456889,"current_range_meters":28000,"station_id":"ce4bgt92rcd13ifvqcf0","pricing_plan_id":"cebpf4jnsgd1na2vs0mg"},{"bike_id":"7bf6871c-a92b-4596-9011-8f1d8c229d8e","system_id":"levelo_inurba_marseille","lat":43.25847,"lon":5.38868,"is_reserved":false,"is_disabled":false,"rental_uris":{"android":"levelo://app?vid=7bf6871c-a92b-4596-9011-8f1d8c229d8e","ios":"levelo://app?vid=7bf6871c-a92b-4596-9011-8f1d8c229d8e"},"vehicle_type_id":"4","last_reported":1727456889,"current_range_meters":36400,"station_id":"","pricing_plan_id":"cebpf4jnsgd1na2vs0mg"},{"bike_id":"ef8d02eb-e4e1-4c84-9b55-55124743f80c","system_id":"levelo_inurba_marseille","lat":43.29306,"lon":5.37185,"is_reserved":false,"is_disabled":false,"rental_uris":{"android":"levelo://app?vid=ef8d02eb-e4e1-4c84-9b55-55124743f80c","ios":"levelo://app?vid=ef8d02eb-e4e1-4c84-9b55-55124743f80c"},"vehicle_type_id":"4","last_reported":1727456889,"current_range_meters":36800,"station_id":"ce4bgh92rcd13ifvqb40","pricing_plan_id":"cebpf4jnsgd1na2vs0mg"},{"bike_id":"72454f92-31dd-4d4b-a496-1a5ff820e06b","system_id":"levelo_inurba_marseille","lat":43.2893,"lon":5.38411,"is_reserved":false,"is_disabled":false,"rental_uris":{"android":"levelo://app?vid=72454f92-31dd-4d4b-a496-1a5ff820e06b","ios":"levelo://app?vid=72454f92-31dd-4d4b-a496-1a5ff820e06b"},"vehicle_type_id":"4","last_reported":1727456889,"current_range_meters":6000,"station_id":"ce4bh612rcd13ifvqe6g","pricing_plan_id":"cebpf4jnsgd1na2vs0mg"},{"bike_id":"3c19afbd-bd81-48ca-a6a2-9d7abf181fdb","system_id":"levelo_inurba_marseille","lat":43.23187,"lon":5.40002,"is_reserved":false,"is_disabled":false,"rental_uris":{"android":"levelo://app?vid=3c19afbd-bd81-48ca-a6a2-9d7abf181fdb","ios":"levelo://app?vid=3c19afbd-bd81-48ca-a6a2-9d7abf181fdb"},"vehicle_type_id":"4","last_reported":1727456889,"current_range_meters":39200,"station_id":"ce4bhn12rcd13ifvqgqg","pricing_plan_id":"cebpf4jnsgd1na2vs0mg"},{"bike_id":"9c7f4a53-55b5-4de0-9488-a6525ed9b098","system_id":"levelo_inurba_marseille","lat":43.28097,"lon":5.37837,"is_reserved":false,"is_disabled":false,"rental_uris":{"android":"levelo://app?vid=9c7f4a53-55b5-4de0-9488-a6525ed9b098","ios":"levelo://app?vid=9c7f4a53-55b5-4de0-9488-a6525ed9b098"},"vehicle_type_id":"4","last_reported":1727456889,"current_range_meters":20400,"station_id":"ce4bha12rcd13ifvqee0","pricing_plan_id":"cebpf4jnsgd1na2vs0mg"},{"bike_id":"5308c703-bf00-434a-92aa-f5e1437f3120","system_id":"levelo_inurba_marseille","lat":43.28342,"lon":5.3811,"is_reserved":false,"is_disabled":false,"rental_uris":{"android":"levelo://app?vid=5308c703-bf00-434a-92aa-f5e1437f3120","ios":"levelo://app?vid=5308c703-bf00-434a-92aa-f5e1437f3120"},"vehicle_type_id":"4","last_reported":1727456889,"current_range_meters":6000,"station_id":"ce4bh412rcd13ifvqdr0","pricing_plan_id":"cebpf4jnsgd1na2vs0mg"},{"bike_id":"d1ed1e91-eb05-4577-9029-b19b50724001","system_id":"levelo_inurba_marseille","lat":43.292,"lon":5.3934,"is_reserved":false,"is_disabled":false,"rental_uris":{"android":"levelo://app?vid=d1ed1e91-eb05-4577-9029-b19b50724001","ios":"levelo://app?vid=d1ed1e91-eb05-4577-9029-b19b50724001"},"vehicle_type_id":"4","last_reported":1727456889,"current_range_meters":39200,"station_id":"ce4bh192rcd13ifvqdd0","pricing_plan_id":"cebpf4jnsgd1na2vs0mg"},{"bike_id":"2f300839-6bd0-4827-b7fa-f47b536e49a3","system_id":"levelo_inurba_marseille","lat":43.24801,"lon":5.37458,"is_reserved":false,"is_disabled":false,"rental_uris":{"android":"levelo://app?vid=2f300839-6bd0-4827-b7fa-f47b536e49a3","ios":"levelo://app?vid=2f300839-6bd0-4827-b7fa-f47b536e49a3"},"vehicle_type_id":"4","last_reported":1727456889,"current_range_meters":14800,"station_id":"ce4bhgh2rcd13ifvqfb0","pricing_plan_id":"cebpf4jnsgd1na2vs0mg"},{"bike_id":"bf434dfb-0bfa-408b-b682-1e8e60666ebf","system_id":"levelo_inurba_marseille","lat":43.27493,"lon":5.42447,"is_reserved":false,"is_disabled":false,"rental_uris":{"android":"levelo://app?vid=bf434dfb-0bfa-408b-b682-1e8e60666ebf","ios":"levelo://app?vid=bf434dfb-0bfa-408b-b682-1e8e60666ebf"},"vehicle_type_id":"4","last_reported":1727456889,"current_range_meters":4000,"station_id":"ce4bhn92rcd13ifvqgrg","pricing_plan_id":"cebpf4jnsgd1na2vs0mg"},{"bike_id":"5a1515c2-c4a0-426e-bcdd-5d88297e214e","system_id":"levelo_inurba_marseille","lat":43.29899,"lon":5.43667,"is_reserved":false,"is_disabled":false,"rental_uris":{"android":"levelo://app?vid=5a1515c2-c4a0-426e-bcdd-5d88297e214e","ios":"levelo://app?vid=5a1515c2-c4a0-426e-bcdd-5d88297e214e"},"vehicle_type_id":"4","last_reported":1727456889,"current_range_meters":16800,"station_id":"ce4bhpp2rcd13ifvqhfg","pricing_plan_id":"cebpf4jnsgd1na2vs0mg"},{"bike_id":"cb07f0fe-09ef-4da3-b729-def49a7fb7f8","system_id":"levelo_inurba_marseille","lat":43.23185,"lon":5.39973,"is_reserved":false,"is_disabled":false,"rental_uris":{"android":"levelo://app?vid=cb07f0fe-09ef-4da3-b729-def49a7fb7f8","ios":"levelo://app?vid=cb07f0fe-09ef-4da3-b729-def49a7fb7f8"},"vehicle_type_id":"4","last_reported":1727456889,"current_range_meters":36000,"station_id":"ce4bhn12rcd13ifvqgqg","pricing_plan_id":"cebpf4jnsgd1na2vs0mg"},{"bike_id":"4bb5329c-aad3-4148-a4c2-a960a70ad868","system_id":"levelo_inurba_marseille","lat":43.24805,"lon":5.37458,"is_reserved":false,"is_disabled":false,"rental_uris":{"android":"levelo://app?vid=4bb5329c-aad3-4148-a4c2-a960a70ad868","ios":"levelo://app?vid=4bb5329c-aad3-4148-a4c2-a960a70ad868"},"vehicle_type_id":"4","last_reported":1727456889,"current_range_meters":23200,"station_id":"ce4bhgh2rcd13ifvqfb0","pricing_plan_id":"cebpf4jnsgd1na2vs0mg"},{"bike_id":"72a190a7-8db0-4255-b745-fa85457d91da","system_id":"levelo_inurba_marseille","lat":43.2804,"lon":5.36945,"is_reserved":false,"is_disabled":false,"rental_uris":{"android":"levelo://app?vid=72a190a7-8db0-4255-b745-fa85457d91da","ios":"levelo://app?vid=72a190a7-8db0-4255-b745-fa85457d91da"},"vehicle_type_id":"4","last_reported":1727456889,"current_range_meters":14400,"station_id":"ce4bha12rcd13ifvqef0","pricing_plan_id":"cebpf4jnsgd1na2vs0mg"},{"bike_id":"30e4fba3-4cb4-4722-a4a3-ca13742648f8","system_id":"levelo_inurba_marseille","lat":43.31714,"lon":5.3775,"is_reserved":false,"is_disabled":false,"rental_uris":{"android":"levelo://app?vid=30e4fba3-4cb4-4722-a4a3-ca13742648f8","ios":"levelo://app?vid=30e4fba3-4cb4-4722-a4a3-ca13742648f8"},"vehicle_type_id":"4","last_reported":1727456889,"current_range_meters":13600,"station_id":"ce4bgth2rcd13ifvqch0","pricing_plan_id":"cebpf4jnsgd1na2vs0mg"},{"bike_id":"52bfc623-bea1-4972-a899-bd4f1779b478","system_id":"levelo_inurba_marseille","lat":43.29525,"lon":5.39033,"is_reserved":false,"is_disabled":false,"rental_uris":{"android":"levelo://app?vid=52bfc623-bea1-4972-a899-bd4f1779b478","ios":"levelo://app?vid=52bfc623-bea1-4972-a899-bd4f1779b478"},"vehicle_type_id":"4","last_reported":1727456889,"current_range_meters":6800,"station_id":"ce4bh3p2rcd13ifvqdp0","pricing_plan_id":"cebpf4jnsgd1na2vs0mg"},{"bike_id":"deab055e-d79d-4c85-bc6c-038a345305e9","system_id":"levelo_inurba_marseille","lat":43.22932,"lon":5.35382,"is_reserved":false,"is_disabled":false,"rental_uris":{"android":"levelo://app?vid=deab055e-d79d-4c85-bc6c-038a345305e9","ios":"levelo://app?vid=deab055e-d79d-4c85-bc6c-038a345305e9"},"vehicle_type_id":"4","last_reported":1727456889,"current_range_meters":38800,"station_id":"cpo3532slgdg3j2ikp40","pricing_plan_id":"cebpf4jnsgd1na2vs0mg"},{"bike_id":"e72a458e-3055-4c55-86eb-c1b3f18026bd","system_id":"levelo_inurba_marseille","lat":43.29852,"lon":5.36274,"is_reserved":false,"is_disabled":false,"rental_uris":{"android":"levelo://app?vid=e72a458e-3055-4c55-86eb-c1b3f18026bd","ios":"levelo://app?vid=e72a458e-3055-4c55-86eb-c1b3f18026bd"},"vehicle_type_id":"4","last_reported":1727456889,"current_range_meters":5600,"station_id":"ce4bgpp2rcd13ifvqc3g","pricing_plan_id":"cebpf4jnsgd1na2vs0mg"},{"bike_id":"d38f1cfe-03d8-438f-8feb-aef44ba4c89f","system_id":"levelo_inurba_marseille","lat":43.28941,"lon":5.36395,"is_reserved":false,"is_disabled":false,"rental_uris":{"android":"levelo://app?vid=d38f1cfe-03d8-438f-8feb-aef44ba4c89f","ios":"levelo://app?vid=d38f1cfe-03d8-438f-8feb-aef44ba4c89f"},"vehicle_type_id":"4","last_reported":1727456889,"current_range_meters":40000,"station_id":"ce4bhc92rcd13ifvqetg","pricing_plan_id":"cebpf4jnsgd1na2vs0mg"},{"bike_id":"9f87a577-5a75-4646-afb8-22232ada835e","system_id":"levelo_inurba_marseille","lat":43.26486,"lon":5.39538,"is_reserved":false,"is_disabled":false,"rental_uris":{"android":"levelo://app?vid=9f87a577-5a75-4646-afb8-22232ada835e","ios":"levelo://app?vid=9f87a577-5a75-4646-afb8-22232ada835e"},"vehicle_type_id":"4","last_reported":1727456889,"current_range_meters":34000,"station_id":"ce4bhi12rcd13ifvqfq0","pricing_plan_id":"cebpf4jnsgd1na2vs0mg"},{"bike_id":"cd0c936b-2401-4473-bc62-b25798a672ab","system_id":"levelo_inurba_marseille","lat":43.30096,"lon":5.39084,"is_reserved":false,"is_disabled":false,"rental_uris":{"android":"levelo://app?vid=cd0c936b-2401-4473-bc62-b25798a672ab","ios":"levelo://app?vid=cd0c936b-2401-4473-bc62-b25798a672ab"},"vehicle_type_id":"4","last_reported":1727456889,"current_range_meters":36800,"station_id":"ce4bh192rcd13ifvqdb0","pricing_plan_id":"cebpf4jnsgd1na2vs0mg"},{"bike_id":"5eaaf87a-1668-4cd5-b3a9-f59e1cbcbdbd","system_id":"levelo_inurba_marseille","lat":43.26486,"lon":5.3956,"is_reserved":false,"is_disabled":false,"rental_uris":{"android":"levelo://app?vid=5eaaf87a-1668-4cd5-b3a9-f59e1cbcbdbd","ios":"levelo://app?vid=5eaaf87a-1668-4cd5-b3a9-f59e1cbcbdbd"},"vehicle_type_id":"4","last_reported":1727456889,"current_range_meters":11200,"station_id":"ce4bhi12rcd13ifvqfq0","pricing_plan_id":"cebpf4jnsgd1na2vs0mg"},{"bike_id":"c48c2dcb-beda-4820-8978-83d80fc7aeb4","system_id":"levelo_inurba_marseille","lat":43.281097,"lon":5.378281,"is_reserved":false,"is_disabled":false,"rental_uris":{"android":"levelo://app?vid=c48c2dcb-beda-4820-8978-83d80fc7aeb4","ios":"levelo://app?vid=c48c2dcb-beda-4820-8978-83d80fc7aeb4"},"vehicle_type_id":"4","last_reported":1727456889,"current_range_meters":8400,"station_id":"ce4bha12rcd13ifvqee0","pricing_plan_id":"cebpf4jnsgd1na2vs0mg"},{"bike_id":"84fa4e69-a405-478a-9b10-c96e3fb7af3a","system_id":"levelo_inurba_marseille","lat":43.32334,"lon":5.40621,"is_reserved":false,"is_disabled":false,"rental_uris":{"android":"levelo://app?vid=84fa4e69-a405-478a-9b10-c96e3fb7af3a","ios":"levelo://app?vid=84fa4e69-a405-478a-9b10-c96e3fb7af3a"},"vehicle_type_id":"4","last_reported":1727456889,"current_range_meters":24800,"station_id":"ce4bhq92rcd13ifvqhjg","pricing_plan_id":"cebpf4jnsgd1na2vs0mg"},{"bike_id":"12399fd7-b903-4863-93e4-b5ef635bbf75","system_id":"levelo_inurba_marseille","lat":43.30133,"lon":5.39871,"is_reserved":false,"is_disabled":false,"rental_uris":{"android":"levelo://app?vid=12399fd7-b903-4863-93e4-b5ef635bbf75","ios":"levelo://app?vid=12399fd7-b903-4863-93e4-b5ef635bbf75"},"vehicle_type_id":"4","last_reported":1727456889,"current_range_meters":5600,"station_id":"ce4bh0h2rcd13ifvqd40","pricing_plan_id":"cebpf4jnsgd1na2vs0mg"},{"bike_id":"c48fb40f-13be-4ae6-9130-ce556eeb5aa8","system_id":"levelo_inurba_marseille","lat":43.32111,"lon":5.3678,"is_reserved":false,"is_disabled":false,"rental_uris":{"android":"levelo://app?vid=c48fb40f-13be-4ae6-9130-ce556eeb5aa8","ios":"levelo://app?vid=c48fb40f-13be-4ae6-9130-ce556eeb5aa8"},"vehicle_type_id":"4","last_reported":1727456889,"current_range_meters":33200,"station_id":"ce4bhrh2rcd13ifvqhug","pricing_plan_id":"cebpf4jnsgd1na2vs0mg"},{"bike_id":"92ed948a-9f9a-4968-accc-b2fe3b391b37","system_id":"levelo_inurba_marseille","lat":43.32662,"lon":5.40988,"is_reserved":false,"is_disabled":false,"rental_uris":{"android":"levelo://app?vid=92ed948a-9f9a-4968-accc-b2fe3b391b37","ios":"levelo://app?vid=92ed948a-9f9a-4968-accc-b2fe3b391b37"},"vehicle_type_id":"4","last_reported":1727456889,"current_range_meters":11600,"station_id":"ce4bhpp2rcd13ifvqhgg","pricing_plan_id":"cebpf4jnsgd1na2vs0mg"},{"bike_id":"2a2188ff-bc8e-405e-bf90-8c6cde7c7f6b","system_id":"levelo_inurba_marseille","lat":43.23965,"lon":5.36627,"is_reserved":false,"is_disabled":false,"rental_uris":{"android":"levelo://app?vid=2a2188ff-bc8e-405e-bf90-8c6cde7c7f6b","ios":"levelo://app?vid=2a2188ff-bc8e-405e-bf90-8c6cde7c7f6b"},"vehicle_type_id":"4","last_reported":1727456889,"current_range_meters":8400,"station_id":"ce4bhi12rcd13ifvqfp0","pricing_plan_id":"cebpf4jnsgd1na2vs0mg"},{"bike_id":"a931e921-5072-48f6-9834-137523e355be","system_id":"levelo_inurba_marseille","lat":43.28615,"lon":5.37041,"is_reserved":false,"is_disabled":false,"rental_uris":{"android":"levelo://app?vid=a931e921-5072-48f6-9834-137523e355be","ios":"levelo://app?vid=a931e921-5072-48f6-9834-137523e355be"},"vehicle_type_id":"4","last_reported":1727456889,"current_range_meters":32000,"station_id":"ce4bht12rcd13ifvqi60","pricing_plan_id":"cebpf4jnsgd1na2vs0mg"},{"bike_id":"0ec4d074-35b9-48dd-9b90-3d3a72982ca2","system_id":"levelo_inurba_marseille","lat":43.26037,"lon":5.38204,"is_reserved":false,"is_disabled":false,"rental_uris":{"android":"levelo://app?vid=0ec4d074-35b9-48dd-9b90-3d3a72982ca2","ios":"levelo://app?vid=0ec4d074-35b9-48dd-9b90-3d3a72982ca2"},"vehicle_type_id":"4","last_reported":1727456889,"current_range_meters":31200,"station_id":"","pricing_plan_id":"cebpf4jnsgd1na2vs0mg"},{"bike_id":"7c3bbb39-5fc2-4e59-a68a-2749a080a93c","system_id":"levelo_inurba_marseille","lat":43.31489,"lon":5.37311,"is_reserved":false,"is_disabled":false,"rental_uris":{"android":"levelo://app?vid=7c3bbb39-5fc2-4e59-a68a-2749a080a93c","ios":"levelo://app?vid=7c3bbb39-5fc2-4e59-a68a-2749a080a93c"},"vehicle_type_id":"4","last_reported":1727456889,"current_range_meters":29600,"station_id":"ce4bgt12rcd13ifvqcd0","pricing_plan_id":"cebpf4jnsgd1na2vs0mg"},{"bike_id":"0059512f-bba8-492b-8688-cafa46c495f3","system_id":"levelo_inurba_marseille","lat":43.27973,"lon":5.38733,"is_reserved":false,"is_disabled":false,"rental_uris":{"android":"levelo://app?vid=0059512f-bba8-492b-8688-cafa46c495f3","ios":"levelo://app?vid=0059512f-bba8-492b-8688-cafa46c495f3"},"vehicle_type_id":"4","last_reported":1727456889,"current_range_meters":3600,"station_id":"ce4bhg12rcd13ifvqf80","pricing_plan_id":"cebpf4jnsgd1na2vs0mg"},{"bike_id":"fc73c488-094a-4ac2-ad34-e5d6a2ffb8d2","system_id":"levelo_inurba_marseille","lat":43.33022,"lon":5.39044,"is_reserved":false,"is_disabled":false,"rental_uris":{"android":"levelo://app?vid=fc73c488-094a-4ac2-ad34-e5d6a2ffb8d2","ios":"levelo://app?vid=fc73c488-094a-4ac2-ad34-e5d6a2ffb8d2"},"vehicle_type_id":"4","last_reported":1727456889,"current_range_meters":9200,"station_id":"ce4bhr92rcd13ifvqhrg","pricing_plan_id":"cebpf4jnsgd1na2vs0mg"},{"bike_id":"36934267-e515-40cf-b4e1-ca4e226cadf5","system_id":"levelo_inurba_marseille","lat":43.248092,"lon":5.374576,"is_reserved":false,"is_disabled":false,"rental_uris":{"android":"levelo://app?vid=36934267-e515-40cf-b4e1-ca4e226cadf5","ios":"levelo://app?vid=36934267-e515-40cf-b4e1-ca4e226cadf5"},"vehicle_type_id":"4","last_reported":1727456889,"current_range_meters":3200,"station_id":"ce4bhgh2rcd13ifvqfb0","pricing_plan_id":"cebpf4jnsgd1na2vs0mg"},{"bike_id":"96f29bb8-4483-4758-be0b-cc53607d3752","system_id":"levelo_inurba_marseille","lat":43.31688,"lon":5.4048,"is_reserved":false,"is_disabled":false,"rental_uris":{"android":"levelo://app?vid=96f29bb8-4483-4758-be0b-cc53607d3752","ios":"levelo://app?vid=96f29bb8-4483-4758-be0b-cc53607d3752"},"vehicle_type_id":"4","last_reported":1727456889,"current_range_meters":24000,"station_id":"ce4bh012rcd13ifvqd00","pricing_plan_id":"cebpf4jnsgd1na2vs0mg"},{"bike_id":"8a3daa52-5cf0-4c36-bff1-fe6a90c1e5ed","system_id":"levelo_inurba_marseille","lat":43.29802,"lon":5.38096,"is_reserved":false,"is_disabled":false,"rental_uris":{"android":"levelo://app?vid=8a3daa52-5cf0-4c36-bff1-fe6a90c1e5ed","ios":"levelo://app?vid=8a3daa52-5cf0-4c36-bff1-fe6a90c1e5ed"},"vehicle_type_id":"4","last_reported":1727456889,"current_range_meters":3200,"station_id":"ce4bgip2rcd13ifvqbb0","pricing_plan_id":"cebpf4jnsgd1na2vs0mg"},{"bike_id":"58760f7d-f06e-4ced-bcdc-4b4450584b1d","system_id":"levelo_inurba_marseille","lat":43.27567,"lon":5.38422,"is_reserved":false,"is_disabled":false,"rental_uris":{"android":"levelo://app?vid=58760f7d-f06e-4ced-bcdc-4b4450584b1d","ios":"levelo://app?vid=58760f7d-f06e-4ced-bcdc-4b4450584b1d"},"vehicle_type_id":"4","last_reported":1727456889,"current_range_meters":9200,"station_id":"ce4bhh92rcd13ifvqfi0","pricing_plan_id":"cebpf4jnsgd1na2vs0mg"},{"bike_id":"60994d7a-deb8-490b-92e0-70e4c3fb2b0b","system_id":"levelo_inurba_marseille","lat":43.28942,"lon":5.36628,"is_reserved":false,"is_disabled":false,"rental_uris":{"android":"levelo://app?vid=60994d7a-deb8-490b-92e0-70e4c3fb2b0b","ios":"levelo://app?vid=60994d7a-deb8-490b-92e0-70e4c3fb2b0b"},"vehicle_type_id":"4","last_reported":1727456889,"current_range_meters":4400,"station_id":"ce4bhap2rcd13ifvqek0","pricing_plan_id":"cebpf4jnsgd1na2vs0mg"},{"bike_id":"901f8914-87ae-4a3d-8f4a-a46dd5c06f69","system_id":"levelo_inurba_marseille","lat":43.26029,"lon":5.3755,"is_reserved":false,"is_disabled":false,"rental_uris":{"android":"levelo://app?vid=901f8914-87ae-4a3d-8f4a-a46dd5c06f69","ios":"levelo://app?vid=901f8914-87ae-4a3d-8f4a-a46dd5c06f69"},"vehicle_type_id":"4","last_reported":1727456889,"current_range_meters":9200,"station_id":"ce4bhgh2rcd13ifvqfa0","pricing_plan_id":"cebpf4jnsgd1na2vs0mg"},{"bike_id":"613129f8-2639-4f91-a258-3f64bf011efa","system_id":"levelo_inurba_marseille","lat":43.23184,"lon":5.39983,"is_reserved":false,"is_disabled":false,"rental_uris":{"android":"levelo://app?vid=613129f8-2639-4f91-a258-3f64bf011efa","ios":"levelo://app?vid=613129f8-2639-4f91-a258-3f64bf011efa"},"vehicle_type_id":"4","last_reported":1727456889,"current_range_meters":24400,"station_id":"ce4bhn12rcd13ifvqgqg","pricing_plan_id":"cebpf4jnsgd1na2vs0mg"},{"bike_id":"304b29c1-f9bf-4894-a3e0-536fc248aa96","system_id":"levelo_inurba_marseille","lat":43.27621,"lon":5.36109,"is_reserved":false,"is_disabled":false,"rental_uris":{"android":"levelo://app?vid=304b29c1-f9bf-4894-a3e0-536fc248aa96","ios":"levelo://app?vid=304b29c1-f9bf-4894-a3e0-536fc248aa96"},"vehicle_type_id":"4","last_reported":1727456889,"current_range_meters":17600,"station_id":"ce4bgj92rcd13ifvqbe0","pricing_plan_id":"cebpf4jnsgd1na2vs0mg"},{"bike_id":"fb1003bc-5711-4963-b3f7-5a5b3130241b","system_id":"levelo_inurba_marseille","lat":43.289978,"lon":5.355846,"is_reserved":false,"is_disabled":false,"rental_uris":{"android":"levelo://app?vid=fb1003bc-5711-4963-b3f7-5a5b3130241b","ios":"levelo://app?vid=fb1003bc-5711-4963-b3f7-5a5b3130241b"},"vehicle_type_id":"4","last_reported":1727456889,"current_range_meters":12000,"station_id":"ce4bhb92rcd13ifvqen0","pricing_plan_id":"cebpf4jnsgd1na2vs0mg"},{"bike_id":"9b7aa9b0-9ff5-4191-936c-602db4c129ee","system_id":"levelo_inurba_marseille","lat":43.24648,"lon":5.38903,"is_reserved":false,"is_disabled":false,"rental_uris":{"android":"levelo://app?vid=9b7aa9b0-9ff5-4191-936c-602db4c129ee","ios":"levelo://app?vid=9b7aa9b0-9ff5-4191-936c-602db4c129ee"},"vehicle_type_id":"4","last_reported":1727456889,"current_range_meters":30000,"station_id":"ce4bhg12rcd13ifvqf60","pricing_plan_id":"cebpf4jnsgd1na2vs0mg"},{"bike_id":"849f9201-c2b0-4ad8-9a21-4a1f62920789","system_id":"levelo_inurba_marseille","lat":43.31998,"lon":5.38159,"is_reserved":false,"is_disabled":false,"rental_uris":{"android":"levelo://app?vid=849f9201-c2b0-4ad8-9a21-4a1f62920789","ios":"levelo://app?vid=849f9201-c2b0-4ad8-9a21-4a1f62920789"},"vehicle_type_id":"4","last_reported":1727456889,"current_range_meters":38800,"station_id":"ce4bhr12rcd13ifvqhpg","pricing_plan_id":"cebpf4jnsgd1na2vs0mg"},{"bike_id":"7569c9b7-90e1-43a7-93b4-a1574f0222ce","system_id":"levelo_inurba_marseille","lat":43.33023,"lon":5.39039,"is_reserved":false,"is_disabled":false,"rental_uris":{"android":"levelo://app?vid=7569c9b7-90e1-43a7-93b4-a1574f0222ce","ios":"levelo://app?vid=7569c9b7-90e1-43a7-93b4-a1574f0222ce"},"vehicle_type_id":"4","last_reported":1727456889,"current_range_meters":28400,"station_id":"ce4bhr92rcd13ifvqhrg","pricing_plan_id":"cebpf4jnsgd1na2vs0mg"},{"bike_id":"2d2ae96d-a443-4461-bbbe-25dc3f2ae75b","system_id":"levelo_inurba_marseille","lat":43.29973,"lon":5.37181,"is_reserved":false,"is_disabled":false,"rental_uris":{"android":"levelo://app?vid=2d2ae96d-a443-4461-bbbe-25dc3f2ae75b","ios":"levelo://app?vid=2d2ae96d-a443-4461-bbbe-25dc3f2ae75b"},"vehicle_type_id":"4","last_reported":1727456889,"current_range_meters":11200,"station_id":"ce4bgr92rcd13ifvqc7g","pricing_plan_id":"cebpf4jnsgd1na2vs0mg"},{"bike_id":"a1b1d9c8-2d85-4c15-b0d0-071307f906a3","system_id":"levelo_inurba_marseille","lat":43.2871,"lon":5.37943,"is_reserved":false,"is_disabled":false,"rental_uris":{"android":"levelo://app?vid=a1b1d9c8-2d85-4c15-b0d0-071307f906a3","ios":"levelo://app?vid=a1b1d9c8-2d85-4c15-b0d0-071307f906a3"},"vehicle_type_id":"4","last_reported":1727456889,"current_range_meters":32400,"station_id":"ce4bh9p2rcd13ifvqec0","pricing_plan_id":"cebpf4jnsgd1na2vs0mg"},{"bike_id":"6ff68b66-a415-43f0-916f-b40abea072c0","system_id":"levelo_inurba_marseille","lat":43.26565,"lon":5.39007,"is_reserved":false,"is_disabled":false,"rental_uris":{"android":"levelo://app?vid=6ff68b66-a415-43f0-916f-b40abea072c0","ios":"levelo://app?vid=6ff68b66-a415-43f0-916f-b40abea072c0"},"vehicle_type_id":"4","last_reported":1727456889,"current_range_meters":6800,"station_id":"ce4bhe12rcd13ifvqf30","pricing_plan_id":"cebpf4jnsgd1na2vs0mg"},{"bike_id":"8bb8954e-c7de-41b7-b956-faabb238d9a7","system_id":"levelo_inurba_marseille","lat":43.310687,"lon":5.383643,"is_reserved":false,"is_disabled":false,"rental_uris":{"android":"levelo://app?vid=8bb8954e-c7de-41b7-b956-faabb238d9a7","ios":"levelo://app?vid=8bb8954e-c7de-41b7-b956-faabb238d9a7"},"vehicle_type_id":"4","last_reported":1727456889,"current_range_meters":35600,"station_id":"","pricing_plan_id":"cebpf4jnsgd1na2vs0mg"},{"bike_id":"7b9f8371-1b86-4eec-ba02-e0a8bc3f0345","system_id":"levelo_inurba_marseille","lat":43.26815,"lon":5.41107,"is_reserved":false,"is_disabled":false,"rental_uris":{"android":"levelo://app?vid=7b9f8371-1b86-4eec-ba02-e0a8bc3f0345","ios":"levelo://app?vid=7b9f8371-1b86-4eec-ba02-e0a8bc3f0345"},"vehicle_type_id":"4","last_reported":1727456889,"current_range_meters":33600,"station_id":"","pricing_plan_id":"cebpf4jnsgd1na2vs0mg"},{"bike_id":"6a933486-1d09-4cb5-a518-c952cd21f8be","system_id":"levelo_inurba_marseille","lat":43.258672,"lon":5.398934,"is_reserved":false,"is_disabled":false,"rental_uris":{"android":"levelo://app?vid=6a933486-1d09-4cb5-a518-c952cd21f8be","ios":"levelo://app?vid=6a933486-1d09-4cb5-a518-c952cd21f8be"},"vehicle_type_id":"4","last_reported":1727456889,"current_range_meters":24800,"station_id":"ce4bhl12rcd13ifvqgf0","pricing_plan_id":"cebpf4jnsgd1na2vs0mg"},{"bike_id":"ed8de8a3-64d0-4ceb-8b22-5bd45456f644","system_id":"levelo_inurba_marseille","lat":43.26942,"lon":5.38632,"is_reserved":false,"is_disabled":false,"rental_uris":{"android":"levelo://app?vid=ed8de8a3-64d0-4ceb-8b22-5bd45456f644","ios":"levelo://app?vid=ed8de8a3-64d0-4ceb-8b22-5bd45456f644"},"vehicle_type_id":"4","last_reported":1727456889,"current_range_meters":37600,"station_id":"ce4bhh92rcd13ifvqfh0","pricing_plan_id":"cebpf4jnsgd1na2vs0mg"},{"bike_id":"c2400895-e64e-4fc1-9d07-66884a25f162","system_id":"levelo_inurba_marseille","lat":43.26918,"lon":5.38834,"is_reserved":false,"is_disabled":false,"rental_uris":{"android":"levelo://app?vid=c2400895-e64e-4fc1-9d07-66884a25f162","ios":"levelo://app?vid=c2400895-e64e-4fc1-9d07-66884a25f162"},"vehicle_type_id":"4","last_reported":1727456889,"current_range_meters":4400,"station_id":"ce4bh692rcd13ifvqea0","pricing_plan_id":"cebpf4jnsgd1na2vs0mg"},{"bike_id":"5e6ae0fa-e82e-4924-ba08-83c9a2b4a699","system_id":"levelo_inurba_marseille","lat":43.25889,"lon":5.38579,"is_reserved":false,"is_disabled":false,"rental_uris":{"android":"levelo://app?vid=5e6ae0fa-e82e-4924-ba08-83c9a2b4a699","ios":"levelo://app?vid=5e6ae0fa-e82e-4924-ba08-83c9a2b4a699"},"vehicle_type_id":"4","last_reported":1727456889,"current_range_meters":30800,"station_id":"","pricing_plan_id":"cebpf4jnsgd1na2vs0mg"},{"bike_id":"7f0bfa97-8563-4caa-8fe1-de4bf16f8d01","system_id":"levelo_inurba_marseille","lat":43.24167,"lon":5.39748,"is_reserved":false,"is_disabled":false,"rental_uris":{"android":"levelo://app?vid=7f0bfa97-8563-4caa-8fe1-de4bf16f8d01","ios":"levelo://app?vid=7f0bfa97-8563-4caa-8fe1-de4bf16f8d01"},"vehicle_type_id":"4","last_reported":1727456889,"current_range_meters":37600,"station_id":"ce4bhn12rcd13ifvqgpg","pricing_plan_id":"cebpf4jnsgd1na2vs0mg"},{"bike_id":"b2f99552-9ca3-4cb8-a713-eb78660f0592","system_id":"levelo_inurba_marseille","lat":43.25113,"lon":5.40317,"is_reserved":false,"is_disabled":false,"rental_uris":{"android":"levelo://app?vid=b2f99552-9ca3-4cb8-a713-eb78660f0592","ios":"levelo://app?vid=b2f99552-9ca3-4cb8-a713-eb78660f0592"},"vehicle_type_id":"4","last_reported":1727456889,"current_range_meters":2000,"station_id":"ce4bhlh2rcd13ifvqgig","pricing_plan_id":"cebpf4jnsgd1na2vs0mg"},{"bike_id":"93d0d015-02c4-4dc3-818c-a1bcd80a780b","system_id":"levelo_inurba_marseille","lat":43.27182,"lon":5.41002,"is_reserved":false,"is_disabled":false,"rental_uris":{"android":"levelo://app?vid=93d0d015-02c4-4dc3-818c-a1bcd80a780b","ios":"levelo://app?vid=93d0d015-02c4-4dc3-818c-a1bcd80a780b"},"vehicle_type_id":"4","last_reported":1727456889,"current_range_meters":24400,"station_id":"ce4bhl12rcd13ifvqgf0","pricing_plan_id":"cebpf4jnsgd1na2vs0mg"},{"bike_id":"0221e915-71a8-4e8a-b097-c689afc63a67","system_id":"levelo_inurba_marseille","lat":43.30806,"lon":5.38151,"is_reserved":false,"is_disabled":false,"rental_uris":{"android":"levelo://app?vid=0221e915-71a8-4e8a-b097-c689afc63a67","ios":"levelo://app?vid=0221e915-71a8-4e8a-b097-c689afc63a67"},"vehicle_type_id":"4","last_reported":1727456889,"current_range_meters":5600,"station_id":"ce4bgt12rcd13ifvqce0","pricing_plan_id":"cebpf4jnsgd1na2vs0mg"},{"bike_id":"ebc6f08e-5704-4084-9fc5-3889df0e52d3","system_id":"levelo_inurba_marseille","lat":43.30145,"lon":5.37419,"is_reserved":false,"is_disabled":false,"rental_uris":{"android":"levelo://app?vid=ebc6f08e-5704-4084-9fc5-3889df0e52d3","ios":"levelo://app?vid=ebc6f08e-5704-4084-9fc5-3889df0e52d3"},"vehicle_type_id":"4","last_reported":1727456889,"current_range_meters":9600,"station_id":"ce4bgs92rcd13ifvqcc0","pricing_plan_id":"cebpf4jnsgd1na2vs0mg"},{"bike_id":"1ebcd44d-d2d2-4670-82e8-6e603d66d27b","system_id":"levelo_inurba_marseille","lat":43.306366,"lon":5.401034,"is_reserved":false,"is_disabled":false,"rental_uris":{"android":"levelo://app?vid=1ebcd44d-d2d2-4670-82e8-6e603d66d27b","ios":"levelo://app?vid=1ebcd44d-d2d2-4670-82e8-6e603d66d27b"},"vehicle_type_id":"4","last_reported":1727456889,"current_range_meters":3200,"station_id":"ce4bh112rcd13ifvqda0","pricing_plan_id":"cebpf4jnsgd1na2vs0mg"},{"bike_id":"27eff856-06b2-4c05-bc94-3b830d8eae4a","system_id":"levelo_inurba_marseille","lat":43.23184,"lon":5.39994,"is_reserved":false,"is_disabled":false,"rental_uris":{"android":"levelo://app?vid=27eff856-06b2-4c05-bc94-3b830d8eae4a","ios":"levelo://app?vid=27eff856-06b2-4c05-bc94-3b830d8eae4a"},"vehicle_type_id":"4","last_reported":1727456889,"current_range_meters":33600,"station_id":"ce4bhn12rcd13ifvqgqg","pricing_plan_id":"cebpf4jnsgd1na2vs0mg"},{"bike_id":"18353e66-49a2-4834-97d8-927341d3cfa1","system_id":"levelo_inurba_marseille","lat":43.308807,"lon":5.371989,"is_reserved":false,"is_disabled":false,"rental_uris":{"android":"levelo://app?vid=18353e66-49a2-4834-97d8-927341d3cfa1","ios":"levelo://app?vid=18353e66-49a2-4834-97d8-927341d3cfa1"},"vehicle_type_id":"4","last_reported":1727456889,"current_range_meters":15200,"station_id":"ce4bguh2rcd13ifvqckg","pricing_plan_id":"cebpf4jnsgd1na2vs0mg"},{"bike_id":"b03d14fd-cf59-428a-b5b3-ce2a8c11594f","system_id":"levelo_inurba_marseille","lat":43.28666,"lon":5.3868,"is_reserved":false,"is_disabled":false,"rental_uris":{"android":"levelo://app?vid=b03d14fd-cf59-428a-b5b3-ce2a8c11594f","ios":"levelo://app?vid=b03d14fd-cf59-428a-b5b3-ce2a8c11594f"},"vehicle_type_id":"4","last_reported":1727456889,"current_range_meters":3200,"station_id":"ce4bh492rcd13ifvqdug","pricing_plan_id":"cebpf4jnsgd1na2vs0mg"},{"bike_id":"7661bc2f-970e-419d-b4e1-fc2f9c5868c0","system_id":"levelo_inurba_marseille","lat":43.27455,"lon":5.41495,"is_reserved":false,"is_disabled":false,"rental_uris":{"android":"levelo://app?vid=7661bc2f-970e-419d-b4e1-fc2f9c5868c0","ios":"levelo://app?vid=7661bc2f-970e-419d-b4e1-fc2f9c5868c0"},"vehicle_type_id":"4","last_reported":1727456889,"current_range_meters":36800,"station_id":"ce4bhl12rcd13ifvqgf0","pricing_plan_id":"cebpf4jnsgd1na2vs0mg"},{"bike_id":"e10cb047-aad1-4154-8667-bd835796067d","system_id":"levelo_inurba_marseille","lat":43.28701,"lon":5.37387,"is_reserved":false,"is_disabled":false,"rental_uris":{"android":"levelo://app?vid=e10cb047-aad1-4154-8667-bd835796067d","ios":"levelo://app?vid=e10cb047-aad1-4154-8667-bd835796067d"},"vehicle_type_id":"4","last_reported":1727456889,"current_range_meters":14000,"station_id":"ce4bhap2rcd13ifvqek0","pricing_plan_id":"cebpf4jnsgd1na2vs0mg"},{"bike_id":"c33de7b0-a085-42f3-8a61-86af10fc61f5","system_id":"levelo_inurba_marseille","lat":43.31068,"lon":5.38357,"is_reserved":false,"is_disabled":false,"rental_uris":{"android":"levelo://app?vid=c33de7b0-a085-42f3-8a61-86af10fc61f5","ios":"levelo://app?vid=c33de7b0-a085-42f3-8a61-86af10fc61f5"},"vehicle_type_id":"4","last_reported":1727456889,"current_range_meters":23200,"station_id":"ce4bgv92rcd13ifvqcr0","pricing_plan_id":"cebpf4jnsgd1na2vs0mg"},{"bike_id":"f402bee5-7020-48e2-b0ab-2678a6003210","system_id":"levelo_inurba_marseille","lat":43.3211,"lon":5.3678,"is_reserved":false,"is_disabled":false,"rental_uris":{"android":"levelo://app?vid=f402bee5-7020-48e2-b0ab-2678a6003210","ios":"levelo://app?vid=f402bee5-7020-48e2-b0ab-2678a6003210"},"vehicle_type_id":"4","last_reported":1727456889,"current_range_meters":33600,"station_id":"ce4bhrh2rcd13ifvqhug","pricing_plan_id":"cebpf4jnsgd1na2vs0mg"},{"bike_id":"07f459f2-7cf6-4cee-88b5-223eb7471918","system_id":"levelo_inurba_marseille","lat":43.26202,"lon":5.37927,"is_reserved":false,"is_disabled":false,"rental_uris":{"android":"levelo://app?vid=07f459f2-7cf6-4cee-88b5-223eb7471918","ios":"levelo://app?vid=07f459f2-7cf6-4cee-88b5-223eb7471918"},"vehicle_type_id":"4","last_reported":1727456889,"current_range_meters":16400,"station_id":"ce4bhjp2rcd13ifvqg90","pricing_plan_id":"cebpf4jnsgd1na2vs0mg"},{"bike_id":"c66d8846-00b7-4156-8f75-095bbde3ae99","system_id":"levelo_inurba_marseille","lat":43.267792,"lon":5.394156,"is_reserved":false,"is_disabled":false,"rental_uris":{"android":"levelo://app?vid=c66d8846-00b7-4156-8f75-095bbde3ae99","ios":"levelo://app?vid=c66d8846-00b7-4156-8f75-095bbde3ae99"},"vehicle_type_id":"4","last_reported":1727456889,"current_range_meters":3200,"station_id":"ce4bhh12rcd13ifvqfg0","pricing_plan_id":"cebpf4jnsgd1na2vs0mg"},{"bike_id":"7c97c9d1-cdfa-4e0e-b11a-92d37b249995","system_id":"levelo_inurba_marseille","lat":43.24652,"lon":5.38895,"is_reserved":false,"is_disabled":false,"rental_uris":{"android":"levelo://app?vid=7c97c9d1-cdfa-4e0e-b11a-92d37b249995","ios":"levelo://app?vid=7c97c9d1-cdfa-4e0e-b11a-92d37b249995"},"vehicle_type_id":"4","last_reported":1727456889,"current_range_meters":10000,"station_id":"ce4bhg12rcd13ifvqf60","pricing_plan_id":"cebpf4jnsgd1na2vs0mg"},{"bike_id":"f6c3e666-edff-4e7f-85ae-7186bb1cdf1e","system_id":"levelo_inurba_marseille","lat":43.29008,"lon":5.35607,"is_reserved":false,"is_disabled":false,"rental_uris":{"android":"levelo://app?vid=f6c3e666-edff-4e7f-85ae-7186bb1cdf1e","ios":"levelo://app?vid=f6c3e666-edff-4e7f-85ae-7186bb1cdf1e"},"vehicle_type_id":"4","last_reported":1727456889,"current_range_meters":16400,"station_id":"ce4bhb92rcd13ifvqen0","pricing_plan_id":"cebpf4jnsgd1na2vs0mg"},{"bike_id":"1d28285d-fa17-4ead-8e77-5bb1bde7a35f","system_id":"levelo_inurba_marseille","lat":43.25573,"lon":5.38248,"is_reserved":false,"is_disabled":false,"rental_uris":{"android":"levelo://app?vid=1d28285d-fa17-4ead-8e77-5bb1bde7a35f","ios":"levelo://app?vid=1d28285d-fa17-4ead-8e77-5bb1bde7a35f"},"vehicle_type_id":"4","last_reported":1727456889,"current_range_meters":25600,"station_id":"ce4bhih2rcd13ifvqfs0","pricing_plan_id":"cebpf4jnsgd1na2vs0mg"},{"bike_id":"27d80972-b28c-4f1d-990b-c33d831eaab5","system_id":"levelo_inurba_marseille","lat":43.29003,"lon":5.37274,"is_reserved":false,"is_disabled":false,"rental_uris":{"android":"levelo://app?vid=27d80972-b28c-4f1d-990b-c33d831eaab5","ios":"levelo://app?vid=27d80972-b28c-4f1d-990b-c33d831eaab5"},"vehicle_type_id":"4","last_reported":1727456889,"current_range_meters":22400,"station_id":"ce4bhap2rcd13ifvqek0","pricing_plan_id":"cebpf4jnsgd1na2vs0mg"},{"bike_id":"6b5c9dd8-0501-461c-a3b6-922a95d08479","system_id":"levelo_inurba_marseille","lat":43.22932,"lon":5.35383,"is_reserved":false,"is_disabled":false,"rental_uris":{"android":"levelo://app?vid=6b5c9dd8-0501-461c-a3b6-922a95d08479","ios":"levelo://app?vid=6b5c9dd8-0501-461c-a3b6-922a95d08479"},"vehicle_type_id":"4","last_reported":1727456889,"current_range_meters":12400,"station_id":"cpo3532slgdg3j2ikp40","pricing_plan_id":"cebpf4jnsgd1na2vs0mg"},{"bike_id":"fdea911c-4247-474a-9853-0ddd9f45ca4d","system_id":"levelo_inurba_marseille","lat":43.31122,"lon":5.38346,"is_reserved":false,"is_disabled":false,"rental_uris":{"android":"levelo://app?vid=fdea911c-4247-474a-9853-0ddd9f45ca4d","ios":"levelo://app?vid=fdea911c-4247-474a-9853-0ddd9f45ca4d"},"vehicle_type_id":"4","last_reported":1727456889,"current_range_meters":32000,"station_id":"ce4bgv92rcd13ifvqcr0","pricing_plan_id":"cebpf4jnsgd1na2vs0mg"},{"bike_id":"d952f8a4-08f1-4737-832e-cfeef70114c0","system_id":"levelo_inurba_marseille","lat":43.28265,"lon":5.35064,"is_reserved":false,"is_disabled":false,"rental_uris":{"android":"levelo://app?vid=d952f8a4-08f1-4737-832e-cfeef70114c0","ios":"levelo://app?vid=d952f8a4-08f1-4737-832e-cfeef70114c0"},"vehicle_type_id":"4","last_reported":1727456889,"current_range_meters":6800,"station_id":"ce4bh092rcd13ifvqd20","pricing_plan_id":"cebpf4jnsgd1na2vs0mg"},{"bike_id":"e2267798-290e-411b-a5f7-360537e49d96","system_id":"levelo_inurba_marseille","lat":43.24177,"lon":5.39731,"is_reserved":false,"is_disabled":false,"rental_uris":{"android":"levelo://app?vid=e2267798-290e-411b-a5f7-360537e49d96","ios":"levelo://app?vid=e2267798-290e-411b-a5f7-360537e49d96"},"vehicle_type_id":"4","last_reported":1727456889,"current_range_meters":36400,"station_id":"ce4bhn12rcd13ifvqgpg","pricing_plan_id":"cebpf4jnsgd1na2vs0mg"},{"bike_id":"5e637f81-3a2c-4d0e-bcbc-6f50cc640aad","system_id":"levelo_inurba_marseille","lat":43.31483,"lon":5.37309,"is_reserved":false,"is_disabled":false,"rental_uris":{"android":"levelo://app?vid=5e637f81-3a2c-4d0e-bcbc-6f50cc640aad","ios":"levelo://app?vid=5e637f81-3a2c-4d0e-bcbc-6f50cc640aad"},"vehicle_type_id":"4","last_reported":1727456889,"current_range_meters":4800,"station_id":"ce4bgt12rcd13ifvqcd0","pricing_plan_id":"cebpf4jnsgd1na2vs0mg"},{"bike_id":"f185232e-ed1e-4d7d-800e-ffa4a977ce1a","system_id":"levelo_inurba_marseille","lat":43.28153,"lon":5.42644,"is_reserved":false,"is_disabled":false,"rental_uris":{"android":"levelo://app?vid=f185232e-ed1e-4d7d-800e-ffa4a977ce1a","ios":"levelo://app?vid=f185232e-ed1e-4d7d-800e-ffa4a977ce1a"},"vehicle_type_id":"4","last_reported":1727456889,"current_range_meters":2000,"station_id":"ce4bhnh2rcd13ifvqgug","pricing_plan_id":"cebpf4jnsgd1na2vs0mg"},{"bike_id":"c7c6cee9-df63-4ac3-9717-d53b1b49e582","system_id":"levelo_inurba_marseille","lat":43.27371,"lon":5.36258,"is_reserved":false,"is_disabled":false,"rental_uris":{"android":"levelo://app?vid=c7c6cee9-df63-4ac3-9717-d53b1b49e582","ios":"levelo://app?vid=c7c6cee9-df63-4ac3-9717-d53b1b49e582"},"vehicle_type_id":"4","last_reported":1727456889,"current_range_meters":3600,"station_id":"ce4bhbh2rcd13ifvqeo0","pricing_plan_id":"cebpf4jnsgd1na2vs0mg"},{"bike_id":"34a5053b-5476-4c20-bd32-9e40e95f2c51","system_id":"levelo_inurba_marseille","lat":43.31118,"lon":5.37784,"is_reserved":false,"is_disabled":false,"rental_uris":{"android":"levelo://app?vid=34a5053b-5476-4c20-bd32-9e40e95f2c51","ios":"levelo://app?vid=34a5053b-5476-4c20-bd32-9e40e95f2c51"},"vehicle_type_id":"4","last_reported":1727456889,"current_range_meters":6800,"station_id":"ce4bgt92rcd13ifvqcg0","pricing_plan_id":"cebpf4jnsgd1na2vs0mg"},{"bike_id":"aa05cdc4-8699-41a6-ad70-36b9cc155e37","system_id":"levelo_inurba_marseille","lat":43.32291,"lon":5.38279,"is_reserved":false,"is_disabled":false,"rental_uris":{"android":"levelo://app?vid=aa05cdc4-8699-41a6-ad70-36b9cc155e37","ios":"levelo://app?vid=aa05cdc4-8699-41a6-ad70-36b9cc155e37"},"vehicle_type_id":"4","last_reported":1727456889,"current_range_meters":16800,"station_id":"ce4bhr12rcd13ifvqhqg","pricing_plan_id":"cebpf4jnsgd1na2vs0mg"},{"bike_id":"3b77e97e-7317-4d58-9944-33b3e82f1830","system_id":"levelo_inurba_marseille","lat":43.29296,"lon":5.3747,"is_reserved":false,"is_disabled":false,"rental_uris":{"android":"levelo://app?vid=3b77e97e-7317-4d58-9944-33b3e82f1830","ios":"levelo://app?vid=3b77e97e-7317-4d58-9944-33b3e82f1830"},"vehicle_type_id":"4","last_reported":1727456889,"current_range_meters":20800,"station_id":"ce4bgi12rcd13ifvqb70","pricing_plan_id":"cebpf4jnsgd1na2vs0mg"},{"bike_id":"639a2b85-223c-4779-96d9-92c440c6e7b6","system_id":"levelo_inurba_marseille","lat":43.28925,"lon":5.38399,"is_reserved":false,"is_disabled":false,"rental_uris":{"android":"levelo://app?vid=639a2b85-223c-4779-96d9-92c440c6e7b6","ios":"levelo://app?vid=639a2b85-223c-4779-96d9-92c440c6e7b6"},"vehicle_type_id":"4","last_reported":1727456889,"current_range_meters":4400,"station_id":"ce4bh612rcd13ifvqe6g","pricing_plan_id":"cebpf4jnsgd1na2vs0mg"},{"bike_id":"2185362e-8330-4527-8ed8-f603c105c002","system_id":"levelo_inurba_marseille","lat":43.3136,"lon":5.38491,"is_reserved":false,"is_disabled":false,"rental_uris":{"android":"levelo://app?vid=2185362e-8330-4527-8ed8-f603c105c002","ios":"levelo://app?vid=2185362e-8330-4527-8ed8-f603c105c002"},"vehicle_type_id":"4","last_reported":1727456889,"current_range_meters":28800,"station_id":"ce4bgt92rcd13ifvqcf0","pricing_plan_id":"cebpf4jnsgd1na2vs0mg"},{"bike_id":"e14f7cac-e818-43cf-abbf-021b28e096f5","system_id":"levelo_inurba_marseille","lat":43.2971,"lon":5.36609,"is_reserved":false,"is_disabled":false,"rental_uris":{"android":"levelo://app?vid=e14f7cac-e818-43cf-abbf-021b28e096f5","ios":"levelo://app?vid=e14f7cac-e818-43cf-abbf-021b28e096f5"},"vehicle_type_id":"4","last_reported":1727456889,"current_range_meters":38000,"station_id":"ce4bgn12rcd13ifvqbt0","pricing_plan_id":"cebpf4jnsgd1na2vs0mg"},{"bike_id":"ba26480b-72a1-4588-8e29-d48f5b7050c0","system_id":"levelo_inurba_marseille","lat":43.31359,"lon":5.38498,"is_reserved":false,"is_disabled":false,"rental_uris":{"android":"levelo://app?vid=ba26480b-72a1-4588-8e29-d48f5b7050c0","ios":"levelo://app?vid=ba26480b-72a1-4588-8e29-d48f5b7050c0"},"vehicle_type_id":"4","last_reported":1727456889,"current_range_meters":8400,"station_id":"ce4bgt92rcd13ifvqcf0","pricing_plan_id":"cebpf4jnsgd1na2vs0mg"},{"bike_id":"dd12c3b9-8469-4eb1-96eb-8cbabd53f85e","system_id":"levelo_inurba_marseille","lat":43.23189,"lon":5.39986,"is_reserved":false,"is_disabled":false,"rental_uris":{"android":"levelo://app?vid=dd12c3b9-8469-4eb1-96eb-8cbabd53f85e","ios":"levelo://app?vid=dd12c3b9-8469-4eb1-96eb-8cbabd53f85e"},"vehicle_type_id":"4","last_reported":1727456889,"current_range_meters":39200,"station_id":"ce4bhn12rcd13ifvqgqg","pricing_plan_id":"cebpf4jnsgd1na2vs0mg"},{"bike_id":"20b4ad9e-d580-4fba-9445-ef900bf8efc5","system_id":"levelo_inurba_marseille","lat":43.30537,"lon":5.38429,"is_reserved":false,"is_disabled":false,"rental_uris":{"android":"levelo://app?vid=20b4ad9e-d580-4fba-9445-ef900bf8efc5","ios":"levelo://app?vid=20b4ad9e-d580-4fba-9445-ef900bf8efc5"},"vehicle_type_id":"4","last_reported":1727456889,"current_range_meters":3200,"station_id":"ce4bgg92rcd13ifvqb30","pricing_plan_id":"cebpf4jnsgd1na2vs0mg"},{"bike_id":"0b3870b2-703f-4795-a914-17793fdd4521","system_id":"levelo_inurba_marseille","lat":43.28155,"lon":5.42646,"is_reserved":false,"is_disabled":false,"rental_uris":{"android":"levelo://app?vid=0b3870b2-703f-4795-a914-17793fdd4521","ios":"levelo://app?vid=0b3870b2-703f-4795-a914-17793fdd4521"},"vehicle_type_id":"4","last_reported":1727456889,"current_range_meters":6400,"station_id":"ce4bhnh2rcd13ifvqgug","pricing_plan_id":"cebpf4jnsgd1na2vs0mg"},{"bike_id":"133ed395-39c6-46d5-bc81-7bc2ce07411c","system_id":"levelo_inurba_marseille","lat":43.28039,"lon":5.36966,"is_reserved":false,"is_disabled":false,"rental_uris":{"android":"levelo://app?vid=133ed395-39c6-46d5-bc81-7bc2ce07411c","ios":"levelo://app?vid=133ed395-39c6-46d5-bc81-7bc2ce07411c"},"vehicle_type_id":"4","last_reported":1727456889,"current_range_meters":5600,"station_id":"ce4bha12rcd13ifvqef0","pricing_plan_id":"cebpf4jnsgd1na2vs0mg"},{"bike_id":"e2e79a6d-f566-4c76-aec1-922efee6c5d8","system_id":"levelo_inurba_marseille","lat":43.266327,"lon":5.389806,"is_reserved":false,"is_disabled":false,"rental_uris":{"android":"levelo://app?vid=e2e79a6d-f566-4c76-aec1-922efee6c5d8","ios":"levelo://app?vid=e2e79a6d-f566-4c76-aec1-922efee6c5d8"},"vehicle_type_id":"4","last_reported":1727456889,"current_range_meters":24400,"station_id":"ce4bhe12rcd13ifvqf30","pricing_plan_id":"cebpf4jnsgd1na2vs0mg"},{"bike_id":"1f691079-42d4-4bc2-98f8-3dc5119b4a33","system_id":"levelo_inurba_marseille","lat":43.2761,"lon":5.3612,"is_reserved":false,"is_disabled":false,"rental_uris":{"android":"levelo://app?vid=1f691079-42d4-4bc2-98f8-3dc5119b4a33","ios":"levelo://app?vid=1f691079-42d4-4bc2-98f8-3dc5119b4a33"},"vehicle_type_id":"4","last_reported":1727456889,"current_range_meters":39200,"station_id":"ce4bgj92rcd13ifvqbe0","pricing_plan_id":"cebpf4jnsgd1na2vs0mg"},{"bike_id":"579b01a5-30f6-4684-8bbb-ea6de9332938","system_id":"levelo_inurba_marseille","lat":43.2941,"lon":5.38631,"is_reserved":false,"is_disabled":false,"rental_uris":{"android":"levelo://app?vid=579b01a5-30f6-4684-8bbb-ea6de9332938","ios":"levelo://app?vid=579b01a5-30f6-4684-8bbb-ea6de9332938"},"vehicle_type_id":"4","last_reported":1727456889,"current_range_meters":8000,"station_id":"ce4bh2h2rcd13ifvqdh0","pricing_plan_id":"cebpf4jnsgd1na2vs0mg"},{"bike_id":"c46dbff1-a04c-480e-a109-37d5f19a8acd","system_id":"levelo_inurba_marseille","lat":43.30584,"lon":5.39359,"is_reserved":false,"is_disabled":false,"rental_uris":{"android":"levelo://app?vid=c46dbff1-a04c-480e-a109-37d5f19a8acd","ios":"levelo://app?vid=c46dbff1-a04c-480e-a109-37d5f19a8acd"},"vehicle_type_id":"4","last_reported":1727456889,"current_range_meters":2800,"station_id":"ce4bh0p2rcd13ifvqd80","pricing_plan_id":"cebpf4jnsgd1na2vs0mg"},{"bike_id":"3373c6e2-1b21-41ac-b4d8-1a1964866075","system_id":"levelo_inurba_marseille","lat":43.29965,"lon":5.38494,"is_reserved":false,"is_disabled":false,"rental_uris":{"android":"levelo://app?vid=3373c6e2-1b21-41ac-b4d8-1a1964866075","ios":"levelo://app?vid=3373c6e2-1b21-41ac-b4d8-1a1964866075"},"vehicle_type_id":"4","last_reported":1727456889,"current_range_meters":24800,"station_id":"ce4bgj92rcd13ifvqbd0","pricing_plan_id":"cebpf4jnsgd1na2vs0mg"},