{"last_updated":1717535215,"ttl":30,"version":"2.2","data":{"bikes":[{"bike_id":"4849a2e9-2a76-4a22-a294-7058840cdefb","system_id":"levelo_inurba_marseille","lat":43.312239,"lon":5.368562,"is_reserved":false,"is_disabled":false,"rental_uris":{"android":"levelo://app?vid=4849a2e9-2a76-4a22-a294-7058840cdefb","ios":"levelo://app?vid=4849a2e9-2a76-4a22-a294-7058840cdefb"},"vehicle_type_id":"4","last_reported":1717535215,"current_range_meters":0,"station_id":"ce4bgl92rcd13ifvqbq0","pricing_plan_id":"cebpf4jnsgd1na2vs0mg"},{"bike_id":"3feb045b-c436-403b-9174-7d9f2b489e45","system_id":"levelo_inurba_marseille","lat":43.312239,"lon":5.368562,"is_reserved":false,"is_disabled":false,"rental_uris":{"android":"levelo://app?vid=3feb045b-c436-403b-9174-7d9f2b489e45","ios":"levelo://app?vid=3feb045b-c436-403b-9174-7d9f2b489e45"},"vehicle_type_id":"4","last_reported":1717535215,"current_range_meters":3200,"station_id":"ce4bgl92rcd13ifvqbq0","pricing_plan_id":"cebpf4jnsgd1na2vs0mg"},{"bike_id":"f66edb5b-a0a3-474e-b287-15a2de93018c","system_id":"levelo_inurba_marseille","lat":43.309076,"lon":5.368465,"is_reserved":false,"is_disabled":false,"rental_uris":{"android":"levelo://app?vid=f66edb5b-a0a3-474e-b287-15a2de93018c","ios":"levelo://app?vid=f66edb5b-a0a3-474e-b287-15a2de93018c"},"vehicle_type_id":"4","last_reported":1717535215,"current_range_meters":16400,"station_id":"ce4bgn92rcd13ifvqbvg","pricing_plan_id":"cebpf4jnsgd1na2vs0mg"},{"bike_id":"b23b7432-7ddf-4641-8f5a-06822fe04ce7","system_id":"levelo_inurba_marseille","lat":43.309076,"lon":5.368465,"is_reserved":false,"is_disabled":false,"rental_uris":{"android":"levelo://app?vid=b23b7432-7ddf-4641-8f5a-06822fe04ce7","ios":"levelo://app?vid=b23b7432-7ddf-4641-8f5a-06822fe04ce7"},"vehicle_type_id":"4","last_reported":1717535215,"current_range_meters":16400,"station_id":"ce4bgn92rcd13ifvqbvg","pricing_plan_id":"cebpf4jnsgd1na2vs0mg"},{"bike_id":"69c9d741-8a8a-4b9f-acc3-c51539a6dd77","system_id":"levelo_inurba_marseille","lat":43.31494,"lon":5.37311,"is_reserved":false,"is_disabled":false,"rental_uris":{"android":"levelo://app?vid=69c9d741-8a8a-4b9f-acc3-c51539a6dd77","ios":"levelo://app?vid=69c9d741-8a8a-4b9f-acc3-c51539a6dd77"},"vehicle_type_id":"4","last_reported":1717535215,"current_range_meters":2800,"station_id":"ce4bgt12rcd13ifvqcd0","pricing_plan_id":"cebpf4jnsgd1na2vs0mg"},{"bike_id":"0bb14ad3-0d70-4914-a9ce-2bc77db5fd6b","system_id":"levelo_inurba_marseille","lat":43.31496,"lon":5.37311,"is_reserved":false,"is_disabled":false,"rental_uris":{"android":"levelo://app?vid=0bb14ad3-0d70-4914-a9ce-2bc77db5fd6b","ios":"levelo://app?vid=0bb14ad3-0d70-4914-a9ce-2bc77db5fd6b"},"vehicle_type_id":"4","last_reported":1717535215,"current_range_meters":0,"station_id":"ce4bgt12rcd13ifvqcd0","pricing_plan_id":"cebpf4jnsgd1na2vs0mg"},{"bike_id":"f94a380f-b7d7-450e-9ade-484e09605c4c","system_id":"levelo_inurba_marseille","lat":43.309039,"lon":5.371797,"is_reserved":false,"is_disabled":false,"rental_uris":{"android":"levelo://app?vid=f94a380f-b7d7-450e-9ade-484e09605c4c","ios":"levelo://app?vid=f94a380f-b7d7-450e-9ade-484e09605c4c"},"vehicle_type_id":"4","last_reported":1717535215,"current_range_meters":16400,"station_id":"ce4bguh2rcd13ifvqckg","pricing_plan_id":"cebpf4jnsgd1na2vs0mg"},{"bike_id":"42f72df4-22f7-4490-8716-ac2dad97f9c2","system_id":"levelo_inurba_marseille","lat":43.30886,"lon":5.37184,"is_reserved":false,"is_disabled":false,"rental_uris":{"android":"levelo://app?vid=42f72df4-22f7-4490-8716-ac2dad97f9c2","ios":"levelo://app?vid=42f72df4-22f7-4490-8716-ac2dad97f9c2"},"vehicle_type_id":"4","last_reported":1717535215,"current_range_meters":4400,"station_id":"ce4bguh2rcd13ifvqckg","pricing_plan_id":"cebpf4jnsgd1na2vs0mg"},{"bike_id":"e588267b-9857-48dd-854e-670bf32b7a10","system_id":"levelo_inurba_marseille","lat":43.30885,"lon":5.37186,"is_reserved":false,"is_disabled":false,"rental_uris":{"android":"levelo://app?vid=e588267b-9857-48dd-854e-670bf32b7a10","ios":"levelo://app?vid=e588267b-9857-48dd-854e-670bf32b7a10"},"vehicle_type_id":"4","last_reported":1717535215,"current_range_meters":9200,"station_id":"ce4bguh2rcd13ifvqckg","pricing_plan_id":"cebpf4jnsgd1na2vs0mg"},{"bike_id":"9cca84cf-e095-4042-b8c5-abda22ea3a53","system_id":"levelo_inurba_marseille","lat":43.309034,"lon":5.371783,"is_reserved":false,"is_disabled":false,"rental_uris":{"android":"levelo://app?vid=9cca84cf-e095-4042-b8c5-abda22ea3a53","ios":"levelo://app?vid=9cca84cf-e095-4042-b8c5-abda22ea3a53"},"vehicle_type_id":"4","last_reported":1717535215,"current_range_meters":17200,"station_id":"ce4bguh2rcd13ifvqckg","pricing_plan_id":"cebpf4jnsgd1na2vs0mg"},{"bike_id":"35ca4517-7deb-4ecb-9cea-978194481792","system_id":"levelo_inurba_marseille","lat":43.305706,"lon":5.365654,"is_reserved":false,"is_disabled":false,"rental_uris":{"android":"levelo://app?vid=35ca4517-7deb-4ecb-9cea-978194481792","ios":"levelo://app?vid=35ca4517-7deb-4ecb-9cea-978194481792"},"vehicle_type_id":"4","last_reported":1717535215,"current_range_meters":4000,"station_id":"ce4bgs12rcd13ifvqcag","pricing_plan_id":"cebpf4jnsgd1na2vs0mg"},{"bike_id":"24754ab1-fe00-4c01-8e6e-c510dcbf6f82","system_id":"levelo_inurba_marseille","lat":43.305989,"lon":5.37225,"is_reserved":false,"is_disabled":false,"rental_uris":{"android":"levelo://app?vid=24754ab1-fe00-4c01-8e6e-c510dcbf6f82","ios":"levelo://app?vid=24754ab1-fe00-4c01-8e6e-c510dcbf6f82"},"vehicle_type_id":"4","last_reported":1717535215,"current_range_meters":17600,"station_id":"ce4bgqh2rcd13ifvqc4g","pricing_plan_id":"cebpf4jnsgd1na2vs0mg"},{"bike_id":"00c23ba8-230b-4c30-afaa-49456e0f7189","system_id":"levelo_inurba_marseille","lat":43.305989,"lon":5.37225,"is_reserved":false,"is_disabled":false,"rental_uris":{"android":"levelo://app?vid=00c23ba8-230b-4c30-afaa-49456e0f7189","ios":"levelo://app?vid=00c23ba8-230b-4c30-afaa-49456e0f7189"},"vehicle_type_id":"4","last_reported":1717535215,"current_range_meters":21600,"station_id":"ce4bgqh2rcd13ifvqc4g","pricing_plan_id":"cebpf4jnsgd1na2vs0mg"},{"bike_id":"66b0ba04-60c1-4570-b298-8281fe339c24","system_id":"levelo_inurba_marseille","lat":43.305958,"lon":5.372055,"is_reserved":false,"is_disabled":false,"rental_uris":{"android":"levelo://app?vid=66b0ba04-60c1-4570-b298-8281fe339c24","ios":"levelo://app?vid=66b0ba04-60c1-4570-b298-8281fe339c24"},"vehicle_type_id":"4","last_reported":1717535215,"current_range_meters":18000,"station_id":"ce4bgqh2rcd13ifvqc4g","pricing_plan_id":"cebpf4jnsgd1na2vs0mg"},{"bike_id":"d0eec622-a5c4-4aa7-b10f-6d97856316bc","system_id":"levelo_inurba_marseille","lat":43.311565,"lon":5.377528,"is_reserved":false,"is_disabled":false,"rental_uris":{"android":"levelo://app?vid=d0eec622-a5c4-4aa7-b10f-6d97856316bc","ios":"levelo://app?vid=d0eec622-a5c4-4aa7-b10f-6d97856316bc"},"vehicle_type_id":"4","last_reported":1717535215,"current_range_meters":0,"station_id":"","pricing_plan_id":"cebpf4jnsgd1na2vs0mg"},{"bike_id":"efde3d50-fa7b-4190-be50-428ec4d0e52b","system_id":"levelo_inurba_marseille","lat":43.311125,"lon":5.377624,"is_reserved":false,"is_disabled":false,"rental_uris":{"android":"levelo://app?vid=efde3d50-fa7b-4190-be50-428ec4d0e52b","ios":"levelo://app?vid=efde3d50-fa7b-4190-be50-428ec4d0e52b"},"vehicle_type_id":"4","last_reported":1717535215,"current_range_meters":0,"station_id":"ce4bgt92rcd13ifvqcg0","pricing_plan_id":"cebpf4jnsgd1na2vs0mg"},{"bike_id":"f2552761-7bbe-451e-a0f7-7c582162645a","system_id":"levelo_inurba_marseille","lat":43.311125,"lon":5.377624,"is_reserved":false,"is_disabled":false,"rental_uris":{"android":"levelo://app?vid=f2552761-7bbe-451e-a0f7-7c582162645a","ios":"levelo://app?vid=f2552761-7bbe-451e-a0f7-7c582162645a"},"vehicle_type_id":"4","last_reported":1717535215,"current_range_meters":22400,"station_id":"ce4bgt92rcd13ifvqcg0","pricing_plan_id":"cebpf4jnsgd1na2vs0mg"},{"bike_id":"d8da2309-f9e9-4af0-90f4-193998d81ffc","system_id":"levelo_inurba_marseille","lat":43.307945,"lon":5.376487,"is_reserved":false,"is_disabled":false,"rental_uris":{"android":"levelo://app?vid=d8da2309-f9e9-4af0-90f4-193998d81ffc","ios":"levelo://app?vid=d8da2309-f9e9-4af0-90f4-193998d81ffc"},"vehicle_type_id":"4","last_reported":1717535215,"current_range_meters":17200,"station_id":"ce4bgv92rcd13ifvqcq0","pricing_plan_id":"cebpf4jnsgd1na2vs0mg"},{"bike_id":"a9b486a9-0258-455c-82c9-d384bd3c69b0","system_id":"levelo_inurba_marseille","lat":43.307945,"lon":5.376487,"is_reserved":false,"is_disabled":false,"rental_uris":{"android":"levelo://app?vid=a9b486a9-0258-455c-82c9-d384bd3c69b0","ios":"levelo://app?vid=a9b486a9-0258-455c-82c9-d384bd3c69b0"},"vehicle_type_id":"4","last_reported":1717535215,"current_range_meters":5600,"station_id":"ce4bgv92rcd13ifvqcq0","pricing_plan_id":"cebpf4jnsgd1na2vs0mg"},{"bike_id":"6d01ce33-83a3-4a8c-bbcc-505f925a2933","system_id":"levelo_inurba_marseille","lat":43.307945,"lon":5.376487,"is_reserved":false,"is_disabled":false,"rental_uris":{"android":"levelo://app?vid=6d01ce33-83a3-4a8c-bbcc-505f925a2933","ios":"levelo://app?vid=6d01ce33-83a3-4a8c-bbcc-505f925a2933"},"vehicle_type_id":"4","last_reported":1717535215,"current_range_meters":14000,"station_id":"ce4bgv92rcd13ifvqcq0","pricing_plan_id":"cebpf4jnsgd1na2vs0mg"},{"bike_id":"718246b5-d6d0-4859-b13b-391ef491741e","system_id":"levelo_inurba_marseille","lat":43.307945,"lon":5.376487,"is_reserved":false,"is_disabled":false,"rental_uris":{"android":"levelo://app?vid=718246b5-d6d0-4859-b13b-391ef491741e","ios":"levelo://app?vid=718246b5-d6d0-4859-b13b-391ef491741e"},"vehicle_type_id":"4","last_reported":1717535215,"current_range_meters":18800,"station_id":"ce4bgv92rcd13ifvqcq0","pricing_plan_id":"cebpf4jnsgd1na2vs0mg"},{"bike_id":"a7260bcf-17ae-4b0c-b0e4-d6fe99891a06","system_id":"levelo_inurba_marseille","lat":43.307945,"lon":5.376487,"is_reserved":false,"is_disabled":false,"rental_uris":{"android":"levelo://app?vid=a7260bcf-17ae-4b0c-b0e4-d6fe99891a06","ios":"levelo://app?vid=a7260bcf-17ae-4b0c-b0e4-d6fe99891a06"},"vehicle_type_id":"4","last_reported":1717535215,"current_range_meters":6400,"station_id":"ce4bgv92rcd13ifvqcq0","pricing_plan_id":"cebpf4jnsgd1na2vs0mg"},{"bike_id":"3ee6e546-79df-4ca6-ae1b-17cf5087be95","system_id":"levelo_inurba_marseille","lat":43.317075,"lon":5.377367,"is_reserved":false,"is_disabled":false,"rental_uris":{"android":"levelo://app?vid=3ee6e546-79df-4ca6-ae1b-17cf5087be95","ios":"levelo://app?vid=3ee6e546-79df-4ca6-ae1b-17cf5087be95"},"vehicle_type_id":"4","last_reported":1717535215,"current_range_meters":31200,"station_id":"ce4bgth2rcd13ifvqch0","pricing_plan_id":"cebpf4jnsgd1na2vs0mg"},{"bike_id":"3fe63276-bf6d-49c9-af26-6fb5734daf8f","system_id":"levelo_inurba_marseille","lat":43.30304,"lon":5.368987,"is_reserved":false,"is_disabled":false,"rental_uris":{"android":"levelo://app?vid=3fe63276-bf6d-49c9-af26-6fb5734daf8f","ios":"levelo://app?vid=3fe63276-bf6d-49c9-af26-6fb5734daf8f"},"vehicle_type_id":"4","last_reported":1717535215,"current_range_meters":31200,"station_id":"ce4bgqh2rcd13ifvqc5g","pricing_plan_id":"cebpf4jnsgd1na2vs0mg"},{"bike_id":"698c9be5-6b1b-4375-b2cf-54174aff42cc","system_id":"levelo_inurba_marseille","lat":43.30304,"lon":5.368987,"is_reserved":false,"is_disabled":false,"rental_uris":{"android":"levelo://app?vid=698c9be5-6b1b-4375-b2cf-54174aff42cc","ios":"levelo://app?vid=698c9be5-6b1b-4375-b2cf-54174aff42cc"},"vehicle_type_id":"4","last_reported":1717535215,"current_range_meters":23200,"station_id":"ce4bgqh2rcd13ifvqc5g","pricing_plan_id":"cebpf4jnsgd1na2vs0mg"},{"bike_id":"08809f29-0bf1-48d0-8036-de46975a6f22","system_id":"levelo_inurba_marseille","lat":43.31536,"lon":5.38031,"is_reserved":false,"is_disabled":false,"rental_uris":{"android":"levelo://app?vid=08809f29-0bf1-48d0-8036-de46975a6f22","ios":"levelo://app?vid=08809f29-0bf1-48d0-8036-de46975a6f22"},"vehicle_type_id":"4","last_reported":1717535215,"current_range_meters":0,"station_id":"ce4bhsp2rcd13ifvqi50","pricing_plan_id":"cebpf4jnsgd1na2vs0mg"},{"bike_id":"377f1e95-dc1f-43b4-af29-ddf0d841a6eb","system_id":"levelo_inurba_marseille","lat":43.315289,"lon":5.380349,"is_reserved":false,"is_disabled":false,"rental_uris":{"android":"levelo://app?vid=377f1e95-dc1f-43b4-af29-ddf0d841a6eb","ios":"levelo://app?vid=377f1e95-dc1f-43b4-af29-ddf0d841a6eb"},"vehicle_type_id":"4","last_reported":1717535215,"current_range_meters":9600,"station_id":"ce4bhsp2rcd13ifvqi50","pricing_plan_id":"cebpf4jnsgd1na2vs0mg"},{"bike_id":"5401ff84-06c4-4c94-b76e-411da2f5ffe9","system_id":"levelo_inurba_marseille","lat":43.32234,"lon":5.37123,"is_reserved":false,"is_disabled":false,"rental_uris":{"android":"levelo://app?vid=5401ff84-06c4-4c94-b76e-411da2f5ffe9","ios":"levelo://app?vid=5401ff84-06c4-4c94-b76e-411da2f5ffe9"},"vehicle_type_id":"4","last_reported":1717535215,"current_range_meters":10000,"station_id":"","pricing_plan_id":"cebpf4jnsgd1na2vs0mg"},{"bike_id":"c66f3861-1082-4466-8c2b-86678349e476","system_id":"levelo_inurba_marseille","lat":43.301939,"lon":5.366286,"is_reserved":false,"is_disabled":false,"rental_uris":{"android":"levelo://app?vid=c66f3861-1082-4466-8c2b-86678349e476","ios":"levelo://app?vid=c66f3861-1082-4466-8c2b-86678349e476"},"vehicle_type_id":"4","last_reported":1717535215,"current_range_meters":1600,"station_id":"ce4bgrh2rcd13ifvqc8g","pricing_plan_id":"cebpf4jnsgd1na2vs0mg"},{"bike_id":"d83d7d91-5e86-4fe4-ae40-d59b2d802437","system_id":"levelo_inurba_marseille","lat":43.308012,"lon":5.381511,"is_reserved":false,"is_disabled":false,"rental_uris":{"android":"levelo://app?vid=d83d7d91-5e86-4fe4-ae40-d59b2d802437","ios":"levelo://app?vid=d83d7d91-5e86-4fe4-ae40-d59b2d802437"},"vehicle_type_id":"4","last_reported":1717535215,"current_range_meters":17200,"station_id":"ce4bgt12rcd13ifvqce0","pricing_plan_id":"cebpf4jnsgd1na2vs0mg"},{"bike_id":"6cfe4ebd-1913-46cd-8a31-7be270f6d94f","system_id":"levelo_inurba_marseille","lat":43.30803,"lon":5.38161,"is_reserved":false,"is_disabled":false,"rental_uris":{"android":"levelo://app?vid=6cfe4ebd-1913-46cd-8a31-7be270f6d94f","ios":"levelo://app?vid=6cfe4ebd-1913-46cd-8a31-7be270f6d94f"},"vehicle_type_id":"4","last_reported":1717535215,"current_range_meters":800,"station_id":"ce4bgt12rcd13ifvqce0","pricing_plan_id":"cebpf4jnsgd1na2vs0mg"},{"bike_id":"4512d9ba-66f9-4bf8-97ee-b33d27cc2cec","system_id":"levelo_inurba_marseille","lat":43.304606,"lon":5.379026,"is_reserved":false,"is_disabled":false,"rental_uris":{"android":"levelo://app?vid=4512d9ba-66f9-4bf8-97ee-b33d27cc2cec","ios":"levelo://app?vid=4512d9ba-66f9-4bf8-97ee-b33d27cc2cec"},"vehicle_type_id":"4","last_reported":1717535215,"current_range_meters":9200,"station_id":"ce4bgup2rcd13ifvqcn0","pricing_plan_id":"cebpf4jnsgd1na2vs0mg"},{"bike_id":"98ab4e14-dc00-4b88-a177-38cde948e165","system_id":"levelo_inurba_marseille","lat":43.30756,"lon":5.38175,"is_reserved":false,"is_disabled":false,"rental_uris":{"android":"levelo://app?vid=98ab4e14-dc00-4b88-a177-38cde948e165","ios":"levelo://app?vid=98ab4e14-dc00-4b88-a177-38cde948e165"},"vehicle_type_id":"4","last_reported":1717535215,"current_range_meters":27200,"station_id":"","pricing_plan_id":"cebpf4jnsgd1na2vs0mg"},{"bike_id":"234bcd77-7965-4d52-9dc6-537a89ecfb30","system_id":"levelo_inurba_marseille","lat":43.324771,"lon":5.36557,"is_reserved":false,"is_disabled":false,"rental_uris":{"android":"levelo://app?vid=234bcd77-7965-4d52-9dc6-537a89ecfb30","ios":"levelo://app?vid=234bcd77-7965-4d52-9dc6-537a89ecfb30"},"vehicle_type_id":"4","last_reported":1717535215,"current_range_meters":0,"station_id":"ce4bhs12rcd13ifvqhvg","pricing_plan_id":"cebpf4jnsgd1na2vs0mg"},{"bike_id":"8a7813db-fdae-4250-98c9-da21ceb9f663","system_id":"levelo_inurba_marseille","lat":43.31077,"lon":5.38343,"is_reserved":false,"is_disabled":false,"rental_uris":{"android":"levelo://app?vid=8a7813db-fdae-4250-98c9-da21ceb9f663","ios":"levelo://app?vid=8a7813db-fdae-4250-98c9-da21ceb9f663"},"vehicle_type_id":"4","last_reported":1717535215,"current_range_meters":0,"station_id":"ce4bgv92rcd13ifvqcr0","pricing_plan_id":"cebpf4jnsgd1na2vs0mg"},{"bike_id":"8a8c92fa-cdad-4bcc-a2b8-6cddccbe52e8","system_id":"levelo_inurba_marseille","lat":43.324771,"lon":5.36557,"is_reserved":false,"is_disabled":false,"rental_uris":{"android":"levelo://app?vid=8a8c92fa-cdad-4bcc-a2b8-6cddccbe52e8","ios":"levelo://app?vid=8a8c92fa-cdad-4bcc-a2b8-6cddccbe52e8"},"vehicle_type_id":"4","last_reported":1717535215,"current_range_meters":24400,"station_id":"ce4bhs12rcd13ifvqhvg","pricing_plan_id":"cebpf4jnsgd1na2vs0mg"},{"bike_id":"92e1deed-3c96-44e2-844f-59bd781fffad","system_id":"levelo_inurba_marseille","lat":43.324771,"lon":5.36557,"is_reserved":false,"is_disabled":false,"rental_uris":{"android":"levelo://app?vid=92e1deed-3c96-44e2-844f-59bd781fffad","ios":"levelo://app?vid=92e1deed-3c96-44e2-844f-59bd781fffad"},"vehicle_type_id":"4","last_reported":1717535215,"current_range_meters":0,"station_id":"ce4bhs12rcd13ifvqhvg","pricing_plan_id":"cebpf4jnsgd1na2vs0mg"},{"bike_id":"75c1b715-bd35-4bb6-a668-507f2f839eb1","system_id":"levelo_inurba_marseille","lat":43.310804,"lon":5.38359,"is_reserved":false,"is_disabled":false,"rental_uris":{"android":"levelo://app?vid=75c1b715-bd35-4bb6-a668-507f2f839eb1","ios":"levelo://app?vid=75c1b715-bd35-4bb6-a668-507f2f839eb1"},"vehicle_type_id":"4","last_reported":1717535215,"current_range_meters":26000,"station_id":"ce4bgv92rcd13ifvqcr0","pricing_plan_id":"cebpf4jnsgd1na2vs0mg"},{"bike_id":"12cd3a79-074a-4405-a619-b21ff405ec60","system_id":"levelo_inurba_marseille","lat":43.31078,"lon":5.38356,"is_reserved":false,"is_disabled":false,"rental_uris":{"android":"levelo://app?vid=12cd3a79-074a-4405-a619-b21ff405ec60","ios":"levelo://app?vid=12cd3a79-074a-4405-a619-b21ff405ec60"},"vehicle_type_id":"4","last_reported":1717535215,"current_range_meters":12400,"station_id":"ce4bgv92rcd13ifvqcr0","pricing_plan_id":"cebpf4jnsgd1na2vs0mg"},{"bike_id":"7313b88a-1bb3-4158-83be-55051e81cdfc","system_id":"levelo_inurba_marseille","lat":43.31071,"lon":5.38356,"is_reserved":false,"is_disabled":false,"rental_uris":{"android":"levelo://app?vid=7313b88a-1bb3-4158-83be-55051e81cdfc","ios":"levelo://app?vid=7313b88a-1bb3-4158-83be-55051e81cdfc"},"vehicle_type_id":"4","last_reported":1717535215,"current_range_meters":0,"station_id":"ce4bgv92rcd13ifvqcr0","pricing_plan_id":"cebpf4jnsgd1na2vs0mg"},{"bike_id":"6d4155b3-0400-48ad-a7b2-19caa2402317","system_id":"levelo_inurba_marseille","lat":43.302784,"lon":5.377158,"is_reserved":false,"is_disabled":false,"rental_uris":{"android":"levelo://app?vid=6d4155b3-0400-48ad-a7b2-19caa2402317","ios":"levelo://app?vid=6d4155b3-0400-48ad-a7b2-19caa2402317"},"vehicle_type_id":"4","last_reported":1717535215,"current_range_meters":26000,"station_id":"ce4bguh2rcd13ifvqcj0","pricing_plan_id":"cebpf4jnsgd1na2vs0mg"},{"bike_id":"7fd53457-8dca-4258-bb0e-77078471e947","system_id":"levelo_inurba_marseille","lat":43.30278,"lon":5.37716,"is_reserved":false,"is_disabled":false,"rental_uris":{"android":"levelo://app?vid=7fd53457-8dca-4258-bb0e-77078471e947","ios":"levelo://app?vid=7fd53457-8dca-4258-bb0e-77078471e947"},"vehicle_type_id":"4","last_reported":1717535215,"current_range_meters":0,"station_id":"ce4bguh2rcd13ifvqcj0","pricing_plan_id":"cebpf4jnsgd1na2vs0mg"},{"bike_id":"816bf89a-24c7-4580-a48b-7cd2170fe034","system_id":"levelo_inurba_marseille","lat":43.319935,"lon":5.381699,"is_reserved":false,"is_disabled":false,"rental_uris":{"android":"levelo://app?vid=816bf89a-24c7-4580-a48b-7cd2170fe034","ios":"levelo://app?vid=816bf89a-24c7-4580-a48b-7cd2170fe034"},"vehicle_type_id":"4","last_reported":1717535215,"current_range_meters":2800,"station_id":"ce4bhr12rcd13ifvqhpg","pricing_plan_id":"cebpf4jnsgd1na2vs0mg"},{"bike_id":"2d17fa2e-55cb-40df-8eed-88ca99ae2dd3","system_id":"levelo_inurba_marseille","lat":43.319935,"lon":5.381699,"is_reserved":false,"is_disabled":false,"rental_uris":{"android":"levelo://app?vid=2d17fa2e-55cb-40df-8eed-88ca99ae2dd3","ios":"levelo://app?vid=2d17fa2e-55cb-40df-8eed-88ca99ae2dd3"},"vehicle_type_id":"4","last_reported":1717535215,"current_range_meters":0,"station_id":"ce4bhr12rcd13ifvqhpg","pricing_plan_id":"cebpf4jnsgd1na2vs0mg"},{"bike_id":"9f88959b-8f54-4a0b-b665-cdaaa6402727","system_id":"levelo_inurba_marseille","lat":43.319935,"lon":5.381699,"is_reserved":false,"is_disabled":false,"rental_uris":{"android":"levelo://app?vid=9f88959b-8f54-4a0b-b665-cdaaa6402727","ios":"levelo://app?vid=9f88959b-8f54-4a0b-b665-cdaaa6402727"},"vehicle_type_id":"4","last_reported":1717535215,"current_range_meters":14800,"station_id":"ce4bhr12rcd13ifvqhpg","pricing_plan_id":"cebpf4jnsgd1na2vs0mg"},{"bike_id":"ef064d45-e9a3-440f-81e3-2b1bbb56d9e6","system_id":"levelo_inurba_marseille","lat":43.319935,"lon":5.381699,"is_reserved":false,"is_disabled":false,"rental_uris":{"android":"levelo://app?vid=ef064d45-e9a3-440f-81e3-2b1bbb56d9e6","ios":"levelo://app?vid=ef064d45-e9a3-440f-81e3-2b1bbb56d9e6"},"vehicle_type_id":"4","last_reported":1717535215,"current_range_meters":400,"station_id":"ce4bhr12rcd13ifvqhpg","pricing_plan_id":"cebpf4jnsgd1na2vs0mg"},{"bike_id":"86983e4b-c117-4fa9-b8f6-2aa523203287","system_id":"levelo_inurba_marseille","lat":43.319935,"lon":5.381699,"is_reserved":false,"is_disabled":false,"rental_uris":{"android":"levelo://app?vid=86983e4b-c117-4fa9-b8f6-2aa523203287","ios":"levelo://app?vid=86983e4b-c117-4fa9-b8f6-2aa523203287"},"vehicle_type_id":"4","last_reported":1717535215,"current_range_meters":2400,"station_id":"ce4bhr12rcd13ifvqhpg","pricing_plan_id":"cebpf4jnsgd1na2vs0mg"},{"bike_id":"0de36e3d-89d6-428f-a00b-30b749a5bf5c","system_id":"levelo_inurba_marseille","lat":43.300318,"lon":5.372062,"is_reserved":false,"is_disabled":false,"rental_uris":{"android":"levelo://app?vid=0de36e3d-89d6-428f-a00b-30b749a5bf5c","ios":"levelo://app?vid=0de36e3d-89d6-428f-a00b-30b749a5bf5c"},"vehicle_type_id":"4","last_reported":1717535215,"current_range_meters":14800,"station_id":"","pricing_plan_id":"cebpf4jnsgd1na2vs0mg"},{"bike_id":"b288b801-c085-464e-8c9b-579fb8f8d7db","system_id":"levelo_inurba_marseille","lat":43.313571,"lon":5.384829,"is_reserved":false,"is_disabled":false,"rental_uris":{"android":"levelo://app?vid=b288b801-c085-464e-8c9b-579fb8f8d7db","ios":"levelo://app?vid=b288b801-c085-464e-8c9b-579fb8f8d7db"},"vehicle_type_id":"4","last_reported":1717535215,"current_range_meters":1600,"station_id":"ce4bgt92rcd13ifvqcf0","pricing_plan_id":"cebpf4jnsgd1na2vs0mg"},{"bike_id":"2bd5f1f5-de29-42a2-a365-4fa8e0940aa7","system_id":"levelo_inurba_marseille","lat":43.313571,"lon":5.384829,"is_reserved":false,"is_disabled":false,"rental_uris":{"android":"levelo://app?vid=2bd5f1f5-de29-42a2-a365-4fa8e0940aa7","ios":"levelo://app?vid=2bd5f1f5-de29-42a2-a365-4fa8e0940aa7"},"vehicle_type_id":"4","last_reported":1717535215,"current_range_meters":26800,"station_id":"ce4bgt92rcd13ifvqcf0","pricing_plan_id":"cebpf4jnsgd1na2vs0mg"},{"bike_id":"11c43682-b21e-41f9-aeb6-131b5f8a0e38","system_id":"levelo_inurba_marseille","lat":43.299877,"lon":5.37176,"is_reserved":false,"is_disabled":false,"rental_uris":{"android":"levelo://app?vid=11c43682-b21e-41f9-aeb6-131b5f8a0e38","ios":"levelo://app?vid=11c43682-b21e-41f9-aeb6-131b5f8a0e38"},"vehicle_type_id":"4","last_reported":1717535215,"current_range_meters":2000,"station_id":"ce4bgr92rcd13ifvqc7g","pricing_plan_id":"cebpf4jnsgd1na2vs0mg"},{"bike_id":"0260b559-2f6a-4e2f-9ff5-8d947e185593","system_id":"levelo_inurba_marseille","lat":43.299724,"lon":5.371829,"is_reserved":false,"is_disabled":false,"rental_uris":{"android":"levelo://app?vid=0260b559-2f6a-4e2f-9ff5-8d947e185593","ios":"levelo://app?vid=0260b559-2f6a-4e2f-9ff5-8d947e185593"},"vehicle_type_id":"4","last_reported":1717535215,"current_range_meters":16400,"station_id":"ce4bgr92rcd13ifvqc7g","pricing_plan_id":"cebpf4jnsgd1na2vs0mg"},{"bike_id":"d02d3ed0-c8eb-44f8-9421-0275cf1c2580","system_id":"levelo_inurba_marseille","lat":43.29977,"lon":5.37172,"is_reserved":false,"is_disabled":false,"rental_uris":{"android":"levelo://app?vid=d02d3ed0-c8eb-44f8-9421-0275cf1c2580","ios":"levelo://app?vid=d02d3ed0-c8eb-44f8-9421-0275cf1c2580"},"vehicle_type_id":"4","last_reported":1717535215,"current_range_meters":30400,"station_id":"ce4bgr92rcd13ifvqc7g","pricing_plan_id":"cebpf4jnsgd1na2vs0mg"},{"bike_id":"9007bebd-4ae0-47bd-83bf-22b0e40f5edc","system_id":"levelo_inurba_marseille","lat":43.29976,"lon":5.37169,"is_reserved":false,"is_disabled":false,"rental_uris":{"android":"levelo://app?vid=9007bebd-4ae0-47bd-83bf-22b0e40f5edc","ios":"levelo://app?vid=9007bebd-4ae0-47bd-83bf-22b0e40f5edc"},"vehicle_type_id":"4","last_reported":1717535215,"current_range_meters":13600,"station_id":"ce4bgr92rcd13ifvqc7g","pricing_plan_id":"cebpf4jnsgd1na2vs0mg"},{"bike_id":"bfa607c8-1c99-4d87-b01a-184395c8d250","system_id":"levelo_inurba_marseille","lat":43.299209,"lon":5.365547,"is_reserved":false,"is_disabled":false,"rental_uris":{"android":"levelo://app?vid=bfa607c8-1c99-4d87-b01a-184395c8d250","ios":"levelo://app?vid=bfa607c8-1c99-4d87-b01a-184395c8d250"},"vehicle_type_id":"4","last_reported":1717535215,"current_range_meters":9600,"station_id":"ce4bgm92rcd13ifvqbr0","pricing_plan_id":"cebpf4jnsgd1na2vs0mg"},{"bike_id":"97f6be4e-1236-46fb-8439-e9ff5756b676","system_id":"levelo_inurba_marseille","lat":43.299724,"lon":5.371829,"is_reserved":false,"is_disabled":false,"rental_uris":{"android":"levelo://app?vid=97f6be4e-1236-46fb-8439-e9ff5756b676","ios":"levelo://app?vid=97f6be4e-1236-46fb-8439-e9ff5756b676"},"vehicle_type_id":"4","last_reported":1717535215,"current_range_meters":29600,"station_id":"ce4bgr92rcd13ifvqc7g","pricing_plan_id":"cebpf4jnsgd1na2vs0mg"},{"bike_id":"b9585097-4848-478e-89fa-5c58fcfe6e4a","system_id":"levelo_inurba_marseille","lat":43.29971,"lon":5.37167,"is_reserved":false,"is_disabled":false,"rental_uris":{"android":"levelo://app?vid=b9585097-4848-478e-89fa-5c58fcfe6e4a","ios":"levelo://app?vid=b9585097-4848-478e-89fa-5c58fcfe6e4a"},"vehicle_type_id":"4","last_reported":1717535215,"current_range_meters":0,"station_id":"ce4bgr92rcd13ifvqc7g","pricing_plan_id":"cebpf4jnsgd1na2vs0mg"},{"bike_id":"2e41597b-4774-4415-9969-42ec80da28c4","system_id":"levelo_inurba_marseille","lat":43.299724,"lon":5.371829,"is_reserved":false,"is_disabled":false,"rental_uris":{"android":"levelo://app?vid=2e41597b-4774-4415-9969-42ec80da28c4","ios":"levelo://app?vid=2e41597b-4774-4415-9969-42ec80da28c4"},"vehicle_type_id":"4","last_reported":1717535215,"current_range_meters":24000,"station_id":"ce4bgr92rcd13ifvqc7g","pricing_plan_id":"cebpf4jnsgd1na2vs0mg"},{"bike_id":"76bcf8f3-e741-4d63-ab6f-a54f4815fc66","system_id":"levelo_inurba_marseille","lat":43.299557,"lon":5.371816,"is_reserved":false,"is_disabled":false,"rental_uris":{"android":"levelo://app?vid=76bcf8f3-e741-4d63-ab6f-a54f4815fc66","ios":"levelo://app?vid=76bcf8f3-e741-4d63-ab6f-a54f4815fc66"},"vehicle_type_id":"4","last_reported":1717535215,"current_range_meters":29600,"station_id":"ce4bgr92rcd13ifvqc7g","pricing_plan_id":"cebpf4jnsgd1na2vs0mg"},{"bike_id":"76b12708-9964-41be-8ab0-f753297de583","system_id":"levelo_inurba_marseille","lat":43.305364,"lon":5.384119,"is_reserved":false,"is_disabled":false,"rental_uris":{"android":"levelo://app?vid=76b12708-9964-41be-8ab0-f753297de583","ios":"levelo://app?vid=76b12708-9964-41be-8ab0-f753297de583"},"vehicle_type_id":"4","last_reported":1717535215,"current_range_meters":23200,"station_id":"ce4bgg92rcd13ifvqb30","pricing_plan_id":"cebpf4jnsgd1na2vs0mg"},{"bike_id":"351d3303-a27a-4330-b3cf-12d64ce87b73","system_id":"levelo_inurba_marseille","lat":43.305364,"lon":5.384119,"is_reserved":false,"is_disabled":false,"rental_uris":{"android":"levelo://app?vid=351d3303-a27a-4330-b3cf-12d64ce87b73","ios":"levelo://app?vid=351d3303-a27a-4330-b3cf-12d64ce87b73"},"vehicle_type_id":"4","last_reported":1717535215,"current_range_meters":8800,"station_id":"ce4bgg92rcd13ifvqb30","pricing_plan_id":"cebpf4jnsgd1na2vs0mg"},{"bike_id":"0776459f-eefa-4277-a46b-bc3da2b37c71","system_id":"levelo_inurba_marseille","lat":43.311685,"lon":5.38685,"is_reserved":false,"is_disabled":false,"rental_uris":{"android":"levelo://app?vid=0776459f-eefa-4277-a46b-bc3da2b37c71","ios":"levelo://app?vid=0776459f-eefa-4277-a46b-bc3da2b37c71"},"vehicle_type_id":"4","last_reported":1717535215,"current_range_meters":20400,"station_id":"ce4bgv12rcd13ifvqcp0","pricing_plan_id":"cebpf4jnsgd1na2vs0mg"},{"bike_id":"7c0279c4-785e-41cc-9875-11b1aa5697b0","system_id":"levelo_inurba_marseille","lat":43.298433,"lon":5.362774,"is_reserved":false,"is_disabled":false,"rental_uris":{"android":"levelo://app?vid=7c0279c4-785e-41cc-9875-11b1aa5697b0","ios":"levelo://app?vid=7c0279c4-785e-41cc-9875-11b1aa5697b0"},"vehicle_type_id":"4","last_reported":1717535215,"current_range_meters":28400,"station_id":"ce4bgpp2rcd13ifvqc3g","pricing_plan_id":"cebpf4jnsgd1na2vs0mg"},{"bike_id":"8d0e2712-e390-4ed4-afb9-2d114ec3d2e9","system_id":"levelo_inurba_marseille","lat":43.305364,"lon":5.384119,"is_reserved":false,"is_disabled":false,"rental_uris":{"android":"levelo://app?vid=8d0e2712-e390-4ed4-afb9-2d114ec3d2e9","ios":"levelo://app?vid=8d0e2712-e390-4ed4-afb9-2d114ec3d2e9"},"vehicle_type_id":"4","last_reported":1717535215,"current_range_meters":2800,"station_id":"ce4bgg92rcd13ifvqb30","pricing_plan_id":"cebpf4jnsgd1na2vs0mg"},{"bike_id":"7f8522c3-2849-4e23-b15b-cbc67ded9d7c","system_id":"levelo_inurba_marseille","lat":43.298433,"lon":5.362774,"is_reserved":false,"is_disabled":false,"rental_uris":{"android":"levelo://app?vid=7f8522c3-2849-4e23-b15b-cbc67ded9d7c","ios":"levelo://app?vid=7f8522c3-2849-4e23-b15b-cbc67ded9d7c"},"vehicle_type_id":"4","last_reported":1717535215,"current_range_meters":12000,"station_id":"ce4bgpp2rcd13ifvqc3g","pricing_plan_id":"cebpf4jnsgd1na2vs0mg"},{"bike_id":"a024f8e3-2392-4e71-a7f7-0493542b2626","system_id":"levelo_inurba_marseille","lat":43.311722,"lon":5.387247,"is_reserved":false,"is_disabled":false,"rental_uris":{"android":"levelo://app?vid=a024f8e3-2392-4e71-a7f7-0493542b2626","ios":"levelo://app?vid=a024f8e3-2392-4e71-a7f7-0493542b2626"},"vehicle_type_id":"4","last_reported":1717535215,"current_range_meters":0,"station_id":"ce4bgv12rcd13ifvqcp0","pricing_plan_id":"cebpf4jnsgd1na2vs0mg"},{"bike_id":"e79eedef-ce82-4d25-b109-65d284f4bf39","system_id":"levelo_inurba_marseille","lat":43.305364,"lon":5.384119,"is_reserved":false,"is_disabled":false,"rental_uris":{"android":"levelo://app?vid=e79eedef-ce82-4d25-b109-65d284f4bf39","ios":"levelo://app?vid=e79eedef-ce82-4d25-b109-65d284f4bf39"},"vehicle_type_id":"4","last_reported":1717535215,"current_range_meters":20800,"station_id":"ce4bgg92rcd13ifvqb30","pricing_plan_id":"cebpf4jnsgd1na2vs0mg"},{"bike_id":"c8b4f769-bfaf-46d6-b397-83d4b05b3423","system_id":"levelo_inurba_marseille","lat":43.311722,"lon":5.387247,"is_reserved":false,"is_disabled":false,"rental_uris":{"android":"levelo://app?vid=c8b4f769-bfaf-46d6-b397-83d4b05b3423","ios":"levelo://app?vid=c8b4f769-bfaf-46d6-b397-83d4b05b3423"},"vehicle_type_id":"4","last_reported":1717535215,"current_range_meters":15200,"station_id":"ce4bgv12rcd13ifvqcp0","pricing_plan_id":"cebpf4jnsgd1na2vs0mg"},{"bike_id":"f7551218-9d4d-41e9-8eaf-d1071608f100","system_id":"levelo_inurba_marseille","lat":43.311894,"lon":5.387156,"is_reserved":false,"is_disabled":false,"rental_uris":{"android":"levelo://app?vid=f7551218-9d4d-41e9-8eaf-d1071608f100","ios":"levelo://app?vid=f7551218-9d4d-41e9-8eaf-d1071608f100"},"vehicle_type_id":"4","last_reported":1717535215,"current_range_meters":8400,"station_id":"ce4bgv12rcd13ifvqcp0","pricing_plan_id":"cebpf4jnsgd1na2vs0mg"},{"bike_id":"05e23942-0443-4f1a-bdbb-dce1ab84dec4","system_id":"levelo_inurba_marseille","lat":43.31171,"lon":5.38715,"is_reserved":false,"is_disabled":false,"rental_uris":{"android":"levelo://app?vid=05e23942-0443-4f1a-bdbb-dce1ab84dec4","ios":"levelo://app?vid=05e23942-0443-4f1a-bdbb-dce1ab84dec4"},"vehicle_type_id":"4","last_reported":1717535215,"current_range_meters":16800,"station_id":"ce4bgv12rcd13ifvqcp0","pricing_plan_id":"cebpf4jnsgd1na2vs0mg"},{"bike_id":"d9717b59-862c-48f1-969c-6393f40ae63a","system_id":"levelo_inurba_marseille","lat":43.311722,"lon":5.387247,"is_reserved":false,"is_disabled":false,"rental_uris":{"android":"levelo://app?vid=d9717b59-862c-48f1-969c-6393f40ae63a","ios":"levelo://app?vid=d9717b59-862c-48f1-969c-6393f40ae63a"},"vehicle_type_id":"4","last_reported":1717535215,"current_range_meters":11200,"station_id":"ce4bgv12rcd13ifvqcp0","pricing_plan_id":"cebpf4jnsgd1na2vs0mg"},{"bike_id":"6dd961b1-ab9b-479f-976c-0d14348f3de8","system_id":"levelo_inurba_marseille","lat":43.29782,"lon":5.37127,"is_reserved":false,"is_disabled":false,"rental_uris":{"android":"levelo://app?vid=6dd961b1-ab9b-479f-976c-0d14348f3de8","ios":"levelo://app?vid=6dd961b1-ab9b-479f-976c-0d14348f3de8"},"vehicle_type_id":"4","last_reported":1717535215,"current_range_meters":30400,"station_id":"ce4bgop2rcd13ifvqc1g","pricing_plan_id":"cebpf4jnsgd1na2vs0mg"},{"bike_id":"e26e5737-c3ee-472d-8e5b-cc7d88d06764","system_id":"levelo_inurba_marseille","lat":43.322872,"lon":5.382756,"is_reserved":false,"is_disabled":false,"rental_uris":{"android":"levelo://app?vid=e26e5737-c3ee-472d-8e5b-cc7d88d06764","ios":"levelo://app?vid=e26e5737-c3ee-472d-8e5b-cc7d88d06764"},"vehicle_type_id":"4","last_reported":1717535215,"current_range_meters":23200,"station_id":"ce4bhr12rcd13ifvqhqg","pricing_plan_id":"cebpf4jnsgd1na2vs0mg"},{"bike_id":"233d5014-615f-4bbd-aada-90b231a3eff2","system_id":"levelo_inurba_marseille","lat":43.3229,"lon":5.38271,"is_reserved":false,"is_disabled":false,"rental_uris":{"android":"levelo://app?vid=233d5014-615f-4bbd-aada-90b231a3eff2","ios":"levelo://app?vid=233d5014-615f-4bbd-aada-90b231a3eff2"},"vehicle_type_id":"4","last_reported":1717535215,"current_range_meters":25600,"station_id":"ce4bhr12rcd13ifvqhqg","pricing_plan_id":"cebpf4jnsgd1na2vs0mg"},{"bike_id":"b61c94f2-798b-48fb-9fe4-247d14922576","system_id":"levelo_inurba_marseille","lat":43.2968,"lon":5.37291,"is_reserved":false,"is_disabled":false,"rental_uris":{"android":"levelo://app?vid=b61c94f2-798b-48fb-9fe4-247d14922576","ios":"levelo://app?vid=b61c94f2-798b-48fb-9fe4-247d14922576"},"vehicle_type_id":"4","last_reported":1717535215,"current_range_meters":2400,"station_id":"ce4bgk12rcd13ifvqbj0","pricing_plan_id":"cebpf4jnsgd1na2vs0mg"},{"bike_id":"53b10097-88a8-4daa-a977-d5f8518610cc","system_id":"levelo_inurba_marseille","lat":43.29573,"lon":5.367355,"is_reserved":false,"is_disabled":false,"rental_uris":{"android":"levelo://app?vid=53b10097-88a8-4daa-a977-d5f8518610cc","ios":"levelo://app?vid=53b10097-88a8-4daa-a977-d5f8518610cc"},"vehicle_type_id":"4","last_reported":1717535215,"current_range_meters":13600,"station_id":"ce4bgph2rcd13ifvqc2g","pricing_plan_id":"cebpf4jnsgd1na2vs0mg"},{"bike_id":"4f87365e-8e43-4d54-a988-cdefc62c1098","system_id":"levelo_inurba_marseille","lat":43.296921,"lon":5.376579,"is_reserved":false,"is_disabled":false,"rental_uris":{"android":"levelo://app?vid=4f87365e-8e43-4d54-a988-cdefc62c1098","ios":"levelo://app?vid=4f87365e-8e43-4d54-a988-cdefc62c1098"},"vehicle_type_id":"4","last_reported":1717535215,"current_range_meters":0,"station_id":"ce4bgkh2rcd13ifvqbl0","pricing_plan_id":"cebpf4jnsgd1na2vs0mg"},{"bike_id":"a5a69a63-0ea0-4401-a7ff-aada6ba307d5","system_id":"levelo_inurba_marseille","lat":43.299,"lon":5.38135,"is_reserved":false,"is_disabled":false,"rental_uris":{"android":"levelo://app?vid=a5a69a63-0ea0-4401-a7ff-aada6ba307d5","ios":"levelo://app?vid=a5a69a63-0ea0-4401-a7ff-aada6ba307d5"},"vehicle_type_id":"4","last_reported":1717535215,"current_range_meters":0,"station_id":"ce4bgj12rcd13ifvqbc0","pricing_plan_id":"cebpf4jnsgd1na2vs0mg"},{"bike_id":"88d05a54-a2ec-477b-b667-515bcaaf6fa6","system_id":"levelo_inurba_marseille","lat":43.317557,"lon":5.390173,"is_reserved":false,"is_disabled":false,"rental_uris":{"android":"levelo://app?vid=88d05a54-a2ec-477b-b667-515bcaaf6fa6","ios":"levelo://app?vid=88d05a54-a2ec-477b-b667-515bcaaf6fa6"},"vehicle_type_id":"4","last_reported":1717535215,"current_range_meters":22400,"station_id":"ce4bhqp2rcd13ifvqhng","pricing_plan_id":"cebpf4jnsgd1na2vs0mg"},{"bike_id":"9772c578-6310-4e7a-b79a-fb4e00df543a","system_id":"levelo_inurba_marseille","lat":43.317557,"lon":5.390173,"is_reserved":false,"is_disabled":false,"rental_uris":{"android":"levelo://app?vid=9772c578-6310-4e7a-b79a-fb4e00df543a","ios":"levelo://app?vid=9772c578-6310-4e7a-b79a-fb4e00df543a"},"vehicle_type_id":"4","last_reported":1717535215,"current_range_meters":18000,"station_id":"ce4bhqp2rcd13ifvqhng","pricing_plan_id":"cebpf4jnsgd1na2vs0mg"},{"bike_id":"03afd5c5-18a3-4e9a-aaa0-c083d39604af","system_id":"levelo_inurba_marseille","lat":43.317557,"lon":5.390173,"is_reserved":false,"is_disabled":false,"rental_uris":{"android":"levelo://app?vid=03afd5c5-18a3-4e9a-aaa0-c083d39604af","ios":"levelo://app?vid=03afd5c5-18a3-4e9a-aaa0-c083d39604af"},"vehicle_type_id":"4","last_reported":1717535215,"current_range_meters":23600,"station_id":"ce4bhqp2rcd13ifvqhng","pricing_plan_id":"cebpf4jnsgd1na2vs0mg"},{"bike_id":"882d9fb5-fd40-48c3-b37f-ebca9bb7b3dc","system_id":"levelo_inurba_marseille","lat":43.30429,"lon":5.38814,"is_reserved":false,"is_disabled":false,"rental_uris":{"android":"levelo://app?vid=882d9fb5-fd40-48c3-b37f-ebca9bb7b3dc","ios":"levelo://app?vid=882d9fb5-fd40-48c3-b37f-ebca9bb7b3dc"},"vehicle_type_id":"4","last_reported":1717535215,"current_range_meters":16800,"station_id":"","pricing_plan_id":"cebpf4jnsgd1na2vs0mg"},{"bike_id":"20018a4d-5576-470a-9fb4-730e180e6ba1","system_id":"levelo_inurba_marseille","lat":43.317557,"lon":5.390173,"is_reserved":false,"is_disabled":false,"rental_uris":{"android":"levelo://app?vid=20018a4d-5576-470a-9fb4-730e180e6ba1","ios":"levelo://app?vid=20018a4d-5576-470a-9fb4-730e180e6ba1"},"vehicle_type_id":"4","last_reported":1717535215,"current_range_meters":24400,"station_id":"ce4bhqp2rcd13ifvqhng","pricing_plan_id":"cebpf4jnsgd1na2vs0mg"},{"bike_id":"f8f51f43-829a-4025-b930-bc684756852b","system_id":"levelo_inurba_marseille","lat":43.317557,"lon":5.390173,"is_reserved":false,"is_disabled":false,"rental_uris":{"android":"levelo://app?vid=f8f51f43-829a-4025-b930-bc684756852b","ios":"levelo://app?vid=f8f51f43-829a-4025-b930-bc684756852b"},"vehicle_type_id":"4","last_reported":1717535215,"current_range_meters":19200,"station_id":"ce4bhqp2rcd13ifvqhng","pricing_plan_id":"cebpf4jnsgd1na2vs0mg"},{"bike_id":"53e01832-e964-4e4c-98cc-7463609b5d93","system_id":"levelo_inurba_marseille","lat":43.298037,"lon":5.381066,"is_reserved":false,"is_disabled":false,"rental_uris":{"android":"levelo://app?vid=53e01832-e964-4e4c-98cc-7463609b5d93","ios":"levelo://app?vid=53e01832-e964-4e4c-98cc-7463609b5d93"},"vehicle_type_id":"4","last_reported":1717535215,"current_range_meters":0,"station_id":"ce4bgip2rcd13ifvqbb0","pricing_plan_id":"cebpf4jnsgd1na2vs0mg"},{"bike_id":"23fb9ca1-02a2-4697-ac18-943f17d26bcd","system_id":"levelo_inurba_marseille","lat":43.304278,"lon":5.388868,"is_reserved":false,"is_disabled":false,"rental_uris":{"android":"levelo://app?vid=23fb9ca1-02a2-4697-ac18-943f17d26bcd","ios":"levelo://app?vid=23fb9ca1-02a2-4697-ac18-943f17d26bcd"},"vehicle_type_id":"4","last_reported":1717535215,"current_range_meters":14400,"station_id":"ce4bgk12rcd13ifvqbi0","pricing_plan_id":"cebpf4jnsgd1na2vs0mg"},{"bike_id":"4f8f89ee-ee75-4381-b49f-c523f8c47ca5","system_id":"levelo_inurba_marseille","lat":43.298037,"lon":5.381066,"is_reserved":false,"is_disabled":false,"rental_uris":{"android":"levelo://app?vid=4f8f89ee-ee75-4381-b49f-c523f8c47ca5","ios":"levelo://app?vid=4f8f89ee-ee75-4381-b49f-c523f8c47ca5"},"vehicle_type_id":"4","last_reported":1717535215,"current_range_meters":3600,"station_id":"ce4bgip2rcd13ifvqbb0","pricing_plan_id":"cebpf4jnsgd1na2vs0mg"},{"bike_id":"ef62175e-5cfc-4c50-82b4-cbd48607cec0","system_id":"levelo_inurba_marseille","lat":43.295279,"lon":5.375048,"is_reserved":false,"is_disabled":false,"rental_uris":{"android":"levelo://app?vid=ef62175e-5cfc-4c50-82b4-cbd48607cec0","ios":"levelo://app?vid=ef62175e-5cfc-4c50-82b4-cbd48607cec0"},"vehicle_type_id":"4","last_reported":1717535215,"current_range_meters":20800,"station_id":"ce4bgkp2rcd13ifvqbmg","pricing_plan_id":"cebpf4jnsgd1na2vs0mg"},{"bike_id":"108c442e-e097-4318-b0ec-c75fd44c8066","system_id":"levelo_inurba_marseille","lat":43.299717,"lon":5.384845,"is_reserved":false,"is_disabled":false,"rental_uris":{"android":"levelo://app?vid=108c442e-e097-4318-b0ec-c75fd44c8066","ios":"levelo://app?vid=108c442e-e097-4318-b0ec-c75fd44c8066"},"vehicle_type_id":"4","last_reported":1717535215,"current_range_meters":3600,"station_id":"ce4bgj92rcd13ifvqbd0","pricing_plan_id":"cebpf4jnsgd1na2vs0mg"},{"bike_id":"1b2d452a-2b46-4e51-a442-0b7f7b2f970e","system_id":"levelo_inurba_marseille","lat":43.299724,"lon":5.384848,"is_reserved":false,"is_disabled":false,"rental_uris":{"android":"levelo://app?vid=1b2d452a-2b46-4e51-a442-0b7f7b2f970e","ios":"levelo://app?vid=1b2d452a-2b46-4e51-a442-0b7f7b2f970e"},"vehicle_type_id":"4","last_reported":1717535215,"current_range_meters":19600,"station_id":"ce4bgj92rcd13ifvqbd0","pricing_plan_id":"cebpf4jnsgd1na2vs0mg"},{"bike_id":"c06c1b50-0907-47f8-82e8-69152bb9419a","system_id":"levelo_inurba_marseille","lat":43.299724,"lon":5.384848,"is_reserved":false,"is_disabled":false,"rental_uris":{"android":"levelo://app?vid=c06c1b50-0907-47f8-82e8-69152bb9419a","ios":"levelo://app?vid=c06c1b50-0907-47f8-82e8-69152bb9419a"},"vehicle_type_id":"4","last_reported":1717535215,"current_range_meters":10000,"station_id":"ce4bgj92rcd13ifvqbd0","pricing_plan_id":"cebpf4jnsgd1na2vs0mg"},{"bike_id":"4733357c-5518-4581-9b91-0dbbaf34f56d","system_id":"levelo_inurba_marseille","lat":43.295748,"lon":5.37522,"is_reserved":false,"is_disabled":false,"rental_uris":{"android":"levelo://app?vid=4733357c-5518-4581-9b91-0dbbaf34f56d","ios":"levelo://app?vid=4733357c-5518-4581-9b91-0dbbaf34f56d"},"vehicle_type_id":"4","last_reported":1717535215,"current_range_meters":20400,"station_id":"ce4bgh92rcd13ifvqb50","pricing_plan_id":"cebpf4jnsgd1na2vs0mg"},{"bike_id":"6082dba6-f544-4eab-a829-84cbc22e6bcf","system_id":"levelo_inurba_marseille","lat":43.297017,"lon":5.381213,"is_reserved":false,"is_disabled":false,"rental_uris":{"android":"levelo://app?vid=6082dba6-f544-4eab-a829-84cbc22e6bcf","ios":"levelo://app?vid=6082dba6-f544-4eab-a829-84cbc22e6bcf"},"vehicle_type_id":"4","last_reported":1717535215,"current_range_meters":12400,"station_id":"","pricing_plan_id":"cebpf4jnsgd1na2vs0mg"},{"bike_id":"befc21f9-71b4-425c-b76f-0d3590918e1e","system_id":"levelo_inurba_marseille","lat":43.32377,"lon":5.38819,"is_reserved":false,"is_disabled":false,"rental_uris":{"android":"levelo://app?vid=befc21f9-71b4-425c-b76f-0d3590918e1e","ios":"levelo://app?vid=befc21f9-71b4-425c-b76f-0d3590918e1e"},"vehicle_type_id":"4","last_reported":1717535215,"current_range_meters":0,"station_id":"","pricing_plan_id":"cebpf4jnsgd1na2vs0mg"},{"bike_id":"83ba5484-b65d-483d-b5c4-e052050462c5","system_id":"levelo_inurba_marseille","lat":43.32375,"lon":5.38869,"is_reserved":false,"is_disabled":false,"rental_uris":{"android":"levelo://app?vid=83ba5484-b65d-483d-b5c4-e052050462c5","ios":"levelo://app?vid=83ba5484-b65d-483d-b5c4-e052050462c5"},"vehicle_type_id":"4","last_reported":1717535215,"current_range_meters":13200,"station_id":"ce4bhqp2rcd13ifvqhog","pricing_plan_id":"cebpf4jnsgd1na2vs0mg"},{"bike_id":"a8579ed8-8799-45f6-8a9a-356b65054625","system_id":"levelo_inurba_marseille","lat":43.32367,"lon":5.388836,"is_reserved":false,"is_disabled":false,"rental_uris":{"android":"levelo://app?vid=a8579ed8-8799-45f6-8a9a-356b65054625","ios":"levelo://app?vid=a8579ed8-8799-45f6-8a9a-356b65054625"},"vehicle_type_id":"4","last_reported":1717535215,"current_range_meters":17600,"station_id":"ce4bhqp2rcd13ifvqhog","pricing_plan_id":"cebpf4jnsgd1na2vs0mg"},{"bike_id":"b19d58dd-5fd2-413b-bc8b-fa505bbff639","system_id":"levelo_inurba_marseille","lat":43.32367,"lon":5.388836,"is_reserved":false,"is_disabled":false,"rental_uris":{"android":"levelo://app?vid=b19d58dd-5fd2-413b-bc8b-fa505bbff639","ios":"levelo://app?vid=b19d58dd-5fd2-413b-bc8b-fa505bbff639"},"vehicle_type_id":"4","last_reported":1717535215,"current_range_meters":0,"station_id":"ce4bhqp2rcd13ifvqhog","pricing_plan_id":"cebpf4jnsgd1na2vs0mg"},{"bike_id":"29a8d735-cacc-45e9-817a-f2f3248b9803","system_id":"levelo_inurba_marseille","lat":43.32367,"lon":5.388836,"is_reserved":false,"is_disabled":false,"rental_uris":{"android":"levelo://app?vid=29a8d735-cacc-45e9-817a-f2f3248b9803","ios":"levelo://app?vid=29a8d735-cacc-45e9-817a-f2f3248b9803"},"vehicle_type_id":"4","last_reported":1717535215,"current_range_meters":15200,"station_id":"ce4bhqp2rcd13ifvqhog","pricing_plan_id":"cebpf4jnsgd1na2vs0mg"},{"bike_id":"cbe100e3-50ea-4af8-b603-3e3745a260f8","system_id":"levelo_inurba_marseille","lat":43.307195,"lon":5.392375,"is_reserved":false,"is_disabled":false,"rental_uris":{"android":"levelo://app?vid=cbe100e3-50ea-4af8-b603-3e3745a260f8","ios":"levelo://app?vid=cbe100e3-50ea-4af8-b603-3e3745a260f8"},"vehicle_type_id":"4","last_reported":1717535215,"current_range_meters":13200,"station_id":"","pricing_plan_id":"cebpf4jnsgd1na2vs0mg"},{"bike_id":"3fb5f890-21d5-4f32-aa92-88b32a1389ed","system_id":"levelo_inurba_marseille","lat":43.32367,"lon":5.388885,"is_reserved":false,"is_disabled":false,"rental_uris":{"android":"levelo://app?vid=3fb5f890-21d5-4f32-aa92-88b32a1389ed","ios":"levelo://app?vid=3fb5f890-21d5-4f32-aa92-88b32a1389ed"},"vehicle_type_id":"4","last_reported":1717535215,"current_range_meters":20400,"station_id":"ce4bhqp2rcd13ifvqhog","pricing_plan_id":"cebpf4jnsgd1na2vs0mg"},{"bike_id":"f4243104-a71d-4fd7-9426-9931c224acda","system_id":"levelo_inurba_marseille","lat":43.323727,"lon":5.388842,"is_reserved":false,"is_disabled":false,"rental_uris":{"android":"levelo://app?vid=f4243104-a71d-4fd7-9426-9931c224acda","ios":"levelo://app?vid=f4243104-a71d-4fd7-9426-9931c224acda"},"vehicle_type_id":"4","last_reported":1717535215,"current_range_meters":7200,"station_id":"","pricing_plan_id":"cebpf4jnsgd1na2vs0mg"},{"bike_id":"9cb938bb-f197-419f-a133-6d56c1676c38","system_id":"levelo_inurba_marseille","lat":43.296,"lon":5.38083,"is_reserved":false,"is_disabled":false,"rental_uris":{"android":"levelo://app?vid=9cb938bb-f197-419f-a133-6d56c1676c38","ios":"levelo://app?vid=9cb938bb-f197-419f-a133-6d56c1676c38"},"vehicle_type_id":"4","last_reported":1717535215,"current_range_meters":0,"station_id":"ce4bgl12rcd13ifvqbo0","pricing_plan_id":"cebpf4jnsgd1na2vs0mg"},{"bike_id":"9f8368f4-920d-419c-9b88-6032ff7bb75f","system_id":"levelo_inurba_marseille","lat":43.29599,"lon":5.38087,"is_reserved":false,"is_disabled":false,"rental_uris":{"android":"levelo://app?vid=9f8368f4-920d-419c-9b88-6032ff7bb75f","ios":"levelo://app?vid=9f8368f4-920d-419c-9b88-6032ff7bb75f"},"vehicle_type_id":"4","last_reported":1717535215,"current_range_meters":0,"station_id":"ce4bgl12rcd13ifvqbo0","pricing_plan_id":"cebpf4jnsgd1na2vs0mg"},{"bike_id":"0b9073e1-da60-4b71-aaed-568effdf1c29","system_id":"levelo_inurba_marseille","lat":43.29594,"lon":5.38099,"is_reserved":false,"is_disabled":false,"rental_uris":{"android":"levelo://app?vid=0b9073e1-da60-4b71-aaed-568effdf1c29","ios":"levelo://app?vid=0b9073e1-da60-4b71-aaed-568effdf1c29"},"vehicle_type_id":"4","last_reported":1717535215,"current_range_meters":5600,"station_id":"ce4bgl12rcd13ifvqbo0","pricing_plan_id":"cebpf4jnsgd1na2vs0mg"},{"bike_id":"ab3bc778-346a-49f6-bcc8-03ab5a00f00b","system_id":"levelo_inurba_marseille","lat":43.292749,"lon":5.368402,"is_reserved":false,"is_disabled":false,"rental_uris":{"android":"levelo://app?vid=ab3bc778-346a-49f6-bcc8-03ab5a00f00b","ios":"levelo://app?vid=ab3bc778-346a-49f6-bcc8-03ab5a00f00b"},"vehicle_type_id":"4","last_reported":1717535215,"current_range_meters":26800,"station_id":"ce4bhbp2rcd13ifvqesg","pricing_plan_id":"cebpf4jnsgd1na2vs0mg"},{"bike_id":"fbedb8fe-9bca-4020-8db8-04af3fb15560","system_id":"levelo_inurba_marseille","lat":43.292749,"lon":5.368402,"is_reserved":false,"is_disabled":false,"rental_uris":{"android":"levelo://app?vid=fbedb8fe-9bca-4020-8db8-04af3fb15560","ios":"levelo://app?vid=fbedb8fe-9bca-4020-8db8-04af3fb15560"},"vehicle_type_id":"4","last_reported":1717535215,"current_range_meters":20800,"station_id":"ce4bhbp2rcd13ifvqesg","pricing_plan_id":"cebpf4jnsgd1na2vs0mg"},{"bike_id":"15fcaf20-c997-4fc1-9658-30f7db0909de","system_id":"levelo_inurba_marseille","lat":43.293259,"lon":5.371586,"is_reserved":false,"is_disabled":false,"rental_uris":{"android":"levelo://app?vid=15fcaf20-c997-4fc1-9658-30f7db0909de","ios":"levelo://app?vid=15fcaf20-c997-4fc1-9658-30f7db0909de"},"vehicle_type_id":"4","last_reported":1717535215,"current_range_meters":7600,"station_id":"ce4bgh92rcd13ifvqb40","pricing_plan_id":"cebpf4jnsgd1na2vs0mg"},{"bike_id":"5894df58-a048-4d47-a644-ecabc27aa436","system_id":"levelo_inurba_marseille","lat":43.303002,"lon":5.392142,"is_reserved":false,"is_disabled":false,"rental_uris":{"android":"levelo://app?vid=5894df58-a048-4d47-a644-ecabc27aa436","ios":"levelo://app?vid=5894df58-a048-4d47-a644-ecabc27aa436"},"vehicle_type_id":"4","last_reported":1717535215,"current_range_meters":31200,"station_id":"ce4bgkh2rcd13ifvqbk0","pricing_plan_id":"cebpf4jnsgd1na2vs0mg"},{"bike_id":"7868d148-f512-4ba5-977b-5b108d8e3357","system_id":"levelo_inurba_marseille","lat":43.303002,"lon":5.392142,"is_reserved":false,"is_disabled":false,"rental_uris":{"android":"levelo://app?vid=7868d148-f512-4ba5-977b-5b108d8e3357","ios":"levelo://app?vid=7868d148-f512-4ba5-977b-5b108d8e3357"},"vehicle_type_id":"4","last_reported":1717535215,"current_range_meters":14000,"station_id":"ce4bgkh2rcd13ifvqbk0","pricing_plan_id":"cebpf4jnsgd1na2vs0mg"},{"bike_id":"75ca926d-98af-425e-987c-61386da6df38","system_id":"levelo_inurba_marseille","lat":43.30456,"lon":5.39321,"is_reserved":false,"is_disabled":false,"rental_uris":{"android":"levelo://app?vid=75ca926d-98af-425e-987c-61386da6df38","ios":"levelo://app?vid=75ca926d-98af-425e-987c-61386da6df38"},"vehicle_type_id":"4","last_reported":1717535215,"current_range_meters":18000,"station_id":"","pricing_plan_id":"cebpf4jnsgd1na2vs0mg"},{"bike_id":"fd96fef2-3f3f-4aae-91e6-cb5e5c684ad4","system_id":"levelo_inurba_marseille","lat":43.30337,"lon":5.39252,"is_reserved":false,"is_disabled":false,"rental_uris":{"android":"levelo://app?vid=fd96fef2-3f3f-4aae-91e6-cb5e5c684ad4","ios":"levelo://app?vid=fd96fef2-3f3f-4aae-91e6-cb5e5c684ad4"},"vehicle_type_id":"4","last_reported":1717535215,"current_range_meters":4400,"station_id":"","pricing_plan_id":"cebpf4jnsgd1na2vs0mg"},{"bike_id":"210e8177-c06e-4d94-98a7-23e12885c835","system_id":"levelo_inurba_marseille","lat":43.2936,"lon":5.37835,"is_reserved":false,"is_disabled":false,"rental_uris":{"android":"levelo://app?vid=210e8177-c06e-4d94-98a7-23e12885c835","ios":"levelo://app?vid=210e8177-c06e-4d94-98a7-23e12885c835"},"vehicle_type_id":"4","last_reported":1717535215,"current_range_meters":11600,"station_id":"ce4bgjh2rcd13ifvqbf0","pricing_plan_id":"cebpf4jnsgd1na2vs0mg"},{"bike_id":"8c1b3c78-55c1-43ce-a0ba-b32eb2af3b75","system_id":"levelo_inurba_marseille","lat":43.30103,"lon":5.390757,"is_reserved":false,"is_disabled":false,"rental_uris":{"android":"levelo://app?vid=8c1b3c78-55c1-43ce-a0ba-b32eb2af3b75","ios":"levelo://app?vid=8c1b3c78-55c1-43ce-a0ba-b32eb2af3b75"},"vehicle_type_id":"4","last_reported":1717535215,"current_range_meters":10000,"station_id":"ce4bh192rcd13ifvqdb0","pricing_plan_id":"cebpf4jnsgd1na2vs0mg"},{"bike_id":"6daf4bac-2b12-4b47-b424-fc004a887200","system_id":"levelo_inurba_marseille","lat":43.30092,"lon":5.39067,"is_reserved":false,"is_disabled":false,"rental_uris":{"android":"levelo://app?vid=6daf4bac-2b12-4b47-b424-fc004a887200","ios":"levelo://app?vid=6daf4bac-2b12-4b47-b424-fc004a887200"},"vehicle_type_id":"4","last_reported":1717535215,"current_range_meters":26400,"station_id":"ce4bh192rcd13ifvqdb0","pricing_plan_id":"cebpf4jnsgd1na2vs0mg"},{"bike_id":"642ffd45-0b3a-4328-93da-0a71009d4746","system_id":"levelo_inurba_marseille","lat":43.30094,"lon":5.39072,"is_reserved":false,"is_disabled":false,"rental_uris":{"android":"levelo://app?vid=642ffd45-0b3a-4328-93da-0a71009d4746","ios":"levelo://app?vid=642ffd45-0b3a-4328-93da-0a71009d4746"},"vehicle_type_id":"4","last_reported":1717535215,"current_range_meters":24800,"station_id":"ce4bh192rcd13ifvqdb0","pricing_plan_id":"cebpf4jnsgd1na2vs0mg"},{"bike_id":"2341db84-7a8b-41b8-aad6-9b0180458a18","system_id":"levelo_inurba_marseille","lat":43.30081,"lon":5.39082,"is_reserved":false,"is_disabled":false,"rental_uris":{"android":"levelo://app?vid=2341db84-7a8b-41b8-aad6-9b0180458a18","ios":"levelo://app?vid=2341db84-7a8b-41b8-aad6-9b0180458a18"},"vehicle_type_id":"4","last_reported":1717535215,"current_range_meters":23600,"station_id":"ce4bh192rcd13ifvqdb0","pricing_plan_id":"cebpf4jnsgd1na2vs0mg"},{"bike_id":"408dff57-fe35-467f-92ee-8528a2d0d584","system_id":"levelo_inurba_marseille","lat":43.298764,"lon":5.388973,"is_reserved":false,"is_disabled":false,"rental_uris":{"android":"levelo://app?vid=408dff57-fe35-467f-92ee-8528a2d0d584","ios":"levelo://app?vid=408dff57-fe35-467f-92ee-8528a2d0d584"},"vehicle_type_id":"4","last_reported":1717535215,"current_range_meters":26800,"station_id":"ce4bh392rcd13ifvqdl0","pricing_plan_id":"cebpf4jnsgd1na2vs0mg"},{"bike_id":"3889cd3c-d964-4961-a1ec-d28f96675a4f","system_id":"levelo_inurba_marseille","lat":43.290336,"lon":5.386425,"is_reserved":false,"is_disabled":false,"rental_uris":{"android":"levelo://app?vid=3889cd3c-d964-4961-a1ec-d28f96675a4f","ios":"levelo://app?vid=3889cd3c-d964-4961-a1ec-d28f96675a4f"},"vehicle_type_id":"4","last_reported":1717535215,"current_range_meters":31200,"station_id":"ce4bh4p2rcd13ifvqe0g","pricing_plan_id":"cebpf4jnsgd1na2vs0mg"},{"bike_id":"de9c26f9-034e-465e-8c07-666a3f2042ab","system_id":"levelo_inurba_marseille","lat":43.309047,"lon":5.396551,"is_reserved":false,"is_disabled":false,"rental_uris":{"android":"levelo://app?vid=de9c26f9-034e-465e-8c07-666a3f2042ab","ios":"levelo://app?vid=de9c26f9-034e-465e-8c07-666a3f2042ab"},"vehicle_type_id":"4","last_reported":1717535215,"current_range_meters":17200,"station_id":"ce4bh012rcd13ifvqcv0","pricing_plan_id":"cebpf4jnsgd1na2vs0mg"},{"bike_id":"86e5ad22-30a4-4408-84a0-1d2e561be50c","system_id":"levelo_inurba_marseille","lat":43.309047,"lon":5.396551,"is_reserved":false,"is_disabled":false,"rental_uris":{"android":"levelo://app?vid=86e5ad22-30a4-4408-84a0-1d2e561be50c","ios":"levelo://app?vid=86e5ad22-30a4-4408-84a0-1d2e561be50c"},"vehicle_type_id":"4","last_reported":1717535215,"current_range_meters":24000,"station_id":"ce4bh012rcd13ifvqcv0","pricing_plan_id":"cebpf4jnsgd1na2vs0mg"},{"bike_id":"e324fa56-45a2-4d6d-bfc5-e57f9ad478ac","system_id":"levelo_inurba_marseille","lat":43.308783,"lon":5.396283,"is_reserved":false,"is_disabled":false,"rental_uris":{"android":"levelo://app?vid=e324fa56-45a2-4d6d-bfc5-e57f9ad478ac","ios":"levelo://app?vid=e324fa56-45a2-4d6d-bfc5-e57f9ad478ac"},"vehicle_type_id":"4","last_reported":1717535215,"current_range_meters":10800,"station_id":"ce4bh012rcd13ifvqcv0","pricing_plan_id":"cebpf4jnsgd1na2vs0mg"},{"bike_id":"d90ae59f-2333-4913-9a8e-984ecba2e5e9","system_id":"levelo_inurba_marseille","lat":43.309038,"lon":5.396546,"is_reserved":false,"is_disabled":false,"rental_uris":{"android":"levelo://app?vid=d90ae59f-2333-4913-9a8e-984ecba2e5e9","ios":"levelo://app?vid=d90ae59f-2333-4913-9a8e-984ecba2e5e9"},"vehicle_type_id":"4","last_reported":1717535215,"current_range_meters":4800,"station_id":"ce4bh012rcd13ifvqcv0","pricing_plan_id":"cebpf4jnsgd1na2vs0mg"},{"bike_id":"049f7bbe-8130-4d70-ba18-f2c83a3622f9","system_id":"levelo_inurba_marseille","lat":43.309038,"lon":5.396546,"is_reserved":false,"is_disabled":false,"rental_uris":{"android":"levelo://app?vid=049f7bbe-8130-4d70-ba18-f2c83a3622f9","ios":"levelo://app?vid=049f7bbe-8130-4d70-ba18-f2c83a3622f9"},"vehicle_type_id":"4","last_reported":1717535215,"current_range_meters":0,"station_id":"ce4bh012rcd13ifvqcv0","pricing_plan_id":"cebpf4jnsgd1na2vs0mg"},{"bike_id":"02ff65cc-6ce4-4877-8cb7-f5acd8cca3a0","system_id":"levelo_inurba_marseille","lat":43.313291,"lon":5.396838,"is_reserved":false,"is_disabled":false,"rental_uris":{"android":"levelo://app?vid=02ff65cc-6ce4-4877-8cb7-f5acd8cca3a0","ios":"levelo://app?vid=02ff65cc-6ce4-4877-8cb7-f5acd8cca3a0"},"vehicle_type_id":"4","last_reported":1717535215,"current_range_meters":18800,"station_id":"ce4bgvp2rcd13ifvqcu0","pricing_plan_id":"cebpf4jnsgd1na2vs0mg"},{"bike_id":"faf58db9-f460-4d3c-af56-69d4dbae3001","system_id":"levelo_inurba_marseille","lat":43.313291,"lon":5.396838,"is_reserved":false,"is_disabled":false,"rental_uris":{"android":"levelo://app?vid=faf58db9-f460-4d3c-af56-69d4dbae3001","ios":"levelo://app?vid=faf58db9-f460-4d3c-af56-69d4dbae3001"},"vehicle_type_id":"4","last_reported":1717535215,"current_range_meters":8800,"station_id":"ce4bgvp2rcd13ifvqcu0","pricing_plan_id":"cebpf4jnsgd1na2vs0mg"},{"bike_id":"021f397c-e8e5-4a86-ad34-c3b22daa6f8a","system_id":"levelo_inurba_marseille","lat":43.309047,"lon":5.396551,"is_reserved":false,"is_disabled":false,"rental_uris":{"android":"levelo://app?vid=021f397c-e8e5-4a86-ad34-c3b22daa6f8a","ios":"levelo://app?vid=021f397c-e8e5-4a86-ad34-c3b22daa6f8a"},"vehicle_type_id":"4","last_reported":1717535215,"current_range_meters":19600,"station_id":"ce4bh012rcd13ifvqcv0","pricing_plan_id":"cebpf4jnsgd1na2vs0mg"},{"bike_id":"62ff205b-ab5f-49c1-8fa8-2d9e11b890b2","system_id":"levelo_inurba_marseille","lat":43.309047,"lon":5.396551,"is_reserved":false,"is_disabled":false,"rental_uris":{"android":"levelo://app?vid=62ff205b-ab5f-49c1-8fa8-2d9e11b890b2","ios":"levelo://app?vid=62ff205b-ab5f-49c1-8fa8-2d9e11b890b2"},"vehicle_type_id":"4","last_reported":1717535215,"current_range_meters":24400,"station_id":"ce4bh012rcd13ifvqcv0","pricing_plan_id":"cebpf4jnsgd1na2vs0mg"},{"bike_id":"43632675-0625-4dae-9868-1a7be9c5427b","system_id":"levelo_inurba_marseille","lat":43.30878,"lon":5.39644,"is_reserved":false,"is_disabled":false,"rental_uris":{"android":"levelo://app?vid=43632675-0625-4dae-9868-1a7be9c5427b","ios":"levelo://app?vid=43632675-0625-4dae-9868-1a7be9c5427b"},"vehicle_type_id":"4","last_reported":1717535215,"current_range_meters":0,"station_id":"ce4bh012rcd13ifvqcv0","pricing_plan_id":"cebpf4jnsgd1na2vs0mg"},{"bike_id":"91202ba7-e721-4b91-ae9c-1a277a54a7e4","system_id":"levelo_inurba_marseille","lat":43.313291,"lon":5.396838,"is_reserved":false,"is_disabled":false,"rental_uris":{"android":"levelo://app?vid=91202ba7-e721-4b91-ae9c-1a277a54a7e4","ios":"levelo://app?vid=91202ba7-e721-4b91-ae9c-1a277a54a7e4"},"vehicle_type_id":"4","last_reported":1717535215,"current_range_meters":0,"station_id":"ce4bgvp2rcd13ifvqcu0","pricing_plan_id":"cebpf4jnsgd1na2vs0mg"},{"bike_id":"07e696ca-4a83-463e-83f3-fffac8f2bd7c","system_id":"levelo_inurba_marseille","lat":43.313291,"lon":5.396838,"is_reserved":false,"is_disabled":false,"rental_uris":{"android":"levelo://app?vid=07e696ca-4a83-463e-83f3-fffac8f2bd7c","ios":"levelo://app?vid=07e696ca-4a83-463e-83f3-fffac8f2bd7c"},"vehicle_type_id":"4","last_reported":1717535215,"current_range_meters":0,"station_id":"ce4bgvp2rcd13ifvqcu0","pricing_plan_id":"cebpf4jnsgd1na2vs0mg"},{"bike_id":"ac15f4b5-d2cc-4cba-88e9-607805cfe057","system_id":"levelo_inurba_marseille","lat":43.309038,"lon":5.396546,"is_reserved":false,"is_disabled":false,"rental_uris":{"android":"levelo://app?vid=ac15f4b5-d2cc-4cba-88e9-607805cfe057","ios":"levelo://app?vid=ac15f4b5-d2cc-4cba-88e9-607805cfe057"},"vehicle_type_id":"4","last_reported":1717535215,"current_range_meters":12400,"station_id":"ce4bh012rcd13ifvqcv0","pricing_plan_id":"cebpf4jnsgd1na2vs0mg"},{"bike_id":"4d3c82a3-c6c6-4d5c-a61a-301f82f9bcdc","system_id":"levelo_inurba_marseille","lat":43.313291,"lon":5.396838,"is_reserved":false,"is_disabled":false,"rental_uris":{"android":"levelo://app?vid=4d3c82a3-c6c6-4d5c-a61a-301f82f9bcdc","ios":"levelo://app?vid=4d3c82a3-c6c6-4d5c-a61a-301f82f9bcdc"},"vehicle_type_id":"4","last_reported":1717535215,"current_range_meters":28000,"station_id":"ce4bgvp2rcd13ifvqcu0","pricing_plan_id":"cebpf4jnsgd1na2vs0mg"},{"bike_id":"1498370f-2b37-4ae7-810f-68823433963d","system_id":"levelo_inurba_marseille","lat":43.309047,"lon":5.396551,"is_reserved":false,"is_disabled":false,"rental_uris":{"android":"levelo://app?vid=1498370f-2b37-4ae7-810f-68823433963d","ios":"levelo://app?vid=1498370f-2b37-4ae7-810f-68823433963d"},"vehicle_type_id":"4","last_reported":1717535215,"current_range_meters":0,"station_id":"ce4bh012rcd13ifvqcv0","pricing_plan_id":"cebpf4jnsgd1na2vs0mg"},{"bike_id":"363436d8-3b4f-43db-97fc-86b96f5a2c24","system_id":"levelo_inurba_marseille","lat":43.309047,"lon":5.396551,"is_reserved":false,"is_disabled":false,"rental_uris":{"android":"levelo://app?vid=363436d8-3b4f-43db-97fc-86b96f5a2c24","ios":"levelo://app?vid=363436d8-3b4f-43db-97fc-86b96f5a2c24"},"vehicle_type_id":"4","last_reported":1717535215,"current_range_meters":0,"station_id":"ce4bh012rcd13ifvqcv0","pricing_plan_id":"cebpf4jnsgd1na2vs0mg"},{"bike_id":"89b16663-d170-424f-94ae-179f51cf1116","system_id":"levelo_inurba_marseille","lat":43.309038,"lon":5.396546,"is_reserved":false,"is_disabled":false,"rental_uris":{"android":"levelo://app?vid=89b16663-d170-424f-94ae-179f51cf1116","ios":"levelo://app?vid=89b16663-d170-424f-94ae-179f51cf1116"},"vehicle_type_id":"4","last_reported":1717535215,"current_range_meters":23200,"station_id":"ce4bh012rcd13ifvqcv0","pricing_plan_id":"cebpf4jnsgd1na2vs0mg"},{"bike_id":"61428c9b-31ea-4510-a9c0-9c4166692cc7","system_id":"levelo_inurba_marseille","lat":43.29529,"lon":5.385581,"is_reserved":false,"is_disabled":false,"rental_uris":{"android":"levelo://app?vid=61428c9b-31ea-4510-a9c0-9c4166692cc7","ios":"levelo://app?vid=61428c9b-31ea-4510-a9c0-9c4166692cc7"},"vehicle_type_id":"4","last_reported":1717535215,"current_range_meters":28000,"station_id":"ce4bgih2rcd13ifvqba0","pricing_plan_id":"cebpf4jnsgd1na2vs0mg"},{"bike_id":"b1288145-7b59-4d37-8142-88ed4b49ec02","system_id":"levelo_inurba_marseille","lat":43.29529,"lon":5.385581,"is_reserved":false,"is_disabled":false,"rental_uris":{"android":"levelo://app?vid=b1288145-7b59-4d37-8142-88ed4b49ec02","ios":"levelo://app?vid=b1288145-7b59-4d37-8142-88ed4b49ec02"},"vehicle_type_id":"4","last_reported":1717535215,"current_range_meters":0,"station_id":"ce4bgih2rcd13ifvqba0","pricing_plan_id":"cebpf4jnsgd1na2vs0mg"},{"bike_id":"9082466b-8cf3-4aaf-b216-e05b2821a9ca","system_id":"levelo_inurba_marseille","lat":43.29535,"lon":5.38545,"is_reserved":false,"is_disabled":false,"rental_uris":{"android":"levelo://app?vid=9082466b-8cf3-4aaf-b216-e05b2821a9ca","ios":"levelo://app?vid=9082466b-8cf3-4aaf-b216-e05b2821a9ca"},"vehicle_type_id":"4","last_reported":1717535215,"current_range_meters":21200,"station_id":"ce4bgih2rcd13ifvqba0","pricing_plan_id":"cebpf4jnsgd1na2vs0mg"},{"bike_id":"dbf3e8ad-002b-4e59-a19e-6c735670c731","system_id":"levelo_inurba_marseille","lat":43.29529,"lon":5.385581,"is_reserved":false,"is_disabled":false,"rental_uris":{"android":"levelo://app?vid=dbf3e8ad-002b-4e59-a19e-6c735670c731","ios":"levelo://app?vid=dbf3e8ad-002b-4e59-a19e-6c735670c731"},"vehicle_type_id":"4","last_reported":1717535215,"current_range_meters":28400,"station_id":"ce4bgih2rcd13ifvqba0","pricing_plan_id":"cebpf4jnsgd1na2vs0mg"},{"bike_id":"52b151db-af68-4c38-b241-113e37605454","system_id":"levelo_inurba_marseille","lat":43.29529,"lon":5.385581,"is_reserved":false,"is_disabled":false,"rental_uris":{"android":"levelo://app?vid=52b151db-af68-4c38-b241-113e37605454","ios":"levelo://app?vid=52b151db-af68-4c38-b241-113e37605454"},"vehicle_type_id":"4","last_reported":1717535215,"current_range_meters":29600,"station_id":"ce4bgih2rcd13ifvqba0","pricing_plan_id":"cebpf4jnsgd1na2vs0mg"},{"bike_id":"c017cc18-e8c3-4472-a155-5712adea8b06","system_id":"levelo_inurba_marseille","lat":43.304274,"lon":5.388873,"is_reserved":false,"is_disabled":false,"rental_uris":{"android":"levelo://app?vid=c017cc18-e8c3-4472-a155-5712adea8b06","ios":"levelo://app?vid=c017cc18-e8c3-4472-a155-5712adea8b06"},"vehicle_type_id":"4","last_reported":1717535215,"current_range_meters":16000,"station_id":"ce4bgk12rcd13ifvqbi0","pricing_plan_id":"cebpf4jnsgd1na2vs0mg"},{"bike_id":"d30d3b16-8f64-40a4-b79c-0f1bf221ddb9","system_id":"levelo_inurba_marseille","lat":43.302008,"lon":5.394694,"is_reserved":false,"is_disabled":false,"rental_uris":{"android":"levelo://app?vid=d30d3b16-8f64-40a4-b79c-0f1bf221ddb9","ios":"levelo://app?vid=d30d3b16-8f64-40a4-b79c-0f1bf221ddb9"},"vehicle_type_id":"4","last_reported":1717535215,"current_range_meters":16000,"station_id":"ce4bh0p2rcd13ifvqd70","pricing_plan_id":"cebpf4jnsgd1na2vs0mg"},{"bike_id":"78c7c735-86db-4e8a-b94d-5dde1ab9935d","system_id":"levelo_inurba_marseille","lat":43.302008,"lon":5.394694,"is_reserved":false,"is_disabled":false,"rental_uris":{"android":"levelo://app?vid=78c7c735-86db-4e8a-b94d-5dde1ab9935d","ios":"levelo://app?vid=78c7c735-86db-4e8a-b94d-5dde1ab9935d"},"vehicle_type_id":"4","last_reported":1717535215,"current_range_meters":0,"station_id":"ce4bh0p2rcd13ifvqd70","pricing_plan_id":"cebpf4jnsgd1na2vs0mg"},{"bike_id":"f2b8de13-ba37-496d-a4ea-d91a46342c03","system_id":"levelo_inurba_marseille","lat":43.290327,"lon":5.375711,"is_reserved":false,"is_disabled":false,"rental_uris":{"android":"levelo://app?vid=f2b8de13-ba37-496d-a4ea-d91a46342c03","ios":"levelo://app?vid=f2b8de13-ba37-496d-a4ea-d91a46342c03"},"vehicle_type_id":"4","last_reported":1717535215,"current_range_meters":17200,"station_id":"ce4bh692rcd13ifvqe90","pricing_plan_id":"cebpf4jnsgd1na2vs0mg"},{"bike_id":"64175a99-c29b-48a6-bc6b-05b5beb4b38e","system_id":"levelo_inurba_marseille","lat":43.29421,"lon":5.38624,"is_reserved":false,"is_disabled":false,"rental_uris":{"android":"levelo://app?vid=64175a99-c29b-48a6-bc6b-05b5beb4b38e","ios":"levelo://app?vid=64175a99-c29b-48a6-bc6b-05b5beb4b38e"},"vehicle_type_id":"4","last_reported":1717535215,"current_range_meters":0,"station_id":"ce4bh2h2rcd13ifvqdh0","pricing_plan_id":"cebpf4jnsgd1na2vs0mg"},{"bike_id":"2f9d18b6-bbf0-421c-8b7d-3229121e0d1e","system_id":"levelo_inurba_marseille","lat":43.290327,"lon":5.375711,"is_reserved":false,"is_disabled":false,"rental_uris":{"android":"levelo://app?vid=2f9d18b6-bbf0-421c-8b7d-3229121e0d1e","ios":"levelo://app?vid=2f9d18b6-bbf0-421c-8b7d-3229121e0d1e"},"vehicle_type_id":"4","last_reported":1717535215,"current_range_meters":30000,"station_id":"ce4bh692rcd13ifvqe90","pricing_plan_id":"cebpf4jnsgd1na2vs0mg"},{"bike_id":"e5ff0f84-f88b-40a0-9c95-cb89329db23d","system_id":"levelo_inurba_marseille","lat":43.294162,"lon":5.386292,"is_reserved":false,"is_disabled":false,"rental_uris":{"android":"levelo://app?vid=e5ff0f84-f88b-40a0-9c95-cb89329db23d","ios":"levelo://app?vid=e5ff0f84-f88b-40a0-9c95-cb89329db23d"},"vehicle_type_id":"4","last_reported":1717535215,"current_range_meters":28800,"station_id":"ce4bh2h2rcd13ifvqdh0","pricing_plan_id":"cebpf4jnsgd1na2vs0mg"},{"bike_id":"1f3c03f5-aa31-4075-a3b5-e3fd8c7c20ab","system_id":"levelo_inurba_marseille","lat":43.29419,"lon":5.38629,"is_reserved":false,"is_disabled":false,"rental_uris":{"android":"levelo://app?vid=1f3c03f5-aa31-4075-a3b5-e3fd8c7c20ab","ios":"levelo://app?vid=1f3c03f5-aa31-4075-a3b5-e3fd8c7c20ab"},"vehicle_type_id":"4","last_reported":1717535215,"current_range_meters":0,"station_id":"ce4bh2h2rcd13ifvqdh0","pricing_plan_id":"cebpf4jnsgd1na2vs0mg"},{"bike_id":"b6e126b0-8252-4abc-9abf-2a96efbff12f","system_id":"levelo_inurba_marseille","lat":43.289468,"lon":5.363719,"is_reserved":false,"is_disabled":false,"rental_uris":{"android":"levelo://app?vid=b6e126b0-8252-4abc-9abf-2a96efbff12f","ios":"levelo://app?vid=b6e126b0-8252-4abc-9abf-2a96efbff12f"},"vehicle_type_id":"4","last_reported":1717535215,"current_range_meters":2000,"station_id":"ce4bhc92rcd13ifvqetg","pricing_plan_id":"cebpf4jnsgd1na2vs0mg"},{"bike_id":"392b7dee-cb97-426f-9dff-5a274817f98a","system_id":"levelo_inurba_marseille","lat":43.289184,"lon":5.366408,"is_reserved":false,"is_disabled":false,"rental_uris":{"android":"levelo://app?vid=392b7dee-cb97-426f-9dff-5a274817f98a","ios":"levelo://app?vid=392b7dee-cb97-426f-9dff-5a274817f98a"},"vehicle_type_id":"4","last_reported":1717535215,"current_range_meters":12000,"station_id":"ce4bhap2rcd13ifvqek0","pricing_plan_id":"cebpf4jnsgd1na2vs0mg"},{"bike_id":"34ad0b9f-3acf-43f2-b7ed-d0af51372a16","system_id":"levelo_inurba_marseille","lat":43.29264,"lon":5.38433,"is_reserved":false,"is_disabled":false,"rental_uris":{"android":"levelo://app?vid=34ad0b9f-3acf-43f2-b7ed-d0af51372a16","ios":"levelo://app?vid=34ad0b9f-3acf-43f2-b7ed-d0af51372a16"},"vehicle_type_id":"4","last_reported":1717535215,"current_range_meters":24400,"station_id":"ce4bh692rcd13ifvqea0","pricing_plan_id":"cebpf4jnsgd1na2vs0mg"},{"bike_id":"13c82848-115b-4d1b-9c2b-6aa2122b79eb","system_id":"levelo_inurba_marseille","lat":43.29267,"lon":5.384403,"is_reserved":false,"is_disabled":false,"rental_uris":{"android":"levelo://app?vid=13c82848-115b-4d1b-9c2b-6aa2122b79eb","ios":"levelo://app?vid=13c82848-115b-4d1b-9c2b-6aa2122b79eb"},"vehicle_type_id":"4","last_reported":1717535215,"current_range_meters":5600,"station_id":"ce4bh692rcd13ifvqea0","pricing_plan_id":"cebpf4jnsgd1na2vs0mg"},{"bike_id":"98cc07d7-91a0-4887-a00e-c9fddaaa413e","system_id":"levelo_inurba_marseille","lat":43.292644,"lon":5.384257,"is_reserved":false,"is_disabled":false,"rental_uris":{"android":"levelo://app?vid=98cc07d7-91a0-4887-a00e-c9fddaaa413e","ios":"levelo://app?vid=98cc07d7-91a0-4887-a00e-c9fddaaa413e"},"vehicle_type_id":"4","last_reported":1717535215,"current_range_meters":12400,"station_id":"ce4bh692rcd13ifvqea0","pricing_plan_id":"cebpf4jnsgd1na2vs0mg"},{"bike_id":"f3bcde00-14aa-4870-9baf-e88affcefb3c","system_id":"levelo_inurba_marseille","lat":43.292644,"lon":5.384257,"is_reserved":false,"is_disabled":false,"rental_uris":{"android":"levelo://app?vid=f3bcde00-14aa-4870-9baf-e88affcefb3c","ios":"levelo://app?vid=f3bcde00-14aa-4870-9baf-e88affcefb3c"},"vehicle_type_id":"4","last_reported":1717535215,"current_range_meters":27600,"station_id":"ce4bh692rcd13ifvqea0","pricing_plan_id":"cebpf4jnsgd1na2vs0mg"},{"bike_id":"78dcdda2-21bf-429c-a105-958ccf446ff4","system_id":"levelo_inurba_marseille","lat":43.29256,"lon":5.38438,"is_reserved":false,"is_disabled":false,"rental_uris":{"android":"levelo://app?vid=78dcdda2-21bf-429c-a105-958ccf446ff4","ios":"levelo://app?vid=78dcdda2-21bf-429c-a105-958ccf446ff4"},"vehicle_type_id":"4","last_reported":1717535215,"current_range_meters":25200,"station_id":"ce4bh692rcd13ifvqea0","pricing_plan_id":"cebpf4jnsgd1na2vs0mg"},{"bike_id":"a10888e3-c2ab-4c97-ae82-5cffbdb2f08c","system_id":"levelo_inurba_marseille","lat":43.290995,"lon":5.381361,"is_reserved":false,"is_disabled":false,"rental_uris":{"android":"levelo://app?vid=a10888e3-c2ab-4c97-ae82-5cffbdb2f08c","ios":"levelo://app?vid=a10888e3-c2ab-4c97-ae82-5cffbdb2f08c"},"vehicle_type_id":"4","last_reported":1717535215,"current_range_meters":22800,"station_id":"ce4bh512rcd13ifvqe2g","pricing_plan_id":"cebpf4jnsgd1na2vs0mg"},{"bike_id":"d6d4e917-03c0-4826-b183-6c8b91826674","system_id":"levelo_inurba_marseille","lat":43.290995,"lon":5.381361,"is_reserved":false,"is_disabled":false,"rental_uris":{"android":"levelo://app?vid=d6d4e917-03c0-4826-b183-6c8b91826674","ios":"levelo://app?vid=d6d4e917-03c0-4826-b183-6c8b91826674"},"vehicle_type_id":"4","last_reported":1717535215,"current_range_meters":15600,"station_id":"ce4bh512rcd13ifvqe2g","pricing_plan_id":"cebpf4jnsgd1na2vs0mg"},{"bike_id":"6e80c515-4eb3-47a1-a8e9-e52f5fafc2a1","system_id":"levelo_inurba_marseille","lat":43.290945,"lon":5.381538,"is_reserved":false,"is_disabled":false,"rental_uris":{"android":"levelo://app?vid=6e80c515-4eb3-47a1-a8e9-e52f5fafc2a1","ios":"levelo://app?vid=6e80c515-4eb3-47a1-a8e9-e52f5fafc2a1"},"vehicle_type_id":"4","last_reported":1717535215,"current_range_meters":0,"station_id":"ce4bh512rcd13ifvqe2g","pricing_plan_id":"cebpf4jnsgd1na2vs0mg"},{"bike_id":"4c8300b7-e2c5-48ac-9ae2-8ff135796613","system_id":"levelo_inurba_marseille","lat":43.293259,"lon":5.371586,"is_reserved":false,"is_disabled":false,"rental_uris":{"android":"levelo://app?vid=4c8300b7-e2c5-48ac-9ae2-8ff135796613","ios":"levelo://app?vid=4c8300b7-e2c5-48ac-9ae2-8ff135796613"},"vehicle_type_id":"4","last_reported":1717535215,"current_range_meters":5600,"station_id":"ce4bgh92rcd13ifvqb40","pricing_plan_id":"cebpf4jnsgd1na2vs0mg"},{"bike_id":"e73dc700-b700-40b4-9f9e-3bd358236323","system_id":"levelo_inurba_marseille","lat":43.29782,"lon":5.39328,"is_reserved":false,"is_disabled":false,"rental_uris":{"android":"levelo://app?vid=e73dc700-b700-40b4-9f9e-3bd358236323","ios":"levelo://app?vid=e73dc700-b700-40b4-9f9e-3bd358236323"},"vehicle_type_id":"4","last_reported":1717535215,"current_range_meters":5200,"station_id":"chh1huq6cuj3fo74tm60","pricing_plan_id":"cebpf4jnsgd1na2vs0mg"},{"bike_id":"fcd15743-6571-415d-820c-15ace2b63673","system_id":"levelo_inurba_marseille","lat":43.297815,"lon":5.393548,"is_reserved":false,"is_disabled":false,"rental_uris":{"android":"levelo://app?vid=fcd15743-6571-415d-820c-15ace2b63673","ios":"levelo://app?vid=fcd15743-6571-415d-820c-15ace2b63673"},"vehicle_type_id":"4","last_reported":1717535215,"current_range_meters":19600,"station_id":"chh1huq6cuj3fo74tm60","pricing_plan_id":"cebpf4jnsgd1na2vs0mg"},{"bike_id":"0beb7888-2e89-4ef9-8a87-b39fbfa2c062","system_id":"levelo_inurba_marseille","lat":43.330226,"lon":5.390274,"is_reserved":false,"is_disabled":false,"rental_uris":{"android":"levelo://app?vid=0beb7888-2e89-4ef9-8a87-b39fbfa2c062","ios":"levelo://app?vid=0beb7888-2e89-4ef9-8a87-b39fbfa2c062"},"vehicle_type_id":"4","last_reported":1717535215,"current_range_meters":11600,"station_id":"ce4bhr92rcd13ifvqhrg","pricing_plan_id":"cebpf4jnsgd1na2vs0mg"},{"bike_id":"3c89943f-109d-469c-b53a-a61212ff7a9d","system_id":"levelo_inurba_marseille","lat":43.33021,"lon":5.39033,"is_reserved":false,"is_disabled":false,"rental_uris":{"android":"levelo://app?vid=3c89943f-109d-469c-b53a-a61212ff7a9d","ios":"levelo://app?vid=3c89943f-109d-469c-b53a-a61212ff7a9d"},"vehicle_type_id":"4","last_reported":1717535215,"current_range_meters":0,"station_id":"ce4bhr92rcd13ifvqhrg","pricing_plan_id":"cebpf4jnsgd1na2vs0mg"},{"bike_id":"20606538-44e9-410f-9c9c-f9af6f353754","system_id":"levelo_inurba_marseille","lat":43.289741,"lon":5.378306,"is_reserved":false,"is_disabled":false,"rental_uris":{"android":"levelo://app?vid=20606538-44e9-410f-9c9c-f9af6f353754","ios":"levelo://app?vid=20606538-44e9-410f-9c9c-f9af6f353754"},"vehicle_type_id":"4","last_reported":1717535215,"current_range_meters":6000,"station_id":"ce4bh9p2rcd13ifvqed0","pricing_plan_id":"cebpf4jnsgd1na2vs0mg"},{"bike_id":"02eca8f1-8844-49a1-a4c1-1390935dc5ba","system_id":"levelo_inurba_marseille","lat":43.295169,"lon":5.390426,"is_reserved":false,"is_disabled":false,"rental_uris":{"android":"levelo://app?vid=02eca8f1-8844-49a1-a4c1-1390935dc5ba","ios":"levelo://app?vid=02eca8f1-8844-49a1-a4c1-1390935dc5ba"},"vehicle_type_id":"4","last_reported":1717535215,"current_range_meters":31200,"station_id":"ce4bh3p2rcd13ifvqdp0","pricing_plan_id":"cebpf4jnsgd1na2vs0mg"},{"bike_id":"7473c5cd-ae56-4550-a397-a6b2fa2b112c","system_id":"levelo_inurba_marseille","lat":43.289741,"lon":5.378306,"is_reserved":false,"is_disabled":false,"rental_uris":{"android":"levelo://app?vid=7473c5cd-ae56-4550-a397-a6b2fa2b112c","ios":"levelo://app?vid=7473c5cd-ae56-4550-a397-a6b2fa2b112c"},"vehicle_type_id":"4","last_reported":1717535215,"current_range_meters":1600,"station_id":"ce4bh9p2rcd13ifvqed0","pricing_plan_id":"cebpf4jnsgd1na2vs0mg"},{"bike_id":"f9aa627e-3620-4096-ae76-0c38b21b39f5","system_id":"levelo_inurba_marseille","lat":43.33021,"lon":5.390389,"is_reserved":false,"is_disabled":false,"rental_uris":{"android":"levelo://app?vid=f9aa627e-3620-4096-ae76-0c38b21b39f5","ios":"levelo://app?vid=f9aa627e-3620-4096-ae76-0c38b21b39f5"},"vehicle_type_id":"4","last_reported":1717535215,"current_range_meters":16800,"station_id":"ce4bhr92rcd13ifvqhrg","pricing_plan_id":"cebpf4jnsgd1na2vs0mg"},{"bike_id":"bbe4c5f5-ff83-40ae-8615-ca0fe4d73e68","system_id":"levelo_inurba_marseille","lat":43.33025,"lon":5.39034,"is_reserved":false,"is_disabled":false,"rental_uris":{"android":"levelo://app?vid=bbe4c5f5-ff83-40ae-8615-ca0fe4d73e68","ios":"levelo://app?vid=bbe4c5f5-ff83-40ae-8615-ca0fe4d73e68"},"vehicle_type_id":"4","last_reported":1717535215,"current_range_meters":6400,"station_id":"ce4bhr92rcd13ifvqhrg","pricing_plan_id":"cebpf4jnsgd1na2vs0mg"},{"bike_id":"7e0e1480-2aac-4fbe-a950-39d98cf9f488","system_id":"levelo_inurba_marseille","lat":43.295169,"lon":5.390426,"is_reserved":false,"is_disabled":false,"rental_uris":{"android":"levelo://app?vid=7e0e1480-2aac-4fbe-a950-39d98cf9f488","ios":"levelo://app?vid=7e0e1480-2aac-4fbe-a950-39d98cf9f488"},"vehicle_type_id":"4","last_reported":1717535215,"current_range_meters":20400,"station_id":"ce4bh3p2rcd13ifvqdp0","pricing_plan_id":"cebpf4jnsgd1na2vs0mg"},{"bike_id":"c60aee77-e9a6-4bc7-bea1-a813c6eb207f","system_id":"levelo_inurba_marseille","lat":43.33023,"lon":5.39039,"is_reserved":false,"is_disabled":false,"rental_uris":{"android":"levelo://app?vid=c60aee77-e9a6-4bc7-bea1-a813c6eb207f","ios":"levelo://app?vid=c60aee77-e9a6-4bc7-bea1-a813c6eb207f"},"vehicle_type_id":"4","last_reported":1717535215,"current_range_meters":5200,"station_id":"ce4bhr92rcd13ifvqhrg","pricing_plan_id":"cebpf4jnsgd1na2vs0mg"},{"bike_id":"4775a8d1-0d5a-49df-b41a-7b403726af33","system_id":"levelo_inurba_marseille","lat":43.33027,"lon":5.39034,"is_reserved":false,"is_disabled":false,"rental_uris":{"android":"levelo://app?vid=4775a8d1-0d5a-49df-b41a-7b403726af33","ios":"levelo://app?vid=4775a8d1-0d5a-49df-b41a-7b403726af33"},"vehicle_type_id":"4","last_reported":1717535215,"current_range_meters":16800,"station_id":"ce4bhr92rcd13ifvqhrg","pricing_plan_id":"cebpf4jnsgd1na2vs0mg"},{"bike_id":"73c3779c-fe69-4827-b866-ff06be227dbf","system_id":"levelo_inurba_marseille","lat":43.33025,"lon":5.39038,"is_reserved":false,"is_disabled":false,"rental_uris":{"android":"levelo://app?vid=73c3779c-fe69-4827-b866-ff06be227dbf","ios":"levelo://app?vid=73c3779c-fe69-4827-b866-ff06be227dbf"},"vehicle_type_id":"4","last_reported":1717535215,"current_range_meters":0,"station_id":"ce4bhr92rcd13ifvqhrg","pricing_plan_id":"cebpf4jnsgd1na2vs0mg"},{"bike_id":"46748d6b-03d8-4bba-beac-11c01eea3d4d","system_id":"levelo_inurba_marseille","lat":43.33026,"lon":5.39039,"is_reserved":false,"is_disabled":false,"rental_uris":{"android":"levelo://app?vid=46748d6b-03d8-4bba-beac-11c01eea3d4d","ios":"levelo://app?vid=46748d6b-03d8-4bba-beac-11c01eea3d4d"},"vehicle_type_id":"4","last_reported":1717535215,"current_range_meters":9600,"station_id":"ce4bhr92rcd13ifvqhrg","pricing_plan_id":"cebpf4jnsgd1na2vs0mg"},{"bike_id":"7c0bb691-f5d4-48b2-9e0c-e0b393aec259","system_id":"levelo_inurba_marseille","lat":43.2897,"lon":5.37827,"is_reserved":false,"is_disabled":false,"rental_uris":{"android":"levelo://app?vid=7c0bb691-f5d4-48b2-9e0c-e0b393aec259","ios":"levelo://app?vid=7c0bb691-f5d4-48b2-9e0c-e0b393aec259"},"vehicle_type_id":"4","last_reported":1717535215,"current_range_meters":4400,"station_id":"ce4bh9p2rcd13ifvqed0","pricing_plan_id":"cebpf4jnsgd1na2vs0mg"},{"bike_id":"52082711-f349-40c9-8350-827066808b06","system_id":"levelo_inurba_marseille","lat":43.330246,"lon":5.390441,"is_reserved":false,"is_disabled":false,"rental_uris":{"android":"levelo://app?vid=52082711-f349-40c9-8350-827066808b06","ios":"levelo://app?vid=52082711-f349-40c9-8350-827066808b06"},"vehicle_type_id":"4","last_reported":1717535215,"current_range_meters":15600,"station_id":"ce4bhr92rcd13ifvqhrg","pricing_plan_id":"cebpf4jnsgd1na2vs0mg"},{"bike_id":"dc37b1be-67b7-4423-ba4f-52260a48674f","system_id":"levelo_inurba_marseille","lat":43.330279,"lon":5.390412,"is_reserved":false,"is_disabled":false,"rental_uris":{"android":"levelo://app?vid=dc37b1be-67b7-4423-ba4f-52260a48674f","ios":"levelo://app?vid=dc37b1be-67b7-4423-ba4f-52260a48674f"},"vehicle_type_id":"4","last_reported":1717535215,"current_range_meters":12000,"station_id":"ce4bhr92rcd13ifvqhrg","pricing_plan_id":"cebpf4jnsgd1na2vs0mg"},{"bike_id":"200758cc-a980-439e-9a29-a167aae7a4a0","system_id":"levelo_inurba_marseille","lat":43.33028,"lon":5.39042,"is_reserved":false,"is_disabled":false,"rental_uris":{"android":"levelo://app?vid=200758cc-a980-439e-9a29-a167aae7a4a0","ios":"levelo://app?vid=200758cc-a980-439e-9a29-a167aae7a4a0"},"vehicle_type_id":"4","last_reported":1717535215,"current_range_meters":24400,"station_id":"ce4bhr92rcd13ifvqhrg","pricing_plan_id":"cebpf4jnsgd1na2vs0mg"},{"bike_id":"6ea25449-2305-4161-9a48-52a8290c60f2","system_id":"levelo_inurba_marseille","lat":43.33026,"lon":5.39045,"is_reserved":false,"is_disabled":false,"rental_uris":{"android":"levelo://app?vid=6ea25449-2305-4161-9a48-52a8290c60f2","ios":"levelo://app?vid=6ea25449-2305-4161-9a48-52a8290c60f2"},"vehicle_type_id":"4","last_reported":1717535215,"current_range_meters":22400,"station_id":"ce4bhr92rcd13ifvqhrg","pricing_plan_id":"cebpf4jnsgd1na2vs0mg"},{"bike_id":"47c7927e-81e4-453b-8eed-6b52232ec34c","system_id":"levelo_inurba_marseille","lat":43.330278,"lon":5.390426,"is_reserved":false,"is_disabled":false,"rental_uris":{"android":"levelo://app?vid=47c7927e-81e4-453b-8eed-6b52232ec34c","ios":"levelo://app?vid=47c7927e-81e4-453b-8eed-6b52232ec34c"},"vehicle_type_id":"4","last_reported":1717535215,"current_range_meters":31200,"station_id":"ce4bhr92rcd13ifvqhrg","pricing_plan_id":"cebpf4jnsgd1na2vs0mg"},{"bike_id":"8e40da10-7d2a-4b7d-93b6-55ec51db7f3e","system_id":"levelo_inurba_marseille","lat":43.295169,"lon":5.390426,"is_reserved":false,"is_disabled":false,"rental_uris":{"android":"levelo://app?vid=8e40da10-7d2a-4b7d-93b6-55ec51db7f3e","ios":"levelo://app?vid=8e40da10-7d2a-4b7d-93b6-55ec51db7f3e"},"vehicle_type_id":"4","last_reported":1717535215,"current_range_meters":29200,"station_id":"ce4bh3p2rcd13ifvqdp0","pricing_plan_id":"cebpf4jnsgd1na2vs0mg"},{"bike_id":"7bda8717-d3a9-4ae5-81c3-4962f4b54d2e","system_id":"levelo_inurba_marseille","lat":43.295169,"lon":5.390426,"is_reserved":false,"is_disabled":false,"rental_uris":{"android":"levelo://app?vid=7bda8717-d3a9-4ae5-81c3-4962f4b54d2e","ios":"levelo://app?vid=7bda8717-d3a9-4ae5-81c3-4962f4b54d2e"},"vehicle_type_id":"4","last_reported":1717535215,"current_range_meters":31200,"station_id":"ce4bh3p2rcd13ifvqdp0","pricing_plan_id":"cebpf4jnsgd1na2vs0mg"},{"bike_id":"48f3d7cf-f56f-4ef9-8aed-6a2afaba5cf9","system_id":"levelo_inurba_marseille","lat":43.29025,"lon":5.38126,"is_reserved":false,"is_disabled":false,"rental_uris":{"android":"levelo://app?vid=48f3d7cf-f56f-4ef9-8aed-6a2afaba5cf9","ios":"levelo://app?vid=48f3d7cf-f56f-4ef9-8aed-6a2afaba5cf9"},"vehicle_type_id":"4","last_reported":1717535215,"current_range_meters":0,"station_id":"ce4bh4p2rcd13ifvqe1g","pricing_plan_id":"cebpf4jnsgd1na2vs0mg"},{"bike_id":"7d183af8-3f5b-46c0-b3c4-b0fc98069294","system_id":"levelo_inurba_marseille","lat":43.28856,"lon":5.358371,"is_reserved":false,"is_disabled":false,"rental_uris":{"android":"levelo://app?vid=7d183af8-3f5b-46c0-b3c4-b0fc98069294","ios":"levelo://app?vid=7d183af8-3f5b-46c0-b3c4-b0fc98069294"},"vehicle_type_id":"4","last_reported":1717535215,"current_range_meters":26000,"station_id":"ce4bhb12rcd13ifvqem0","pricing_plan_id":"cebpf4jnsgd1na2vs0mg"},{"bike_id":"70fabdb0-64f5-49dd-a4d1-5d4ff39eba27","system_id":"levelo_inurba_marseille","lat":43.288548,"lon":5.358468,"is_reserved":false,"is_disabled":false,"rental_uris":{"android":"levelo://app?vid=70fabdb0-64f5-49dd-a4d1-5d4ff39eba27","ios":"levelo://app?vid=70fabdb0-64f5-49dd-a4d1-5d4ff39eba27"},"vehicle_type_id":"4","last_reported":1717535215,"current_range_meters":0,"station_id":"ce4bhb12rcd13ifvqem0","pricing_plan_id":"cebpf4jnsgd1na2vs0mg"},{"bike_id":"1ca58b8c-253a-4c81-8b19-b92ed60575c4","system_id":"levelo_inurba_marseille","lat":43.288536,"lon":5.358436,"is_reserved":false,"is_disabled":false,"rental_uris":{"android":"levelo://app?vid=1ca58b8c-253a-4c81-8b19-b92ed60575c4","ios":"levelo://app?vid=1ca58b8c-253a-4c81-8b19-b92ed60575c4"},"vehicle_type_id":"4","last_reported":1717535215,"current_range_meters":0,"station_id":"ce4bhb12rcd13ifvqem0","pricing_plan_id":"cebpf4jnsgd1na2vs0mg"},{"bike_id":"705834a6-273e-422f-9e19-669323934a91","system_id":"levelo_inurba_marseille","lat":43.28856,"lon":5.358371,"is_reserved":false,"is_disabled":false,"rental_uris":{"android":"levelo://app?vid=705834a6-273e-422f-9e19-669323934a91","ios":"levelo://app?vid=705834a6-273e-422f-9e19-669323934a91"},"vehicle_type_id":"4","last_reported":1717535215,"current_range_meters":22000,"station_id":"ce4bhb12rcd13ifvqem0","pricing_plan_id":"cebpf4jnsgd1na2vs0mg"},{"bike_id":"a0ca4f09-c7ed-4aab-a38b-915d15c3be97","system_id":"levelo_inurba_marseille","lat":43.3078,"lon":5.40073,"is_reserved":false,"is_disabled":false,"rental_uris":{"android":"levelo://app?vid=a0ca4f09-c7ed-4aab-a38b-915d15c3be97","ios":"levelo://app?vid=a0ca4f09-c7ed-4aab-a38b-915d15c3be97"},"vehicle_type_id":"4","last_reported":1717535215,"current_range_meters":24000,"station_id":"","pricing_plan_id":"cebpf4jnsgd1na2vs0mg"},{"bike_id":"ab521a06-8d29-4188-8b06-2ac6c642269b","system_id":"levelo_inurba_marseille","lat":43.291796,"lon":5.386046,"is_reserved":false,"is_disabled":false,"rental_uris":{"android":"levelo://app?vid=ab521a06-8d29-4188-8b06-2ac6c642269b","ios":"levelo://app?vid=ab521a06-8d29-4188-8b06-2ac6c642269b"},"vehicle_type_id":"4","last_reported":1717535215,"current_range_meters":14000,"station_id":"","pricing_plan_id":"cebpf4jnsgd1na2vs0mg"},{"bike_id":"4cd1330a-0938-402e-b9be-7c20a9854b2b","system_id":"levelo_inurba_marseille","lat":43.312609,"lon":5.401662,"is_reserved":false,"is_disabled":false,"rental_uris":{"android":"levelo://app?vid=4cd1330a-0938-402e-b9be-7c20a9854b2b","ios":"levelo://app?vid=4cd1330a-0938-402e-b9be-7c20a9854b2b"},"vehicle_type_id":"4","last_reported":1717535215,"current_range_meters":0,"station_id":"ce4bh092rcd13ifvqd30","pricing_plan_id":"cebpf4jnsgd1na2vs0mg"},{"bike_id":"4dbcc8c2-fd5b-4732-a8ae-f3e386081235","system_id":"levelo_inurba_marseille","lat":43.312609,"lon":5.401662,"is_reserved":false,"is_disabled":false,"rental_uris":{"android":"levelo://app?vid=4dbcc8c2-fd5b-4732-a8ae-f3e386081235","ios":"levelo://app?vid=4dbcc8c2-fd5b-4732-a8ae-f3e386081235"},"vehicle_type_id":"4","last_reported":1717535215,"current_range_meters":18800,"station_id":"ce4bh092rcd13ifvqd30","pricing_plan_id":"cebpf4jnsgd1na2vs0mg"},{"bike_id":"06275de1-3516-4389-b796-20ab22df8db1","system_id":"levelo_inurba_marseille","lat":43.309371,"lon":5.401449,"is_reserved":false,"is_disabled":false,"rental_uris":{"android":"levelo://app?vid=06275de1-3516-4389-b796-20ab22df8db1","ios":"levelo://app?vid=06275de1-3516-4389-b796-20ab22df8db1"},"vehicle_type_id":"4","last_reported":1717535215,"current_range_meters":800,"station_id":"ce4bgvp2rcd13ifvqct0","pricing_plan_id":"cebpf4jnsgd1na2vs0mg"},{"bike_id":"8b5f8c71-aaa0-49c1-9834-80f1d7b2ac73","system_id":"levelo_inurba_marseille","lat":43.309371,"lon":5.401449,"is_reserved":false,"is_disabled":false,"rental_uris":{"android":"levelo://app?vid=8b5f8c71-aaa0-49c1-9834-80f1d7b2ac73","ios":"levelo://app?vid=8b5f8c71-aaa0-49c1-9834-80f1d7b2ac73"},"vehicle_type_id":"4","last_reported":1717535215,"current_range_meters":24400,"station_id":"ce4bgvp2rcd13ifvqct0","pricing_plan_id":"cebpf4jnsgd1na2vs0mg"},{"bike_id":"26e88c15-1ebf-4978-814d-f8bc280f73dc","system_id":"levelo_inurba_marseille","lat":43.337446,"lon":5.37483,"is_reserved":false,"is_disabled":false,"rental_uris":{"android":"levelo://app?vid=26e88c15-1ebf-4978-814d-f8bc280f73dc","ios":"levelo://app?vid=26e88c15-1ebf-4978-814d-f8bc280f73dc"},"vehicle_type_id":"4","last_reported":1717535215,"current_range_meters":22000,"station_id":"","pricing_plan_id":"cebpf4jnsgd1na2vs0mg"},{"bike_id":"ed10c4e4-d3ba-48d3-9097-538e65a623f5","system_id":"levelo_inurba_marseille","lat":43.33752,"lon":5.3745,"is_reserved":false,"is_disabled":false,"rental_uris":{"android":"levelo://app?vid=ed10c4e4-d3ba-48d3-9097-538e65a623f5","ios":"levelo://app?vid=ed10c4e4-d3ba-48d3-9097-538e65a623f5"},"vehicle_type_id":"4","last_reported":1717535215,"current_range_meters":26800,"station_id":"","pricing_plan_id":"cebpf4jnsgd1na2vs0mg"},{"bike_id":"183ffdf9-8453-4461-a357-1a45eace258e","system_id":"levelo_inurba_marseille","lat":43.309371,"lon":5.401449,"is_reserved":false,"is_disabled":false,"rental_uris":{"android":"levelo://app?vid=183ffdf9-8453-4461-a357-1a45eace258e","ios":"levelo://app?vid=183ffdf9-8453-4461-a357-1a45eace258e"},"vehicle_type_id":"4","last_reported":1717535215,"current_range_meters":10400,"station_id":"ce4bgvp2rcd13ifvqct0","pricing_plan_id":"cebpf4jnsgd1na2vs0mg"},{"bike_id":"17cc580c-c2e9-4ce9-a280-039d18a91f38","system_id":"levelo_inurba_marseille","lat":43.30642,"lon":5.401031,"is_reserved":false,"is_disabled":false,"rental_uris":{"android":"levelo://app?vid=17cc580c-c2e9-4ce9-a280-039d18a91f38","ios":"levelo://app?vid=17cc580c-c2e9-4ce9-a280-039d18a91f38"},"vehicle_type_id":"4","last_reported":1717535215,"current_range_meters":6000,"station_id":"ce4bh112rcd13ifvqda0","pricing_plan_id":"cebpf4jnsgd1na2vs0mg"},{"bike_id":"30e48e4b-d941-46b1-a77a-66f2bd972ab7","system_id":"levelo_inurba_marseille","lat":43.30643,"lon":5.40098,"is_reserved":false,"is_disabled":false,"rental_uris":{"android":"levelo://app?vid=30e48e4b-d941-46b1-a77a-66f2bd972ab7","ios":"levelo://app?vid=30e48e4b-d941-46b1-a77a-66f2bd972ab7"},"vehicle_type_id":"4","last_reported":1717535215,"current_range_meters":0,"station_id":"ce4bh112rcd13ifvqda0","pricing_plan_id":"cebpf4jnsgd1na2vs0mg"},{"bike_id":"0d812b1a-4874-4ff3-b872-58c078dab7de","system_id":"levelo_inurba_marseille","lat":43.301117,"lon":5.398795,"is_reserved":false,"is_disabled":false,"rental_uris":{"android":"levelo://app?vid=0d812b1a-4874-4ff3-b872-58c078dab7de","ios":"levelo://app?vid=0d812b1a-4874-4ff3-b872-58c078dab7de"},"vehicle_type_id":"4","last_reported":1717535215,"current_range_meters":20400,"station_id":"ce4bh0h2rcd13ifvqd40","pricing_plan_id":"cebpf4jnsgd1na2vs0mg"},{"bike_id":"dc568cce-9393-4109-8386-3dd246edfaa4","system_id":"levelo_inurba_marseille","lat":43.301117,"lon":5.398795,"is_reserved":false,"is_disabled":false,"rental_uris":{"android":"levelo://app?vid=dc568cce-9393-4109-8386-3dd246edfaa4","ios":"levelo://app?vid=dc568cce-9393-4109-8386-3dd246edfaa4"},"vehicle_type_id":"4","last_reported":1717535215,"current_range_meters":15200,"station_id":"ce4bh0h2rcd13ifvqd40","pricing_plan_id":"cebpf4jnsgd1na2vs0mg"},{"bike_id":"9e59da5b-e5d7-4ae5-8430-d761ec19420d","system_id":"levelo_inurba_marseille","lat":43.301117,"lon":5.398795,"is_reserved":false,"is_disabled":false,"rental_uris":{"android":"levelo://app?vid=9e59da5b-e5d7-4ae5-8430-d761ec19420d","ios":"levelo://app?vid=9e59da5b-e5d7-4ae5-8430-d761ec19420d"},"vehicle_type_id":"4","last_reported":1717535215,"current_range_meters":27200,"station_id":"ce4bh0h2rcd13ifvqd40","pricing_plan_id":"cebpf4jnsgd1na2vs0mg"},{"bike_id":"60c5081a-fc5a-4867-8fd3-dd9b1094b388","system_id":"levelo_inurba_marseille","lat":43.28727,"lon":5.36078,"is_reserved":false,"is_disabled":false,"rental_uris":{"android":"levelo://app?vid=60c5081a-fc5a-4867-8fd3-dd9b1094b388","ios":"levelo://app?vid=60c5081a-fc5a-4867-8fd3-dd9b1094b388"},"vehicle_type_id":"4","last_reported":1717535215,"current_range_meters":800,"station_id":"cki0cbj6b192h4jlfktg","pricing_plan_id":"cebpf4jnsgd1na2vs0mg"},{"bike_id":"7f9124c3-60c2-49fb-8c71-6d56b6977511","system_id":"levelo_inurba_marseille","lat":43.28727,"lon":5.36078,"is_reserved":false,"is_disabled":false,"rental_uris":{"android":"levelo://app?vid=7f9124c3-60c2-49fb-8c71-6d56b6977511","ios":"levelo://app?vid=7f9124c3-60c2-49fb-8c71-6d56b6977511"},"vehicle_type_id":"4","last_reported":1717535215,"current_range_meters":21600,"station_id":"cki0cbj6b192h4jlfktg","pricing_plan_id":"cebpf4jnsgd1na2vs0mg"},{"bike_id":"24e1dc4a-4ba1-4a9a-afaf-74e74d3d015a","system_id":"levelo_inurba_marseille","lat":43.298774,"lon":5.397272,"is_reserved":false,"is_disabled":false,"rental_uris":{"android":"levelo://app?vid=24e1dc4a-4ba1-4a9a-afaf-74e74d3d015a","ios":"levelo://app?vid=24e1dc4a-4ba1-4a9a-afaf-74e74d3d015a"},"vehicle_type_id":"4","last_reported":1717535215,"current_range_meters":0,"station_id":"ce4bh0h2rcd13ifvqd50","pricing_plan_id":"cebpf4jnsgd1na2vs0mg"},{"bike_id":"b423cae9-d3a7-42fb-8fb0-57f3263d9033","system_id":"levelo_inurba_marseille","lat":43.286591,"lon":5.363346,"is_reserved":false,"is_disabled":false,"rental_uris":{"android":"levelo://app?vid=b423cae9-d3a7-42fb-8fb0-57f3263d9033","ios":"levelo://app?vid=b423cae9-d3a7-42fb-8fb0-57f3263d9033"},"vehicle_type_id":"4","last_reported":1717535215,"current_range_meters":10800,"station_id":"ce4bhah2rcd13ifvqej0","pricing_plan_id":"cebpf4jnsgd1na2vs0mg"},{"bike_id":"0ad1b765-04e8-4689-9deb-825d5320a6bd","system_id":"levelo_inurba_marseille","lat":43.286591,"lon":5.363346,"is_reserved":false,"is_disabled":false,"rental_uris":{"android":"levelo://app?vid=0ad1b765-04e8-4689-9deb-825d5320a6bd","ios":"levelo://app?vid=0ad1b765-04e8-4689-9deb-825d5320a6bd"},"vehicle_type_id":"4","last_reported":1717535215,"current_range_meters":24000,"station_id":"ce4bhah2rcd13ifvqej0","pricing_plan_id":"cebpf4jnsgd1na2vs0mg"},{"bike_id":"435267d0-7033-44f3-a60a-eba4a34ceda4","system_id":"levelo_inurba_marseille","lat":43.28708,"lon":5.3739,"is_reserved":false,"is_disabled":false,"rental_uris":{"android":"levelo://app?vid=435267d0-7033-44f3-a60a-eba4a34ceda4","ios":"levelo://app?vid=435267d0-7033-44f3-a60a-eba4a34ceda4"},"vehicle_type_id":"4","last_reported":1717535215,"current_range_meters":31200,"station_id":"ce4bh3p2rcd13ifvqdq0","pricing_plan_id":"cebpf4jnsgd1na2vs0mg"},{"bike_id":"0419f894-a25e-443b-8cb7-d92197c7cd5d","system_id":"levelo_inurba_marseille","lat":43.28704,"lon":5.37379,"is_reserved":false,"is_disabled":false,"rental_uris":{"android":"levelo://app?vid=0419f894-a25e-443b-8cb7-d92197c7cd5d","ios":"levelo://app?vid=0419f894-a25e-443b-8cb7-d92197c7cd5d"},"vehicle_type_id":"4","last_reported":1717535215,"current_range_meters":0,"station_id":"ce4bh3p2rcd13ifvqdq0","pricing_plan_id":"cebpf4jnsgd1na2vs0mg"},{"bike_id":"ffac964a-ec33-4e3d-b729-8deb9a15ff3e","system_id":"levelo_inurba_marseille","lat":43.28702,"lon":5.37368,"is_reserved":false,"is_disabled":false,"rental_uris":{"android":"levelo://app?vid=ffac964a-ec33-4e3d-b729-8deb9a15ff3e","ios":"levelo://app?vid=ffac964a-ec33-4e3d-b729-8deb9a15ff3e"},"vehicle_type_id":"4","last_reported":1717535215,"current_range_meters":24800,"station_id":"ce4bh3p2rcd13ifvqdq0","pricing_plan_id":"cebpf4jnsgd1na2vs0mg"},{"bike_id":"0bdb3e38-1652-43b5-9798-4cb09e506b7b","system_id":"levelo_inurba_marseille","lat":43.28703,"lon":5.37381,"is_reserved":false,"is_disabled":false,"rental_uris":{"android":"levelo://app?vid=0bdb3e38-1652-43b5-9798-4cb09e506b7b","ios":"levelo://app?vid=0bdb3e38-1652-43b5-9798-4cb09e506b7b"},"vehicle_type_id":"4","last_reported":1717535215,"current_range_meters":23600,"station_id":"ce4bh3p2rcd13ifvqdq0","pricing_plan_id":"cebpf4jnsgd1na2vs0mg"},{"bike_id":"36a51245-4336-42e6-82ab-43bba9f0852d","system_id":"levelo_inurba_marseille","lat":43.287015,"lon":5.373755,"is_reserved":false,"is_disabled":false,"rental_uris":{"android":"levelo://app?vid=36a51245-4336-42e6-82ab-43bba9f0852d","ios":"levelo://app?vid=36a51245-4336-42e6-82ab-43bba9f0852d"},"vehicle_type_id":"4","last_reported":1717535215,"current_range_meters":30800,"station_id":"ce4bh3p2rcd13ifvqdq0","pricing_plan_id":"cebpf4jnsgd1na2vs0mg"},{"bike_id":"be2e7a33-f291-48e5-8f9f-4ccc104b3b75","system_id":"levelo_inurba_marseille","lat":43.28702,"lon":5.37384,"is_reserved":false,"is_disabled":false,"rental_uris":{"android":"levelo://app?vid=be2e7a33-f291-48e5-8f9f-4ccc104b3b75","ios":"levelo://app?vid=be2e7a33-f291-48e5-8f9f-4ccc104b3b75"},"vehicle_type_id":"4","last_reported":1717535215,"current_range_meters":31200,"station_id":"ce4bh3p2rcd13ifvqdq0","pricing_plan_id":"cebpf4jnsgd1na2vs0mg"},{"bike_id":"06d56308-cdee-42ce-8b1e-74a323bca895","system_id":"levelo_inurba_marseille","lat":43.286593,"lon":5.363346,"is_reserved":false,"is_disabled":false,"rental_uris":{"android":"levelo://app?vid=06d56308-cdee-42ce-8b1e-74a323bca895","ios":"levelo://app?vid=06d56308-cdee-42ce-8b1e-74a323bca895"},"vehicle_type_id":"4","last_reported":1717535215,"current_range_meters":24800,"station_id":"ce4bhah2rcd13ifvqej0","pricing_plan_id":"cebpf4jnsgd1na2vs0mg"},{"bike_id":"32470954-8a48-4c0a-a24f-7937cdb16b40","system_id":"levelo_inurba_marseille","lat":43.298749,"lon":5.397382,"is_reserved":false,"is_disabled":false,"rental_uris":{"android":"levelo://app?vid=32470954-8a48-4c0a-a24f-7937cdb16b40","ios":"levelo://app?vid=32470954-8a48-4c0a-a24f-7937cdb16b40"},"vehicle_type_id":"4","last_reported":1717535215,"current_range_meters":0,"station_id":"ce4bh0h2rcd13ifvqd50","pricing_plan_id":"cebpf4jnsgd1na2vs0mg"},{"bike_id":"e43e11d5-5e06-47e9-86e9-209ee2b13038","system_id":"levelo_inurba_marseille","lat":43.287028,"lon":5.37393,"is_reserved":false,"is_disabled":false,"rental_uris":{"android":"levelo://app?vid=e43e11d5-5e06-47e9-86e9-209ee2b13038","ios":"levelo://app?vid=e43e11d5-5e06-47e9-86e9-209ee2b13038"},"vehicle_type_id":"4","last_reported":1717535215,"current_range_meters":30000,"station_id":"ce4bh3p2rcd13ifvqdq0","pricing_plan_id":"cebpf4jnsgd1na2vs0mg"},{"bike_id":"b48ee4ad-fec0-48b8-b969-671232f57aff","system_id":"levelo_inurba_marseille","lat":43.286593,"lon":5.363346,"is_reserved":false,"is_disabled":false,"rental_uris":{"android":"levelo://app?vid=b48ee4ad-fec0-48b8-b969-671232f57aff","ios":"levelo://app?vid=b48ee4ad-fec0-48b8-b969-671232f57aff"},"vehicle_type_id":"4","last_reported":1717535215,"current_range_meters":3200,"station_id":"ce4bhah2rcd13ifvqej0","pricing_plan_id":"cebpf4jnsgd1na2vs0mg"},{"bike_id":"0c2ed135-3630-44b6-babc-146c1562e906","system_id":"levelo_inurba_marseille","lat":43.286593,"lon":5.363346,"is_reserved":false,"is_disabled":false,"rental_uris":{"android":"levelo://app?vid=0c2ed135-3630-44b6-babc-146c1562e906","ios":"levelo://app?vid=0c2ed135-3630-44b6-babc-146c1562e906"},"vehicle_type_id":"4","last_reported":1717535215,"current_range_meters":26800,"station_id":"ce4bhah2rcd13ifvqej0","pricing_plan_id":"cebpf4jnsgd1na2vs0mg"},{"bike_id":"ecc680ea-a54b-4e2a-8c2e-cbf69de8e7f5","system_id":"levelo_inurba_marseille","lat":43.28663,"lon":5.36328,"is_reserved":false,"is_disabled":false,"rental_uris":{"android":"levelo://app?vid=ecc680ea-a54b-4e2a-8c2e-cbf69de8e7f5","ios":"levelo://app?vid=ecc680ea-a54b-4e2a-8c2e-cbf69de8e7f5"},"vehicle_type_id":"4","last_reported":1717535215,"current_range_meters":31200,"station_id":"","pricing_plan_id":"cebpf4jnsgd1na2vs0mg"},{"bike_id":"16b3abea-2c0a-4542-8d1c-9beecb216285","system_id":"levelo_inurba_marseille","lat":43.286926,"lon":5.373875,"is_reserved":false,"is_disabled":false,"rental_uris":{"android":"levelo://app?vid=16b3abea-2c0a-4542-8d1c-9beecb216285","ios":"levelo://app?vid=16b3abea-2c0a-4542-8d1c-9beecb216285"},"vehicle_type_id":"4","last_reported":1717535215,"current_range_meters":1200,"station_id":"ce4bh3p2rcd13ifvqdq0","pricing_plan_id":"cebpf4jnsgd1na2vs0mg"},{"bike_id":"409a355f-8479-47ce-8b84-2919b7553779","system_id":"levelo_inurba_marseille","lat":43.295194,"lon":5.39397,"is_reserved":false,"is_disabled":false,"rental_uris":{"android":"levelo://app?vid=409a355f-8479-47ce-8b84-2919b7553779","ios":"levelo://app?vid=409a355f-8479-47ce-8b84-2919b7553779"},"vehicle_type_id":"4","last_reported":1717535215,"current_range_meters":8800,"station_id":"ce4bh292rcd13ifvqdf0","pricing_plan_id":"cebpf4jnsgd1na2vs0mg"},