{"last_updated":1716631672,"ttl":30,"version":"2.2","data":{"bikes":[{"bike_id":"cc7911cb-66ff-4f15-a541-2f8e883d397f","system_id":"levelo_inurba_marseille","lat":43.313524,"lon":5.367124,"is_reserved":false,"is_disabled":false,"rental_uris":{"android":"levelo://app?vid=cc7911cb-66ff-4f15-a541-2f8e883d397f","ios":"levelo://app?vid=cc7911cb-66ff-4f15-a541-2f8e883d397f"},"vehicle_type_id":"4","last_reported":1716631672,"current_range_meters":26400,"station_id":"ce4bgr92rcd13ifvqc6g","pricing_plan_id":"cebpf4jnsgd1na2vs0mg"},{"bike_id":"c86e9c9d-fa48-4c35-94a5-e18e69b924b3","system_id":"levelo_inurba_marseille","lat":43.312239,"lon":5.368562,"is_reserved":false,"is_disabled":false,"rental_uris":{"android":"levelo://app?vid=c86e9c9d-fa48-4c35-94a5-e18e69b924b3","ios":"levelo://app?vid=c86e9c9d-fa48-4c35-94a5-e18e69b924b3"},"vehicle_type_id":"4","last_reported":1716631672,"current_range_meters":18000,"station_id":"ce4bgl92rcd13ifvqbq0","pricing_plan_id":"cebpf4jnsgd1na2vs0mg"},{"bike_id":"b99c3569-f019-472e-aa49-64dfabba894e","system_id":"levelo_inurba_marseille","lat":43.312239,"lon":5.368562,"is_reserved":false,"is_disabled":false,"rental_uris":{"android":"levelo://app?vid=b99c3569-f019-472e-aa49-64dfabba894e","ios":"levelo://app?vid=b99c3569-f019-472e-aa49-64dfabba894e"},"vehicle_type_id":"4","last_reported":1716631672,"current_range_meters":30800,"station_id":"ce4bgl92rcd13ifvqbq0","pricing_plan_id":"cebpf4jnsgd1na2vs0mg"},{"bike_id":"c6608d14-399a-47d1-a6c9-fa696e36424d","system_id":"levelo_inurba_marseille","lat":43.312239,"lon":5.368562,"is_reserved":false,"is_disabled":false,"rental_uris":{"android":"levelo://app?vid=c6608d14-399a-47d1-a6c9-fa696e36424d","ios":"levelo://app?vid=c6608d14-399a-47d1-a6c9-fa696e36424d"},"vehicle_type_id":"4","last_reported":1716631672,"current_range_meters":20400,"station_id":"ce4bgl92rcd13ifvqbq0","pricing_plan_id":"cebpf4jnsgd1na2vs0mg"},{"bike_id":"41cf194b-7aac-4067-a14d-b658f7a55d75","system_id":"levelo_inurba_marseille","lat":43.309076,"lon":5.368465,"is_reserved":false,"is_disabled":false,"rental_uris":{"android":"levelo://app?vid=41cf194b-7aac-4067-a14d-b658f7a55d75","ios":"levelo://app?vid=41cf194b-7aac-4067-a14d-b658f7a55d75"},"vehicle_type_id":"4","last_reported":1716631672,"current_range_meters":28000,"station_id":"ce4bgn92rcd13ifvqbvg","pricing_plan_id":"cebpf4jnsgd1na2vs0mg"},{"bike_id":"9af9149b-625a-4554-b920-8a276b859c17","system_id":"levelo_inurba_marseille","lat":43.314811,"lon":5.373103,"is_reserved":false,"is_disabled":false,"rental_uris":{"android":"levelo://app?vid=9af9149b-625a-4554-b920-8a276b859c17","ios":"levelo://app?vid=9af9149b-625a-4554-b920-8a276b859c17"},"vehicle_type_id":"4","last_reported":1716631672,"current_range_meters":14800,"station_id":"ce4bgt12rcd13ifvqcd0","pricing_plan_id":"cebpf4jnsgd1na2vs0mg"},{"bike_id":"f607a2d9-dea8-4867-a264-a375240e5b9a","system_id":"levelo_inurba_marseille","lat":43.31672,"lon":5.3722,"is_reserved":false,"is_disabled":false,"rental_uris":{"android":"levelo://app?vid=f607a2d9-dea8-4867-a264-a375240e5b9a","ios":"levelo://app?vid=f607a2d9-dea8-4867-a264-a375240e5b9a"},"vehicle_type_id":"4","last_reported":1716631672,"current_range_meters":0,"station_id":"","pricing_plan_id":"cebpf4jnsgd1na2vs0mg"},{"bike_id":"a7f665d5-2df5-4e4b-aace-3ad78f9c90f0","system_id":"levelo_inurba_marseille","lat":43.305712,"lon":5.365641,"is_reserved":false,"is_disabled":false,"rental_uris":{"android":"levelo://app?vid=a7f665d5-2df5-4e4b-aace-3ad78f9c90f0","ios":"levelo://app?vid=a7f665d5-2df5-4e4b-aace-3ad78f9c90f0"},"vehicle_type_id":"4","last_reported":1716631672,"current_range_meters":11200,"station_id":"ce4bgs12rcd13ifvqcag","pricing_plan_id":"cebpf4jnsgd1na2vs0mg"},{"bike_id":"4049887a-967f-4a7d-a7f4-5cb554b73782","system_id":"levelo_inurba_marseille","lat":43.30557,"lon":5.36563,"is_reserved":false,"is_disabled":false,"rental_uris":{"android":"levelo://app?vid=4049887a-967f-4a7d-a7f4-5cb554b73782","ios":"levelo://app?vid=4049887a-967f-4a7d-a7f4-5cb554b73782"},"vehicle_type_id":"4","last_reported":1716631672,"current_range_meters":10000,"station_id":"ce4bgs12rcd13ifvqcag","pricing_plan_id":"cebpf4jnsgd1na2vs0mg"},{"bike_id":"b6ce7c80-3477-4abd-97ce-f0f72679ba99","system_id":"levelo_inurba_marseille","lat":43.30555,"lon":5.36541,"is_reserved":false,"is_disabled":false,"rental_uris":{"android":"levelo://app?vid=b6ce7c80-3477-4abd-97ce-f0f72679ba99","ios":"levelo://app?vid=b6ce7c80-3477-4abd-97ce-f0f72679ba99"},"vehicle_type_id":"4","last_reported":1716631672,"current_range_meters":26800,"station_id":"ce4bgs12rcd13ifvqcag","pricing_plan_id":"cebpf4jnsgd1na2vs0mg"},{"bike_id":"205c015b-3591-4ed3-90de-90c32a4b20c8","system_id":"levelo_inurba_marseille","lat":43.305524,"lon":5.365468,"is_reserved":false,"is_disabled":false,"rental_uris":{"android":"levelo://app?vid=205c015b-3591-4ed3-90de-90c32a4b20c8","ios":"levelo://app?vid=205c015b-3591-4ed3-90de-90c32a4b20c8"},"vehicle_type_id":"4","last_reported":1716631672,"current_range_meters":16800,"station_id":"ce4bgs12rcd13ifvqcag","pricing_plan_id":"cebpf4jnsgd1na2vs0mg"},{"bike_id":"978ebffd-7a10-4c9e-bb8a-549cabdc2656","system_id":"levelo_inurba_marseille","lat":43.30551,"lon":5.36557,"is_reserved":false,"is_disabled":false,"rental_uris":{"android":"levelo://app?vid=978ebffd-7a10-4c9e-bb8a-549cabdc2656","ios":"levelo://app?vid=978ebffd-7a10-4c9e-bb8a-549cabdc2656"},"vehicle_type_id":"4","last_reported":1716631672,"current_range_meters":5200,"station_id":"ce4bgs12rcd13ifvqcag","pricing_plan_id":"cebpf4jnsgd1na2vs0mg"},{"bike_id":"68335392-7c20-4678-b4d6-484d6f53411d","system_id":"levelo_inurba_marseille","lat":43.305368,"lon":5.367343,"is_reserved":false,"is_disabled":false,"rental_uris":{"android":"levelo://app?vid=68335392-7c20-4678-b4d6-484d6f53411d","ios":"levelo://app?vid=68335392-7c20-4678-b4d6-484d6f53411d"},"vehicle_type_id":"4","last_reported":1716631672,"current_range_meters":26800,"station_id":"ce4bgrp2rcd13ifvqc9g","pricing_plan_id":"cebpf4jnsgd1na2vs0mg"},{"bike_id":"5a450b43-fecd-4da9-a5e0-d7ffb1baad25","system_id":"levelo_inurba_marseille","lat":43.305488,"lon":5.365602,"is_reserved":false,"is_disabled":false,"rental_uris":{"android":"levelo://app?vid=5a450b43-fecd-4da9-a5e0-d7ffb1baad25","ios":"levelo://app?vid=5a450b43-fecd-4da9-a5e0-d7ffb1baad25"},"vehicle_type_id":"4","last_reported":1716631672,"current_range_meters":25200,"station_id":"ce4bgs12rcd13ifvqcag","pricing_plan_id":"cebpf4jnsgd1na2vs0mg"},{"bike_id":"0ff61d0f-d62e-44b1-b1ec-df2f58fc1d6c","system_id":"levelo_inurba_marseille","lat":43.305368,"lon":5.367343,"is_reserved":false,"is_disabled":false,"rental_uris":{"android":"levelo://app?vid=0ff61d0f-d62e-44b1-b1ec-df2f58fc1d6c","ios":"levelo://app?vid=0ff61d0f-d62e-44b1-b1ec-df2f58fc1d6c"},"vehicle_type_id":"4","last_reported":1716631672,"current_range_meters":19200,"station_id":"ce4bgrp2rcd13ifvqc9g","pricing_plan_id":"cebpf4jnsgd1na2vs0mg"},{"bike_id":"a5355339-f5a6-4615-8d18-cff42313c354","system_id":"levelo_inurba_marseille","lat":43.305714,"lon":5.365633,"is_reserved":false,"is_disabled":false,"rental_uris":{"android":"levelo://app?vid=a5355339-f5a6-4615-8d18-cff42313c354","ios":"levelo://app?vid=a5355339-f5a6-4615-8d18-cff42313c354"},"vehicle_type_id":"4","last_reported":1716631672,"current_range_meters":31200,"station_id":"ce4bgs12rcd13ifvqcag","pricing_plan_id":"cebpf4jnsgd1na2vs0mg"},{"bike_id":"b4e29fb2-2ee6-4418-b1c1-d98572be42c4","system_id":"levelo_inurba_marseille","lat":43.30545,"lon":5.36549,"is_reserved":false,"is_disabled":false,"rental_uris":{"android":"levelo://app?vid=b4e29fb2-2ee6-4418-b1c1-d98572be42c4","ios":"levelo://app?vid=b4e29fb2-2ee6-4418-b1c1-d98572be42c4"},"vehicle_type_id":"4","last_reported":1716631672,"current_range_meters":17600,"station_id":"ce4bgs12rcd13ifvqcag","pricing_plan_id":"cebpf4jnsgd1na2vs0mg"},{"bike_id":"74ecd7b1-b8b5-4485-ab6c-90eac342831f","system_id":"levelo_inurba_marseille","lat":43.30544,"lon":5.36554,"is_reserved":false,"is_disabled":false,"rental_uris":{"android":"levelo://app?vid=74ecd7b1-b8b5-4485-ab6c-90eac342831f","ios":"levelo://app?vid=74ecd7b1-b8b5-4485-ab6c-90eac342831f"},"vehicle_type_id":"4","last_reported":1716631672,"current_range_meters":15200,"station_id":"ce4bgs12rcd13ifvqcag","pricing_plan_id":"cebpf4jnsgd1na2vs0mg"},{"bike_id":"fb19cbda-e576-40af-ac85-1d297527adf7","system_id":"levelo_inurba_marseille","lat":43.305368,"lon":5.367343,"is_reserved":false,"is_disabled":false,"rental_uris":{"android":"levelo://app?vid=fb19cbda-e576-40af-ac85-1d297527adf7","ios":"levelo://app?vid=fb19cbda-e576-40af-ac85-1d297527adf7"},"vehicle_type_id":"4","last_reported":1716631672,"current_range_meters":7200,"station_id":"ce4bgrp2rcd13ifvqc9g","pricing_plan_id":"cebpf4jnsgd1na2vs0mg"},{"bike_id":"05b3758a-9731-4240-bf57-96afdf996d2f","system_id":"levelo_inurba_marseille","lat":43.30541,"lon":5.36557,"is_reserved":false,"is_disabled":false,"rental_uris":{"android":"levelo://app?vid=05b3758a-9731-4240-bf57-96afdf996d2f","ios":"levelo://app?vid=05b3758a-9731-4240-bf57-96afdf996d2f"},"vehicle_type_id":"4","last_reported":1716631672,"current_range_meters":0,"station_id":"ce4bgs12rcd13ifvqcag","pricing_plan_id":"cebpf4jnsgd1na2vs0mg"},{"bike_id":"f229c59a-bc73-4f96-a06b-14f98fc06ff1","system_id":"levelo_inurba_marseille","lat":43.30539,"lon":5.36554,"is_reserved":false,"is_disabled":false,"rental_uris":{"android":"levelo://app?vid=f229c59a-bc73-4f96-a06b-14f98fc06ff1","ios":"levelo://app?vid=f229c59a-bc73-4f96-a06b-14f98fc06ff1"},"vehicle_type_id":"4","last_reported":1716631672,"current_range_meters":4800,"station_id":"ce4bgs12rcd13ifvqcag","pricing_plan_id":"cebpf4jnsgd1na2vs0mg"},{"bike_id":"7f0fee0b-4d26-464e-973a-ded706df8273","system_id":"levelo_inurba_marseille","lat":43.305706,"lon":5.365654,"is_reserved":false,"is_disabled":false,"rental_uris":{"android":"levelo://app?vid=7f0fee0b-4d26-464e-973a-ded706df8273","ios":"levelo://app?vid=7f0fee0b-4d26-464e-973a-ded706df8273"},"vehicle_type_id":"4","last_reported":1716631672,"current_range_meters":27200,"station_id":"ce4bgs12rcd13ifvqcag","pricing_plan_id":"cebpf4jnsgd1na2vs0mg"},{"bike_id":"242454ef-233e-4ebf-98d9-94ad9bf714d4","system_id":"levelo_inurba_marseille","lat":43.305714,"lon":5.365633,"is_reserved":false,"is_disabled":false,"rental_uris":{"android":"levelo://app?vid=242454ef-233e-4ebf-98d9-94ad9bf714d4","ios":"levelo://app?vid=242454ef-233e-4ebf-98d9-94ad9bf714d4"},"vehicle_type_id":"4","last_reported":1716631672,"current_range_meters":18800,"station_id":"ce4bgs12rcd13ifvqcag","pricing_plan_id":"cebpf4jnsgd1na2vs0mg"},{"bike_id":"ab17b59b-cfc7-4525-b8e3-eda704aca957","system_id":"levelo_inurba_marseille","lat":43.305706,"lon":5.365654,"is_reserved":false,"is_disabled":false,"rental_uris":{"android":"levelo://app?vid=ab17b59b-cfc7-4525-b8e3-eda704aca957","ios":"levelo://app?vid=ab17b59b-cfc7-4525-b8e3-eda704aca957"},"vehicle_type_id":"4","last_reported":1716631672,"current_range_meters":4800,"station_id":"ce4bgs12rcd13ifvqcag","pricing_plan_id":"cebpf4jnsgd1na2vs0mg"},{"bike_id":"37e87ba4-b0b8-4df4-a869-d2e980701d12","system_id":"levelo_inurba_marseille","lat":43.305368,"lon":5.367343,"is_reserved":false,"is_disabled":false,"rental_uris":{"android":"levelo://app?vid=37e87ba4-b0b8-4df4-a869-d2e980701d12","ios":"levelo://app?vid=37e87ba4-b0b8-4df4-a869-d2e980701d12"},"vehicle_type_id":"4","last_reported":1716631672,"current_range_meters":6400,"station_id":"ce4bgrp2rcd13ifvqc9g","pricing_plan_id":"cebpf4jnsgd1na2vs0mg"},{"bike_id":"352b3768-a3a4-4538-ab04-64a853adb517","system_id":"levelo_inurba_marseille","lat":43.305368,"lon":5.367343,"is_reserved":false,"is_disabled":false,"rental_uris":{"android":"levelo://app?vid=352b3768-a3a4-4538-ab04-64a853adb517","ios":"levelo://app?vid=352b3768-a3a4-4538-ab04-64a853adb517"},"vehicle_type_id":"4","last_reported":1716631672,"current_range_meters":8000,"station_id":"ce4bgrp2rcd13ifvqc9g","pricing_plan_id":"cebpf4jnsgd1na2vs0mg"},{"bike_id":"08ebfbd5-e728-4fbc-9fb3-da07eb85f2f2","system_id":"levelo_inurba_marseille","lat":43.305706,"lon":5.365654,"is_reserved":false,"is_disabled":false,"rental_uris":{"android":"levelo://app?vid=08ebfbd5-e728-4fbc-9fb3-da07eb85f2f2","ios":"levelo://app?vid=08ebfbd5-e728-4fbc-9fb3-da07eb85f2f2"},"vehicle_type_id":"4","last_reported":1716631672,"current_range_meters":24400,"station_id":"ce4bgs12rcd13ifvqcag","pricing_plan_id":"cebpf4jnsgd1na2vs0mg"},{"bike_id":"89d5fdc9-d50f-4e42-9a2b-098d485775e9","system_id":"levelo_inurba_marseille","lat":43.305706,"lon":5.365654,"is_reserved":false,"is_disabled":false,"rental_uris":{"android":"levelo://app?vid=89d5fdc9-d50f-4e42-9a2b-098d485775e9","ios":"levelo://app?vid=89d5fdc9-d50f-4e42-9a2b-098d485775e9"},"vehicle_type_id":"4","last_reported":1716631672,"current_range_meters":31200,"station_id":"ce4bgs12rcd13ifvqcag","pricing_plan_id":"cebpf4jnsgd1na2vs0mg"},{"bike_id":"9c9cb351-0b2d-46ca-980d-840eaff7e293","system_id":"levelo_inurba_marseille","lat":43.305706,"lon":5.365654,"is_reserved":false,"is_disabled":false,"rental_uris":{"android":"levelo://app?vid=9c9cb351-0b2d-46ca-980d-840eaff7e293","ios":"levelo://app?vid=9c9cb351-0b2d-46ca-980d-840eaff7e293"},"vehicle_type_id":"4","last_reported":1716631672,"current_range_meters":17600,"station_id":"ce4bgs12rcd13ifvqcag","pricing_plan_id":"cebpf4jnsgd1na2vs0mg"},{"bike_id":"3065a195-273f-444f-a9f6-2248756f4043","system_id":"levelo_inurba_marseille","lat":43.305989,"lon":5.37225,"is_reserved":false,"is_disabled":false,"rental_uris":{"android":"levelo://app?vid=3065a195-273f-444f-a9f6-2248756f4043","ios":"levelo://app?vid=3065a195-273f-444f-a9f6-2248756f4043"},"vehicle_type_id":"4","last_reported":1716631672,"current_range_meters":18000,"station_id":"ce4bgqh2rcd13ifvqc4g","pricing_plan_id":"cebpf4jnsgd1na2vs0mg"},{"bike_id":"085f8808-1d82-4a31-a42a-8e58df7e3717","system_id":"levelo_inurba_marseille","lat":43.305989,"lon":5.37225,"is_reserved":false,"is_disabled":false,"rental_uris":{"android":"levelo://app?vid=085f8808-1d82-4a31-a42a-8e58df7e3717","ios":"levelo://app?vid=085f8808-1d82-4a31-a42a-8e58df7e3717"},"vehicle_type_id":"4","last_reported":1716631672,"current_range_meters":30400,"station_id":"ce4bgqh2rcd13ifvqc4g","pricing_plan_id":"cebpf4jnsgd1na2vs0mg"},{"bike_id":"66e749ab-0f16-4df9-ad74-2611d6a6e694","system_id":"levelo_inurba_marseille","lat":43.305989,"lon":5.37225,"is_reserved":false,"is_disabled":false,"rental_uris":{"android":"levelo://app?vid=66e749ab-0f16-4df9-ad74-2611d6a6e694","ios":"levelo://app?vid=66e749ab-0f16-4df9-ad74-2611d6a6e694"},"vehicle_type_id":"4","last_reported":1716631672,"current_range_meters":31200,"station_id":"ce4bgqh2rcd13ifvqc4g","pricing_plan_id":"cebpf4jnsgd1na2vs0mg"},{"bike_id":"db55dc7b-87ab-4a87-98fb-6c7c9f32a9e7","system_id":"levelo_inurba_marseille","lat":43.30603,"lon":5.372374,"is_reserved":false,"is_disabled":false,"rental_uris":{"android":"levelo://app?vid=db55dc7b-87ab-4a87-98fb-6c7c9f32a9e7","ios":"levelo://app?vid=db55dc7b-87ab-4a87-98fb-6c7c9f32a9e7"},"vehicle_type_id":"4","last_reported":1716631672,"current_range_meters":31200,"station_id":"ce4bgqh2rcd13ifvqc4g","pricing_plan_id":"cebpf4jnsgd1na2vs0mg"},{"bike_id":"4bdc0015-be20-4402-b357-27238c3020c2","system_id":"levelo_inurba_marseille","lat":43.311125,"lon":5.377624,"is_reserved":false,"is_disabled":false,"rental_uris":{"android":"levelo://app?vid=4bdc0015-be20-4402-b357-27238c3020c2","ios":"levelo://app?vid=4bdc0015-be20-4402-b357-27238c3020c2"},"vehicle_type_id":"4","last_reported":1716631672,"current_range_meters":6000,"station_id":"ce4bgt92rcd13ifvqcg0","pricing_plan_id":"cebpf4jnsgd1na2vs0mg"},{"bike_id":"4df314b9-e89c-416a-a33f-9fea84f40fd8","system_id":"levelo_inurba_marseille","lat":43.305706,"lon":5.365654,"is_reserved":false,"is_disabled":false,"rental_uris":{"android":"levelo://app?vid=4df314b9-e89c-416a-a33f-9fea84f40fd8","ios":"levelo://app?vid=4df314b9-e89c-416a-a33f-9fea84f40fd8"},"vehicle_type_id":"4","last_reported":1716631672,"current_range_meters":26400,"station_id":"ce4bgs12rcd13ifvqcag","pricing_plan_id":"cebpf4jnsgd1na2vs0mg"},{"bike_id":"43eaee73-f343-46a5-8451-4de64d5a38c7","system_id":"levelo_inurba_marseille","lat":43.307945,"lon":5.376487,"is_reserved":false,"is_disabled":false,"rental_uris":{"android":"levelo://app?vid=43eaee73-f343-46a5-8451-4de64d5a38c7","ios":"levelo://app?vid=43eaee73-f343-46a5-8451-4de64d5a38c7"},"vehicle_type_id":"4","last_reported":1716631672,"current_range_meters":23200,"station_id":"ce4bgv92rcd13ifvqcq0","pricing_plan_id":"cebpf4jnsgd1na2vs0mg"},{"bike_id":"add2a82d-310e-4590-8dfd-5ae16ac2f080","system_id":"levelo_inurba_marseille","lat":43.307945,"lon":5.376487,"is_reserved":false,"is_disabled":false,"rental_uris":{"android":"levelo://app?vid=add2a82d-310e-4590-8dfd-5ae16ac2f080","ios":"levelo://app?vid=add2a82d-310e-4590-8dfd-5ae16ac2f080"},"vehicle_type_id":"4","last_reported":1716631672,"current_range_meters":26000,"station_id":"ce4bgv92rcd13ifvqcq0","pricing_plan_id":"cebpf4jnsgd1na2vs0mg"},{"bike_id":"43cc8668-d787-4bda-b72c-f2bb22bfaf9d","system_id":"levelo_inurba_marseille","lat":43.307945,"lon":5.376487,"is_reserved":false,"is_disabled":false,"rental_uris":{"android":"levelo://app?vid=43cc8668-d787-4bda-b72c-f2bb22bfaf9d","ios":"levelo://app?vid=43cc8668-d787-4bda-b72c-f2bb22bfaf9d"},"vehicle_type_id":"4","last_reported":1716631672,"current_range_meters":31200,"station_id":"ce4bgv92rcd13ifvqcq0","pricing_plan_id":"cebpf4jnsgd1na2vs0mg"},{"bike_id":"1f7ad4e9-c184-4db2-8917-49841a53a5ab","system_id":"levelo_inurba_marseille","lat":43.31702,"lon":5.37744,"is_reserved":false,"is_disabled":false,"rental_uris":{"android":"levelo://app?vid=1f7ad4e9-c184-4db2-8917-49841a53a5ab","ios":"levelo://app?vid=1f7ad4e9-c184-4db2-8917-49841a53a5ab"},"vehicle_type_id":"4","last_reported":1716631672,"current_range_meters":28000,"station_id":"ce4bgth2rcd13ifvqch0","pricing_plan_id":"cebpf4jnsgd1na2vs0mg"},{"bike_id":"c14a77d7-824b-45aa-8285-97da8d9480d9","system_id":"levelo_inurba_marseille","lat":43.317075,"lon":5.377367,"is_reserved":false,"is_disabled":false,"rental_uris":{"android":"levelo://app?vid=c14a77d7-824b-45aa-8285-97da8d9480d9","ios":"levelo://app?vid=c14a77d7-824b-45aa-8285-97da8d9480d9"},"vehicle_type_id":"4","last_reported":1716631672,"current_range_meters":1200,"station_id":"ce4bgth2rcd13ifvqch0","pricing_plan_id":"cebpf4jnsgd1na2vs0mg"},{"bike_id":"93f58689-97e9-41c3-8746-cad4911b3904","system_id":"levelo_inurba_marseille","lat":43.317075,"lon":5.377367,"is_reserved":false,"is_disabled":false,"rental_uris":{"android":"levelo://app?vid=93f58689-97e9-41c3-8746-cad4911b3904","ios":"levelo://app?vid=93f58689-97e9-41c3-8746-cad4911b3904"},"vehicle_type_id":"4","last_reported":1716631672,"current_range_meters":27600,"station_id":"ce4bgth2rcd13ifvqch0","pricing_plan_id":"cebpf4jnsgd1na2vs0mg"},{"bike_id":"883aada0-5e86-449e-bb6c-e8cfe712ba13","system_id":"levelo_inurba_marseille","lat":43.303046,"lon":5.368981,"is_reserved":false,"is_disabled":false,"rental_uris":{"android":"levelo://app?vid=883aada0-5e86-449e-bb6c-e8cfe712ba13","ios":"levelo://app?vid=883aada0-5e86-449e-bb6c-e8cfe712ba13"},"vehicle_type_id":"4","last_reported":1716631672,"current_range_meters":17600,"station_id":"ce4bgqh2rcd13ifvqc5g","pricing_plan_id":"cebpf4jnsgd1na2vs0mg"},{"bike_id":"a8cb2d6b-473c-4a0c-8913-9ca480745e83","system_id":"levelo_inurba_marseille","lat":43.303046,"lon":5.368981,"is_reserved":false,"is_disabled":false,"rental_uris":{"android":"levelo://app?vid=a8cb2d6b-473c-4a0c-8913-9ca480745e83","ios":"levelo://app?vid=a8cb2d6b-473c-4a0c-8913-9ca480745e83"},"vehicle_type_id":"4","last_reported":1716631672,"current_range_meters":31600,"station_id":"ce4bgqh2rcd13ifvqc5g","pricing_plan_id":"cebpf4jnsgd1na2vs0mg"},{"bike_id":"1b9aae5a-dc5b-4e65-b0d6-ea8ebeb9a73a","system_id":"levelo_inurba_marseille","lat":43.303046,"lon":5.368981,"is_reserved":false,"is_disabled":false,"rental_uris":{"android":"levelo://app?vid=1b9aae5a-dc5b-4e65-b0d6-ea8ebeb9a73a","ios":"levelo://app?vid=1b9aae5a-dc5b-4e65-b0d6-ea8ebeb9a73a"},"vehicle_type_id":"4","last_reported":1716631672,"current_range_meters":14800,"station_id":"ce4bgqh2rcd13ifvqc5g","pricing_plan_id":"cebpf4jnsgd1na2vs0mg"},{"bike_id":"e2d71dc7-d260-448c-a121-1cbe2d9d414c","system_id":"levelo_inurba_marseille","lat":43.315293,"lon":5.380349,"is_reserved":false,"is_disabled":false,"rental_uris":{"android":"levelo://app?vid=e2d71dc7-d260-448c-a121-1cbe2d9d414c","ios":"levelo://app?vid=e2d71dc7-d260-448c-a121-1cbe2d9d414c"},"vehicle_type_id":"4","last_reported":1716631672,"current_range_meters":22400,"station_id":"ce4bhsp2rcd13ifvqi50","pricing_plan_id":"cebpf4jnsgd1na2vs0mg"},{"bike_id":"7feeca87-3fb7-475e-951e-c48fded062d7","system_id":"levelo_inurba_marseille","lat":43.301939,"lon":5.366286,"is_reserved":false,"is_disabled":false,"rental_uris":{"android":"levelo://app?vid=7feeca87-3fb7-475e-951e-c48fded062d7","ios":"levelo://app?vid=7feeca87-3fb7-475e-951e-c48fded062d7"},"vehicle_type_id":"4","last_reported":1716631672,"current_range_meters":25200,"station_id":"ce4bgrh2rcd13ifvqc8g","pricing_plan_id":"cebpf4jnsgd1na2vs0mg"},{"bike_id":"f19f55a2-0a39-4bc1-9973-5e2d1a90a023","system_id":"levelo_inurba_marseille","lat":43.302,"lon":5.36609,"is_reserved":false,"is_disabled":false,"rental_uris":{"android":"levelo://app?vid=f19f55a2-0a39-4bc1-9973-5e2d1a90a023","ios":"levelo://app?vid=f19f55a2-0a39-4bc1-9973-5e2d1a90a023"},"vehicle_type_id":"4","last_reported":1716631672,"current_range_meters":4800,"station_id":"ce4bgrh2rcd13ifvqc8g","pricing_plan_id":"cebpf4jnsgd1na2vs0mg"},{"bike_id":"5587a6bf-c72e-4f24-b1b3-8256f7b1e860","system_id":"levelo_inurba_marseille","lat":43.301939,"lon":5.366286,"is_reserved":false,"is_disabled":false,"rental_uris":{"android":"levelo://app?vid=5587a6bf-c72e-4f24-b1b3-8256f7b1e860","ios":"levelo://app?vid=5587a6bf-c72e-4f24-b1b3-8256f7b1e860"},"vehicle_type_id":"4","last_reported":1716631672,"current_range_meters":24000,"station_id":"ce4bgrh2rcd13ifvqc8g","pricing_plan_id":"cebpf4jnsgd1na2vs0mg"},{"bike_id":"179d114f-ef4e-41ee-9f71-b85152370c33","system_id":"levelo_inurba_marseille","lat":43.30817,"lon":5.3815,"is_reserved":false,"is_disabled":false,"rental_uris":{"android":"levelo://app?vid=179d114f-ef4e-41ee-9f71-b85152370c33","ios":"levelo://app?vid=179d114f-ef4e-41ee-9f71-b85152370c33"},"vehicle_type_id":"4","last_reported":1716631672,"current_range_meters":22800,"station_id":"ce4bgt12rcd13ifvqce0","pricing_plan_id":"cebpf4jnsgd1na2vs0mg"},{"bike_id":"cb8ee63e-d5e9-4282-a18f-30e1a761c999","system_id":"levelo_inurba_marseille","lat":43.304606,"lon":5.379026,"is_reserved":false,"is_disabled":false,"rental_uris":{"android":"levelo://app?vid=cb8ee63e-d5e9-4282-a18f-30e1a761c999","ios":"levelo://app?vid=cb8ee63e-d5e9-4282-a18f-30e1a761c999"},"vehicle_type_id":"4","last_reported":1716631672,"current_range_meters":20400,"station_id":"ce4bgup2rcd13ifvqcn0","pricing_plan_id":"cebpf4jnsgd1na2vs0mg"},{"bike_id":"1f0c3dad-db97-4249-8735-51fe213e088c","system_id":"levelo_inurba_marseille","lat":43.304606,"lon":5.379026,"is_reserved":false,"is_disabled":false,"rental_uris":{"android":"levelo://app?vid=1f0c3dad-db97-4249-8735-51fe213e088c","ios":"levelo://app?vid=1f0c3dad-db97-4249-8735-51fe213e088c"},"vehicle_type_id":"4","last_reported":1716631672,"current_range_meters":26800,"station_id":"ce4bgup2rcd13ifvqcn0","pricing_plan_id":"cebpf4jnsgd1na2vs0mg"},{"bike_id":"03b2d0ac-4855-463a-a2f0-be21041dc802","system_id":"levelo_inurba_marseille","lat":43.304606,"lon":5.379026,"is_reserved":false,"is_disabled":false,"rental_uris":{"android":"levelo://app?vid=03b2d0ac-4855-463a-a2f0-be21041dc802","ios":"levelo://app?vid=03b2d0ac-4855-463a-a2f0-be21041dc802"},"vehicle_type_id":"4","last_reported":1716631672,"current_range_meters":31200,"station_id":"ce4bgup2rcd13ifvqcn0","pricing_plan_id":"cebpf4jnsgd1na2vs0mg"},{"bike_id":"8c765e76-e2bd-4886-842a-5b8ec4e17787","system_id":"levelo_inurba_marseille","lat":43.304606,"lon":5.379026,"is_reserved":false,"is_disabled":false,"rental_uris":{"android":"levelo://app?vid=8c765e76-e2bd-4886-842a-5b8ec4e17787","ios":"levelo://app?vid=8c765e76-e2bd-4886-842a-5b8ec4e17787"},"vehicle_type_id":"4","last_reported":1716631672,"current_range_meters":31200,"station_id":"ce4bgup2rcd13ifvqcn0","pricing_plan_id":"cebpf4jnsgd1na2vs0mg"},{"bike_id":"97aa767d-4a7c-4d81-b244-c5d3efb49efc","system_id":"levelo_inurba_marseille","lat":43.324771,"lon":5.36557,"is_reserved":false,"is_disabled":false,"rental_uris":{"android":"levelo://app?vid=97aa767d-4a7c-4d81-b244-c5d3efb49efc","ios":"levelo://app?vid=97aa767d-4a7c-4d81-b244-c5d3efb49efc"},"vehicle_type_id":"4","last_reported":1716631672,"current_range_meters":22400,"station_id":"ce4bhs12rcd13ifvqhvg","pricing_plan_id":"cebpf4jnsgd1na2vs0mg"},{"bike_id":"742cf3eb-0ede-4447-aa0d-235083ddda48","system_id":"levelo_inurba_marseille","lat":43.324771,"lon":5.36557,"is_reserved":false,"is_disabled":false,"rental_uris":{"android":"levelo://app?vid=742cf3eb-0ede-4447-aa0d-235083ddda48","ios":"levelo://app?vid=742cf3eb-0ede-4447-aa0d-235083ddda48"},"vehicle_type_id":"4","last_reported":1716631672,"current_range_meters":30800,"station_id":"ce4bhs12rcd13ifvqhvg","pricing_plan_id":"cebpf4jnsgd1na2vs0mg"},{"bike_id":"c4f55511-783d-4f82-8265-81981a8b4676","system_id":"levelo_inurba_marseille","lat":43.324771,"lon":5.36557,"is_reserved":false,"is_disabled":false,"rental_uris":{"android":"levelo://app?vid=c4f55511-783d-4f82-8265-81981a8b4676","ios":"levelo://app?vid=c4f55511-783d-4f82-8265-81981a8b4676"},"vehicle_type_id":"4","last_reported":1716631672,"current_range_meters":24400,"station_id":"ce4bhs12rcd13ifvqhvg","pricing_plan_id":"cebpf4jnsgd1na2vs0mg"},{"bike_id":"eacf2fee-b3a5-4cc4-b0dc-f9903d7c3880","system_id":"levelo_inurba_marseille","lat":43.324771,"lon":5.36557,"is_reserved":false,"is_disabled":false,"rental_uris":{"android":"levelo://app?vid=eacf2fee-b3a5-4cc4-b0dc-f9903d7c3880","ios":"levelo://app?vid=eacf2fee-b3a5-4cc4-b0dc-f9903d7c3880"},"vehicle_type_id":"4","last_reported":1716631672,"current_range_meters":14800,"station_id":"ce4bhs12rcd13ifvqhvg","pricing_plan_id":"cebpf4jnsgd1na2vs0mg"},{"bike_id":"649dc2ca-940f-4aa6-921e-cbec14ebb78e","system_id":"levelo_inurba_marseille","lat":43.324771,"lon":5.36557,"is_reserved":false,"is_disabled":false,"rental_uris":{"android":"levelo://app?vid=649dc2ca-940f-4aa6-921e-cbec14ebb78e","ios":"levelo://app?vid=649dc2ca-940f-4aa6-921e-cbec14ebb78e"},"vehicle_type_id":"4","last_reported":1716631672,"current_range_meters":28800,"station_id":"ce4bhs12rcd13ifvqhvg","pricing_plan_id":"cebpf4jnsgd1na2vs0mg"},{"bike_id":"5df32d04-49ad-4dbf-b80f-599d22075eed","system_id":"levelo_inurba_marseille","lat":43.324771,"lon":5.36557,"is_reserved":false,"is_disabled":false,"rental_uris":{"android":"levelo://app?vid=5df32d04-49ad-4dbf-b80f-599d22075eed","ios":"levelo://app?vid=5df32d04-49ad-4dbf-b80f-599d22075eed"},"vehicle_type_id":"4","last_reported":1716631672,"current_range_meters":16000,"station_id":"ce4bhs12rcd13ifvqhvg","pricing_plan_id":"cebpf4jnsgd1na2vs0mg"},{"bike_id":"4e5bba4b-f9f5-4d5c-a401-5331d227861a","system_id":"levelo_inurba_marseille","lat":43.302784,"lon":5.377158,"is_reserved":false,"is_disabled":false,"rental_uris":{"android":"levelo://app?vid=4e5bba4b-f9f5-4d5c-a401-5331d227861a","ios":"levelo://app?vid=4e5bba4b-f9f5-4d5c-a401-5331d227861a"},"vehicle_type_id":"4","last_reported":1716631672,"current_range_meters":15600,"station_id":"ce4bguh2rcd13ifvqcj0","pricing_plan_id":"cebpf4jnsgd1na2vs0mg"},{"bike_id":"a777791b-1715-4075-8cff-8d612004d231","system_id":"levelo_inurba_marseille","lat":43.302784,"lon":5.377158,"is_reserved":false,"is_disabled":false,"rental_uris":{"android":"levelo://app?vid=a777791b-1715-4075-8cff-8d612004d231","ios":"levelo://app?vid=a777791b-1715-4075-8cff-8d612004d231"},"vehicle_type_id":"4","last_reported":1716631672,"current_range_meters":31200,"station_id":"ce4bguh2rcd13ifvqcj0","pricing_plan_id":"cebpf4jnsgd1na2vs0mg"},{"bike_id":"7820d013-7d69-49d7-bff1-02ce0ab76e19","system_id":"levelo_inurba_marseille","lat":43.302784,"lon":5.377158,"is_reserved":false,"is_disabled":false,"rental_uris":{"android":"levelo://app?vid=7820d013-7d69-49d7-bff1-02ce0ab76e19","ios":"levelo://app?vid=7820d013-7d69-49d7-bff1-02ce0ab76e19"},"vehicle_type_id":"4","last_reported":1716631672,"current_range_meters":30400,"station_id":"ce4bguh2rcd13ifvqcj0","pricing_plan_id":"cebpf4jnsgd1na2vs0mg"},{"bike_id":"320ddb95-8697-4e1f-bef7-888b0e9d44b5","system_id":"levelo_inurba_marseille","lat":43.302784,"lon":5.377158,"is_reserved":false,"is_disabled":false,"rental_uris":{"android":"levelo://app?vid=320ddb95-8697-4e1f-bef7-888b0e9d44b5","ios":"levelo://app?vid=320ddb95-8697-4e1f-bef7-888b0e9d44b5"},"vehicle_type_id":"4","last_reported":1716631672,"current_range_meters":9600,"station_id":"ce4bguh2rcd13ifvqcj0","pricing_plan_id":"cebpf4jnsgd1na2vs0mg"},{"bike_id":"47f52184-d95b-4541-8e21-0e62a43a6fc2","system_id":"levelo_inurba_marseille","lat":43.302784,"lon":5.377158,"is_reserved":false,"is_disabled":false,"rental_uris":{"android":"levelo://app?vid=47f52184-d95b-4541-8e21-0e62a43a6fc2","ios":"levelo://app?vid=47f52184-d95b-4541-8e21-0e62a43a6fc2"},"vehicle_type_id":"4","last_reported":1716631672,"current_range_meters":31200,"station_id":"ce4bguh2rcd13ifvqcj0","pricing_plan_id":"cebpf4jnsgd1na2vs0mg"},{"bike_id":"b54a9c38-881c-48ae-8ad5-fb92cf8e91b4","system_id":"levelo_inurba_marseille","lat":43.30143,"lon":5.37413,"is_reserved":false,"is_disabled":false,"rental_uris":{"android":"levelo://app?vid=b54a9c38-881c-48ae-8ad5-fb92cf8e91b4","ios":"levelo://app?vid=b54a9c38-881c-48ae-8ad5-fb92cf8e91b4"},"vehicle_type_id":"4","last_reported":1716631672,"current_range_meters":12000,"station_id":"ce4bgs92rcd13ifvqcc0","pricing_plan_id":"cebpf4jnsgd1na2vs0mg"},{"bike_id":"87e0e847-6d63-4499-864e-7377bcfdd13b","system_id":"levelo_inurba_marseille","lat":43.302784,"lon":5.377158,"is_reserved":false,"is_disabled":false,"rental_uris":{"android":"levelo://app?vid=87e0e847-6d63-4499-864e-7377bcfdd13b","ios":"levelo://app?vid=87e0e847-6d63-4499-864e-7377bcfdd13b"},"vehicle_type_id":"4","last_reported":1716631672,"current_range_meters":28800,"station_id":"ce4bguh2rcd13ifvqcj0","pricing_plan_id":"cebpf4jnsgd1na2vs0mg"},{"bike_id":"4c816e16-a973-4890-8715-c995bb47b92e","system_id":"levelo_inurba_marseille","lat":43.30143,"lon":5.37413,"is_reserved":false,"is_disabled":false,"rental_uris":{"android":"levelo://app?vid=4c816e16-a973-4890-8715-c995bb47b92e","ios":"levelo://app?vid=4c816e16-a973-4890-8715-c995bb47b92e"},"vehicle_type_id":"4","last_reported":1716631672,"current_range_meters":14400,"station_id":"ce4bgs92rcd13ifvqcc0","pricing_plan_id":"cebpf4jnsgd1na2vs0mg"},{"bike_id":"f24d2251-671e-48a0-b8a1-6a31dc1b1ece","system_id":"levelo_inurba_marseille","lat":43.302784,"lon":5.377158,"is_reserved":false,"is_disabled":false,"rental_uris":{"android":"levelo://app?vid=f24d2251-671e-48a0-b8a1-6a31dc1b1ece","ios":"levelo://app?vid=f24d2251-671e-48a0-b8a1-6a31dc1b1ece"},"vehicle_type_id":"4","last_reported":1716631672,"current_range_meters":4800,"station_id":"ce4bguh2rcd13ifvqcj0","pricing_plan_id":"cebpf4jnsgd1na2vs0mg"},{"bike_id":"46854a3f-d242-4a43-862a-2122451ef672","system_id":"levelo_inurba_marseille","lat":43.30145,"lon":5.374266,"is_reserved":false,"is_disabled":false,"rental_uris":{"android":"levelo://app?vid=46854a3f-d242-4a43-862a-2122451ef672","ios":"levelo://app?vid=46854a3f-d242-4a43-862a-2122451ef672"},"vehicle_type_id":"4","last_reported":1716631672,"current_range_meters":15600,"station_id":"ce4bgs92rcd13ifvqcc0","pricing_plan_id":"cebpf4jnsgd1na2vs0mg"},{"bike_id":"2fea1fc4-411d-4d80-a08a-7a7f4ed28e9c","system_id":"levelo_inurba_marseille","lat":43.30143,"lon":5.37413,"is_reserved":false,"is_disabled":false,"rental_uris":{"android":"levelo://app?vid=2fea1fc4-411d-4d80-a08a-7a7f4ed28e9c","ios":"levelo://app?vid=2fea1fc4-411d-4d80-a08a-7a7f4ed28e9c"},"vehicle_type_id":"4","last_reported":1716631672,"current_range_meters":30400,"station_id":"ce4bgs92rcd13ifvqcc0","pricing_plan_id":"cebpf4jnsgd1na2vs0mg"},{"bike_id":"71369abf-e394-4940-97da-986f25abee8b","system_id":"levelo_inurba_marseille","lat":43.31985,"lon":5.38141,"is_reserved":false,"is_disabled":false,"rental_uris":{"android":"levelo://app?vid=71369abf-e394-4940-97da-986f25abee8b","ios":"levelo://app?vid=71369abf-e394-4940-97da-986f25abee8b"},"vehicle_type_id":"4","last_reported":1716631672,"current_range_meters":18400,"station_id":"ce4bhr12rcd13ifvqhpg","pricing_plan_id":"cebpf4jnsgd1na2vs0mg"},{"bike_id":"e3ab1838-c864-47ce-8fd2-dce41b728620","system_id":"levelo_inurba_marseille","lat":43.319935,"lon":5.381699,"is_reserved":false,"is_disabled":false,"rental_uris":{"android":"levelo://app?vid=e3ab1838-c864-47ce-8fd2-dce41b728620","ios":"levelo://app?vid=e3ab1838-c864-47ce-8fd2-dce41b728620"},"vehicle_type_id":"4","last_reported":1716631672,"current_range_meters":30400,"station_id":"ce4bhr12rcd13ifvqhpg","pricing_plan_id":"cebpf4jnsgd1na2vs0mg"},{"bike_id":"d9cb442c-7f8c-424e-ac43-d1683b791e55","system_id":"levelo_inurba_marseille","lat":43.319935,"lon":5.381699,"is_reserved":false,"is_disabled":false,"rental_uris":{"android":"levelo://app?vid=d9cb442c-7f8c-424e-ac43-d1683b791e55","ios":"levelo://app?vid=d9cb442c-7f8c-424e-ac43-d1683b791e55"},"vehicle_type_id":"4","last_reported":1716631672,"current_range_meters":2000,"station_id":"ce4bhr12rcd13ifvqhpg","pricing_plan_id":"cebpf4jnsgd1na2vs0mg"},{"bike_id":"c8b49537-2b74-4c39-b278-b0480ace25fc","system_id":"levelo_inurba_marseille","lat":43.31989,"lon":5.38157,"is_reserved":false,"is_disabled":false,"rental_uris":{"android":"levelo://app?vid=c8b49537-2b74-4c39-b278-b0480ace25fc","ios":"levelo://app?vid=c8b49537-2b74-4c39-b278-b0480ace25fc"},"vehicle_type_id":"4","last_reported":1716631672,"current_range_meters":21200,"station_id":"ce4bhr12rcd13ifvqhpg","pricing_plan_id":"cebpf4jnsgd1na2vs0mg"},{"bike_id":"8e957714-9444-426f-96bf-245e4385b9b9","system_id":"levelo_inurba_marseille","lat":43.31998,"lon":5.38161,"is_reserved":false,"is_disabled":false,"rental_uris":{"android":"levelo://app?vid=8e957714-9444-426f-96bf-245e4385b9b9","ios":"levelo://app?vid=8e957714-9444-426f-96bf-245e4385b9b9"},"vehicle_type_id":"4","last_reported":1716631672,"current_range_meters":18000,"station_id":"ce4bhr12rcd13ifvqhpg","pricing_plan_id":"cebpf4jnsgd1na2vs0mg"},{"bike_id":"976222ba-f720-4fa9-b9fd-7663748bf576","system_id":"levelo_inurba_marseille","lat":43.299222,"lon":5.365554,"is_reserved":false,"is_disabled":false,"rental_uris":{"android":"levelo://app?vid=976222ba-f720-4fa9-b9fd-7663748bf576","ios":"levelo://app?vid=976222ba-f720-4fa9-b9fd-7663748bf576"},"vehicle_type_id":"4","last_reported":1716631672,"current_range_meters":6000,"station_id":"ce4bgm92rcd13ifvqbr0","pricing_plan_id":"cebpf4jnsgd1na2vs0mg"},{"bike_id":"a2b61467-7595-41fa-9a5b-1c3e2dae5952","system_id":"levelo_inurba_marseille","lat":43.2999,"lon":5.37205,"is_reserved":false,"is_disabled":false,"rental_uris":{"android":"levelo://app?vid=a2b61467-7595-41fa-9a5b-1c3e2dae5952","ios":"levelo://app?vid=a2b61467-7595-41fa-9a5b-1c3e2dae5952"},"vehicle_type_id":"4","last_reported":1716631672,"current_range_meters":0,"station_id":"ce4bgr92rcd13ifvqc7g","pricing_plan_id":"cebpf4jnsgd1na2vs0mg"},{"bike_id":"8067444f-eca2-4260-b4d1-d6f1b8509710","system_id":"levelo_inurba_marseille","lat":43.29978,"lon":5.37177,"is_reserved":false,"is_disabled":false,"rental_uris":{"android":"levelo://app?vid=8067444f-eca2-4260-b4d1-d6f1b8509710","ios":"levelo://app?vid=8067444f-eca2-4260-b4d1-d6f1b8509710"},"vehicle_type_id":"4","last_reported":1716631672,"current_range_meters":20000,"station_id":"ce4bgr92rcd13ifvqc7g","pricing_plan_id":"cebpf4jnsgd1na2vs0mg"},{"bike_id":"e7affa5e-1b86-49b9-923a-7cc38a1b5960","system_id":"levelo_inurba_marseille","lat":43.298433,"lon":5.362774,"is_reserved":false,"is_disabled":false,"rental_uris":{"android":"levelo://app?vid=e7affa5e-1b86-49b9-923a-7cc38a1b5960","ios":"levelo://app?vid=e7affa5e-1b86-49b9-923a-7cc38a1b5960"},"vehicle_type_id":"4","last_reported":1716631672,"current_range_meters":28400,"station_id":"ce4bgpp2rcd13ifvqc3g","pricing_plan_id":"cebpf4jnsgd1na2vs0mg"},{"bike_id":"f6498cdc-3ccd-424f-86d8-b9d58e397eb5","system_id":"levelo_inurba_marseille","lat":43.298433,"lon":5.362774,"is_reserved":false,"is_disabled":false,"rental_uris":{"android":"levelo://app?vid=f6498cdc-3ccd-424f-86d8-b9d58e397eb5","ios":"levelo://app?vid=f6498cdc-3ccd-424f-86d8-b9d58e397eb5"},"vehicle_type_id":"4","last_reported":1716631672,"current_range_meters":18000,"station_id":"ce4bgpp2rcd13ifvqc3g","pricing_plan_id":"cebpf4jnsgd1na2vs0mg"},{"bike_id":"00f67eaf-b99d-4a1f-bb7b-74887e8c805d","system_id":"levelo_inurba_marseille","lat":43.298433,"lon":5.362774,"is_reserved":false,"is_disabled":false,"rental_uris":{"android":"levelo://app?vid=00f67eaf-b99d-4a1f-bb7b-74887e8c805d","ios":"levelo://app?vid=00f67eaf-b99d-4a1f-bb7b-74887e8c805d"},"vehicle_type_id":"4","last_reported":1716631672,"current_range_meters":12000,"station_id":"ce4bgpp2rcd13ifvqc3g","pricing_plan_id":"cebpf4jnsgd1na2vs0mg"},{"bike_id":"5d46ac06-ee5a-4bfd-91bb-e4392926b67e","system_id":"levelo_inurba_marseille","lat":43.305364,"lon":5.384119,"is_reserved":false,"is_disabled":false,"rental_uris":{"android":"levelo://app?vid=5d46ac06-ee5a-4bfd-91bb-e4392926b67e","ios":"levelo://app?vid=5d46ac06-ee5a-4bfd-91bb-e4392926b67e"},"vehicle_type_id":"4","last_reported":1716631672,"current_range_meters":25200,"station_id":"ce4bgg92rcd13ifvqb30","pricing_plan_id":"cebpf4jnsgd1na2vs0mg"},{"bike_id":"dda5ef1f-f1c3-4dde-9421-ab13e0e2ba3b","system_id":"levelo_inurba_marseille","lat":43.298433,"lon":5.362774,"is_reserved":false,"is_disabled":false,"rental_uris":{"android":"levelo://app?vid=dda5ef1f-f1c3-4dde-9421-ab13e0e2ba3b","ios":"levelo://app?vid=dda5ef1f-f1c3-4dde-9421-ab13e0e2ba3b"},"vehicle_type_id":"4","last_reported":1716631672,"current_range_meters":28800,"station_id":"ce4bgpp2rcd13ifvqc3g","pricing_plan_id":"cebpf4jnsgd1na2vs0mg"},{"bike_id":"7d419b5b-a30f-4a7e-b910-7d3631ba9263","system_id":"levelo_inurba_marseille","lat":43.298433,"lon":5.362774,"is_reserved":false,"is_disabled":false,"rental_uris":{"android":"levelo://app?vid=7d419b5b-a30f-4a7e-b910-7d3631ba9263","ios":"levelo://app?vid=7d419b5b-a30f-4a7e-b910-7d3631ba9263"},"vehicle_type_id":"4","last_reported":1716631672,"current_range_meters":10800,"station_id":"ce4bgpp2rcd13ifvqc3g","pricing_plan_id":"cebpf4jnsgd1na2vs0mg"},{"bike_id":"84f54921-626c-4609-8dee-55d4d5ddcde4","system_id":"levelo_inurba_marseille","lat":43.298433,"lon":5.362774,"is_reserved":false,"is_disabled":false,"rental_uris":{"android":"levelo://app?vid=84f54921-626c-4609-8dee-55d4d5ddcde4","ios":"levelo://app?vid=84f54921-626c-4609-8dee-55d4d5ddcde4"},"vehicle_type_id":"4","last_reported":1716631672,"current_range_meters":3600,"station_id":"ce4bgpp2rcd13ifvqc3g","pricing_plan_id":"cebpf4jnsgd1na2vs0mg"},{"bike_id":"2f90c5b8-ee21-4c15-a23a-f95d76ecbaf8","system_id":"levelo_inurba_marseille","lat":43.298433,"lon":5.362774,"is_reserved":false,"is_disabled":false,"rental_uris":{"android":"levelo://app?vid=2f90c5b8-ee21-4c15-a23a-f95d76ecbaf8","ios":"levelo://app?vid=2f90c5b8-ee21-4c15-a23a-f95d76ecbaf8"},"vehicle_type_id":"4","last_reported":1716631672,"current_range_meters":5200,"station_id":"ce4bgpp2rcd13ifvqc3g","pricing_plan_id":"cebpf4jnsgd1na2vs0mg"},{"bike_id":"aa30251f-34a4-4ee1-9170-0ec43723866a","system_id":"levelo_inurba_marseille","lat":43.298433,"lon":5.362774,"is_reserved":false,"is_disabled":false,"rental_uris":{"android":"levelo://app?vid=aa30251f-34a4-4ee1-9170-0ec43723866a","ios":"levelo://app?vid=aa30251f-34a4-4ee1-9170-0ec43723866a"},"vehicle_type_id":"4","last_reported":1716631672,"current_range_meters":13600,"station_id":"ce4bgpp2rcd13ifvqc3g","pricing_plan_id":"cebpf4jnsgd1na2vs0mg"},{"bike_id":"6a1e02e6-bea7-4885-90b2-83e9d2040fde","system_id":"levelo_inurba_marseille","lat":43.298433,"lon":5.362774,"is_reserved":false,"is_disabled":false,"rental_uris":{"android":"levelo://app?vid=6a1e02e6-bea7-4885-90b2-83e9d2040fde","ios":"levelo://app?vid=6a1e02e6-bea7-4885-90b2-83e9d2040fde"},"vehicle_type_id":"4","last_reported":1716631672,"current_range_meters":18800,"station_id":"ce4bgpp2rcd13ifvqc3g","pricing_plan_id":"cebpf4jnsgd1na2vs0mg"},{"bike_id":"fb1c13a3-3a0f-48c6-8656-28fe4e468dec","system_id":"levelo_inurba_marseille","lat":43.298433,"lon":5.362774,"is_reserved":false,"is_disabled":false,"rental_uris":{"android":"levelo://app?vid=fb1c13a3-3a0f-48c6-8656-28fe4e468dec","ios":"levelo://app?vid=fb1c13a3-3a0f-48c6-8656-28fe4e468dec"},"vehicle_type_id":"4","last_reported":1716631672,"current_range_meters":21200,"station_id":"ce4bgpp2rcd13ifvqc3g","pricing_plan_id":"cebpf4jnsgd1na2vs0mg"},{"bike_id":"e48c7ca8-2887-4ca4-bce2-5e81e36b81fd","system_id":"levelo_inurba_marseille","lat":43.299243,"lon":5.37481,"is_reserved":false,"is_disabled":false,"rental_uris":{"android":"levelo://app?vid=e48c7ca8-2887-4ca4-bce2-5e81e36b81fd","ios":"levelo://app?vid=e48c7ca8-2887-4ca4-bce2-5e81e36b81fd"},"vehicle_type_id":"4","last_reported":1716631672,"current_range_meters":12800,"station_id":"ce4bgjh2rcd13ifvqbg0","pricing_plan_id":"cebpf4jnsgd1na2vs0mg"},{"bike_id":"133055eb-0ab7-4f8a-a45c-f0304d1fa53f","system_id":"levelo_inurba_marseille","lat":43.298433,"lon":5.362774,"is_reserved":false,"is_disabled":false,"rental_uris":{"android":"levelo://app?vid=133055eb-0ab7-4f8a-a45c-f0304d1fa53f","ios":"levelo://app?vid=133055eb-0ab7-4f8a-a45c-f0304d1fa53f"},"vehicle_type_id":"4","last_reported":1716631672,"current_range_meters":26000,"station_id":"ce4bgpp2rcd13ifvqc3g","pricing_plan_id":"cebpf4jnsgd1na2vs0mg"},{"bike_id":"403ebd54-3382-463d-9794-b5cfacfc5d55","system_id":"levelo_inurba_marseille","lat":43.299243,"lon":5.374807,"is_reserved":false,"is_disabled":false,"rental_uris":{"android":"levelo://app?vid=403ebd54-3382-463d-9794-b5cfacfc5d55","ios":"levelo://app?vid=403ebd54-3382-463d-9794-b5cfacfc5d55"},"vehicle_type_id":"4","last_reported":1716631672,"current_range_meters":22400,"station_id":"ce4bgjh2rcd13ifvqbg0","pricing_plan_id":"cebpf4jnsgd1na2vs0mg"},{"bike_id":"d34d1380-da6e-4892-97c3-7b98c7b43cd9","system_id":"levelo_inurba_marseille","lat":43.311722,"lon":5.387247,"is_reserved":false,"is_disabled":false,"rental_uris":{"android":"levelo://app?vid=d34d1380-da6e-4892-97c3-7b98c7b43cd9","ios":"levelo://app?vid=d34d1380-da6e-4892-97c3-7b98c7b43cd9"},"vehicle_type_id":"4","last_reported":1716631672,"current_range_meters":26400,"station_id":"ce4bgv12rcd13ifvqcp0","pricing_plan_id":"cebpf4jnsgd1na2vs0mg"},{"bike_id":"ed492a4e-944e-43b3-bd26-4581a8e6f7a8","system_id":"levelo_inurba_marseille","lat":43.297774,"lon":5.370875,"is_reserved":false,"is_disabled":false,"rental_uris":{"android":"levelo://app?vid=ed492a4e-944e-43b3-bd26-4581a8e6f7a8","ios":"levelo://app?vid=ed492a4e-944e-43b3-bd26-4581a8e6f7a8"},"vehicle_type_id":"4","last_reported":1716631672,"current_range_meters":30000,"station_id":"ce4bgop2rcd13ifvqc1g","pricing_plan_id":"cebpf4jnsgd1na2vs0mg"},{"bike_id":"02f22417-f079-4898-97e4-997bbc0e6433","system_id":"levelo_inurba_marseille","lat":43.297794,"lon":5.370888,"is_reserved":false,"is_disabled":false,"rental_uris":{"android":"levelo://app?vid=02f22417-f079-4898-97e4-997bbc0e6433","ios":"levelo://app?vid=02f22417-f079-4898-97e4-997bbc0e6433"},"vehicle_type_id":"4","last_reported":1716631672,"current_range_meters":12000,"station_id":"ce4bgop2rcd13ifvqc1g","pricing_plan_id":"cebpf4jnsgd1na2vs0mg"},{"bike_id":"16c14736-a457-4de9-a4ab-9d339bb3e7b8","system_id":"levelo_inurba_marseille","lat":43.299243,"lon":5.374807,"is_reserved":false,"is_disabled":false,"rental_uris":{"android":"levelo://app?vid=16c14736-a457-4de9-a4ab-9d339bb3e7b8","ios":"levelo://app?vid=16c14736-a457-4de9-a4ab-9d339bb3e7b8"},"vehicle_type_id":"4","last_reported":1716631672,"current_range_meters":3600,"station_id":"ce4bgjh2rcd13ifvqbg0","pricing_plan_id":"cebpf4jnsgd1na2vs0mg"},{"bike_id":"ecc21bc4-f839-4d2a-93da-1d5a6b03040e","system_id":"levelo_inurba_marseille","lat":43.297794,"lon":5.370888,"is_reserved":false,"is_disabled":false,"rental_uris":{"android":"levelo://app?vid=ecc21bc4-f839-4d2a-93da-1d5a6b03040e","ios":"levelo://app?vid=ecc21bc4-f839-4d2a-93da-1d5a6b03040e"},"vehicle_type_id":"4","last_reported":1716631672,"current_range_meters":24800,"station_id":"ce4bgop2rcd13ifvqc1g","pricing_plan_id":"cebpf4jnsgd1na2vs0mg"},{"bike_id":"31d6e92c-8072-4aa7-9b3f-cdb77dfbd009","system_id":"levelo_inurba_marseille","lat":43.297774,"lon":5.370875,"is_reserved":false,"is_disabled":false,"rental_uris":{"android":"levelo://app?vid=31d6e92c-8072-4aa7-9b3f-cdb77dfbd009","ios":"levelo://app?vid=31d6e92c-8072-4aa7-9b3f-cdb77dfbd009"},"vehicle_type_id":"4","last_reported":1716631672,"current_range_meters":23200,"station_id":"ce4bgop2rcd13ifvqc1g","pricing_plan_id":"cebpf4jnsgd1na2vs0mg"},{"bike_id":"c137d85a-3904-4ac9-ba2e-877d8425fd18","system_id":"levelo_inurba_marseille","lat":43.297794,"lon":5.370888,"is_reserved":false,"is_disabled":false,"rental_uris":{"android":"levelo://app?vid=c137d85a-3904-4ac9-ba2e-877d8425fd18","ios":"levelo://app?vid=c137d85a-3904-4ac9-ba2e-877d8425fd18"},"vehicle_type_id":"4","last_reported":1716631672,"current_range_meters":4000,"station_id":"ce4bgop2rcd13ifvqc1g","pricing_plan_id":"cebpf4jnsgd1na2vs0mg"},{"bike_id":"f24d7542-af7d-4871-aa7b-3c5e0d8fdee2","system_id":"levelo_inurba_marseille","lat":43.297794,"lon":5.370888,"is_reserved":false,"is_disabled":false,"rental_uris":{"android":"levelo://app?vid=f24d7542-af7d-4871-aa7b-3c5e0d8fdee2","ios":"levelo://app?vid=f24d7542-af7d-4871-aa7b-3c5e0d8fdee2"},"vehicle_type_id":"4","last_reported":1716631672,"current_range_meters":18800,"station_id":"ce4bgop2rcd13ifvqc1g","pricing_plan_id":"cebpf4jnsgd1na2vs0mg"},{"bike_id":"5ddaef10-9a3f-4ec2-b53d-f1f4ac494787","system_id":"levelo_inurba_marseille","lat":43.298433,"lon":5.362774,"is_reserved":false,"is_disabled":false,"rental_uris":{"android":"levelo://app?vid=5ddaef10-9a3f-4ec2-b53d-f1f4ac494787","ios":"levelo://app?vid=5ddaef10-9a3f-4ec2-b53d-f1f4ac494787"},"vehicle_type_id":"4","last_reported":1716631672,"current_range_meters":12800,"station_id":"ce4bgpp2rcd13ifvqc3g","pricing_plan_id":"cebpf4jnsgd1na2vs0mg"},{"bike_id":"44991ac8-d706-4f51-9a70-e44937b720db","system_id":"levelo_inurba_marseille","lat":43.30219,"lon":5.38261,"is_reserved":false,"is_disabled":false,"rental_uris":{"android":"levelo://app?vid=44991ac8-d706-4f51-9a70-e44937b720db","ios":"levelo://app?vid=44991ac8-d706-4f51-9a70-e44937b720db"},"vehicle_type_id":"4","last_reported":1716631672,"current_range_meters":11200,"station_id":"","pricing_plan_id":"cebpf4jnsgd1na2vs0mg"},{"bike_id":"9a33301f-b175-446e-bbc8-a29024a3e8c4","system_id":"levelo_inurba_marseille","lat":43.297163,"lon":5.365866,"is_reserved":false,"is_disabled":false,"rental_uris":{"android":"levelo://app?vid=9a33301f-b175-446e-bbc8-a29024a3e8c4","ios":"levelo://app?vid=9a33301f-b175-446e-bbc8-a29024a3e8c4"},"vehicle_type_id":"4","last_reported":1716631672,"current_range_meters":28800,"station_id":"ce4bgn12rcd13ifvqbt0","pricing_plan_id":"cebpf4jnsgd1na2vs0mg"},{"bike_id":"a42f95a1-6892-40ba-a86f-7baea79d2838","system_id":"levelo_inurba_marseille","lat":43.2968,"lon":5.37291,"is_reserved":false,"is_disabled":false,"rental_uris":{"android":"levelo://app?vid=a42f95a1-6892-40ba-a86f-7baea79d2838","ios":"levelo://app?vid=a42f95a1-6892-40ba-a86f-7baea79d2838"},"vehicle_type_id":"4","last_reported":1716631672,"current_range_meters":18400,"station_id":"ce4bgk12rcd13ifvqbj0","pricing_plan_id":"cebpf4jnsgd1na2vs0mg"},{"bike_id":"11b227de-e979-4469-9955-8e912c324a76","system_id":"levelo_inurba_marseille","lat":43.2968,"lon":5.37291,"is_reserved":false,"is_disabled":false,"rental_uris":{"android":"levelo://app?vid=11b227de-e979-4469-9955-8e912c324a76","ios":"levelo://app?vid=11b227de-e979-4469-9955-8e912c324a76"},"vehicle_type_id":"4","last_reported":1716631672,"current_range_meters":27200,"station_id":"ce4bgk12rcd13ifvqbj0","pricing_plan_id":"cebpf4jnsgd1na2vs0mg"},{"bike_id":"684d3097-9f2a-44f0-b88f-cf9e63e2b21c","system_id":"levelo_inurba_marseille","lat":43.2968,"lon":5.37291,"is_reserved":false,"is_disabled":false,"rental_uris":{"android":"levelo://app?vid=684d3097-9f2a-44f0-b88f-cf9e63e2b21c","ios":"levelo://app?vid=684d3097-9f2a-44f0-b88f-cf9e63e2b21c"},"vehicle_type_id":"4","last_reported":1716631672,"current_range_meters":400,"station_id":"ce4bgk12rcd13ifvqbj0","pricing_plan_id":"cebpf4jnsgd1na2vs0mg"},{"bike_id":"95943657-1161-41a0-9bd0-1dc8c0deed30","system_id":"levelo_inurba_marseille","lat":43.2968,"lon":5.37291,"is_reserved":false,"is_disabled":false,"rental_uris":{"android":"levelo://app?vid=95943657-1161-41a0-9bd0-1dc8c0deed30","ios":"levelo://app?vid=95943657-1161-41a0-9bd0-1dc8c0deed30"},"vehicle_type_id":"4","last_reported":1716631672,"current_range_meters":24800,"station_id":"ce4bgk12rcd13ifvqbj0","pricing_plan_id":"cebpf4jnsgd1na2vs0mg"},{"bike_id":"dc79bfb5-0fa1-4713-b944-6fb0d3aa5f04","system_id":"levelo_inurba_marseille","lat":43.2968,"lon":5.37291,"is_reserved":false,"is_disabled":false,"rental_uris":{"android":"levelo://app?vid=dc79bfb5-0fa1-4713-b944-6fb0d3aa5f04","ios":"levelo://app?vid=dc79bfb5-0fa1-4713-b944-6fb0d3aa5f04"},"vehicle_type_id":"4","last_reported":1716631672,"current_range_meters":29200,"station_id":"ce4bgk12rcd13ifvqbj0","pricing_plan_id":"cebpf4jnsgd1na2vs0mg"},{"bike_id":"b2b3259d-7685-4a05-b50c-26cc9641c733","system_id":"levelo_inurba_marseille","lat":43.2968,"lon":5.37291,"is_reserved":false,"is_disabled":false,"rental_uris":{"android":"levelo://app?vid=b2b3259d-7685-4a05-b50c-26cc9641c733","ios":"levelo://app?vid=b2b3259d-7685-4a05-b50c-26cc9641c733"},"vehicle_type_id":"4","last_reported":1716631672,"current_range_meters":18800,"station_id":"ce4bgk12rcd13ifvqbj0","pricing_plan_id":"cebpf4jnsgd1na2vs0mg"},{"bike_id":"b0181dbd-d16d-4347-9382-b450da867146","system_id":"levelo_inurba_marseille","lat":43.29657,"lon":5.36162,"is_reserved":false,"is_disabled":false,"rental_uris":{"android":"levelo://app?vid=b0181dbd-d16d-4347-9382-b450da867146","ios":"levelo://app?vid=b0181dbd-d16d-4347-9382-b450da867146"},"vehicle_type_id":"4","last_reported":1716631672,"current_range_meters":9200,"station_id":"","pricing_plan_id":"cebpf4jnsgd1na2vs0mg"},{"bike_id":"ef91b2b4-24d9-4ae9-bf8a-f3b20931aa3f","system_id":"levelo_inurba_marseille","lat":43.296129,"lon":5.370777,"is_reserved":false,"is_disabled":false,"rental_uris":{"android":"levelo://app?vid=ef91b2b4-24d9-4ae9-bf8a-f3b20931aa3f","ios":"levelo://app?vid=ef91b2b4-24d9-4ae9-bf8a-f3b20931aa3f"},"vehicle_type_id":"4","last_reported":1716631672,"current_range_meters":29200,"station_id":"ce4bgnh2rcd13ifvqc0g","pricing_plan_id":"cebpf4jnsgd1na2vs0mg"},{"bike_id":"bb6b3d07-4aca-4d66-a8f8-fa6c881d08f1","system_id":"levelo_inurba_marseille","lat":43.296129,"lon":5.370777,"is_reserved":false,"is_disabled":false,"rental_uris":{"android":"levelo://app?vid=bb6b3d07-4aca-4d66-a8f8-fa6c881d08f1","ios":"levelo://app?vid=bb6b3d07-4aca-4d66-a8f8-fa6c881d08f1"},"vehicle_type_id":"4","last_reported":1716631672,"current_range_meters":24400,"station_id":"ce4bgnh2rcd13ifvqc0g","pricing_plan_id":"cebpf4jnsgd1na2vs0mg"},{"bike_id":"5f1d2f56-4d34-401b-b81c-f670278b93ce","system_id":"levelo_inurba_marseille","lat":43.296129,"lon":5.370777,"is_reserved":false,"is_disabled":false,"rental_uris":{"android":"levelo://app?vid=5f1d2f56-4d34-401b-b81c-f670278b93ce","ios":"levelo://app?vid=5f1d2f56-4d34-401b-b81c-f670278b93ce"},"vehicle_type_id":"4","last_reported":1716631672,"current_range_meters":28000,"station_id":"ce4bgnh2rcd13ifvqc0g","pricing_plan_id":"cebpf4jnsgd1na2vs0mg"},{"bike_id":"244f79b1-11a1-43cd-8526-a61e2cf599e6","system_id":"levelo_inurba_marseille","lat":43.29573,"lon":5.367355,"is_reserved":false,"is_disabled":false,"rental_uris":{"android":"levelo://app?vid=244f79b1-11a1-43cd-8526-a61e2cf599e6","ios":"levelo://app?vid=244f79b1-11a1-43cd-8526-a61e2cf599e6"},"vehicle_type_id":"4","last_reported":1716631672,"current_range_meters":22000,"station_id":"ce4bgph2rcd13ifvqc2g","pricing_plan_id":"cebpf4jnsgd1na2vs0mg"},{"bike_id":"5be364e8-d884-4e94-afef-bd841a01d477","system_id":"levelo_inurba_marseille","lat":43.309589,"lon":5.390258,"is_reserved":false,"is_disabled":false,"rental_uris":{"android":"levelo://app?vid=5be364e8-d884-4e94-afef-bd841a01d477","ios":"levelo://app?vid=5be364e8-d884-4e94-afef-bd841a01d477"},"vehicle_type_id":"4","last_reported":1716631672,"current_range_meters":20800,"station_id":"ce4bgup2rcd13ifvqco0","pricing_plan_id":"cebpf4jnsgd1na2vs0mg"},{"bike_id":"3f0811e0-fe88-43c3-81ca-d91fb7734728","system_id":"levelo_inurba_marseille","lat":43.299028,"lon":5.381509,"is_reserved":false,"is_disabled":false,"rental_uris":{"android":"levelo://app?vid=3f0811e0-fe88-43c3-81ca-d91fb7734728","ios":"levelo://app?vid=3f0811e0-fe88-43c3-81ca-d91fb7734728"},"vehicle_type_id":"4","last_reported":1716631672,"current_range_meters":25600,"station_id":"ce4bgj12rcd13ifvqbc0","pricing_plan_id":"cebpf4jnsgd1na2vs0mg"},{"bike_id":"00079adb-edc5-4370-a586-ca8166868ec2","system_id":"levelo_inurba_marseille","lat":43.309589,"lon":5.390258,"is_reserved":false,"is_disabled":false,"rental_uris":{"android":"levelo://app?vid=00079adb-edc5-4370-a586-ca8166868ec2","ios":"levelo://app?vid=00079adb-edc5-4370-a586-ca8166868ec2"},"vehicle_type_id":"4","last_reported":1716631672,"current_range_meters":9600,"station_id":"ce4bgup2rcd13ifvqco0","pricing_plan_id":"cebpf4jnsgd1na2vs0mg"},{"bike_id":"4502790e-ad43-4247-8209-463100976a10","system_id":"levelo_inurba_marseille","lat":43.309589,"lon":5.390258,"is_reserved":false,"is_disabled":false,"rental_uris":{"android":"levelo://app?vid=4502790e-ad43-4247-8209-463100976a10","ios":"levelo://app?vid=4502790e-ad43-4247-8209-463100976a10"},"vehicle_type_id":"4","last_reported":1716631672,"current_range_meters":13200,"station_id":"ce4bgup2rcd13ifvqco0","pricing_plan_id":"cebpf4jnsgd1na2vs0mg"},{"bike_id":"579f0e2a-1548-4723-b082-54d3ad2fd4de","system_id":"levelo_inurba_marseille","lat":43.309589,"lon":5.390258,"is_reserved":false,"is_disabled":false,"rental_uris":{"android":"levelo://app?vid=579f0e2a-1548-4723-b082-54d3ad2fd4de","ios":"levelo://app?vid=579f0e2a-1548-4723-b082-54d3ad2fd4de"},"vehicle_type_id":"4","last_reported":1716631672,"current_range_meters":19200,"station_id":"ce4bgup2rcd13ifvqco0","pricing_plan_id":"cebpf4jnsgd1na2vs0mg"},{"bike_id":"b21a6104-1b3f-49f4-90bd-75e9da21f193","system_id":"levelo_inurba_marseille","lat":43.295748,"lon":5.37522,"is_reserved":false,"is_disabled":false,"rental_uris":{"android":"levelo://app?vid=b21a6104-1b3f-49f4-90bd-75e9da21f193","ios":"levelo://app?vid=b21a6104-1b3f-49f4-90bd-75e9da21f193"},"vehicle_type_id":"4","last_reported":1716631672,"current_range_meters":16000,"station_id":"ce4bgh92rcd13ifvqb50","pricing_plan_id":"cebpf4jnsgd1na2vs0mg"},{"bike_id":"d67a747d-ea3f-4ce0-bd1c-4aa62c8b5e34","system_id":"levelo_inurba_marseille","lat":43.298037,"lon":5.381066,"is_reserved":false,"is_disabled":false,"rental_uris":{"android":"levelo://app?vid=d67a747d-ea3f-4ce0-bd1c-4aa62c8b5e34","ios":"levelo://app?vid=d67a747d-ea3f-4ce0-bd1c-4aa62c8b5e34"},"vehicle_type_id":"4","last_reported":1716631672,"current_range_meters":26800,"station_id":"ce4bgip2rcd13ifvqbb0","pricing_plan_id":"cebpf4jnsgd1na2vs0mg"},{"bike_id":"0ce832cd-f0b7-41dd-a81a-b38e1778b876","system_id":"levelo_inurba_marseille","lat":43.295748,"lon":5.37522,"is_reserved":false,"is_disabled":false,"rental_uris":{"android":"levelo://app?vid=0ce832cd-f0b7-41dd-a81a-b38e1778b876","ios":"levelo://app?vid=0ce832cd-f0b7-41dd-a81a-b38e1778b876"},"vehicle_type_id":"4","last_reported":1716631672,"current_range_meters":14800,"station_id":"ce4bgh92rcd13ifvqb50","pricing_plan_id":"cebpf4jnsgd1na2vs0mg"},{"bike_id":"b65abcf4-d913-4962-89e8-1fe85197aef6","system_id":"levelo_inurba_marseille","lat":43.298037,"lon":5.381066,"is_reserved":false,"is_disabled":false,"rental_uris":{"android":"levelo://app?vid=b65abcf4-d913-4962-89e8-1fe85197aef6","ios":"levelo://app?vid=b65abcf4-d913-4962-89e8-1fe85197aef6"},"vehicle_type_id":"4","last_reported":1716631672,"current_range_meters":14800,"station_id":"ce4bgip2rcd13ifvqbb0","pricing_plan_id":"cebpf4jnsgd1na2vs0mg"},{"bike_id":"8d478523-1f4a-41ac-b3ea-64e262c67db9","system_id":"levelo_inurba_marseille","lat":43.298037,"lon":5.381066,"is_reserved":false,"is_disabled":false,"rental_uris":{"android":"levelo://app?vid=8d478523-1f4a-41ac-b3ea-64e262c67db9","ios":"levelo://app?vid=8d478523-1f4a-41ac-b3ea-64e262c67db9"},"vehicle_type_id":"4","last_reported":1716631672,"current_range_meters":14800,"station_id":"ce4bgip2rcd13ifvqbb0","pricing_plan_id":"cebpf4jnsgd1na2vs0mg"},{"bike_id":"c3df91b3-875d-4d05-bc7e-8a123cd9588e","system_id":"levelo_inurba_marseille","lat":43.298037,"lon":5.381066,"is_reserved":false,"is_disabled":false,"rental_uris":{"android":"levelo://app?vid=c3df91b3-875d-4d05-bc7e-8a123cd9588e","ios":"levelo://app?vid=c3df91b3-875d-4d05-bc7e-8a123cd9588e"},"vehicle_type_id":"4","last_reported":1716631672,"current_range_meters":25600,"station_id":"ce4bgip2rcd13ifvqbb0","pricing_plan_id":"cebpf4jnsgd1na2vs0mg"},{"bike_id":"46a067b7-5c3d-49da-a82a-c67d67fe49f4","system_id":"levelo_inurba_marseille","lat":43.295748,"lon":5.37522,"is_reserved":false,"is_disabled":false,"rental_uris":{"android":"levelo://app?vid=46a067b7-5c3d-49da-a82a-c67d67fe49f4","ios":"levelo://app?vid=46a067b7-5c3d-49da-a82a-c67d67fe49f4"},"vehicle_type_id":"4","last_reported":1716631672,"current_range_meters":0,"station_id":"ce4bgh92rcd13ifvqb50","pricing_plan_id":"cebpf4jnsgd1na2vs0mg"},{"bike_id":"9d81673e-8782-48e6-9dbf-bff10cbd3530","system_id":"levelo_inurba_marseille","lat":43.295748,"lon":5.37522,"is_reserved":false,"is_disabled":false,"rental_uris":{"android":"levelo://app?vid=9d81673e-8782-48e6-9dbf-bff10cbd3530","ios":"levelo://app?vid=9d81673e-8782-48e6-9dbf-bff10cbd3530"},"vehicle_type_id":"4","last_reported":1716631672,"current_range_meters":18000,"station_id":"ce4bgh92rcd13ifvqb50","pricing_plan_id":"cebpf4jnsgd1na2vs0mg"},{"bike_id":"716c22f3-2e8c-4630-8298-61f4fbe6b417","system_id":"levelo_inurba_marseille","lat":43.295748,"lon":5.37522,"is_reserved":false,"is_disabled":false,"rental_uris":{"android":"levelo://app?vid=716c22f3-2e8c-4630-8298-61f4fbe6b417","ios":"levelo://app?vid=716c22f3-2e8c-4630-8298-61f4fbe6b417"},"vehicle_type_id":"4","last_reported":1716631672,"current_range_meters":20800,"station_id":"ce4bgh92rcd13ifvqb50","pricing_plan_id":"cebpf4jnsgd1na2vs0mg"},{"bike_id":"46624aa2-311c-49d3-bcd2-4ac0bd36c1a5","system_id":"levelo_inurba_marseille","lat":43.295739,"lon":5.375043,"is_reserved":false,"is_disabled":false,"rental_uris":{"android":"levelo://app?vid=46624aa2-311c-49d3-bcd2-4ac0bd36c1a5","ios":"levelo://app?vid=46624aa2-311c-49d3-bcd2-4ac0bd36c1a5"},"vehicle_type_id":"4","last_reported":1716631672,"current_range_meters":26400,"station_id":"ce4bgh92rcd13ifvqb50","pricing_plan_id":"cebpf4jnsgd1na2vs0mg"},{"bike_id":"112b58c2-0a80-494f-b141-71a94602417c","system_id":"levelo_inurba_marseille","lat":43.295748,"lon":5.37522,"is_reserved":false,"is_disabled":false,"rental_uris":{"android":"levelo://app?vid=112b58c2-0a80-494f-b141-71a94602417c","ios":"levelo://app?vid=112b58c2-0a80-494f-b141-71a94602417c"},"vehicle_type_id":"4","last_reported":1716631672,"current_range_meters":2800,"station_id":"ce4bgh92rcd13ifvqb50","pricing_plan_id":"cebpf4jnsgd1na2vs0mg"},{"bike_id":"5464f84d-9155-4e0b-8a25-bf145daa4948","system_id":"levelo_inurba_marseille","lat":43.304274,"lon":5.388873,"is_reserved":false,"is_disabled":false,"rental_uris":{"android":"levelo://app?vid=5464f84d-9155-4e0b-8a25-bf145daa4948","ios":"levelo://app?vid=5464f84d-9155-4e0b-8a25-bf145daa4948"},"vehicle_type_id":"4","last_reported":1716631672,"current_range_meters":0,"station_id":"ce4bgk12rcd13ifvqbi0","pricing_plan_id":"cebpf4jnsgd1na2vs0mg"},{"bike_id":"a0c25bb6-ecc4-4f89-bc59-85c00caefb3d","system_id":"levelo_inurba_marseille","lat":43.295748,"lon":5.37522,"is_reserved":false,"is_disabled":false,"rental_uris":{"android":"levelo://app?vid=a0c25bb6-ecc4-4f89-bc59-85c00caefb3d","ios":"levelo://app?vid=a0c25bb6-ecc4-4f89-bc59-85c00caefb3d"},"vehicle_type_id":"4","last_reported":1716631672,"current_range_meters":12000,"station_id":"ce4bgh92rcd13ifvqb50","pricing_plan_id":"cebpf4jnsgd1na2vs0mg"},{"bike_id":"ffbcaa39-85c6-4ca3-a7c5-47cbb7325e58","system_id":"levelo_inurba_marseille","lat":43.296277,"lon":5.377108,"is_reserved":false,"is_disabled":false,"rental_uris":{"android":"levelo://app?vid=ffbcaa39-85c6-4ca3-a7c5-47cbb7325e58","ios":"levelo://app?vid=ffbcaa39-85c6-4ca3-a7c5-47cbb7325e58"},"vehicle_type_id":"4","last_reported":1716631672,"current_range_meters":4800,"station_id":"ce4bgi92rcd13ifvqb90","pricing_plan_id":"cebpf4jnsgd1na2vs0mg"},{"bike_id":"534fa282-48f6-4da2-a604-72694f5eb285","system_id":"levelo_inurba_marseille","lat":43.295748,"lon":5.37522,"is_reserved":false,"is_disabled":false,"rental_uris":{"android":"levelo://app?vid=534fa282-48f6-4da2-a604-72694f5eb285","ios":"levelo://app?vid=534fa282-48f6-4da2-a604-72694f5eb285"},"vehicle_type_id":"4","last_reported":1716631672,"current_range_meters":13200,"station_id":"ce4bgh92rcd13ifvqb50","pricing_plan_id":"cebpf4jnsgd1na2vs0mg"},{"bike_id":"85ffad5c-dd54-434a-9464-37200d0799ad","system_id":"levelo_inurba_marseille","lat":43.295748,"lon":5.37522,"is_reserved":false,"is_disabled":false,"rental_uris":{"android":"levelo://app?vid=85ffad5c-dd54-434a-9464-37200d0799ad","ios":"levelo://app?vid=85ffad5c-dd54-434a-9464-37200d0799ad"},"vehicle_type_id":"4","last_reported":1716631672,"current_range_meters":26800,"station_id":"ce4bgh92rcd13ifvqb50","pricing_plan_id":"cebpf4jnsgd1na2vs0mg"},{"bike_id":"4ed5087c-8b16-4a95-b03a-c910d047b3af","system_id":"levelo_inurba_marseille","lat":43.29623,"lon":5.377253,"is_reserved":false,"is_disabled":false,"rental_uris":{"android":"levelo://app?vid=4ed5087c-8b16-4a95-b03a-c910d047b3af","ios":"levelo://app?vid=4ed5087c-8b16-4a95-b03a-c910d047b3af"},"vehicle_type_id":"4","last_reported":1716631672,"current_range_meters":17200,"station_id":"ce4bgi92rcd13ifvqb90","pricing_plan_id":"cebpf4jnsgd1na2vs0mg"},{"bike_id":"12164a8e-07f7-41f4-a391-d8231e1c99c7","system_id":"levelo_inurba_marseille","lat":43.309589,"lon":5.390258,"is_reserved":false,"is_disabled":false,"rental_uris":{"android":"levelo://app?vid=12164a8e-07f7-41f4-a391-d8231e1c99c7","ios":"levelo://app?vid=12164a8e-07f7-41f4-a391-d8231e1c99c7"},"vehicle_type_id":"4","last_reported":1716631672,"current_range_meters":14800,"station_id":"ce4bgup2rcd13ifvqco0","pricing_plan_id":"cebpf4jnsgd1na2vs0mg"},{"bike_id":"98d7f623-660b-445d-82ec-200c709c2f94","system_id":"levelo_inurba_marseille","lat":43.296263,"lon":5.377094,"is_reserved":false,"is_disabled":false,"rental_uris":{"android":"levelo://app?vid=98d7f623-660b-445d-82ec-200c709c2f94","ios":"levelo://app?vid=98d7f623-660b-445d-82ec-200c709c2f94"},"vehicle_type_id":"4","last_reported":1716631672,"current_range_meters":22000,"station_id":"ce4bgi92rcd13ifvqb90","pricing_plan_id":"cebpf4jnsgd1na2vs0mg"},{"bike_id":"22d31b6d-8212-4363-bb67-400a76aeac6d","system_id":"levelo_inurba_marseille","lat":43.295748,"lon":5.37522,"is_reserved":false,"is_disabled":false,"rental_uris":{"android":"levelo://app?vid=22d31b6d-8212-4363-bb67-400a76aeac6d","ios":"levelo://app?vid=22d31b6d-8212-4363-bb67-400a76aeac6d"},"vehicle_type_id":"4","last_reported":1716631672,"current_range_meters":4400,"station_id":"ce4bgh92rcd13ifvqb50","pricing_plan_id":"cebpf4jnsgd1na2vs0mg"},{"bike_id":"e660e000-9298-45ab-acc7-35fef662ad49","system_id":"levelo_inurba_marseille","lat":43.29614,"lon":5.37713,"is_reserved":false,"is_disabled":false,"rental_uris":{"android":"levelo://app?vid=e660e000-9298-45ab-acc7-35fef662ad49","ios":"levelo://app?vid=e660e000-9298-45ab-acc7-35fef662ad49"},"vehicle_type_id":"4","last_reported":1716631672,"current_range_meters":12800,"station_id":"ce4bgi92rcd13ifvqb90","pricing_plan_id":"cebpf4jnsgd1na2vs0mg"},{"bike_id":"115fe567-eb46-4fdd-9626-61e8a152be0b","system_id":"levelo_inurba_marseille","lat":43.29614,"lon":5.3772,"is_reserved":false,"is_disabled":false,"rental_uris":{"android":"levelo://app?vid=115fe567-eb46-4fdd-9626-61e8a152be0b","ios":"levelo://app?vid=115fe567-eb46-4fdd-9626-61e8a152be0b"},"vehicle_type_id":"4","last_reported":1716631672,"current_range_meters":20800,"station_id":"ce4bgi92rcd13ifvqb90","pricing_plan_id":"cebpf4jnsgd1na2vs0mg"},{"bike_id":"0c1da546-df7b-4fed-b8a2-5486107316c9","system_id":"levelo_inurba_marseille","lat":43.29534,"lon":5.37504,"is_reserved":false,"is_disabled":false,"rental_uris":{"android":"levelo://app?vid=0c1da546-df7b-4fed-b8a2-5486107316c9","ios":"levelo://app?vid=0c1da546-df7b-4fed-b8a2-5486107316c9"},"vehicle_type_id":"4","last_reported":1716631672,"current_range_meters":17200,"station_id":"ce4bgkp2rcd13ifvqbmg","pricing_plan_id":"cebpf4jnsgd1na2vs0mg"},{"bike_id":"ea5c8d42-c861-4802-a2ac-9f57d3bd183f","system_id":"levelo_inurba_marseille","lat":43.299707,"lon":5.384859,"is_reserved":false,"is_disabled":false,"rental_uris":{"android":"levelo://app?vid=ea5c8d42-c861-4802-a2ac-9f57d3bd183f","ios":"levelo://app?vid=ea5c8d42-c861-4802-a2ac-9f57d3bd183f"},"vehicle_type_id":"4","last_reported":1716631672,"current_range_meters":31200,"station_id":"ce4bgj92rcd13ifvqbd0","pricing_plan_id":"cebpf4jnsgd1na2vs0mg"},{"bike_id":"d014cf3e-048b-41f0-8f75-4b7171a47831","system_id":"levelo_inurba_marseille","lat":43.29977,"lon":5.38488,"is_reserved":false,"is_disabled":false,"rental_uris":{"android":"levelo://app?vid=d014cf3e-048b-41f0-8f75-4b7171a47831","ios":"levelo://app?vid=d014cf3e-048b-41f0-8f75-4b7171a47831"},"vehicle_type_id":"4","last_reported":1716631672,"current_range_meters":31200,"station_id":"ce4bgj92rcd13ifvqbd0","pricing_plan_id":"cebpf4jnsgd1na2vs0mg"},{"bike_id":"feb29e34-c0d5-41d6-8240-063855a3bf7a","system_id":"levelo_inurba_marseille","lat":43.29532,"lon":5.37519,"is_reserved":false,"is_disabled":false,"rental_uris":{"android":"levelo://app?vid=feb29e34-c0d5-41d6-8240-063855a3bf7a","ios":"levelo://app?vid=feb29e34-c0d5-41d6-8240-063855a3bf7a"},"vehicle_type_id":"4","last_reported":1716631672,"current_range_meters":28800,"station_id":"ce4bgkp2rcd13ifvqbmg","pricing_plan_id":"cebpf4jnsgd1na2vs0mg"},{"bike_id":"72dd1db4-2f92-4be5-b783-347b002626e5","system_id":"levelo_inurba_marseille","lat":43.295279,"lon":5.375048,"is_reserved":false,"is_disabled":false,"rental_uris":{"android":"levelo://app?vid=72dd1db4-2f92-4be5-b783-347b002626e5","ios":"levelo://app?vid=72dd1db4-2f92-4be5-b783-347b002626e5"},"vehicle_type_id":"4","last_reported":1716631672,"current_range_meters":17600,"station_id":"ce4bgkp2rcd13ifvqbmg","pricing_plan_id":"cebpf4jnsgd1na2vs0mg"},{"bike_id":"777b03dc-221f-4d6d-994c-a2f75215a5cb","system_id":"levelo_inurba_marseille","lat":43.29975,"lon":5.3849,"is_reserved":false,"is_disabled":false,"rental_uris":{"android":"levelo://app?vid=777b03dc-221f-4d6d-994c-a2f75215a5cb","ios":"levelo://app?vid=777b03dc-221f-4d6d-994c-a2f75215a5cb"},"vehicle_type_id":"4","last_reported":1716631672,"current_range_meters":19600,"station_id":"ce4bgj92rcd13ifvqbd0","pricing_plan_id":"cebpf4jnsgd1na2vs0mg"},{"bike_id":"b82e3520-9bb8-490a-b4f1-2dcc3aa951d8","system_id":"levelo_inurba_marseille","lat":43.299724,"lon":5.384848,"is_reserved":false,"is_disabled":false,"rental_uris":{"android":"levelo://app?vid=b82e3520-9bb8-490a-b4f1-2dcc3aa951d8","ios":"levelo://app?vid=b82e3520-9bb8-490a-b4f1-2dcc3aa951d8"},"vehicle_type_id":"4","last_reported":1716631672,"current_range_meters":27200,"station_id":"ce4bgj92rcd13ifvqbd0","pricing_plan_id":"cebpf4jnsgd1na2vs0mg"},{"bike_id":"5ca4282d-ca7e-4cca-95ce-010a93793ea5","system_id":"levelo_inurba_marseille","lat":43.299724,"lon":5.384848,"is_reserved":false,"is_disabled":false,"rental_uris":{"android":"levelo://app?vid=5ca4282d-ca7e-4cca-95ce-010a93793ea5","ios":"levelo://app?vid=5ca4282d-ca7e-4cca-95ce-010a93793ea5"},"vehicle_type_id":"4","last_reported":1716631672,"current_range_meters":25600,"station_id":"ce4bgj92rcd13ifvqbd0","pricing_plan_id":"cebpf4jnsgd1na2vs0mg"},{"bike_id":"78252e3e-8eff-4ccb-a142-6526e4cc39f4","system_id":"levelo_inurba_marseille","lat":43.30089,"lon":5.38729,"is_reserved":false,"is_disabled":false,"rental_uris":{"android":"levelo://app?vid=78252e3e-8eff-4ccb-a142-6526e4cc39f4","ios":"levelo://app?vid=78252e3e-8eff-4ccb-a142-6526e4cc39f4"},"vehicle_type_id":"4","last_reported":1716631672,"current_range_meters":1200,"station_id":"","pricing_plan_id":"cebpf4jnsgd1na2vs0mg"},{"bike_id":"c692fd75-9972-42e1-92a8-4ac7cce47a41","system_id":"levelo_inurba_marseille","lat":43.299243,"lon":5.37481,"is_reserved":false,"is_disabled":false,"rental_uris":{"android":"levelo://app?vid=c692fd75-9972-42e1-92a8-4ac7cce47a41","ios":"levelo://app?vid=c692fd75-9972-42e1-92a8-4ac7cce47a41"},"vehicle_type_id":"4","last_reported":1716631672,"current_range_meters":12400,"station_id":"ce4bgjh2rcd13ifvqbg0","pricing_plan_id":"cebpf4jnsgd1na2vs0mg"},{"bike_id":"b6a8772c-63c3-4ea7-b1c7-31487e89e320","system_id":"levelo_inurba_marseille","lat":43.32367,"lon":5.388836,"is_reserved":false,"is_disabled":false,"rental_uris":{"android":"levelo://app?vid=b6a8772c-63c3-4ea7-b1c7-31487e89e320","ios":"levelo://app?vid=b6a8772c-63c3-4ea7-b1c7-31487e89e320"},"vehicle_type_id":"4","last_reported":1716631672,"current_range_meters":8800,"station_id":"ce4bhqp2rcd13ifvqhog","pricing_plan_id":"cebpf4jnsgd1na2vs0mg"},{"bike_id":"e4d7c057-c575-44b8-9692-7a7d5e90ffbd","system_id":"levelo_inurba_marseille","lat":43.29602,"lon":5.381084,"is_reserved":false,"is_disabled":false,"rental_uris":{"android":"levelo://app?vid=e4d7c057-c575-44b8-9692-7a7d5e90ffbd","ios":"levelo://app?vid=e4d7c057-c575-44b8-9692-7a7d5e90ffbd"},"vehicle_type_id":"4","last_reported":1716631672,"current_range_meters":2400,"station_id":"ce4bgl12rcd13ifvqbo0","pricing_plan_id":"cebpf4jnsgd1na2vs0mg"},{"bike_id":"9b6ce9ce-d4af-4ae1-b659-aeb319fd70ac","system_id":"levelo_inurba_marseille","lat":43.29602,"lon":5.381084,"is_reserved":false,"is_disabled":false,"rental_uris":{"android":"levelo://app?vid=9b6ce9ce-d4af-4ae1-b659-aeb319fd70ac","ios":"levelo://app?vid=9b6ce9ce-d4af-4ae1-b659-aeb319fd70ac"},"vehicle_type_id":"4","last_reported":1716631672,"current_range_meters":31200,"station_id":"ce4bgl12rcd13ifvqbo0","pricing_plan_id":"cebpf4jnsgd1na2vs0mg"},{"bike_id":"75753355-e953-424b-879e-f62de72e9374","system_id":"levelo_inurba_marseille","lat":43.2928,"lon":5.36846,"is_reserved":false,"is_disabled":false,"rental_uris":{"android":"levelo://app?vid=75753355-e953-424b-879e-f62de72e9374","ios":"levelo://app?vid=75753355-e953-424b-879e-f62de72e9374"},"vehicle_type_id":"4","last_reported":1716631672,"current_range_meters":23600,"station_id":"ce4bhbp2rcd13ifvqesg","pricing_plan_id":"cebpf4jnsgd1na2vs0mg"},{"bike_id":"4c6bf196-ce5f-4c63-8123-a69e23102ae4","system_id":"levelo_inurba_marseille","lat":43.293259,"lon":5.371586,"is_reserved":false,"is_disabled":false,"rental_uris":{"android":"levelo://app?vid=4c6bf196-ce5f-4c63-8123-a69e23102ae4","ios":"levelo://app?vid=4c6bf196-ce5f-4c63-8123-a69e23102ae4"},"vehicle_type_id":"4","last_reported":1716631672,"current_range_meters":21200,"station_id":"ce4bgh92rcd13ifvqb40","pricing_plan_id":"cebpf4jnsgd1na2vs0mg"},{"bike_id":"4b3c4e4b-5d47-4fab-8b61-3b166ebb5e71","system_id":"levelo_inurba_marseille","lat":43.293259,"lon":5.371586,"is_reserved":false,"is_disabled":false,"rental_uris":{"android":"levelo://app?vid=4b3c4e4b-5d47-4fab-8b61-3b166ebb5e71","ios":"levelo://app?vid=4b3c4e4b-5d47-4fab-8b61-3b166ebb5e71"},"vehicle_type_id":"4","last_reported":1716631672,"current_range_meters":30000,"station_id":"ce4bgh92rcd13ifvqb40","pricing_plan_id":"cebpf4jnsgd1na2vs0mg"},{"bike_id":"5c3f1cd4-228e-4fbc-afd8-b475d9775af7","system_id":"levelo_inurba_marseille","lat":43.292749,"lon":5.368402,"is_reserved":false,"is_disabled":false,"rental_uris":{"android":"levelo://app?vid=5c3f1cd4-228e-4fbc-afd8-b475d9775af7","ios":"levelo://app?vid=5c3f1cd4-228e-4fbc-afd8-b475d9775af7"},"vehicle_type_id":"4","last_reported":1716631672,"current_range_meters":24000,"station_id":"ce4bhbp2rcd13ifvqesg","pricing_plan_id":"cebpf4jnsgd1na2vs0mg"},{"bike_id":"5d213b33-13c8-4e85-bca9-dc6d5b2c458e","system_id":"levelo_inurba_marseille","lat":43.29279,"lon":5.36848,"is_reserved":false,"is_disabled":false,"rental_uris":{"android":"levelo://app?vid=5d213b33-13c8-4e85-bca9-dc6d5b2c458e","ios":"levelo://app?vid=5d213b33-13c8-4e85-bca9-dc6d5b2c458e"},"vehicle_type_id":"4","last_reported":1716631672,"current_range_meters":18000,"station_id":"ce4bhbp2rcd13ifvqesg","pricing_plan_id":"cebpf4jnsgd1na2vs0mg"},{"bike_id":"6a883b00-470c-4dbb-9aa0-ff610b7b5ed2","system_id":"levelo_inurba_marseille","lat":43.292781,"lon":5.36843,"is_reserved":false,"is_disabled":false,"rental_uris":{"android":"levelo://app?vid=6a883b00-470c-4dbb-9aa0-ff610b7b5ed2","ios":"levelo://app?vid=6a883b00-470c-4dbb-9aa0-ff610b7b5ed2"},"vehicle_type_id":"4","last_reported":1716631672,"current_range_meters":5200,"station_id":"ce4bhbp2rcd13ifvqesg","pricing_plan_id":"cebpf4jnsgd1na2vs0mg"},{"bike_id":"3284f9e9-d992-4fce-b7f6-ce8b5229d6e3","system_id":"levelo_inurba_marseille","lat":43.29276,"lon":5.36839,"is_reserved":false,"is_disabled":false,"rental_uris":{"android":"levelo://app?vid=3284f9e9-d992-4fce-b7f6-ce8b5229d6e3","ios":"levelo://app?vid=3284f9e9-d992-4fce-b7f6-ce8b5229d6e3"},"vehicle_type_id":"4","last_reported":1716631672,"current_range_meters":4400,"station_id":"ce4bhbp2rcd13ifvqesg","pricing_plan_id":"cebpf4jnsgd1na2vs0mg"},{"bike_id":"f2e6f0a4-b3b6-4df9-a70e-ccde67184b29","system_id":"levelo_inurba_marseille","lat":43.292749,"lon":5.368402,"is_reserved":false,"is_disabled":false,"rental_uris":{"android":"levelo://app?vid=f2e6f0a4-b3b6-4df9-a70e-ccde67184b29","ios":"levelo://app?vid=f2e6f0a4-b3b6-4df9-a70e-ccde67184b29"},"vehicle_type_id":"4","last_reported":1716631672,"current_range_meters":21200,"station_id":"ce4bhbp2rcd13ifvqesg","pricing_plan_id":"cebpf4jnsgd1na2vs0mg"},{"bike_id":"48307d88-12f4-4c14-9072-b3387c5914b7","system_id":"levelo_inurba_marseille","lat":43.292749,"lon":5.368402,"is_reserved":false,"is_disabled":false,"rental_uris":{"android":"levelo://app?vid=48307d88-12f4-4c14-9072-b3387c5914b7","ios":"levelo://app?vid=48307d88-12f4-4c14-9072-b3387c5914b7"},"vehicle_type_id":"4","last_reported":1716631672,"current_range_meters":9600,"station_id":"ce4bhbp2rcd13ifvqesg","pricing_plan_id":"cebpf4jnsgd1na2vs0mg"},{"bike_id":"0b54224d-3116-4a77-98a4-c76123dac4f9","system_id":"levelo_inurba_marseille","lat":43.292749,"lon":5.368402,"is_reserved":false,"is_disabled":false,"rental_uris":{"android":"levelo://app?vid=0b54224d-3116-4a77-98a4-c76123dac4f9","ios":"levelo://app?vid=0b54224d-3116-4a77-98a4-c76123dac4f9"},"vehicle_type_id":"4","last_reported":1716631672,"current_range_meters":18000,"station_id":"ce4bhbp2rcd13ifvqesg","pricing_plan_id":"cebpf4jnsgd1na2vs0mg"},{"bike_id":"fd25b1fe-ff6d-420b-a8e9-1661ba137027","system_id":"levelo_inurba_marseille","lat":43.292749,"lon":5.368402,"is_reserved":false,"is_disabled":false,"rental_uris":{"android":"levelo://app?vid=fd25b1fe-ff6d-420b-a8e9-1661ba137027","ios":"levelo://app?vid=fd25b1fe-ff6d-420b-a8e9-1661ba137027"},"vehicle_type_id":"4","last_reported":1716631672,"current_range_meters":30400,"station_id":"ce4bhbp2rcd13ifvqesg","pricing_plan_id":"cebpf4jnsgd1na2vs0mg"},{"bike_id":"95226e9b-b17a-4008-90cd-7eb40de47c8b","system_id":"levelo_inurba_marseille","lat":43.292749,"lon":5.368402,"is_reserved":false,"is_disabled":false,"rental_uris":{"android":"levelo://app?vid=95226e9b-b17a-4008-90cd-7eb40de47c8b","ios":"levelo://app?vid=95226e9b-b17a-4008-90cd-7eb40de47c8b"},"vehicle_type_id":"4","last_reported":1716631672,"current_range_meters":10800,"station_id":"ce4bhbp2rcd13ifvqesg","pricing_plan_id":"cebpf4jnsgd1na2vs0mg"},{"bike_id":"f61926a5-a621-4e17-9940-2e095afe92c7","system_id":"levelo_inurba_marseille","lat":43.292749,"lon":5.368402,"is_reserved":false,"is_disabled":false,"rental_uris":{"android":"levelo://app?vid=f61926a5-a621-4e17-9940-2e095afe92c7","ios":"levelo://app?vid=f61926a5-a621-4e17-9940-2e095afe92c7"},"vehicle_type_id":"4","last_reported":1716631672,"current_range_meters":13600,"station_id":"ce4bhbp2rcd13ifvqesg","pricing_plan_id":"cebpf4jnsgd1na2vs0mg"},{"bike_id":"825e9d5e-1e56-4abb-9ef1-9d422f5c3ebe","system_id":"levelo_inurba_marseille","lat":43.292749,"lon":5.368402,"is_reserved":false,"is_disabled":false,"rental_uris":{"android":"levelo://app?vid=825e9d5e-1e56-4abb-9ef1-9d422f5c3ebe","ios":"levelo://app?vid=825e9d5e-1e56-4abb-9ef1-9d422f5c3ebe"},"vehicle_type_id":"4","last_reported":1716631672,"current_range_meters":18800,"station_id":"ce4bhbp2rcd13ifvqesg","pricing_plan_id":"cebpf4jnsgd1na2vs0mg"},{"bike_id":"c2b76437-0d9e-4136-bb53-4e05458b483b","system_id":"levelo_inurba_marseille","lat":43.292749,"lon":5.368402,"is_reserved":false,"is_disabled":false,"rental_uris":{"android":"levelo://app?vid=c2b76437-0d9e-4136-bb53-4e05458b483b","ios":"levelo://app?vid=c2b76437-0d9e-4136-bb53-4e05458b483b"},"vehicle_type_id":"4","last_reported":1716631672,"current_range_meters":23200,"station_id":"ce4bhbp2rcd13ifvqesg","pricing_plan_id":"cebpf4jnsgd1na2vs0mg"},{"bike_id":"b685c2d9-3d4d-437e-8dc4-194e2e383b09","system_id":"levelo_inurba_marseille","lat":43.293009,"lon":5.374584,"is_reserved":false,"is_disabled":false,"rental_uris":{"android":"levelo://app?vid=b685c2d9-3d4d-437e-8dc4-194e2e383b09","ios":"levelo://app?vid=b685c2d9-3d4d-437e-8dc4-194e2e383b09"},"vehicle_type_id":"4","last_reported":1716631672,"current_range_meters":27200,"station_id":"ce4bgi12rcd13ifvqb70","pricing_plan_id":"cebpf4jnsgd1na2vs0mg"},{"bike_id":"8b0d17e5-7b4b-4cf2-b47a-2ad5ca9c6bf8","system_id":"levelo_inurba_marseille","lat":43.293009,"lon":5.374584,"is_reserved":false,"is_disabled":false,"rental_uris":{"android":"levelo://app?vid=8b0d17e5-7b4b-4cf2-b47a-2ad5ca9c6bf8","ios":"levelo://app?vid=8b0d17e5-7b4b-4cf2-b47a-2ad5ca9c6bf8"},"vehicle_type_id":"4","last_reported":1716631672,"current_range_meters":16000,"station_id":"ce4bgi12rcd13ifvqb70","pricing_plan_id":"cebpf4jnsgd1na2vs0mg"},{"bike_id":"09859151-3483-42df-8a2c-cd2bf7ff73d9","system_id":"levelo_inurba_marseille","lat":43.292999,"lon":5.374456,"is_reserved":false,"is_disabled":false,"rental_uris":{"android":"levelo://app?vid=09859151-3483-42df-8a2c-cd2bf7ff73d9","ios":"levelo://app?vid=09859151-3483-42df-8a2c-cd2bf7ff73d9"},"vehicle_type_id":"4","last_reported":1716631672,"current_range_meters":30000,"station_id":"ce4bgi12rcd13ifvqb70","pricing_plan_id":"cebpf4jnsgd1na2vs0mg"},{"bike_id":"e63bd8c7-16d4-4c2b-96f4-87e68aaffb74","system_id":"levelo_inurba_marseille","lat":43.305994,"lon":5.393687,"is_reserved":false,"is_disabled":false,"rental_uris":{"android":"levelo://app?vid=e63bd8c7-16d4-4c2b-96f4-87e68aaffb74","ios":"levelo://app?vid=e63bd8c7-16d4-4c2b-96f4-87e68aaffb74"},"vehicle_type_id":"4","last_reported":1716631672,"current_range_meters":27600,"station_id":"ce4bh0p2rcd13ifvqd80","pricing_plan_id":"cebpf4jnsgd1na2vs0mg"},{"bike_id":"ba282d1a-6ab9-45ba-9804-1327c052bdf3","system_id":"levelo_inurba_marseille","lat":43.305994,"lon":5.393687,"is_reserved":false,"is_disabled":false,"rental_uris":{"android":"levelo://app?vid=ba282d1a-6ab9-45ba-9804-1327c052bdf3","ios":"levelo://app?vid=ba282d1a-6ab9-45ba-9804-1327c052bdf3"},"vehicle_type_id":"4","last_reported":1716631672,"current_range_meters":2000,"station_id":"ce4bh0p2rcd13ifvqd80","pricing_plan_id":"cebpf4jnsgd1na2vs0mg"},{"bike_id":"fa58a129-f19e-4e59-9178-8a206fae97fb","system_id":"levelo_inurba_marseille","lat":43.305994,"lon":5.393687,"is_reserved":false,"is_disabled":false,"rental_uris":{"android":"levelo://app?vid=fa58a129-f19e-4e59-9178-8a206fae97fb","ios":"levelo://app?vid=fa58a129-f19e-4e59-9178-8a206fae97fb"},"vehicle_type_id":"4","last_reported":1716631672,"current_range_meters":30000,"station_id":"ce4bh0p2rcd13ifvqd80","pricing_plan_id":"cebpf4jnsgd1na2vs0mg"},{"bike_id":"50060611-5435-4131-a2cc-8f308c0c8a32","system_id":"levelo_inurba_marseille","lat":43.305994,"lon":5.393687,"is_reserved":false,"is_disabled":false,"rental_uris":{"android":"levelo://app?vid=50060611-5435-4131-a2cc-8f308c0c8a32","ios":"levelo://app?vid=50060611-5435-4131-a2cc-8f308c0c8a32"},"vehicle_type_id":"4","last_reported":1716631672,"current_range_meters":0,"station_id":"ce4bh0p2rcd13ifvqd80","pricing_plan_id":"cebpf4jnsgd1na2vs0mg"},{"bike_id":"931c8a7b-d778-4e36-8a3f-c9fa9330d966","system_id":"levelo_inurba_marseille","lat":43.305988,"lon":5.393668,"is_reserved":false,"is_disabled":false,"rental_uris":{"android":"levelo://app?vid=931c8a7b-d778-4e36-8a3f-c9fa9330d966","ios":"levelo://app?vid=931c8a7b-d778-4e36-8a3f-c9fa9330d966"},"vehicle_type_id":"4","last_reported":1716631672,"current_range_meters":23600,"station_id":"ce4bh0p2rcd13ifvqd80","pricing_plan_id":"cebpf4jnsgd1na2vs0mg"},{"bike_id":"e31b298e-4f8c-4bb5-af6e-acbc0946fcf4","system_id":"levelo_inurba_marseille","lat":43.305994,"lon":5.393687,"is_reserved":false,"is_disabled":false,"rental_uris":{"android":"levelo://app?vid=e31b298e-4f8c-4bb5-af6e-acbc0946fcf4","ios":"levelo://app?vid=e31b298e-4f8c-4bb5-af6e-acbc0946fcf4"},"vehicle_type_id":"4","last_reported":1716631672,"current_range_meters":16000,"station_id":"ce4bh0p2rcd13ifvqd80","pricing_plan_id":"cebpf4jnsgd1na2vs0mg"},{"bike_id":"2e52e775-4edd-40b7-9144-c46c43310301","system_id":"levelo_inurba_marseille","lat":43.2936,"lon":5.37835,"is_reserved":false,"is_disabled":false,"rental_uris":{"android":"levelo://app?vid=2e52e775-4edd-40b7-9144-c46c43310301","ios":"levelo://app?vid=2e52e775-4edd-40b7-9144-c46c43310301"},"vehicle_type_id":"4","last_reported":1716631672,"current_range_meters":28000,"station_id":"ce4bgjh2rcd13ifvqbf0","pricing_plan_id":"cebpf4jnsgd1na2vs0mg"},{"bike_id":"6146a746-daad-4592-afc5-23b2fd97cd59","system_id":"levelo_inurba_marseille","lat":43.2936,"lon":5.37835,"is_reserved":false,"is_disabled":false,"rental_uris":{"android":"levelo://app?vid=6146a746-daad-4592-afc5-23b2fd97cd59","ios":"levelo://app?vid=6146a746-daad-4592-afc5-23b2fd97cd59"},"vehicle_type_id":"4","last_reported":1716631672,"current_range_meters":12800,"station_id":"ce4bgjh2rcd13ifvqbf0","pricing_plan_id":"cebpf4jnsgd1na2vs0mg"},{"bike_id":"5e3d7232-b9e2-4f4c-90b9-027f40f16310","system_id":"levelo_inurba_marseille","lat":43.298764,"lon":5.388973,"is_reserved":false,"is_disabled":false,"rental_uris":{"android":"levelo://app?vid=5e3d7232-b9e2-4f4c-90b9-027f40f16310","ios":"levelo://app?vid=5e3d7232-b9e2-4f4c-90b9-027f40f16310"},"vehicle_type_id":"4","last_reported":1716631672,"current_range_meters":6400,"station_id":"ce4bh392rcd13ifvqdl0","pricing_plan_id":"cebpf4jnsgd1na2vs0mg"},{"bike_id":"26a2c024-4055-4da6-92d1-45d251886cc8","system_id":"levelo_inurba_marseille","lat":43.2936,"lon":5.37835,"is_reserved":false,"is_disabled":false,"rental_uris":{"android":"levelo://app?vid=26a2c024-4055-4da6-92d1-45d251886cc8","ios":"levelo://app?vid=26a2c024-4055-4da6-92d1-45d251886cc8"},"vehicle_type_id":"4","last_reported":1716631672,"current_range_meters":31200,"station_id":"ce4bgjh2rcd13ifvqbf0","pricing_plan_id":"cebpf4jnsgd1na2vs0mg"},{"bike_id":"68b65a88-91b3-43e9-8c3d-d269dab484a1","system_id":"levelo_inurba_marseille","lat":43.303002,"lon":5.392142,"is_reserved":false,"is_disabled":false,"rental_uris":{"android":"levelo://app?vid=68b65a88-91b3-43e9-8c3d-d269dab484a1","ios":"levelo://app?vid=68b65a88-91b3-43e9-8c3d-d269dab484a1"},"vehicle_type_id":"4","last_reported":1716631672,"current_range_meters":14400,"station_id":"ce4bgkh2rcd13ifvqbk0","pricing_plan_id":"cebpf4jnsgd1na2vs0mg"},{"bike_id":"64be4d47-82fa-419c-8f1f-858efe6f645a","system_id":"levelo_inurba_marseille","lat":43.2936,"lon":5.37835,"is_reserved":false,"is_disabled":false,"rental_uris":{"android":"levelo://app?vid=64be4d47-82fa-419c-8f1f-858efe6f645a","ios":"levelo://app?vid=64be4d47-82fa-419c-8f1f-858efe6f645a"},"vehicle_type_id":"4","last_reported":1716631672,"current_range_meters":31200,"station_id":"ce4bgjh2rcd13ifvqbf0","pricing_plan_id":"cebpf4jnsgd1na2vs0mg"},{"bike_id":"f54f2ba0-9290-4495-bcf8-467b9d50b466","system_id":"levelo_inurba_marseille","lat":43.292311,"lon":5.360731,"is_reserved":false,"is_disabled":false,"rental_uris":{"android":"levelo://app?vid=f54f2ba0-9290-4495-bcf8-467b9d50b466","ios":"levelo://app?vid=f54f2ba0-9290-4495-bcf8-467b9d50b466"},"vehicle_type_id":"4","last_reported":1716631672,"current_range_meters":17200,"station_id":"ce4bhbh2rcd13ifvqeqg","pricing_plan_id":"cebpf4jnsgd1na2vs0mg"},{"bike_id":"db8c1a88-a8fb-48ce-a659-4c4fbbc41298","system_id":"levelo_inurba_marseille","lat":43.292311,"lon":5.360731,"is_reserved":false,"is_disabled":false,"rental_uris":{"android":"levelo://app?vid=db8c1a88-a8fb-48ce-a659-4c4fbbc41298","ios":"levelo://app?vid=db8c1a88-a8fb-48ce-a659-4c4fbbc41298"},"vehicle_type_id":"4","last_reported":1716631672,"current_range_meters":31200,"station_id":"ce4bhbh2rcd13ifvqeqg","pricing_plan_id":"cebpf4jnsgd1na2vs0mg"},{"bike_id":"99545c9a-a2d4-49f5-a8d3-fe264ad4cef5","system_id":"levelo_inurba_marseille","lat":43.29227,"lon":5.36064,"is_reserved":false,"is_disabled":false,"rental_uris":{"android":"levelo://app?vid=99545c9a-a2d4-49f5-a8d3-fe264ad4cef5","ios":"levelo://app?vid=99545c9a-a2d4-49f5-a8d3-fe264ad4cef5"},"vehicle_type_id":"4","last_reported":1716631672,"current_range_meters":20800,"station_id":"ce4bhbh2rcd13ifvqeqg","pricing_plan_id":"cebpf4jnsgd1na2vs0mg"},{"bike_id":"82fd8c43-2d7d-4f01-8b5b-b4cb78ff889c","system_id":"levelo_inurba_marseille","lat":43.29228,"lon":5.36057,"is_reserved":false,"is_disabled":false,"rental_uris":{"android":"levelo://app?vid=82fd8c43-2d7d-4f01-8b5b-b4cb78ff889c","ios":"levelo://app?vid=82fd8c43-2d7d-4f01-8b5b-b4cb78ff889c"},"vehicle_type_id":"4","last_reported":1716631672,"current_range_meters":26400,"station_id":"ce4bhbh2rcd13ifvqeqg","pricing_plan_id":"cebpf4jnsgd1na2vs0mg"},{"bike_id":"90b98d77-bbf1-4789-8301-2fed0aa7162c","system_id":"levelo_inurba_marseille","lat":43.292264,"lon":5.360591,"is_reserved":false,"is_disabled":false,"rental_uris":{"android":"levelo://app?vid=90b98d77-bbf1-4789-8301-2fed0aa7162c","ios":"levelo://app?vid=90b98d77-bbf1-4789-8301-2fed0aa7162c"},"vehicle_type_id":"4","last_reported":1716631672,"current_range_meters":15200,"station_id":"ce4bhbh2rcd13ifvqeqg","pricing_plan_id":"cebpf4jnsgd1na2vs0mg"},{"bike_id":"15b590ac-6b14-46d7-b3d3-9bfb95746a6c","system_id":"levelo_inurba_marseille","lat":43.29226,"lon":5.360553,"is_reserved":false,"is_disabled":false,"rental_uris":{"android":"levelo://app?vid=15b590ac-6b14-46d7-b3d3-9bfb95746a6c","ios":"levelo://app?vid=15b590ac-6b14-46d7-b3d3-9bfb95746a6c"},"vehicle_type_id":"4","last_reported":1716631672,"current_range_meters":13600,"station_id":"ce4bhbh2rcd13ifvqeqg","pricing_plan_id":"cebpf4jnsgd1na2vs0mg"},{"bike_id":"624a09eb-321c-4077-93be-3699264080bc","system_id":"levelo_inurba_marseille","lat":43.29224,"lon":5.36054,"is_reserved":false,"is_disabled":false,"rental_uris":{"android":"levelo://app?vid=624a09eb-321c-4077-93be-3699264080bc","ios":"levelo://app?vid=624a09eb-321c-4077-93be-3699264080bc"},"vehicle_type_id":"4","last_reported":1716631672,"current_range_meters":12000,"station_id":"ce4bhbh2rcd13ifvqeqg","pricing_plan_id":"cebpf4jnsgd1na2vs0mg"},{"bike_id":"675235b0-57c9-46cc-9b68-9afc53dc3bbf","system_id":"levelo_inurba_marseille","lat":43.298764,"lon":5.388973,"is_reserved":false,"is_disabled":false,"rental_uris":{"android":"levelo://app?vid=675235b0-57c9-46cc-9b68-9afc53dc3bbf","ios":"levelo://app?vid=675235b0-57c9-46cc-9b68-9afc53dc3bbf"},"vehicle_type_id":"4","last_reported":1716631672,"current_range_meters":21200,"station_id":"ce4bh392rcd13ifvqdl0","pricing_plan_id":"cebpf4jnsgd1na2vs0mg"},{"bike_id":"23f79f2d-e349-413b-ae78-c3b7f633e079","system_id":"levelo_inurba_marseille","lat":43.3008,"lon":5.39097,"is_reserved":false,"is_disabled":false,"rental_uris":{"android":"levelo://app?vid=23f79f2d-e349-413b-ae78-c3b7f633e079","ios":"levelo://app?vid=23f79f2d-e349-413b-ae78-c3b7f633e079"},"vehicle_type_id":"4","last_reported":1716631672,"current_range_meters":15200,"station_id":"ce4bh192rcd13ifvqdb0","pricing_plan_id":"cebpf4jnsgd1na2vs0mg"},{"bike_id":"244291ec-2ff8-4687-95bc-7d66623c6b40","system_id":"levelo_inurba_marseille","lat":43.291675,"lon":5.371583,"is_reserved":false,"is_disabled":false,"rental_uris":{"android":"levelo://app?vid=244291ec-2ff8-4687-95bc-7d66623c6b40","ios":"levelo://app?vid=244291ec-2ff8-4687-95bc-7d66623c6b40"},"vehicle_type_id":"4","last_reported":1716631672,"current_range_meters":18000,"station_id":"ce4bha92rcd13ifvqeh0","pricing_plan_id":"cebpf4jnsgd1na2vs0mg"},{"bike_id":"a7522fc3-2fbf-4f29-9ca1-21642acf71bb","system_id":"levelo_inurba_marseille","lat":43.291671,"lon":5.371575,"is_reserved":false,"is_disabled":false,"rental_uris":{"android":"levelo://app?vid=a7522fc3-2fbf-4f29-9ca1-21642acf71bb","ios":"levelo://app?vid=a7522fc3-2fbf-4f29-9ca1-21642acf71bb"},"vehicle_type_id":"4","last_reported":1716631672,"current_range_meters":0,"station_id":"ce4bha92rcd13ifvqeh0","pricing_plan_id":"cebpf4jnsgd1na2vs0mg"},{"bike_id":"464cf95a-3914-4dd7-a86a-7e968ebc5ac6","system_id":"levelo_inurba_marseille","lat":43.298764,"lon":5.388973,"is_reserved":false,"is_disabled":false,"rental_uris":{"android":"levelo://app?vid=464cf95a-3914-4dd7-a86a-7e968ebc5ac6","ios":"levelo://app?vid=464cf95a-3914-4dd7-a86a-7e968ebc5ac6"},"vehicle_type_id":"4","last_reported":1716631672,"current_range_meters":6400,"station_id":"ce4bh392rcd13ifvqdl0","pricing_plan_id":"cebpf4jnsgd1na2vs0mg"},{"bike_id":"df038600-292e-4c84-bd52-2e5dc4552e24","system_id":"levelo_inurba_marseille","lat":43.292005,"lon":5.357875,"is_reserved":false,"is_disabled":false,"rental_uris":{"android":"levelo://app?vid=df038600-292e-4c84-bd52-2e5dc4552e24","ios":"levelo://app?vid=df038600-292e-4c84-bd52-2e5dc4552e24"},"vehicle_type_id":"4","last_reported":1716631672,"current_range_meters":4800,"station_id":"ce4bhb12rcd13ifvqel0","pricing_plan_id":"cebpf4jnsgd1na2vs0mg"},{"bike_id":"71abe940-ed49-4b7d-ab68-3fe29ca6deed","system_id":"levelo_inurba_marseille","lat":43.29203,"lon":5.35805,"is_reserved":false,"is_disabled":false,"rental_uris":{"android":"levelo://app?vid=71abe940-ed49-4b7d-ab68-3fe29ca6deed","ios":"levelo://app?vid=71abe940-ed49-4b7d-ab68-3fe29ca6deed"},"vehicle_type_id":"4","last_reported":1716631672,"current_range_meters":12400,"station_id":"ce4bhb12rcd13ifvqel0","pricing_plan_id":"cebpf4jnsgd1na2vs0mg"},{"bike_id":"e357b7d1-79be-4dd6-837c-37db48bfcc05","system_id":"levelo_inurba_marseille","lat":43.308815,"lon":5.39626,"is_reserved":false,"is_disabled":false,"rental_uris":{"android":"levelo://app?vid=e357b7d1-79be-4dd6-837c-37db48bfcc05","ios":"levelo://app?vid=e357b7d1-79be-4dd6-837c-37db48bfcc05"},"vehicle_type_id":"4","last_reported":1716631672,"current_range_meters":30800,"station_id":"ce4bh012rcd13ifvqcv0","pricing_plan_id":"cebpf4jnsgd1na2vs0mg"},{"bike_id":"64aba321-e6eb-492c-a0aa-a5aefe1323de","system_id":"levelo_inurba_marseille","lat":43.292005,"lon":5.357875,"is_reserved":false,"is_disabled":false,"rental_uris":{"android":"levelo://app?vid=64aba321-e6eb-492c-a0aa-a5aefe1323de","ios":"levelo://app?vid=64aba321-e6eb-492c-a0aa-a5aefe1323de"},"vehicle_type_id":"4","last_reported":1716631672,"current_range_meters":21200,"station_id":"ce4bhb12rcd13ifvqel0","pricing_plan_id":"cebpf4jnsgd1na2vs0mg"},{"bike_id":"f0f19433-8de6-43d7-adfd-f73ce6c0543f","system_id":"levelo_inurba_marseille","lat":43.308815,"lon":5.396289,"is_reserved":false,"is_disabled":false,"rental_uris":{"android":"levelo://app?vid=f0f19433-8de6-43d7-adfd-f73ce6c0543f","ios":"levelo://app?vid=f0f19433-8de6-43d7-adfd-f73ce6c0543f"},"vehicle_type_id":"4","last_reported":1716631672,"current_range_meters":30400,"station_id":"ce4bh012rcd13ifvqcv0","pricing_plan_id":"cebpf4jnsgd1na2vs0mg"},{"bike_id":"fa9e8f2c-a1cd-4445-b1a6-23fe3d7c1ead","system_id":"levelo_inurba_marseille","lat":43.292005,"lon":5.357875,"is_reserved":false,"is_disabled":false,"rental_uris":{"android":"levelo://app?vid=fa9e8f2c-a1cd-4445-b1a6-23fe3d7c1ead","ios":"levelo://app?vid=fa9e8f2c-a1cd-4445-b1a6-23fe3d7c1ead"},"vehicle_type_id":"4","last_reported":1716631672,"current_range_meters":6800,"station_id":"ce4bhb12rcd13ifvqel0","pricing_plan_id":"cebpf4jnsgd1na2vs0mg"},{"bike_id":"beac4c49-dd26-43f3-b5ac-28b4b70ddc27","system_id":"levelo_inurba_marseille","lat":43.292005,"lon":5.357875,"is_reserved":false,"is_disabled":false,"rental_uris":{"android":"levelo://app?vid=beac4c49-dd26-43f3-b5ac-28b4b70ddc27","ios":"levelo://app?vid=beac4c49-dd26-43f3-b5ac-28b4b70ddc27"},"vehicle_type_id":"4","last_reported":1716631672,"current_range_meters":13200,"station_id":"ce4bhb12rcd13ifvqel0","pricing_plan_id":"cebpf4jnsgd1na2vs0mg"},{"bike_id":"e380ff77-9c85-4373-9a80-04bf9d875bc5","system_id":"levelo_inurba_marseille","lat":43.29192,"lon":5.35801,"is_reserved":false,"is_disabled":false,"rental_uris":{"android":"levelo://app?vid=e380ff77-9c85-4373-9a80-04bf9d875bc5","ios":"levelo://app?vid=e380ff77-9c85-4373-9a80-04bf9d875bc5"},"vehicle_type_id":"4","last_reported":1716631672,"current_range_meters":22000,"station_id":"ce4bhb12rcd13ifvqel0","pricing_plan_id":"cebpf4jnsgd1na2vs0mg"},{"bike_id":"9d4d8b0d-6d09-4840-bb23-c8e5191a3ebf","system_id":"levelo_inurba_marseille","lat":43.291994,"lon":5.357886,"is_reserved":false,"is_disabled":false,"rental_uris":{"android":"levelo://app?vid=9d4d8b0d-6d09-4840-bb23-c8e5191a3ebf","ios":"levelo://app?vid=9d4d8b0d-6d09-4840-bb23-c8e5191a3ebf"},"vehicle_type_id":"4","last_reported":1716631672,"current_range_meters":26800,"station_id":"ce4bhb12rcd13ifvqel0","pricing_plan_id":"cebpf4jnsgd1na2vs0mg"},{"bike_id":"02666f5b-6d76-4fd8-a17a-b34c64a6de3e","system_id":"levelo_inurba_marseille","lat":43.291994,"lon":5.357886,"is_reserved":false,"is_disabled":false,"rental_uris":{"android":"levelo://app?vid=02666f5b-6d76-4fd8-a17a-b34c64a6de3e","ios":"levelo://app?vid=02666f5b-6d76-4fd8-a17a-b34c64a6de3e"},"vehicle_type_id":"4","last_reported":1716631672,"current_range_meters":16400,"station_id":"ce4bhb12rcd13ifvqel0","pricing_plan_id":"cebpf4jnsgd1na2vs0mg"},{"bike_id":"fe3b9eac-46b8-440b-84d5-bc6d3708d814","system_id":"levelo_inurba_marseille","lat":43.292005,"lon":5.357875,"is_reserved":false,"is_disabled":false,"rental_uris":{"android":"levelo://app?vid=fe3b9eac-46b8-440b-84d5-bc6d3708d814","ios":"levelo://app?vid=fe3b9eac-46b8-440b-84d5-bc6d3708d814"},"vehicle_type_id":"4","last_reported":1716631672,"current_range_meters":31200,"station_id":"ce4bhb12rcd13ifvqel0","pricing_plan_id":"cebpf4jnsgd1na2vs0mg"},{"bike_id":"6dec8aac-5e52-43d4-998d-c07f11aa0c53","system_id":"levelo_inurba_marseille","lat":43.313291,"lon":5.396838,"is_reserved":false,"is_disabled":false,"rental_uris":{"android":"levelo://app?vid=6dec8aac-5e52-43d4-998d-c07f11aa0c53","ios":"levelo://app?vid=6dec8aac-5e52-43d4-998d-c07f11aa0c53"},"vehicle_type_id":"4","last_reported":1716631672,"current_range_meters":14800,"station_id":"ce4bgvp2rcd13ifvqcu0","pricing_plan_id":"cebpf4jnsgd1na2vs0mg"},{"bike_id":"7357a1a5-ff37-40df-8fc8-b789e5bc18ff","system_id":"levelo_inurba_marseille","lat":43.313291,"lon":5.396838,"is_reserved":false,"is_disabled":false,"rental_uris":{"android":"levelo://app?vid=7357a1a5-ff37-40df-8fc8-b789e5bc18ff","ios":"levelo://app?vid=7357a1a5-ff37-40df-8fc8-b789e5bc18ff"},"vehicle_type_id":"4","last_reported":1716631672,"current_range_meters":28000,"station_id":"ce4bgvp2rcd13ifvqcu0","pricing_plan_id":"cebpf4jnsgd1na2vs0mg"},{"bike_id":"c7efd5ac-51d5-4064-90e9-d8e4a2d7d43c","system_id":"levelo_inurba_marseille","lat":43.309038,"lon":5.396546,"is_reserved":false,"is_disabled":false,"rental_uris":{"android":"levelo://app?vid=c7efd5ac-51d5-4064-90e9-d8e4a2d7d43c","ios":"levelo://app?vid=c7efd5ac-51d5-4064-90e9-d8e4a2d7d43c"},"vehicle_type_id":"4","last_reported":1716631672,"current_range_meters":30400,"station_id":"ce4bh012rcd13ifvqcv0","pricing_plan_id":"cebpf4jnsgd1na2vs0mg"},{"bike_id":"90d6811d-9f3e-4d7b-8e2f-8e920b4b1f7b","system_id":"levelo_inurba_marseille","lat":43.313291,"lon":5.396838,"is_reserved":false,"is_disabled":false,"rental_uris":{"android":"levelo://app?vid=90d6811d-9f3e-4d7b-8e2f-8e920b4b1f7b","ios":"levelo://app?vid=90d6811d-9f3e-4d7b-8e2f-8e920b4b1f7b"},"vehicle_type_id":"4","last_reported":1716631672,"current_range_meters":24400,"station_id":"ce4bgvp2rcd13ifvqcu0","pricing_plan_id":"cebpf4jnsgd1na2vs0mg"},{"bike_id":"ab1d758b-e2b7-4a8f-b137-79b8420a6b34","system_id":"levelo_inurba_marseille","lat":43.302008,"lon":5.394694,"is_reserved":false,"is_disabled":false,"rental_uris":{"android":"levelo://app?vid=ab1d758b-e2b7-4a8f-b137-79b8420a6b34","ios":"levelo://app?vid=ab1d758b-e2b7-4a8f-b137-79b8420a6b34"},"vehicle_type_id":"4","last_reported":1716631672,"current_range_meters":13200,"station_id":"ce4bh0p2rcd13ifvqd70","pricing_plan_id":"cebpf4jnsgd1na2vs0mg"},{"bike_id":"90a96256-e308-42b9-a998-3fe577e3d872","system_id":"levelo_inurba_marseille","lat":43.29529,"lon":5.385581,"is_reserved":false,"is_disabled":false,"rental_uris":{"android":"levelo://app?vid=90a96256-e308-42b9-a998-3fe577e3d872","ios":"levelo://app?vid=90a96256-e308-42b9-a998-3fe577e3d872"},"vehicle_type_id":"4","last_reported":1716631672,"current_range_meters":12000,"station_id":"ce4bgih2rcd13ifvqba0","pricing_plan_id":"cebpf4jnsgd1na2vs0mg"},{"bike_id":"fe724768-4a9d-47d7-a5bc-1594906939ce","system_id":"levelo_inurba_marseille","lat":43.29529,"lon":5.385581,"is_reserved":false,"is_disabled":false,"rental_uris":{"android":"levelo://app?vid=fe724768-4a9d-47d7-a5bc-1594906939ce","ios":"levelo://app?vid=fe724768-4a9d-47d7-a5bc-1594906939ce"},"vehicle_type_id":"4","last_reported":1716631672,"current_range_meters":5600,"station_id":"ce4bgih2rcd13ifvqba0","pricing_plan_id":"cebpf4jnsgd1na2vs0mg"},{"bike_id":"417f0d50-8bf1-4bc8-a7d4-09d95c7e5e97","system_id":"levelo_inurba_marseille","lat":43.290631,"lon":5.359244,"is_reserved":false,"is_disabled":false,"rental_uris":{"android":"levelo://app?vid=417f0d50-8bf1-4bc8-a7d4-09d95c7e5e97","ios":"levelo://app?vid=417f0d50-8bf1-4bc8-a7d4-09d95c7e5e97"},"vehicle_type_id":"4","last_reported":1716631672,"current_range_meters":8400,"station_id":"ce4bha92rcd13ifvqeg0","pricing_plan_id":"cebpf4jnsgd1na2vs0mg"},{"bike_id":"901f6add-56f0-4503-89b4-44b354e6198e","system_id":"levelo_inurba_marseille","lat":43.290319,"lon":5.375732,"is_reserved":false,"is_disabled":false,"rental_uris":{"android":"levelo://app?vid=901f6add-56f0-4503-89b4-44b354e6198e","ios":"levelo://app?vid=901f6add-56f0-4503-89b4-44b354e6198e"},"vehicle_type_id":"4","last_reported":1716631672,"current_range_meters":27200,"station_id":"ce4bh692rcd13ifvqe90","pricing_plan_id":"cebpf4jnsgd1na2vs0mg"},{"bike_id":"375740ed-41be-4bbc-9ef6-9596e02dc1b9","system_id":"levelo_inurba_marseille","lat":43.290319,"lon":5.375732,"is_reserved":false,"is_disabled":false,"rental_uris":{"android":"levelo://app?vid=375740ed-41be-4bbc-9ef6-9596e02dc1b9","ios":"levelo://app?vid=375740ed-41be-4bbc-9ef6-9596e02dc1b9"},"vehicle_type_id":"4","last_reported":1716631672,"current_range_meters":5200,"station_id":"ce4bh692rcd13ifvqe90","pricing_plan_id":"cebpf4jnsgd1na2vs0mg"},{"bike_id":"cb74bc2d-d501-486d-af98-35e0f5e9d20b","system_id":"levelo_inurba_marseille","lat":43.289468,"lon":5.363719,"is_reserved":false,"is_disabled":false,"rental_uris":{"android":"levelo://app?vid=cb74bc2d-d501-486d-af98-35e0f5e9d20b","ios":"levelo://app?vid=cb74bc2d-d501-486d-af98-35e0f5e9d20b"},"vehicle_type_id":"4","last_reported":1716631672,"current_range_meters":27600,"station_id":"ce4bhc92rcd13ifvqetg","pricing_plan_id":"cebpf4jnsgd1na2vs0mg"},