{"last_updated":1712945239,"ttl":30,"version":"2.2","data":{"bikes":[{"bike_id":"64c50fa7-fb40-477e-b1ca-25665dcb3942","system_id":"levelo_inurba_marseille","lat":43.31228,"lon":5.368545,"is_reserved":false,"is_disabled":false,"rental_uris":{"android":"levelo://app?vid=64c50fa7-fb40-477e-b1ca-25665dcb3942","ios":"levelo://app?vid=64c50fa7-fb40-477e-b1ca-25665dcb3942"},"vehicle_type_id":"4","last_reported":1712945239,"current_range_meters":0,"station_id":"ce4bgl92rcd13ifvqbq0","pricing_plan_id":"cebpf4jnsgd1na2vs0mg"},{"bike_id":"91379bab-1df1-4cc1-b25d-7242bd44210b","system_id":"levelo_inurba_marseille","lat":43.309076,"lon":5.368465,"is_reserved":false,"is_disabled":false,"rental_uris":{"android":"levelo://app?vid=91379bab-1df1-4cc1-b25d-7242bd44210b","ios":"levelo://app?vid=91379bab-1df1-4cc1-b25d-7242bd44210b"},"vehicle_type_id":"4","last_reported":1712945239,"current_range_meters":24800,"station_id":"ce4bgn92rcd13ifvqbvg","pricing_plan_id":"cebpf4jnsgd1na2vs0mg"},{"bike_id":"e181a133-3990-480a-98e3-8f73b763e094","system_id":"levelo_inurba_marseille","lat":43.309039,"lon":5.371797,"is_reserved":false,"is_disabled":false,"rental_uris":{"android":"levelo://app?vid=e181a133-3990-480a-98e3-8f73b763e094","ios":"levelo://app?vid=e181a133-3990-480a-98e3-8f73b763e094"},"vehicle_type_id":"4","last_reported":1712945239,"current_range_meters":0,"station_id":"ce4bguh2rcd13ifvqckg","pricing_plan_id":"cebpf4jnsgd1na2vs0mg"},{"bike_id":"ff8edecb-e077-4f7e-a02d-2fb999db6683","system_id":"levelo_inurba_marseille","lat":43.31122,"lon":5.377548,"is_reserved":false,"is_disabled":false,"rental_uris":{"android":"levelo://app?vid=ff8edecb-e077-4f7e-a02d-2fb999db6683","ios":"levelo://app?vid=ff8edecb-e077-4f7e-a02d-2fb999db6683"},"vehicle_type_id":"4","last_reported":1712945239,"current_range_meters":0,"station_id":"ce4bgt92rcd13ifvqcg0","pricing_plan_id":"cebpf4jnsgd1na2vs0mg"},{"bike_id":"3281c967-654d-490e-8dd6-5c0a8037f89b","system_id":"levelo_inurba_marseille","lat":43.305989,"lon":5.37225,"is_reserved":false,"is_disabled":false,"rental_uris":{"android":"levelo://app?vid=3281c967-654d-490e-8dd6-5c0a8037f89b","ios":"levelo://app?vid=3281c967-654d-490e-8dd6-5c0a8037f89b"},"vehicle_type_id":"4","last_reported":1712945239,"current_range_meters":1200,"station_id":"ce4bgqh2rcd13ifvqc4g","pricing_plan_id":"cebpf4jnsgd1na2vs0mg"},{"bike_id":"d71a452e-3a09-4e82-962e-a5387cb56693","system_id":"levelo_inurba_marseille","lat":43.307945,"lon":5.376487,"is_reserved":false,"is_disabled":false,"rental_uris":{"android":"levelo://app?vid=d71a452e-3a09-4e82-962e-a5387cb56693","ios":"levelo://app?vid=d71a452e-3a09-4e82-962e-a5387cb56693"},"vehicle_type_id":"4","last_reported":1712945239,"current_range_meters":18800,"station_id":"ce4bgv92rcd13ifvqcq0","pricing_plan_id":"cebpf4jnsgd1na2vs0mg"},{"bike_id":"98229c6e-de5b-4e4f-a6d7-528aa306af35","system_id":"levelo_inurba_marseille","lat":43.317075,"lon":5.377367,"is_reserved":false,"is_disabled":false,"rental_uris":{"android":"levelo://app?vid=98229c6e-de5b-4e4f-a6d7-528aa306af35","ios":"levelo://app?vid=98229c6e-de5b-4e4f-a6d7-528aa306af35"},"vehicle_type_id":"4","last_reported":1712945239,"current_range_meters":25600,"station_id":"ce4bgth2rcd13ifvqch0","pricing_plan_id":"cebpf4jnsgd1na2vs0mg"},{"bike_id":"0245adba-4efe-4b80-b454-cdc8ab5f884b","system_id":"levelo_inurba_marseille","lat":43.315289,"lon":5.380349,"is_reserved":false,"is_disabled":false,"rental_uris":{"android":"levelo://app?vid=0245adba-4efe-4b80-b454-cdc8ab5f884b","ios":"levelo://app?vid=0245adba-4efe-4b80-b454-cdc8ab5f884b"},"vehicle_type_id":"4","last_reported":1712945239,"current_range_meters":22800,"station_id":"ce4bhsp2rcd13ifvqi50","pricing_plan_id":"cebpf4jnsgd1na2vs0mg"},{"bike_id":"b7f1eb73-e2dd-403a-9d3a-77f5e292f38a","system_id":"levelo_inurba_marseille","lat":43.317075,"lon":5.377367,"is_reserved":false,"is_disabled":false,"rental_uris":{"android":"levelo://app?vid=b7f1eb73-e2dd-403a-9d3a-77f5e292f38a","ios":"levelo://app?vid=b7f1eb73-e2dd-403a-9d3a-77f5e292f38a"},"vehicle_type_id":"4","last_reported":1712945239,"current_range_meters":17200,"station_id":"ce4bgth2rcd13ifvqch0","pricing_plan_id":"cebpf4jnsgd1na2vs0mg"},{"bike_id":"aeda716d-e3d7-4c46-affe-c0feeb20e8a7","system_id":"levelo_inurba_marseille","lat":43.31699,"lon":5.377564,"is_reserved":false,"is_disabled":false,"rental_uris":{"android":"levelo://app?vid=aeda716d-e3d7-4c46-affe-c0feeb20e8a7","ios":"levelo://app?vid=aeda716d-e3d7-4c46-affe-c0feeb20e8a7"},"vehicle_type_id":"4","last_reported":1712945239,"current_range_meters":0,"station_id":"ce4bgth2rcd13ifvqch0","pricing_plan_id":"cebpf4jnsgd1na2vs0mg"},{"bike_id":"a0573918-a0bf-47c0-8468-02c96e88539c","system_id":"levelo_inurba_marseille","lat":43.317075,"lon":5.377367,"is_reserved":false,"is_disabled":false,"rental_uris":{"android":"levelo://app?vid=a0573918-a0bf-47c0-8468-02c96e88539c","ios":"levelo://app?vid=a0573918-a0bf-47c0-8468-02c96e88539c"},"vehicle_type_id":"4","last_reported":1712945239,"current_range_meters":9600,"station_id":"ce4bgth2rcd13ifvqch0","pricing_plan_id":"cebpf4jnsgd1na2vs0mg"},{"bike_id":"37493ad0-20dd-4941-8828-fdd672f44ae5","system_id":"levelo_inurba_marseille","lat":43.303203,"lon":5.369088,"is_reserved":false,"is_disabled":false,"rental_uris":{"android":"levelo://app?vid=37493ad0-20dd-4941-8828-fdd672f44ae5","ios":"levelo://app?vid=37493ad0-20dd-4941-8828-fdd672f44ae5"},"vehicle_type_id":"4","last_reported":1712945239,"current_range_meters":0,"station_id":"ce4bgqh2rcd13ifvqc5g","pricing_plan_id":"cebpf4jnsgd1na2vs0mg"},{"bike_id":"ddfba681-f448-46e7-a425-732a06015590","system_id":"levelo_inurba_marseille","lat":43.299028,"lon":5.381509,"is_reserved":false,"is_disabled":false,"rental_uris":{"android":"levelo://app?vid=ddfba681-f448-46e7-a425-732a06015590","ios":"levelo://app?vid=ddfba681-f448-46e7-a425-732a06015590"},"vehicle_type_id":"4","last_reported":1712945239,"current_range_meters":0,"station_id":"ce4bgj12rcd13ifvqbc0","pricing_plan_id":"cebpf4jnsgd1na2vs0mg"},{"bike_id":"920effa0-f77f-4fae-a2a8-ec72e0b78ba9","system_id":"levelo_inurba_marseille","lat":43.315293,"lon":5.380349,"is_reserved":false,"is_disabled":false,"rental_uris":{"android":"levelo://app?vid=920effa0-f77f-4fae-a2a8-ec72e0b78ba9","ios":"levelo://app?vid=920effa0-f77f-4fae-a2a8-ec72e0b78ba9"},"vehicle_type_id":"4","last_reported":1712945239,"current_range_meters":17200,"station_id":"ce4bhsp2rcd13ifvqi50","pricing_plan_id":"cebpf4jnsgd1na2vs0mg"},{"bike_id":"d605895f-03b4-4b88-bfc6-d984347a508b","system_id":"levelo_inurba_marseille","lat":43.315289,"lon":5.380349,"is_reserved":false,"is_disabled":false,"rental_uris":{"android":"levelo://app?vid=d605895f-03b4-4b88-bfc6-d984347a508b","ios":"levelo://app?vid=d605895f-03b4-4b88-bfc6-d984347a508b"},"vehicle_type_id":"4","last_reported":1712945239,"current_range_meters":20000,"station_id":"ce4bhsp2rcd13ifvqi50","pricing_plan_id":"cebpf4jnsgd1na2vs0mg"},{"bike_id":"2946653f-3593-4b73-b058-3e7d37f76f06","system_id":"levelo_inurba_marseille","lat":43.301939,"lon":5.366286,"is_reserved":false,"is_disabled":false,"rental_uris":{"android":"levelo://app?vid=2946653f-3593-4b73-b058-3e7d37f76f06","ios":"levelo://app?vid=2946653f-3593-4b73-b058-3e7d37f76f06"},"vehicle_type_id":"4","last_reported":1712945239,"current_range_meters":0,"station_id":"ce4bgrh2rcd13ifvqc8g","pricing_plan_id":"cebpf4jnsgd1na2vs0mg"},{"bike_id":"c973c696-6cf3-4ef6-9922-20142626237f","system_id":"levelo_inurba_marseille","lat":43.30282,"lon":5.37259,"is_reserved":false,"is_disabled":false,"rental_uris":{"android":"levelo://app?vid=c973c696-6cf3-4ef6-9922-20142626237f","ios":"levelo://app?vid=c973c696-6cf3-4ef6-9922-20142626237f"},"vehicle_type_id":"4","last_reported":1712945239,"current_range_meters":18000,"station_id":"","pricing_plan_id":"cebpf4jnsgd1na2vs0mg"},{"bike_id":"55d280b3-3edf-424d-a072-33a765b43467","system_id":"levelo_inurba_marseille","lat":43.301939,"lon":5.366286,"is_reserved":false,"is_disabled":false,"rental_uris":{"android":"levelo://app?vid=55d280b3-3edf-424d-a072-33a765b43467","ios":"levelo://app?vid=55d280b3-3edf-424d-a072-33a765b43467"},"vehicle_type_id":"4","last_reported":1712945239,"current_range_meters":0,"station_id":"ce4bgrh2rcd13ifvqc8g","pricing_plan_id":"cebpf4jnsgd1na2vs0mg"},{"bike_id":"e7611b4f-686e-4464-a980-0525baf322a2","system_id":"levelo_inurba_marseille","lat":43.31063,"lon":5.38179,"is_reserved":false,"is_disabled":false,"rental_uris":{"android":"levelo://app?vid=e7611b4f-686e-4464-a980-0525baf322a2","ios":"levelo://app?vid=e7611b4f-686e-4464-a980-0525baf322a2"},"vehicle_type_id":"4","last_reported":1712945239,"current_range_meters":0,"station_id":"","pricing_plan_id":"cebpf4jnsgd1na2vs0mg"},{"bike_id":"6bfd0e51-866a-46e8-8402-1e69d52d3e12","system_id":"levelo_inurba_marseille","lat":43.308043,"lon":5.381539,"is_reserved":false,"is_disabled":false,"rental_uris":{"android":"levelo://app?vid=6bfd0e51-866a-46e8-8402-1e69d52d3e12","ios":"levelo://app?vid=6bfd0e51-866a-46e8-8402-1e69d52d3e12"},"vehicle_type_id":"4","last_reported":1712945239,"current_range_meters":0,"station_id":"ce4bgt12rcd13ifvqce0","pricing_plan_id":"cebpf4jnsgd1na2vs0mg"},{"bike_id":"d24e0b16-8c0e-4246-9630-a8a63f0a0dd6","system_id":"levelo_inurba_marseille","lat":43.30467,"lon":5.37899,"is_reserved":false,"is_disabled":false,"rental_uris":{"android":"levelo://app?vid=d24e0b16-8c0e-4246-9630-a8a63f0a0dd6","ios":"levelo://app?vid=d24e0b16-8c0e-4246-9630-a8a63f0a0dd6"},"vehicle_type_id":"4","last_reported":1712945239,"current_range_meters":0,"station_id":"ce4bgup2rcd13ifvqcn0","pricing_plan_id":"cebpf4jnsgd1na2vs0mg"},{"bike_id":"a2d05945-0201-4925-9af9-f6239a00d807","system_id":"levelo_inurba_marseille","lat":43.304606,"lon":5.379026,"is_reserved":false,"is_disabled":false,"rental_uris":{"android":"levelo://app?vid=a2d05945-0201-4925-9af9-f6239a00d807","ios":"levelo://app?vid=a2d05945-0201-4925-9af9-f6239a00d807"},"vehicle_type_id":"4","last_reported":1712945239,"current_range_meters":0,"station_id":"ce4bgup2rcd13ifvqcn0","pricing_plan_id":"cebpf4jnsgd1na2vs0mg"},{"bike_id":"7c2883c1-fe41-4205-8f67-334c6dfdad97","system_id":"levelo_inurba_marseille","lat":43.304606,"lon":5.379026,"is_reserved":false,"is_disabled":false,"rental_uris":{"android":"levelo://app?vid=7c2883c1-fe41-4205-8f67-334c6dfdad97","ios":"levelo://app?vid=7c2883c1-fe41-4205-8f67-334c6dfdad97"},"vehicle_type_id":"4","last_reported":1712945239,"current_range_meters":2400,"station_id":"ce4bgup2rcd13ifvqcn0","pricing_plan_id":"cebpf4jnsgd1na2vs0mg"},{"bike_id":"059dcd77-b156-4846-a2f6-dcc7ed292848","system_id":"levelo_inurba_marseille","lat":43.304665,"lon":5.379125,"is_reserved":false,"is_disabled":false,"rental_uris":{"android":"levelo://app?vid=059dcd77-b156-4846-a2f6-dcc7ed292848","ios":"levelo://app?vid=059dcd77-b156-4846-a2f6-dcc7ed292848"},"vehicle_type_id":"4","last_reported":1712945239,"current_range_meters":0,"station_id":"ce4bgup2rcd13ifvqcn0","pricing_plan_id":"cebpf4jnsgd1na2vs0mg"},{"bike_id":"81810739-ee70-4b1c-b4f8-4c5511c77e9e","system_id":"levelo_inurba_marseille","lat":43.324771,"lon":5.36557,"is_reserved":false,"is_disabled":false,"rental_uris":{"android":"levelo://app?vid=81810739-ee70-4b1c-b4f8-4c5511c77e9e","ios":"levelo://app?vid=81810739-ee70-4b1c-b4f8-4c5511c77e9e"},"vehicle_type_id":"4","last_reported":1712945239,"current_range_meters":11200,"station_id":"ce4bhs12rcd13ifvqhvg","pricing_plan_id":"cebpf4jnsgd1na2vs0mg"},{"bike_id":"6fcac34d-4b8b-4ea1-8b39-2196ca6d95b7","system_id":"levelo_inurba_marseille","lat":43.324771,"lon":5.36557,"is_reserved":false,"is_disabled":false,"rental_uris":{"android":"levelo://app?vid=6fcac34d-4b8b-4ea1-8b39-2196ca6d95b7","ios":"levelo://app?vid=6fcac34d-4b8b-4ea1-8b39-2196ca6d95b7"},"vehicle_type_id":"4","last_reported":1712945239,"current_range_meters":2000,"station_id":"ce4bhs12rcd13ifvqhvg","pricing_plan_id":"cebpf4jnsgd1na2vs0mg"},{"bike_id":"15885d66-8294-406d-8563-3366eede4a1c","system_id":"levelo_inurba_marseille","lat":43.310793,"lon":5.383433,"is_reserved":false,"is_disabled":false,"rental_uris":{"android":"levelo://app?vid=15885d66-8294-406d-8563-3366eede4a1c","ios":"levelo://app?vid=15885d66-8294-406d-8563-3366eede4a1c"},"vehicle_type_id":"4","last_reported":1712945239,"current_range_meters":0,"station_id":"ce4bgv92rcd13ifvqcr0","pricing_plan_id":"cebpf4jnsgd1na2vs0mg"},{"bike_id":"3da179fd-ba6d-4ac5-8ae9-a73ee0c6d3ee","system_id":"levelo_inurba_marseille","lat":43.3108,"lon":5.38347,"is_reserved":false,"is_disabled":false,"rental_uris":{"android":"levelo://app?vid=3da179fd-ba6d-4ac5-8ae9-a73ee0c6d3ee","ios":"levelo://app?vid=3da179fd-ba6d-4ac5-8ae9-a73ee0c6d3ee"},"vehicle_type_id":"4","last_reported":1712945239,"current_range_meters":0,"station_id":"ce4bgv92rcd13ifvqcr0","pricing_plan_id":"cebpf4jnsgd1na2vs0mg"},{"bike_id":"b3fc18e3-9720-4ce0-b8e3-e0046dca812a","system_id":"levelo_inurba_marseille","lat":43.310785,"lon":5.383615,"is_reserved":false,"is_disabled":false,"rental_uris":{"android":"levelo://app?vid=b3fc18e3-9720-4ce0-b8e3-e0046dca812a","ios":"levelo://app?vid=b3fc18e3-9720-4ce0-b8e3-e0046dca812a"},"vehicle_type_id":"4","last_reported":1712945239,"current_range_meters":26000,"station_id":"","pricing_plan_id":"cebpf4jnsgd1na2vs0mg"},{"bike_id":"4477a8a3-16f0-4b12-9b96-4ff3893793dd","system_id":"levelo_inurba_marseille","lat":43.323464,"lon":5.406297,"is_reserved":false,"is_disabled":false,"rental_uris":{"android":"levelo://app?vid=4477a8a3-16f0-4b12-9b96-4ff3893793dd","ios":"levelo://app?vid=4477a8a3-16f0-4b12-9b96-4ff3893793dd"},"vehicle_type_id":"4","last_reported":1712945239,"current_range_meters":7600,"station_id":"ce4bhq92rcd13ifvqhjg","pricing_plan_id":"cebpf4jnsgd1na2vs0mg"},{"bike_id":"8e81aad9-d16b-43a8-97ab-ac6650f7d5fe","system_id":"levelo_inurba_marseille","lat":43.30143,"lon":5.37413,"is_reserved":false,"is_disabled":false,"rental_uris":{"android":"levelo://app?vid=8e81aad9-d16b-43a8-97ab-ac6650f7d5fe","ios":"levelo://app?vid=8e81aad9-d16b-43a8-97ab-ac6650f7d5fe"},"vehicle_type_id":"4","last_reported":1712945239,"current_range_meters":1200,"station_id":"ce4bgs92rcd13ifvqcc0","pricing_plan_id":"cebpf4jnsgd1na2vs0mg"},{"bike_id":"700d4f11-d2cd-4fb3-b921-76e67bcceaf2","system_id":"levelo_inurba_marseille","lat":43.30143,"lon":5.37413,"is_reserved":false,"is_disabled":false,"rental_uris":{"android":"levelo://app?vid=700d4f11-d2cd-4fb3-b921-76e67bcceaf2","ios":"levelo://app?vid=700d4f11-d2cd-4fb3-b921-76e67bcceaf2"},"vehicle_type_id":"4","last_reported":1712945239,"current_range_meters":7600,"station_id":"ce4bgs92rcd13ifvqcc0","pricing_plan_id":"cebpf4jnsgd1na2vs0mg"},{"bike_id":"c69825f1-a6ff-4c03-8704-471e53c3af87","system_id":"levelo_inurba_marseille","lat":43.30143,"lon":5.37413,"is_reserved":false,"is_disabled":false,"rental_uris":{"android":"levelo://app?vid=c69825f1-a6ff-4c03-8704-471e53c3af87","ios":"levelo://app?vid=c69825f1-a6ff-4c03-8704-471e53c3af87"},"vehicle_type_id":"4","last_reported":1712945239,"current_range_meters":6000,"station_id":"ce4bgs92rcd13ifvqcc0","pricing_plan_id":"cebpf4jnsgd1na2vs0mg"},{"bike_id":"752393fb-1077-4850-8a43-46030104dc52","system_id":"levelo_inurba_marseille","lat":43.301429,"lon":5.37413,"is_reserved":false,"is_disabled":false,"rental_uris":{"android":"levelo://app?vid=752393fb-1077-4850-8a43-46030104dc52","ios":"levelo://app?vid=752393fb-1077-4850-8a43-46030104dc52"},"vehicle_type_id":"4","last_reported":1712945239,"current_range_meters":5600,"station_id":"ce4bgs92rcd13ifvqcc0","pricing_plan_id":"cebpf4jnsgd1na2vs0mg"},{"bike_id":"1d43d366-f149-47b3-b386-94ca828e7c97","system_id":"levelo_inurba_marseille","lat":43.297794,"lon":5.370888,"is_reserved":false,"is_disabled":false,"rental_uris":{"android":"levelo://app?vid=1d43d366-f149-47b3-b386-94ca828e7c97","ios":"levelo://app?vid=1d43d366-f149-47b3-b386-94ca828e7c97"},"vehicle_type_id":"4","last_reported":1712945239,"current_range_meters":10000,"station_id":"ce4bgop2rcd13ifvqc1g","pricing_plan_id":"cebpf4jnsgd1na2vs0mg"},{"bike_id":"23946418-179b-4c5e-9e1b-a73081a60532","system_id":"levelo_inurba_marseille","lat":43.302784,"lon":5.377158,"is_reserved":false,"is_disabled":false,"rental_uris":{"android":"levelo://app?vid=23946418-179b-4c5e-9e1b-a73081a60532","ios":"levelo://app?vid=23946418-179b-4c5e-9e1b-a73081a60532"},"vehicle_type_id":"4","last_reported":1712945239,"current_range_meters":15600,"station_id":"ce4bguh2rcd13ifvqcj0","pricing_plan_id":"cebpf4jnsgd1na2vs0mg"},{"bike_id":"387b7c6f-c287-4395-823a-85058889ede8","system_id":"levelo_inurba_marseille","lat":43.319935,"lon":5.381699,"is_reserved":false,"is_disabled":false,"rental_uris":{"android":"levelo://app?vid=387b7c6f-c287-4395-823a-85058889ede8","ios":"levelo://app?vid=387b7c6f-c287-4395-823a-85058889ede8"},"vehicle_type_id":"4","last_reported":1712945239,"current_range_meters":0,"station_id":"ce4bhr12rcd13ifvqhpg","pricing_plan_id":"cebpf4jnsgd1na2vs0mg"},{"bike_id":"4e55ca64-fe78-48a2-9719-7902d95f15e6","system_id":"levelo_inurba_marseille","lat":43.319935,"lon":5.381699,"is_reserved":false,"is_disabled":false,"rental_uris":{"android":"levelo://app?vid=4e55ca64-fe78-48a2-9719-7902d95f15e6","ios":"levelo://app?vid=4e55ca64-fe78-48a2-9719-7902d95f15e6"},"vehicle_type_id":"4","last_reported":1712945239,"current_range_meters":3600,"station_id":"ce4bhr12rcd13ifvqhpg","pricing_plan_id":"cebpf4jnsgd1na2vs0mg"},{"bike_id":"029b80ac-3137-4b29-8d92-4ae5d6cd146f","system_id":"levelo_inurba_marseille","lat":43.313571,"lon":5.384829,"is_reserved":false,"is_disabled":false,"rental_uris":{"android":"levelo://app?vid=029b80ac-3137-4b29-8d92-4ae5d6cd146f","ios":"levelo://app?vid=029b80ac-3137-4b29-8d92-4ae5d6cd146f"},"vehicle_type_id":"4","last_reported":1712945239,"current_range_meters":7600,"station_id":"ce4bgt92rcd13ifvqcf0","pricing_plan_id":"cebpf4jnsgd1na2vs0mg"},{"bike_id":"2567d3be-1d83-404a-8a6f-3ad656bea812","system_id":"levelo_inurba_marseille","lat":43.313571,"lon":5.384829,"is_reserved":false,"is_disabled":false,"rental_uris":{"android":"levelo://app?vid=2567d3be-1d83-404a-8a6f-3ad656bea812","ios":"levelo://app?vid=2567d3be-1d83-404a-8a6f-3ad656bea812"},"vehicle_type_id":"4","last_reported":1712945239,"current_range_meters":1600,"station_id":"ce4bgt92rcd13ifvqcf0","pricing_plan_id":"cebpf4jnsgd1na2vs0mg"},{"bike_id":"d307816f-c197-4392-9dec-fd70f85e957b","system_id":"levelo_inurba_marseille","lat":43.299222,"lon":5.365554,"is_reserved":false,"is_disabled":false,"rental_uris":{"android":"levelo://app?vid=d307816f-c197-4392-9dec-fd70f85e957b","ios":"levelo://app?vid=d307816f-c197-4392-9dec-fd70f85e957b"},"vehicle_type_id":"4","last_reported":1712945239,"current_range_meters":0,"station_id":"ce4bgm92rcd13ifvqbr0","pricing_plan_id":"cebpf4jnsgd1na2vs0mg"},{"bike_id":"b9038cb8-71b3-46a6-a3fd-492d1844b998","system_id":"levelo_inurba_marseille","lat":43.29888,"lon":5.36631,"is_reserved":false,"is_disabled":false,"rental_uris":{"android":"levelo://app?vid=b9038cb8-71b3-46a6-a3fd-492d1844b998","ios":"levelo://app?vid=b9038cb8-71b3-46a6-a3fd-492d1844b998"},"vehicle_type_id":"4","last_reported":1712945239,"current_range_meters":1600,"station_id":"","pricing_plan_id":"cebpf4jnsgd1na2vs0mg"},{"bike_id":"d622a7ea-970d-48a5-8c8e-723cc91f023a","system_id":"levelo_inurba_marseille","lat":43.305364,"lon":5.384119,"is_reserved":false,"is_disabled":false,"rental_uris":{"android":"levelo://app?vid=d622a7ea-970d-48a5-8c8e-723cc91f023a","ios":"levelo://app?vid=d622a7ea-970d-48a5-8c8e-723cc91f023a"},"vehicle_type_id":"4","last_reported":1712945239,"current_range_meters":24800,"station_id":"ce4bgg92rcd13ifvqb30","pricing_plan_id":"cebpf4jnsgd1na2vs0mg"},{"bike_id":"bee3a699-3aee-4574-b314-8f70dca5230d","system_id":"levelo_inurba_marseille","lat":43.298433,"lon":5.362774,"is_reserved":false,"is_disabled":false,"rental_uris":{"android":"levelo://app?vid=bee3a699-3aee-4574-b314-8f70dca5230d","ios":"levelo://app?vid=bee3a699-3aee-4574-b314-8f70dca5230d"},"vehicle_type_id":"4","last_reported":1712945239,"current_range_meters":7200,"station_id":"ce4bgpp2rcd13ifvqc3g","pricing_plan_id":"cebpf4jnsgd1na2vs0mg"},{"bike_id":"6c91aeb1-c1ac-4b0b-927a-209ee6aedd6d","system_id":"levelo_inurba_marseille","lat":43.31187,"lon":5.38706,"is_reserved":false,"is_disabled":false,"rental_uris":{"android":"levelo://app?vid=6c91aeb1-c1ac-4b0b-927a-209ee6aedd6d","ios":"levelo://app?vid=6c91aeb1-c1ac-4b0b-927a-209ee6aedd6d"},"vehicle_type_id":"4","last_reported":1712945239,"current_range_meters":0,"station_id":"ce4bgv12rcd13ifvqcp0","pricing_plan_id":"cebpf4jnsgd1na2vs0mg"},{"bike_id":"c934b2f7-a03a-41d4-8373-794a2c8d0c3e","system_id":"levelo_inurba_marseille","lat":43.299243,"lon":5.37481,"is_reserved":false,"is_disabled":false,"rental_uris":{"android":"levelo://app?vid=c934b2f7-a03a-41d4-8373-794a2c8d0c3e","ios":"levelo://app?vid=c934b2f7-a03a-41d4-8373-794a2c8d0c3e"},"vehicle_type_id":"4","last_reported":1712945239,"current_range_meters":9200,"station_id":"ce4bgjh2rcd13ifvqbg0","pricing_plan_id":"cebpf4jnsgd1na2vs0mg"},{"bike_id":"ad43a2bd-fb8b-4ad2-a3e7-d8adc62a4349","system_id":"levelo_inurba_marseille","lat":43.297794,"lon":5.370888,"is_reserved":false,"is_disabled":false,"rental_uris":{"android":"levelo://app?vid=ad43a2bd-fb8b-4ad2-a3e7-d8adc62a4349","ios":"levelo://app?vid=ad43a2bd-fb8b-4ad2-a3e7-d8adc62a4349"},"vehicle_type_id":"4","last_reported":1712945239,"current_range_meters":4800,"station_id":"ce4bgop2rcd13ifvqc1g","pricing_plan_id":"cebpf4jnsgd1na2vs0mg"},{"bike_id":"e287c5a6-c446-4be6-bcba-41c56b93f414","system_id":"levelo_inurba_marseille","lat":43.297794,"lon":5.370888,"is_reserved":false,"is_disabled":false,"rental_uris":{"android":"levelo://app?vid=e287c5a6-c446-4be6-bcba-41c56b93f414","ios":"levelo://app?vid=e287c5a6-c446-4be6-bcba-41c56b93f414"},"vehicle_type_id":"4","last_reported":1712945239,"current_range_meters":1600,"station_id":"ce4bgop2rcd13ifvqc1g","pricing_plan_id":"cebpf4jnsgd1na2vs0mg"},{"bike_id":"33f9ec6c-35e4-4b80-9ccb-f932f44e8847","system_id":"levelo_inurba_marseille","lat":43.322872,"lon":5.382756,"is_reserved":false,"is_disabled":false,"rental_uris":{"android":"levelo://app?vid=33f9ec6c-35e4-4b80-9ccb-f932f44e8847","ios":"levelo://app?vid=33f9ec6c-35e4-4b80-9ccb-f932f44e8847"},"vehicle_type_id":"4","last_reported":1712945239,"current_range_meters":8400,"station_id":"ce4bhr12rcd13ifvqhqg","pricing_plan_id":"cebpf4jnsgd1na2vs0mg"},{"bike_id":"62f70c15-673b-4b5f-8664-4716e8ac8804","system_id":"levelo_inurba_marseille","lat":43.322872,"lon":5.382756,"is_reserved":false,"is_disabled":false,"rental_uris":{"android":"levelo://app?vid=62f70c15-673b-4b5f-8664-4716e8ac8804","ios":"levelo://app?vid=62f70c15-673b-4b5f-8664-4716e8ac8804"},"vehicle_type_id":"4","last_reported":1712945239,"current_range_meters":10400,"station_id":"ce4bhr12rcd13ifvqhqg","pricing_plan_id":"cebpf4jnsgd1na2vs0mg"},{"bike_id":"2cd32c27-c9bb-4122-9f84-72c6f94df928","system_id":"levelo_inurba_marseille","lat":43.322872,"lon":5.382756,"is_reserved":false,"is_disabled":false,"rental_uris":{"android":"levelo://app?vid=2cd32c27-c9bb-4122-9f84-72c6f94df928","ios":"levelo://app?vid=2cd32c27-c9bb-4122-9f84-72c6f94df928"},"vehicle_type_id":"4","last_reported":1712945239,"current_range_meters":12800,"station_id":"ce4bhr12rcd13ifvqhqg","pricing_plan_id":"cebpf4jnsgd1na2vs0mg"},{"bike_id":"dd741170-db74-4434-afac-49afe57e80a1","system_id":"levelo_inurba_marseille","lat":43.326605,"lon":5.409903,"is_reserved":false,"is_disabled":false,"rental_uris":{"android":"levelo://app?vid=dd741170-db74-4434-afac-49afe57e80a1","ios":"levelo://app?vid=dd741170-db74-4434-afac-49afe57e80a1"},"vehicle_type_id":"4","last_reported":1712945239,"current_range_meters":9600,"station_id":"ce4bhpp2rcd13ifvqhgg","pricing_plan_id":"cebpf4jnsgd1na2vs0mg"},{"bike_id":"471f6dc1-72d2-49b3-a8bb-13ca96ae22c1","system_id":"levelo_inurba_marseille","lat":43.322872,"lon":5.382756,"is_reserved":false,"is_disabled":false,"rental_uris":{"android":"levelo://app?vid=471f6dc1-72d2-49b3-a8bb-13ca96ae22c1","ios":"levelo://app?vid=471f6dc1-72d2-49b3-a8bb-13ca96ae22c1"},"vehicle_type_id":"4","last_reported":1712945239,"current_range_meters":6000,"station_id":"ce4bhr12rcd13ifvqhqg","pricing_plan_id":"cebpf4jnsgd1na2vs0mg"},{"bike_id":"29fc5b50-1cff-46be-80fb-38e796292df6","system_id":"levelo_inurba_marseille","lat":43.322872,"lon":5.382756,"is_reserved":false,"is_disabled":false,"rental_uris":{"android":"levelo://app?vid=29fc5b50-1cff-46be-80fb-38e796292df6","ios":"levelo://app?vid=29fc5b50-1cff-46be-80fb-38e796292df6"},"vehicle_type_id":"4","last_reported":1712945239,"current_range_meters":20400,"station_id":"ce4bhr12rcd13ifvqhqg","pricing_plan_id":"cebpf4jnsgd1na2vs0mg"},{"bike_id":"78e2448b-9d63-4014-9821-a5ed4ea701cc","system_id":"levelo_inurba_marseille","lat":43.322872,"lon":5.382756,"is_reserved":false,"is_disabled":false,"rental_uris":{"android":"levelo://app?vid=78e2448b-9d63-4014-9821-a5ed4ea701cc","ios":"levelo://app?vid=78e2448b-9d63-4014-9821-a5ed4ea701cc"},"vehicle_type_id":"4","last_reported":1712945239,"current_range_meters":23200,"station_id":"ce4bhr12rcd13ifvqhqg","pricing_plan_id":"cebpf4jnsgd1na2vs0mg"},{"bike_id":"59e100ed-da50-4a3e-9006-d56c9ad9155e","system_id":"levelo_inurba_marseille","lat":43.322872,"lon":5.382756,"is_reserved":false,"is_disabled":false,"rental_uris":{"android":"levelo://app?vid=59e100ed-da50-4a3e-9006-d56c9ad9155e","ios":"levelo://app?vid=59e100ed-da50-4a3e-9006-d56c9ad9155e"},"vehicle_type_id":"4","last_reported":1712945239,"current_range_meters":1600,"station_id":"ce4bhr12rcd13ifvqhqg","pricing_plan_id":"cebpf4jnsgd1na2vs0mg"},{"bike_id":"7202b349-cdb2-4fd2-b3f3-0ba946f2e8f8","system_id":"levelo_inurba_marseille","lat":43.29717,"lon":5.36609,"is_reserved":false,"is_disabled":false,"rental_uris":{"android":"levelo://app?vid=7202b349-cdb2-4fd2-b3f3-0ba946f2e8f8","ios":"levelo://app?vid=7202b349-cdb2-4fd2-b3f3-0ba946f2e8f8"},"vehicle_type_id":"4","last_reported":1712945239,"current_range_meters":0,"station_id":"ce4bgn12rcd13ifvqbt0","pricing_plan_id":"cebpf4jnsgd1na2vs0mg"},{"bike_id":"372c21aa-b7d4-446c-a4e2-c00058386246","system_id":"levelo_inurba_marseille","lat":43.29708,"lon":5.3661,"is_reserved":false,"is_disabled":false,"rental_uris":{"android":"levelo://app?vid=372c21aa-b7d4-446c-a4e2-c00058386246","ios":"levelo://app?vid=372c21aa-b7d4-446c-a4e2-c00058386246"},"vehicle_type_id":"4","last_reported":1712945239,"current_range_meters":0,"station_id":"ce4bgn12rcd13ifvqbt0","pricing_plan_id":"cebpf4jnsgd1na2vs0mg"},{"bike_id":"01c3422d-8d5c-41eb-a8b1-2c81fafcb1e7","system_id":"levelo_inurba_marseille","lat":43.29703,"lon":5.36598,"is_reserved":false,"is_disabled":false,"rental_uris":{"android":"levelo://app?vid=01c3422d-8d5c-41eb-a8b1-2c81fafcb1e7","ios":"levelo://app?vid=01c3422d-8d5c-41eb-a8b1-2c81fafcb1e7"},"vehicle_type_id":"4","last_reported":1712945239,"current_range_meters":17200,"station_id":"","pricing_plan_id":"cebpf4jnsgd1na2vs0mg"},{"bike_id":"df832497-a626-4d79-a96f-9b08363bdce5","system_id":"levelo_inurba_marseille","lat":43.29647,"lon":5.36537,"is_reserved":false,"is_disabled":false,"rental_uris":{"android":"levelo://app?vid=df832497-a626-4d79-a96f-9b08363bdce5","ios":"levelo://app?vid=df832497-a626-4d79-a96f-9b08363bdce5"},"vehicle_type_id":"4","last_reported":1712945239,"current_range_meters":5200,"station_id":"","pricing_plan_id":"cebpf4jnsgd1na2vs0mg"},{"bike_id":"d67e55e9-2625-4dc3-a872-836b808de81c","system_id":"levelo_inurba_marseille","lat":43.296263,"lon":5.40601,"is_reserved":false,"is_disabled":false,"rental_uris":{"android":"levelo://app?vid=d67e55e9-2625-4dc3-a872-836b808de81c","ios":"levelo://app?vid=d67e55e9-2625-4dc3-a872-836b808de81c"},"vehicle_type_id":"4","last_reported":1712945239,"current_range_meters":0,"station_id":"ce4bh0h2rcd13ifvqd60","pricing_plan_id":"cebpf4jnsgd1na2vs0mg"},{"bike_id":"aae1c3c3-3467-4054-b686-659ab55895ec","system_id":"levelo_inurba_marseille","lat":43.299028,"lon":5.381509,"is_reserved":false,"is_disabled":false,"rental_uris":{"android":"levelo://app?vid=aae1c3c3-3467-4054-b686-659ab55895ec","ios":"levelo://app?vid=aae1c3c3-3467-4054-b686-659ab55895ec"},"vehicle_type_id":"4","last_reported":1712945239,"current_range_meters":400,"station_id":"ce4bgj12rcd13ifvqbc0","pricing_plan_id":"cebpf4jnsgd1na2vs0mg"},{"bike_id":"104237e8-8cce-431f-8ccc-52866db1d1bf","system_id":"levelo_inurba_marseille","lat":43.299028,"lon":5.381509,"is_reserved":false,"is_disabled":false,"rental_uris":{"android":"levelo://app?vid=104237e8-8cce-431f-8ccc-52866db1d1bf","ios":"levelo://app?vid=104237e8-8cce-431f-8ccc-52866db1d1bf"},"vehicle_type_id":"4","last_reported":1712945239,"current_range_meters":0,"station_id":"ce4bgj12rcd13ifvqbc0","pricing_plan_id":"cebpf4jnsgd1na2vs0mg"},{"bike_id":"7ff2b460-6ab3-4cbe-8d67-9d23558bfaf2","system_id":"levelo_inurba_marseille","lat":43.296921,"lon":5.376579,"is_reserved":false,"is_disabled":false,"rental_uris":{"android":"levelo://app?vid=7ff2b460-6ab3-4cbe-8d67-9d23558bfaf2","ios":"levelo://app?vid=7ff2b460-6ab3-4cbe-8d67-9d23558bfaf2"},"vehicle_type_id":"4","last_reported":1712945239,"current_range_meters":15600,"station_id":"ce4bgkh2rcd13ifvqbl0","pricing_plan_id":"cebpf4jnsgd1na2vs0mg"},{"bike_id":"9c2d9608-4a36-49b8-a368-0b84c5bc3c89","system_id":"levelo_inurba_marseille","lat":43.309589,"lon":5.390258,"is_reserved":false,"is_disabled":false,"rental_uris":{"android":"levelo://app?vid=9c2d9608-4a36-49b8-a368-0b84c5bc3c89","ios":"levelo://app?vid=9c2d9608-4a36-49b8-a368-0b84c5bc3c89"},"vehicle_type_id":"4","last_reported":1712945239,"current_range_meters":1200,"station_id":"ce4bgup2rcd13ifvqco0","pricing_plan_id":"cebpf4jnsgd1na2vs0mg"},{"bike_id":"397d778d-572c-4832-aa5c-13296caa0c60","system_id":"levelo_inurba_marseille","lat":43.29703,"lon":5.37698,"is_reserved":false,"is_disabled":false,"rental_uris":{"android":"levelo://app?vid=397d778d-572c-4832-aa5c-13296caa0c60","ios":"levelo://app?vid=397d778d-572c-4832-aa5c-13296caa0c60"},"vehicle_type_id":"4","last_reported":1712945239,"current_range_meters":8400,"station_id":"ce4bgkh2rcd13ifvqbl0","pricing_plan_id":"cebpf4jnsgd1na2vs0mg"},{"bike_id":"2a4c955c-86b1-47bf-b190-97912641c122","system_id":"levelo_inurba_marseille","lat":43.296921,"lon":5.376579,"is_reserved":false,"is_disabled":false,"rental_uris":{"android":"levelo://app?vid=2a4c955c-86b1-47bf-b190-97912641c122","ios":"levelo://app?vid=2a4c955c-86b1-47bf-b190-97912641c122"},"vehicle_type_id":"4","last_reported":1712945239,"current_range_meters":4000,"station_id":"ce4bgkh2rcd13ifvqbl0","pricing_plan_id":"cebpf4jnsgd1na2vs0mg"},{"bike_id":"ed517da0-d814-43a2-9cae-0588c67e9505","system_id":"levelo_inurba_marseille","lat":43.317557,"lon":5.390173,"is_reserved":false,"is_disabled":false,"rental_uris":{"android":"levelo://app?vid=ed517da0-d814-43a2-9cae-0588c67e9505","ios":"levelo://app?vid=ed517da0-d814-43a2-9cae-0588c67e9505"},"vehicle_type_id":"4","last_reported":1712945239,"current_range_meters":7200,"station_id":"ce4bhqp2rcd13ifvqhng","pricing_plan_id":"cebpf4jnsgd1na2vs0mg"},{"bike_id":"77cdbb2d-ec74-4a55-af44-73c5e4455d9a","system_id":"levelo_inurba_marseille","lat":43.298037,"lon":5.381066,"is_reserved":false,"is_disabled":false,"rental_uris":{"android":"levelo://app?vid=77cdbb2d-ec74-4a55-af44-73c5e4455d9a","ios":"levelo://app?vid=77cdbb2d-ec74-4a55-af44-73c5e4455d9a"},"vehicle_type_id":"4","last_reported":1712945239,"current_range_meters":5200,"station_id":"ce4bgip2rcd13ifvqbb0","pricing_plan_id":"cebpf4jnsgd1na2vs0mg"},{"bike_id":"093178c0-eb1e-46c6-8814-272b12e2ab2e","system_id":"levelo_inurba_marseille","lat":43.298037,"lon":5.381066,"is_reserved":false,"is_disabled":false,"rental_uris":{"android":"levelo://app?vid=093178c0-eb1e-46c6-8814-272b12e2ab2e","ios":"levelo://app?vid=093178c0-eb1e-46c6-8814-272b12e2ab2e"},"vehicle_type_id":"4","last_reported":1712945239,"current_range_meters":0,"station_id":"ce4bgip2rcd13ifvqbb0","pricing_plan_id":"cebpf4jnsgd1na2vs0mg"},{"bike_id":"914d4b89-691e-47a0-84a8-8b85c629350d","system_id":"levelo_inurba_marseille","lat":43.298433,"lon":5.362774,"is_reserved":false,"is_disabled":false,"rental_uris":{"android":"levelo://app?vid=914d4b89-691e-47a0-84a8-8b85c629350d","ios":"levelo://app?vid=914d4b89-691e-47a0-84a8-8b85c629350d"},"vehicle_type_id":"4","last_reported":1712945239,"current_range_meters":0,"station_id":"ce4bgpp2rcd13ifvqc3g","pricing_plan_id":"cebpf4jnsgd1na2vs0mg"},{"bike_id":"865e02b8-93d0-4f01-8037-d2215a9a7325","system_id":"levelo_inurba_marseille","lat":43.295748,"lon":5.37522,"is_reserved":false,"is_disabled":false,"rental_uris":{"android":"levelo://app?vid=865e02b8-93d0-4f01-8037-d2215a9a7325","ios":"levelo://app?vid=865e02b8-93d0-4f01-8037-d2215a9a7325"},"vehicle_type_id":"4","last_reported":1712945239,"current_range_meters":8400,"station_id":"ce4bgh92rcd13ifvqb50","pricing_plan_id":"cebpf4jnsgd1na2vs0mg"},{"bike_id":"42e9ad8a-87ce-4f96-94f3-0dd09feed033","system_id":"levelo_inurba_marseille","lat":43.29577,"lon":5.37496,"is_reserved":false,"is_disabled":false,"rental_uris":{"android":"levelo://app?vid=42e9ad8a-87ce-4f96-94f3-0dd09feed033","ios":"levelo://app?vid=42e9ad8a-87ce-4f96-94f3-0dd09feed033"},"vehicle_type_id":"4","last_reported":1712945239,"current_range_meters":0,"station_id":"ce4bgh92rcd13ifvqb50","pricing_plan_id":"cebpf4jnsgd1na2vs0mg"},{"bike_id":"3a86dd3e-4037-4061-ae8e-8fc2e5281ca8","system_id":"levelo_inurba_marseille","lat":43.295748,"lon":5.37522,"is_reserved":false,"is_disabled":false,"rental_uris":{"android":"levelo://app?vid=3a86dd3e-4037-4061-ae8e-8fc2e5281ca8","ios":"levelo://app?vid=3a86dd3e-4037-4061-ae8e-8fc2e5281ca8"},"vehicle_type_id":"4","last_reported":1712945239,"current_range_meters":0,"station_id":"ce4bgh92rcd13ifvqb50","pricing_plan_id":"cebpf4jnsgd1na2vs0mg"},{"bike_id":"785a4c0b-7dcc-4cdf-ad6e-d2fa6e094f82","system_id":"levelo_inurba_marseille","lat":43.29571,"lon":5.37504,"is_reserved":false,"is_disabled":false,"rental_uris":{"android":"levelo://app?vid=785a4c0b-7dcc-4cdf-ad6e-d2fa6e094f82","ios":"levelo://app?vid=785a4c0b-7dcc-4cdf-ad6e-d2fa6e094f82"},"vehicle_type_id":"4","last_reported":1712945239,"current_range_meters":0,"station_id":"ce4bgh92rcd13ifvqb50","pricing_plan_id":"cebpf4jnsgd1na2vs0mg"},{"bike_id":"a795515d-cdfa-468e-af81-1b8406ff3eb0","system_id":"levelo_inurba_marseille","lat":43.302008,"lon":5.394694,"is_reserved":false,"is_disabled":false,"rental_uris":{"android":"levelo://app?vid=a795515d-cdfa-468e-af81-1b8406ff3eb0","ios":"levelo://app?vid=a795515d-cdfa-468e-af81-1b8406ff3eb0"},"vehicle_type_id":"4","last_reported":1712945239,"current_range_meters":0,"station_id":"ce4bh0p2rcd13ifvqd70","pricing_plan_id":"cebpf4jnsgd1na2vs0mg"},{"bike_id":"20b917c0-7315-4285-be2b-dcd9b59b5218","system_id":"levelo_inurba_marseille","lat":43.29788,"lon":5.38102,"is_reserved":false,"is_disabled":false,"rental_uris":{"android":"levelo://app?vid=20b917c0-7315-4285-be2b-dcd9b59b5218","ios":"levelo://app?vid=20b917c0-7315-4285-be2b-dcd9b59b5218"},"vehicle_type_id":"4","last_reported":1712945239,"current_range_meters":0,"station_id":"ce4bgip2rcd13ifvqbb0","pricing_plan_id":"cebpf4jnsgd1na2vs0mg"},{"bike_id":"13816b9f-4f19-4ef3-ad21-911ab6834099","system_id":"levelo_inurba_marseille","lat":43.304274,"lon":5.388873,"is_reserved":false,"is_disabled":false,"rental_uris":{"android":"levelo://app?vid=13816b9f-4f19-4ef3-ad21-911ab6834099","ios":"levelo://app?vid=13816b9f-4f19-4ef3-ad21-911ab6834099"},"vehicle_type_id":"4","last_reported":1712945239,"current_range_meters":15600,"station_id":"ce4bgk12rcd13ifvqbi0","pricing_plan_id":"cebpf4jnsgd1na2vs0mg"},{"bike_id":"3d59b799-7a55-42d9-bcfc-25c56c0b73d5","system_id":"levelo_inurba_marseille","lat":43.295748,"lon":5.37522,"is_reserved":false,"is_disabled":false,"rental_uris":{"android":"levelo://app?vid=3d59b799-7a55-42d9-bcfc-25c56c0b73d5","ios":"levelo://app?vid=3d59b799-7a55-42d9-bcfc-25c56c0b73d5"},"vehicle_type_id":"4","last_reported":1712945239,"current_range_meters":0,"station_id":"ce4bgh92rcd13ifvqb50","pricing_plan_id":"cebpf4jnsgd1na2vs0mg"},{"bike_id":"a6a1011e-0ef3-43cc-a641-9d7b76d85a1e","system_id":"levelo_inurba_marseille","lat":43.295748,"lon":5.37522,"is_reserved":false,"is_disabled":false,"rental_uris":{"android":"levelo://app?vid=a6a1011e-0ef3-43cc-a641-9d7b76d85a1e","ios":"levelo://app?vid=a6a1011e-0ef3-43cc-a641-9d7b76d85a1e"},"vehicle_type_id":"4","last_reported":1712945239,"current_range_meters":0,"station_id":"ce4bgh92rcd13ifvqb50","pricing_plan_id":"cebpf4jnsgd1na2vs0mg"},{"bike_id":"ba1868a8-3bc8-4b66-9538-a0cf7ab219f5","system_id":"levelo_inurba_marseille","lat":43.297752,"lon":5.38097,"is_reserved":false,"is_disabled":false,"rental_uris":{"android":"levelo://app?vid=ba1868a8-3bc8-4b66-9538-a0cf7ab219f5","ios":"levelo://app?vid=ba1868a8-3bc8-4b66-9538-a0cf7ab219f5"},"vehicle_type_id":"4","last_reported":1712945239,"current_range_meters":0,"station_id":"ce4bgip2rcd13ifvqbb0","pricing_plan_id":"cebpf4jnsgd1na2vs0mg"},{"bike_id":"d11f6550-7788-4199-a0d0-c75b44ce31e0","system_id":"levelo_inurba_marseille","lat":43.296263,"lon":5.377094,"is_reserved":false,"is_disabled":false,"rental_uris":{"android":"levelo://app?vid=d11f6550-7788-4199-a0d0-c75b44ce31e0","ios":"levelo://app?vid=d11f6550-7788-4199-a0d0-c75b44ce31e0"},"vehicle_type_id":"4","last_reported":1712945239,"current_range_meters":0,"station_id":"ce4bgi92rcd13ifvqb90","pricing_plan_id":"cebpf4jnsgd1na2vs0mg"},{"bike_id":"f3c09736-6765-4c7c-ac9c-9566c2b589d5","system_id":"levelo_inurba_marseille","lat":43.296263,"lon":5.377094,"is_reserved":false,"is_disabled":false,"rental_uris":{"android":"levelo://app?vid=f3c09736-6765-4c7c-ac9c-9566c2b589d5","ios":"levelo://app?vid=f3c09736-6765-4c7c-ac9c-9566c2b589d5"},"vehicle_type_id":"4","last_reported":1712945239,"current_range_meters":7200,"station_id":"ce4bgi92rcd13ifvqb90","pricing_plan_id":"cebpf4jnsgd1na2vs0mg"},{"bike_id":"bd3fff4e-d628-467e-a8d1-3f28af8f5fbf","system_id":"levelo_inurba_marseille","lat":43.295748,"lon":5.37522,"is_reserved":false,"is_disabled":false,"rental_uris":{"android":"levelo://app?vid=bd3fff4e-d628-467e-a8d1-3f28af8f5fbf","ios":"levelo://app?vid=bd3fff4e-d628-467e-a8d1-3f28af8f5fbf"},"vehicle_type_id":"4","last_reported":1712945239,"current_range_meters":0,"station_id":"ce4bgh92rcd13ifvqb50","pricing_plan_id":"cebpf4jnsgd1na2vs0mg"},{"bike_id":"1e43e3c0-dd17-4a35-8a50-d71dae553703","system_id":"levelo_inurba_marseille","lat":43.296263,"lon":5.377094,"is_reserved":false,"is_disabled":false,"rental_uris":{"android":"levelo://app?vid=1e43e3c0-dd17-4a35-8a50-d71dae553703","ios":"levelo://app?vid=1e43e3c0-dd17-4a35-8a50-d71dae553703"},"vehicle_type_id":"4","last_reported":1712945239,"current_range_meters":0,"station_id":"ce4bgi92rcd13ifvqb90","pricing_plan_id":"cebpf4jnsgd1na2vs0mg"},{"bike_id":"9686dda3-0d75-43a3-b973-9d4cd650190d","system_id":"levelo_inurba_marseille","lat":43.29607,"lon":5.37705,"is_reserved":false,"is_disabled":false,"rental_uris":{"android":"levelo://app?vid=9686dda3-0d75-43a3-b973-9d4cd650190d","ios":"levelo://app?vid=9686dda3-0d75-43a3-b973-9d4cd650190d"},"vehicle_type_id":"4","last_reported":1712945239,"current_range_meters":0,"station_id":"ce4bgi92rcd13ifvqb90","pricing_plan_id":"cebpf4jnsgd1na2vs0mg"},{"bike_id":"9a8367a2-a47f-4095-9271-dbfdb0827cc0","system_id":"levelo_inurba_marseille","lat":43.295279,"lon":5.375048,"is_reserved":false,"is_disabled":false,"rental_uris":{"android":"levelo://app?vid=9a8367a2-a47f-4095-9271-dbfdb0827cc0","ios":"levelo://app?vid=9a8367a2-a47f-4095-9271-dbfdb0827cc0"},"vehicle_type_id":"4","last_reported":1712945239,"current_range_meters":0,"station_id":"ce4bgkp2rcd13ifvqbmg","pricing_plan_id":"cebpf4jnsgd1na2vs0mg"},{"bike_id":"ffe02d82-65dc-4802-9b42-d7e2d3cba48e","system_id":"levelo_inurba_marseille","lat":43.29528,"lon":5.37449,"is_reserved":false,"is_disabled":false,"rental_uris":{"android":"levelo://app?vid=ffe02d82-65dc-4802-9b42-d7e2d3cba48e","ios":"levelo://app?vid=ffe02d82-65dc-4802-9b42-d7e2d3cba48e"},"vehicle_type_id":"4","last_reported":1712945239,"current_range_meters":0,"station_id":"ce4bgkp2rcd13ifvqbmg","pricing_plan_id":"cebpf4jnsgd1na2vs0mg"},{"bike_id":"52e72cb5-471c-41ee-96bb-d4755c759af5","system_id":"levelo_inurba_marseille","lat":43.295279,"lon":5.375048,"is_reserved":false,"is_disabled":false,"rental_uris":{"android":"levelo://app?vid=52e72cb5-471c-41ee-96bb-d4755c759af5","ios":"levelo://app?vid=52e72cb5-471c-41ee-96bb-d4755c759af5"},"vehicle_type_id":"4","last_reported":1712945239,"current_range_meters":0,"station_id":"ce4bgkp2rcd13ifvqbmg","pricing_plan_id":"cebpf4jnsgd1na2vs0mg"},{"bike_id":"3bb489a8-d032-4345-a385-70e81dd3a465","system_id":"levelo_inurba_marseille","lat":43.295279,"lon":5.375048,"is_reserved":false,"is_disabled":false,"rental_uris":{"android":"levelo://app?vid=3bb489a8-d032-4345-a385-70e81dd3a465","ios":"levelo://app?vid=3bb489a8-d032-4345-a385-70e81dd3a465"},"vehicle_type_id":"4","last_reported":1712945239,"current_range_meters":1600,"station_id":"ce4bgkp2rcd13ifvqbmg","pricing_plan_id":"cebpf4jnsgd1na2vs0mg"},{"bike_id":"77465f3a-b862-4165-9448-800ddd4447a1","system_id":"levelo_inurba_marseille","lat":43.29972,"lon":5.38496,"is_reserved":false,"is_disabled":false,"rental_uris":{"android":"levelo://app?vid=77465f3a-b862-4165-9448-800ddd4447a1","ios":"levelo://app?vid=77465f3a-b862-4165-9448-800ddd4447a1"},"vehicle_type_id":"4","last_reported":1712945239,"current_range_meters":0,"station_id":"ce4bgj92rcd13ifvqbd0","pricing_plan_id":"cebpf4jnsgd1na2vs0mg"},{"bike_id":"13bbcbb3-95fa-4fd4-b910-097ddecc7d58","system_id":"levelo_inurba_marseille","lat":43.295279,"lon":5.375048,"is_reserved":false,"is_disabled":false,"rental_uris":{"android":"levelo://app?vid=13bbcbb3-95fa-4fd4-b910-097ddecc7d58","ios":"levelo://app?vid=13bbcbb3-95fa-4fd4-b910-097ddecc7d58"},"vehicle_type_id":"4","last_reported":1712945239,"current_range_meters":8000,"station_id":"ce4bgkp2rcd13ifvqbmg","pricing_plan_id":"cebpf4jnsgd1na2vs0mg"},{"bike_id":"df032ba4-7bc0-4492-9699-d39b0dd4c7e3","system_id":"levelo_inurba_marseille","lat":43.309589,"lon":5.390258,"is_reserved":false,"is_disabled":false,"rental_uris":{"android":"levelo://app?vid=df032ba4-7bc0-4492-9699-d39b0dd4c7e3","ios":"levelo://app?vid=df032ba4-7bc0-4492-9699-d39b0dd4c7e3"},"vehicle_type_id":"4","last_reported":1712945239,"current_range_meters":0,"station_id":"ce4bgup2rcd13ifvqco0","pricing_plan_id":"cebpf4jnsgd1na2vs0mg"},{"bike_id":"cc747300-f97a-4a46-a405-00439167b774","system_id":"levelo_inurba_marseille","lat":43.295279,"lon":5.375048,"is_reserved":false,"is_disabled":false,"rental_uris":{"android":"levelo://app?vid=cc747300-f97a-4a46-a405-00439167b774","ios":"levelo://app?vid=cc747300-f97a-4a46-a405-00439167b774"},"vehicle_type_id":"4","last_reported":1712945239,"current_range_meters":12400,"station_id":"ce4bgkp2rcd13ifvqbmg","pricing_plan_id":"cebpf4jnsgd1na2vs0mg"},{"bike_id":"241916b8-6bef-438c-90b0-2a4d9ca5cdd0","system_id":"levelo_inurba_marseille","lat":43.295279,"lon":5.375048,"is_reserved":false,"is_disabled":false,"rental_uris":{"android":"levelo://app?vid=241916b8-6bef-438c-90b0-2a4d9ca5cdd0","ios":"levelo://app?vid=241916b8-6bef-438c-90b0-2a4d9ca5cdd0"},"vehicle_type_id":"4","last_reported":1712945239,"current_range_meters":2800,"station_id":"ce4bgkp2rcd13ifvqbmg","pricing_plan_id":"cebpf4jnsgd1na2vs0mg"},{"bike_id":"78c2abf1-cc1f-4b28-bcb0-234d12481091","system_id":"levelo_inurba_marseille","lat":43.323448,"lon":5.389048,"is_reserved":false,"is_disabled":false,"rental_uris":{"android":"levelo://app?vid=78c2abf1-cc1f-4b28-bcb0-234d12481091","ios":"levelo://app?vid=78c2abf1-cc1f-4b28-bcb0-234d12481091"},"vehicle_type_id":"4","last_reported":1712945239,"current_range_meters":0,"station_id":"ce4bhqp2rcd13ifvqhog","pricing_plan_id":"cebpf4jnsgd1na2vs0mg"},{"bike_id":"f92879e8-6d15-46d6-a097-d8e8ae205312","system_id":"levelo_inurba_marseille","lat":43.32369,"lon":5.38883,"is_reserved":false,"is_disabled":false,"rental_uris":{"android":"levelo://app?vid=f92879e8-6d15-46d6-a097-d8e8ae205312","ios":"levelo://app?vid=f92879e8-6d15-46d6-a097-d8e8ae205312"},"vehicle_type_id":"4","last_reported":1712945239,"current_range_meters":4000,"station_id":"ce4bhqp2rcd13ifvqhog","pricing_plan_id":"cebpf4jnsgd1na2vs0mg"},{"bike_id":"fe02a49c-c55e-40d0-a225-4ae35f043698","system_id":"levelo_inurba_marseille","lat":43.32367,"lon":5.388836,"is_reserved":false,"is_disabled":false,"rental_uris":{"android":"levelo://app?vid=fe02a49c-c55e-40d0-a225-4ae35f043698","ios":"levelo://app?vid=fe02a49c-c55e-40d0-a225-4ae35f043698"},"vehicle_type_id":"4","last_reported":1712945239,"current_range_meters":0,"station_id":"ce4bhqp2rcd13ifvqhog","pricing_plan_id":"cebpf4jnsgd1na2vs0mg"},{"bike_id":"65d5f673-8d2e-40e9-a174-44270ea1bdd4","system_id":"levelo_inurba_marseille","lat":43.29602,"lon":5.381084,"is_reserved":false,"is_disabled":false,"rental_uris":{"android":"levelo://app?vid=65d5f673-8d2e-40e9-a174-44270ea1bdd4","ios":"levelo://app?vid=65d5f673-8d2e-40e9-a174-44270ea1bdd4"},"vehicle_type_id":"4","last_reported":1712945239,"current_range_meters":0,"station_id":"ce4bgl12rcd13ifvqbo0","pricing_plan_id":"cebpf4jnsgd1na2vs0mg"},{"bike_id":"0c6a4f4f-c377-4281-92ad-6858fedcf295","system_id":"levelo_inurba_marseille","lat":43.29602,"lon":5.381084,"is_reserved":false,"is_disabled":false,"rental_uris":{"android":"levelo://app?vid=0c6a4f4f-c377-4281-92ad-6858fedcf295","ios":"levelo://app?vid=0c6a4f4f-c377-4281-92ad-6858fedcf295"},"vehicle_type_id":"4","last_reported":1712945239,"current_range_meters":3600,"station_id":"ce4bgl12rcd13ifvqbo0","pricing_plan_id":"cebpf4jnsgd1na2vs0mg"},{"bike_id":"72bb861e-9510-47ac-9100-c459f7b7b32c","system_id":"levelo_inurba_marseille","lat":43.293009,"lon":5.374584,"is_reserved":false,"is_disabled":false,"rental_uris":{"android":"levelo://app?vid=72bb861e-9510-47ac-9100-c459f7b7b32c","ios":"levelo://app?vid=72bb861e-9510-47ac-9100-c459f7b7b32c"},"vehicle_type_id":"4","last_reported":1712945239,"current_range_meters":400,"station_id":"ce4bgi12rcd13ifvqb70","pricing_plan_id":"cebpf4jnsgd1na2vs0mg"},{"bike_id":"b4e3bb8e-14dc-4ab1-ba6e-63bf0e689742","system_id":"levelo_inurba_marseille","lat":43.30603,"lon":5.39359,"is_reserved":false,"is_disabled":false,"rental_uris":{"android":"levelo://app?vid=b4e3bb8e-14dc-4ab1-ba6e-63bf0e689742","ios":"levelo://app?vid=b4e3bb8e-14dc-4ab1-ba6e-63bf0e689742"},"vehicle_type_id":"4","last_reported":1712945239,"current_range_meters":0,"station_id":"ce4bh0p2rcd13ifvqd80","pricing_plan_id":"cebpf4jnsgd1na2vs0mg"},{"bike_id":"c12b05de-2201-41be-b785-206a3021296f","system_id":"levelo_inurba_marseille","lat":43.293009,"lon":5.374584,"is_reserved":false,"is_disabled":false,"rental_uris":{"android":"levelo://app?vid=c12b05de-2201-41be-b785-206a3021296f","ios":"levelo://app?vid=c12b05de-2201-41be-b785-206a3021296f"},"vehicle_type_id":"4","last_reported":1712945239,"current_range_meters":6000,"station_id":"ce4bgi12rcd13ifvqb70","pricing_plan_id":"cebpf4jnsgd1na2vs0mg"},{"bike_id":"d076e2c9-bd3b-4fde-9279-5eae711f53ba","system_id":"levelo_inurba_marseille","lat":43.293009,"lon":5.374584,"is_reserved":false,"is_disabled":false,"rental_uris":{"android":"levelo://app?vid=d076e2c9-bd3b-4fde-9279-5eae711f53ba","ios":"levelo://app?vid=d076e2c9-bd3b-4fde-9279-5eae711f53ba"},"vehicle_type_id":"4","last_reported":1712945239,"current_range_meters":0,"station_id":"ce4bgi12rcd13ifvqb70","pricing_plan_id":"cebpf4jnsgd1na2vs0mg"},{"bike_id":"b61b178f-feca-419e-a65a-cb50d5abcded","system_id":"levelo_inurba_marseille","lat":43.311722,"lon":5.387247,"is_reserved":false,"is_disabled":false,"rental_uris":{"android":"levelo://app?vid=b61b178f-feca-419e-a65a-cb50d5abcded","ios":"levelo://app?vid=b61b178f-feca-419e-a65a-cb50d5abcded"},"vehicle_type_id":"4","last_reported":1712945239,"current_range_meters":11200,"station_id":"ce4bgv12rcd13ifvqcp0","pricing_plan_id":"cebpf4jnsgd1na2vs0mg"},{"bike_id":"8db23a51-c831-4c11-a753-5c16e9330335","system_id":"levelo_inurba_marseille","lat":43.31536,"lon":5.39514,"is_reserved":false,"is_disabled":false,"rental_uris":{"android":"levelo://app?vid=8db23a51-c831-4c11-a753-5c16e9330335","ios":"levelo://app?vid=8db23a51-c831-4c11-a753-5c16e9330335"},"vehicle_type_id":"4","last_reported":1712945239,"current_range_meters":7200,"station_id":"","pricing_plan_id":"cebpf4jnsgd1na2vs0mg"},{"bike_id":"bf13dd96-b9fe-4f99-8022-f36998fd0c3d","system_id":"levelo_inurba_marseille","lat":43.2936,"lon":5.37835,"is_reserved":false,"is_disabled":false,"rental_uris":{"android":"levelo://app?vid=bf13dd96-b9fe-4f99-8022-f36998fd0c3d","ios":"levelo://app?vid=bf13dd96-b9fe-4f99-8022-f36998fd0c3d"},"vehicle_type_id":"4","last_reported":1712945239,"current_range_meters":4800,"station_id":"ce4bgjh2rcd13ifvqbf0","pricing_plan_id":"cebpf4jnsgd1na2vs0mg"},{"bike_id":"95a8ba19-59f6-42dd-bed5-2bf40131c0cc","system_id":"levelo_inurba_marseille","lat":43.289307,"lon":5.38406,"is_reserved":false,"is_disabled":false,"rental_uris":{"android":"levelo://app?vid=95a8ba19-59f6-42dd-bed5-2bf40131c0cc","ios":"levelo://app?vid=95a8ba19-59f6-42dd-bed5-2bf40131c0cc"},"vehicle_type_id":"4","last_reported":1712945239,"current_range_meters":0,"station_id":"ce4bh612rcd13ifvqe6g","pricing_plan_id":"cebpf4jnsgd1na2vs0mg"},{"bike_id":"f84cb17b-4d77-4536-9482-f4143f0df0c4","system_id":"levelo_inurba_marseille","lat":43.303002,"lon":5.392142,"is_reserved":false,"is_disabled":false,"rental_uris":{"android":"levelo://app?vid=f84cb17b-4d77-4536-9482-f4143f0df0c4","ios":"levelo://app?vid=f84cb17b-4d77-4536-9482-f4143f0df0c4"},"vehicle_type_id":"4","last_reported":1712945239,"current_range_meters":11600,"station_id":"ce4bgkh2rcd13ifvqbk0","pricing_plan_id":"cebpf4jnsgd1na2vs0mg"},{"bike_id":"ce8d3d47-c29a-4646-a413-9432fb387157","system_id":"levelo_inurba_marseille","lat":43.2936,"lon":5.37835,"is_reserved":false,"is_disabled":false,"rental_uris":{"android":"levelo://app?vid=ce8d3d47-c29a-4646-a413-9432fb387157","ios":"levelo://app?vid=ce8d3d47-c29a-4646-a413-9432fb387157"},"vehicle_type_id":"4","last_reported":1712945239,"current_range_meters":1200,"station_id":"ce4bgjh2rcd13ifvqbf0","pricing_plan_id":"cebpf4jnsgd1na2vs0mg"},{"bike_id":"613191ea-ab96-4931-9686-238de5751c63","system_id":"levelo_inurba_marseille","lat":43.29509,"lon":5.38189,"is_reserved":false,"is_disabled":false,"rental_uris":{"android":"levelo://app?vid=613191ea-ab96-4931-9686-238de5751c63","ios":"levelo://app?vid=613191ea-ab96-4931-9686-238de5751c63"},"vehicle_type_id":"4","last_reported":1712945239,"current_range_meters":4000,"station_id":"","pricing_plan_id":"cebpf4jnsgd1na2vs0mg"},{"bike_id":"151dd73d-5b0e-478e-898e-ccea00669738","system_id":"levelo_inurba_marseille","lat":43.292221,"lon":5.360532,"is_reserved":false,"is_disabled":false,"rental_uris":{"android":"levelo://app?vid=151dd73d-5b0e-478e-898e-ccea00669738","ios":"levelo://app?vid=151dd73d-5b0e-478e-898e-ccea00669738"},"vehicle_type_id":"4","last_reported":1712945239,"current_range_meters":2000,"station_id":"ce4bhb12rcd13ifvqel0","pricing_plan_id":"cebpf4jnsgd1na2vs0mg"},{"bike_id":"fdbfcc4c-c0c1-4d80-b0d1-c6c7324cc435","system_id":"levelo_inurba_marseille","lat":43.29179,"lon":5.37147,"is_reserved":false,"is_disabled":false,"rental_uris":{"android":"levelo://app?vid=fdbfcc4c-c0c1-4d80-b0d1-c6c7324cc435","ios":"levelo://app?vid=fdbfcc4c-c0c1-4d80-b0d1-c6c7324cc435"},"vehicle_type_id":"4","last_reported":1712945239,"current_range_meters":0,"station_id":"ce4bha92rcd13ifvqeh0","pricing_plan_id":"cebpf4jnsgd1na2vs0mg"},{"bike_id":"0897b817-5672-4770-bdb5-72a8630431c4","system_id":"levelo_inurba_marseille","lat":43.292005,"lon":5.357875,"is_reserved":false,"is_disabled":false,"rental_uris":{"android":"levelo://app?vid=0897b817-5672-4770-bdb5-72a8630431c4","ios":"levelo://app?vid=0897b817-5672-4770-bdb5-72a8630431c4"},"vehicle_type_id":"4","last_reported":1712945239,"current_range_meters":4800,"station_id":"ce4bhb12rcd13ifvqel0","pricing_plan_id":"cebpf4jnsgd1na2vs0mg"},{"bike_id":"5ebe0251-3709-4060-b643-9a655be0fc36","system_id":"levelo_inurba_marseille","lat":43.292008,"lon":5.35793,"is_reserved":false,"is_disabled":false,"rental_uris":{"android":"levelo://app?vid=5ebe0251-3709-4060-b643-9a655be0fc36","ios":"levelo://app?vid=5ebe0251-3709-4060-b643-9a655be0fc36"},"vehicle_type_id":"4","last_reported":1712945239,"current_range_meters":0,"station_id":"ce4bhb12rcd13ifvqel0","pricing_plan_id":"cebpf4jnsgd1na2vs0mg"},{"bike_id":"4929a379-7c07-4159-90fd-5c13475498de","system_id":"levelo_inurba_marseille","lat":43.291994,"lon":5.357886,"is_reserved":false,"is_disabled":false,"rental_uris":{"android":"levelo://app?vid=4929a379-7c07-4159-90fd-5c13475498de","ios":"levelo://app?vid=4929a379-7c07-4159-90fd-5c13475498de"},"vehicle_type_id":"4","last_reported":1712945239,"current_range_meters":0,"station_id":"ce4bhb12rcd13ifvqel0","pricing_plan_id":"cebpf4jnsgd1na2vs0mg"},{"bike_id":"b3afa7ad-ec3c-47b8-a275-c8a6cd354115","system_id":"levelo_inurba_marseille","lat":43.291994,"lon":5.357886,"is_reserved":false,"is_disabled":false,"rental_uris":{"android":"levelo://app?vid=b3afa7ad-ec3c-47b8-a275-c8a6cd354115","ios":"levelo://app?vid=b3afa7ad-ec3c-47b8-a275-c8a6cd354115"},"vehicle_type_id":"4","last_reported":1712945239,"current_range_meters":0,"station_id":"ce4bhb12rcd13ifvqel0","pricing_plan_id":"cebpf4jnsgd1na2vs0mg"},{"bike_id":"f9877f4b-bbe4-4d7c-98e2-620eee60d4e4","system_id":"levelo_inurba_marseille","lat":43.309038,"lon":5.396546,"is_reserved":false,"is_disabled":false,"rental_uris":{"android":"levelo://app?vid=f9877f4b-bbe4-4d7c-98e2-620eee60d4e4","ios":"levelo://app?vid=f9877f4b-bbe4-4d7c-98e2-620eee60d4e4"},"vehicle_type_id":"4","last_reported":1712945239,"current_range_meters":11600,"station_id":"ce4bh012rcd13ifvqcv0","pricing_plan_id":"cebpf4jnsgd1na2vs0mg"},{"bike_id":"76a2d4a3-d738-4b2f-a0a2-fe45aaf66e7d","system_id":"levelo_inurba_marseille","lat":43.309047,"lon":5.396551,"is_reserved":false,"is_disabled":false,"rental_uris":{"android":"levelo://app?vid=76a2d4a3-d738-4b2f-a0a2-fe45aaf66e7d","ios":"levelo://app?vid=76a2d4a3-d738-4b2f-a0a2-fe45aaf66e7d"},"vehicle_type_id":"4","last_reported":1712945239,"current_range_meters":1600,"station_id":"ce4bh012rcd13ifvqcv0","pricing_plan_id":"cebpf4jnsgd1na2vs0mg"},{"bike_id":"ca984d38-30a9-4b82-ad55-76ae0f44d6b1","system_id":"levelo_inurba_marseille","lat":43.29529,"lon":5.385581,"is_reserved":false,"is_disabled":false,"rental_uris":{"android":"levelo://app?vid=ca984d38-30a9-4b82-ad55-76ae0f44d6b1","ios":"levelo://app?vid=ca984d38-30a9-4b82-ad55-76ae0f44d6b1"},"vehicle_type_id":"4","last_reported":1712945239,"current_range_meters":7200,"station_id":"ce4bgih2rcd13ifvqba0","pricing_plan_id":"cebpf4jnsgd1na2vs0mg"},{"bike_id":"b4df95cd-e653-4663-9189-5201eb468cc7","system_id":"levelo_inurba_marseille","lat":43.295384,"lon":5.385472,"is_reserved":false,"is_disabled":false,"rental_uris":{"android":"levelo://app?vid=b4df95cd-e653-4663-9189-5201eb468cc7","ios":"levelo://app?vid=b4df95cd-e653-4663-9189-5201eb468cc7"},"vehicle_type_id":"4","last_reported":1712945239,"current_range_meters":18400,"station_id":"ce4bgih2rcd13ifvqba0","pricing_plan_id":"cebpf4jnsgd1na2vs0mg"},{"bike_id":"e95fe647-da7b-4c2d-ab74-595a77e20de2","system_id":"levelo_inurba_marseille","lat":43.29532,"lon":5.38538,"is_reserved":false,"is_disabled":false,"rental_uris":{"android":"levelo://app?vid=e95fe647-da7b-4c2d-ab74-595a77e20de2","ios":"levelo://app?vid=e95fe647-da7b-4c2d-ab74-595a77e20de2"},"vehicle_type_id":"4","last_reported":1712945239,"current_range_meters":0,"station_id":"ce4bgih2rcd13ifvqba0","pricing_plan_id":"cebpf4jnsgd1na2vs0mg"},{"bike_id":"6778d737-8476-46c8-85a7-ac7173d9e5e5","system_id":"levelo_inurba_marseille","lat":43.290779,"lon":5.371482,"is_reserved":false,"is_disabled":false,"rental_uris":{"android":"levelo://app?vid=6778d737-8476-46c8-85a7-ac7173d9e5e5","ios":"levelo://app?vid=6778d737-8476-46c8-85a7-ac7173d9e5e5"},"vehicle_type_id":"4","last_reported":1712945239,"current_range_meters":1600,"station_id":"ce4bh5p2rcd13ifvqe4g","pricing_plan_id":"cebpf4jnsgd1na2vs0mg"},{"bike_id":"9d4cb9f3-7bf0-432d-9857-76a35d30e6f2","system_id":"levelo_inurba_marseille","lat":43.290779,"lon":5.371482,"is_reserved":false,"is_disabled":false,"rental_uris":{"android":"levelo://app?vid=9d4cb9f3-7bf0-432d-9857-76a35d30e6f2","ios":"levelo://app?vid=9d4cb9f3-7bf0-432d-9857-76a35d30e6f2"},"vehicle_type_id":"4","last_reported":1712945239,"current_range_meters":0,"station_id":"ce4bh5p2rcd13ifvqe4g","pricing_plan_id":"cebpf4jnsgd1na2vs0mg"},{"bike_id":"c0298621-a3a2-4ed1-a12e-dd94d8bc8505","system_id":"levelo_inurba_marseille","lat":43.29054,"lon":5.37161,"is_reserved":false,"is_disabled":false,"rental_uris":{"android":"levelo://app?vid=c0298621-a3a2-4ed1-a12e-dd94d8bc8505","ios":"levelo://app?vid=c0298621-a3a2-4ed1-a12e-dd94d8bc8505"},"vehicle_type_id":"4","last_reported":1712945239,"current_range_meters":0,"station_id":"ce4bh5p2rcd13ifvqe4g","pricing_plan_id":"cebpf4jnsgd1na2vs0mg"},{"bike_id":"d5df1f2e-cc09-4659-aeb8-18eaf9ad70c1","system_id":"levelo_inurba_marseille","lat":43.290631,"lon":5.359244,"is_reserved":false,"is_disabled":false,"rental_uris":{"android":"levelo://app?vid=d5df1f2e-cc09-4659-aeb8-18eaf9ad70c1","ios":"levelo://app?vid=d5df1f2e-cc09-4659-aeb8-18eaf9ad70c1"},"vehicle_type_id":"4","last_reported":1712945239,"current_range_meters":0,"station_id":"ce4bha92rcd13ifvqeg0","pricing_plan_id":"cebpf4jnsgd1na2vs0mg"},{"bike_id":"eea54417-5c27-4cbd-8195-9fcb031efcc5","system_id":"levelo_inurba_marseille","lat":43.302116,"lon":5.394571,"is_reserved":false,"is_disabled":false,"rental_uris":{"android":"levelo://app?vid=eea54417-5c27-4cbd-8195-9fcb031efcc5","ios":"levelo://app?vid=eea54417-5c27-4cbd-8195-9fcb031efcc5"},"vehicle_type_id":"4","last_reported":1712945239,"current_range_meters":0,"station_id":"ce4bh0p2rcd13ifvqd70","pricing_plan_id":"cebpf4jnsgd1na2vs0mg"},{"bike_id":"befb64b0-5951-49ab-b1b5-76d0fe2c098b","system_id":"levelo_inurba_marseille","lat":43.30217,"lon":5.39464,"is_reserved":false,"is_disabled":false,"rental_uris":{"android":"levelo://app?vid=befb64b0-5951-49ab-b1b5-76d0fe2c098b","ios":"levelo://app?vid=befb64b0-5951-49ab-b1b5-76d0fe2c098b"},"vehicle_type_id":"4","last_reported":1712945239,"current_range_meters":0,"station_id":"ce4bh2h2rcd13ifvqdh0","pricing_plan_id":"cebpf4jnsgd1na2vs0mg"},{"bike_id":"81cfba5e-b6d9-4fac-8fc9-c8e7094de355","system_id":"levelo_inurba_marseille","lat":43.30212,"lon":5.39461,"is_reserved":false,"is_disabled":false,"rental_uris":{"android":"levelo://app?vid=81cfba5e-b6d9-4fac-8fc9-c8e7094de355","ios":"levelo://app?vid=81cfba5e-b6d9-4fac-8fc9-c8e7094de355"},"vehicle_type_id":"4","last_reported":1712945239,"current_range_meters":0,"station_id":"ce4bh0p2rcd13ifvqd70","pricing_plan_id":"cebpf4jnsgd1na2vs0mg"},{"bike_id":"77a45382-eb03-481b-9e70-85e84e0c6a3c","system_id":"levelo_inurba_marseille","lat":43.302109,"lon":5.39472,"is_reserved":false,"is_disabled":false,"rental_uris":{"android":"levelo://app?vid=77a45382-eb03-481b-9e70-85e84e0c6a3c","ios":"levelo://app?vid=77a45382-eb03-481b-9e70-85e84e0c6a3c"},"vehicle_type_id":"4","last_reported":1712945239,"current_range_meters":6800,"station_id":"","pricing_plan_id":"cebpf4jnsgd1na2vs0mg"},{"bike_id":"93279aab-671f-46d4-a1d3-6665e6f31a14","system_id":"levelo_inurba_marseille","lat":43.290631,"lon":5.359244,"is_reserved":false,"is_disabled":false,"rental_uris":{"android":"levelo://app?vid=93279aab-671f-46d4-a1d3-6665e6f31a14","ios":"levelo://app?vid=93279aab-671f-46d4-a1d3-6665e6f31a14"},"vehicle_type_id":"4","last_reported":1712945239,"current_range_meters":0,"station_id":"ce4bha92rcd13ifvqeg0","pricing_plan_id":"cebpf4jnsgd1na2vs0mg"},{"bike_id":"98c195ce-59ea-4d6a-b354-4500f7bad9e7","system_id":"levelo_inurba_marseille","lat":43.29423,"lon":5.38615,"is_reserved":false,"is_disabled":false,"rental_uris":{"android":"levelo://app?vid=98c195ce-59ea-4d6a-b354-4500f7bad9e7","ios":"levelo://app?vid=98c195ce-59ea-4d6a-b354-4500f7bad9e7"},"vehicle_type_id":"4","last_reported":1712945239,"current_range_meters":14000,"station_id":"ce4bh2h2rcd13ifvqdh0","pricing_plan_id":"cebpf4jnsgd1na2vs0mg"},{"bike_id":"57d5d154-ede2-4af3-b2a0-e6658763008d","system_id":"levelo_inurba_marseille","lat":43.29423,"lon":5.3862,"is_reserved":false,"is_disabled":false,"rental_uris":{"android":"levelo://app?vid=57d5d154-ede2-4af3-b2a0-e6658763008d","ios":"levelo://app?vid=57d5d154-ede2-4af3-b2a0-e6658763008d"},"vehicle_type_id":"4","last_reported":1712945239,"current_range_meters":0,"station_id":"ce4bh2h2rcd13ifvqdh0","pricing_plan_id":"cebpf4jnsgd1na2vs0mg"},{"bike_id":"ba70d7d5-b3e3-46c3-8d37-7892f3395fbd","system_id":"levelo_inurba_marseille","lat":43.294153,"lon":5.386305,"is_reserved":false,"is_disabled":false,"rental_uris":{"android":"levelo://app?vid=ba70d7d5-b3e3-46c3-8d37-7892f3395fbd","ios":"levelo://app?vid=ba70d7d5-b3e3-46c3-8d37-7892f3395fbd"},"vehicle_type_id":"4","last_reported":1712945239,"current_range_meters":400,"station_id":"ce4bh2h2rcd13ifvqdh0","pricing_plan_id":"cebpf4jnsgd1na2vs0mg"},{"bike_id":"ea710b33-a0b3-4463-a503-856db4480784","system_id":"levelo_inurba_marseille","lat":43.294162,"lon":5.386292,"is_reserved":false,"is_disabled":false,"rental_uris":{"android":"levelo://app?vid=ea710b33-a0b3-4463-a503-856db4480784","ios":"levelo://app?vid=ea710b33-a0b3-4463-a503-856db4480784"},"vehicle_type_id":"4","last_reported":1712945239,"current_range_meters":2400,"station_id":"ce4bh2h2rcd13ifvqdh0","pricing_plan_id":"cebpf4jnsgd1na2vs0mg"},{"bike_id":"643a01ed-5446-4857-9114-95c3f452be89","system_id":"levelo_inurba_marseille","lat":43.29419,"lon":5.38619,"is_reserved":false,"is_disabled":false,"rental_uris":{"android":"levelo://app?vid=643a01ed-5446-4857-9114-95c3f452be89","ios":"levelo://app?vid=643a01ed-5446-4857-9114-95c3f452be89"},"vehicle_type_id":"4","last_reported":1712945239,"current_range_meters":0,"station_id":"ce4bh2h2rcd13ifvqdh0","pricing_plan_id":"cebpf4jnsgd1na2vs0mg"},{"bike_id":"de552ee5-6b84-4197-8c34-1af3c39b663a","system_id":"levelo_inurba_marseille","lat":43.29422,"lon":5.38625,"is_reserved":false,"is_disabled":false,"rental_uris":{"android":"levelo://app?vid=de552ee5-6b84-4197-8c34-1af3c39b663a","ios":"levelo://app?vid=de552ee5-6b84-4197-8c34-1af3c39b663a"},"vehicle_type_id":"4","last_reported":1712945239,"current_range_meters":0,"station_id":"ce4bh2h2rcd13ifvqdh0","pricing_plan_id":"cebpf4jnsgd1na2vs0mg"},{"bike_id":"99f307c4-19ce-433a-806c-9c744a5300ad","system_id":"levelo_inurba_marseille","lat":43.294162,"lon":5.386292,"is_reserved":false,"is_disabled":false,"rental_uris":{"android":"levelo://app?vid=99f307c4-19ce-433a-806c-9c744a5300ad","ios":"levelo://app?vid=99f307c4-19ce-433a-806c-9c744a5300ad"},"vehicle_type_id":"4","last_reported":1712945239,"current_range_meters":10000,"station_id":"ce4bh2h2rcd13ifvqdh0","pricing_plan_id":"cebpf4jnsgd1na2vs0mg"},{"bike_id":"d843c445-142a-4bba-96e3-3479bc52dd1a","system_id":"levelo_inurba_marseille","lat":43.290336,"lon":5.386425,"is_reserved":false,"is_disabled":false,"rental_uris":{"android":"levelo://app?vid=d843c445-142a-4bba-96e3-3479bc52dd1a","ios":"levelo://app?vid=d843c445-142a-4bba-96e3-3479bc52dd1a"},"vehicle_type_id":"4","last_reported":1712945239,"current_range_meters":0,"station_id":"ce4bh4p2rcd13ifvqe0g","pricing_plan_id":"cebpf4jnsgd1na2vs0mg"},{"bike_id":"07cbe056-1ca4-488b-b5c5-67c2bb11169d","system_id":"levelo_inurba_marseille","lat":43.29416,"lon":5.38625,"is_reserved":false,"is_disabled":false,"rental_uris":{"android":"levelo://app?vid=07cbe056-1ca4-488b-b5c5-67c2bb11169d","ios":"levelo://app?vid=07cbe056-1ca4-488b-b5c5-67c2bb11169d"},"vehicle_type_id":"4","last_reported":1712945239,"current_range_meters":0,"station_id":"ce4bh2h2rcd13ifvqdh0","pricing_plan_id":"cebpf4jnsgd1na2vs0mg"},{"bike_id":"04e2da91-07bf-4f61-b13f-45d8666b881c","system_id":"levelo_inurba_marseille","lat":43.294153,"lon":5.386305,"is_reserved":false,"is_disabled":false,"rental_uris":{"android":"levelo://app?vid=04e2da91-07bf-4f61-b13f-45d8666b881c","ios":"levelo://app?vid=04e2da91-07bf-4f61-b13f-45d8666b881c"},"vehicle_type_id":"4","last_reported":1712945239,"current_range_meters":0,"station_id":"ce4bh2h2rcd13ifvqdh0","pricing_plan_id":"cebpf4jnsgd1na2vs0mg"},{"bike_id":"7d976dfa-9f6d-40cb-a24c-b7eb245fc2a6","system_id":"levelo_inurba_marseille","lat":43.28942,"lon":5.36637,"is_reserved":false,"is_disabled":false,"rental_uris":{"android":"levelo://app?vid=7d976dfa-9f6d-40cb-a24c-b7eb245fc2a6","ios":"levelo://app?vid=7d976dfa-9f6d-40cb-a24c-b7eb245fc2a6"},"vehicle_type_id":"4","last_reported":1712945239,"current_range_meters":0,"station_id":"ce4bhap2rcd13ifvqek0","pricing_plan_id":"cebpf4jnsgd1na2vs0mg"},{"bike_id":"5bb9fcab-ab0e-4aac-a41f-3c9be67a9866","system_id":"levelo_inurba_marseille","lat":43.294162,"lon":5.386292,"is_reserved":false,"is_disabled":false,"rental_uris":{"android":"levelo://app?vid=5bb9fcab-ab0e-4aac-a41f-3c9be67a9866","ios":"levelo://app?vid=5bb9fcab-ab0e-4aac-a41f-3c9be67a9866"},"vehicle_type_id":"4","last_reported":1712945239,"current_range_meters":0,"station_id":"ce4bh2h2rcd13ifvqdh0","pricing_plan_id":"cebpf4jnsgd1na2vs0mg"},{"bike_id":"09b8c08e-058d-42fe-9534-fd4e0baa86e2","system_id":"levelo_inurba_marseille","lat":43.2894,"lon":5.36637,"is_reserved":false,"is_disabled":false,"rental_uris":{"android":"levelo://app?vid=09b8c08e-058d-42fe-9534-fd4e0baa86e2","ios":"levelo://app?vid=09b8c08e-058d-42fe-9534-fd4e0baa86e2"},"vehicle_type_id":"4","last_reported":1712945239,"current_range_meters":0,"station_id":"ce4bhap2rcd13ifvqek0","pricing_plan_id":"cebpf4jnsgd1na2vs0mg"},{"bike_id":"79058c86-b5b3-4930-8d38-21db5ef16242","system_id":"levelo_inurba_marseille","lat":43.289184,"lon":5.366408,"is_reserved":false,"is_disabled":false,"rental_uris":{"android":"levelo://app?vid=79058c86-b5b3-4930-8d38-21db5ef16242","ios":"levelo://app?vid=79058c86-b5b3-4930-8d38-21db5ef16242"},"vehicle_type_id":"4","last_reported":1712945239,"current_range_meters":15200,"station_id":"ce4bhap2rcd13ifvqek0","pricing_plan_id":"cebpf4jnsgd1na2vs0mg"},{"bike_id":"83091f70-b4d5-435b-8fe9-812e19390210","system_id":"levelo_inurba_marseille","lat":43.289297,"lon":5.366442,"is_reserved":false,"is_disabled":false,"rental_uris":{"android":"levelo://app?vid=83091f70-b4d5-435b-8fe9-812e19390210","ios":"levelo://app?vid=83091f70-b4d5-435b-8fe9-812e19390210"},"vehicle_type_id":"4","last_reported":1712945239,"current_range_meters":0,"station_id":"ce4bhap2rcd13ifvqek0","pricing_plan_id":"cebpf4jnsgd1na2vs0mg"},{"bike_id":"9b1af769-5fcf-4dd4-aa07-83c67bf8f7e8","system_id":"levelo_inurba_marseille","lat":43.292629,"lon":5.384029,"is_reserved":false,"is_disabled":false,"rental_uris":{"android":"levelo://app?vid=9b1af769-5fcf-4dd4-aa07-83c67bf8f7e8","ios":"levelo://app?vid=9b1af769-5fcf-4dd4-aa07-83c67bf8f7e8"},"vehicle_type_id":"4","last_reported":1712945239,"current_range_meters":0,"station_id":"ce4bh692rcd13ifvqea0","pricing_plan_id":"cebpf4jnsgd1na2vs0mg"},{"bike_id":"3b8133ab-34f3-4597-bbe3-2366f54c8aa4","system_id":"levelo_inurba_marseille","lat":43.290624,"lon":5.359245,"is_reserved":false,"is_disabled":false,"rental_uris":{"android":"levelo://app?vid=3b8133ab-34f3-4597-bbe3-2366f54c8aa4","ios":"levelo://app?vid=3b8133ab-34f3-4597-bbe3-2366f54c8aa4"},"vehicle_type_id":"4","last_reported":1712945239,"current_range_meters":400,"station_id":"ce4bha92rcd13ifvqeg0","pricing_plan_id":"cebpf4jnsgd1na2vs0mg"},{"bike_id":"a675528b-8ce7-48b6-bc6c-d41ccd861875","system_id":"levelo_inurba_marseille","lat":43.29272,"lon":5.3844,"is_reserved":false,"is_disabled":false,"rental_uris":{"android":"levelo://app?vid=a675528b-8ce7-48b6-bc6c-d41ccd861875","ios":"levelo://app?vid=a675528b-8ce7-48b6-bc6c-d41ccd861875"},"vehicle_type_id":"4","last_reported":1712945239,"current_range_meters":0,"station_id":"ce4bh692rcd13ifvqea0","pricing_plan_id":"cebpf4jnsgd1na2vs0mg"},{"bike_id":"abb8a271-4a32-4b22-ab06-aa134059df73","system_id":"levelo_inurba_marseille","lat":43.2479,"lon":5.374457,"is_reserved":false,"is_disabled":false,"rental_uris":{"android":"levelo://app?vid=abb8a271-4a32-4b22-ab06-aa134059df73","ios":"levelo://app?vid=abb8a271-4a32-4b22-ab06-aa134059df73"},"vehicle_type_id":"4","last_reported":1712945239,"current_range_meters":6400,"station_id":"ce4bhgh2rcd13ifvqfb0","pricing_plan_id":"cebpf4jnsgd1na2vs0mg"},{"bike_id":"965fc34f-ae13-45bf-8abd-bd100a4d82bf","system_id":"levelo_inurba_marseille","lat":43.304296,"lon":5.397513,"is_reserved":false,"is_disabled":false,"rental_uris":{"android":"levelo://app?vid=965fc34f-ae13-45bf-8abd-bd100a4d82bf","ios":"levelo://app?vid=965fc34f-ae13-45bf-8abd-bd100a4d82bf"},"vehicle_type_id":"4","last_reported":1712945239,"current_range_meters":800,"station_id":"ce4bh092rcd13ifvqd20","pricing_plan_id":"cebpf4jnsgd1na2vs0mg"},{"bike_id":"280e4bd0-de66-4ede-81ea-f53dff1e4568","system_id":"levelo_inurba_marseille","lat":43.29266,"lon":5.38432,"is_reserved":false,"is_disabled":false,"rental_uris":{"android":"levelo://app?vid=280e4bd0-de66-4ede-81ea-f53dff1e4568","ios":"levelo://app?vid=280e4bd0-de66-4ede-81ea-f53dff1e4568"},"vehicle_type_id":"4","last_reported":1712945239,"current_range_meters":0,"station_id":"ce4bh692rcd13ifvqea0","pricing_plan_id":"cebpf4jnsgd1na2vs0mg"},{"bike_id":"bb8de010-9c80-4b6d-aa68-3df192ed7974","system_id":"levelo_inurba_marseille","lat":43.29266,"lon":5.38442,"is_reserved":false,"is_disabled":false,"rental_uris":{"android":"levelo://app?vid=bb8de010-9c80-4b6d-aa68-3df192ed7974","ios":"levelo://app?vid=bb8de010-9c80-4b6d-aa68-3df192ed7974"},"vehicle_type_id":"4","last_reported":1712945239,"current_range_meters":0,"station_id":"ce4bh692rcd13ifvqea0","pricing_plan_id":"cebpf4jnsgd1na2vs0mg"},{"bike_id":"68051a04-18d9-4a54-9e19-c33903be2bf4","system_id":"levelo_inurba_marseille","lat":43.29262,"lon":5.3844,"is_reserved":false,"is_disabled":false,"rental_uris":{"android":"levelo://app?vid=68051a04-18d9-4a54-9e19-c33903be2bf4","ios":"levelo://app?vid=68051a04-18d9-4a54-9e19-c33903be2bf4"},"vehicle_type_id":"4","last_reported":1712945239,"current_range_meters":800,"station_id":"ce4bh692rcd13ifvqea0","pricing_plan_id":"cebpf4jnsgd1na2vs0mg"},{"bike_id":"f9e06589-7c88-42ae-91ff-ed49174021e5","system_id":"levelo_inurba_marseille","lat":43.29261,"lon":5.38439,"is_reserved":false,"is_disabled":false,"rental_uris":{"android":"levelo://app?vid=f9e06589-7c88-42ae-91ff-ed49174021e5","ios":"levelo://app?vid=f9e06589-7c88-42ae-91ff-ed49174021e5"},"vehicle_type_id":"4","last_reported":1712945239,"current_range_meters":0,"station_id":"ce4bh692rcd13ifvqea0","pricing_plan_id":"cebpf4jnsgd1na2vs0mg"},{"bike_id":"b1c82a1e-daf7-43ec-ba59-2b5bcf4ca258","system_id":"levelo_inurba_marseille","lat":43.29026,"lon":5.378308,"is_reserved":false,"is_disabled":false,"rental_uris":{"android":"levelo://app?vid=b1c82a1e-daf7-43ec-ba59-2b5bcf4ca258","ios":"levelo://app?vid=b1c82a1e-daf7-43ec-ba59-2b5bcf4ca258"},"vehicle_type_id":"4","last_reported":1712945239,"current_range_meters":0,"station_id":"","pricing_plan_id":"cebpf4jnsgd1na2vs0mg"},{"bike_id":"c19585ca-fcc8-4586-bed7-731d2dbc67c8","system_id":"levelo_inurba_marseille","lat":43.290104,"lon":5.356111,"is_reserved":false,"is_disabled":false,"rental_uris":{"android":"levelo://app?vid=c19585ca-fcc8-4586-bed7-731d2dbc67c8","ios":"levelo://app?vid=c19585ca-fcc8-4586-bed7-731d2dbc67c8"},"vehicle_type_id":"4","last_reported":1712945239,"current_range_meters":0,"station_id":"ce4bhb92rcd13ifvqen0","pricing_plan_id":"cebpf4jnsgd1na2vs0mg"},{"bike_id":"ab0e4009-0cc0-452f-8ef6-881aee953f84","system_id":"levelo_inurba_marseille","lat":43.290104,"lon":5.356111,"is_reserved":false,"is_disabled":false,"rental_uris":{"android":"levelo://app?vid=ab0e4009-0cc0-452f-8ef6-881aee953f84","ios":"levelo://app?vid=ab0e4009-0cc0-452f-8ef6-881aee953f84"},"vehicle_type_id":"4","last_reported":1712945239,"current_range_meters":0,"station_id":"ce4bhb92rcd13ifvqen0","pricing_plan_id":"cebpf4jnsgd1na2vs0mg"},{"bike_id":"f24b9fa1-a36e-4b7f-acd7-7d9492d4d3d7","system_id":"levelo_inurba_marseille","lat":43.290103,"lon":5.356114,"is_reserved":false,"is_disabled":false,"rental_uris":{"android":"levelo://app?vid=f24b9fa1-a36e-4b7f-acd7-7d9492d4d3d7","ios":"levelo://app?vid=f24b9fa1-a36e-4b7f-acd7-7d9492d4d3d7"},"vehicle_type_id":"4","last_reported":1712945239,"current_range_meters":0,"station_id":"ce4bhb92rcd13ifvqen0","pricing_plan_id":"cebpf4jnsgd1na2vs0mg"},{"bike_id":"3e8eb6a9-5302-4ea7-9cff-b5be9eb75c79","system_id":"levelo_inurba_marseille","lat":43.29004,"lon":5.35611,"is_reserved":false,"is_disabled":false,"rental_uris":{"android":"levelo://app?vid=3e8eb6a9-5302-4ea7-9cff-b5be9eb75c79","ios":"levelo://app?vid=3e8eb6a9-5302-4ea7-9cff-b5be9eb75c79"},"vehicle_type_id":"4","last_reported":1712945239,"current_range_meters":0,"station_id":"ce4bhb92rcd13ifvqen0","pricing_plan_id":"cebpf4jnsgd1na2vs0mg"},{"bike_id":"c7bdea25-4469-4931-9f49-c5c0eced6715","system_id":"levelo_inurba_marseille","lat":43.290995,"lon":5.381361,"is_reserved":false,"is_disabled":false,"rental_uris":{"android":"levelo://app?vid=c7bdea25-4469-4931-9f49-c5c0eced6715","ios":"levelo://app?vid=c7bdea25-4469-4931-9f49-c5c0eced6715"},"vehicle_type_id":"4","last_reported":1712945239,"current_range_meters":800,"station_id":"ce4bh512rcd13ifvqe2g","pricing_plan_id":"cebpf4jnsgd1na2vs0mg"},{"bike_id":"3a141ae0-ad8f-47ad-849a-62e05e5db828","system_id":"levelo_inurba_marseille","lat":43.290995,"lon":5.381361,"is_reserved":false,"is_disabled":false,"rental_uris":{"android":"levelo://app?vid=3a141ae0-ad8f-47ad-849a-62e05e5db828","ios":"levelo://app?vid=3a141ae0-ad8f-47ad-849a-62e05e5db828"},"vehicle_type_id":"4","last_reported":1712945239,"current_range_meters":400,"station_id":"ce4bh512rcd13ifvqe2g","pricing_plan_id":"cebpf4jnsgd1na2vs0mg"},{"bike_id":"1d4cdae6-9815-4f8f-9aa2-637a19e72f7c","system_id":"levelo_inurba_marseille","lat":43.290995,"lon":5.381361,"is_reserved":false,"is_disabled":false,"rental_uris":{"android":"levelo://app?vid=1d4cdae6-9815-4f8f-9aa2-637a19e72f7c","ios":"levelo://app?vid=1d4cdae6-9815-4f8f-9aa2-637a19e72f7c"},"vehicle_type_id":"4","last_reported":1712945239,"current_range_meters":9600,"station_id":"ce4bh512rcd13ifvqe2g","pricing_plan_id":"cebpf4jnsgd1na2vs0mg"},{"bike_id":"87d3f451-19af-40f0-9548-c7c26d6efaf2","system_id":"levelo_inurba_marseille","lat":43.291,"lon":5.38143,"is_reserved":false,"is_disabled":false,"rental_uris":{"android":"levelo://app?vid=87d3f451-19af-40f0-9548-c7c26d6efaf2","ios":"levelo://app?vid=87d3f451-19af-40f0-9548-c7c26d6efaf2"},"vehicle_type_id":"4","last_reported":1712945239,"current_range_meters":0,"station_id":"ce4bh512rcd13ifvqe2g","pricing_plan_id":"cebpf4jnsgd1na2vs0mg"},{"bike_id":"92f0c696-3a94-485e-a1c8-d12aa23acbee","system_id":"levelo_inurba_marseille","lat":43.290995,"lon":5.381361,"is_reserved":false,"is_disabled":false,"rental_uris":{"android":"levelo://app?vid=92f0c696-3a94-485e-a1c8-d12aa23acbee","ios":"levelo://app?vid=92f0c696-3a94-485e-a1c8-d12aa23acbee"},"vehicle_type_id":"4","last_reported":1712945239,"current_range_meters":26400,"station_id":"ce4bh512rcd13ifvqe2g","pricing_plan_id":"cebpf4jnsgd1na2vs0mg"},{"bike_id":"6a4fc5b9-3b7f-4f76-b33d-1131ec14453e","system_id":"levelo_inurba_marseille","lat":43.29776,"lon":5.39336,"is_reserved":false,"is_disabled":false,"rental_uris":{"android":"levelo://app?vid=6a4fc5b9-3b7f-4f76-b33d-1131ec14453e","ios":"levelo://app?vid=6a4fc5b9-3b7f-4f76-b33d-1131ec14453e"},"vehicle_type_id":"4","last_reported":1712945239,"current_range_meters":0,"station_id":"chh1huq6cuj3fo74tm60","pricing_plan_id":"cebpf4jnsgd1na2vs0mg"},{"bike_id":"5dae9644-dd0f-410d-abb5-524a29880aec","system_id":"levelo_inurba_marseille","lat":43.297814,"lon":5.393513,"is_reserved":false,"is_disabled":false,"rental_uris":{"android":"levelo://app?vid=5dae9644-dd0f-410d-abb5-524a29880aec","ios":"levelo://app?vid=5dae9644-dd0f-410d-abb5-524a29880aec"},"vehicle_type_id":"4","last_reported":1712945239,"current_range_meters":0,"station_id":"chh1huq6cuj3fo74tm60","pricing_plan_id":"cebpf4jnsgd1na2vs0mg"},{"bike_id":"69445aeb-b9c0-44a4-a68f-347c1fa2c76e","system_id":"levelo_inurba_marseille","lat":43.295169,"lon":5.390426,"is_reserved":false,"is_disabled":false,"rental_uris":{"android":"levelo://app?vid=69445aeb-b9c0-44a4-a68f-347c1fa2c76e","ios":"levelo://app?vid=69445aeb-b9c0-44a4-a68f-347c1fa2c76e"},"vehicle_type_id":"4","last_reported":1712945239,"current_range_meters":5200,"station_id":"ce4bh3p2rcd13ifvqdp0","pricing_plan_id":"cebpf4jnsgd1na2vs0mg"},{"bike_id":"d312e48f-2964-43a7-90ff-2aa56d5e76d2","system_id":"levelo_inurba_marseille","lat":43.330442,"lon":5.389148,"is_reserved":false,"is_disabled":false,"rental_uris":{"android":"levelo://app?vid=d312e48f-2964-43a7-90ff-2aa56d5e76d2","ios":"levelo://app?vid=d312e48f-2964-43a7-90ff-2aa56d5e76d2"},"vehicle_type_id":"4","last_reported":1712945239,"current_range_meters":12000,"station_id":"ce4bhr92rcd13ifvqhrg","pricing_plan_id":"cebpf4jnsgd1na2vs0mg"},{"bike_id":"2b156375-88ad-4892-a6f1-b6bd3ec9c9b4","system_id":"levelo_inurba_marseille","lat":43.330442,"lon":5.389148,"is_reserved":false,"is_disabled":false,"rental_uris":{"android":"levelo://app?vid=2b156375-88ad-4892-a6f1-b6bd3ec9c9b4","ios":"levelo://app?vid=2b156375-88ad-4892-a6f1-b6bd3ec9c9b4"},"vehicle_type_id":"4","last_reported":1712945239,"current_range_meters":14400,"station_id":"ce4bhr92rcd13ifvqhrg","pricing_plan_id":"cebpf4jnsgd1na2vs0mg"},{"bike_id":"ad9efc8f-4769-4c52-a387-fce41491e324","system_id":"levelo_inurba_marseille","lat":43.330442,"lon":5.389148,"is_reserved":false,"is_disabled":false,"rental_uris":{"android":"levelo://app?vid=ad9efc8f-4769-4c52-a387-fce41491e324","ios":"levelo://app?vid=ad9efc8f-4769-4c52-a387-fce41491e324"},"vehicle_type_id":"4","last_reported":1712945239,"current_range_meters":1600,"station_id":"ce4bhr92rcd13ifvqhrg","pricing_plan_id":"cebpf4jnsgd1na2vs0mg"},{"bike_id":"921f1847-1891-49be-892d-1e9504f8f11f","system_id":"levelo_inurba_marseille","lat":43.295169,"lon":5.390426,"is_reserved":false,"is_disabled":false,"rental_uris":{"android":"levelo://app?vid=921f1847-1891-49be-892d-1e9504f8f11f","ios":"levelo://app?vid=921f1847-1891-49be-892d-1e9504f8f11f"},"vehicle_type_id":"4","last_reported":1712945239,"current_range_meters":2800,"station_id":"ce4bh3p2rcd13ifvqdp0","pricing_plan_id":"cebpf4jnsgd1na2vs0mg"},{"bike_id":"998e53b0-c8b4-4e20-b0fe-c3da51333478","system_id":"levelo_inurba_marseille","lat":43.330442,"lon":5.389148,"is_reserved":false,"is_disabled":false,"rental_uris":{"android":"levelo://app?vid=998e53b0-c8b4-4e20-b0fe-c3da51333478","ios":"levelo://app?vid=998e53b0-c8b4-4e20-b0fe-c3da51333478"},"vehicle_type_id":"4","last_reported":1712945239,"current_range_meters":21200,"station_id":"ce4bhr92rcd13ifvqhrg","pricing_plan_id":"cebpf4jnsgd1na2vs0mg"},{"bike_id":"00bcbd66-4d48-4773-a113-6d06a2dbd2d7","system_id":"levelo_inurba_marseille","lat":43.2901,"lon":5.381269,"is_reserved":false,"is_disabled":false,"rental_uris":{"android":"levelo://app?vid=00bcbd66-4d48-4773-a113-6d06a2dbd2d7","ios":"levelo://app?vid=00bcbd66-4d48-4773-a113-6d06a2dbd2d7"},"vehicle_type_id":"4","last_reported":1712945239,"current_range_meters":5200,"station_id":"ce4bh4p2rcd13ifvqe1g","pricing_plan_id":"cebpf4jnsgd1na2vs0mg"},{"bike_id":"323a4b2a-7ea9-4bd1-921e-7b43bfb171df","system_id":"levelo_inurba_marseille","lat":43.295169,"lon":5.390426,"is_reserved":false,"is_disabled":false,"rental_uris":{"android":"levelo://app?vid=323a4b2a-7ea9-4bd1-921e-7b43bfb171df","ios":"levelo://app?vid=323a4b2a-7ea9-4bd1-921e-7b43bfb171df"},"vehicle_type_id":"4","last_reported":1712945239,"current_range_meters":14400,"station_id":"ce4bh3p2rcd13ifvqdp0","pricing_plan_id":"cebpf4jnsgd1na2vs0mg"},{"bike_id":"32ed05b6-0c42-4abb-847e-1dd820248ecc","system_id":"levelo_inurba_marseille","lat":43.290094,"lon":5.381264,"is_reserved":false,"is_disabled":false,"rental_uris":{"android":"levelo://app?vid=32ed05b6-0c42-4abb-847e-1dd820248ecc","ios":"levelo://app?vid=32ed05b6-0c42-4abb-847e-1dd820248ecc"},"vehicle_type_id":"4","last_reported":1712945239,"current_range_meters":800,"station_id":"ce4bh4p2rcd13ifvqe1g","pricing_plan_id":"cebpf4jnsgd1na2vs0mg"},{"bike_id":"68203a75-bccb-46e7-9854-652e932573eb","system_id":"levelo_inurba_marseille","lat":43.312609,"lon":5.401662,"is_reserved":false,"is_disabled":false,"rental_uris":{"android":"levelo://app?vid=68203a75-bccb-46e7-9854-652e932573eb","ios":"levelo://app?vid=68203a75-bccb-46e7-9854-652e932573eb"},"vehicle_type_id":"4","last_reported":1712945239,"current_range_meters":11200,"station_id":"ce4bh092rcd13ifvqd30","pricing_plan_id":"cebpf4jnsgd1na2vs0mg"},{"bike_id":"1957deff-e996-4bc2-adb9-1ee6d51918e9","system_id":"levelo_inurba_marseille","lat":43.2901,"lon":5.381269,"is_reserved":false,"is_disabled":false,"rental_uris":{"android":"levelo://app?vid=1957deff-e996-4bc2-adb9-1ee6d51918e9","ios":"levelo://app?vid=1957deff-e996-4bc2-adb9-1ee6d51918e9"},"vehicle_type_id":"4","last_reported":1712945239,"current_range_meters":0,"station_id":"ce4bh4p2rcd13ifvqe1g","pricing_plan_id":"cebpf4jnsgd1na2vs0mg"},{"bike_id":"011cca8f-3c6d-4bfb-ae84-84d557028b56","system_id":"levelo_inurba_marseille","lat":43.290094,"lon":5.381264,"is_reserved":false,"is_disabled":false,"rental_uris":{"android":"levelo://app?vid=011cca8f-3c6d-4bfb-ae84-84d557028b56","ios":"levelo://app?vid=011cca8f-3c6d-4bfb-ae84-84d557028b56"},"vehicle_type_id":"4","last_reported":1712945239,"current_range_meters":0,"station_id":"ce4bh4p2rcd13ifvqe1g","pricing_plan_id":"cebpf4jnsgd1na2vs0mg"},{"bike_id":"d8641095-2343-4660-9560-8d15a376c480","system_id":"levelo_inurba_marseille","lat":43.29022,"lon":5.38145,"is_reserved":false,"is_disabled":false,"rental_uris":{"android":"levelo://app?vid=d8641095-2343-4660-9560-8d15a376c480","ios":"levelo://app?vid=d8641095-2343-4660-9560-8d15a376c480"},"vehicle_type_id":"4","last_reported":1712945239,"current_range_meters":0,"station_id":"ce4bh4p2rcd13ifvqe1g","pricing_plan_id":"cebpf4jnsgd1na2vs0mg"},{"bike_id":"59ff6581-fb8d-4540-bc09-86a668584e67","system_id":"levelo_inurba_marseille","lat":43.28856,"lon":5.358371,"is_reserved":false,"is_disabled":false,"rental_uris":{"android":"levelo://app?vid=59ff6581-fb8d-4540-bc09-86a668584e67","ios":"levelo://app?vid=59ff6581-fb8d-4540-bc09-86a668584e67"},"vehicle_type_id":"4","last_reported":1712945239,"current_range_meters":1600,"station_id":"ce4bhb12rcd13ifvqem0","pricing_plan_id":"cebpf4jnsgd1na2vs0mg"},{"bike_id":"5b0b4281-aa8c-4d22-8149-6cc8867a3d36","system_id":"levelo_inurba_marseille","lat":43.290094,"lon":5.381264,"is_reserved":false,"is_disabled":false,"rental_uris":{"android":"levelo://app?vid=5b0b4281-aa8c-4d22-8149-6cc8867a3d36","ios":"levelo://app?vid=5b0b4281-aa8c-4d22-8149-6cc8867a3d36"},"vehicle_type_id":"4","last_reported":1712945239,"current_range_meters":0,"station_id":"ce4bh4p2rcd13ifvqe1g","pricing_plan_id":"cebpf4jnsgd1na2vs0mg"},{"bike_id":"4bf3e806-7d2d-41eb-a92b-8f294d86849c","system_id":"levelo_inurba_marseille","lat":43.2885,"lon":5.35836,"is_reserved":false,"is_disabled":false,"rental_uris":{"android":"levelo://app?vid=4bf3e806-7d2d-41eb-a92b-8f294d86849c","ios":"levelo://app?vid=4bf3e806-7d2d-41eb-a92b-8f294d86849c"},"vehicle_type_id":"4","last_reported":1712945239,"current_range_meters":0,"station_id":"ce4bhb12rcd13ifvqem0","pricing_plan_id":"cebpf4jnsgd1na2vs0mg"},{"bike_id":"4000d6d8-bcbd-481e-a13b-16a46642931b","system_id":"levelo_inurba_marseille","lat":43.28847,"lon":5.358493,"is_reserved":false,"is_disabled":false,"rental_uris":{"android":"levelo://app?vid=4000d6d8-bcbd-481e-a13b-16a46642931b","ios":"levelo://app?vid=4000d6d8-bcbd-481e-a13b-16a46642931b"},"vehicle_type_id":"4","last_reported":1712945239,"current_range_meters":0,"station_id":"ce4bhb12rcd13ifvqem0","pricing_plan_id":"cebpf4jnsgd1na2vs0mg"},{"bike_id":"347c8af9-4240-427c-ad3e-59af9c81c7f6","system_id":"levelo_inurba_marseille","lat":43.312609,"lon":5.401662,"is_reserved":false,"is_disabled":false,"rental_uris":{"android":"levelo://app?vid=347c8af9-4240-427c-ad3e-59af9c81c7f6","ios":"levelo://app?vid=347c8af9-4240-427c-ad3e-59af9c81c7f6"},"vehicle_type_id":"4","last_reported":1712945239,"current_range_meters":7200,"station_id":"ce4bh092rcd13ifvqd30","pricing_plan_id":"cebpf4jnsgd1na2vs0mg"},{"bike_id":"97551275-dfbe-403e-aacb-4be4223f6313","system_id":"levelo_inurba_marseille","lat":43.309349,"lon":5.4014,"is_reserved":false,"is_disabled":false,"rental_uris":{"android":"levelo://app?vid=97551275-dfbe-403e-aacb-4be4223f6313","ios":"levelo://app?vid=97551275-dfbe-403e-aacb-4be4223f6313"},"vehicle_type_id":"4","last_reported":1712945239,"current_range_meters":0,"station_id":"","pricing_plan_id":"cebpf4jnsgd1na2vs0mg"},{"bike_id":"0c4667ee-99e5-435b-a28a-f1b7dfcd6b6f","system_id":"levelo_inurba_marseille","lat":43.290723,"lon":5.384091,"is_reserved":false,"is_disabled":false,"rental_uris":{"android":"levelo://app?vid=0c4667ee-99e5-435b-a28a-f1b7dfcd6b6f","ios":"levelo://app?vid=0c4667ee-99e5-435b-a28a-f1b7dfcd6b6f"},"vehicle_type_id":"4","last_reported":1712945239,"current_range_meters":4000,"station_id":"","pricing_plan_id":"cebpf4jnsgd1na2vs0mg"},{"bike_id":"cfba0148-07c9-43c6-ac6b-6cba1da2b33f","system_id":"levelo_inurba_marseille","lat":43.309371,"lon":5.401449,"is_reserved":false,"is_disabled":false,"rental_uris":{"android":"levelo://app?vid=cfba0148-07c9-43c6-ac6b-6cba1da2b33f","ios":"levelo://app?vid=cfba0148-07c9-43c6-ac6b-6cba1da2b33f"},"vehicle_type_id":"4","last_reported":1712945239,"current_range_meters":4800,"station_id":"ce4bgvp2rcd13ifvqct0","pricing_plan_id":"cebpf4jnsgd1na2vs0mg"},{"bike_id":"2f4d7358-4082-42bb-8ce8-98c47a448c5d","system_id":"levelo_inurba_marseille","lat":43.309371,"lon":5.401449,"is_reserved":false,"is_disabled":false,"rental_uris":{"android":"levelo://app?vid=2f4d7358-4082-42bb-8ce8-98c47a448c5d","ios":"levelo://app?vid=2f4d7358-4082-42bb-8ce8-98c47a448c5d"},"vehicle_type_id":"4","last_reported":1712945239,"current_range_meters":0,"station_id":"ce4bgvp2rcd13ifvqct0","pricing_plan_id":"cebpf4jnsgd1na2vs0mg"},{"bike_id":"63863331-10d3-4efc-94ad-b46b08ff4121","system_id":"levelo_inurba_marseille","lat":43.309371,"lon":5.401449,"is_reserved":false,"is_disabled":false,"rental_uris":{"android":"levelo://app?vid=63863331-10d3-4efc-94ad-b46b08ff4121","ios":"levelo://app?vid=63863331-10d3-4efc-94ad-b46b08ff4121"},"vehicle_type_id":"4","last_reported":1712945239,"current_range_meters":26000,"station_id":"ce4bgvp2rcd13ifvqct0","pricing_plan_id":"cebpf4jnsgd1na2vs0mg"},{"bike_id":"a337a3f1-764e-4ead-a8b7-9779c5acdb28","system_id":"levelo_inurba_marseille","lat":43.33753,"lon":5.3745,"is_reserved":false,"is_disabled":false,"rental_uris":{"android":"levelo://app?vid=a337a3f1-764e-4ead-a8b7-9779c5acdb28","ios":"levelo://app?vid=a337a3f1-764e-4ead-a8b7-9779c5acdb28"},"vehicle_type_id":"4","last_reported":1712945239,"current_range_meters":27200,"station_id":"","pricing_plan_id":"cebpf4jnsgd1na2vs0mg"},{"bike_id":"f647137f-b375-497e-9c39-611dd7629859","system_id":"levelo_inurba_marseille","lat":43.312609,"lon":5.401662,"is_reserved":false,"is_disabled":false,"rental_uris":{"android":"levelo://app?vid=f647137f-b375-497e-9c39-611dd7629859","ios":"levelo://app?vid=f647137f-b375-497e-9c39-611dd7629859"},"vehicle_type_id":"4","last_reported":1712945239,"current_range_meters":6000,"station_id":"ce4bh092rcd13ifvqd30","pricing_plan_id":"cebpf4jnsgd1na2vs0mg"},{"bike_id":"d3ea26f4-7d4d-45b7-8172-0133ecd9329b","system_id":"levelo_inurba_marseille","lat":43.337549,"lon":5.374543,"is_reserved":false,"is_disabled":false,"rental_uris":{"android":"levelo://app?vid=d3ea26f4-7d4d-45b7-8172-0133ecd9329b","ios":"levelo://app?vid=d3ea26f4-7d4d-45b7-8172-0133ecd9329b"},"vehicle_type_id":"4","last_reported":1712945239,"current_range_meters":26800,"station_id":"","pricing_plan_id":"cebpf4jnsgd1na2vs0mg"},{"bike_id":"6276b9a0-0d16-405e-89f1-f13b01208b34","system_id":"levelo_inurba_marseille","lat":43.309371,"lon":5.401449,"is_reserved":false,"is_disabled":false,"rental_uris":{"android":"levelo://app?vid=6276b9a0-0d16-405e-89f1-f13b01208b34","ios":"levelo://app?vid=6276b9a0-0d16-405e-89f1-f13b01208b34"},"vehicle_type_id":"4","last_reported":1712945239,"current_range_meters":0,"station_id":"ce4bgvp2rcd13ifvqct0","pricing_plan_id":"cebpf4jnsgd1na2vs0mg"},{"bike_id":"812d7c91-8313-4bca-b8ac-8e9778f4cf34","system_id":"levelo_inurba_marseille","lat":43.3093,"lon":5.40158,"is_reserved":false,"is_disabled":false,"rental_uris":{"android":"levelo://app?vid=812d7c91-8313-4bca-b8ac-8e9778f4cf34","ios":"levelo://app?vid=812d7c91-8313-4bca-b8ac-8e9778f4cf34"},"vehicle_type_id":"4","last_reported":1712945239,"current_range_meters":0,"station_id":"ce4bgvp2rcd13ifvqct0","pricing_plan_id":"cebpf4jnsgd1na2vs0mg"},{"bike_id":"774f6500-6424-427c-8133-e4987961144c","system_id":"levelo_inurba_marseille","lat":43.33754,"lon":5.374806,"is_reserved":false,"is_disabled":false,"rental_uris":{"android":"levelo://app?vid=774f6500-6424-427c-8133-e4987961144c","ios":"levelo://app?vid=774f6500-6424-427c-8133-e4987961144c"},"vehicle_type_id":"4","last_reported":1712945239,"current_range_meters":1600,"station_id":"","pricing_plan_id":"cebpf4jnsgd1na2vs0mg"},{"bike_id":"8259618f-656d-4ad9-948e-f2772838a732","system_id":"levelo_inurba_marseille","lat":43.30642,"lon":5.401031,"is_reserved":false,"is_disabled":false,"rental_uris":{"android":"levelo://app?vid=8259618f-656d-4ad9-948e-f2772838a732","ios":"levelo://app?vid=8259618f-656d-4ad9-948e-f2772838a732"},"vehicle_type_id":"4","last_reported":1712945239,"current_range_meters":11600,"station_id":"ce4bh112rcd13ifvqda0","pricing_plan_id":"cebpf4jnsgd1na2vs0mg"},{"bike_id":"f30fccaa-1ba8-4d22-a351-c92a92247b02","system_id":"levelo_inurba_marseille","lat":43.306412,"lon":5.401035,"is_reserved":false,"is_disabled":false,"rental_uris":{"android":"levelo://app?vid=f30fccaa-1ba8-4d22-a351-c92a92247b02","ios":"levelo://app?vid=f30fccaa-1ba8-4d22-a351-c92a92247b02"},"vehicle_type_id":"4","last_reported":1712945239,"current_range_meters":3600,"station_id":"ce4bh112rcd13ifvqda0","pricing_plan_id":"cebpf4jnsgd1na2vs0mg"},{"bike_id":"f411344d-2d30-4f75-8b2f-89788c06a728","system_id":"levelo_inurba_marseille","lat":43.30142,"lon":5.39859,"is_reserved":false,"is_disabled":false,"rental_uris":{"android":"levelo://app?vid=f411344d-2d30-4f75-8b2f-89788c06a728","ios":"levelo://app?vid=f411344d-2d30-4f75-8b2f-89788c06a728"},"vehicle_type_id":"4","last_reported":1712945239,"current_range_meters":0,"station_id":"ce4bh0h2rcd13ifvqd40","pricing_plan_id":"cebpf4jnsgd1na2vs0mg"},{"bike_id":"0e8d4e74-a376-472f-8ec3-91f1adb096fd","system_id":"levelo_inurba_marseille","lat":43.3013,"lon":5.39866,"is_reserved":false,"is_disabled":false,"rental_uris":{"android":"levelo://app?vid=0e8d4e74-a376-472f-8ec3-91f1adb096fd","ios":"levelo://app?vid=0e8d4e74-a376-472f-8ec3-91f1adb096fd"},"vehicle_type_id":"4","last_reported":1712945239,"current_range_meters":0,"station_id":"ce4bh0h2rcd13ifvqd40","pricing_plan_id":"cebpf4jnsgd1na2vs0mg"},{"bike_id":"bee54934-e652-4b1d-bd0e-95da9705dced","system_id":"levelo_inurba_marseille","lat":43.286961,"lon":5.373785,"is_reserved":false,"is_disabled":false,"rental_uris":{"android":"levelo://app?vid=bee54934-e652-4b1d-bd0e-95da9705dced","ios":"levelo://app?vid=bee54934-e652-4b1d-bd0e-95da9705dced"},"vehicle_type_id":"4","last_reported":1712945239,"current_range_meters":1600,"station_id":"ce4bh3p2rcd13ifvqdq0","pricing_plan_id":"cebpf4jnsgd1na2vs0mg"},{"bike_id":"fedeb795-015a-4763-be5e-6eded488c4d8","system_id":"levelo_inurba_marseille","lat":43.286591,"lon":5.363346,"is_reserved":false,"is_disabled":false,"rental_uris":{"android":"levelo://app?vid=fedeb795-015a-4763-be5e-6eded488c4d8","ios":"levelo://app?vid=fedeb795-015a-4763-be5e-6eded488c4d8"},"vehicle_type_id":"4","last_reported":1712945239,"current_range_meters":4800,"station_id":"ce4bhah2rcd13ifvqej0","pricing_plan_id":"cebpf4jnsgd1na2vs0mg"},{"bike_id":"e091c2d6-5906-40b1-b9cd-1f9a40d9cd32","system_id":"levelo_inurba_marseille","lat":43.29871,"lon":5.39739,"is_reserved":false,"is_disabled":false,"rental_uris":{"android":"levelo://app?vid=e091c2d6-5906-40b1-b9cd-1f9a40d9cd32","ios":"levelo://app?vid=e091c2d6-5906-40b1-b9cd-1f9a40d9cd32"},"vehicle_type_id":"4","last_reported":1712945239,"current_range_meters":0,"station_id":"ce4bh0h2rcd13ifvqd50","pricing_plan_id":"cebpf4jnsgd1na2vs0mg"},{"bike_id":"0212e4a9-c04b-46fb-9330-def0e026a752","system_id":"levelo_inurba_marseille","lat":43.295194,"lon":5.39397,"is_reserved":false,"is_disabled":false,"rental_uris":{"android":"levelo://app?vid=0212e4a9-c04b-46fb-9330-def0e026a752","ios":"levelo://app?vid=0212e4a9-c04b-46fb-9330-def0e026a752"},"vehicle_type_id":"4","last_reported":1712945239,"current_range_meters":12800,"station_id":"ce4bh292rcd13ifvqdf0","pricing_plan_id":"cebpf4jnsgd1na2vs0mg"},{"bike_id":"36c6e238-aa6e-4e83-9126-9d7987cd800e","system_id":"levelo_inurba_marseille","lat":43.29527,"lon":5.39399,"is_reserved":false,"is_disabled":false,"rental_uris":{"android":"levelo://app?vid=36c6e238-aa6e-4e83-9126-9d7987cd800e","ios":"levelo://app?vid=36c6e238-aa6e-4e83-9126-9d7987cd800e"},"vehicle_type_id":"4","last_reported":1712945239,"current_range_meters":0,"station_id":"ce4bh292rcd13ifvqdf0","pricing_plan_id":"cebpf4jnsgd1na2vs0mg"},{"bike_id":"f8c0b41b-3e7e-4dce-87ba-a3bb26ff4cdd","system_id":"levelo_inurba_marseille","lat":43.298681,"lon":5.397225,"is_reserved":false,"is_disabled":false,"rental_uris":{"android":"levelo://app?vid=f8c0b41b-3e7e-4dce-87ba-a3bb26ff4cdd","ios":"levelo://app?vid=f8c0b41b-3e7e-4dce-87ba-a3bb26ff4cdd"},"vehicle_type_id":"4","last_reported":1712945239,"current_range_meters":2400,"station_id":"ce4bh0h2rcd13ifvqd50","pricing_plan_id":"cebpf4jnsgd1na2vs0mg"},{"bike_id":"7ac123a6-ce4d-49b9-b441-3564f4dadc21","system_id":"levelo_inurba_marseille","lat":43.286961,"lon":5.373785,"is_reserved":false,"is_disabled":false,"rental_uris":{"android":"levelo://app?vid=7ac123a6-ce4d-49b9-b441-3564f4dadc21","ios":"levelo://app?vid=7ac123a6-ce4d-49b9-b441-3564f4dadc21"},"vehicle_type_id":"4","last_reported":1712945239,"current_range_meters":4000,"station_id":"ce4bh3p2rcd13ifvqdq0","pricing_plan_id":"cebpf4jnsgd1na2vs0mg"},{"bike_id":"b677a3e6-df0e-462b-b727-f0cdb081889a","system_id":"levelo_inurba_marseille","lat":43.301429,"lon":5.37413,"is_reserved":false,"is_disabled":false,"rental_uris":{"android":"levelo://app?vid=b677a3e6-df0e-462b-b727-f0cdb081889a","ios":"levelo://app?vid=b677a3e6-df0e-462b-b727-f0cdb081889a"},"vehicle_type_id":"4","last_reported":1712945239,"current_range_meters":1200,"station_id":"ce4bgs92rcd13ifvqcc0","pricing_plan_id":"cebpf4jnsgd1na2vs0mg"},{"bike_id":"15e8b28c-8549-4ead-b015-1254f9a4512f","system_id":"levelo_inurba_marseille","lat":43.289307,"lon":5.38406,"is_reserved":false,"is_disabled":false,"rental_uris":{"android":"levelo://app?vid=15e8b28c-8549-4ead-b015-1254f9a4512f","ios":"levelo://app?vid=15e8b28c-8549-4ead-b015-1254f9a4512f"},"vehicle_type_id":"4","last_reported":1712945239,"current_range_meters":0,"station_id":"ce4bh612rcd13ifvqe6g","pricing_plan_id":"cebpf4jnsgd1na2vs0mg"},{"bike_id":"a7fa2220-d212-4557-baf6-493242940d22","system_id":"levelo_inurba_marseille","lat":43.290336,"lon":5.386425,"is_reserved":false,"is_disabled":false,"rental_uris":{"android":"levelo://app?vid=a7fa2220-d212-4557-baf6-493242940d22","ios":"levelo://app?vid=a7fa2220-d212-4557-baf6-493242940d22"},"vehicle_type_id":"4","last_reported":1712945239,"current_range_meters":800,"station_id":"ce4bh4p2rcd13ifvqe0g","pricing_plan_id":"cebpf4jnsgd1na2vs0mg"},{"bike_id":"d1d0d8c8-a7e1-4eed-b272-d5d51dff3c99","system_id":"levelo_inurba_marseille","lat":43.302521,"lon":5.400491,"is_reserved":false,"is_disabled":false,"rental_uris":{"android":"levelo://app?vid=d1d0d8c8-a7e1-4eed-b272-d5d51dff3c99","ios":"levelo://app?vid=d1d0d8c8-a7e1-4eed-b272-d5d51dff3c99"},"vehicle_type_id":"4","last_reported":1712945239,"current_range_meters":0,"station_id":"ce4bgvh2rcd13ifvqcs0","pricing_plan_id":"cebpf4jnsgd1na2vs0mg"},{"bike_id":"7ba405ef-eaec-4eaf-b25e-afe0b7497677","system_id":"levelo_inurba_marseille","lat":43.293009,"lon":5.374584,"is_reserved":false,"is_disabled":false,"rental_uris":{"android":"levelo://app?vid=7ba405ef-eaec-4eaf-b25e-afe0b7497677","ios":"levelo://app?vid=7ba405ef-eaec-4eaf-b25e-afe0b7497677"},"vehicle_type_id":"4","last_reported":1712945239,"current_range_meters":800,"station_id":"ce4bgi12rcd13ifvqb70","pricing_plan_id":"cebpf4jnsgd1na2vs0mg"},{"bike_id":"e0168578-69a6-480e-a25f-28dc2e1e203e","system_id":"levelo_inurba_marseille","lat":43.3023,"lon":5.400493,"is_reserved":false,"is_disabled":false,"rental_uris":{"android":"levelo://app?vid=e0168578-69a6-480e-a25f-28dc2e1e203e","ios":"levelo://app?vid=e0168578-69a6-480e-a25f-28dc2e1e203e"},"vehicle_type_id":"4","last_reported":1712945239,"current_range_meters":0,"station_id":"","pricing_plan_id":"cebpf4jnsgd1na2vs0mg"},{"bike_id":"5c55b71c-b8f0-424d-908f-b2d1baf1b1b0","system_id":"levelo_inurba_marseille","lat":43.289307,"lon":5.38406,"is_reserved":false,"is_disabled":false,"rental_uris":{"android":"levelo://app?vid=5c55b71c-b8f0-424d-908f-b2d1baf1b1b0","ios":"levelo://app?vid=5c55b71c-b8f0-424d-908f-b2d1baf1b1b0"},"vehicle_type_id":"4","last_reported":1712945239,"current_range_meters":0,"station_id":"ce4bh612rcd13ifvqe6g","pricing_plan_id":"cebpf4jnsgd1na2vs0mg"},{"bike_id":"db1ae733-a6c9-49b0-bc61-938c89cb44ba","system_id":"levelo_inurba_marseille","lat":43.290336,"lon":5.386425,"is_reserved":false,"is_disabled":false,"rental_uris":{"android":"levelo://app?vid=db1ae733-a6c9-49b0-bc61-938c89cb44ba","ios":"levelo://app?vid=db1ae733-a6c9-49b0-bc61-938c89cb44ba"},"vehicle_type_id":"4","last_reported":1712945239,"current_range_meters":800,"station_id":"ce4bh4p2rcd13ifvqe0g","pricing_plan_id":"cebpf4jnsgd1na2vs0mg"},{"bike_id":"e53e71d4-2a4b-434d-ae91-b132e8babcda","system_id":"levelo_inurba_marseille","lat":43.289307,"lon":5.38406,"is_reserved":false,"is_disabled":false,"rental_uris":{"android":"levelo://app?vid=e53e71d4-2a4b-434d-ae91-b132e8babcda","ios":"levelo://app?vid=e53e71d4-2a4b-434d-ae91-b132e8babcda"},"vehicle_type_id":"4","last_reported":1712945239,"current_range_meters":0,"station_id":"ce4bh612rcd13ifvqe6g","pricing_plan_id":"cebpf4jnsgd1na2vs0mg"},{"bike_id":"e0aebea5-f895-44a6-b2db-d0300e011317","system_id":"levelo_inurba_marseille","lat":43.286039,"lon":5.370681,"is_reserved":false,"is_disabled":false,"rental_uris":{"android":"levelo://app?vid=e0aebea5-f895-44a6-b2db-d0300e011317","ios":"levelo://app?vid=e0aebea5-f895-44a6-b2db-d0300e011317"},"vehicle_type_id":"4","last_reported":1712945239,"current_range_meters":4400,"station_id":"ce4bht12rcd13ifvqi60","pricing_plan_id":"cebpf4jnsgd1na2vs0mg"},{"bike_id":"92554dd8-bc30-4834-b845-f747ac5e84ab","system_id":"levelo_inurba_marseille","lat":43.287185,"lon":5.379373,"is_reserved":false,"is_disabled":false,"rental_uris":{"android":"levelo://app?vid=92554dd8-bc30-4834-b845-f747ac5e84ab","ios":"levelo://app?vid=92554dd8-bc30-4834-b845-f747ac5e84ab"},"vehicle_type_id":"4","last_reported":1712945239,"current_range_meters":0,"station_id":"ce4bh9p2rcd13ifvqec0","pricing_plan_id":"cebpf4jnsgd1na2vs0mg"},{"bike_id":"db574e30-c450-4a87-925b-b5830fc95372","system_id":"levelo_inurba_marseille","lat":43.28713,"lon":5.37937,"is_reserved":false,"is_disabled":false,"rental_uris":{"android":"levelo://app?vid=db574e30-c450-4a87-925b-b5830fc95372","ios":"levelo://app?vid=db574e30-c450-4a87-925b-b5830fc95372"},"vehicle_type_id":"4","last_reported":1712945239,"current_range_meters":0,"station_id":"ce4bh9p2rcd13ifvqec0","pricing_plan_id":"cebpf4jnsgd1na2vs0mg"},{"bike_id":"5d4a4120-67d5-4b1b-bb53-e8f8e36027d7","system_id":"levelo_inurba_marseille","lat":43.28712,"lon":5.37952,"is_reserved":false,"is_disabled":false,"rental_uris":{"android":"levelo://app?vid=5d4a4120-67d5-4b1b-bb53-e8f8e36027d7","ios":"levelo://app?vid=5d4a4120-67d5-4b1b-bb53-e8f8e36027d7"},