{"last_updated":1769793886,"ttl":60,"version":"2.2","data":{"bikes":[{"bike_id":"fb7cc875-ef9c-4dbb-8113-6daf41d80e7e","system_id":"levelo_inurba_marseille","lat":43.25866,"lon":5.39927,"is_reserved":false,"is_disabled":false,"rental_uris":{"android":"levelo://app?vid=fb7cc875-ef9c-4dbb-8113-6daf41d80e7e","ios":"levelo://app?vid=fb7cc875-ef9c-4dbb-8113-6daf41d80e7e"},"vehicle_type_id":"4","last_reported":1769793887,"current_range_meters":1600,"station_id":"ce4bhl92rcd13ifvqghg","pricing_plan_id":"cebpf4jnsgd1na2vs0mg"},{"bike_id":"c7f5030a-2012-43f3-b9f8-0fff8ff1b27a","system_id":"levelo_inurba_marseille","lat":43.26561,"lon":5.39005,"is_reserved":false,"is_disabled":false,"rental_uris":{"android":"levelo://app?vid=c7f5030a-2012-43f3-b9f8-0fff8ff1b27a","ios":"levelo://app?vid=c7f5030a-2012-43f3-b9f8-0fff8ff1b27a"},"vehicle_type_id":"4","last_reported":1769793887,"current_range_meters":2800,"station_id":"ce4bhe12rcd13ifvqf30","pricing_plan_id":"cebpf4jnsgd1na2vs0mg"},{"bike_id":"9ed6cdc7-6dec-4f12-9faf-920474ce0649","system_id":"levelo_inurba_marseille","lat":43.28021,"lon":5.36973,"is_reserved":false,"is_disabled":false,"rental_uris":{"android":"levelo://app?vid=9ed6cdc7-6dec-4f12-9faf-920474ce0649","ios":"levelo://app?vid=9ed6cdc7-6dec-4f12-9faf-920474ce0649"},"vehicle_type_id":"4","last_reported":1769793887,"current_range_meters":2800,"station_id":"ce4bha12rcd13ifvqef0","pricing_plan_id":"cebpf4jnsgd1na2vs0mg"},{"bike_id":"0424ec16-755f-41e7-bb89-85f220290839","system_id":"levelo_inurba_marseille","lat":43.22933,"lon":5.35379,"is_reserved":false,"is_disabled":false,"rental_uris":{"android":"levelo://app?vid=0424ec16-755f-41e7-bb89-85f220290839","ios":"levelo://app?vid=0424ec16-755f-41e7-bb89-85f220290839"},"vehicle_type_id":"4","last_reported":1769793887,"current_range_meters":2800,"station_id":"cpo3532slgdg3j2ikp40","pricing_plan_id":"cebpf4jnsgd1na2vs0mg"},{"bike_id":"d9b6343b-4e87-445f-8063-2fce9657168c","system_id":"levelo_inurba_marseille","lat":43.30381,"lon":5.37583,"is_reserved":false,"is_disabled":false,"rental_uris":{"android":"levelo://app?vid=d9b6343b-4e87-445f-8063-2fce9657168c","ios":"levelo://app?vid=d9b6343b-4e87-445f-8063-2fce9657168c"},"vehicle_type_id":"4","last_reported":1769793887,"current_range_meters":2800,"station_id":"","pricing_plan_id":"cebpf4jnsgd1na2vs0mg"},{"bike_id":"a87b00a6-9d61-4271-ab54-d4b14b80bdd3","system_id":"levelo_inurba_marseille","lat":43.28102,"lon":5.37839,"is_reserved":false,"is_disabled":false,"rental_uris":{"android":"levelo://app?vid=a87b00a6-9d61-4271-ab54-d4b14b80bdd3","ios":"levelo://app?vid=a87b00a6-9d61-4271-ab54-d4b14b80bdd3"},"vehicle_type_id":"4","last_reported":1769793887,"current_range_meters":2800,"station_id":"ce4bha12rcd13ifvqee0","pricing_plan_id":"cebpf4jnsgd1na2vs0mg"},{"bike_id":"947b3f41-400e-4a7b-9150-c4b106fc2b3b","system_id":"levelo_inurba_marseille","lat":43.255815,"lon":5.382261,"is_reserved":false,"is_disabled":false,"rental_uris":{"android":"levelo://app?vid=947b3f41-400e-4a7b-9150-c4b106fc2b3b","ios":"levelo://app?vid=947b3f41-400e-4a7b-9150-c4b106fc2b3b"},"vehicle_type_id":"4","last_reported":1769793887,"current_range_meters":2800,"station_id":"ce4bhih2rcd13ifvqfs0","pricing_plan_id":"cebpf4jnsgd1na2vs0mg"},{"bike_id":"f6afe8d4-a7ef-4ed1-a6f1-353cdf639cc8","system_id":"levelo_inurba_marseille","lat":43.28582,"lon":5.39495,"is_reserved":false,"is_disabled":false,"rental_uris":{"android":"levelo://app?vid=f6afe8d4-a7ef-4ed1-a6f1-353cdf639cc8","ios":"levelo://app?vid=f6afe8d4-a7ef-4ed1-a6f1-353cdf639cc8"},"vehicle_type_id":"4","last_reported":1769793887,"current_range_meters":2800,"station_id":"ce4bh292rcd13ifvqdg0","pricing_plan_id":"cebpf4jnsgd1na2vs0mg"},{"bike_id":"837d820b-d73d-4322-a5b3-e6b77d9f560b","system_id":"levelo_inurba_marseille","lat":43.26789,"lon":5.39413,"is_reserved":false,"is_disabled":false,"rental_uris":{"android":"levelo://app?vid=837d820b-d73d-4322-a5b3-e6b77d9f560b","ios":"levelo://app?vid=837d820b-d73d-4322-a5b3-e6b77d9f560b"},"vehicle_type_id":"4","last_reported":1769793887,"current_range_meters":2800,"station_id":"ce4bhh12rcd13ifvqfg0","pricing_plan_id":"cebpf4jnsgd1na2vs0mg"},{"bike_id":"737461b3-4281-404c-9b01-e57eba8dc446","system_id":"levelo_inurba_marseille","lat":43.30888,"lon":5.39654,"is_reserved":false,"is_disabled":false,"rental_uris":{"android":"levelo://app?vid=737461b3-4281-404c-9b01-e57eba8dc446","ios":"levelo://app?vid=737461b3-4281-404c-9b01-e57eba8dc446"},"vehicle_type_id":"4","last_reported":1769793887,"current_range_meters":2800,"station_id":"ce4bh012rcd13ifvqcv0","pricing_plan_id":"cebpf4jnsgd1na2vs0mg"},{"bike_id":"726ff651-1599-4a97-931d-52a7dafed45f","system_id":"levelo_inurba_marseille","lat":43.24178,"lon":5.39732,"is_reserved":false,"is_disabled":false,"rental_uris":{"android":"levelo://app?vid=726ff651-1599-4a97-931d-52a7dafed45f","ios":"levelo://app?vid=726ff651-1599-4a97-931d-52a7dafed45f"},"vehicle_type_id":"4","last_reported":1769793887,"current_range_meters":2800,"station_id":"ce4bhn12rcd13ifvqgpg","pricing_plan_id":"cebpf4jnsgd1na2vs0mg"},{"bike_id":"4e4f07c5-865e-4493-887c-99f32c491206","system_id":"levelo_inurba_marseille","lat":43.27212,"lon":5.3918,"is_reserved":false,"is_disabled":false,"rental_uris":{"android":"levelo://app?vid=4e4f07c5-865e-4493-887c-99f32c491206","ios":"levelo://app?vid=4e4f07c5-865e-4493-887c-99f32c491206"},"vehicle_type_id":"4","last_reported":1769793887,"current_range_meters":2800,"station_id":"ce4bhhp2rcd13ifvqfm0","pricing_plan_id":"cebpf4jnsgd1na2vs0mg"},{"bike_id":"578c68e9-cf77-4e67-b353-efe36971c834","system_id":"levelo_inurba_marseille","lat":43.3237,"lon":5.38471,"is_reserved":false,"is_disabled":false,"rental_uris":{"android":"levelo://app?vid=578c68e9-cf77-4e67-b353-efe36971c834","ios":"levelo://app?vid=578c68e9-cf77-4e67-b353-efe36971c834"},"vehicle_type_id":"4","last_reported":1769793887,"current_range_meters":2800,"station_id":"st_d45171o9ee8s73djdqug","pricing_plan_id":"cebpf4jnsgd1na2vs0mg"},{"bike_id":"9f3a3472-0125-4875-ac36-b46e5ae7aaae","system_id":"levelo_inurba_marseille","lat":43.29986,"lon":5.38486,"is_reserved":false,"is_disabled":false,"rental_uris":{"android":"levelo://app?vid=9f3a3472-0125-4875-ac36-b46e5ae7aaae","ios":"levelo://app?vid=9f3a3472-0125-4875-ac36-b46e5ae7aaae"},"vehicle_type_id":"4","last_reported":1769793887,"current_range_meters":2800,"station_id":"ce4bgj92rcd13ifvqbd0","pricing_plan_id":"cebpf4jnsgd1na2vs0mg"},{"bike_id":"d0c5e232-fb80-42d5-bee7-c693e3fe20fa","system_id":"levelo_inurba_marseille","lat":43.276088,"lon":5.361051,"is_reserved":false,"is_disabled":false,"rental_uris":{"android":"levelo://app?vid=d0c5e232-fb80-42d5-bee7-c693e3fe20fa","ios":"levelo://app?vid=d0c5e232-fb80-42d5-bee7-c693e3fe20fa"},"vehicle_type_id":"4","last_reported":1769793887,"current_range_meters":3200,"station_id":"ce4bgj92rcd13ifvqbe0","pricing_plan_id":"cebpf4jnsgd1na2vs0mg"},{"bike_id":"14ad4359-d217-40c8-bc15-7989600afabe","system_id":"levelo_inurba_marseille","lat":43.28348,"lon":5.40732,"is_reserved":false,"is_disabled":false,"rental_uris":{"android":"levelo://app?vid=14ad4359-d217-40c8-bc15-7989600afabe","ios":"levelo://app?vid=14ad4359-d217-40c8-bc15-7989600afabe"},"vehicle_type_id":"4","last_reported":1769793887,"current_range_meters":3200,"station_id":"","pricing_plan_id":"cebpf4jnsgd1na2vs0mg"},{"bike_id":"42ba4a29-f68d-4723-979b-2a5bb76ae615","system_id":"levelo_inurba_marseille","lat":43.30533,"lon":5.36528,"is_reserved":false,"is_disabled":false,"rental_uris":{"android":"levelo://app?vid=42ba4a29-f68d-4723-979b-2a5bb76ae615","ios":"levelo://app?vid=42ba4a29-f68d-4723-979b-2a5bb76ae615"},"vehicle_type_id":"4","last_reported":1769793887,"current_range_meters":3200,"station_id":"ce4bgs12rcd13ifvqcag","pricing_plan_id":"cebpf4jnsgd1na2vs0mg"},{"bike_id":"ad4dbb63-7fbe-44dc-846b-68f66ee1695c","system_id":"levelo_inurba_marseille","lat":43.29161,"lon":5.37162,"is_reserved":false,"is_disabled":false,"rental_uris":{"android":"levelo://app?vid=ad4dbb63-7fbe-44dc-846b-68f66ee1695c","ios":"levelo://app?vid=ad4dbb63-7fbe-44dc-846b-68f66ee1695c"},"vehicle_type_id":"4","last_reported":1769793887,"current_range_meters":3200,"station_id":"ce4bha92rcd13ifvqeh0","pricing_plan_id":"cebpf4jnsgd1na2vs0mg"},{"bike_id":"1158f2ea-32f1-4164-b3e0-7d983bfb8989","system_id":"levelo_inurba_marseille","lat":43.28927,"lon":5.366537,"is_reserved":false,"is_disabled":false,"rental_uris":{"android":"levelo://app?vid=1158f2ea-32f1-4164-b3e0-7d983bfb8989","ios":"levelo://app?vid=1158f2ea-32f1-4164-b3e0-7d983bfb8989"},"vehicle_type_id":"4","last_reported":1769793887,"current_range_meters":3200,"station_id":"ce4bhap2rcd13ifvqek0","pricing_plan_id":"cebpf4jnsgd1na2vs0mg"},{"bike_id":"48aedaf1-16c7-47e5-a79b-e11b363ef1fd","system_id":"levelo_inurba_marseille","lat":43.25515,"lon":5.37647,"is_reserved":false,"is_disabled":false,"rental_uris":{"android":"levelo://app?vid=48aedaf1-16c7-47e5-a79b-e11b363ef1fd","ios":"levelo://app?vid=48aedaf1-16c7-47e5-a79b-e11b363ef1fd"},"vehicle_type_id":"4","last_reported":1769793887,"current_range_meters":3200,"station_id":"ce4bhh12rcd13ifvqff0","pricing_plan_id":"cebpf4jnsgd1na2vs0mg"},{"bike_id":"e0bd6359-f7e9-41aa-9baa-b21a4571a987","system_id":"levelo_inurba_marseille","lat":43.30893,"lon":5.36829,"is_reserved":false,"is_disabled":false,"rental_uris":{"android":"levelo://app?vid=e0bd6359-f7e9-41aa-9baa-b21a4571a987","ios":"levelo://app?vid=e0bd6359-f7e9-41aa-9baa-b21a4571a987"},"vehicle_type_id":"4","last_reported":1769793887,"current_range_meters":3200,"station_id":"ce4bgn92rcd13ifvqbvg","pricing_plan_id":"cebpf4jnsgd1na2vs0mg"},{"bike_id":"71ea06b7-46c1-4fc9-a594-153d92364656","system_id":"levelo_inurba_marseille","lat":43.30713,"lon":5.40956,"is_reserved":false,"is_disabled":false,"rental_uris":{"android":"levelo://app?vid=71ea06b7-46c1-4fc9-a594-153d92364656","ios":"levelo://app?vid=71ea06b7-46c1-4fc9-a594-153d92364656"},"vehicle_type_id":"4","last_reported":1769793887,"current_range_meters":3200,"station_id":"","pricing_plan_id":"cebpf4jnsgd1na2vs0mg"},{"bike_id":"25a9226a-9193-4bb4-8ad1-0a617754bee3","system_id":"levelo_inurba_marseille","lat":43.28525,"lon":5.44077,"is_reserved":false,"is_disabled":false,"rental_uris":{"android":"levelo://app?vid=25a9226a-9193-4bb4-8ad1-0a617754bee3","ios":"levelo://app?vid=25a9226a-9193-4bb4-8ad1-0a617754bee3"},"vehicle_type_id":"4","last_reported":1769793887,"current_range_meters":3200,"station_id":"","pricing_plan_id":"cebpf4jnsgd1na2vs0mg"},{"bike_id":"e92938fe-3286-44ad-971f-ab7b3f8fb93c","system_id":"levelo_inurba_marseille","lat":43.323573,"lon":5.36742,"is_reserved":false,"is_disabled":false,"rental_uris":{"android":"levelo://app?vid=e92938fe-3286-44ad-971f-ab7b3f8fb93c","ios":"levelo://app?vid=e92938fe-3286-44ad-971f-ab7b3f8fb93c"},"vehicle_type_id":"4","last_reported":1769793887,"current_range_meters":3200,"station_id":"ce4bhsh2rcd13ifvqi2g","pricing_plan_id":"cebpf4jnsgd1na2vs0mg"},{"bike_id":"e2f70384-2f45-4daf-83f1-f998d12d1141","system_id":"levelo_inurba_marseille","lat":43.274128,"lon":5.394154,"is_reserved":false,"is_disabled":false,"rental_uris":{"android":"levelo://app?vid=e2f70384-2f45-4daf-83f1-f998d12d1141","ios":"levelo://app?vid=e2f70384-2f45-4daf-83f1-f998d12d1141"},"vehicle_type_id":"4","last_reported":1769793887,"current_range_meters":3200,"station_id":"ce4bhdp2rcd13ifvqf20","pricing_plan_id":"cebpf4jnsgd1na2vs0mg"},{"bike_id":"4bd6cb39-f26e-431f-9c48-bc9838a79167","system_id":"levelo_inurba_marseille","lat":43.29813,"lon":5.44061,"is_reserved":false,"is_disabled":false,"rental_uris":{"android":"levelo://app?vid=4bd6cb39-f26e-431f-9c48-bc9838a79167","ios":"levelo://app?vid=4bd6cb39-f26e-431f-9c48-bc9838a79167"},"vehicle_type_id":"4","last_reported":1769793887,"current_range_meters":3200,"station_id":"st_d3jp68qikq2c7381ktn0","pricing_plan_id":"cebpf4jnsgd1na2vs0mg"},{"bike_id":"a9848f24-0ff9-4a7e-98e7-baef5d4cd4ec","system_id":"levelo_inurba_marseille","lat":43.2378,"lon":5.36653,"is_reserved":false,"is_disabled":false,"rental_uris":{"android":"levelo://app?vid=a9848f24-0ff9-4a7e-98e7-baef5d4cd4ec","ios":"levelo://app?vid=a9848f24-0ff9-4a7e-98e7-baef5d4cd4ec"},"vehicle_type_id":"4","last_reported":1769793887,"current_range_meters":3600,"station_id":"st_d3nk18o9ro0c73en2l3g","pricing_plan_id":"cebpf4jnsgd1na2vs0mg"},{"bike_id":"b8538ea1-5c66-4a72-881d-32abab5c79f9","system_id":"levelo_inurba_marseille","lat":43.24179,"lon":5.39725,"is_reserved":false,"is_disabled":false,"rental_uris":{"android":"levelo://app?vid=b8538ea1-5c66-4a72-881d-32abab5c79f9","ios":"levelo://app?vid=b8538ea1-5c66-4a72-881d-32abab5c79f9"},"vehicle_type_id":"4","last_reported":1769793887,"current_range_meters":3600,"station_id":"ce4bhn12rcd13ifvqgpg","pricing_plan_id":"cebpf4jnsgd1na2vs0mg"},{"bike_id":"7055778d-1250-47cd-9219-5827a9e3ecbc","system_id":"levelo_inurba_marseille","lat":43.29175,"lon":5.37128,"is_reserved":false,"is_disabled":false,"rental_uris":{"android":"levelo://app?vid=7055778d-1250-47cd-9219-5827a9e3ecbc","ios":"levelo://app?vid=7055778d-1250-47cd-9219-5827a9e3ecbc"},"vehicle_type_id":"4","last_reported":1769793887,"current_range_meters":3600,"station_id":"ce4bha92rcd13ifvqeh0","pricing_plan_id":"cebpf4jnsgd1na2vs0mg"},{"bike_id":"d6d817a7-3009-40a8-ad7e-a86d867e4d63","system_id":"levelo_inurba_marseille","lat":43.243865,"lon":5.370705,"is_reserved":false,"is_disabled":false,"rental_uris":{"android":"levelo://app?vid=d6d817a7-3009-40a8-ad7e-a86d867e4d63","ios":"levelo://app?vid=d6d817a7-3009-40a8-ad7e-a86d867e4d63"},"vehicle_type_id":"4","last_reported":1769793887,"current_range_meters":3600,"station_id":"ce4bhhh2rcd13ifvqfk0","pricing_plan_id":"cebpf4jnsgd1na2vs0mg"},{"bike_id":"e5f2f78d-9ac4-4819-bb87-834f124de44c","system_id":"levelo_inurba_marseille","lat":43.25574,"lon":5.38251,"is_reserved":false,"is_disabled":false,"rental_uris":{"android":"levelo://app?vid=e5f2f78d-9ac4-4819-bb87-834f124de44c","ios":"levelo://app?vid=e5f2f78d-9ac4-4819-bb87-834f124de44c"},"vehicle_type_id":"4","last_reported":1769793887,"current_range_meters":3600,"station_id":"ce4bhih2rcd13ifvqfs0","pricing_plan_id":"cebpf4jnsgd1na2vs0mg"},{"bike_id":"189b5eb9-954b-4512-8c31-5e0e8af132bc","system_id":"levelo_inurba_marseille","lat":43.28163,"lon":5.42647,"is_reserved":false,"is_disabled":false,"rental_uris":{"android":"levelo://app?vid=189b5eb9-954b-4512-8c31-5e0e8af132bc","ios":"levelo://app?vid=189b5eb9-954b-4512-8c31-5e0e8af132bc"},"vehicle_type_id":"4","last_reported":1769793887,"current_range_meters":3600,"station_id":"ce4bhnh2rcd13ifvqgug","pricing_plan_id":"cebpf4jnsgd1na2vs0mg"},{"bike_id":"68efc919-d578-41ab-aaa2-d25bab498387","system_id":"levelo_inurba_marseille","lat":43.29436,"lon":5.39759,"is_reserved":false,"is_disabled":false,"rental_uris":{"android":"levelo://app?vid=68efc919-d578-41ab-aaa2-d25bab498387","ios":"levelo://app?vid=68efc919-d578-41ab-aaa2-d25bab498387"},"vehicle_type_id":"4","last_reported":1769793887,"current_range_meters":3600,"station_id":"ce4bh3h2rcd13ifvqdo0","pricing_plan_id":"cebpf4jnsgd1na2vs0mg"},{"bike_id":"ebc3a5d7-0953-4d16-8146-22009b7d4c59","system_id":"levelo_inurba_marseille","lat":43.29701,"lon":5.35955,"is_reserved":false,"is_disabled":false,"rental_uris":{"android":"levelo://app?vid=ebc3a5d7-0953-4d16-8146-22009b7d4c59","ios":"levelo://app?vid=ebc3a5d7-0953-4d16-8146-22009b7d4c59"},"vehicle_type_id":"4","last_reported":1769793887,"current_range_meters":3600,"station_id":"","pricing_plan_id":"cebpf4jnsgd1na2vs0mg"},{"bike_id":"844a7d3b-10ba-494b-b7a8-394e7dff36b7","system_id":"levelo_inurba_marseille","lat":43.2318,"lon":5.3998,"is_reserved":false,"is_disabled":false,"rental_uris":{"android":"levelo://app?vid=844a7d3b-10ba-494b-b7a8-394e7dff36b7","ios":"levelo://app?vid=844a7d3b-10ba-494b-b7a8-394e7dff36b7"},"vehicle_type_id":"4","last_reported":1769793887,"current_range_meters":3600,"station_id":"ce4bhn12rcd13ifvqgqg","pricing_plan_id":"cebpf4jnsgd1na2vs0mg"},{"bike_id":"5c264ffd-6763-4e43-a303-b0b698d32f24","system_id":"levelo_inurba_marseille","lat":43.27829,"lon":5.38828,"is_reserved":false,"is_disabled":false,"rental_uris":{"android":"levelo://app?vid=5c264ffd-6763-4e43-a303-b0b698d32f24","ios":"levelo://app?vid=5c264ffd-6763-4e43-a303-b0b698d32f24"},"vehicle_type_id":"4","last_reported":1769793887,"current_range_meters":3600,"station_id":"ce4bhg12rcd13ifvqf80","pricing_plan_id":"cebpf4jnsgd1na2vs0mg"},{"bike_id":"b22cb99c-12a6-40ee-967c-06994dbb18b6","system_id":"levelo_inurba_marseille","lat":43.30135,"lon":5.39867,"is_reserved":false,"is_disabled":false,"rental_uris":{"android":"levelo://app?vid=b22cb99c-12a6-40ee-967c-06994dbb18b6","ios":"levelo://app?vid=b22cb99c-12a6-40ee-967c-06994dbb18b6"},"vehicle_type_id":"4","last_reported":1769793887,"current_range_meters":3600,"station_id":"ce4bh0h2rcd13ifvqd40","pricing_plan_id":"cebpf4jnsgd1na2vs0mg"},{"bike_id":"3cbe38d2-d6ac-4281-97db-584aa42a7728","system_id":"levelo_inurba_marseille","lat":43.2587,"lon":5.39901,"is_reserved":false,"is_disabled":false,"rental_uris":{"android":"levelo://app?vid=3cbe38d2-d6ac-4281-97db-584aa42a7728","ios":"levelo://app?vid=3cbe38d2-d6ac-4281-97db-584aa42a7728"},"vehicle_type_id":"4","last_reported":1769793887,"current_range_meters":3600,"station_id":"ce4bhl92rcd13ifvqghg","pricing_plan_id":"cebpf4jnsgd1na2vs0mg"},{"bike_id":"8124257b-86e4-4773-9928-40b9e517b1e7","system_id":"levelo_inurba_marseille","lat":43.24459,"lon":5.42523,"is_reserved":false,"is_disabled":false,"rental_uris":{"android":"levelo://app?vid=8124257b-86e4-4773-9928-40b9e517b1e7","ios":"levelo://app?vid=8124257b-86e4-4773-9928-40b9e517b1e7"},"vehicle_type_id":"4","last_reported":1769793887,"current_range_meters":4000,"station_id":"st_d4a3vfp97mjs738cd8kg","pricing_plan_id":"cebpf4jnsgd1na2vs0mg"},{"bike_id":"107eeca5-644f-4c13-bf1e-16cec6188d12","system_id":"levelo_inurba_marseille","lat":43.28979,"lon":5.37175,"is_reserved":false,"is_disabled":false,"rental_uris":{"android":"levelo://app?vid=107eeca5-644f-4c13-bf1e-16cec6188d12","ios":"levelo://app?vid=107eeca5-644f-4c13-bf1e-16cec6188d12"},"vehicle_type_id":"4","last_reported":1769793887,"current_range_meters":4000,"station_id":"","pricing_plan_id":"cebpf4jnsgd1na2vs0mg"},{"bike_id":"b2a7d5d2-c74e-4861-aab4-f0d29929c3e1","system_id":"levelo_inurba_marseille","lat":43.2315,"lon":5.43723,"is_reserved":false,"is_disabled":false,"rental_uris":{"android":"levelo://app?vid=b2a7d5d2-c74e-4861-aab4-f0d29929c3e1","ios":"levelo://app?vid=b2a7d5d2-c74e-4861-aab4-f0d29929c3e1"},"vehicle_type_id":"4","last_reported":1769793887,"current_range_meters":4000,"station_id":"ce4bhmp2rcd13ifvqgog","pricing_plan_id":"cebpf4jnsgd1na2vs0mg"},{"bike_id":"f2142329-16a3-4be8-836b-495fb8ed17e0","system_id":"levelo_inurba_marseille","lat":43.28396,"lon":5.34989,"is_reserved":false,"is_disabled":false,"rental_uris":{"android":"levelo://app?vid=f2142329-16a3-4be8-836b-495fb8ed17e0","ios":"levelo://app?vid=f2142329-16a3-4be8-836b-495fb8ed17e0"},"vehicle_type_id":"4","last_reported":1769793887,"current_range_meters":4000,"station_id":"ce4bhbh2rcd13ifvqepg","pricing_plan_id":"cebpf4jnsgd1na2vs0mg"},{"bike_id":"01be27bb-04c1-4257-961f-4af3e782a655","system_id":"levelo_inurba_marseille","lat":43.25588,"lon":5.38222,"is_reserved":false,"is_disabled":false,"rental_uris":{"android":"levelo://app?vid=01be27bb-04c1-4257-961f-4af3e782a655","ios":"levelo://app?vid=01be27bb-04c1-4257-961f-4af3e782a655"},"vehicle_type_id":"4","last_reported":1769793887,"current_range_meters":4000,"station_id":"ce4bhih2rcd13ifvqfs0","pricing_plan_id":"cebpf4jnsgd1na2vs0mg"},{"bike_id":"ebfb588a-e631-466e-a630-11fa6889e91e","system_id":"levelo_inurba_marseille","lat":43.2176,"lon":5.34571,"is_reserved":false,"is_disabled":false,"rental_uris":{"android":"levelo://app?vid=ebfb588a-e631-466e-a630-11fa6889e91e","ios":"levelo://app?vid=ebfb588a-e631-466e-a630-11fa6889e91e"},"vehicle_type_id":"4","last_reported":1769793887,"current_range_meters":4000,"station_id":"st_cvj6r9ubvosntc0bgbag","pricing_plan_id":"cebpf4jnsgd1na2vs0mg"},{"bike_id":"e42e5e4b-2394-43b0-9b9f-0fd17bf2cb70","system_id":"levelo_inurba_marseille","lat":43.24167,"lon":5.36397,"is_reserved":false,"is_disabled":false,"rental_uris":{"android":"levelo://app?vid=e42e5e4b-2394-43b0-9b9f-0fd17bf2cb70","ios":"levelo://app?vid=e42e5e4b-2394-43b0-9b9f-0fd17bf2cb70"},"vehicle_type_id":"4","last_reported":1769793887,"current_range_meters":4000,"station_id":"cpo36qri1sfpv3e86is0","pricing_plan_id":"cebpf4jnsgd1na2vs0mg"},{"bike_id":"b41fe31c-9ffe-4c2d-ab0e-e0e84c5f045d","system_id":"levelo_inurba_marseille","lat":43.262042,"lon":5.379339,"is_reserved":false,"is_disabled":false,"rental_uris":{"android":"levelo://app?vid=b41fe31c-9ffe-4c2d-ab0e-e0e84c5f045d","ios":"levelo://app?vid=b41fe31c-9ffe-4c2d-ab0e-e0e84c5f045d"},"vehicle_type_id":"4","last_reported":1769793887,"current_range_meters":4000,"station_id":"ce4bhjp2rcd13ifvqg90","pricing_plan_id":"cebpf4jnsgd1na2vs0mg"},{"bike_id":"690c226e-6851-45b1-9f54-6c3363b6c5c6","system_id":"levelo_inurba_marseille","lat":43.273346,"lon":5.39069,"is_reserved":false,"is_disabled":false,"rental_uris":{"android":"levelo://app?vid=690c226e-6851-45b1-9f54-6c3363b6c5c6","ios":"levelo://app?vid=690c226e-6851-45b1-9f54-6c3363b6c5c6"},"vehicle_type_id":"4","last_reported":1769793887,"current_range_meters":4000,"station_id":"ce4bhgp2rcd13ifvqfe0","pricing_plan_id":"cebpf4jnsgd1na2vs0mg"},{"bike_id":"42beae56-7cba-4a17-b769-d10eb05158e8","system_id":"levelo_inurba_marseille","lat":43.279604,"lon":5.386933,"is_reserved":false,"is_disabled":true,"rental_uris":{"android":"levelo://app?vid=42beae56-7cba-4a17-b769-d10eb05158e8","ios":"levelo://app?vid=42beae56-7cba-4a17-b769-d10eb05158e8"},"vehicle_type_id":"4","last_reported":1769793887,"current_range_meters":4000,"station_id":"ce4bhg12rcd13ifvqf80","pricing_plan_id":"cebpf4jnsgd1na2vs0mg"},{"bike_id":"86a29941-b088-43a0-8032-cfb1b006593e","system_id":"levelo_inurba_marseille","lat":43.25094,"lon":5.39513,"is_reserved":false,"is_disabled":false,"rental_uris":{"android":"levelo://app?vid=86a29941-b088-43a0-8032-cfb1b006593e","ios":"levelo://app?vid=86a29941-b088-43a0-8032-cfb1b006593e"},"vehicle_type_id":"4","last_reported":1769793887,"current_range_meters":4000,"station_id":"ce4bhm12rcd13ifvqgkg","pricing_plan_id":"cebpf4jnsgd1na2vs0mg"},{"bike_id":"dba1cd34-42d0-43e1-97a1-acdccc4fc1cd","system_id":"levelo_inurba_marseille","lat":43.24119,"lon":5.37716,"is_reserved":false,"is_disabled":false,"rental_uris":{"android":"levelo://app?vid=dba1cd34-42d0-43e1-97a1-acdccc4fc1cd","ios":"levelo://app?vid=dba1cd34-42d0-43e1-97a1-acdccc4fc1cd"},"vehicle_type_id":"4","last_reported":1769793887,"current_range_meters":4000,"station_id":"","pricing_plan_id":"cebpf4jnsgd1na2vs0mg"},{"bike_id":"84464309-0ca3-4c2d-911c-85d8f1e41e7d","system_id":"levelo_inurba_marseille","lat":43.25865,"lon":5.39885,"is_reserved":false,"is_disabled":false,"rental_uris":{"android":"levelo://app?vid=84464309-0ca3-4c2d-911c-85d8f1e41e7d","ios":"levelo://app?vid=84464309-0ca3-4c2d-911c-85d8f1e41e7d"},"vehicle_type_id":"4","last_reported":1769793887,"current_range_meters":4000,"station_id":"ce4bhl92rcd13ifvqghg","pricing_plan_id":"cebpf4jnsgd1na2vs0mg"},{"bike_id":"c63f1f2b-b909-4587-97ed-9ce3592e178e","system_id":"levelo_inurba_marseille","lat":43.24803,"lon":5.37456,"is_reserved":false,"is_disabled":false,"rental_uris":{"android":"levelo://app?vid=c63f1f2b-b909-4587-97ed-9ce3592e178e","ios":"levelo://app?vid=c63f1f2b-b909-4587-97ed-9ce3592e178e"},"vehicle_type_id":"4","last_reported":1769793887,"current_range_meters":4000,"station_id":"ce4bhgh2rcd13ifvqfb0","pricing_plan_id":"cebpf4jnsgd1na2vs0mg"},{"bike_id":"8bd2dedc-53b6-4a9b-b341-e8ab2dec2237","system_id":"levelo_inurba_marseille","lat":43.24642,"lon":5.43138,"is_reserved":false,"is_disabled":false,"rental_uris":{"android":"levelo://app?vid=8bd2dedc-53b6-4a9b-b341-e8ab2dec2237","ios":"levelo://app?vid=8bd2dedc-53b6-4a9b-b341-e8ab2dec2237"},"vehicle_type_id":"4","last_reported":1769793887,"current_range_meters":4000,"station_id":"st_d2m6c4gdas8pm72e190g","pricing_plan_id":"cebpf4jnsgd1na2vs0mg"},{"bike_id":"c5cf4eb0-d58f-4ad1-95f1-f2981de114b6","system_id":"levelo_inurba_marseille","lat":43.270591,"lon":5.402577,"is_reserved":false,"is_disabled":false,"rental_uris":{"android":"levelo://app?vid=c5cf4eb0-d58f-4ad1-95f1-f2981de114b6","ios":"levelo://app?vid=c5cf4eb0-d58f-4ad1-95f1-f2981de114b6"},"vehicle_type_id":"4","last_reported":1769793887,"current_range_meters":4400,"station_id":"ce4bhk92rcd13ifvqgc0","pricing_plan_id":"cebpf4jnsgd1na2vs0mg"},{"bike_id":"d00d6129-cbe1-4bc2-914e-0ef6bb205a38","system_id":"levelo_inurba_marseille","lat":43.30086,"lon":5.39091,"is_reserved":false,"is_disabled":false,"rental_uris":{"android":"levelo://app?vid=d00d6129-cbe1-4bc2-914e-0ef6bb205a38","ios":"levelo://app?vid=d00d6129-cbe1-4bc2-914e-0ef6bb205a38"},"vehicle_type_id":"4","last_reported":1769793887,"current_range_meters":4400,"station_id":"ce4bh192rcd13ifvqdb0","pricing_plan_id":"cebpf4jnsgd1na2vs0mg"},{"bike_id":"6f2111dd-6b6a-402c-9729-62f7313dcc5e","system_id":"levelo_inurba_marseille","lat":43.323524,"lon":5.367517,"is_reserved":false,"is_disabled":false,"rental_uris":{"android":"levelo://app?vid=6f2111dd-6b6a-402c-9729-62f7313dcc5e","ios":"levelo://app?vid=6f2111dd-6b6a-402c-9729-62f7313dcc5e"},"vehicle_type_id":"4","last_reported":1769793887,"current_range_meters":4400,"station_id":"ce4bhsh2rcd13ifvqi2g","pricing_plan_id":"cebpf4jnsgd1na2vs0mg"},{"bike_id":"83fc5387-9bd8-4dec-804d-abfa877a86a6","system_id":"levelo_inurba_marseille","lat":43.29817,"lon":5.44066,"is_reserved":false,"is_disabled":false,"rental_uris":{"android":"levelo://app?vid=83fc5387-9bd8-4dec-804d-abfa877a86a6","ios":"levelo://app?vid=83fc5387-9bd8-4dec-804d-abfa877a86a6"},"vehicle_type_id":"4","last_reported":1769793887,"current_range_meters":4400,"station_id":"st_d3jp68qikq2c7381ktn0","pricing_plan_id":"cebpf4jnsgd1na2vs0mg"},{"bike_id":"bd889336-68ff-4f09-8c88-588306cf9fc6","system_id":"levelo_inurba_marseille","lat":43.27048,"lon":5.40319,"is_reserved":false,"is_disabled":false,"rental_uris":{"android":"levelo://app?vid=bd889336-68ff-4f09-8c88-588306cf9fc6","ios":"levelo://app?vid=bd889336-68ff-4f09-8c88-588306cf9fc6"},"vehicle_type_id":"4","last_reported":1769793887,"current_range_meters":4400,"station_id":"","pricing_plan_id":"cebpf4jnsgd1na2vs0mg"},{"bike_id":"140656d8-ba4f-4b08-a682-46569a2c5ed5","system_id":"levelo_inurba_marseille","lat":43.27575,"lon":5.38403,"is_reserved":false,"is_disabled":false,"rental_uris":{"android":"levelo://app?vid=140656d8-ba4f-4b08-a682-46569a2c5ed5","ios":"levelo://app?vid=140656d8-ba4f-4b08-a682-46569a2c5ed5"},"vehicle_type_id":"4","last_reported":1769793887,"current_range_meters":4400,"station_id":"ce4bhh92rcd13ifvqfi0","pricing_plan_id":"cebpf4jnsgd1na2vs0mg"},{"bike_id":"83bbeac1-b4c2-4835-91cb-013728be84c8","system_id":"levelo_inurba_marseille","lat":43.29937,"lon":5.39069,"is_reserved":false,"is_disabled":true,"rental_uris":{"android":"levelo://app?vid=83bbeac1-b4c2-4835-91cb-013728be84c8","ios":"levelo://app?vid=83bbeac1-b4c2-4835-91cb-013728be84c8"},"vehicle_type_id":"4","last_reported":1769793887,"current_range_meters":4400,"station_id":"","pricing_plan_id":"cebpf4jnsgd1na2vs0mg"},{"bike_id":"5c1bebe8-43bf-476b-a01e-98bad8762f0c","system_id":"levelo_inurba_marseille","lat":43.24626,"lon":5.43145,"is_reserved":false,"is_disabled":false,"rental_uris":{"android":"levelo://app?vid=5c1bebe8-43bf-476b-a01e-98bad8762f0c","ios":"levelo://app?vid=5c1bebe8-43bf-476b-a01e-98bad8762f0c"},"vehicle_type_id":"4","last_reported":1769793887,"current_range_meters":4400,"station_id":"st_d2m6c4gdas8pm72e190g","pricing_plan_id":"cebpf4jnsgd1na2vs0mg"},{"bike_id":"e98e7668-9170-4c03-8e6d-d42f05f426f0","system_id":"levelo_inurba_marseille","lat":43.29963,"lon":5.38499,"is_reserved":false,"is_disabled":false,"rental_uris":{"android":"levelo://app?vid=e98e7668-9170-4c03-8e6d-d42f05f426f0","ios":"levelo://app?vid=e98e7668-9170-4c03-8e6d-d42f05f426f0"},"vehicle_type_id":"4","last_reported":1769793887,"current_range_meters":4400,"station_id":"ce4bgj92rcd13ifvqbd0","pricing_plan_id":"cebpf4jnsgd1na2vs0mg"},{"bike_id":"505844fc-c893-4b69-a536-a7a6f28ddf51","system_id":"levelo_inurba_marseille","lat":43.281494,"lon":5.426427,"is_reserved":false,"is_disabled":false,"rental_uris":{"android":"levelo://app?vid=505844fc-c893-4b69-a536-a7a6f28ddf51","ios":"levelo://app?vid=505844fc-c893-4b69-a536-a7a6f28ddf51"},"vehicle_type_id":"4","last_reported":1769793887,"current_range_meters":4400,"station_id":"ce4bhnh2rcd13ifvqgug","pricing_plan_id":"cebpf4jnsgd1na2vs0mg"},{"bike_id":"0dc7e413-0a48-4cde-9926-cb3ad2c57c8b","system_id":"levelo_inurba_marseille","lat":43.25114,"lon":5.40318,"is_reserved":false,"is_disabled":false,"rental_uris":{"android":"levelo://app?vid=0dc7e413-0a48-4cde-9926-cb3ad2c57c8b","ios":"levelo://app?vid=0dc7e413-0a48-4cde-9926-cb3ad2c57c8b"},"vehicle_type_id":"4","last_reported":1769793887,"current_range_meters":4400,"station_id":"ce4bhlh2rcd13ifvqgig","pricing_plan_id":"cebpf4jnsgd1na2vs0mg"},{"bike_id":"4ae697cd-fb11-40c2-ab8f-53d4334f67ae","system_id":"levelo_inurba_marseille","lat":43.29885,"lon":5.38555,"is_reserved":false,"is_disabled":false,"rental_uris":{"android":"levelo://app?vid=4ae697cd-fb11-40c2-ab8f-53d4334f67ae","ios":"levelo://app?vid=4ae697cd-fb11-40c2-ab8f-53d4334f67ae"},"vehicle_type_id":"4","last_reported":1769793887,"current_range_meters":4400,"station_id":"","pricing_plan_id":"cebpf4jnsgd1na2vs0mg"},{"bike_id":"e04521ca-ce5b-4911-93eb-efa07b2cc503","system_id":"levelo_inurba_marseille","lat":43.29492,"lon":5.43309,"is_reserved":false,"is_disabled":false,"rental_uris":{"android":"levelo://app?vid=e04521ca-ce5b-4911-93eb-efa07b2cc503","ios":"levelo://app?vid=e04521ca-ce5b-4911-93eb-efa07b2cc503"},"vehicle_type_id":"4","last_reported":1769793887,"current_range_meters":4400,"station_id":"st_d3j5ugp08ojc73fj9d10","pricing_plan_id":"cebpf4jnsgd1na2vs0mg"},{"bike_id":"3dc504de-340a-4960-9295-e93227b46b5e","system_id":"levelo_inurba_marseille","lat":43.3211,"lon":5.36772,"is_reserved":false,"is_disabled":false,"rental_uris":{"android":"levelo://app?vid=3dc504de-340a-4960-9295-e93227b46b5e","ios":"levelo://app?vid=3dc504de-340a-4960-9295-e93227b46b5e"},"vehicle_type_id":"4","last_reported":1769793887,"current_range_meters":4400,"station_id":"ce4bhrh2rcd13ifvqhug","pricing_plan_id":"cebpf4jnsgd1na2vs0mg"},{"bike_id":"7f717f09-7a8b-40b1-b8a4-885afadbc405","system_id":"levelo_inurba_marseille","lat":43.28486,"lon":5.38553,"is_reserved":false,"is_disabled":false,"rental_uris":{"android":"levelo://app?vid=7f717f09-7a8b-40b1-b8a4-885afadbc405","ios":"levelo://app?vid=7f717f09-7a8b-40b1-b8a4-885afadbc405"},"vehicle_type_id":"4","last_reported":1769793887,"current_range_meters":4400,"station_id":"ce4bh8p2rcd13ifvqeb0","pricing_plan_id":"cebpf4jnsgd1na2vs0mg"},{"bike_id":"513fca7c-013b-467f-a3c1-63a70668931d","system_id":"levelo_inurba_marseille","lat":43.336,"lon":5.41029,"is_reserved":false,"is_disabled":false,"rental_uris":{"android":"levelo://app?vid=513fca7c-013b-467f-a3c1-63a70668931d","ios":"levelo://app?vid=513fca7c-013b-467f-a3c1-63a70668931d"},"vehicle_type_id":"4","last_reported":1769793887,"current_range_meters":4400,"station_id":"ce4bhqh2rcd13ifvqhmg","pricing_plan_id":"cebpf4jnsgd1na2vs0mg"},{"bike_id":"4b0b8592-2f1a-49e7-bd50-98ea28e65a36","system_id":"levelo_inurba_marseille","lat":43.27985,"lon":5.41656,"is_reserved":false,"is_disabled":false,"rental_uris":{"android":"levelo://app?vid=4b0b8592-2f1a-49e7-bd50-98ea28e65a36","ios":"levelo://app?vid=4b0b8592-2f1a-49e7-bd50-98ea28e65a36"},"vehicle_type_id":"4","last_reported":1769793887,"current_range_meters":4400,"station_id":"ce4bho12rcd13ifvqh1g","pricing_plan_id":"cebpf4jnsgd1na2vs0mg"},{"bike_id":"7529c937-77dc-4715-8a89-50b7457f4baa","system_id":"levelo_inurba_marseille","lat":43.259219,"lon":5.4089,"is_reserved":false,"is_disabled":true,"rental_uris":{"android":"levelo://app?vid=7529c937-77dc-4715-8a89-50b7457f4baa","ios":"levelo://app?vid=7529c937-77dc-4715-8a89-50b7457f4baa"},"vehicle_type_id":"4","last_reported":1769793887,"current_range_meters":4800,"station_id":"ce4bhm92rcd13ifvqglg","pricing_plan_id":"cebpf4jnsgd1na2vs0mg"},{"bike_id":"fe96793b-7f48-4d0c-8e7e-ada6a02e2210","system_id":"levelo_inurba_marseille","lat":43.27804,"lon":5.40721,"is_reserved":false,"is_disabled":false,"rental_uris":{"android":"levelo://app?vid=fe96793b-7f48-4d0c-8e7e-ada6a02e2210","ios":"levelo://app?vid=fe96793b-7f48-4d0c-8e7e-ada6a02e2210"},"vehicle_type_id":"4","last_reported":1769793887,"current_range_meters":4800,"station_id":"ce4bhnh2rcd13ifvqgtg","pricing_plan_id":"cebpf4jnsgd1na2vs0mg"},{"bike_id":"611eb60e-ad07-4f3a-b66c-e88dff2d3502","system_id":"levelo_inurba_marseille","lat":43.302472,"lon":5.400742,"is_reserved":false,"is_disabled":false,"rental_uris":{"android":"levelo://app?vid=611eb60e-ad07-4f3a-b66c-e88dff2d3502","ios":"levelo://app?vid=611eb60e-ad07-4f3a-b66c-e88dff2d3502"},"vehicle_type_id":"4","last_reported":1769793887,"current_range_meters":4800,"station_id":"ce4bgvh2rcd13ifvqcs0","pricing_plan_id":"cebpf4jnsgd1na2vs0mg"},{"bike_id":"1b8a11ae-ff07-45ba-a44b-7af85c31226b","system_id":"levelo_inurba_marseille","lat":43.22926,"lon":5.35375,"is_reserved":false,"is_disabled":false,"rental_uris":{"android":"levelo://app?vid=1b8a11ae-ff07-45ba-a44b-7af85c31226b","ios":"levelo://app?vid=1b8a11ae-ff07-45ba-a44b-7af85c31226b"},"vehicle_type_id":"4","last_reported":1769793887,"current_range_meters":4800,"station_id":"cpo3532slgdg3j2ikp40","pricing_plan_id":"cebpf4jnsgd1na2vs0mg"},{"bike_id":"32f147b7-2b1a-4f4d-941f-a55b7b632c7a","system_id":"levelo_inurba_marseille","lat":43.27809,"lon":5.40713,"is_reserved":false,"is_disabled":false,"rental_uris":{"android":"levelo://app?vid=32f147b7-2b1a-4f4d-941f-a55b7b632c7a","ios":"levelo://app?vid=32f147b7-2b1a-4f4d-941f-a55b7b632c7a"},"vehicle_type_id":"4","last_reported":1769793887,"current_range_meters":4800,"station_id":"ce4bhnh2rcd13ifvqgtg","pricing_plan_id":"cebpf4jnsgd1na2vs0mg"},{"bike_id":"7a4412cf-c498-4121-be46-049419c026d4","system_id":"levelo_inurba_marseille","lat":43.27943,"lon":5.4104,"is_reserved":false,"is_disabled":false,"rental_uris":{"android":"levelo://app?vid=7a4412cf-c498-4121-be46-049419c026d4","ios":"levelo://app?vid=7a4412cf-c498-4121-be46-049419c026d4"},"vehicle_type_id":"4","last_reported":1769793887,"current_range_meters":4800,"station_id":"ce4bhnp2rcd13ifvqh0g","pricing_plan_id":"cebpf4jnsgd1na2vs0mg"},{"bike_id":"17e9fca2-5c6f-4fcd-a1d6-0050e38c4c0d","system_id":"levelo_inurba_marseille","lat":43.250955,"lon":5.395148,"is_reserved":false,"is_disabled":false,"rental_uris":{"android":"levelo://app?vid=17e9fca2-5c6f-4fcd-a1d6-0050e38c4c0d","ios":"levelo://app?vid=17e9fca2-5c6f-4fcd-a1d6-0050e38c4c0d"},"vehicle_type_id":"4","last_reported":1769793887,"current_range_meters":4800,"station_id":"ce4bhm12rcd13ifvqgkg","pricing_plan_id":"cebpf4jnsgd1na2vs0mg"},{"bike_id":"b93f36af-6012-4250-a69f-3de373ca3510","system_id":"levelo_inurba_marseille","lat":43.282739,"lon":5.350797,"is_reserved":false,"is_disabled":false,"rental_uris":{"android":"levelo://app?vid=b93f36af-6012-4250-a69f-3de373ca3510","ios":"levelo://app?vid=b93f36af-6012-4250-a69f-3de373ca3510"},"vehicle_type_id":"4","last_reported":1769793887,"current_range_meters":4800,"station_id":"ce4bhbp2rcd13ifvqerg","pricing_plan_id":"cebpf4jnsgd1na2vs0mg"},{"bike_id":"7f168ef8-b6d3-4943-a4b5-aebab5dc7fcb","system_id":"levelo_inurba_marseille","lat":43.29598,"lon":5.3672,"is_reserved":false,"is_disabled":false,"rental_uris":{"android":"levelo://app?vid=7f168ef8-b6d3-4943-a4b5-aebab5dc7fcb","ios":"levelo://app?vid=7f168ef8-b6d3-4943-a4b5-aebab5dc7fcb"},"vehicle_type_id":"4","last_reported":1769793887,"current_range_meters":4800,"station_id":"ce4bgph2rcd13ifvqc2g","pricing_plan_id":"cebpf4jnsgd1na2vs0mg"},{"bike_id":"d08ad747-e8dd-4a39-990c-56de807eb318","system_id":"levelo_inurba_marseille","lat":43.26568,"lon":5.40352,"is_reserved":false,"is_disabled":false,"rental_uris":{"android":"levelo://app?vid=d08ad747-e8dd-4a39-990c-56de807eb318","ios":"levelo://app?vid=d08ad747-e8dd-4a39-990c-56de807eb318"},"vehicle_type_id":"4","last_reported":1769793887,"current_range_meters":4800,"station_id":"ce4bhmp2rcd13ifvqgng","pricing_plan_id":"cebpf4jnsgd1na2vs0mg"},{"bike_id":"59ae0900-c855-4741-b5cf-c53827ed9733","system_id":"levelo_inurba_marseille","lat":43.2416,"lon":5.3641,"is_reserved":false,"is_disabled":false,"rental_uris":{"android":"levelo://app?vid=59ae0900-c855-4741-b5cf-c53827ed9733","ios":"levelo://app?vid=59ae0900-c855-4741-b5cf-c53827ed9733"},"vehicle_type_id":"4","last_reported":1769793887,"current_range_meters":4800,"station_id":"cpo36qri1sfpv3e86is0","pricing_plan_id":"cebpf4jnsgd1na2vs0mg"},{"bike_id":"76c341ae-2142-45ba-9186-c55abce2e35d","system_id":"levelo_inurba_marseille","lat":43.29783,"lon":5.39345,"is_reserved":false,"is_disabled":false,"rental_uris":{"android":"levelo://app?vid=76c341ae-2142-45ba-9186-c55abce2e35d","ios":"levelo://app?vid=76c341ae-2142-45ba-9186-c55abce2e35d"},"vehicle_type_id":"4","last_reported":1769793887,"current_range_meters":4800,"station_id":"chh1huq6cuj3fo74tm60","pricing_plan_id":"cebpf4jnsgd1na2vs0mg"},{"bike_id":"d103f2c1-7066-453c-bc7a-de1c9f1c94cc","system_id":"levelo_inurba_marseille","lat":43.31121,"lon":5.37756,"is_reserved":false,"is_disabled":false,"rental_uris":{"android":"levelo://app?vid=d103f2c1-7066-453c-bc7a-de1c9f1c94cc","ios":"levelo://app?vid=d103f2c1-7066-453c-bc7a-de1c9f1c94cc"},"vehicle_type_id":"4","last_reported":1769793887,"current_range_meters":4800,"station_id":"ce4bgt92rcd13ifvqcg0","pricing_plan_id":"cebpf4jnsgd1na2vs0mg"},{"bike_id":"afa087ba-2aaf-49d4-84ec-c61b91ffc4f3","system_id":"levelo_inurba_marseille","lat":43.255082,"lon":5.376545,"is_reserved":false,"is_disabled":false,"rental_uris":{"android":"levelo://app?vid=afa087ba-2aaf-49d4-84ec-c61b91ffc4f3","ios":"levelo://app?vid=afa087ba-2aaf-49d4-84ec-c61b91ffc4f3"},"vehicle_type_id":"4","last_reported":1769793887,"current_range_meters":4800,"station_id":"ce4bhh12rcd13ifvqff0","pricing_plan_id":"cebpf4jnsgd1na2vs0mg"},{"bike_id":"2f96f0b3-0de9-4cc4-9a71-a06ccd1aa4cd","system_id":"levelo_inurba_marseille","lat":43.300354,"lon":5.365861,"is_reserved":false,"is_disabled":false,"rental_uris":{"android":"levelo://app?vid=2f96f0b3-0de9-4cc4-9a71-a06ccd1aa4cd","ios":"levelo://app?vid=2f96f0b3-0de9-4cc4-9a71-a06ccd1aa4cd"},"vehicle_type_id":"4","last_reported":1769793887,"current_range_meters":5600,"station_id":"ce4bgrh2rcd13ifvqc8g","pricing_plan_id":"cebpf4jnsgd1na2vs0mg"},{"bike_id":"025c345e-2940-4dfb-ab03-a97496585f70","system_id":"levelo_inurba_marseille","lat":43.25103,"lon":5.40317,"is_reserved":false,"is_disabled":false,"rental_uris":{"android":"levelo://app?vid=025c345e-2940-4dfb-ab03-a97496585f70","ios":"levelo://app?vid=025c345e-2940-4dfb-ab03-a97496585f70"},"vehicle_type_id":"4","last_reported":1769793887,"current_range_meters":5600,"station_id":"ce4bhlh2rcd13ifvqgig","pricing_plan_id":"cebpf4jnsgd1na2vs0mg"},{"bike_id":"4be272a4-f316-4d8b-a654-f662f29bb98d","system_id":"levelo_inurba_marseille","lat":43.29868,"lon":5.39736,"is_reserved":false,"is_disabled":false,"rental_uris":{"android":"levelo://app?vid=4be272a4-f316-4d8b-a654-f662f29bb98d","ios":"levelo://app?vid=4be272a4-f316-4d8b-a654-f662f29bb98d"},"vehicle_type_id":"4","last_reported":1769793887,"current_range_meters":5600,"station_id":"ce4bh0h2rcd13ifvqd50","pricing_plan_id":"cebpf4jnsgd1na2vs0mg"},{"bike_id":"ef68bdf9-fa71-483b-bc99-7f9581830aca","system_id":"levelo_inurba_marseille","lat":43.30582,"lon":5.36701,"is_reserved":false,"is_disabled":false,"rental_uris":{"android":"levelo://app?vid=ef68bdf9-fa71-483b-bc99-7f9581830aca","ios":"levelo://app?vid=ef68bdf9-fa71-483b-bc99-7f9581830aca"},"vehicle_type_id":"4","last_reported":1769793887,"current_range_meters":5600,"station_id":"","pricing_plan_id":"cebpf4jnsgd1na2vs0mg"},{"bike_id":"2626a307-09e6-4806-8747-64c64cf9b162","system_id":"levelo_inurba_marseille","lat":43.24467,"lon":5.42554,"is_reserved":false,"is_disabled":false,"rental_uris":{"android":"levelo://app?vid=2626a307-09e6-4806-8747-64c64cf9b162","ios":"levelo://app?vid=2626a307-09e6-4806-8747-64c64cf9b162"},"vehicle_type_id":"4","last_reported":1769793887,"current_range_meters":5600,"station_id":"st_d4a3vfp97mjs738cd8kg","pricing_plan_id":"cebpf4jnsgd1na2vs0mg"},{"bike_id":"211e9f25-2d90-4b9b-a855-3b41a0e91060","system_id":"levelo_inurba_marseille","lat":43.27902,"lon":5.38013,"is_reserved":false,"is_disabled":false,"rental_uris":{"android":"levelo://app?vid=211e9f25-2d90-4b9b-a855-3b41a0e91060","ios":"levelo://app?vid=211e9f25-2d90-4b9b-a855-3b41a0e91060"},"vehicle_type_id":"4","last_reported":1769793887,"current_range_meters":5600,"station_id":"ce4bhf92rcd13ifvqf50","pricing_plan_id":"cebpf4jnsgd1na2vs0mg"},{"bike_id":"21069bed-3a7b-404b-bd0a-0a5132c6d50c","system_id":"levelo_inurba_marseille","lat":43.28703,"lon":5.37372,"is_reserved":false,"is_disabled":false,"rental_uris":{"android":"levelo://app?vid=21069bed-3a7b-404b-bd0a-0a5132c6d50c","ios":"levelo://app?vid=21069bed-3a7b-404b-bd0a-0a5132c6d50c"},"vehicle_type_id":"4","last_reported":1769793887,"current_range_meters":5600,"station_id":"ce4bh3p2rcd13ifvqdq0","pricing_plan_id":"cebpf4jnsgd1na2vs0mg"},{"bike_id":"af654c71-a67d-46af-bf40-a020e2f3bf53","system_id":"levelo_inurba_marseille","lat":43.25034,"lon":5.38901,"is_reserved":false,"is_disabled":false,"rental_uris":{"android":"levelo://app?vid=af654c71-a67d-46af-bf40-a020e2f3bf53","ios":"levelo://app?vid=af654c71-a67d-46af-bf40-a020e2f3bf53"},"vehicle_type_id":"4","last_reported":1769793887,"current_range_meters":5600,"station_id":"ce4bhgp2rcd13ifvqfd0","pricing_plan_id":"cebpf4jnsgd1na2vs0mg"},{"bike_id":"07e1cd8b-d392-474e-a4f3-23671fe867c2","system_id":"levelo_inurba_marseille","lat":43.29624,"lon":5.37688,"is_reserved":false,"is_disabled":false,"rental_uris":{"android":"levelo://app?vid=07e1cd8b-d392-474e-a4f3-23671fe867c2","ios":"levelo://app?vid=07e1cd8b-d392-474e-a4f3-23671fe867c2"},"vehicle_type_id":"4","last_reported":1769793887,"current_range_meters":5600,"station_id":"ce4bgi92rcd13ifvqb90","pricing_plan_id":"cebpf4jnsgd1na2vs0mg"},{"bike_id":"fcb6a24a-52b1-488a-b1ff-28d7bd022f8d","system_id":"levelo_inurba_marseille","lat":43.282593,"lon":5.350554,"is_reserved":false,"is_disabled":false,"rental_uris":{"android":"levelo://app?vid=fcb6a24a-52b1-488a-b1ff-28d7bd022f8d","ios":"levelo://app?vid=fcb6a24a-52b1-488a-b1ff-28d7bd022f8d"},"vehicle_type_id":"4","last_reported":1769793887,"current_range_meters":5600,"station_id":"ce4bhch2rcd13ifvqeug","pricing_plan_id":"cebpf4jnsgd1na2vs0mg"},{"bike_id":"f6699b44-7f1f-4cb6-9b5f-0baa3ebe3e98","system_id":"levelo_inurba_marseille","lat":43.26198,"lon":5.37445,"is_reserved":false,"is_disabled":false,"rental_uris":{"android":"levelo://app?vid=f6699b44-7f1f-4cb6-9b5f-0baa3ebe3e98","ios":"levelo://app?vid=f6699b44-7f1f-4cb6-9b5f-0baa3ebe3e98"},"vehicle_type_id":"4","last_reported":1769793887,"current_range_meters":5600,"station_id":"ce4bhgp2rcd13ifvqfc0","pricing_plan_id":"cebpf4jnsgd1na2vs0mg"},{"bike_id":"4d864e6f-a610-49f1-bad1-4b74bd8ceb49","system_id":"levelo_inurba_marseille","lat":43.30482,"lon":5.37914,"is_reserved":false,"is_disabled":false,"rental_uris":{"android":"levelo://app?vid=4d864e6f-a610-49f1-bad1-4b74bd8ceb49","ios":"levelo://app?vid=4d864e6f-a610-49f1-bad1-4b74bd8ceb49"},"vehicle_type_id":"4","last_reported":1769793887,"current_range_meters":5600,"station_id":"ce4bgup2rcd13ifvqcn0","pricing_plan_id":"cebpf4jnsgd1na2vs0mg"},{"bike_id":"d8c52549-b69a-4546-87c2-6c2e585ebd60","system_id":"levelo_inurba_marseille","lat":43.28689,"lon":5.37385,"is_reserved":false,"is_disabled":false,"rental_uris":{"android":"levelo://app?vid=d8c52549-b69a-4546-87c2-6c2e585ebd60","ios":"levelo://app?vid=d8c52549-b69a-4546-87c2-6c2e585ebd60"},"vehicle_type_id":"4","last_reported":1769793887,"current_range_meters":5600,"station_id":"ce4bh3p2rcd13ifvqdq0","pricing_plan_id":"cebpf4jnsgd1na2vs0mg"},{"bike_id":"1df32dff-5611-415d-8fae-817c467a81ff","system_id":"levelo_inurba_marseille","lat":43.23071,"lon":5.35522,"is_reserved":false,"is_disabled":false,"rental_uris":{"android":"levelo://app?vid=1df32dff-5611-415d-8fae-817c467a81ff","ios":"levelo://app?vid=1df32dff-5611-415d-8fae-817c467a81ff"},"vehicle_type_id":"4","last_reported":1769793887,"current_range_meters":5600,"station_id":"cpo3342slgdg3j2ifvpg","pricing_plan_id":"cebpf4jnsgd1na2vs0mg"},{"bike_id":"ab4c079d-928a-42e6-9c64-6371aee57976","system_id":"levelo_inurba_marseille","lat":43.29804,"lon":5.38095,"is_reserved":false,"is_disabled":false,"rental_uris":{"android":"levelo://app?vid=ab4c079d-928a-42e6-9c64-6371aee57976","ios":"levelo://app?vid=ab4c079d-928a-42e6-9c64-6371aee57976"},"vehicle_type_id":"4","last_reported":1769793887,"current_range_meters":6000,"station_id":"ce4bgip2rcd13ifvqbb0","pricing_plan_id":"cebpf4jnsgd1na2vs0mg"},{"bike_id":"82a6b099-0577-4798-9a60-21fb38c2bbb7","system_id":"levelo_inurba_marseille","lat":43.29815,"lon":5.44067,"is_reserved":false,"is_disabled":false,"rental_uris":{"android":"levelo://app?vid=82a6b099-0577-4798-9a60-21fb38c2bbb7","ios":"levelo://app?vid=82a6b099-0577-4798-9a60-21fb38c2bbb7"},"vehicle_type_id":"4","last_reported":1769793887,"current_range_meters":6000,"station_id":"st_d3jp68qikq2c7381ktn0","pricing_plan_id":"cebpf4jnsgd1na2vs0mg"},{"bike_id":"ffdda927-e6da-4d6b-b63c-5f8f68ad9828","system_id":"levelo_inurba_marseille","lat":43.30898,"lon":5.41175,"is_reserved":false,"is_disabled":false,"rental_uris":{"android":"levelo://app?vid=ffdda927-e6da-4d6b-b63c-5f8f68ad9828","ios":"levelo://app?vid=ffdda927-e6da-4d6b-b63c-5f8f68ad9828"},"vehicle_type_id":"4","last_reported":1769793887,"current_range_meters":6000,"station_id":"","pricing_plan_id":"cebpf4jnsgd1na2vs0mg"},{"bike_id":"2985593a-0015-49dc-be38-d4223266a10b","system_id":"levelo_inurba_marseille","lat":43.29284,"lon":5.40732,"is_reserved":false,"is_disabled":false,"rental_uris":{"android":"levelo://app?vid=2985593a-0015-49dc-be38-d4223266a10b","ios":"levelo://app?vid=2985593a-0015-49dc-be38-d4223266a10b"},"vehicle_type_id":"4","last_reported":1769793887,"current_range_meters":6000,"station_id":"","pricing_plan_id":"cebpf4jnsgd1na2vs0mg"},{"bike_id":"3c07e8db-1d64-4b7a-879d-8b774c3d7e0c","system_id":"levelo_inurba_marseille","lat":43.27374,"lon":5.36251,"is_reserved":false,"is_disabled":false,"rental_uris":{"android":"levelo://app?vid=3c07e8db-1d64-4b7a-879d-8b774c3d7e0c","ios":"levelo://app?vid=3c07e8db-1d64-4b7a-879d-8b774c3d7e0c"},"vehicle_type_id":"4","last_reported":1769793887,"current_range_meters":6000,"station_id":"ce4bhbh2rcd13ifvqeo0","pricing_plan_id":"cebpf4jnsgd1na2vs0mg"},{"bike_id":"ceed1653-0aff-4dc0-b159-f8529a6c28c1","system_id":"levelo_inurba_marseille","lat":43.23192,"lon":5.35556,"is_reserved":false,"is_disabled":false,"rental_uris":{"android":"levelo://app?vid=ceed1653-0aff-4dc0-b159-f8529a6c28c1","ios":"levelo://app?vid=ceed1653-0aff-4dc0-b159-f8529a6c28c1"},"vehicle_type_id":"4","last_reported":1769793887,"current_range_meters":6000,"station_id":"ce4bhu92rcd13ifvqi70","pricing_plan_id":"cebpf4jnsgd1na2vs0mg"},{"bike_id":"806d46b1-340d-4e45-88d6-46737fa860e4","system_id":"levelo_inurba_marseille","lat":43.275,"lon":5.42437,"is_reserved":false,"is_disabled":false,"rental_uris":{"android":"levelo://app?vid=806d46b1-340d-4e45-88d6-46737fa860e4","ios":"levelo://app?vid=806d46b1-340d-4e45-88d6-46737fa860e4"},"vehicle_type_id":"4","last_reported":1769793887,"current_range_meters":6000,"station_id":"ce4bhn92rcd13ifvqgrg","pricing_plan_id":"cebpf4jnsgd1na2vs0mg"},{"bike_id":"1073d592-39b0-4cb1-b01c-c5c5e014c88a","system_id":"levelo_inurba_marseille","lat":43.29804,"lon":5.38089,"is_reserved":false,"is_disabled":false,"rental_uris":{"android":"levelo://app?vid=1073d592-39b0-4cb1-b01c-c5c5e014c88a","ios":"levelo://app?vid=1073d592-39b0-4cb1-b01c-c5c5e014c88a"},"vehicle_type_id":"4","last_reported":1769793887,"current_range_meters":6000,"station_id":"ce4bgip2rcd13ifvqbb0","pricing_plan_id":"cebpf4jnsgd1na2vs0mg"},{"bike_id":"e4ff084c-f3c4-431f-a828-15b71c44f0df","system_id":"levelo_inurba_marseille","lat":43.25117,"lon":5.4031,"is_reserved":false,"is_disabled":true,"rental_uris":{"android":"levelo://app?vid=e4ff084c-f3c4-431f-a828-15b71c44f0df","ios":"levelo://app?vid=e4ff084c-f3c4-431f-a828-15b71c44f0df"},"vehicle_type_id":"4","last_reported":1769793887,"current_range_meters":6000,"station_id":"ce4bhlh2rcd13ifvqgig","pricing_plan_id":"cebpf4jnsgd1na2vs0mg"},{"bike_id":"283526fc-ecdc-47e8-9ed9-a3688db271d7","system_id":"levelo_inurba_marseille","lat":43.24389,"lon":5.37049,"is_reserved":false,"is_disabled":false,"rental_uris":{"android":"levelo://app?vid=283526fc-ecdc-47e8-9ed9-a3688db271d7","ios":"levelo://app?vid=283526fc-ecdc-47e8-9ed9-a3688db271d7"},"vehicle_type_id":"4","last_reported":1769793887,"current_range_meters":6000,"station_id":"ce4bhhh2rcd13ifvqfk0","pricing_plan_id":"cebpf4jnsgd1na2vs0mg"},{"bike_id":"2118e989-9bd5-4208-aef3-62860e5c21cf","system_id":"levelo_inurba_marseille","lat":43.297944,"lon":5.381053,"is_reserved":false,"is_disabled":false,"rental_uris":{"android":"levelo://app?vid=2118e989-9bd5-4208-aef3-62860e5c21cf","ios":"levelo://app?vid=2118e989-9bd5-4208-aef3-62860e5c21cf"},"vehicle_type_id":"4","last_reported":1769793887,"current_range_meters":6000,"station_id":"ce4bgip2rcd13ifvqbb0","pricing_plan_id":"cebpf4jnsgd1na2vs0mg"},{"bike_id":"87cf9460-b9bf-4ad4-987e-e325fe8735a7","system_id":"levelo_inurba_marseille","lat":43.28414,"lon":5.37519,"is_reserved":false,"is_disabled":false,"rental_uris":{"android":"levelo://app?vid=87cf9460-b9bf-4ad4-987e-e325fe8735a7","ios":"levelo://app?vid=87cf9460-b9bf-4ad4-987e-e325fe8735a7"},"vehicle_type_id":"4","last_reported":1769793887,"current_range_meters":6000,"station_id":"ce4bh412rcd13ifvqds0","pricing_plan_id":"cebpf4jnsgd1na2vs0mg"},{"bike_id":"c63d99e7-5518-4cca-a34f-987d59e6dfe6","system_id":"levelo_inurba_marseille","lat":43.291772,"lon":5.372006,"is_reserved":false,"is_disabled":false,"rental_uris":{"android":"levelo://app?vid=c63d99e7-5518-4cca-a34f-987d59e6dfe6","ios":"levelo://app?vid=c63d99e7-5518-4cca-a34f-987d59e6dfe6"},"vehicle_type_id":"4","last_reported":1769793887,"current_range_meters":6000,"station_id":"ce4bha92rcd13ifvqeh0","pricing_plan_id":"cebpf4jnsgd1na2vs0mg"},{"bike_id":"e0b3adb1-fa22-454b-9720-c4e5893c659b","system_id":"levelo_inurba_marseille","lat":43.28276,"lon":5.35047,"is_reserved":false,"is_disabled":false,"rental_uris":{"android":"levelo://app?vid=e0b3adb1-fa22-454b-9720-c4e5893c659b","ios":"levelo://app?vid=e0b3adb1-fa22-454b-9720-c4e5893c659b"},"vehicle_type_id":"4","last_reported":1769793887,"current_range_meters":6400,"station_id":"ce4bhbp2rcd13ifvqerg","pricing_plan_id":"cebpf4jnsgd1na2vs0mg"},{"bike_id":"456727bd-baa8-41bf-ae9f-158a99ff9411","system_id":"levelo_inurba_marseille","lat":43.22563,"lon":5.41635,"is_reserved":false,"is_disabled":false,"rental_uris":{"android":"levelo://app?vid=456727bd-baa8-41bf-ae9f-158a99ff9411","ios":"levelo://app?vid=456727bd-baa8-41bf-ae9f-158a99ff9411"},"vehicle_type_id":"4","last_reported":1769793887,"current_range_meters":6400,"station_id":"st_d2o4gvlbi1j2169b742g","pricing_plan_id":"cebpf4jnsgd1na2vs0mg"},{"bike_id":"d7b04403-7dfa-4d8a-bd81-cfc844f4e0b5","system_id":"levelo_inurba_marseille","lat":43.29821,"lon":5.44066,"is_reserved":false,"is_disabled":false,"rental_uris":{"android":"levelo://app?vid=d7b04403-7dfa-4d8a-bd81-cfc844f4e0b5","ios":"levelo://app?vid=d7b04403-7dfa-4d8a-bd81-cfc844f4e0b5"},"vehicle_type_id":"4","last_reported":1769793887,"current_range_meters":6400,"station_id":"st_d3jp68qikq2c7381ktn0","pricing_plan_id":"cebpf4jnsgd1na2vs0mg"},{"bike_id":"0c5dab21-b35b-41a3-a2d9-535c4c083460","system_id":"levelo_inurba_marseille","lat":43.288548,"lon":5.393322,"is_reserved":false,"is_disabled":false,"rental_uris":{"android":"levelo://app?vid=0c5dab21-b35b-41a3-a2d9-535c4c083460","ios":"levelo://app?vid=0c5dab21-b35b-41a3-a2d9-535c4c083460"},"vehicle_type_id":"4","last_reported":1769793887,"current_range_meters":6400,"station_id":"ce4bh2p2rcd13ifvqdi0","pricing_plan_id":"cebpf4jnsgd1na2vs0mg"},{"bike_id":"2ac29c58-0195-4956-90e4-95a191ea90c9","system_id":"levelo_inurba_marseille","lat":43.2534,"lon":5.4217,"is_reserved":false,"is_disabled":false,"rental_uris":{"android":"levelo://app?vid=2ac29c58-0195-4956-90e4-95a191ea90c9","ios":"levelo://app?vid=2ac29c58-0195-4956-90e4-95a191ea90c9"},"vehicle_type_id":"4","last_reported":1769793887,"current_range_meters":6400,"station_id":"st_d2m65c5bi1j21697t3ng","pricing_plan_id":"cebpf4jnsgd1na2vs0mg"},{"bike_id":"d95061e8-04ce-446c-8218-2548808c2a9d","system_id":"levelo_inurba_marseille","lat":43.26555,"lon":5.39048,"is_reserved":false,"is_disabled":false,"rental_uris":{"android":"levelo://app?vid=d95061e8-04ce-446c-8218-2548808c2a9d","ios":"levelo://app?vid=d95061e8-04ce-446c-8218-2548808c2a9d"},"vehicle_type_id":"4","last_reported":1769793887,"current_range_meters":6400,"station_id":"ce4bhe12rcd13ifvqf30","pricing_plan_id":"cebpf4jnsgd1na2vs0mg"},{"bike_id":"f77f11ea-c57f-4a1e-b998-1859acb2e91b","system_id":"levelo_inurba_marseille","lat":43.28601,"lon":5.35094,"is_reserved":false,"is_disabled":false,"rental_uris":{"android":"levelo://app?vid=f77f11ea-c57f-4a1e-b998-1859acb2e91b","ios":"levelo://app?vid=f77f11ea-c57f-4a1e-b998-1859acb2e91b"},"vehicle_type_id":"4","last_reported":1769793887,"current_range_meters":6400,"station_id":"ce4bhch2rcd13ifvqeug","pricing_plan_id":"cebpf4jnsgd1na2vs0mg"},{"bike_id":"7243427c-7e1e-4875-b4d3-b3a9df2c737a","system_id":"levelo_inurba_marseille","lat":43.30127,"lon":5.387724,"is_reserved":false,"is_disabled":true,"rental_uris":{"android":"levelo://app?vid=7243427c-7e1e-4875-b4d3-b3a9df2c737a","ios":"levelo://app?vid=7243427c-7e1e-4875-b4d3-b3a9df2c737a"},"vehicle_type_id":"4","last_reported":1769793887,"current_range_meters":6400,"station_id":"ce4bghh2rcd13ifvqb60","pricing_plan_id":"cebpf4jnsgd1na2vs0mg"},{"bike_id":"ff6220a2-0ba2-4f2b-99d8-48d7fb65a584","system_id":"levelo_inurba_marseille","lat":43.30554,"lon":5.36529,"is_reserved":false,"is_disabled":false,"rental_uris":{"android":"levelo://app?vid=ff6220a2-0ba2-4f2b-99d8-48d7fb65a584","ios":"levelo://app?vid=ff6220a2-0ba2-4f2b-99d8-48d7fb65a584"},"vehicle_type_id":"4","last_reported":1769793887,"current_range_meters":6400,"station_id":"ce4bgs12rcd13ifvqcag","pricing_plan_id":"cebpf4jnsgd1na2vs0mg"},{"bike_id":"2f2c2321-8ff0-4402-9a3a-40a63123398a","system_id":"levelo_inurba_marseille","lat":43.26586,"lon":5.39045,"is_reserved":false,"is_disabled":false,"rental_uris":{"android":"levelo://app?vid=2f2c2321-8ff0-4402-9a3a-40a63123398a","ios":"levelo://app?vid=2f2c2321-8ff0-4402-9a3a-40a63123398a"},"vehicle_type_id":"4","last_reported":1769793887,"current_range_meters":6400,"station_id":"ce4bhe12rcd13ifvqf30","pricing_plan_id":"cebpf4jnsgd1na2vs0mg"},{"bike_id":"4b5eb031-7397-4204-b8ec-553a81e6fa49","system_id":"levelo_inurba_marseille","lat":43.27565,"lon":5.38416,"is_reserved":false,"is_disabled":false,"rental_uris":{"android":"levelo://app?vid=4b5eb031-7397-4204-b8ec-553a81e6fa49","ios":"levelo://app?vid=4b5eb031-7397-4204-b8ec-553a81e6fa49"},"vehicle_type_id":"4","last_reported":1769793887,"current_range_meters":6400,"station_id":"ce4bhh92rcd13ifvqfi0","pricing_plan_id":"cebpf4jnsgd1na2vs0mg"},{"bike_id":"23dad914-1de4-48fb-a770-cde7550d8b95","system_id":"levelo_inurba_marseille","lat":43.30377,"lon":5.41847,"is_reserved":false,"is_disabled":false,"rental_uris":{"android":"levelo://app?vid=23dad914-1de4-48fb-a770-cde7550d8b95","ios":"levelo://app?vid=23dad914-1de4-48fb-a770-cde7550d8b95"},"vehicle_type_id":"4","last_reported":1769793887,"current_range_meters":6400,"station_id":"ce4bhop2rcd13ifvqh7g","pricing_plan_id":"cebpf4jnsgd1na2vs0mg"},{"bike_id":"891291bf-2508-4614-98b9-c57a30a99b04","system_id":"levelo_inurba_marseille","lat":43.22934,"lon":5.35389,"is_reserved":false,"is_disabled":false,"rental_uris":{"android":"levelo://app?vid=891291bf-2508-4614-98b9-c57a30a99b04","ios":"levelo://app?vid=891291bf-2508-4614-98b9-c57a30a99b04"},"vehicle_type_id":"4","last_reported":1769793887,"current_range_meters":6400,"station_id":"cpo3532slgdg3j2ikp40","pricing_plan_id":"cebpf4jnsgd1na2vs0mg"},{"bike_id":"6e316437-9e53-4058-b852-370b67323663","system_id":"levelo_inurba_marseille","lat":43.24637,"lon":5.43143,"is_reserved":false,"is_disabled":false,"rental_uris":{"android":"levelo://app?vid=6e316437-9e53-4058-b852-370b67323663","ios":"levelo://app?vid=6e316437-9e53-4058-b852-370b67323663"},"vehicle_type_id":"4","last_reported":1769793887,"current_range_meters":6400,"station_id":"st_d2m6c4gdas8pm72e190g","pricing_plan_id":"cebpf4jnsgd1na2vs0mg"},{"bike_id":"7272b7e5-dc3f-4a67-bdd0-317168495648","system_id":"levelo_inurba_marseille","lat":43.26812,"lon":5.40257,"is_reserved":false,"is_disabled":false,"rental_uris":{"android":"levelo://app?vid=7272b7e5-dc3f-4a67-bdd0-317168495648","ios":"levelo://app?vid=7272b7e5-dc3f-4a67-bdd0-317168495648"},"vehicle_type_id":"4","last_reported":1769793887,"current_range_meters":6400,"station_id":"ce501612rcd8frsf0b60","pricing_plan_id":"cebpf4jnsgd1na2vs0mg"},{"bike_id":"c36501a5-b15d-4754-b855-eaf047fce34d","system_id":"levelo_inurba_marseille","lat":43.28601,"lon":5.37071,"is_reserved":false,"is_disabled":false,"rental_uris":{"android":"levelo://app?vid=c36501a5-b15d-4754-b855-eaf047fce34d","ios":"levelo://app?vid=c36501a5-b15d-4754-b855-eaf047fce34d"},"vehicle_type_id":"4","last_reported":1769793887,"current_range_meters":6400,"station_id":"ce4bht12rcd13ifvqi60","pricing_plan_id":"cebpf4jnsgd1na2vs0mg"},{"bike_id":"b17cb260-4049-4abc-a308-15cf0b8ce0e6","system_id":"levelo_inurba_marseille","lat":43.25005,"lon":5.38942,"is_reserved":false,"is_disabled":false,"rental_uris":{"android":"levelo://app?vid=b17cb260-4049-4abc-a308-15cf0b8ce0e6","ios":"levelo://app?vid=b17cb260-4049-4abc-a308-15cf0b8ce0e6"},"vehicle_type_id":"4","last_reported":1769793887,"current_range_meters":6400,"station_id":"ce4bhgp2rcd13ifvqfd0","pricing_plan_id":"cebpf4jnsgd1na2vs0mg"},{"bike_id":"3260d6da-2018-4dad-a5a2-1fcdb44b0cff","system_id":"levelo_inurba_marseille","lat":43.2509,"lon":5.39503,"is_reserved":false,"is_disabled":true,"rental_uris":{"android":"levelo://app?vid=3260d6da-2018-4dad-a5a2-1fcdb44b0cff","ios":"levelo://app?vid=3260d6da-2018-4dad-a5a2-1fcdb44b0cff"},"vehicle_type_id":"4","last_reported":1769793887,"current_range_meters":6800,"station_id":"ce4bhm12rcd13ifvqgkg","pricing_plan_id":"cebpf4jnsgd1na2vs0mg"},{"bike_id":"078b63c9-89a3-4623-a2e8-3fd53a065c68","system_id":"levelo_inurba_marseille","lat":43.24214,"lon":5.39362,"is_reserved":false,"is_disabled":false,"rental_uris":{"android":"levelo://app?vid=078b63c9-89a3-4623-a2e8-3fd53a065c68","ios":"levelo://app?vid=078b63c9-89a3-4623-a2e8-3fd53a065c68"},"vehicle_type_id":"4","last_reported":1769793887,"current_range_meters":6800,"station_id":"","pricing_plan_id":"cebpf4jnsgd1na2vs0mg"},{"bike_id":"4b9c2949-48d9-47bd-87a5-474334cf4c2c","system_id":"levelo_inurba_marseille","lat":43.25005,"lon":5.38936,"is_reserved":false,"is_disabled":false,"rental_uris":{"android":"levelo://app?vid=4b9c2949-48d9-47bd-87a5-474334cf4c2c","ios":"levelo://app?vid=4b9c2949-48d9-47bd-87a5-474334cf4c2c"},"vehicle_type_id":"4","last_reported":1769793887,"current_range_meters":6800,"station_id":"ce4bhgp2rcd13ifvqfd0","pricing_plan_id":"cebpf4jnsgd1na2vs0mg"},{"bike_id":"6b07e50c-03c8-4824-b0e1-e184b4975a06","system_id":"levelo_inurba_marseille","lat":43.25333,"lon":5.4215,"is_reserved":false,"is_disabled":true,"rental_uris":{"android":"levelo://app?vid=6b07e50c-03c8-4824-b0e1-e184b4975a06","ios":"levelo://app?vid=6b07e50c-03c8-4824-b0e1-e184b4975a06"},"vehicle_type_id":"4","last_reported":1769793887,"current_range_meters":6800,"station_id":"st_d2m65c5bi1j21697t3ng","pricing_plan_id":"cebpf4jnsgd1na2vs0mg"},{"bike_id":"5e3f0ec3-648c-4f6a-a210-57809b8fb522","system_id":"levelo_inurba_marseille","lat":43.28422,"lon":5.34974,"is_reserved":false,"is_disabled":false,"rental_uris":{"android":"levelo://app?vid=5e3f0ec3-648c-4f6a-a210-57809b8fb522","ios":"levelo://app?vid=5e3f0ec3-648c-4f6a-a210-57809b8fb522"},"vehicle_type_id":"4","last_reported":1769793887,"current_range_meters":6800,"station_id":"ce4bhbh2rcd13ifvqepg","pricing_plan_id":"cebpf4jnsgd1na2vs0mg"},{"bike_id":"32c2a5af-b5f9-416e-8e4c-96e2f8d06aad","system_id":"levelo_inurba_marseille","lat":43.28275,"lon":5.35098,"is_reserved":false,"is_disabled":false,"rental_uris":{"android":"levelo://app?vid=32c2a5af-b5f9-416e-8e4c-96e2f8d06aad","ios":"levelo://app?vid=32c2a5af-b5f9-416e-8e4c-96e2f8d06aad"},"vehicle_type_id":"4","last_reported":1769793887,"current_range_meters":6800,"station_id":"ce4bhbp2rcd13ifvqerg","pricing_plan_id":"cebpf4jnsgd1na2vs0mg"},{"bike_id":"1915d4ba-f4af-445d-a9d3-be106a370507","system_id":"levelo_inurba_marseille","lat":43.273822,"lon":5.362491,"is_reserved":false,"is_disabled":false,"rental_uris":{"android":"levelo://app?vid=1915d4ba-f4af-445d-a9d3-be106a370507","ios":"levelo://app?vid=1915d4ba-f4af-445d-a9d3-be106a370507"},"vehicle_type_id":"4","last_reported":1769793887,"current_range_meters":6800,"station_id":"ce4bhbh2rcd13ifvqeo0","pricing_plan_id":"cebpf4jnsgd1na2vs0mg"},{"bike_id":"f837c673-8f99-41df-8e92-c39dc749cf7c","system_id":"levelo_inurba_marseille","lat":43.29563,"lon":5.37519,"is_reserved":false,"is_disabled":false,"rental_uris":{"android":"levelo://app?vid=f837c673-8f99-41df-8e92-c39dc749cf7c","ios":"levelo://app?vid=f837c673-8f99-41df-8e92-c39dc749cf7c"},"vehicle_type_id":"4","last_reported":1769793887,"current_range_meters":6800,"station_id":"ce4bgh92rcd13ifvqb50","pricing_plan_id":"cebpf4jnsgd1na2vs0mg"},{"bike_id":"382c481d-5cf2-4d38-9788-579a9f396d00","system_id":"levelo_inurba_marseille","lat":43.22931,"lon":5.35379,"is_reserved":false,"is_disabled":false,"rental_uris":{"android":"levelo://app?vid=382c481d-5cf2-4d38-9788-579a9f396d00","ios":"levelo://app?vid=382c481d-5cf2-4d38-9788-579a9f396d00"},"vehicle_type_id":"4","last_reported":1769793887,"current_range_meters":6800,"station_id":"cpo3532slgdg3j2ikp40","pricing_plan_id":"cebpf4jnsgd1na2vs0mg"},{"bike_id":"8b03cb7d-1de6-4845-89c8-ef7b8942b746","system_id":"levelo_inurba_marseille","lat":43.28001,"lon":5.39991,"is_reserved":false,"is_disabled":false,"rental_uris":{"android":"levelo://app?vid=8b03cb7d-1de6-4845-89c8-ef7b8942b746","ios":"levelo://app?vid=8b03cb7d-1de6-4845-89c8-ef7b8942b746"},"vehicle_type_id":"4","last_reported":1769793887,"current_range_meters":6800,"station_id":"ce4bho92rcd13ifvqh4g","pricing_plan_id":"cebpf4jnsgd1na2vs0mg"},{"bike_id":"fc74d416-58fd-40e8-83da-909822985a20","system_id":"levelo_inurba_marseille","lat":43.30358,"lon":5.41865,"is_reserved":false,"is_disabled":false,"rental_uris":{"android":"levelo://app?vid=fc74d416-58fd-40e8-83da-909822985a20","ios":"levelo://app?vid=fc74d416-58fd-40e8-83da-909822985a20"},"vehicle_type_id":"4","last_reported":1769793887,"current_range_meters":6800,"station_id":"ce4bhop2rcd13ifvqh7g","pricing_plan_id":"cebpf4jnsgd1na2vs0mg"},{"bike_id":"e234b1a8-3069-4e25-9dbb-d09f56e07d4d","system_id":"levelo_inurba_marseille","lat":43.2931,"lon":5.37165,"is_reserved":false,"is_disabled":false,"rental_uris":{"android":"levelo://app?vid=e234b1a8-3069-4e25-9dbb-d09f56e07d4d","ios":"levelo://app?vid=e234b1a8-3069-4e25-9dbb-d09f56e07d4d"},"vehicle_type_id":"4","last_reported":1769793887,"current_range_meters":6800,"station_id":"ce4bgh92rcd13ifvqb40","pricing_plan_id":"cebpf4jnsgd1na2vs0mg"},{"bike_id":"cf7fdac9-98b5-42d9-8895-176eae91ef6d","system_id":"levelo_inurba_marseille","lat":43.28268,"lon":5.35075,"is_reserved":false,"is_disabled":false,"rental_uris":{"android":"levelo://app?vid=cf7fdac9-98b5-42d9-8895-176eae91ef6d","ios":"levelo://app?vid=cf7fdac9-98b5-42d9-8895-176eae91ef6d"},"vehicle_type_id":"4","last_reported":1769793887,"current_range_meters":6800,"station_id":"ce4bhbp2rcd13ifvqerg","pricing_plan_id":"cebpf4jnsgd1na2vs0mg"},{"bike_id":"5f8af22f-9203-4ec9-816f-1618d1060df6","system_id":"levelo_inurba_marseille","lat":43.32486,"lon":5.38288,"is_reserved":false,"is_disabled":false,"rental_uris":{"android":"levelo://app?vid=5f8af22f-9203-4ec9-816f-1618d1060df6","ios":"levelo://app?vid=5f8af22f-9203-4ec9-816f-1618d1060df6"},"vehicle_type_id":"4","last_reported":1769793887,"current_range_meters":6800,"station_id":"st_d4asgbiv49dc73anf9m0","pricing_plan_id":"cebpf4jnsgd1na2vs0mg"},{"bike_id":"75e12ebc-bd2b-46ca-8731-fb764315b922","system_id":"levelo_inurba_marseille","lat":43.25084,"lon":5.3951,"is_reserved":false,"is_disabled":false,"rental_uris":{"android":"levelo://app?vid=75e12ebc-bd2b-46ca-8731-fb764315b922","ios":"levelo://app?vid=75e12ebc-bd2b-46ca-8731-fb764315b922"},"vehicle_type_id":"4","last_reported":1769793887,"current_range_meters":6800,"station_id":"ce4bhm12rcd13ifvqgkg","pricing_plan_id":"cebpf4jnsgd1na2vs0mg"},{"bike_id":"1d321438-398a-4c27-a731-4b493b3f1405","system_id":"levelo_inurba_marseille","lat":43.28624,"lon":5.35095,"is_reserved":false,"is_disabled":false,"rental_uris":{"android":"levelo://app?vid=1d321438-398a-4c27-a731-4b493b3f1405","ios":"levelo://app?vid=1d321438-398a-4c27-a731-4b493b3f1405"},"vehicle_type_id":"4","last_reported":1769793887,"current_range_meters":6800,"station_id":"ce4bhch2rcd13ifvqeug","pricing_plan_id":"cebpf4jnsgd1na2vs0mg"},{"bike_id":"90d8f47d-92dd-4327-94ea-1f7e7a2152b8","system_id":"levelo_inurba_marseille","lat":43.27828,"lon":5.4067,"is_reserved":false,"is_disabled":false,"rental_uris":{"android":"levelo://app?vid=90d8f47d-92dd-4327-94ea-1f7e7a2152b8","ios":"levelo://app?vid=90d8f47d-92dd-4327-94ea-1f7e7a2152b8"},"vehicle_type_id":"4","last_reported":1769793887,"current_range_meters":6800,"station_id":"ce4bhnh2rcd13ifvqgtg","pricing_plan_id":"cebpf4jnsgd1na2vs0mg"},{"bike_id":"ad150f2a-29f5-456b-94c0-795879e342bd","system_id":"levelo_inurba_marseille","lat":43.32114,"lon":5.36771,"is_reserved":false,"is_disabled":false,"rental_uris":{"android":"levelo://app?vid=ad150f2a-29f5-456b-94c0-795879e342bd","ios":"levelo://app?vid=ad150f2a-29f5-456b-94c0-795879e342bd"},"vehicle_type_id":"4","last_reported":1769793887,"current_range_meters":6800,"station_id":"ce4bhrh2rcd13ifvqhug","pricing_plan_id":"cebpf4jnsgd1na2vs0mg"},{"bike_id":"842ae640-421f-4790-99f0-94bd0d50de25","system_id":"levelo_inurba_marseille","lat":43.30513,"lon":5.36544,"is_reserved":false,"is_disabled":false,"rental_uris":{"android":"levelo://app?vid=842ae640-421f-4790-99f0-94bd0d50de25","ios":"levelo://app?vid=842ae640-421f-4790-99f0-94bd0d50de25"},"vehicle_type_id":"4","last_reported":1769793887,"current_range_meters":6800,"station_id":"","pricing_plan_id":"cebpf4jnsgd1na2vs0mg"},{"bike_id":"a9313b12-f057-45c7-b851-70da58d7a43e","system_id":"levelo_inurba_marseille","lat":43.25727,"lon":5.41107,"is_reserved":false,"is_disabled":false,"rental_uris":{"android":"levelo://app?vid=a9313b12-f057-45c7-b851-70da58d7a43e","ios":"levelo://app?vid=a9313b12-f057-45c7-b851-70da58d7a43e"},"vehicle_type_id":"4","last_reported":1769793887,"current_range_meters":6800,"station_id":"ce4bhkp2rcd13ifvqgd0","pricing_plan_id":"cebpf4jnsgd1na2vs0mg"},{"bike_id":"4ed8b7c4-4959-4a76-8810-ca1bf04888b4","system_id":"levelo_inurba_marseille","lat":43.24482,"lon":5.42536,"is_reserved":false,"is_disabled":false,"rental_uris":{"android":"levelo://app?vid=4ed8b7c4-4959-4a76-8810-ca1bf04888b4","ios":"levelo://app?vid=4ed8b7c4-4959-4a76-8810-ca1bf04888b4"},"vehicle_type_id":"4","last_reported":1769793887,"current_range_meters":6800,"station_id":"st_d4a3vfp97mjs738cd8kg","pricing_plan_id":"cebpf4jnsgd1na2vs0mg"},{"bike_id":"339040ef-38c7-4f49-946c-88b541b3e175","system_id":"levelo_inurba_marseille","lat":43.28617,"lon":5.35081,"is_reserved":false,"is_disabled":false,"rental_uris":{"android":"levelo://app?vid=339040ef-38c7-4f49-946c-88b541b3e175","ios":"levelo://app?vid=339040ef-38c7-4f49-946c-88b541b3e175"},"vehicle_type_id":"4","last_reported":1769793887,"current_range_meters":6800,"station_id":"ce4bhch2rcd13ifvqeug","pricing_plan_id":"cebpf4jnsgd1na2vs0mg"},{"bike_id":"f56ee39d-a6b7-4a7e-89de-b9d7f0478322","system_id":"levelo_inurba_marseille","lat":43.3234,"lon":5.36744,"is_reserved":false,"is_disabled":false,"rental_uris":{"android":"levelo://app?vid=f56ee39d-a6b7-4a7e-89de-b9d7f0478322","ios":"levelo://app?vid=f56ee39d-a6b7-4a7e-89de-b9d7f0478322"},"vehicle_type_id":"4","last_reported":1769793887,"current_range_meters":6800,"station_id":"ce4bhsh2rcd13ifvqi2g","pricing_plan_id":"cebpf4jnsgd1na2vs0mg"},{"bike_id":"88aa03d2-39ff-496d-a5ff-56408cccea2c","system_id":"levelo_inurba_marseille","lat":43.25575,"lon":5.38234,"is_reserved":false,"is_disabled":false,"rental_uris":{"android":"levelo://app?vid=88aa03d2-39ff-496d-a5ff-56408cccea2c","ios":"levelo://app?vid=88aa03d2-39ff-496d-a5ff-56408cccea2c"},"vehicle_type_id":"4","last_reported":1769793887,"current_range_meters":6800,"station_id":"ce4bhih2rcd13ifvqfs0","pricing_plan_id":"cebpf4jnsgd1na2vs0mg"},{"bike_id":"c15bf6ee-369d-4dc7-89fc-91442ce5cab3","system_id":"levelo_inurba_marseille","lat":43.299,"lon":5.43676,"is_reserved":false,"is_disabled":false,"rental_uris":{"android":"levelo://app?vid=c15bf6ee-369d-4dc7-89fc-91442ce5cab3","ios":"levelo://app?vid=c15bf6ee-369d-4dc7-89fc-91442ce5cab3"},"vehicle_type_id":"4","last_reported":1769793887,"current_range_meters":6800,"station_id":"ce4bhpp2rcd13ifvqhfg","pricing_plan_id":"cebpf4jnsgd1na2vs0mg"},{"bike_id":"2123ab58-559b-4f04-b37f-ecdafabbffd6","system_id":"levelo_inurba_marseille","lat":43.31082,"lon":5.38347,"is_reserved":false,"is_disabled":false,"rental_uris":{"android":"levelo://app?vid=2123ab58-559b-4f04-b37f-ecdafabbffd6","ios":"levelo://app?vid=2123ab58-559b-4f04-b37f-ecdafabbffd6"},"vehicle_type_id":"4","last_reported":1769793887,"current_range_meters":6800,"station_id":"ce4bgv92rcd13ifvqcr0","pricing_plan_id":"cebpf4jnsgd1na2vs0mg"},{"bike_id":"b589a911-c752-40e2-a671-addd4ec13243","system_id":"levelo_inurba_marseille","lat":43.29075,"lon":5.37169,"is_reserved":false,"is_disabled":false,"rental_uris":{"android":"levelo://app?vid=b589a911-c752-40e2-a671-addd4ec13243","ios":"levelo://app?vid=b589a911-c752-40e2-a671-addd4ec13243"},"vehicle_type_id":"4","last_reported":1769793887,"current_range_meters":7200,"station_id":"ce4bh5p2rcd13ifvqe4g","pricing_plan_id":"cebpf4jnsgd1na2vs0mg"},{"bike_id":"ff0d7e85-98bb-4c38-ae3c-d49bf6ce9fe5","system_id":"levelo_inurba_marseille","lat":43.25489,"lon":5.37646,"is_reserved":false,"is_disabled":false,"rental_uris":{"android":"levelo://app?vid=ff0d7e85-98bb-4c38-ae3c-d49bf6ce9fe5","ios":"levelo://app?vid=ff0d7e85-98bb-4c38-ae3c-d49bf6ce9fe5"},"vehicle_type_id":"4","last_reported":1769793887,"current_range_meters":7200,"station_id":"ce4bhh12rcd13ifvqff0","pricing_plan_id":"cebpf4jnsgd1na2vs0mg"},{"bike_id":"e858244c-580e-4a5e-a86b-9fc7e954317c","system_id":"levelo_inurba_marseille","lat":43.31299,"lon":5.37866,"is_reserved":false,"is_disabled":true,"rental_uris":{"android":"levelo://app?vid=e858244c-580e-4a5e-a86b-9fc7e954317c","ios":"levelo://app?vid=e858244c-580e-4a5e-a86b-9fc7e954317c"},"vehicle_type_id":"4","last_reported":1769793887,"current_range_meters":7200,"station_id":"","pricing_plan_id":"cebpf4jnsgd1na2vs0mg"},{"bike_id":"c386e859-c47c-4176-b8dc-5d121dc2bc50","system_id":"levelo_inurba_marseille","lat":43.25712,"lon":5.41101,"is_reserved":false,"is_disabled":false,"rental_uris":{"android":"levelo://app?vid=c386e859-c47c-4176-b8dc-5d121dc2bc50","ios":"levelo://app?vid=c386e859-c47c-4176-b8dc-5d121dc2bc50"},"vehicle_type_id":"4","last_reported":1769793887,"current_range_meters":7200,"station_id":"ce4bhkp2rcd13ifvqgd0","pricing_plan_id":"cebpf4jnsgd1na2vs0mg"},{"bike_id":"21335747-3add-49bb-95b9-081d777d30db","system_id":"levelo_inurba_marseille","lat":43.23177,"lon":5.4,"is_reserved":false,"is_disabled":false,"rental_uris":{"android":"levelo://app?vid=21335747-3add-49bb-95b9-081d777d30db","ios":"levelo://app?vid=21335747-3add-49bb-95b9-081d777d30db"},"vehicle_type_id":"4","last_reported":1769793887,"current_range_meters":7200,"station_id":"ce4bhn12rcd13ifvqgqg","pricing_plan_id":"cebpf4jnsgd1na2vs0mg"},{"bike_id":"e902ef9f-7cd4-4fe6-a82c-948b6d2fcf15","system_id":"levelo_inurba_marseille","lat":43.299,"lon":5.43669,"is_reserved":false,"is_disabled":false,"rental_uris":{"android":"levelo://app?vid=e902ef9f-7cd4-4fe6-a82c-948b6d2fcf15","ios":"levelo://app?vid=e902ef9f-7cd4-4fe6-a82c-948b6d2fcf15"},"vehicle_type_id":"4","last_reported":1769793887,"current_range_meters":7200,"station_id":"ce4bhpp2rcd13ifvqhfg","pricing_plan_id":"cebpf4jnsgd1na2vs0mg"},{"bike_id":"29e4ce79-df32-4a16-836e-cd957aa9a131","system_id":"levelo_inurba_marseille","lat":43.24636,"lon":5.43144,"is_reserved":false,"is_disabled":false,"rental_uris":{"android":"levelo://app?vid=29e4ce79-df32-4a16-836e-cd957aa9a131","ios":"levelo://app?vid=29e4ce79-df32-4a16-836e-cd957aa9a131"},"vehicle_type_id":"4","last_reported":1769793887,"current_range_meters":7200,"station_id":"st_d2m6c4gdas8pm72e190g","pricing_plan_id":"cebpf4jnsgd1na2vs0mg"},{"bike_id":"0e79c48d-cdc7-44eb-ad7d-d24757dd50e7","system_id":"levelo_inurba_marseille","lat":43.32355,"lon":5.3674,"is_reserved":false,"is_disabled":false,"rental_uris":{"android":"levelo://app?vid=0e79c48d-cdc7-44eb-ad7d-d24757dd50e7","ios":"levelo://app?vid=0e79c48d-cdc7-44eb-ad7d-d24757dd50e7"},"vehicle_type_id":"4","last_reported":1769793887,"current_range_meters":7200,"station_id":"ce4bhsh2rcd13ifvqi2g","pricing_plan_id":"cebpf4jnsgd1na2vs0mg"},{"bike_id":"b1e78ffd-83b0-42c8-9fec-477ac6fbc93c","system_id":"levelo_inurba_marseille","lat":43.29482,"lon":5.43314,"is_reserved":false,"is_disabled":false,"rental_uris":{"android":"levelo://app?vid=b1e78ffd-83b0-42c8-9fec-477ac6fbc93c","ios":"levelo://app?vid=b1e78ffd-83b0-42c8-9fec-477ac6fbc93c"},"vehicle_type_id":"4","last_reported":1769793887,"current_range_meters":7200,"station_id":"st_d3j5ugp08ojc73fj9d10","pricing_plan_id":"cebpf4jnsgd1na2vs0mg"},{"bike_id":"282cd347-bac3-480b-b236-7c9d2d8e9546","system_id":"levelo_inurba_marseille","lat":43.309301,"lon":5.401391,"is_reserved":false,"is_disabled":false,"rental_uris":{"android":"levelo://app?vid=282cd347-bac3-480b-b236-7c9d2d8e9546","ios":"levelo://app?vid=282cd347-bac3-480b-b236-7c9d2d8e9546"},"vehicle_type_id":"4","last_reported":1769793887,"current_range_meters":7200,"station_id":"ce4bgvp2rcd13ifvqct0","pricing_plan_id":"cebpf4jnsgd1na2vs0mg"},{"bike_id":"d1cf62c2-9420-4881-a28b-e071a65b78ff","system_id":"levelo_inurba_marseille","lat":43.30826,"lon":5.3818,"is_reserved":false,"is_disabled":false,"rental_uris":{"android":"levelo://app?vid=d1cf62c2-9420-4881-a28b-e071a65b78ff","ios":"levelo://app?vid=d1cf62c2-9420-4881-a28b-e071a65b78ff"},"vehicle_type_id":"4","last_reported":1769793887,"current_range_meters":7200,"station_id":"ce4bgt12rcd13ifvqce0","pricing_plan_id":"cebpf4jnsgd1na2vs0mg"},{"bike_id":"426ba3b1-b5d0-4997-87b0-f3dcccf1c604","system_id":"levelo_inurba_marseille","lat":43.27994,"lon":5.41648,"is_reserved":false,"is_disabled":false,"rental_uris":{"android":"levelo://app?vid=426ba3b1-b5d0-4997-87b0-f3dcccf1c604","ios":"levelo://app?vid=426ba3b1-b5d0-4997-87b0-f3dcccf1c604"},"vehicle_type_id":"4","last_reported":1769793887,"current_range_meters":7200,"station_id":"ce4bho12rcd13ifvqh1g","pricing_plan_id":"cebpf4jnsgd1na2vs0mg"},{"bike_id":"4805f1d4-f953-4b9f-9361-6eced0018eb3","system_id":"levelo_inurba_marseille","lat":43.30953,"lon":5.39042,"is_reserved":false,"is_disabled":false,"rental_uris":{"android":"levelo://app?vid=4805f1d4-f953-4b9f-9361-6eced0018eb3","ios":"levelo://app?vid=4805f1d4-f953-4b9f-9361-6eced0018eb3"},"vehicle_type_id":"4","last_reported":1769793887,"current_range_meters":7200,"station_id":"ce4bgup2rcd13ifvqco0","pricing_plan_id":"cebpf4jnsgd1na2vs0mg"},{"bike_id":"d64a7345-dc8f-4639-b8f9-25bc2d11b8f7","system_id":"levelo_inurba_marseille","lat":43.30805,"lon":5.38156,"is_reserved":false,"is_disabled":false,"rental_uris":{"android":"levelo://app?vid=d64a7345-dc8f-4639-b8f9-25bc2d11b8f7","ios":"levelo://app?vid=d64a7345-dc8f-4639-b8f9-25bc2d11b8f7"},"vehicle_type_id":"4","last_reported":1769793887,"current_range_meters":7200,"station_id":"ce4bgt12rcd13ifvqce0","pricing_plan_id":"cebpf4jnsgd1na2vs0mg"},{"bike_id":"e2701745-5106-4d39-a3d2-5f47763fb929","system_id":"levelo_inurba_marseille","lat":43.24638,"lon":5.43131,"is_reserved":false,"is_disabled":false,"rental_uris":{"android":"levelo://app?vid=e2701745-5106-4d39-a3d2-5f47763fb929","ios":"levelo://app?vid=e2701745-5106-4d39-a3d2-5f47763fb929"},"vehicle_type_id":"4","last_reported":1769793887,"current_range_meters":7200,"station_id":"st_d2m6c4gdas8pm72e190g","pricing_plan_id":"cebpf4jnsgd1na2vs0mg"},{"bike_id":"8244ccc0-ae97-4bc4-ab2e-d84ed0553ef8","system_id":"levelo_inurba_marseille","lat":43.27568,"lon":5.38412,"is_reserved":false,"is_disabled":false,"rental_uris":{"android":"levelo://app?vid=8244ccc0-ae97-4bc4-ab2e-d84ed0553ef8","ios":"levelo://app?vid=8244ccc0-ae97-4bc4-ab2e-d84ed0553ef8"},"vehicle_type_id":"4","last_reported":1769793887,"current_range_meters":7200,"station_id":"ce4bhh92rcd13ifvqfi0","pricing_plan_id":"cebpf4jnsgd1na2vs0mg"},{"bike_id":"b3808154-86af-47d0-966c-f1cc0984587d","system_id":"levelo_inurba_marseille","lat":43.33772,"lon":5.37469,"is_reserved":false,"is_disabled":false,"rental_uris":{"android":"levelo://app?vid=b3808154-86af-47d0-966c-f1cc0984587d","ios":"levelo://app?vid=b3808154-86af-47d0-966c-f1cc0984587d"},"vehicle_type_id":"4","last_reported":1769793887,"current_range_meters":7200,"station_id":"","pricing_plan_id":"cebpf4jnsgd1na2vs0mg"},{"bike_id":"3d7360da-46c8-481f-bacc-4519ec6eb9a4","system_id":"levelo_inurba_marseille","lat":43.29781,"lon":5.37087,"is_reserved":false,"is_disabled":false,"rental_uris":{"android":"levelo://app?vid=3d7360da-46c8-481f-bacc-4519ec6eb9a4","ios":"levelo://app?vid=3d7360da-46c8-481f-bacc-4519ec6eb9a4"},"vehicle_type_id":"4","last_reported":1769793887,"current_range_meters":8000,"station_id":"ce4bgop2rcd13ifvqc1g","pricing_plan_id":"cebpf4jnsgd1na2vs0mg"},{"bike_id":"84daab68-1234-4f6f-afcf-fb0fcebe2020","system_id":"levelo_inurba_marseille","lat":43.29024,"lon":5.38638,"is_reserved":false,"is_disabled":false,"rental_uris":{"android":"levelo://app?vid=84daab68-1234-4f6f-afcf-fb0fcebe2020","ios":"levelo://app?vid=84daab68-1234-4f6f-afcf-fb0fcebe2020"},"vehicle_type_id":"4","last_reported":1769793887,"current_range_meters":8000,"station_id":"ce4bh4p2rcd13ifvqe0g","pricing_plan_id":"cebpf4jnsgd1na2vs0mg"},{"bike_id":"c2c52de1-0544-45d5-b38b-c21131d17184","system_id":"levelo_inurba_marseille","lat":43.29263,"lon":5.38438,"is_reserved":false,"is_disabled":false,"rental_uris":{"android":"levelo://app?vid=c2c52de1-0544-45d5-b38b-c21131d17184","ios":"levelo://app?vid=c2c52de1-0544-45d5-b38b-c21131d17184"},"vehicle_type_id":"4","last_reported":1769793887,"current_range_meters":8000,"station_id":"ce4bh692rcd13ifvqea0","pricing_plan_id":"cebpf4jnsgd1na2vs0mg"},{"bike_id":"ff3a2071-1488-436b-90c7-1f4e0a3ac416","system_id":"levelo_inurba_marseille","lat":43.29843,"lon":5.36271,"is_reserved":false,"is_disabled":false,"rental_uris":{"android":"levelo://app?vid=ff3a2071-1488-436b-90c7-1f4e0a3ac416","ios":"levelo://app?vid=ff3a2071-1488-436b-90c7-1f4e0a3ac416"},"vehicle_type_id":"4","last_reported":1769793887,"current_range_meters":8000,"station_id":"ce4bgpp2rcd13ifvqc3g","pricing_plan_id":"cebpf4jnsgd1na2vs0mg"},{"bike_id":"29799279-8396-4ba3-80c9-33c2d1e194a1","system_id":"levelo_inurba_marseille","lat":43.25471,"lon":5.37629,"is_reserved":false,"is_disabled":false,"rental_uris":{"android":"levelo://app?vid=29799279-8396-4ba3-80c9-33c2d1e194a1","ios":"levelo://app?vid=29799279-8396-4ba3-80c9-33c2d1e194a1"},"vehicle_type_id":"4","last_reported":1769793887,"current_range_meters":8000,"station_id":"ce4bhh12rcd13ifvqff0","pricing_plan_id":"cebpf4jnsgd1na2vs0mg"},{"bike_id":"8a817f98-b304-4743-a3c3-fef726d1716b","system_id":"levelo_inurba_marseille","lat":43.29053,"lon":5.35907,"is_reserved":false,"is_disabled":false,"rental_uris":{"android":"levelo://app?vid=8a817f98-b304-4743-a3c3-fef726d1716b","ios":"levelo://app?vid=8a817f98-b304-4743-a3c3-fef726d1716b"},"vehicle_type_id":"4","last_reported":1769793887,"current_range_meters":8000,"station_id":"ce4bha92rcd13ifvqeg0","pricing_plan_id":"cebpf4jnsgd1na2vs0mg"},{"bike_id":"9c95a5a4-e3a8-4c3b-b6c9-be6325dc562d","system_id":"levelo_inurba_marseille","lat":43.29266,"lon":5.38446,"is_reserved":false,"is_disabled":false,"rental_uris":{"android":"levelo://app?vid=9c95a5a4-e3a8-4c3b-b6c9-be6325dc562d","ios":"levelo://app?vid=9c95a5a4-e3a8-4c3b-b6c9-be6325dc562d"},"vehicle_type_id":"4","last_reported":1769793887,"current_range_meters":8000,"station_id":"ce4bh692rcd13ifvqea0","pricing_plan_id":"cebpf4jnsgd1na2vs0mg"},{"bike_id":"b7ff29ff-f0d1-48df-98f4-d751169cd12b","system_id":"levelo_inurba_marseille","lat":43.29968,"lon":5.38496,"is_reserved":false,"is_disabled":false,"rental_uris":{"android":"levelo://app?vid=b7ff29ff-f0d1-48df-98f4-d751169cd12b","ios":"levelo://app?vid=b7ff29ff-f0d1-48df-98f4-d751169cd12b"},"vehicle_type_id":"4","last_reported":1769793887,"current_range_meters":8000,"station_id":"ce4bgj92rcd13ifvqbd0","pricing_plan_id":"cebpf4jnsgd1na2vs0mg"},{"bike_id":"ca2c8296-777f-4e50-b78a-4389e6df49a8","system_id":"levelo_inurba_marseille","lat":43.29302,"lon":5.37468,"is_reserved":false,"is_disabled":false,"rental_uris":{"android":"levelo://app?vid=ca2c8296-777f-4e50-b78a-4389e6df49a8","ios":"levelo://app?vid=ca2c8296-777f-4e50-b78a-4389e6df49a8"},"vehicle_type_id":"4","last_reported":1769793887,"current_range_meters":8000,"station_id":"ce4bgi12rcd13ifvqb70","pricing_plan_id":"cebpf4jnsgd1na2vs0mg"},{"bike_id":"be59a1fa-fcbd-4f35-ac1f-ae4c97b5126c","system_id":"levelo_inurba_marseille","lat":43.21748,"lon":5.34598,"is_reserved":false,"is_disabled":false,"rental_uris":{"android":"levelo://app?vid=be59a1fa-fcbd-4f35-ac1f-ae4c97b5126c","ios":"levelo://app?vid=be59a1fa-fcbd-4f35-ac1f-ae4c97b5126c"},"vehicle_type_id":"4","last_reported":1769793887,"current_range_meters":8000,"station_id":"st_cvj6r9ubvosntc0bgbag","pricing_plan_id":"cebpf4jnsgd1na2vs0mg"},{"bike_id":"e64ac1e6-7e83-4455-a8d3-e5b20b052a37","system_id":"levelo_inurba_marseille","lat":43.293024,"lon":5.371786,"is_reserved":false,"is_disabled":false,"rental_uris":{"android":"levelo://app?vid=e64ac1e6-7e83-4455-a8d3-e5b20b052a37","ios":"levelo://app?vid=e64ac1e6-7e83-4455-a8d3-e5b20b052a37"},"vehicle_type_id":"4","last_reported":1769793887,"current_range_meters":8000,"station_id":"ce4bgh92rcd13ifvqb40","pricing_plan_id":"cebpf4jnsgd1na2vs0mg"},{"bike_id":"94842764-1da0-47c3-981d-a8a494b1c082","system_id":"levelo_inurba_marseille","lat":43.24639,"lon":5.38897,"is_reserved":false,"is_disabled":false,"rental_uris":{"android":"levelo://app?vid=94842764-1da0-47c3-981d-a8a494b1c082","ios":"levelo://app?vid=94842764-1da0-47c3-981d-a8a494b1c082"},"vehicle_type_id":"4","last_reported":1769793887,"current_range_meters":8000,"station_id":"ce4bhg12rcd13ifvqf60","pricing_plan_id":"cebpf4jnsgd1na2vs0mg"},{"bike_id":"93b44eef-b245-49b5-9700-ec5e891cd774","system_id":"levelo_inurba_marseille","lat":43.2479,"lon":5.37472,"is_reserved":false,"is_disabled":false,"rental_uris":{"android":"levelo://app?vid=93b44eef-b245-49b5-9700-ec5e891cd774","ios":"levelo://app?vid=93b44eef-b245-49b5-9700-ec5e891cd774"},"vehicle_type_id":"4","last_reported":1769793887,"current_range_meters":8000,"station_id":"ce4bhgh2rcd13ifvqfb0","pricing_plan_id":"cebpf4jnsgd1na2vs0mg"},{"bike_id":"d278f49b-79cb-49d4-9147-2a87ca70efd2","system_id":"levelo_inurba_marseille","lat":43.24627,"lon":5.38898,"is_reserved":false,"is_disabled":false,"rental_uris":{"android":"levelo://app?vid=d278f49b-79cb-49d4-9147-2a87ca70efd2","ios":"levelo://app?vid=d278f49b-79cb-49d4-9147-2a87ca70efd2"},"vehicle_type_id":"4","last_reported":1769793887,"current_range_meters":8000,"station_id":"ce4bhg12rcd13ifvqf60","pricing_plan_id":"cebpf4jnsgd1na2vs0mg"},{"bike_id":"7797dc2d-6e0b-483a-8264-6f6e91d913f9","system_id":"levelo_inurba_marseille","lat":43.28487,"lon":5.38394,"is_reserved":false,"is_disabled":false,"rental_uris":{"android":"levelo://app?vid=7797dc2d-6e0b-483a-8264-6f6e91d913f9","ios":"levelo://app?vid=7797dc2d-6e0b-483a-8264-6f6e91d913f9"},"vehicle_type_id":"4","last_reported":1769793887,"current_range_meters":8000,"station_id":"ce4bh512rcd13ifvqe3g","pricing_plan_id":"cebpf4jnsgd1na2vs0mg"},{"bike_id":"c185cf38-df1b-4bb4-86d7-b251a2422e4d","system_id":"levelo_inurba_marseille","lat":43.32098,"lon":5.36755,"is_reserved":false,"is_disabled":false,"rental_uris":{"android":"levelo://app?vid=c185cf38-df1b-4bb4-86d7-b251a2422e4d","ios":"levelo://app?vid=c185cf38-df1b-4bb4-86d7-b251a2422e4d"},"vehicle_type_id":"4","last_reported":1769793887,"current_range_meters":8000,"station_id":"ce4bhrh2rcd13ifvqhug","pricing_plan_id":"cebpf4jnsgd1na2vs0mg"},{"bike_id":"da1ac006-1b1f-4577-bc3c-f768b3515750","system_id":"levelo_inurba_marseille","lat":43.28421,"lon":5.34984,"is_reserved":false,"is_disabled":false,"rental_uris":{"android":"levelo://app?vid=da1ac006-1b1f-4577-bc3c-f768b3515750","ios":"levelo://app?vid=da1ac006-1b1f-4577-bc3c-f768b3515750"},"vehicle_type_id":"4","last_reported":1769793887,"current_range_meters":8000,"station_id":"ce4bhbh2rcd13ifvqepg","pricing_plan_id":"cebpf4jnsgd1na2vs0mg"},{"bike_id":"2553b710-004b-42a1-b360-2ccee6aef046","system_id":"levelo_inurba_marseille","lat":43.293699,"lon":5.37841,"is_reserved":false,"is_disabled":false,"rental_uris":{"android":"levelo://app?vid=2553b710-004b-42a1-b360-2ccee6aef046","ios":"levelo://app?vid=2553b710-004b-42a1-b360-2ccee6aef046"},"vehicle_type_id":"4","last_reported":1769793887,"current_range_meters":8000,"station_id":"ce4bgjh2rcd13ifvqbf0","pricing_plan_id":"cebpf4jnsgd1na2vs0mg"},{"bike_id":"65b759d9-e66a-4cc0-915d-2e8ad0441e0c","system_id":"levelo_inurba_marseille","lat":43.31181,"lon":5.3863,"is_reserved":false,"is_disabled":false,"rental_uris":{"android":"levelo://app?vid=65b759d9-e66a-4cc0-915d-2e8ad0441e0c","ios":"levelo://app?vid=65b759d9-e66a-4cc0-915d-2e8ad0441e0c"},"vehicle_type_id":"4","last_reported":1769793887,"current_range_meters":8000,"station_id":"","pricing_plan_id":"cebpf4jnsgd1na2vs0mg"},{"bike_id":"65c2d018-5db4-4b71-9059-ee26b3f148d1","system_id":"levelo_inurba_marseille","lat":43.24187,"lon":5.39719,"is_reserved":false,"is_disabled":false,"rental_uris":{"android":"levelo://app?vid=65c2d018-5db4-4b71-9059-ee26b3f148d1","ios":"levelo://app?vid=65c2d018-5db4-4b71-9059-ee26b3f148d1"},"vehicle_type_id":"4","last_reported":1769793887,"current_range_meters":8000,"station_id":"ce4bhn12rcd13ifvqgpg","pricing_plan_id":"cebpf4jnsgd1na2vs0mg"},{"bike_id":"c2029e8e-62e9-40bd-90c8-2d85b607b409","system_id":"levelo_inurba_marseille","lat":43.29762,"lon":5.42778,"is_reserved":false,"is_disabled":false,"rental_uris":{"android":"levelo://app?vid=c2029e8e-62e9-40bd-90c8-2d85b607b409","ios":"levelo://app?vid=c2029e8e-62e9-40bd-90c8-2d85b607b409"},"vehicle_type_id":"4","last_reported":1769793887,"current_range_meters":8400,"station_id":"st_d3md5207bmas73dh9klg","pricing_plan_id":"cebpf4jnsgd1na2vs0mg"},{"bike_id":"7212c134-0bb1-4307-8053-dc66b6b70a1e","system_id":"levelo_inurba_marseille","lat":43.29751,"lon":5.42765,"is_reserved":false,"is_disabled":false,"rental_uris":{"android":"levelo://app?vid=7212c134-0bb1-4307-8053-dc66b6b70a1e","ios":"levelo://app?vid=7212c134-0bb1-4307-8053-dc66b6b70a1e"},"vehicle_type_id":"4","last_reported":1769793887,"current_range_meters":8400,"station_id":"st_d3md5207bmas73dh9klg","pricing_plan_id":"cebpf4jnsgd1na2vs0mg"},{"bike_id":"674d0755-bda6-44bd-8dd4-47ceec1f93de","system_id":"levelo_inurba_marseille","lat":43.24465,"lon":5.42503,"is_reserved":false,"is_disabled":false,"rental_uris":{"android":"levelo://app?vid=674d0755-bda6-44bd-8dd4-47ceec1f93de","ios":"levelo://app?vid=674d0755-bda6-44bd-8dd4-47ceec1f93de"},"vehicle_type_id":"4","last_reported":1769793887,"current_range_meters":8400,"station_id":"st_d4a3vfp97mjs738cd8kg","pricing_plan_id":"cebpf4jnsgd1na2vs0mg"},{"bike_id":"cfe73c76-3bff-481c-a5ea-9a7beba7d096","system_id":"levelo_inurba_marseille","lat":43.2976,"lon":5.42777,"is_reserved":false,"is_disabled":false,"rental_uris":{"android":"levelo://app?vid=cfe73c76-3bff-481c-a5ea-9a7beba7d096","ios":"levelo://app?vid=cfe73c76-3bff-481c-a5ea-9a7beba7d096"},"vehicle_type_id":"4","last_reported":1769793887,"current_range_meters":8400,"station_id":"st_d3md5207bmas73dh9klg","pricing_plan_id":"cebpf4jnsgd1na2vs0mg"},{"bike_id":"a348b41d-ce0f-4115-b2b3-f88fa8dc97dd","system_id":"levelo_inurba_marseille","lat":43.22555,"lon":5.4162,"is_reserved":false,"is_disabled":false,"rental_uris":{"android":"levelo://app?vid=a348b41d-ce0f-4115-b2b3-f88fa8dc97dd","ios":"levelo://app?vid=a348b41d-ce0f-4115-b2b3-f88fa8dc97dd"},"vehicle_type_id":"4","last_reported":1769793887,"current_range_meters":8400,"station_id":"st_d2o4gvlbi1j2169b742g","pricing_plan_id":"cebpf4jnsgd1na2vs0mg"},{"bike_id":"9ac35684-78f8-4312-9009-9c0b024fe004","system_id":"levelo_inurba_marseille","lat":43.23784,"lon":5.36631,"is_reserved":false,"is_disabled":false,"rental_uris":{"android":"levelo://app?vid=9ac35684-78f8-4312-9009-9c0b024fe004","ios":"levelo://app?vid=9ac35684-78f8-4312-9009-9c0b024fe004"},"vehicle_type_id":"4","last_reported":1769793887,"current_range_meters":8400,"station_id":"st_d3nk18o9ro0c73en2l3g","pricing_plan_id":"cebpf4jnsgd1na2vs0mg"},{"bike_id":"74bebc7d-9331-45a4-ae4c-8e5bb0e765ab","system_id":"levelo_inurba_marseille","lat":43.30559,"lon":5.39934,"is_reserved":false,"is_disabled":false,"rental_uris":{"android":"levelo://app?vid=74bebc7d-9331-45a4-ae4c-8e5bb0e765ab","ios":"levelo://app?vid=74bebc7d-9331-45a4-ae4c-8e5bb0e765ab"},"vehicle_type_id":"4","last_reported":1769793887,"current_range_meters":8400,"station_id":"","pricing_plan_id":"cebpf4jnsgd1na2vs0mg"},{"bike_id":"630ca82e-b7c1-4152-b240-97bc531eae2e","system_id":"levelo_inurba_marseille","lat":43.30088,"lon":5.39075,"is_reserved":false,"is_disabled":false,"rental_uris":{"android":"levelo://app?vid=630ca82e-b7c1-4152-b240-97bc531eae2e","ios":"levelo://app?vid=630ca82e-b7c1-4152-b240-97bc531eae2e"},"vehicle_type_id":"4","last_reported":1769793887,"current_range_meters":8400,"station_id":"ce4bh192rcd13ifvqdb0","pricing_plan_id":"cebpf4jnsgd1na2vs0mg"},{"bike_id":"6f80a0c7-e6da-4e3f-a33d-84508ae903bc","system_id":"levelo_inurba_marseille","lat":43.24628,"lon":5.43141,"is_reserved":false,"is_disabled":false,"rental_uris":{"android":"levelo://app?vid=6f80a0c7-e6da-4e3f-a33d-84508ae903bc","ios":"levelo://app?vid=6f80a0c7-e6da-4e3f-a33d-84508ae903bc"},"vehicle_type_id":"4","last_reported":1769793887,"current_range_meters":8400,"station_id":"st_d2m6c4gdas8pm72e190g","pricing_plan_id":"cebpf4jnsgd1na2vs0mg"},{"bike_id":"b5d91fc7-30d8-4004-8e14-1ac91b3bffa6","system_id":"levelo_inurba_marseille","lat":43.2447,"lon":5.42554,"is_reserved":false,"is_disabled":false,"rental_uris":{"android":"levelo://app?vid=b5d91fc7-30d8-4004-8e14-1ac91b3bffa6","ios":"levelo://app?vid=b5d91fc7-30d8-4004-8e14-1ac91b3bffa6"},"vehicle_type_id":"4","last_reported":1769793887,"current_range_meters":8400,"station_id":"st_d4a3vfp97mjs738cd8kg","pricing_plan_id":"cebpf4jnsgd1na2vs0mg"},{"bike_id":"3eff98c2-d760-4b54-b457-f0c0f290209a","system_id":"levelo_inurba_marseille","lat":43.26941,"lon":5.4025,"is_reserved":false,"is_disabled":false,"rental_uris":{"android":"levelo://app?vid=3eff98c2-d760-4b54-b457-f0c0f290209a","ios":"levelo://app?vid=3eff98c2-d760-4b54-b457-f0c0f290209a"},"vehicle_type_id":"4","last_reported":1769793887,"current_range_meters":8400,"station_id":"cjm6bp8fraef2m0cb0m0","pricing_plan_id":"cebpf4jnsgd1na2vs0mg"},{"bike_id":"52934a5f-1328-474b-a39c-269eb7e6d8af","system_id":"levelo_inurba_marseille","lat":43.287384,"lon":5.3653,"is_reserved":false,"is_disabled":false,"rental_uris":{"android":"levelo://app?vid=52934a5f-1328-474b-a39c-269eb7e6d8af","ios":"levelo://app?vid=52934a5f-1328-474b-a39c-269eb7e6d8af"},"vehicle_type_id":"4","last_reported":1769793887,"current_range_meters":8400,"station_id":"ce4bhah2rcd13ifvqej0","pricing_plan_id":"cebpf4jnsgd1na2vs0mg"},{"bike_id":"f7ba70bd-983c-4ad6-a72c-36380a2ff19c","system_id":"levelo_inurba_marseille","lat":43.23186,"lon":5.35537,"is_reserved":false,"is_disabled":false,"rental_uris":{"android":"levelo://app?vid=f7ba70bd-983c-4ad6-a72c-36380a2ff19c","ios":"levelo://app?vid=f7ba70bd-983c-4ad6-a72c-36380a2ff19c"},"vehicle_type_id":"4","last_reported":1769793887,"current_range_meters":8400,"station_id":"ce4bhu92rcd13ifvqi70","pricing_plan_id":"cebpf4jnsgd1na2vs0mg"},{"bike_id":"5b957f57-623f-4eb9-98be-1d16ba7b9e5a","system_id":"levelo_inurba_marseille","lat":43.27678,"lon":5.38887,"is_reserved":false,"is_disabled":false,"rental_uris":{"android":"levelo://app?vid=5b957f57-623f-4eb9-98be-1d16ba7b9e5a","ios":"levelo://app?vid=5b957f57-623f-4eb9-98be-1d16ba7b9e5a"},"vehicle_type_id":"4","last_reported":1769793887,"current_range_meters":8400,"station_id":"ce4bhi12rcd13ifvqfo0","pricing_plan_id":"cebpf4jnsgd1na2vs0mg"},{"bike_id":"a2c11608-bcda-4348-a9c5-35a5f39f5244","system_id":"levelo_inurba_marseille","lat":43.29265,"lon":5.3843,"is_reserved":false,"is_disabled":false,"rental_uris":{"android":"levelo://app?vid=a2c11608-bcda-4348-a9c5-35a5f39f5244","ios":"levelo://app?vid=a2c11608-bcda-4348-a9c5-35a5f39f5244"},"vehicle_type_id":"4","last_reported":1769793887,"current_range_meters":8400,"station_id":"ce4bh692rcd13ifvqea0","pricing_plan_id":"cebpf4jnsgd1na2vs0mg"},{"bike_id":"8fbc2797-3ee1-4b10-8034-b00a847540f0","system_id":"levelo_inurba_marseille","lat":43.32291,"lon":5.38275,"is_reserved":false,"is_disabled":false,"rental_uris":{"android":"levelo://app?vid=8fbc2797-3ee1-4b10-8034-b00a847540f0","ios":"levelo://app?vid=8fbc2797-3ee1-4b10-8034-b00a847540f0"},"vehicle_type_id":"4","last_reported":1769793887,"current_range_meters":8400,"station_id":"ce4bhr12rcd13ifvqhqg","pricing_plan_id":"cebpf4jnsgd1na2vs0mg"},{"bike_id":"dfda1dad-d1ec-4fed-96ab-2a0acc2b05af","system_id":"levelo_inurba_marseille","lat":43.315066,"lon":5.373031,"is_reserved":false,"is_disabled":false,"rental_uris":{"android":"levelo://app?vid=dfda1dad-d1ec-4fed-96ab-2a0acc2b05af","ios":"levelo://app?vid=dfda1dad-d1ec-4fed-96ab-2a0acc2b05af"},"vehicle_type_id":"4","last_reported":1769793887,"current_range_meters":8400,"station_id":"ce4bgt12rcd13ifvqcd0","pricing_plan_id":"cebpf4jnsgd1na2vs0mg"},{"bike_id":"1e6e9fcd-377f-4a83-a467-d5b81de873c8","system_id":"levelo_inurba_marseille","lat":43.28213,"lon":5.39059,"is_reserved":false,"is_disabled":false,"rental_uris":{"android":"levelo://app?vid=1e6e9fcd-377f-4a83-a467-d5b81de873c8","ios":"levelo://app?vid=1e6e9fcd-377f-4a83-a467-d5b81de873c8"},"vehicle_type_id":"4","last_reported":1769793887,"current_range_meters":8800,"station_id":"ce4bhn92rcd13ifvqgsg","pricing_plan_id":"cebpf4jnsgd1na2vs0mg"},{"bike_id":"67dde3a5-6719-400f-9754-ba07b063d126","system_id":"levelo_inurba_marseille","lat":43.22551,"lon":5.41629,"is_reserved":false,"is_disabled":false,"rental_uris":{"android":"levelo://app?vid=67dde3a5-6719-400f-9754-ba07b063d126","ios":"levelo://app?vid=67dde3a5-6719-400f-9754-ba07b063d126"},"vehicle_type_id":"4","last_reported":1769793887,"current_range_meters":8800,"station_id":"st_d2o4gvlbi1j2169b742g","pricing_plan_id":"cebpf4jnsgd1na2vs0mg"},{"bike_id":"b6bb507a-35ba-4aad-bf8d-d9ba28e136e6","system_id":"levelo_inurba_marseille","lat":43.28281,"lon":5.35051,"is_reserved":false,"is_disabled":false,"rental_uris":{"android":"levelo://app?vid=b6bb507a-35ba-4aad-bf8d-d9ba28e136e6","ios":"levelo://app?vid=b6bb507a-35ba-4aad-bf8d-d9ba28e136e6"},"vehicle_type_id":"4","last_reported":1769793887,"current_range_meters":8800,"station_id":"ce4bhbp2rcd13ifvqerg","pricing_plan_id":"cebpf4jnsgd1na2vs0mg"},{"bike_id":"5633569d-b681-45d2-bff9-efbdc03df2f0","system_id":"levelo_inurba_marseille","lat":43.3014,"lon":5.38785,"is_reserved":false,"is_disabled":false,"rental_uris":{"android":"levelo://app?vid=5633569d-b681-45d2-bff9-efbdc03df2f0","ios":"levelo://app?vid=5633569d-b681-45d2-bff9-efbdc03df2f0"},"vehicle_type_id":"4","last_reported":1769793887,"current_range_meters":8800,"station_id":"ce4bghh2rcd13ifvqb60","pricing_plan_id":"cebpf4jnsgd1na2vs0mg"},{"bike_id":"d6c0c260-1d77-47ce-9ca1-2efe8f514e43","system_id":"levelo_inurba_marseille","lat":43.28425,"lon":5.34968,"is_reserved":false,"is_disabled":false,"rental_uris":{"android":"levelo://app?vid=d6c0c260-1d77-47ce-9ca1-2efe8f514e43","ios":"levelo://app?vid=d6c0c260-1d77-47ce-9ca1-2efe8f514e43"},"vehicle_type_id":"4","last_reported":1769793887,"current_range_meters":8800,"station_id":"ce4bhbh2rcd13ifvqepg","pricing_plan_id":"cebpf4jnsgd1na2vs0mg"},{"bike_id":"a633dcb8-69cc-416a-ac75-271c195c29ed","system_id":"levelo_inurba_marseille","lat":43.25505,"lon":5.37652,"is_reserved":false,"is_disabled":false,"rental_uris":{"android":"levelo://app?vid=a633dcb8-69cc-416a-ac75-271c195c29ed","ios":"levelo://app?vid=a633dcb8-69cc-416a-ac75-271c195c29ed"},"vehicle_type_id":"4","last_reported":1769793887,"current_range_meters":8800,"station_id":"ce4bhh12rcd13ifvqff0","pricing_plan_id":"cebpf4jnsgd1na2vs0mg"},{"bike_id":"0bb81fd5-a597-41a1-8e61-93eab6748311","system_id":"levelo_inurba_marseille","lat":43.27308,"lon":5.407077,"is_reserved":false,"is_disabled":false,"rental_uris":{"android":"levelo://app?vid=0bb81fd5-a597-41a1-8e61-93eab6748311","ios":"levelo://app?vid=0bb81fd5-a597-41a1-8e61-93eab6748311"},"vehicle_type_id":"4","last_reported":1769793887,"current_range_meters":8800,"station_id":"","pricing_plan_id":"cebpf4jnsgd1na2vs0mg"},{"bike_id":"10122fa4-5fd8-4144-9ac2-45e10bea2148","system_id":"levelo_inurba_marseille","lat":43.23186,"lon":5.39985,"is_reserved":false,"is_disabled":false,"rental_uris":{"android":"levelo://app?vid=10122fa4-5fd8-4144-9ac2-45e10bea2148","ios":"levelo://app?vid=10122fa4-5fd8-4144-9ac2-45e10bea2148"},"vehicle_type_id":"4","last_reported":1769793887,"current_range_meters":8800,"station_id":"ce4bhn12rcd13ifvqgqg","pricing_plan_id":"cebpf4jnsgd1na2vs0mg"},{"bike_id":"facf5c8d-7adf-4b26-81c3-f2dd54937001","system_id":"levelo_inurba_marseille","lat":43.22535,"lon":5.3483,"is_reserved":false,"is_disabled":false,"rental_uris":{"android":"levelo://app?vid=facf5c8d-7adf-4b26-81c3-f2dd54937001","ios":"levelo://app?vid=facf5c8d-7adf-4b26-81c3-f2dd54937001"},"vehicle_type_id":"4","last_reported":1769793887,"current_range_meters":8800,"station_id":"","pricing_plan_id":"cebpf4jnsgd1na2vs0mg"},{"bike_id":"8eeb4da1-5ffe-42ca-ae24-0fc13dd0c38e","system_id":"levelo_inurba_marseille","lat":43.29149,"lon":5.37445,"is_reserved":false,"is_disabled":false,"rental_uris":{"android":"levelo://app?vid=8eeb4da1-5ffe-42ca-ae24-0fc13dd0c38e","ios":"levelo://app?vid=8eeb4da1-5ffe-42ca-ae24-0fc13dd0c38e"},"vehicle_type_id":"4","last_reported":1769793887,"current_range_meters":8800,"station_id":"","pricing_plan_id":"cebpf4jnsgd1na2vs0mg"},{"bike_id":"da430813-1e4c-4d0a-b07d-976b86d0c6c6","system_id":"levelo_inurba_marseille","lat":43.25332,"lon":5.42173,"is_reserved":false,"is_disabled":false,"rental_uris":{"android":"levelo://app?vid=da430813-1e4c-4d0a-b07d-976b86d0c6c6","ios":"levelo://app?vid=da430813-1e4c-4d0a-b07d-976b86d0c6c6"},"vehicle_type_id":"4","last_reported":1769793887,"current_range_meters":8800,"station_id":"st_d2m65c5bi1j21697t3ng","pricing_plan_id":"cebpf4jnsgd1na2vs0mg"},{"bike_id":"5b735135-7855-4600-9f02-fd9ebc367d09","system_id":"levelo_inurba_marseille","lat":43.30134,"lon":5.37421,"is_reserved":false,"is_disabled":false,"rental_uris":{"android":"levelo://app?vid=5b735135-7855-4600-9f02-fd9ebc367d09","ios":"levelo://app?vid=5b735135-7855-4600-9f02-fd9ebc367d09"},