{"last_updated":1715432806,"ttl":30,"version":"2.2","data":{"bikes":[{"bike_id":"b20e446e-27ab-400e-84d4-791e7f1ec61a","system_id":"levelo_inurba_marseille","lat":43.313391,"lon":5.36706,"is_reserved":false,"is_disabled":false,"rental_uris":{"android":"levelo://app?vid=b20e446e-27ab-400e-84d4-791e7f1ec61a","ios":"levelo://app?vid=b20e446e-27ab-400e-84d4-791e7f1ec61a"},"vehicle_type_id":"4","last_reported":1715432806,"current_range_meters":19200,"station_id":"ce4bgr92rcd13ifvqc6g","pricing_plan_id":"cebpf4jnsgd1na2vs0mg"},{"bike_id":"b6d5adf7-e3cf-42dc-bd46-9e38f2887abe","system_id":"levelo_inurba_marseille","lat":43.312454,"lon":5.368506,"is_reserved":false,"is_disabled":false,"rental_uris":{"android":"levelo://app?vid=b6d5adf7-e3cf-42dc-bd46-9e38f2887abe","ios":"levelo://app?vid=b6d5adf7-e3cf-42dc-bd46-9e38f2887abe"},"vehicle_type_id":"4","last_reported":1715432806,"current_range_meters":6400,"station_id":"ce4bgl92rcd13ifvqbq0","pricing_plan_id":"cebpf4jnsgd1na2vs0mg"},{"bike_id":"aea95eb4-f306-45b7-96c0-94fd922d7033","system_id":"levelo_inurba_marseille","lat":43.312239,"lon":5.368562,"is_reserved":false,"is_disabled":false,"rental_uris":{"android":"levelo://app?vid=aea95eb4-f306-45b7-96c0-94fd922d7033","ios":"levelo://app?vid=aea95eb4-f306-45b7-96c0-94fd922d7033"},"vehicle_type_id":"4","last_reported":1715432806,"current_range_meters":0,"station_id":"ce4bgl92rcd13ifvqbq0","pricing_plan_id":"cebpf4jnsgd1na2vs0mg"},{"bike_id":"3082d8ce-d647-45d8-9bf8-0d176ba22623","system_id":"levelo_inurba_marseille","lat":43.312239,"lon":5.368562,"is_reserved":false,"is_disabled":false,"rental_uris":{"android":"levelo://app?vid=3082d8ce-d647-45d8-9bf8-0d176ba22623","ios":"levelo://app?vid=3082d8ce-d647-45d8-9bf8-0d176ba22623"},"vehicle_type_id":"4","last_reported":1715432806,"current_range_meters":26800,"station_id":"ce4bgl92rcd13ifvqbq0","pricing_plan_id":"cebpf4jnsgd1na2vs0mg"},{"bike_id":"22bb377f-9dbf-46ef-a7c9-d2f3b6dc6048","system_id":"levelo_inurba_marseille","lat":43.309076,"lon":5.368465,"is_reserved":false,"is_disabled":false,"rental_uris":{"android":"levelo://app?vid=22bb377f-9dbf-46ef-a7c9-d2f3b6dc6048","ios":"levelo://app?vid=22bb377f-9dbf-46ef-a7c9-d2f3b6dc6048"},"vehicle_type_id":"4","last_reported":1715432806,"current_range_meters":30800,"station_id":"ce4bgn92rcd13ifvqbvg","pricing_plan_id":"cebpf4jnsgd1na2vs0mg"},{"bike_id":"7d0ff8b7-8715-4171-81cc-390ebc922a6b","system_id":"levelo_inurba_marseille","lat":43.314811,"lon":5.373103,"is_reserved":false,"is_disabled":false,"rental_uris":{"android":"levelo://app?vid=7d0ff8b7-8715-4171-81cc-390ebc922a6b","ios":"levelo://app?vid=7d0ff8b7-8715-4171-81cc-390ebc922a6b"},"vehicle_type_id":"4","last_reported":1715432806,"current_range_meters":0,"station_id":"ce4bgt12rcd13ifvqcd0","pricing_plan_id":"cebpf4jnsgd1na2vs0mg"},{"bike_id":"85a89feb-7505-4f00-a3fd-95fc592c7552","system_id":"levelo_inurba_marseille","lat":43.31491,"lon":5.37311,"is_reserved":false,"is_disabled":false,"rental_uris":{"android":"levelo://app?vid=85a89feb-7505-4f00-a3fd-95fc592c7552","ios":"levelo://app?vid=85a89feb-7505-4f00-a3fd-95fc592c7552"},"vehicle_type_id":"4","last_reported":1715432806,"current_range_meters":0,"station_id":"ce4bgt12rcd13ifvqcd0","pricing_plan_id":"cebpf4jnsgd1na2vs0mg"},{"bike_id":"88734218-e42a-4ebb-969b-6bf71fed150b","system_id":"levelo_inurba_marseille","lat":43.309034,"lon":5.371783,"is_reserved":false,"is_disabled":false,"rental_uris":{"android":"levelo://app?vid=88734218-e42a-4ebb-969b-6bf71fed150b","ios":"levelo://app?vid=88734218-e42a-4ebb-969b-6bf71fed150b"},"vehicle_type_id":"4","last_reported":1715432806,"current_range_meters":9600,"station_id":"ce4bguh2rcd13ifvqckg","pricing_plan_id":"cebpf4jnsgd1na2vs0mg"},{"bike_id":"161587d8-d43f-4d5e-80d8-2068d45aae10","system_id":"levelo_inurba_marseille","lat":43.305714,"lon":5.365633,"is_reserved":false,"is_disabled":false,"rental_uris":{"android":"levelo://app?vid=161587d8-d43f-4d5e-80d8-2068d45aae10","ios":"levelo://app?vid=161587d8-d43f-4d5e-80d8-2068d45aae10"},"vehicle_type_id":"4","last_reported":1715432806,"current_range_meters":16000,"station_id":"ce4bgs12rcd13ifvqcag","pricing_plan_id":"cebpf4jnsgd1na2vs0mg"},{"bike_id":"fbd82e7c-73a2-44c5-81f5-2bb80c7b345f","system_id":"levelo_inurba_marseille","lat":43.305712,"lon":5.365641,"is_reserved":false,"is_disabled":false,"rental_uris":{"android":"levelo://app?vid=fbd82e7c-73a2-44c5-81f5-2bb80c7b345f","ios":"levelo://app?vid=fbd82e7c-73a2-44c5-81f5-2bb80c7b345f"},"vehicle_type_id":"4","last_reported":1715432806,"current_range_meters":12400,"station_id":"ce4bgs12rcd13ifvqcag","pricing_plan_id":"cebpf4jnsgd1na2vs0mg"},{"bike_id":"57108e8f-f2d2-4b93-aee8-5d0849434231","system_id":"levelo_inurba_marseille","lat":43.305712,"lon":5.365641,"is_reserved":false,"is_disabled":false,"rental_uris":{"android":"levelo://app?vid=57108e8f-f2d2-4b93-aee8-5d0849434231","ios":"levelo://app?vid=57108e8f-f2d2-4b93-aee8-5d0849434231"},"vehicle_type_id":"4","last_reported":1715432806,"current_range_meters":31200,"station_id":"ce4bgs12rcd13ifvqcag","pricing_plan_id":"cebpf4jnsgd1na2vs0mg"},{"bike_id":"dd370a21-2dda-4b77-bb39-1d7757a005ee","system_id":"levelo_inurba_marseille","lat":43.305706,"lon":5.365654,"is_reserved":false,"is_disabled":false,"rental_uris":{"android":"levelo://app?vid=dd370a21-2dda-4b77-bb39-1d7757a005ee","ios":"levelo://app?vid=dd370a21-2dda-4b77-bb39-1d7757a005ee"},"vehicle_type_id":"4","last_reported":1715432806,"current_range_meters":20000,"station_id":"ce4bgs12rcd13ifvqcag","pricing_plan_id":"cebpf4jnsgd1na2vs0mg"},{"bike_id":"5c4afc42-ead6-4fc3-b381-5adc43212a1a","system_id":"levelo_inurba_marseille","lat":43.305368,"lon":5.367343,"is_reserved":false,"is_disabled":false,"rental_uris":{"android":"levelo://app?vid=5c4afc42-ead6-4fc3-b381-5adc43212a1a","ios":"levelo://app?vid=5c4afc42-ead6-4fc3-b381-5adc43212a1a"},"vehicle_type_id":"4","last_reported":1715432806,"current_range_meters":13600,"station_id":"ce4bgrp2rcd13ifvqc9g","pricing_plan_id":"cebpf4jnsgd1na2vs0mg"},{"bike_id":"f158f3fa-215b-45cd-b49d-f6abc8ffeee9","system_id":"levelo_inurba_marseille","lat":43.305706,"lon":5.365654,"is_reserved":false,"is_disabled":false,"rental_uris":{"android":"levelo://app?vid=f158f3fa-215b-45cd-b49d-f6abc8ffeee9","ios":"levelo://app?vid=f158f3fa-215b-45cd-b49d-f6abc8ffeee9"},"vehicle_type_id":"4","last_reported":1715432806,"current_range_meters":18000,"station_id":"ce4bgs12rcd13ifvqcag","pricing_plan_id":"cebpf4jnsgd1na2vs0mg"},{"bike_id":"1297f206-ade4-4c98-b00a-d2081c0ffb7f","system_id":"levelo_inurba_marseille","lat":43.30529,"lon":5.36544,"is_reserved":false,"is_disabled":false,"rental_uris":{"android":"levelo://app?vid=1297f206-ade4-4c98-b00a-d2081c0ffb7f","ios":"levelo://app?vid=1297f206-ade4-4c98-b00a-d2081c0ffb7f"},"vehicle_type_id":"4","last_reported":1715432806,"current_range_meters":0,"station_id":"ce4bgs12rcd13ifvqcag","pricing_plan_id":"cebpf4jnsgd1na2vs0mg"},{"bike_id":"8ef6447b-a602-4906-8ecf-31e7cd152a14","system_id":"levelo_inurba_marseille","lat":43.306135,"lon":5.372063,"is_reserved":false,"is_disabled":false,"rental_uris":{"android":"levelo://app?vid=8ef6447b-a602-4906-8ecf-31e7cd152a14","ios":"levelo://app?vid=8ef6447b-a602-4906-8ecf-31e7cd152a14"},"vehicle_type_id":"4","last_reported":1715432806,"current_range_meters":23600,"station_id":"ce4bguh2rcd13ifvqckg","pricing_plan_id":"cebpf4jnsgd1na2vs0mg"},{"bike_id":"a8420d12-5ea1-4553-ba77-74153419b9a1","system_id":"levelo_inurba_marseille","lat":43.307945,"lon":5.376487,"is_reserved":false,"is_disabled":false,"rental_uris":{"android":"levelo://app?vid=a8420d12-5ea1-4553-ba77-74153419b9a1","ios":"levelo://app?vid=a8420d12-5ea1-4553-ba77-74153419b9a1"},"vehicle_type_id":"4","last_reported":1715432806,"current_range_meters":31200,"station_id":"ce4bgv92rcd13ifvqcq0","pricing_plan_id":"cebpf4jnsgd1na2vs0mg"},{"bike_id":"2f5c33fc-e124-4cff-9a5e-b9fa6ee33fe6","system_id":"levelo_inurba_marseille","lat":43.317075,"lon":5.377367,"is_reserved":false,"is_disabled":false,"rental_uris":{"android":"levelo://app?vid=2f5c33fc-e124-4cff-9a5e-b9fa6ee33fe6","ios":"levelo://app?vid=2f5c33fc-e124-4cff-9a5e-b9fa6ee33fe6"},"vehicle_type_id":"4","last_reported":1715432806,"current_range_meters":4800,"station_id":"ce4bgth2rcd13ifvqch0","pricing_plan_id":"cebpf4jnsgd1na2vs0mg"},{"bike_id":"bcb0e402-aed5-482c-a5df-932b7bf8c5ee","system_id":"levelo_inurba_marseille","lat":43.303046,"lon":5.368981,"is_reserved":false,"is_disabled":false,"rental_uris":{"android":"levelo://app?vid=bcb0e402-aed5-482c-a5df-932b7bf8c5ee","ios":"levelo://app?vid=bcb0e402-aed5-482c-a5df-932b7bf8c5ee"},"vehicle_type_id":"4","last_reported":1715432806,"current_range_meters":20400,"station_id":"ce4bgqh2rcd13ifvqc5g","pricing_plan_id":"cebpf4jnsgd1na2vs0mg"},{"bike_id":"b12ef50e-eed0-4a52-bd6f-df0520e12e81","system_id":"levelo_inurba_marseille","lat":43.30187,"lon":5.36631,"is_reserved":false,"is_disabled":false,"rental_uris":{"android":"levelo://app?vid=b12ef50e-eed0-4a52-bd6f-df0520e12e81","ios":"levelo://app?vid=b12ef50e-eed0-4a52-bd6f-df0520e12e81"},"vehicle_type_id":"4","last_reported":1715432806,"current_range_meters":23600,"station_id":"","pricing_plan_id":"cebpf4jnsgd1na2vs0mg"},{"bike_id":"01f5d039-13bc-402f-a629-33107ccfee4a","system_id":"levelo_inurba_marseille","lat":43.301939,"lon":5.366286,"is_reserved":false,"is_disabled":false,"rental_uris":{"android":"levelo://app?vid=01f5d039-13bc-402f-a629-33107ccfee4a","ios":"levelo://app?vid=01f5d039-13bc-402f-a629-33107ccfee4a"},"vehicle_type_id":"4","last_reported":1715432806,"current_range_meters":15200,"station_id":"ce4bgrh2rcd13ifvqc8g","pricing_plan_id":"cebpf4jnsgd1na2vs0mg"},{"bike_id":"1db24b60-7d85-41f0-8ab3-6d020f60b67d","system_id":"levelo_inurba_marseille","lat":43.324771,"lon":5.36557,"is_reserved":false,"is_disabled":false,"rental_uris":{"android":"levelo://app?vid=1db24b60-7d85-41f0-8ab3-6d020f60b67d","ios":"levelo://app?vid=1db24b60-7d85-41f0-8ab3-6d020f60b67d"},"vehicle_type_id":"4","last_reported":1715432806,"current_range_meters":27600,"station_id":"ce4bhs12rcd13ifvqhvg","pricing_plan_id":"cebpf4jnsgd1na2vs0mg"},{"bike_id":"3269a82e-20fd-46cb-9087-cc49c8cec2db","system_id":"levelo_inurba_marseille","lat":43.324739,"lon":5.365592,"is_reserved":false,"is_disabled":false,"rental_uris":{"android":"levelo://app?vid=3269a82e-20fd-46cb-9087-cc49c8cec2db","ios":"levelo://app?vid=3269a82e-20fd-46cb-9087-cc49c8cec2db"},"vehicle_type_id":"4","last_reported":1715432806,"current_range_meters":5600,"station_id":"ce4bhs12rcd13ifvqhvg","pricing_plan_id":"cebpf4jnsgd1na2vs0mg"},{"bike_id":"4f292309-8e70-423f-8286-cbad3763fa2c","system_id":"levelo_inurba_marseille","lat":43.324771,"lon":5.36557,"is_reserved":false,"is_disabled":false,"rental_uris":{"android":"levelo://app?vid=4f292309-8e70-423f-8286-cbad3763fa2c","ios":"levelo://app?vid=4f292309-8e70-423f-8286-cbad3763fa2c"},"vehicle_type_id":"4","last_reported":1715432806,"current_range_meters":23600,"station_id":"ce4bhs12rcd13ifvqhvg","pricing_plan_id":"cebpf4jnsgd1na2vs0mg"},{"bike_id":"62a5870d-12d7-4609-b3af-286379531473","system_id":"levelo_inurba_marseille","lat":43.324771,"lon":5.36557,"is_reserved":false,"is_disabled":false,"rental_uris":{"android":"levelo://app?vid=62a5870d-12d7-4609-b3af-286379531473","ios":"levelo://app?vid=62a5870d-12d7-4609-b3af-286379531473"},"vehicle_type_id":"4","last_reported":1715432806,"current_range_meters":23600,"station_id":"ce4bhs12rcd13ifvqhvg","pricing_plan_id":"cebpf4jnsgd1na2vs0mg"},{"bike_id":"9edc1e5e-3cad-4349-9fc4-c2b9b41d3cd6","system_id":"levelo_inurba_marseille","lat":43.324771,"lon":5.36557,"is_reserved":false,"is_disabled":false,"rental_uris":{"android":"levelo://app?vid=9edc1e5e-3cad-4349-9fc4-c2b9b41d3cd6","ios":"levelo://app?vid=9edc1e5e-3cad-4349-9fc4-c2b9b41d3cd6"},"vehicle_type_id":"4","last_reported":1715432806,"current_range_meters":19600,"station_id":"ce4bhs12rcd13ifvqhvg","pricing_plan_id":"cebpf4jnsgd1na2vs0mg"},{"bike_id":"a7364010-c030-4dda-9787-1388278fadb5","system_id":"levelo_inurba_marseille","lat":43.324771,"lon":5.36557,"is_reserved":false,"is_disabled":false,"rental_uris":{"android":"levelo://app?vid=a7364010-c030-4dda-9787-1388278fadb5","ios":"levelo://app?vid=a7364010-c030-4dda-9787-1388278fadb5"},"vehicle_type_id":"4","last_reported":1715432806,"current_range_meters":0,"station_id":"ce4bhs12rcd13ifvqhvg","pricing_plan_id":"cebpf4jnsgd1na2vs0mg"},{"bike_id":"ff9d51bd-c40f-466c-ab3b-08e1c9923b63","system_id":"levelo_inurba_marseille","lat":43.324771,"lon":5.36557,"is_reserved":false,"is_disabled":false,"rental_uris":{"android":"levelo://app?vid=ff9d51bd-c40f-466c-ab3b-08e1c9923b63","ios":"levelo://app?vid=ff9d51bd-c40f-466c-ab3b-08e1c9923b63"},"vehicle_type_id":"4","last_reported":1715432806,"current_range_meters":14800,"station_id":"ce4bhs12rcd13ifvqhvg","pricing_plan_id":"cebpf4jnsgd1na2vs0mg"},{"bike_id":"7d725402-757b-4cd9-84ff-6dd57d0cc79e","system_id":"levelo_inurba_marseille","lat":43.324817,"lon":5.36572,"is_reserved":false,"is_disabled":false,"rental_uris":{"android":"levelo://app?vid=7d725402-757b-4cd9-84ff-6dd57d0cc79e","ios":"levelo://app?vid=7d725402-757b-4cd9-84ff-6dd57d0cc79e"},"vehicle_type_id":"4","last_reported":1715432806,"current_range_meters":28800,"station_id":"ce4bhs12rcd13ifvqhvg","pricing_plan_id":"cebpf4jnsgd1na2vs0mg"},{"bike_id":"43d74cbd-e3cd-451f-9c64-78bfb99aca35","system_id":"levelo_inurba_marseille","lat":43.324771,"lon":5.36557,"is_reserved":false,"is_disabled":false,"rental_uris":{"android":"levelo://app?vid=43d74cbd-e3cd-451f-9c64-78bfb99aca35","ios":"levelo://app?vid=43d74cbd-e3cd-451f-9c64-78bfb99aca35"},"vehicle_type_id":"4","last_reported":1715432806,"current_range_meters":10800,"station_id":"ce4bhs12rcd13ifvqhvg","pricing_plan_id":"cebpf4jnsgd1na2vs0mg"},{"bike_id":"613df8a6-ad02-49bb-b754-a98f3843af59","system_id":"levelo_inurba_marseille","lat":43.310804,"lon":5.38359,"is_reserved":false,"is_disabled":false,"rental_uris":{"android":"levelo://app?vid=613df8a6-ad02-49bb-b754-a98f3843af59","ios":"levelo://app?vid=613df8a6-ad02-49bb-b754-a98f3843af59"},"vehicle_type_id":"4","last_reported":1715432806,"current_range_meters":10800,"station_id":"ce4bgv92rcd13ifvqcr0","pricing_plan_id":"cebpf4jnsgd1na2vs0mg"},{"bike_id":"68cb923e-d17a-4404-802c-3784a293c01a","system_id":"levelo_inurba_marseille","lat":43.319935,"lon":5.381699,"is_reserved":false,"is_disabled":false,"rental_uris":{"android":"levelo://app?vid=68cb923e-d17a-4404-802c-3784a293c01a","ios":"levelo://app?vid=68cb923e-d17a-4404-802c-3784a293c01a"},"vehicle_type_id":"4","last_reported":1715432806,"current_range_meters":26800,"station_id":"ce4bhr12rcd13ifvqhpg","pricing_plan_id":"cebpf4jnsgd1na2vs0mg"},{"bike_id":"f2dd28b2-a69d-47e7-9fcb-c94274b1de04","system_id":"levelo_inurba_marseille","lat":43.319935,"lon":5.381699,"is_reserved":false,"is_disabled":false,"rental_uris":{"android":"levelo://app?vid=f2dd28b2-a69d-47e7-9fcb-c94274b1de04","ios":"levelo://app?vid=f2dd28b2-a69d-47e7-9fcb-c94274b1de04"},"vehicle_type_id":"4","last_reported":1715432806,"current_range_meters":20400,"station_id":"ce4bhr12rcd13ifvqhpg","pricing_plan_id":"cebpf4jnsgd1na2vs0mg"},{"bike_id":"9b236788-0945-432c-8906-63c144d31115","system_id":"levelo_inurba_marseille","lat":43.301429,"lon":5.37413,"is_reserved":false,"is_disabled":false,"rental_uris":{"android":"levelo://app?vid=9b236788-0945-432c-8906-63c144d31115","ios":"levelo://app?vid=9b236788-0945-432c-8906-63c144d31115"},"vehicle_type_id":"4","last_reported":1715432806,"current_range_meters":18400,"station_id":"ce4bgs92rcd13ifvqcc0","pricing_plan_id":"cebpf4jnsgd1na2vs0mg"},{"bike_id":"93386bab-dc55-405b-a8fb-34ec3f9939a9","system_id":"levelo_inurba_marseille","lat":43.299724,"lon":5.371829,"is_reserved":false,"is_disabled":false,"rental_uris":{"android":"levelo://app?vid=93386bab-dc55-405b-a8fb-34ec3f9939a9","ios":"levelo://app?vid=93386bab-dc55-405b-a8fb-34ec3f9939a9"},"vehicle_type_id":"4","last_reported":1715432806,"current_range_meters":20000,"station_id":"ce4bgr92rcd13ifvqc7g","pricing_plan_id":"cebpf4jnsgd1na2vs0mg"},{"bike_id":"55fb498c-b03c-4a91-9055-6f2d6d72e71f","system_id":"levelo_inurba_marseille","lat":43.299222,"lon":5.365554,"is_reserved":false,"is_disabled":false,"rental_uris":{"android":"levelo://app?vid=55fb498c-b03c-4a91-9055-6f2d6d72e71f","ios":"levelo://app?vid=55fb498c-b03c-4a91-9055-6f2d6d72e71f"},"vehicle_type_id":"4","last_reported":1715432806,"current_range_meters":10000,"station_id":"ce4bgm92rcd13ifvqbr0","pricing_plan_id":"cebpf4jnsgd1na2vs0mg"},{"bike_id":"b3b8e391-f8dc-4de9-ad97-b18c41ff1f26","system_id":"levelo_inurba_marseille","lat":43.29981,"lon":5.37187,"is_reserved":false,"is_disabled":false,"rental_uris":{"android":"levelo://app?vid=b3b8e391-f8dc-4de9-ad97-b18c41ff1f26","ios":"levelo://app?vid=b3b8e391-f8dc-4de9-ad97-b18c41ff1f26"},"vehicle_type_id":"4","last_reported":1715432806,"current_range_meters":26400,"station_id":"ce4bgr92rcd13ifvqc7g","pricing_plan_id":"cebpf4jnsgd1na2vs0mg"},{"bike_id":"7cb13567-66ec-4f04-9f26-4f26a788014e","system_id":"levelo_inurba_marseille","lat":43.299222,"lon":5.365554,"is_reserved":false,"is_disabled":false,"rental_uris":{"android":"levelo://app?vid=7cb13567-66ec-4f04-9f26-4f26a788014e","ios":"levelo://app?vid=7cb13567-66ec-4f04-9f26-4f26a788014e"},"vehicle_type_id":"4","last_reported":1715432806,"current_range_meters":8000,"station_id":"ce4bgm92rcd13ifvqbr0","pricing_plan_id":"cebpf4jnsgd1na2vs0mg"},{"bike_id":"1176d894-1fe6-4ac1-8c80-d750663132b5","system_id":"levelo_inurba_marseille","lat":43.299222,"lon":5.365554,"is_reserved":false,"is_disabled":false,"rental_uris":{"android":"levelo://app?vid=1176d894-1fe6-4ac1-8c80-d750663132b5","ios":"levelo://app?vid=1176d894-1fe6-4ac1-8c80-d750663132b5"},"vehicle_type_id":"4","last_reported":1715432806,"current_range_meters":3600,"station_id":"ce4bgm92rcd13ifvqbr0","pricing_plan_id":"cebpf4jnsgd1na2vs0mg"},{"bike_id":"a131c8aa-b7e3-47eb-94b2-56c92a238381","system_id":"levelo_inurba_marseille","lat":43.298433,"lon":5.362774,"is_reserved":false,"is_disabled":false,"rental_uris":{"android":"levelo://app?vid=a131c8aa-b7e3-47eb-94b2-56c92a238381","ios":"levelo://app?vid=a131c8aa-b7e3-47eb-94b2-56c92a238381"},"vehicle_type_id":"4","last_reported":1715432806,"current_range_meters":17600,"station_id":"ce4bgpp2rcd13ifvqc3g","pricing_plan_id":"cebpf4jnsgd1na2vs0mg"},{"bike_id":"43d3f866-54b7-4e38-b296-354ce7df49a8","system_id":"levelo_inurba_marseille","lat":43.298433,"lon":5.362774,"is_reserved":false,"is_disabled":false,"rental_uris":{"android":"levelo://app?vid=43d3f866-54b7-4e38-b296-354ce7df49a8","ios":"levelo://app?vid=43d3f866-54b7-4e38-b296-354ce7df49a8"},"vehicle_type_id":"4","last_reported":1715432806,"current_range_meters":20000,"station_id":"ce4bgpp2rcd13ifvqc3g","pricing_plan_id":"cebpf4jnsgd1na2vs0mg"},{"bike_id":"e185d966-38f5-4dc4-ad8a-e80bbda21786","system_id":"levelo_inurba_marseille","lat":43.299243,"lon":5.37481,"is_reserved":false,"is_disabled":false,"rental_uris":{"android":"levelo://app?vid=e185d966-38f5-4dc4-ad8a-e80bbda21786","ios":"levelo://app?vid=e185d966-38f5-4dc4-ad8a-e80bbda21786"},"vehicle_type_id":"4","last_reported":1715432806,"current_range_meters":1200,"station_id":"ce4bgjh2rcd13ifvqbg0","pricing_plan_id":"cebpf4jnsgd1na2vs0mg"},{"bike_id":"57a2ec48-af42-4ceb-9bed-6d6503d7c80f","system_id":"levelo_inurba_marseille","lat":43.299209,"lon":5.365547,"is_reserved":false,"is_disabled":false,"rental_uris":{"android":"levelo://app?vid=57a2ec48-af42-4ceb-9bed-6d6503d7c80f","ios":"levelo://app?vid=57a2ec48-af42-4ceb-9bed-6d6503d7c80f"},"vehicle_type_id":"4","last_reported":1715432806,"current_range_meters":11200,"station_id":"ce4bgm92rcd13ifvqbr0","pricing_plan_id":"cebpf4jnsgd1na2vs0mg"},{"bike_id":"2bf6cfe9-1d4f-4eaa-92ae-d90258069e51","system_id":"levelo_inurba_marseille","lat":43.322872,"lon":5.382756,"is_reserved":false,"is_disabled":false,"rental_uris":{"android":"levelo://app?vid=2bf6cfe9-1d4f-4eaa-92ae-d90258069e51","ios":"levelo://app?vid=2bf6cfe9-1d4f-4eaa-92ae-d90258069e51"},"vehicle_type_id":"4","last_reported":1715432806,"current_range_meters":18800,"station_id":"ce4bhr12rcd13ifvqhqg","pricing_plan_id":"cebpf4jnsgd1na2vs0mg"},{"bike_id":"2e6b251f-b136-4a80-970c-9fd4e9c1c397","system_id":"levelo_inurba_marseille","lat":43.32706,"lon":5.37513,"is_reserved":false,"is_disabled":false,"rental_uris":{"android":"levelo://app?vid=2e6b251f-b136-4a80-970c-9fd4e9c1c397","ios":"levelo://app?vid=2e6b251f-b136-4a80-970c-9fd4e9c1c397"},"vehicle_type_id":"4","last_reported":1715432806,"current_range_meters":29200,"station_id":"","pricing_plan_id":"cebpf4jnsgd1na2vs0mg"},{"bike_id":"fac605cc-bfe3-45c9-8865-195ed153bbe7","system_id":"levelo_inurba_marseille","lat":43.297163,"lon":5.365866,"is_reserved":false,"is_disabled":false,"rental_uris":{"android":"levelo://app?vid=fac605cc-bfe3-45c9-8865-195ed153bbe7","ios":"levelo://app?vid=fac605cc-bfe3-45c9-8865-195ed153bbe7"},"vehicle_type_id":"4","last_reported":1715432806,"current_range_meters":27600,"station_id":"ce4bgn12rcd13ifvqbt0","pricing_plan_id":"cebpf4jnsgd1na2vs0mg"},{"bike_id":"5d6e825e-a7e9-4f94-9c5c-c18dd5f3a6bf","system_id":"levelo_inurba_marseille","lat":43.297163,"lon":5.365866,"is_reserved":false,"is_disabled":false,"rental_uris":{"android":"levelo://app?vid=5d6e825e-a7e9-4f94-9c5c-c18dd5f3a6bf","ios":"levelo://app?vid=5d6e825e-a7e9-4f94-9c5c-c18dd5f3a6bf"},"vehicle_type_id":"4","last_reported":1715432806,"current_range_meters":18000,"station_id":"ce4bgn12rcd13ifvqbt0","pricing_plan_id":"cebpf4jnsgd1na2vs0mg"},{"bike_id":"c66bc6df-b558-4db0-89c1-10d623e8ed8f","system_id":"levelo_inurba_marseille","lat":43.297163,"lon":5.365866,"is_reserved":false,"is_disabled":false,"rental_uris":{"android":"levelo://app?vid=c66bc6df-b558-4db0-89c1-10d623e8ed8f","ios":"levelo://app?vid=c66bc6df-b558-4db0-89c1-10d623e8ed8f"},"vehicle_type_id":"4","last_reported":1715432806,"current_range_meters":28400,"station_id":"ce4bgn12rcd13ifvqbt0","pricing_plan_id":"cebpf4jnsgd1na2vs0mg"},{"bike_id":"96ea3be8-b7b6-465f-84e8-7d15bf4f7358","system_id":"levelo_inurba_marseille","lat":43.29689,"lon":5.37191,"is_reserved":false,"is_disabled":false,"rental_uris":{"android":"levelo://app?vid=96ea3be8-b7b6-465f-84e8-7d15bf4f7358","ios":"levelo://app?vid=96ea3be8-b7b6-465f-84e8-7d15bf4f7358"},"vehicle_type_id":"4","last_reported":1715432806,"current_range_meters":12400,"station_id":"","pricing_plan_id":"cebpf4jnsgd1na2vs0mg"},{"bike_id":"2c6467b1-98eb-4da2-915c-be694c617c0c","system_id":"levelo_inurba_marseille","lat":43.296932,"lon":5.372521,"is_reserved":false,"is_disabled":false,"rental_uris":{"android":"levelo://app?vid=2c6467b1-98eb-4da2-915c-be694c617c0c","ios":"levelo://app?vid=2c6467b1-98eb-4da2-915c-be694c617c0c"},"vehicle_type_id":"4","last_reported":1715432806,"current_range_meters":20400,"station_id":"","pricing_plan_id":"cebpf4jnsgd1na2vs0mg"},{"bike_id":"a45f1a6c-98fc-4e7b-997f-ca7e12830d36","system_id":"levelo_inurba_marseille","lat":43.2968,"lon":5.37291,"is_reserved":false,"is_disabled":false,"rental_uris":{"android":"levelo://app?vid=a45f1a6c-98fc-4e7b-997f-ca7e12830d36","ios":"levelo://app?vid=a45f1a6c-98fc-4e7b-997f-ca7e12830d36"},"vehicle_type_id":"4","last_reported":1715432806,"current_range_meters":23200,"station_id":"ce4bgk12rcd13ifvqbj0","pricing_plan_id":"cebpf4jnsgd1na2vs0mg"},{"bike_id":"b9baec41-4814-4821-a879-fa39be2f96bf","system_id":"levelo_inurba_marseille","lat":43.2968,"lon":5.37291,"is_reserved":false,"is_disabled":false,"rental_uris":{"android":"levelo://app?vid=b9baec41-4814-4821-a879-fa39be2f96bf","ios":"levelo://app?vid=b9baec41-4814-4821-a879-fa39be2f96bf"},"vehicle_type_id":"4","last_reported":1715432806,"current_range_meters":15200,"station_id":"ce4bgk12rcd13ifvqbj0","pricing_plan_id":"cebpf4jnsgd1na2vs0mg"},{"bike_id":"dc5fc93e-c456-4640-adb5-541471c36b8a","system_id":"levelo_inurba_marseille","lat":43.296847,"lon":5.372865,"is_reserved":false,"is_disabled":false,"rental_uris":{"android":"levelo://app?vid=dc5fc93e-c456-4640-adb5-541471c36b8a","ios":"levelo://app?vid=dc5fc93e-c456-4640-adb5-541471c36b8a"},"vehicle_type_id":"4","last_reported":1715432806,"current_range_meters":30800,"station_id":"","pricing_plan_id":"cebpf4jnsgd1na2vs0mg"},{"bike_id":"c24167e9-dcd5-4fc4-b0d2-71a16048957f","system_id":"levelo_inurba_marseille","lat":43.2968,"lon":5.37291,"is_reserved":false,"is_disabled":false,"rental_uris":{"android":"levelo://app?vid=c24167e9-dcd5-4fc4-b0d2-71a16048957f","ios":"levelo://app?vid=c24167e9-dcd5-4fc4-b0d2-71a16048957f"},"vehicle_type_id":"4","last_reported":1715432806,"current_range_meters":16000,"station_id":"ce4bgk12rcd13ifvqbj0","pricing_plan_id":"cebpf4jnsgd1na2vs0mg"},{"bike_id":"02f48b91-4acf-42ab-8c31-5e1a6aa8bae3","system_id":"levelo_inurba_marseille","lat":43.29573,"lon":5.367355,"is_reserved":false,"is_disabled":false,"rental_uris":{"android":"levelo://app?vid=02f48b91-4acf-42ab-8c31-5e1a6aa8bae3","ios":"levelo://app?vid=02f48b91-4acf-42ab-8c31-5e1a6aa8bae3"},"vehicle_type_id":"4","last_reported":1715432806,"current_range_meters":0,"station_id":"ce4bgph2rcd13ifvqc2g","pricing_plan_id":"cebpf4jnsgd1na2vs0mg"},{"bike_id":"67d3ab54-242e-41d0-b345-c25d77e21655","system_id":"levelo_inurba_marseille","lat":43.29573,"lon":5.367355,"is_reserved":false,"is_disabled":false,"rental_uris":{"android":"levelo://app?vid=67d3ab54-242e-41d0-b345-c25d77e21655","ios":"levelo://app?vid=67d3ab54-242e-41d0-b345-c25d77e21655"},"vehicle_type_id":"4","last_reported":1715432806,"current_range_meters":6800,"station_id":"ce4bgph2rcd13ifvqc2g","pricing_plan_id":"cebpf4jnsgd1na2vs0mg"},{"bike_id":"7eef4548-be9d-4a68-be01-ab126b6ef876","system_id":"levelo_inurba_marseille","lat":43.29573,"lon":5.367355,"is_reserved":false,"is_disabled":false,"rental_uris":{"android":"levelo://app?vid=7eef4548-be9d-4a68-be01-ab126b6ef876","ios":"levelo://app?vid=7eef4548-be9d-4a68-be01-ab126b6ef876"},"vehicle_type_id":"4","last_reported":1715432806,"current_range_meters":30400,"station_id":"ce4bgph2rcd13ifvqc2g","pricing_plan_id":"cebpf4jnsgd1na2vs0mg"},{"bike_id":"5ea4fec8-8a7f-45ab-9763-59865b262347","system_id":"levelo_inurba_marseille","lat":43.29573,"lon":5.367355,"is_reserved":false,"is_disabled":false,"rental_uris":{"android":"levelo://app?vid=5ea4fec8-8a7f-45ab-9763-59865b262347","ios":"levelo://app?vid=5ea4fec8-8a7f-45ab-9763-59865b262347"},"vehicle_type_id":"4","last_reported":1715432806,"current_range_meters":1200,"station_id":"ce4bgph2rcd13ifvqc2g","pricing_plan_id":"cebpf4jnsgd1na2vs0mg"},{"bike_id":"6000f0d5-dd96-4cc1-844d-9e454444e265","system_id":"levelo_inurba_marseille","lat":43.29573,"lon":5.367355,"is_reserved":false,"is_disabled":false,"rental_uris":{"android":"levelo://app?vid=6000f0d5-dd96-4cc1-844d-9e454444e265","ios":"levelo://app?vid=6000f0d5-dd96-4cc1-844d-9e454444e265"},"vehicle_type_id":"4","last_reported":1715432806,"current_range_meters":16000,"station_id":"ce4bgph2rcd13ifvqc2g","pricing_plan_id":"cebpf4jnsgd1na2vs0mg"},{"bike_id":"2bfad0d6-a728-449e-9bb2-f74e7766b9ee","system_id":"levelo_inurba_marseille","lat":43.29573,"lon":5.367355,"is_reserved":false,"is_disabled":false,"rental_uris":{"android":"levelo://app?vid=2bfad0d6-a728-449e-9bb2-f74e7766b9ee","ios":"levelo://app?vid=2bfad0d6-a728-449e-9bb2-f74e7766b9ee"},"vehicle_type_id":"4","last_reported":1715432806,"current_range_meters":800,"station_id":"ce4bgph2rcd13ifvqc2g","pricing_plan_id":"cebpf4jnsgd1na2vs0mg"},{"bike_id":"844fae6f-a9d4-4369-a408-48ed536b5cc6","system_id":"levelo_inurba_marseille","lat":43.32342,"lon":5.38509,"is_reserved":false,"is_disabled":false,"rental_uris":{"android":"levelo://app?vid=844fae6f-a9d4-4369-a408-48ed536b5cc6","ios":"levelo://app?vid=844fae6f-a9d4-4369-a408-48ed536b5cc6"},"vehicle_type_id":"4","last_reported":1715432806,"current_range_meters":14000,"station_id":"","pricing_plan_id":"cebpf4jnsgd1na2vs0mg"},{"bike_id":"0e4984fc-e8a3-4f2f-83a6-b936665ef2be","system_id":"levelo_inurba_marseille","lat":43.29726,"lon":5.37691,"is_reserved":false,"is_disabled":false,"rental_uris":{"android":"levelo://app?vid=0e4984fc-e8a3-4f2f-83a6-b936665ef2be","ios":"levelo://app?vid=0e4984fc-e8a3-4f2f-83a6-b936665ef2be"},"vehicle_type_id":"4","last_reported":1715432806,"current_range_meters":8000,"station_id":"","pricing_plan_id":"cebpf4jnsgd1na2vs0mg"},{"bike_id":"9dcfedde-4f6d-4a7e-8465-e802ea98e595","system_id":"levelo_inurba_marseille","lat":43.309589,"lon":5.390258,"is_reserved":false,"is_disabled":false,"rental_uris":{"android":"levelo://app?vid=9dcfedde-4f6d-4a7e-8465-e802ea98e595","ios":"levelo://app?vid=9dcfedde-4f6d-4a7e-8465-e802ea98e595"},"vehicle_type_id":"4","last_reported":1715432806,"current_range_meters":26400,"station_id":"ce4bgup2rcd13ifvqco0","pricing_plan_id":"cebpf4jnsgd1na2vs0mg"},{"bike_id":"7f2b459e-f84e-4ee4-b29b-2637be789e17","system_id":"levelo_inurba_marseille","lat":43.309589,"lon":5.390258,"is_reserved":false,"is_disabled":false,"rental_uris":{"android":"levelo://app?vid=7f2b459e-f84e-4ee4-b29b-2637be789e17","ios":"levelo://app?vid=7f2b459e-f84e-4ee4-b29b-2637be789e17"},"vehicle_type_id":"4","last_reported":1715432806,"current_range_meters":26400,"station_id":"ce4bgup2rcd13ifvqco0","pricing_plan_id":"cebpf4jnsgd1na2vs0mg"},{"bike_id":"d6fd0dc5-8682-4cd9-b487-1f9be5d6c821","system_id":"levelo_inurba_marseille","lat":43.309589,"lon":5.390258,"is_reserved":false,"is_disabled":false,"rental_uris":{"android":"levelo://app?vid=d6fd0dc5-8682-4cd9-b487-1f9be5d6c821","ios":"levelo://app?vid=d6fd0dc5-8682-4cd9-b487-1f9be5d6c821"},"vehicle_type_id":"4","last_reported":1715432806,"current_range_meters":10400,"station_id":"ce4bgup2rcd13ifvqco0","pricing_plan_id":"cebpf4jnsgd1na2vs0mg"},{"bike_id":"449ec06a-faa4-4347-9c42-0b9fab2cf87e","system_id":"levelo_inurba_marseille","lat":43.296935,"lon":5.376544,"is_reserved":false,"is_disabled":false,"rental_uris":{"android":"levelo://app?vid=449ec06a-faa4-4347-9c42-0b9fab2cf87e","ios":"levelo://app?vid=449ec06a-faa4-4347-9c42-0b9fab2cf87e"},"vehicle_type_id":"4","last_reported":1715432806,"current_range_meters":800,"station_id":"ce4bgkh2rcd13ifvqbl0","pricing_plan_id":"cebpf4jnsgd1na2vs0mg"},{"bike_id":"a668020b-04cf-4770-be9c-75bac7c82a2d","system_id":"levelo_inurba_marseille","lat":43.304274,"lon":5.388873,"is_reserved":false,"is_disabled":false,"rental_uris":{"android":"levelo://app?vid=a668020b-04cf-4770-be9c-75bac7c82a2d","ios":"levelo://app?vid=a668020b-04cf-4770-be9c-75bac7c82a2d"},"vehicle_type_id":"4","last_reported":1715432806,"current_range_meters":800,"station_id":"ce4bgk12rcd13ifvqbi0","pricing_plan_id":"cebpf4jnsgd1na2vs0mg"},{"bike_id":"f991ff15-9226-47b8-a833-15e0d22e986c","system_id":"levelo_inurba_marseille","lat":43.295748,"lon":5.37522,"is_reserved":false,"is_disabled":false,"rental_uris":{"android":"levelo://app?vid=f991ff15-9226-47b8-a833-15e0d22e986c","ios":"levelo://app?vid=f991ff15-9226-47b8-a833-15e0d22e986c"},"vehicle_type_id":"4","last_reported":1715432806,"current_range_meters":0,"station_id":"ce4bgh92rcd13ifvqb50","pricing_plan_id":"cebpf4jnsgd1na2vs0mg"},{"bike_id":"4763eb98-b3fc-4e0d-a344-9c81cf13d772","system_id":"levelo_inurba_marseille","lat":43.295748,"lon":5.37522,"is_reserved":false,"is_disabled":false,"rental_uris":{"android":"levelo://app?vid=4763eb98-b3fc-4e0d-a344-9c81cf13d772","ios":"levelo://app?vid=4763eb98-b3fc-4e0d-a344-9c81cf13d772"},"vehicle_type_id":"4","last_reported":1715432806,"current_range_meters":21600,"station_id":"ce4bgh92rcd13ifvqb50","pricing_plan_id":"cebpf4jnsgd1na2vs0mg"},{"bike_id":"1c7cafee-e030-43eb-a330-eeb527a21816","system_id":"levelo_inurba_marseille","lat":43.293438,"lon":5.371586,"is_reserved":false,"is_disabled":false,"rental_uris":{"android":"levelo://app?vid=1c7cafee-e030-43eb-a330-eeb527a21816","ios":"levelo://app?vid=1c7cafee-e030-43eb-a330-eeb527a21816"},"vehicle_type_id":"4","last_reported":1715432806,"current_range_meters":17200,"station_id":"","pricing_plan_id":"cebpf4jnsgd1na2vs0mg"},{"bike_id":"1274eeae-ac66-4aa5-bc5c-367e40205cb8","system_id":"levelo_inurba_marseille","lat":43.29602,"lon":5.381084,"is_reserved":false,"is_disabled":false,"rental_uris":{"android":"levelo://app?vid=1274eeae-ac66-4aa5-bc5c-367e40205cb8","ios":"levelo://app?vid=1274eeae-ac66-4aa5-bc5c-367e40205cb8"},"vehicle_type_id":"4","last_reported":1715432806,"current_range_meters":27600,"station_id":"ce4bgl12rcd13ifvqbo0","pricing_plan_id":"cebpf4jnsgd1na2vs0mg"},{"bike_id":"a9fcca0d-4bed-41be-a914-699f5b67568f","system_id":"levelo_inurba_marseille","lat":43.29273,"lon":5.36842,"is_reserved":false,"is_disabled":false,"rental_uris":{"android":"levelo://app?vid=a9fcca0d-4bed-41be-a914-699f5b67568f","ios":"levelo://app?vid=a9fcca0d-4bed-41be-a914-699f5b67568f"},"vehicle_type_id":"4","last_reported":1715432806,"current_range_meters":31200,"station_id":"ce4bhbp2rcd13ifvqesg","pricing_plan_id":"cebpf4jnsgd1na2vs0mg"},{"bike_id":"f45413ca-b4fa-4a9c-b7b1-ec3ef34405e6","system_id":"levelo_inurba_marseille","lat":43.292749,"lon":5.368402,"is_reserved":false,"is_disabled":false,"rental_uris":{"android":"levelo://app?vid=f45413ca-b4fa-4a9c-b7b1-ec3ef34405e6","ios":"levelo://app?vid=f45413ca-b4fa-4a9c-b7b1-ec3ef34405e6"},"vehicle_type_id":"4","last_reported":1715432806,"current_range_meters":0,"station_id":"ce4bhbp2rcd13ifvqesg","pricing_plan_id":"cebpf4jnsgd1na2vs0mg"},{"bike_id":"f83ceb81-e957-43c9-b0f4-e7fc884e9cf2","system_id":"levelo_inurba_marseille","lat":43.29269,"lon":5.36842,"is_reserved":false,"is_disabled":false,"rental_uris":{"android":"levelo://app?vid=f83ceb81-e957-43c9-b0f4-e7fc884e9cf2","ios":"levelo://app?vid=f83ceb81-e957-43c9-b0f4-e7fc884e9cf2"},"vehicle_type_id":"4","last_reported":1715432806,"current_range_meters":30400,"station_id":"ce4bhbp2rcd13ifvqesg","pricing_plan_id":"cebpf4jnsgd1na2vs0mg"},{"bike_id":"6602b7cf-0646-47e6-818e-8dc380129021","system_id":"levelo_inurba_marseille","lat":43.293009,"lon":5.374584,"is_reserved":false,"is_disabled":false,"rental_uris":{"android":"levelo://app?vid=6602b7cf-0646-47e6-818e-8dc380129021","ios":"levelo://app?vid=6602b7cf-0646-47e6-818e-8dc380129021"},"vehicle_type_id":"4","last_reported":1715432806,"current_range_meters":0,"station_id":"ce4bgi12rcd13ifvqb70","pricing_plan_id":"cebpf4jnsgd1na2vs0mg"},{"bike_id":"cc6244aa-e33c-4aba-8250-5b55cfacb477","system_id":"levelo_inurba_marseille","lat":43.293009,"lon":5.374584,"is_reserved":false,"is_disabled":false,"rental_uris":{"android":"levelo://app?vid=cc6244aa-e33c-4aba-8250-5b55cfacb477","ios":"levelo://app?vid=cc6244aa-e33c-4aba-8250-5b55cfacb477"},"vehicle_type_id":"4","last_reported":1715432806,"current_range_meters":400,"station_id":"ce4bgi12rcd13ifvqb70","pricing_plan_id":"cebpf4jnsgd1na2vs0mg"},{"bike_id":"9ae22560-fc89-42bd-81a3-96f89005a0bd","system_id":"levelo_inurba_marseille","lat":43.293009,"lon":5.374584,"is_reserved":false,"is_disabled":false,"rental_uris":{"android":"levelo://app?vid=9ae22560-fc89-42bd-81a3-96f89005a0bd","ios":"levelo://app?vid=9ae22560-fc89-42bd-81a3-96f89005a0bd"},"vehicle_type_id":"4","last_reported":1715432806,"current_range_meters":0,"station_id":"ce4bgi12rcd13ifvqb70","pricing_plan_id":"cebpf4jnsgd1na2vs0mg"},{"bike_id":"aff6f4a5-c9d6-4d3a-b5f4-989a5f3313ee","system_id":"levelo_inurba_marseille","lat":43.2936,"lon":5.37835,"is_reserved":false,"is_disabled":false,"rental_uris":{"android":"levelo://app?vid=aff6f4a5-c9d6-4d3a-b5f4-989a5f3313ee","ios":"levelo://app?vid=aff6f4a5-c9d6-4d3a-b5f4-989a5f3313ee"},"vehicle_type_id":"4","last_reported":1715432806,"current_range_meters":0,"station_id":"ce4bgjh2rcd13ifvqbf0","pricing_plan_id":"cebpf4jnsgd1na2vs0mg"},{"bike_id":"cc9663d5-29f5-4acf-acc2-e3ac3bddd3f4","system_id":"levelo_inurba_marseille","lat":43.292311,"lon":5.360731,"is_reserved":false,"is_disabled":false,"rental_uris":{"android":"levelo://app?vid=cc9663d5-29f5-4acf-acc2-e3ac3bddd3f4","ios":"levelo://app?vid=cc9663d5-29f5-4acf-acc2-e3ac3bddd3f4"},"vehicle_type_id":"4","last_reported":1715432806,"current_range_meters":0,"station_id":"ce4bhbh2rcd13ifvqeqg","pricing_plan_id":"cebpf4jnsgd1na2vs0mg"},{"bike_id":"7e4759c8-7c83-4d0e-82b3-881b9105bd17","system_id":"levelo_inurba_marseille","lat":43.292311,"lon":5.360731,"is_reserved":false,"is_disabled":false,"rental_uris":{"android":"levelo://app?vid=7e4759c8-7c83-4d0e-82b3-881b9105bd17","ios":"levelo://app?vid=7e4759c8-7c83-4d0e-82b3-881b9105bd17"},"vehicle_type_id":"4","last_reported":1715432806,"current_range_meters":0,"station_id":"ce4bhbh2rcd13ifvqeqg","pricing_plan_id":"cebpf4jnsgd1na2vs0mg"},{"bike_id":"cc441db5-1df5-4b08-9902-59ae0e08657b","system_id":"levelo_inurba_marseille","lat":43.292311,"lon":5.360731,"is_reserved":false,"is_disabled":false,"rental_uris":{"android":"levelo://app?vid=cc441db5-1df5-4b08-9902-59ae0e08657b","ios":"levelo://app?vid=cc441db5-1df5-4b08-9902-59ae0e08657b"},"vehicle_type_id":"4","last_reported":1715432806,"current_range_meters":16000,"station_id":"ce4bhbh2rcd13ifvqeqg","pricing_plan_id":"cebpf4jnsgd1na2vs0mg"},{"bike_id":"d4693704-7b5e-42c2-965c-e48c31942719","system_id":"levelo_inurba_marseille","lat":43.292311,"lon":5.360731,"is_reserved":false,"is_disabled":false,"rental_uris":{"android":"levelo://app?vid=d4693704-7b5e-42c2-965c-e48c31942719","ios":"levelo://app?vid=d4693704-7b5e-42c2-965c-e48c31942719"},"vehicle_type_id":"4","last_reported":1715432806,"current_range_meters":21200,"station_id":"ce4bhbh2rcd13ifvqeqg","pricing_plan_id":"cebpf4jnsgd1na2vs0mg"},{"bike_id":"d63d69e2-3908-448d-a906-0709a564e042","system_id":"levelo_inurba_marseille","lat":43.292311,"lon":5.360731,"is_reserved":false,"is_disabled":false,"rental_uris":{"android":"levelo://app?vid=d63d69e2-3908-448d-a906-0709a564e042","ios":"levelo://app?vid=d63d69e2-3908-448d-a906-0709a564e042"},"vehicle_type_id":"4","last_reported":1715432806,"current_range_meters":15600,"station_id":"ce4bhbh2rcd13ifvqeqg","pricing_plan_id":"cebpf4jnsgd1na2vs0mg"},{"bike_id":"e90f8c3e-ef71-4785-8f4e-22c8ca9803ed","system_id":"levelo_inurba_marseille","lat":43.292311,"lon":5.360731,"is_reserved":false,"is_disabled":false,"rental_uris":{"android":"levelo://app?vid=e90f8c3e-ef71-4785-8f4e-22c8ca9803ed","ios":"levelo://app?vid=e90f8c3e-ef71-4785-8f4e-22c8ca9803ed"},"vehicle_type_id":"4","last_reported":1715432806,"current_range_meters":14400,"station_id":"ce4bhbh2rcd13ifvqeqg","pricing_plan_id":"cebpf4jnsgd1na2vs0mg"},{"bike_id":"75123359-a7f6-4a8d-aa0e-1ede94121366","system_id":"levelo_inurba_marseille","lat":43.303002,"lon":5.392142,"is_reserved":false,"is_disabled":false,"rental_uris":{"android":"levelo://app?vid=75123359-a7f6-4a8d-aa0e-1ede94121366","ios":"levelo://app?vid=75123359-a7f6-4a8d-aa0e-1ede94121366"},"vehicle_type_id":"4","last_reported":1715432806,"current_range_meters":0,"station_id":"ce4bgkh2rcd13ifvqbk0","pricing_plan_id":"cebpf4jnsgd1na2vs0mg"},{"bike_id":"3d8d9262-f490-4927-be98-dda2004ceef9","system_id":"levelo_inurba_marseille","lat":43.29161,"lon":5.37162,"is_reserved":false,"is_disabled":false,"rental_uris":{"android":"levelo://app?vid=3d8d9262-f490-4927-be98-dda2004ceef9","ios":"levelo://app?vid=3d8d9262-f490-4927-be98-dda2004ceef9"},"vehicle_type_id":"4","last_reported":1715432806,"current_range_meters":7200,"station_id":"ce4bha92rcd13ifvqeh0","pricing_plan_id":"cebpf4jnsgd1na2vs0mg"},{"bike_id":"53f9cc5b-5e50-49c9-825e-25fe143b1f89","system_id":"levelo_inurba_marseille","lat":43.29195,"lon":5.35794,"is_reserved":false,"is_disabled":false,"rental_uris":{"android":"levelo://app?vid=53f9cc5b-5e50-49c9-825e-25fe143b1f89","ios":"levelo://app?vid=53f9cc5b-5e50-49c9-825e-25fe143b1f89"},"vehicle_type_id":"4","last_reported":1715432806,"current_range_meters":0,"station_id":"ce4bhb12rcd13ifvqel0","pricing_plan_id":"cebpf4jnsgd1na2vs0mg"},{"bike_id":"7083e27d-e031-4d51-b81f-da4728419718","system_id":"levelo_inurba_marseille","lat":43.309047,"lon":5.396551,"is_reserved":false,"is_disabled":false,"rental_uris":{"android":"levelo://app?vid=7083e27d-e031-4d51-b81f-da4728419718","ios":"levelo://app?vid=7083e27d-e031-4d51-b81f-da4728419718"},"vehicle_type_id":"4","last_reported":1715432806,"current_range_meters":24000,"station_id":"ce4bh012rcd13ifvqcv0","pricing_plan_id":"cebpf4jnsgd1na2vs0mg"},{"bike_id":"06790e8d-bdb7-463a-86a2-60e9b134d6a7","system_id":"levelo_inurba_marseille","lat":43.313291,"lon":5.396838,"is_reserved":false,"is_disabled":false,"rental_uris":{"android":"levelo://app?vid=06790e8d-bdb7-463a-86a2-60e9b134d6a7","ios":"levelo://app?vid=06790e8d-bdb7-463a-86a2-60e9b134d6a7"},"vehicle_type_id":"4","last_reported":1715432806,"current_range_meters":13200,"station_id":"ce4bgvp2rcd13ifvqcu0","pricing_plan_id":"cebpf4jnsgd1na2vs0mg"},{"bike_id":"f09baab0-386b-4288-9d45-6be2d9bb6d8f","system_id":"levelo_inurba_marseille","lat":43.313291,"lon":5.396838,"is_reserved":false,"is_disabled":false,"rental_uris":{"android":"levelo://app?vid=f09baab0-386b-4288-9d45-6be2d9bb6d8f","ios":"levelo://app?vid=f09baab0-386b-4288-9d45-6be2d9bb6d8f"},"vehicle_type_id":"4","last_reported":1715432806,"current_range_meters":22800,"station_id":"ce4bgvp2rcd13ifvqcu0","pricing_plan_id":"cebpf4jnsgd1na2vs0mg"},{"bike_id":"de5e4cf0-ef16-4233-8978-7799b8b91539","system_id":"levelo_inurba_marseille","lat":43.313291,"lon":5.396838,"is_reserved":false,"is_disabled":false,"rental_uris":{"android":"levelo://app?vid=de5e4cf0-ef16-4233-8978-7799b8b91539","ios":"levelo://app?vid=de5e4cf0-ef16-4233-8978-7799b8b91539"},"vehicle_type_id":"4","last_reported":1715432806,"current_range_meters":29600,"station_id":"ce4bgvp2rcd13ifvqcu0","pricing_plan_id":"cebpf4jnsgd1na2vs0mg"},{"bike_id":"4c64aaea-4574-4770-957f-3d7d45fabfb1","system_id":"levelo_inurba_marseille","lat":43.313291,"lon":5.396838,"is_reserved":false,"is_disabled":false,"rental_uris":{"android":"levelo://app?vid=4c64aaea-4574-4770-957f-3d7d45fabfb1","ios":"levelo://app?vid=4c64aaea-4574-4770-957f-3d7d45fabfb1"},"vehicle_type_id":"4","last_reported":1715432806,"current_range_meters":26400,"station_id":"ce4bgvp2rcd13ifvqcu0","pricing_plan_id":"cebpf4jnsgd1na2vs0mg"},{"bike_id":"f22ab969-a41f-4d73-bb11-91ae1f3677ca","system_id":"levelo_inurba_marseille","lat":43.309038,"lon":5.396546,"is_reserved":false,"is_disabled":false,"rental_uris":{"android":"levelo://app?vid=f22ab969-a41f-4d73-bb11-91ae1f3677ca","ios":"levelo://app?vid=f22ab969-a41f-4d73-bb11-91ae1f3677ca"},"vehicle_type_id":"4","last_reported":1715432806,"current_range_meters":26000,"station_id":"ce4bh012rcd13ifvqcv0","pricing_plan_id":"cebpf4jnsgd1na2vs0mg"},{"bike_id":"443fb348-f55f-417e-9efe-bda80714c5d6","system_id":"levelo_inurba_marseille","lat":43.29529,"lon":5.385581,"is_reserved":false,"is_disabled":false,"rental_uris":{"android":"levelo://app?vid=443fb348-f55f-417e-9efe-bda80714c5d6","ios":"levelo://app?vid=443fb348-f55f-417e-9efe-bda80714c5d6"},"vehicle_type_id":"4","last_reported":1715432806,"current_range_meters":0,"station_id":"ce4bgih2rcd13ifvqba0","pricing_plan_id":"cebpf4jnsgd1na2vs0mg"},{"bike_id":"f0c54a63-50ef-4761-9712-4eeb48f677cb","system_id":"levelo_inurba_marseille","lat":43.29529,"lon":5.385581,"is_reserved":false,"is_disabled":false,"rental_uris":{"android":"levelo://app?vid=f0c54a63-50ef-4761-9712-4eeb48f677cb","ios":"levelo://app?vid=f0c54a63-50ef-4761-9712-4eeb48f677cb"},"vehicle_type_id":"4","last_reported":1715432806,"current_range_meters":7200,"station_id":"ce4bgih2rcd13ifvqba0","pricing_plan_id":"cebpf4jnsgd1na2vs0mg"},{"bike_id":"adfde7b9-d350-4fd4-9750-8cc6b67cef2c","system_id":"levelo_inurba_marseille","lat":43.29529,"lon":5.385581,"is_reserved":false,"is_disabled":false,"rental_uris":{"android":"levelo://app?vid=adfde7b9-d350-4fd4-9750-8cc6b67cef2c","ios":"levelo://app?vid=adfde7b9-d350-4fd4-9750-8cc6b67cef2c"},"vehicle_type_id":"4","last_reported":1715432806,"current_range_meters":26800,"station_id":"ce4bgih2rcd13ifvqba0","pricing_plan_id":"cebpf4jnsgd1na2vs0mg"},{"bike_id":"92289f23-f0bf-42c9-a674-b85705c757d8","system_id":"levelo_inurba_marseille","lat":43.29529,"lon":5.385581,"is_reserved":false,"is_disabled":false,"rental_uris":{"android":"levelo://app?vid=92289f23-f0bf-42c9-a674-b85705c757d8","ios":"levelo://app?vid=92289f23-f0bf-42c9-a674-b85705c757d8"},"vehicle_type_id":"4","last_reported":1715432806,"current_range_meters":21600,"station_id":"ce4bgih2rcd13ifvqba0","pricing_plan_id":"cebpf4jnsgd1na2vs0mg"},{"bike_id":"4d56a5ae-917a-476d-9f21-a12a065eb735","system_id":"levelo_inurba_marseille","lat":43.29184,"lon":5.35624,"is_reserved":false,"is_disabled":false,"rental_uris":{"android":"levelo://app?vid=4d56a5ae-917a-476d-9f21-a12a065eb735","ios":"levelo://app?vid=4d56a5ae-917a-476d-9f21-a12a065eb735"},"vehicle_type_id":"4","last_reported":1715432806,"current_range_meters":0,"station_id":"ce4bhi12rcd13ifvqfp0","pricing_plan_id":"cebpf4jnsgd1na2vs0mg"},{"bike_id":"e61b7e22-6b1b-435a-9d95-c2d4dfa1b9e6","system_id":"levelo_inurba_marseille","lat":43.290631,"lon":5.359244,"is_reserved":false,"is_disabled":false,"rental_uris":{"android":"levelo://app?vid=e61b7e22-6b1b-435a-9d95-c2d4dfa1b9e6","ios":"levelo://app?vid=e61b7e22-6b1b-435a-9d95-c2d4dfa1b9e6"},"vehicle_type_id":"4","last_reported":1715432806,"current_range_meters":31200,"station_id":"ce4bha92rcd13ifvqeg0","pricing_plan_id":"cebpf4jnsgd1na2vs0mg"},{"bike_id":"7578ecab-a260-4fe7-8046-db6a0402a033","system_id":"levelo_inurba_marseille","lat":43.289444,"lon":5.366501,"is_reserved":false,"is_disabled":false,"rental_uris":{"android":"levelo://app?vid=7578ecab-a260-4fe7-8046-db6a0402a033","ios":"levelo://app?vid=7578ecab-a260-4fe7-8046-db6a0402a033"},"vehicle_type_id":"4","last_reported":1715432806,"current_range_meters":22000,"station_id":"","pricing_plan_id":"cebpf4jnsgd1na2vs0mg"},{"bike_id":"9287adf0-a135-489c-87bb-f2e6c8608f1e","system_id":"levelo_inurba_marseille","lat":43.289184,"lon":5.366408,"is_reserved":false,"is_disabled":false,"rental_uris":{"android":"levelo://app?vid=9287adf0-a135-489c-87bb-f2e6c8608f1e","ios":"levelo://app?vid=9287adf0-a135-489c-87bb-f2e6c8608f1e"},"vehicle_type_id":"4","last_reported":1715432806,"current_range_meters":0,"station_id":"ce4bhap2rcd13ifvqek0","pricing_plan_id":"cebpf4jnsgd1na2vs0mg"},{"bike_id":"2289779b-b5e8-4087-901f-4b3b654f911b","system_id":"levelo_inurba_marseille","lat":43.2943,"lon":5.38674,"is_reserved":false,"is_disabled":false,"rental_uris":{"android":"levelo://app?vid=2289779b-b5e8-4087-901f-4b3b654f911b","ios":"levelo://app?vid=2289779b-b5e8-4087-901f-4b3b654f911b"},"vehicle_type_id":"4","last_reported":1715432806,"current_range_meters":24400,"station_id":"ce4bh2h2rcd13ifvqdh0","pricing_plan_id":"cebpf4jnsgd1na2vs0mg"},{"bike_id":"e923a0a3-8e79-46a7-ac2e-c2c3e8d8b4f9","system_id":"levelo_inurba_marseille","lat":43.289184,"lon":5.366408,"is_reserved":false,"is_disabled":false,"rental_uris":{"android":"levelo://app?vid=e923a0a3-8e79-46a7-ac2e-c2c3e8d8b4f9","ios":"levelo://app?vid=e923a0a3-8e79-46a7-ac2e-c2c3e8d8b4f9"},"vehicle_type_id":"4","last_reported":1715432806,"current_range_meters":2400,"station_id":"ce4bhap2rcd13ifvqek0","pricing_plan_id":"cebpf4jnsgd1na2vs0mg"},{"bike_id":"7010783e-71a7-46f6-b927-f776590661ef","system_id":"levelo_inurba_marseille","lat":43.289468,"lon":5.363719,"is_reserved":false,"is_disabled":false,"rental_uris":{"android":"levelo://app?vid=7010783e-71a7-46f6-b927-f776590661ef","ios":"levelo://app?vid=7010783e-71a7-46f6-b927-f776590661ef"},"vehicle_type_id":"4","last_reported":1715432806,"current_range_meters":18400,"station_id":"ce4bhc92rcd13ifvqetg","pricing_plan_id":"cebpf4jnsgd1na2vs0mg"},{"bike_id":"2a68e5a1-3fb5-420d-8e50-09162f39d2d1","system_id":"levelo_inurba_marseille","lat":43.292642,"lon":5.384254,"is_reserved":false,"is_disabled":false,"rental_uris":{"android":"levelo://app?vid=2a68e5a1-3fb5-420d-8e50-09162f39d2d1","ios":"levelo://app?vid=2a68e5a1-3fb5-420d-8e50-09162f39d2d1"},"vehicle_type_id":"4","last_reported":1715432806,"current_range_meters":31200,"station_id":"ce4bh692rcd13ifvqea0","pricing_plan_id":"cebpf4jnsgd1na2vs0mg"},{"bike_id":"e9250b56-ab01-4852-b04b-37039315c690","system_id":"levelo_inurba_marseille","lat":43.292644,"lon":5.384257,"is_reserved":false,"is_disabled":false,"rental_uris":{"android":"levelo://app?vid=e9250b56-ab01-4852-b04b-37039315c690","ios":"levelo://app?vid=e9250b56-ab01-4852-b04b-37039315c690"},"vehicle_type_id":"4","last_reported":1715432806,"current_range_meters":24000,"station_id":"ce4bh692rcd13ifvqea0","pricing_plan_id":"cebpf4jnsgd1na2vs0mg"},{"bike_id":"070944b5-4041-44e6-8407-daf03a5a0162","system_id":"levelo_inurba_marseille","lat":43.304274,"lon":5.397513,"is_reserved":false,"is_disabled":false,"rental_uris":{"android":"levelo://app?vid=070944b5-4041-44e6-8407-daf03a5a0162","ios":"levelo://app?vid=070944b5-4041-44e6-8407-daf03a5a0162"},"vehicle_type_id":"4","last_reported":1715432806,"current_range_meters":400,"station_id":"ce4bh092rcd13ifvqd20","pricing_plan_id":"cebpf4jnsgd1na2vs0mg"},{"bike_id":"60c7e5ad-bceb-4309-8694-3a5315ce27bb","system_id":"levelo_inurba_marseille","lat":43.304274,"lon":5.397513,"is_reserved":false,"is_disabled":false,"rental_uris":{"android":"levelo://app?vid=60c7e5ad-bceb-4309-8694-3a5315ce27bb","ios":"levelo://app?vid=60c7e5ad-bceb-4309-8694-3a5315ce27bb"},"vehicle_type_id":"4","last_reported":1715432806,"current_range_meters":18400,"station_id":"ce4bh092rcd13ifvqd20","pricing_plan_id":"cebpf4jnsgd1na2vs0mg"},{"bike_id":"558a8100-3a0a-4dd9-9f6c-76cede1d88a5","system_id":"levelo_inurba_marseille","lat":43.290103,"lon":5.356114,"is_reserved":false,"is_disabled":false,"rental_uris":{"android":"levelo://app?vid=558a8100-3a0a-4dd9-9f6c-76cede1d88a5","ios":"levelo://app?vid=558a8100-3a0a-4dd9-9f6c-76cede1d88a5"},"vehicle_type_id":"4","last_reported":1715432806,"current_range_meters":10000,"station_id":"ce4bhb92rcd13ifvqen0","pricing_plan_id":"cebpf4jnsgd1na2vs0mg"},{"bike_id":"4c8dc81e-ba12-42d7-bdb4-39141abe788d","system_id":"levelo_inurba_marseille","lat":43.330442,"lon":5.389148,"is_reserved":false,"is_disabled":false,"rental_uris":{"android":"levelo://app?vid=4c8dc81e-ba12-42d7-bdb4-39141abe788d","ios":"levelo://app?vid=4c8dc81e-ba12-42d7-bdb4-39141abe788d"},"vehicle_type_id":"4","last_reported":1715432806,"current_range_meters":18800,"station_id":"ce4bhr92rcd13ifvqhrg","pricing_plan_id":"cebpf4jnsgd1na2vs0mg"},{"bike_id":"4b8440a8-4815-47ea-89a0-527fa51733fc","system_id":"levelo_inurba_marseille","lat":43.289725,"lon":5.37831,"is_reserved":false,"is_disabled":false,"rental_uris":{"android":"levelo://app?vid=4b8440a8-4815-47ea-89a0-527fa51733fc","ios":"levelo://app?vid=4b8440a8-4815-47ea-89a0-527fa51733fc"},"vehicle_type_id":"4","last_reported":1715432806,"current_range_meters":0,"station_id":"ce4bh9p2rcd13ifvqed0","pricing_plan_id":"cebpf4jnsgd1na2vs0mg"},{"bike_id":"a6fe3be9-2ae1-42ce-9d62-911bb3dea5fa","system_id":"levelo_inurba_marseille","lat":43.28856,"lon":5.358371,"is_reserved":false,"is_disabled":false,"rental_uris":{"android":"levelo://app?vid=a6fe3be9-2ae1-42ce-9d62-911bb3dea5fa","ios":"levelo://app?vid=a6fe3be9-2ae1-42ce-9d62-911bb3dea5fa"},"vehicle_type_id":"4","last_reported":1715432806,"current_range_meters":31200,"station_id":"ce4bhb12rcd13ifvqem0","pricing_plan_id":"cebpf4jnsgd1na2vs0mg"},{"bike_id":"b4bb6d54-3add-42cd-8817-54261bc9d68e","system_id":"levelo_inurba_marseille","lat":43.309371,"lon":5.401449,"is_reserved":false,"is_disabled":false,"rental_uris":{"android":"levelo://app?vid=b4bb6d54-3add-42cd-8817-54261bc9d68e","ios":"levelo://app?vid=b4bb6d54-3add-42cd-8817-54261bc9d68e"},"vehicle_type_id":"4","last_reported":1715432806,"current_range_meters":0,"station_id":"ce4bgvp2rcd13ifvqct0","pricing_plan_id":"cebpf4jnsgd1na2vs0mg"},{"bike_id":"03d7e8a9-ddae-48ab-bcec-d6e79eac3924","system_id":"levelo_inurba_marseille","lat":43.309371,"lon":5.401449,"is_reserved":false,"is_disabled":false,"rental_uris":{"android":"levelo://app?vid=03d7e8a9-ddae-48ab-bcec-d6e79eac3924","ios":"levelo://app?vid=03d7e8a9-ddae-48ab-bcec-d6e79eac3924"},"vehicle_type_id":"4","last_reported":1715432806,"current_range_meters":17200,"station_id":"ce4bgvp2rcd13ifvqct0","pricing_plan_id":"cebpf4jnsgd1na2vs0mg"},{"bike_id":"f7932a42-aa5c-439b-b535-65dd8ccd41cf","system_id":"levelo_inurba_marseille","lat":43.33751,"lon":5.37493,"is_reserved":false,"is_disabled":false,"rental_uris":{"android":"levelo://app?vid=f7932a42-aa5c-439b-b535-65dd8ccd41cf","ios":"levelo://app?vid=f7932a42-aa5c-439b-b535-65dd8ccd41cf"},"vehicle_type_id":"4","last_reported":1715432806,"current_range_meters":29600,"station_id":"","pricing_plan_id":"cebpf4jnsgd1na2vs0mg"},{"bike_id":"91d9714b-b35f-47ce-8f34-022bf351236f","system_id":"levelo_inurba_marseille","lat":43.33762,"lon":5.37436,"is_reserved":false,"is_disabled":false,"rental_uris":{"android":"levelo://app?vid=91d9714b-b35f-47ce-8f34-022bf351236f","ios":"levelo://app?vid=91d9714b-b35f-47ce-8f34-022bf351236f"},"vehicle_type_id":"4","last_reported":1715432806,"current_range_meters":24800,"station_id":"","pricing_plan_id":"cebpf4jnsgd1na2vs0mg"},{"bike_id":"d4e1dfbb-783e-4f90-9183-2c7c9a4ca462","system_id":"levelo_inurba_marseille","lat":43.306412,"lon":5.401035,"is_reserved":false,"is_disabled":false,"rental_uris":{"android":"levelo://app?vid=d4e1dfbb-783e-4f90-9183-2c7c9a4ca462","ios":"levelo://app?vid=d4e1dfbb-783e-4f90-9183-2c7c9a4ca462"},"vehicle_type_id":"4","last_reported":1715432806,"current_range_meters":17200,"station_id":"ce4bh112rcd13ifvqda0","pricing_plan_id":"cebpf4jnsgd1na2vs0mg"},{"bike_id":"ec159b10-c999-4390-a484-22a51e690c45","system_id":"levelo_inurba_marseille","lat":43.301117,"lon":5.398795,"is_reserved":false,"is_disabled":false,"rental_uris":{"android":"levelo://app?vid=ec159b10-c999-4390-a484-22a51e690c45","ios":"levelo://app?vid=ec159b10-c999-4390-a484-22a51e690c45"},"vehicle_type_id":"4","last_reported":1715432806,"current_range_meters":12800,"station_id":"ce4bh0h2rcd13ifvqd40","pricing_plan_id":"cebpf4jnsgd1na2vs0mg"},{"bike_id":"53f5f263-1053-40b9-8a75-6ff57ad53678","system_id":"levelo_inurba_marseille","lat":43.28821,"lon":5.355225,"is_reserved":false,"is_disabled":false,"rental_uris":{"android":"levelo://app?vid=53f5f263-1053-40b9-8a75-6ff57ad53678","ios":"levelo://app?vid=53f5f263-1053-40b9-8a75-6ff57ad53678"},"vehicle_type_id":"4","last_reported":1715432806,"current_range_meters":10800,"station_id":"ce4bhbh2rcd13ifvqepg","pricing_plan_id":"cebpf4jnsgd1na2vs0mg"},{"bike_id":"91266183-f089-41f9-b680-9b6f42362c41","system_id":"levelo_inurba_marseille","lat":43.28714,"lon":5.360948,"is_reserved":false,"is_disabled":false,"rental_uris":{"android":"levelo://app?vid=91266183-f089-41f9-b680-9b6f42362c41","ios":"levelo://app?vid=91266183-f089-41f9-b680-9b6f42362c41"},"vehicle_type_id":"4","last_reported":1715432806,"current_range_meters":24400,"station_id":"","pricing_plan_id":"cebpf4jnsgd1na2vs0mg"},{"bike_id":"238f28ef-65fc-4c41-8bf1-916d33db45e4","system_id":"levelo_inurba_marseille","lat":43.269319,"lon":5.389397,"is_reserved":false,"is_disabled":false,"rental_uris":{"android":"levelo://app?vid=238f28ef-65fc-4c41-8bf1-916d33db45e4","ios":"levelo://app?vid=238f28ef-65fc-4c41-8bf1-916d33db45e4"},"vehicle_type_id":"4","last_reported":1715432806,"current_range_meters":800,"station_id":"ce4bhhh2rcd13ifvqfl0","pricing_plan_id":"cebpf4jnsgd1na2vs0mg"},{"bike_id":"95024235-9a11-4c8d-bfee-e21a38e654d6","system_id":"levelo_inurba_marseille","lat":43.298681,"lon":5.397225,"is_reserved":false,"is_disabled":false,"rental_uris":{"android":"levelo://app?vid=95024235-9a11-4c8d-bfee-e21a38e654d6","ios":"levelo://app?vid=95024235-9a11-4c8d-bfee-e21a38e654d6"},"vehicle_type_id":"4","last_reported":1715432806,"current_range_meters":20400,"station_id":"ce4bh0h2rcd13ifvqd50","pricing_plan_id":"cebpf4jnsgd1na2vs0mg"},{"bike_id":"5288538e-f833-4a8b-a88b-c8311da78c00","system_id":"levelo_inurba_marseille","lat":43.295196,"lon":5.39397,"is_reserved":false,"is_disabled":false,"rental_uris":{"android":"levelo://app?vid=5288538e-f833-4a8b-a88b-c8311da78c00","ios":"levelo://app?vid=5288538e-f833-4a8b-a88b-c8311da78c00"},"vehicle_type_id":"4","last_reported":1715432806,"current_range_meters":0,"station_id":"ce4bh292rcd13ifvqdf0","pricing_plan_id":"cebpf4jnsgd1na2vs0mg"},{"bike_id":"72dde673-23b0-4d9b-b2d4-b18f793b52e5","system_id":"levelo_inurba_marseille","lat":43.295194,"lon":5.39397,"is_reserved":false,"is_disabled":false,"rental_uris":{"android":"levelo://app?vid=72dde673-23b0-4d9b-b2d4-b18f793b52e5","ios":"levelo://app?vid=72dde673-23b0-4d9b-b2d4-b18f793b52e5"},"vehicle_type_id":"4","last_reported":1715432806,"current_range_meters":18400,"station_id":"ce4bh292rcd13ifvqdf0","pricing_plan_id":"cebpf4jnsgd1na2vs0mg"},{"bike_id":"8801b577-305d-4aac-aa38-e5dc8bb73918","system_id":"levelo_inurba_marseille","lat":43.289307,"lon":5.38406,"is_reserved":false,"is_disabled":false,"rental_uris":{"android":"levelo://app?vid=8801b577-305d-4aac-aa38-e5dc8bb73918","ios":"levelo://app?vid=8801b577-305d-4aac-aa38-e5dc8bb73918"},"vehicle_type_id":"4","last_reported":1715432806,"current_range_meters":22000,"station_id":"ce4bh612rcd13ifvqe6g","pricing_plan_id":"cebpf4jnsgd1na2vs0mg"},{"bike_id":"82b3178d-f644-43dd-b7ef-602ff95a19dd","system_id":"levelo_inurba_marseille","lat":43.290336,"lon":5.386425,"is_reserved":false,"is_disabled":false,"rental_uris":{"android":"levelo://app?vid=82b3178d-f644-43dd-b7ef-602ff95a19dd","ios":"levelo://app?vid=82b3178d-f644-43dd-b7ef-602ff95a19dd"},"vehicle_type_id":"4","last_reported":1715432806,"current_range_meters":5200,"station_id":"ce4bh4p2rcd13ifvqe0g","pricing_plan_id":"cebpf4jnsgd1na2vs0mg"},{"bike_id":"6a4e92b3-24bd-4be8-8e35-14fd5ff9b2db","system_id":"levelo_inurba_marseille","lat":43.29029,"lon":5.38652,"is_reserved":false,"is_disabled":false,"rental_uris":{"android":"levelo://app?vid=6a4e92b3-24bd-4be8-8e35-14fd5ff9b2db","ios":"levelo://app?vid=6a4e92b3-24bd-4be8-8e35-14fd5ff9b2db"},"vehicle_type_id":"4","last_reported":1715432806,"current_range_meters":0,"station_id":"ce4bh4p2rcd13ifvqe0g","pricing_plan_id":"cebpf4jnsgd1na2vs0mg"},{"bike_id":"66fe358f-f139-48a9-90b8-ba738bb553ad","system_id":"levelo_inurba_marseille","lat":43.286039,"lon":5.370681,"is_reserved":false,"is_disabled":false,"rental_uris":{"android":"levelo://app?vid=66fe358f-f139-48a9-90b8-ba738bb553ad","ios":"levelo://app?vid=66fe358f-f139-48a9-90b8-ba738bb553ad"},"vehicle_type_id":"4","last_reported":1715432806,"current_range_meters":0,"station_id":"ce4bht12rcd13ifvqi60","pricing_plan_id":"cebpf4jnsgd1na2vs0mg"},{"bike_id":"1819efad-ceab-4811-8886-a11f5cde4245","system_id":"levelo_inurba_marseille","lat":43.316828,"lon":5.404723,"is_reserved":false,"is_disabled":false,"rental_uris":{"android":"levelo://app?vid=1819efad-ceab-4811-8886-a11f5cde4245","ios":"levelo://app?vid=1819efad-ceab-4811-8886-a11f5cde4245"},"vehicle_type_id":"4","last_reported":1715432806,"current_range_meters":24400,"station_id":"ce4bh012rcd13ifvqd00","pricing_plan_id":"cebpf4jnsgd1na2vs0mg"},{"bike_id":"38b7dbcd-12b9-4b02-8178-db6a98eee0b3","system_id":"levelo_inurba_marseille","lat":43.291994,"lon":5.392907,"is_reserved":false,"is_disabled":false,"rental_uris":{"android":"levelo://app?vid=38b7dbcd-12b9-4b02-8178-db6a98eee0b3","ios":"levelo://app?vid=38b7dbcd-12b9-4b02-8178-db6a98eee0b3"},"vehicle_type_id":"4","last_reported":1715432806,"current_range_meters":2400,"station_id":"ce4bh192rcd13ifvqdd0","pricing_plan_id":"cebpf4jnsgd1na2vs0mg"},{"bike_id":"c4a0962f-666d-41d9-b9dc-b17ca584f251","system_id":"levelo_inurba_marseille","lat":43.316828,"lon":5.404723,"is_reserved":false,"is_disabled":false,"rental_uris":{"android":"levelo://app?vid=c4a0962f-666d-41d9-b9dc-b17ca584f251","ios":"levelo://app?vid=c4a0962f-666d-41d9-b9dc-b17ca584f251"},"vehicle_type_id":"4","last_reported":1715432806,"current_range_meters":31200,"station_id":"ce4bh012rcd13ifvqd00","pricing_plan_id":"cebpf4jnsgd1na2vs0mg"},{"bike_id":"0dfd41d6-a837-496b-b4f4-b521520d1820","system_id":"levelo_inurba_marseille","lat":43.316828,"lon":5.404723,"is_reserved":false,"is_disabled":false,"rental_uris":{"android":"levelo://app?vid=0dfd41d6-a837-496b-b4f4-b521520d1820","ios":"levelo://app?vid=0dfd41d6-a837-496b-b4f4-b521520d1820"},"vehicle_type_id":"4","last_reported":1715432806,"current_range_meters":6400,"station_id":"ce4bh012rcd13ifvqd00","pricing_plan_id":"cebpf4jnsgd1na2vs0mg"},{"bike_id":"e58a377c-867e-425d-bb45-61d12cea9b90","system_id":"levelo_inurba_marseille","lat":43.31698,"lon":5.40467,"is_reserved":false,"is_disabled":false,"rental_uris":{"android":"levelo://app?vid=e58a377c-867e-425d-bb45-61d12cea9b90","ios":"levelo://app?vid=e58a377c-867e-425d-bb45-61d12cea9b90"},"vehicle_type_id":"4","last_reported":1715432806,"current_range_meters":28000,"station_id":"ce4bh012rcd13ifvqd00","pricing_plan_id":"cebpf4jnsgd1na2vs0mg"},{"bike_id":"31de7288-2592-42f4-8775-5fa18700ef86","system_id":"levelo_inurba_marseille","lat":43.316828,"lon":5.404723,"is_reserved":false,"is_disabled":false,"rental_uris":{"android":"levelo://app?vid=31de7288-2592-42f4-8775-5fa18700ef86","ios":"levelo://app?vid=31de7288-2592-42f4-8775-5fa18700ef86"},"vehicle_type_id":"4","last_reported":1715432806,"current_range_meters":24400,"station_id":"ce4bh012rcd13ifvqd00","pricing_plan_id":"cebpf4jnsgd1na2vs0mg"},{"bike_id":"e2fbc23a-b026-4b13-8e4c-f4c2321a9748","system_id":"levelo_inurba_marseille","lat":43.316821,"lon":5.404737,"is_reserved":false,"is_disabled":false,"rental_uris":{"android":"levelo://app?vid=e2fbc23a-b026-4b13-8e4c-f4c2321a9748","ios":"levelo://app?vid=e2fbc23a-b026-4b13-8e4c-f4c2321a9748"},"vehicle_type_id":"4","last_reported":1715432806,"current_range_meters":28000,"station_id":"ce4bh012rcd13ifvqd00","pricing_plan_id":"cebpf4jnsgd1na2vs0mg"},{"bike_id":"c9f5e511-b04e-4ce8-9a3a-a5ad8ccb8537","system_id":"levelo_inurba_marseille","lat":43.316821,"lon":5.404737,"is_reserved":false,"is_disabled":false,"rental_uris":{"android":"levelo://app?vid=c9f5e511-b04e-4ce8-9a3a-a5ad8ccb8537","ios":"levelo://app?vid=c9f5e511-b04e-4ce8-9a3a-a5ad8ccb8537"},"vehicle_type_id":"4","last_reported":1715432806,"current_range_meters":27200,"station_id":"ce4bh012rcd13ifvqd00","pricing_plan_id":"cebpf4jnsgd1na2vs0mg"},{"bike_id":"0a731774-1e63-4289-8914-d60872f00aa6","system_id":"levelo_inurba_marseille","lat":43.316821,"lon":5.404737,"is_reserved":false,"is_disabled":false,"rental_uris":{"android":"levelo://app?vid=0a731774-1e63-4289-8914-d60872f00aa6","ios":"levelo://app?vid=0a731774-1e63-4289-8914-d60872f00aa6"},"vehicle_type_id":"4","last_reported":1715432806,"current_range_meters":24000,"station_id":"ce4bh012rcd13ifvqd00","pricing_plan_id":"cebpf4jnsgd1na2vs0mg"},{"bike_id":"8be3e0be-8f75-49b9-854a-622f793d3e84","system_id":"levelo_inurba_marseille","lat":43.291994,"lon":5.392907,"is_reserved":false,"is_disabled":false,"rental_uris":{"android":"levelo://app?vid=8be3e0be-8f75-49b9-854a-622f793d3e84","ios":"levelo://app?vid=8be3e0be-8f75-49b9-854a-622f793d3e84"},"vehicle_type_id":"4","last_reported":1715432806,"current_range_meters":25600,"station_id":"ce4bh192rcd13ifvqdd0","pricing_plan_id":"cebpf4jnsgd1na2vs0mg"},{"bike_id":"65c4f9a0-6560-42cf-87d1-ed1ba36a9a34","system_id":"levelo_inurba_marseille","lat":43.291994,"lon":5.392907,"is_reserved":false,"is_disabled":false,"rental_uris":{"android":"levelo://app?vid=65c4f9a0-6560-42cf-87d1-ed1ba36a9a34","ios":"levelo://app?vid=65c4f9a0-6560-42cf-87d1-ed1ba36a9a34"},"vehicle_type_id":"4","last_reported":1715432806,"current_range_meters":10000,"station_id":"ce4bh192rcd13ifvqdd0","pricing_plan_id":"cebpf4jnsgd1na2vs0mg"},{"bike_id":"599d0b00-f11e-4a88-b0fa-14f890037b40","system_id":"levelo_inurba_marseille","lat":43.291994,"lon":5.392907,"is_reserved":false,"is_disabled":false,"rental_uris":{"android":"levelo://app?vid=599d0b00-f11e-4a88-b0fa-14f890037b40","ios":"levelo://app?vid=599d0b00-f11e-4a88-b0fa-14f890037b40"},"vehicle_type_id":"4","last_reported":1715432806,"current_range_meters":24400,"station_id":"ce4bh192rcd13ifvqdd0","pricing_plan_id":"cebpf4jnsgd1na2vs0mg"},{"bike_id":"b61d9f76-4592-4193-8acf-5b6a6168664a","system_id":"levelo_inurba_marseille","lat":43.291994,"lon":5.392907,"is_reserved":false,"is_disabled":false,"rental_uris":{"android":"levelo://app?vid=b61d9f76-4592-4193-8acf-5b6a6168664a","ios":"levelo://app?vid=b61d9f76-4592-4193-8acf-5b6a6168664a"},"vehicle_type_id":"4","last_reported":1715432806,"current_range_meters":19200,"station_id":"ce4bh192rcd13ifvqdd0","pricing_plan_id":"cebpf4jnsgd1na2vs0mg"},{"bike_id":"946d8a84-67c5-4aa0-a0ce-a6b2bb0f217a","system_id":"levelo_inurba_marseille","lat":43.291994,"lon":5.392907,"is_reserved":false,"is_disabled":false,"rental_uris":{"android":"levelo://app?vid=946d8a84-67c5-4aa0-a0ce-a6b2bb0f217a","ios":"levelo://app?vid=946d8a84-67c5-4aa0-a0ce-a6b2bb0f217a"},"vehicle_type_id":"4","last_reported":1715432806,"current_range_meters":12400,"station_id":"ce4bh192rcd13ifvqdd0","pricing_plan_id":"cebpf4jnsgd1na2vs0mg"},{"bike_id":"e8b78034-6adc-4517-a663-6bd2bffe4cb3","system_id":"levelo_inurba_marseille","lat":43.28646,"lon":5.3514,"is_reserved":false,"is_disabled":false,"rental_uris":{"android":"levelo://app?vid=e8b78034-6adc-4517-a663-6bd2bffe4cb3","ios":"levelo://app?vid=e8b78034-6adc-4517-a663-6bd2bffe4cb3"},"vehicle_type_id":"4","last_reported":1715432806,"current_range_meters":4400,"station_id":"ce4bhbh2rcd13ifvqepg","pricing_plan_id":"cebpf4jnsgd1na2vs0mg"},{"bike_id":"131d2f92-340d-4422-a6fd-b41a804e3163","system_id":"levelo_inurba_marseille","lat":43.284538,"lon":5.358657,"is_reserved":false,"is_disabled":false,"rental_uris":{"android":"levelo://app?vid=131d2f92-340d-4422-a6fd-b41a804e3163","ios":"levelo://app?vid=131d2f92-340d-4422-a6fd-b41a804e3163"},"vehicle_type_id":"4","last_reported":1715432806,"current_range_meters":25600,"station_id":"ce4bhah2rcd13ifvqei0","pricing_plan_id":"cebpf4jnsgd1na2vs0mg"},{"bike_id":"27ecfec0-cb4c-4215-9a24-38a40f45e0c0","system_id":"levelo_inurba_marseille","lat":43.2847,"lon":5.35895,"is_reserved":false,"is_disabled":false,"rental_uris":{"android":"levelo://app?vid=27ecfec0-cb4c-4215-9a24-38a40f45e0c0","ios":"levelo://app?vid=27ecfec0-cb4c-4215-9a24-38a40f45e0c0"},"vehicle_type_id":"4","last_reported":1715432806,"current_range_meters":18400,"station_id":"","pricing_plan_id":"cebpf4jnsgd1na2vs0mg"},{"bike_id":"0591a47f-32ff-4e56-8d2b-3c34c4cf148f","system_id":"levelo_inurba_marseille","lat":43.284534,"lon":5.358662,"is_reserved":false,"is_disabled":false,"rental_uris":{"android":"levelo://app?vid=0591a47f-32ff-4e56-8d2b-3c34c4cf148f","ios":"levelo://app?vid=0591a47f-32ff-4e56-8d2b-3c34c4cf148f"},"vehicle_type_id":"4","last_reported":1715432806,"current_range_meters":17600,"station_id":"ce4bhah2rcd13ifvqei0","pricing_plan_id":"cebpf4jnsgd1na2vs0mg"},{"bike_id":"9c1e8c64-dd09-4c26-ae3a-3378b446ed12","system_id":"levelo_inurba_marseille","lat":43.284538,"lon":5.358657,"is_reserved":false,"is_disabled":false,"rental_uris":{"android":"levelo://app?vid=9c1e8c64-dd09-4c26-ae3a-3378b446ed12","ios":"levelo://app?vid=9c1e8c64-dd09-4c26-ae3a-3378b446ed12"},"vehicle_type_id":"4","last_reported":1715432806,"current_range_meters":8400,"station_id":"ce4bhah2rcd13ifvqei0","pricing_plan_id":"cebpf4jnsgd1na2vs0mg"},{"bike_id":"59ab49a6-dce2-4132-836c-901aa7dfeb78","system_id":"levelo_inurba_marseille","lat":43.284538,"lon":5.358657,"is_reserved":false,"is_disabled":false,"rental_uris":{"android":"levelo://app?vid=59ab49a6-dce2-4132-836c-901aa7dfeb78","ios":"levelo://app?vid=59ab49a6-dce2-4132-836c-901aa7dfeb78"},"vehicle_type_id":"4","last_reported":1715432806,"current_range_meters":23600,"station_id":"ce4bhah2rcd13ifvqei0","pricing_plan_id":"cebpf4jnsgd1na2vs0mg"},{"bike_id":"1a081abe-c256-4e9c-aac3-70bd4995c1cd","system_id":"levelo_inurba_marseille","lat":43.284534,"lon":5.358662,"is_reserved":false,"is_disabled":false,"rental_uris":{"android":"levelo://app?vid=1a081abe-c256-4e9c-aac3-70bd4995c1cd","ios":"levelo://app?vid=1a081abe-c256-4e9c-aac3-70bd4995c1cd"},"vehicle_type_id":"4","last_reported":1715432806,"current_range_meters":12000,"station_id":"ce4bhah2rcd13ifvqei0","pricing_plan_id":"cebpf4jnsgd1na2vs0mg"},{"bike_id":"c6206fd8-39b2-43d0-b010-dac108c6f511","system_id":"levelo_inurba_marseille","lat":43.284534,"lon":5.358662,"is_reserved":false,"is_disabled":false,"rental_uris":{"android":"levelo://app?vid=c6206fd8-39b2-43d0-b010-dac108c6f511","ios":"levelo://app?vid=c6206fd8-39b2-43d0-b010-dac108c6f511"},"vehicle_type_id":"4","last_reported":1715432806,"current_range_meters":12400,"station_id":"ce4bhah2rcd13ifvqei0","pricing_plan_id":"cebpf4jnsgd1na2vs0mg"},{"bike_id":"2a3c4f74-6d29-4428-852e-82ed41d8ce21","system_id":"levelo_inurba_marseille","lat":43.284538,"lon":5.358657,"is_reserved":false,"is_disabled":false,"rental_uris":{"android":"levelo://app?vid=2a3c4f74-6d29-4428-852e-82ed41d8ce21","ios":"levelo://app?vid=2a3c4f74-6d29-4428-852e-82ed41d8ce21"},"vehicle_type_id":"4","last_reported":1715432806,"current_range_meters":24000,"station_id":"ce4bhah2rcd13ifvqei0","pricing_plan_id":"cebpf4jnsgd1na2vs0mg"},{"bike_id":"eb76b5f7-c58b-4567-943a-387dffb69201","system_id":"levelo_inurba_marseille","lat":43.284534,"lon":5.358662,"is_reserved":false,"is_disabled":false,"rental_uris":{"android":"levelo://app?vid=eb76b5f7-c58b-4567-943a-387dffb69201","ios":"levelo://app?vid=eb76b5f7-c58b-4567-943a-387dffb69201"},"vehicle_type_id":"4","last_reported":1715432806,"current_range_meters":4400,"station_id":"ce4bhah2rcd13ifvqei0","pricing_plan_id":"cebpf4jnsgd1na2vs0mg"},{"bike_id":"83ff4100-35da-4a9d-8aa7-b17c60ef0e5c","system_id":"levelo_inurba_marseille","lat":43.284534,"lon":5.358662,"is_reserved":false,"is_disabled":false,"rental_uris":{"android":"levelo://app?vid=83ff4100-35da-4a9d-8aa7-b17c60ef0e5c","ios":"levelo://app?vid=83ff4100-35da-4a9d-8aa7-b17c60ef0e5c"},"vehicle_type_id":"4","last_reported":1715432806,"current_range_meters":24400,"station_id":"ce4bhah2rcd13ifvqei0","pricing_plan_id":"cebpf4jnsgd1na2vs0mg"},{"bike_id":"407ce749-2a5d-4f9e-9ff3-5a394deca8f9","system_id":"levelo_inurba_marseille","lat":43.284534,"lon":5.358662,"is_reserved":false,"is_disabled":false,"rental_uris":{"android":"levelo://app?vid=407ce749-2a5d-4f9e-9ff3-5a394deca8f9","ios":"levelo://app?vid=407ce749-2a5d-4f9e-9ff3-5a394deca8f9"},"vehicle_type_id":"4","last_reported":1715432806,"current_range_meters":4000,"station_id":"ce4bhah2rcd13ifvqei0","pricing_plan_id":"cebpf4jnsgd1na2vs0mg"},{"bike_id":"4b32f47d-4ae6-4b4e-9e64-d5c97bd1ad56","system_id":"levelo_inurba_marseille","lat":43.284538,"lon":5.358657,"is_reserved":false,"is_disabled":false,"rental_uris":{"android":"levelo://app?vid=4b32f47d-4ae6-4b4e-9e64-d5c97bd1ad56","ios":"levelo://app?vid=4b32f47d-4ae6-4b4e-9e64-d5c97bd1ad56"},"vehicle_type_id":"4","last_reported":1715432806,"current_range_meters":17600,"station_id":"ce4bhah2rcd13ifvqei0","pricing_plan_id":"cebpf4jnsgd1na2vs0mg"},{"bike_id":"45d7c277-8ad8-47ea-8894-3352e95f9907","system_id":"levelo_inurba_marseille","lat":43.284534,"lon":5.358662,"is_reserved":false,"is_disabled":false,"rental_uris":{"android":"levelo://app?vid=45d7c277-8ad8-47ea-8894-3352e95f9907","ios":"levelo://app?vid=45d7c277-8ad8-47ea-8894-3352e95f9907"},"vehicle_type_id":"4","last_reported":1715432806,"current_range_meters":8400,"station_id":"ce4bhah2rcd13ifvqei0","pricing_plan_id":"cebpf4jnsgd1na2vs0mg"},{"bike_id":"691fca45-d108-4942-9b41-58338ba21933","system_id":"levelo_inurba_marseille","lat":43.284534,"lon":5.358662,"is_reserved":false,"is_disabled":false,"rental_uris":{"android":"levelo://app?vid=691fca45-d108-4942-9b41-58338ba21933","ios":"levelo://app?vid=691fca45-d108-4942-9b41-58338ba21933"},"vehicle_type_id":"4","last_reported":1715432806,"current_range_meters":5600,"station_id":"ce4bhah2rcd13ifvqei0","pricing_plan_id":"cebpf4jnsgd1na2vs0mg"},{"bike_id":"201ff7dc-79f7-498d-8338-a77100f2fe9d","system_id":"levelo_inurba_marseille","lat":43.294314,"lon":5.397498,"is_reserved":false,"is_disabled":false,"rental_uris":{"android":"levelo://app?vid=201ff7dc-79f7-498d-8338-a77100f2fe9d","ios":"levelo://app?vid=201ff7dc-79f7-498d-8338-a77100f2fe9d"},"vehicle_type_id":"4","last_reported":1715432806,"current_range_meters":4000,"station_id":"ce4bh3h2rcd13ifvqdo0","pricing_plan_id":"cebpf4jnsgd1na2vs0mg"},{"bike_id":"a253dfaa-808d-4704-a8b7-777e1597ad17","system_id":"levelo_inurba_marseille","lat":43.28621,"lon":5.35098,"is_reserved":false,"is_disabled":false,"rental_uris":{"android":"levelo://app?vid=a253dfaa-808d-4704-a8b7-777e1597ad17","ios":"levelo://app?vid=a253dfaa-808d-4704-a8b7-777e1597ad17"},"vehicle_type_id":"4","last_reported":1715432806,"current_range_meters":17600,"station_id":"ce4bhch2rcd13ifvqeug","pricing_plan_id":"cebpf4jnsgd1na2vs0mg"},{"bike_id":"2bc0bfc4-1108-4a00-af43-9c61e719f26b","system_id":"levelo_inurba_marseille","lat":43.28619,"lon":5.350993,"is_reserved":false,"is_disabled":false,"rental_uris":{"android":"levelo://app?vid=2bc0bfc4-1108-4a00-af43-9c61e719f26b","ios":"levelo://app?vid=2bc0bfc4-1108-4a00-af43-9c61e719f26b"},"vehicle_type_id":"4","last_reported":1715432806,"current_range_meters":23200,"station_id":"ce4bhch2rcd13ifvqeug","pricing_plan_id":"cebpf4jnsgd1na2vs0mg"},{"bike_id":"d5664e63-cd35-43e5-895a-06ed0d2292af","system_id":"levelo_inurba_marseille","lat":43.285856,"lon":5.350771,"is_reserved":false,"is_disabled":false,"rental_uris":{"android":"levelo://app?vid=d5664e63-cd35-43e5-895a-06ed0d2292af","ios":"levelo://app?vid=d5664e63-cd35-43e5-895a-06ed0d2292af"},"vehicle_type_id":"4","last_reported":1715432806,"current_range_meters":27600,"station_id":"ce4bhch2rcd13ifvqeug","pricing_plan_id":"cebpf4jnsgd1na2vs0mg"},{"bike_id":"ce9f4a3d-98c7-4f24-89e2-cd87e039f778","system_id":"levelo_inurba_marseille","lat":43.285848,"lon":5.350787,"is_reserved":false,"is_disabled":false,"rental_uris":{"android":"levelo://app?vid=ce9f4a3d-98c7-4f24-89e2-cd87e039f778","ios":"levelo://app?vid=ce9f4a3d-98c7-4f24-89e2-cd87e039f778"},"vehicle_type_id":"4","last_reported":1715432806,"current_range_meters":400,"station_id":"ce4bhch2rcd13ifvqeug","pricing_plan_id":"cebpf4jnsgd1na2vs0mg"},{"bike_id":"7424d2fd-60e4-47f0-939d-d1da71a93641","system_id":"levelo_inurba_marseille","lat":43.28616,"lon":5.35108,"is_reserved":false,"is_disabled":false,"rental_uris":{"android":"levelo://app?vid=7424d2fd-60e4-47f0-939d-d1da71a93641","ios":"levelo://app?vid=7424d2fd-60e4-47f0-939d-d1da71a93641"},"vehicle_type_id":"4","last_reported":1715432806,"current_range_meters":400,"station_id":"ce4bhch2rcd13ifvqeug","pricing_plan_id":"cebpf4jnsgd1na2vs0mg"},{"bike_id":"b2890021-1b9c-471a-8e46-a1e8629ad3f1","system_id":"levelo_inurba_marseille","lat":43.285856,"lon":5.350771,"is_reserved":false,"is_disabled":false,"rental_uris":{"android":"levelo://app?vid=b2890021-1b9c-471a-8e46-a1e8629ad3f1","ios":"levelo://app?vid=b2890021-1b9c-471a-8e46-a1e8629ad3f1"},"vehicle_type_id":"4","last_reported":1715432806,"current_range_meters":13200,"station_id":"ce4bhch2rcd13ifvqeug","pricing_plan_id":"cebpf4jnsgd1na2vs0mg"},{"bike_id":"3fbfc888-65ac-4d39-935f-1cf28f4b54f7","system_id":"levelo_inurba_marseille","lat":43.28615,"lon":5.35108,"is_reserved":false,"is_disabled":false,"rental_uris":{"android":"levelo://app?vid=3fbfc888-65ac-4d39-935f-1cf28f4b54f7","ios":"levelo://app?vid=3fbfc888-65ac-4d39-935f-1cf28f4b54f7"},"vehicle_type_id":"4","last_reported":1715432806,"current_range_meters":800,"station_id":"ce4bhch2rcd13ifvqeug","pricing_plan_id":"cebpf4jnsgd1na2vs0mg"},{"bike_id":"83bb2755-7750-43a7-8726-e6ed5b30713d","system_id":"levelo_inurba_marseille","lat":43.285856,"lon":5.350771,"is_reserved":false,"is_disabled":false,"rental_uris":{"android":"levelo://app?vid=83bb2755-7750-43a7-8726-e6ed5b30713d","ios":"levelo://app?vid=83bb2755-7750-43a7-8726-e6ed5b30713d"},"vehicle_type_id":"4","last_reported":1715432806,"current_range_meters":24800,"station_id":"ce4bhch2rcd13ifvqeug","pricing_plan_id":"cebpf4jnsgd1na2vs0mg"},{"bike_id":"9a828f98-e14d-4a9e-b335-723b0c05849b","system_id":"levelo_inurba_marseille","lat":43.28615,"lon":5.35107,"is_reserved":false,"is_disabled":false,"rental_uris":{"android":"levelo://app?vid=9a828f98-e14d-4a9e-b335-723b0c05849b","ios":"levelo://app?vid=9a828f98-e14d-4a9e-b335-723b0c05849b"},"vehicle_type_id":"4","last_reported":1715432806,"current_range_meters":21600,"station_id":"ce4bhch2rcd13ifvqeug","pricing_plan_id":"cebpf4jnsgd1na2vs0mg"},{"bike_id":"a5f83020-3c4c-4de8-9bdd-f65a0a4a599c","system_id":"levelo_inurba_marseille","lat":43.28614,"lon":5.3511,"is_reserved":false,"is_disabled":false,"rental_uris":{"android":"levelo://app?vid=a5f83020-3c4c-4de8-9bdd-f65a0a4a599c","ios":"levelo://app?vid=a5f83020-3c4c-4de8-9bdd-f65a0a4a599c"},"vehicle_type_id":"4","last_reported":1715432806,"current_range_meters":0,"station_id":"ce4bhch2rcd13ifvqeug","pricing_plan_id":"cebpf4jnsgd1na2vs0mg"},{"bike_id":"1ef38b39-9c14-41c6-9f83-157959a3c745","system_id":"levelo_inurba_marseille","lat":43.285856,"lon":5.350771,"is_reserved":false,"is_disabled":false,"rental_uris":{"android":"levelo://app?vid=1ef38b39-9c14-41c6-9f83-157959a3c745","ios":"levelo://app?vid=1ef38b39-9c14-41c6-9f83-157959a3c745"},"vehicle_type_id":"4","last_reported":1715432806,"current_range_meters":24800,"station_id":"ce4bhch2rcd13ifvqeug","pricing_plan_id":"cebpf4jnsgd1na2vs0mg"},{"bike_id":"6bb161de-bc1d-4185-b962-96a931dc389a","system_id":"levelo_inurba_marseille","lat":43.285856,"lon":5.350771,"is_reserved":false,"is_disabled":false,"rental_uris":{"android":"levelo://app?vid=6bb161de-bc1d-4185-b962-96a931dc389a","ios":"levelo://app?vid=6bb161de-bc1d-4185-b962-96a931dc389a"},"vehicle_type_id":"4","last_reported":1715432806,"current_range_meters":0,"station_id":"ce4bhch2rcd13ifvqeug","pricing_plan_id":"cebpf4jnsgd1na2vs0mg"},{"bike_id":"6aa937e8-8e99-4c32-97fb-3392e300783f","system_id":"levelo_inurba_marseille","lat":43.285856,"lon":5.350771,"is_reserved":false,"is_disabled":false,"rental_uris":{"android":"levelo://app?vid=6aa937e8-8e99-4c32-97fb-3392e300783f","ios":"levelo://app?vid=6aa937e8-8e99-4c32-97fb-3392e300783f"},"vehicle_type_id":"4","last_reported":1715432806,"current_range_meters":0,"station_id":"ce4bhch2rcd13ifvqeug","pricing_plan_id":"cebpf4jnsgd1na2vs0mg"},{"bike_id":"c8d16972-b334-40d8-bb39-c07ba87f7fda","system_id":"levelo_inurba_marseille","lat":43.28615,"lon":5.35102,"is_reserved":false,"is_disabled":false,"rental_uris":{"android":"levelo://app?vid=c8d16972-b334-40d8-bb39-c07ba87f7fda","ios":"levelo://app?vid=c8d16972-b334-40d8-bb39-c07ba87f7fda"},"vehicle_type_id":"4","last_reported":1715432806,"current_range_meters":9200,"station_id":"ce4bhch2rcd13ifvqeug","pricing_plan_id":"cebpf4jnsgd1na2vs0mg"},{"bike_id":"d358bf3e-ddc9-40c5-9f5e-1df80ab12ccb","system_id":"levelo_inurba_marseille","lat":43.285856,"lon":5.350771,"is_reserved":false,"is_disabled":false,"rental_uris":{"android":"levelo://app?vid=d358bf3e-ddc9-40c5-9f5e-1df80ab12ccb","ios":"levelo://app?vid=d358bf3e-ddc9-40c5-9f5e-1df80ab12ccb"},"vehicle_type_id":"4","last_reported":1715432806,"current_range_meters":26800,"station_id":"ce4bhch2rcd13ifvqeug","pricing_plan_id":"cebpf4jnsgd1na2vs0mg"},{"bike_id":"8dcab73f-4c44-48a3-93e7-02890bbd7aea","system_id":"levelo_inurba_marseille","lat":43.28614,"lon":5.35102,"is_reserved":false,"is_disabled":false,"rental_uris":{"android":"levelo://app?vid=8dcab73f-4c44-48a3-93e7-02890bbd7aea","ios":"levelo://app?vid=8dcab73f-4c44-48a3-93e7-02890bbd7aea"},"vehicle_type_id":"4","last_reported":1715432806,"current_range_meters":13600,"station_id":"ce4bhch2rcd13ifvqeug","pricing_plan_id":"cebpf4jnsgd1na2vs0mg"},{"bike_id":"afceb940-14be-4319-95a4-2a7d25a00781","system_id":"levelo_inurba_marseille","lat":43.285848,"lon":5.350787,"is_reserved":false,"is_disabled":false,"rental_uris":{"android":"levelo://app?vid=afceb940-14be-4319-95a4-2a7d25a00781","ios":"levelo://app?vid=afceb940-14be-4319-95a4-2a7d25a00781"},"vehicle_type_id":"4","last_reported":1715432806,"current_range_meters":18000,"station_id":"ce4bhch2rcd13ifvqeug","pricing_plan_id":"cebpf4jnsgd1na2vs0mg"},{"bike_id":"0f5afcc3-ce9c-4335-8566-2ecf1d5d4bc8","system_id":"levelo_inurba_marseille","lat":43.285856,"lon":5.350771,"is_reserved":false,"is_disabled":false,"rental_uris":{"android":"levelo://app?vid=0f5afcc3-ce9c-4335-8566-2ecf1d5d4bc8","ios":"levelo://app?vid=0f5afcc3-ce9c-4335-8566-2ecf1d5d4bc8"},"vehicle_type_id":"4","last_reported":1715432806,"current_range_meters":12000,"station_id":"ce4bhch2rcd13ifvqeug","pricing_plan_id":"cebpf4jnsgd1na2vs0mg"},{"bike_id":"3c42f81d-8ff7-40fa-872f-a68684188c0d","system_id":"levelo_inurba_marseille","lat":43.28402,"lon":5.37521,"is_reserved":false,"is_disabled":false,"rental_uris":{"android":"levelo://app?vid=3c42f81d-8ff7-40fa-872f-a68684188c0d","ios":"levelo://app?vid=3c42f81d-8ff7-40fa-872f-a68684188c0d"},"vehicle_type_id":"4","last_reported":1715432806,"current_range_meters":20000,"station_id":"ce4bhbp2rcd13ifvqerg","pricing_plan_id":"cebpf4jnsgd1na2vs0mg"},{"bike_id":"aaa815fd-6648-4b97-931d-9f91014d3063","system_id":"levelo_inurba_marseille","lat":43.295713,"lon":5.399639,"is_reserved":false,"is_disabled":false,"rental_uris":{"android":"levelo://app?vid=aaa815fd-6648-4b97-931d-9f91014d3063","ios":"levelo://app?vid=aaa815fd-6648-4b97-931d-9f91014d3063"},"vehicle_type_id":"4","last_reported":1715432806,"current_range_meters":17200,"station_id":"ce4bh312rcd13ifvqdj0","pricing_plan_id":"cebpf4jnsgd1na2vs0mg"},{"bike_id":"a5d7cda0-de84-455e-b37f-3a9452a8c52e","system_id":"levelo_inurba_marseille","lat":43.286595,"lon":5.386795,"is_reserved":false,"is_disabled":false,"rental_uris":{"android":"levelo://app?vid=a5d7cda0-de84-455e-b37f-3a9452a8c52e","ios":"levelo://app?vid=a5d7cda0-de84-455e-b37f-3a9452a8c52e"},"vehicle_type_id":"4","last_reported":1715432806,"current_range_meters":10400,"station_id":"ce4bh492rcd13ifvqdug","pricing_plan_id":"cebpf4jnsgd1na2vs0mg"},{"bike_id":"117a7e5b-e8f8-4302-bda8-1cc6eeff9cb7","system_id":"levelo_inurba_marseille","lat":43.319179,"lon":5.407725,"is_reserved":false,"is_disabled":false,"rental_uris":{"android":"levelo://app?vid=117a7e5b-e8f8-4302-bda8-1cc6eeff9cb7","ios":"levelo://app?vid=117a7e5b-e8f8-4302-bda8-1cc6eeff9cb7"},"vehicle_type_id":"4","last_reported":1715432806,"current_range_meters":30400,"station_id":"ce4bhq12rcd13ifvqhig","pricing_plan_id":"cebpf4jnsgd1na2vs0mg"},{"bike_id":"3abd7269-0153-4119-99eb-ae82a8e0cf45","system_id":"levelo_inurba_marseille","lat":43.323464,"lon":5.406297,"is_reserved":false,"is_disabled":false,"rental_uris":{"android":"levelo://app?vid=3abd7269-0153-4119-99eb-ae82a8e0cf45","ios":"levelo://app?vid=3abd7269-0153-4119-99eb-ae82a8e0cf45"},"vehicle_type_id":"4","last_reported":1715432806,"current_range_meters":6400,"station_id":"ce4bhq92rcd13ifvqhjg","pricing_plan_id":"cebpf4jnsgd1na2vs0mg"},{"bike_id":"d6f2c7f6-e243-4011-842f-24cf23bf84eb","system_id":"levelo_inurba_marseille","lat":43.284793,"lon":5.384113,"is_reserved":false,"is_disabled":false,"rental_uris":{"android":"levelo://app?vid=d6f2c7f6-e243-4011-842f-24cf23bf84eb","ios":"levelo://app?vid=d6f2c7f6-e243-4011-842f-24cf23bf84eb"},"vehicle_type_id":"4","last_reported":1715432806,"current_range_meters":23600,"station_id":"ce4bh512rcd13ifvqe3g","pricing_plan_id":"cebpf4jnsgd1na2vs0mg"},{"bike_id":"f7655c94-4c2b-424a-a526-c426fbcd0c68","system_id":"levelo_inurba_marseille","lat":43.29795,"lon":5.404086,"is_reserved":false,"is_disabled":false,"rental_uris":{"android":"levelo://app?vid=f7655c94-4c2b-424a-a526-c426fbcd0c68","ios":"levelo://app?vid=f7655c94-4c2b-424a-a526-c426fbcd0c68"},"vehicle_type_id":"4","last_reported":1715432806,"current_range_meters":22800,"station_id":"ce4bh112rcd13ifvqd90","pricing_plan_id":"cebpf4jnsgd1na2vs0mg"},{"bike_id":"bbda1752-dff9-421d-a33c-e846f5c99ffc","system_id":"levelo_inurba_marseille","lat":43.28851,"lon":5.393042,"is_reserved":false,"is_disabled":false,"rental_uris":{"android":"levelo://app?vid=bbda1752-dff9-421d-a33c-e846f5c99ffc","ios":"levelo://app?vid=bbda1752-dff9-421d-a33c-e846f5c99ffc"},"vehicle_type_id":"4","last_reported":1715432806,"current_range_meters":0,"station_id":"ce4bh2p2rcd13ifvqdi0","pricing_plan_id":"cebpf4jnsgd1na2vs0mg"},{"bike_id":"bf090e17-a344-47b4-8e97-cb9a5c86fb2c","system_id":"levelo_inurba_marseille","lat":43.32526,"lon":5.40568,"is_reserved":false,"is_disabled":false,"rental_uris":{"android":"levelo://app?vid=bf090e17-a344-47b4-8e97-cb9a5c86fb2c","ios":"levelo://app?vid=bf090e17-a344-47b4-8e97-cb9a5c86fb2c"},"vehicle_type_id":"4","last_reported":1715432806,"current_range_meters":24400,"station_id":"","pricing_plan_id":"cebpf4jnsgd1na2vs0mg"},{"bike_id":"d701c008-5bd5-44ba-a2cf-070a179d3585","system_id":"levelo_inurba_marseille","lat":43.32522,"lon":5.4058,"is_reserved":false,"is_disabled":false,"rental_uris":{"android":"levelo://app?vid=d701c008-5bd5-44ba-a2cf-070a179d3585","ios":"levelo://app?vid=d701c008-5bd5-44ba-a2cf-070a179d3585"},"vehicle_type_id":"4","last_reported":1715432806,"current_range_meters":2800,"station_id":"","pricing_plan_id":"cebpf4jnsgd1na2vs0mg"},{"bike_id":"85ea0e4c-93c3-4726-a612-9a1ff18a08db","system_id":"levelo_inurba_marseille","lat":43.283498,"lon":5.380948,"is_reserved":false,"is_disabled":false,"rental_uris":{"android":"levelo://app?vid=85ea0e4c-93c3-4726-a612-9a1ff18a08db","ios":"levelo://app?vid=85ea0e4c-93c3-4726-a612-9a1ff18a08db"},"vehicle_type_id":"4","last_reported":1715432806,"current_range_meters":10000,"station_id":"ce4bh412rcd13ifvqdr0","pricing_plan_id":"cebpf4jnsgd1na2vs0mg"},{"bike_id":"c37bbd43-a8f8-40bb-ac66-56c431cad1e4","system_id":"levelo_inurba_marseille","lat":43.32525,"lon":5.405796,"is_reserved":false,"is_disabled":false,"rental_uris":{"android":"levelo://app?vid=c37bbd43-a8f8-40bb-ac66-56c431cad1e4","ios":"levelo://app?vid=c37bbd43-a8f8-40bb-ac66-56c431cad1e4"},"vehicle_type_id":"4","last_reported":1715432806,"current_range_meters":20400,"station_id":"","pricing_plan_id":"cebpf4jnsgd1na2vs0mg"},{"bike_id":"b99014ba-26ce-47bd-96e2-e7761148cf6d","system_id":"levelo_inurba_marseille","lat":43.28422,"lon":5.34995,"is_reserved":false,"is_disabled":false,"rental_uris":{"android":"levelo://app?vid=b99014ba-26ce-47bd-96e2-e7761148cf6d","ios":"levelo://app?vid=b99014ba-26ce-47bd-96e2-e7761148cf6d"},"vehicle_type_id":"4","last_reported":1715432806,"current_range_meters":24800,"station_id":"ce4bhbh2rcd13ifvqepg","pricing_plan_id":"cebpf4jnsgd1na2vs0mg"},{"bike_id":"e251785f-f5c3-4c53-8775-a42949a1da18","system_id":"levelo_inurba_marseille","lat":43.2842,"lon":5.34994,"is_reserved":false,"is_disabled":false,"rental_uris":{"android":"levelo://app?vid=e251785f-f5c3-4c53-8775-a42949a1da18","ios":"levelo://app?vid=e251785f-f5c3-4c53-8775-a42949a1da18"},"vehicle_type_id":"4","last_reported":1715432806,"current_range_meters":30000,"station_id":"ce4bhbh2rcd13ifvqepg","pricing_plan_id":"cebpf4jnsgd1na2vs0mg"},{"bike_id":"c7089460-6801-4120-9b56-91add87e01b5","system_id":"levelo_inurba_marseille","lat":43.284237,"lon":5.349798,"is_reserved":false,"is_disabled":false,"rental_uris":{"android":"levelo://app?vid=c7089460-6801-4120-9b56-91add87e01b5","ios":"levelo://app?vid=c7089460-6801-4120-9b56-91add87e01b5"},"vehicle_type_id":"4","last_reported":1715432806,"current_range_meters":31200,"station_id":"ce4bhbh2rcd13ifvqepg","pricing_plan_id":"cebpf4jnsgd1na2vs0mg"},{"bike_id":"341353c1-1fc9-4bd9-b354-399db99c2a68","system_id":"levelo_inurba_marseille","lat":43.284231,"lon":5.349814,"is_reserved":false,"is_disabled":false,"rental_uris":{"android":"levelo://app?vid=341353c1-1fc9-4bd9-b354-399db99c2a68","ios":"levelo://app?vid=341353c1-1fc9-4bd9-b354-399db99c2a68"},"vehicle_type_id":"4","last_reported":1715432806,"current_range_meters":14800,"station_id":"ce4bhbh2rcd13ifvqepg","pricing_plan_id":"cebpf4jnsgd1na2vs0mg"},{"bike_id":"2c34f51f-7a53-4271-840c-e21d002b0221","system_id":"levelo_inurba_marseille","lat":43.2842,"lon":5.34991,"is_reserved":false,"is_disabled":false,"rental_uris":{"android":"levelo://app?vid=2c34f51f-7a53-4271-840c-e21d002b0221","ios":"levelo://app?vid=2c34f51f-7a53-4271-840c-e21d002b0221"},"vehicle_type_id":"4","last_reported":1715432806,"current_range_meters":27600,"station_id":"ce4bhbh2rcd13ifvqepg","pricing_plan_id":"cebpf4jnsgd1na2vs0mg"},{"bike_id":"75b65a21-64f1-4a96-9a39-aacaaab00978","system_id":"levelo_inurba_marseille","lat":43.28419,"lon":5.34993,"is_reserved":false,"is_disabled":false,"rental_uris":{"android":"levelo://app?vid=75b65a21-64f1-4a96-9a39-aacaaab00978","ios":"levelo://app?vid=75b65a21-64f1-4a96-9a39-aacaaab00978"},"vehicle_type_id":"4","last_reported":1715432806,"current_range_meters":2400,"station_id":"","pricing_plan_id":"cebpf4jnsgd1na2vs0mg"},{"bike_id":"41b43ad1-f618-4c46-8ac7-f9eda8f1ae65","system_id":"levelo_inurba_marseille","lat":43.28421,"lon":5.34983,"is_reserved":false,"is_disabled":false,"rental_uris":{"android":"levelo://app?vid=41b43ad1-f618-4c46-8ac7-f9eda8f1ae65","ios":"levelo://app?vid=41b43ad1-f618-4c46-8ac7-f9eda8f1ae65"},"vehicle_type_id":"4","last_reported":1715432806,"current_range_meters":23600,"station_id":"ce4bhbh2rcd13ifvqepg","pricing_plan_id":"cebpf4jnsgd1na2vs0mg"},{"bike_id":"465fb229-37db-441b-b945-16711e9c8cf8","system_id":"levelo_inurba_marseille","lat":43.325383,"lon":5.406025,"is_reserved":false,"is_disabled":false,"rental_uris":{"android":"levelo://app?vid=465fb229-37db-441b-b945-16711e9c8cf8","ios":"levelo://app?vid=465fb229-37db-441b-b945-16711e9c8cf8"},"vehicle_type_id":"4","last_reported":1715432806,"current_range_meters":23600,"station_id":"","pricing_plan_id":"cebpf4jnsgd1na2vs0mg"},{"bike_id":"0a136433-784a-4e2a-9921-d0365f30ea99","system_id":"levelo_inurba_marseille","lat":43.284188,"lon":5.349872,"is_reserved":false,"is_disabled":false,"rental_uris":{"android":"levelo://app?vid=0a136433-784a-4e2a-9921-d0365f30ea99","ios":"levelo://app?vid=0a136433-784a-4e2a-9921-d0365f30ea99"},"vehicle_type_id":"4","last_reported":1715432806,"current_range_meters":6400,"station_id":"ce4bhbh2rcd13ifvqepg","pricing_plan_id":"cebpf4jnsgd1na2vs0mg"},{"bike_id":"2284530e-40f3-4ad0-a218-eed7a1e64d3b","system_id":"levelo_inurba_marseille","lat":43.2842,"lon":5.34983,"is_reserved":false,"is_disabled":false,"rental_uris":{"android":"levelo://app?vid=2284530e-40f3-4ad0-a218-eed7a1e64d3b","ios":"levelo://app?vid=2284530e-40f3-4ad0-a218-eed7a1e64d3b"},"vehicle_type_id":"4","last_reported":1715432806,"current_range_meters":14400,"station_id":"ce4bhbh2rcd13ifvqepg","pricing_plan_id":"cebpf4jnsgd1na2vs0mg"},{"bike_id":"7bb7edde-ec63-46a2-abf9-54af1bf10dc4","system_id":"levelo_inurba_marseille","lat":43.284169,"lon":5.349918,"is_reserved":false,"is_disabled":false,"rental_uris":{"android":"levelo://app?vid=7bb7edde-ec63-46a2-abf9-54af1bf10dc4","ios":"levelo://app?vid=7bb7edde-ec63-46a2-abf9-54af1bf10dc4"},"vehicle_type_id":"4","last_reported":1715432806,"current_range_meters":21200,"station_id":"ce4bhbh2rcd13ifvqepg","pricing_plan_id":"cebpf4jnsgd1na2vs0mg"},{"bike_id":"7b67b7a7-43b0-4b6a-9e57-7dfc3df4dbef","system_id":"levelo_inurba_marseille","lat":43.28418,"lon":5.34988,"is_reserved":false,"is_disabled":false,"rental_uris":{"android":"levelo://app?vid=7b67b7a7-43b0-4b6a-9e57-7dfc3df4dbef","ios":"levelo://app?vid=7b67b7a7-43b0-4b6a-9e57-7dfc3df4dbef"},"vehicle_type_id":"4","last_reported":1715432806,"current_range_meters":6800,"station_id":"ce4bhbh2rcd13ifvqepg","pricing_plan_id":"cebpf4jnsgd1na2vs0mg"},{"bike_id":"2646737a-a40a-4b28-9444-627304373457","system_id":"levelo_inurba_marseille","lat":43.28417,"lon":5.34991,"is_reserved":false,"is_disabled":false,"rental_uris":{"android":"levelo://app?vid=2646737a-a40a-4b28-9444-627304373457","ios":"levelo://app?vid=2646737a-a40a-4b28-9444-627304373457"},"vehicle_type_id":"4","last_reported":1715432806,"current_range_meters":0,"station_id":"ce4bhbh2rcd13ifvqepg","pricing_plan_id":"cebpf4jnsgd1na2vs0mg"},{"bike_id":"f15e68d4-87b6-431e-8d43-38575b098d86","system_id":"levelo_inurba_marseille","lat":43.28421,"lon":5.34978,"is_reserved":false,"is_disabled":false,"rental_uris":{"android":"levelo://app?vid=f15e68d4-87b6-431e-8d43-38575b098d86","ios":"levelo://app?vid=f15e68d4-87b6-431e-8d43-38575b098d86"},"vehicle_type_id":"4","last_reported":1715432806,"current_range_meters":17200,"station_id":"ce4bhbh2rcd13ifvqepg","pricing_plan_id":"cebpf4jnsgd1na2vs0mg"},{"bike_id":"7a055989-6d6a-401f-a238-6000ccc581af","system_id":"levelo_inurba_marseille","lat":43.284175,"lon":5.349889,"is_reserved":false,"is_disabled":false,"rental_uris":{"android":"levelo://app?vid=7a055989-6d6a-401f-a238-6000ccc581af","ios":"levelo://app?vid=7a055989-6d6a-401f-a238-6000ccc581af"},"vehicle_type_id":"4","last_reported":1715432806,"current_range_meters":28000,"station_id":"ce4bhbh2rcd13ifvqepg","pricing_plan_id":"cebpf4jnsgd1na2vs0mg"},{"bike_id":"ce71b9cd-5d69-4913-ac4f-1ca6df5cedca","system_id":"levelo_inurba_marseille","lat":43.284164,"lon":5.349921,"is_reserved":false,"is_disabled":false,"rental_uris":{"android":"levelo://app?vid=ce71b9cd-5d69-4913-ac4f-1ca6df5cedca","ios":"levelo://app?vid=ce71b9cd-5d69-4913-ac4f-1ca6df5cedca"},"vehicle_type_id":"4","last_reported":1715432806,"current_range_meters":31200,"station_id":"ce4bhbh2rcd13ifvqepg","pricing_plan_id":"cebpf4jnsgd1na2vs0mg"},{"bike_id":"fa0aa8ff-7b8e-421a-bf1e-e19e52543cbe","system_id":"levelo_inurba_marseille","lat":43.28417,"lon":5.3499,"is_reserved":false,"is_disabled":false,"rental_uris":{"android":"levelo://app?vid=fa0aa8ff-7b8e-421a-bf1e-e19e52543cbe","ios":"levelo://app?vid=fa0aa8ff-7b8e-421a-bf1e-e19e52543cbe"},"vehicle_type_id":"4","last_reported":1715432806,"current_range_meters":20400,"station_id":"ce4bhbh2rcd13ifvqepg","pricing_plan_id":"cebpf4jnsgd1na2vs0mg"},{"bike_id":"aafeb596-4fbb-4a35-acb6-70aa4d3b1713","system_id":"levelo_inurba_marseille","lat":43.28417,"lon":5.34989,"is_reserved":false,"is_disabled":false,"rental_uris":{"android":"levelo://app?vid=aafeb596-4fbb-4a35-acb6-70aa4d3b1713","ios":"levelo://app?vid=aafeb596-4fbb-4a35-acb6-70aa4d3b1713"},"vehicle_type_id":"4","last_reported":1715432806,"current_range_meters":0,"station_id":"ce4bhbh2rcd13ifvqepg","pricing_plan_id":"cebpf4jnsgd1na2vs0mg"},{"bike_id":"883dd48a-88c6-47aa-8693-0ca061cb6122","system_id":"levelo_inurba_marseille","lat":43.28415,"lon":5.34995,"is_reserved":false,"is_disabled":false,"rental_uris":{"android":"levelo://app?vid=883dd48a-88c6-47aa-8693-0ca061cb6122","ios":"levelo://app?vid=883dd48a-88c6-47aa-8693-0ca061cb6122"},"vehicle_type_id":"4","last_reported":1715432806,"current_range_meters":10400,"station_id":"","pricing_plan_id":"cebpf4jnsgd1na2vs0mg"},{"bike_id":"4515da0e-7f2b-456d-b14b-d10877189dfa","system_id":"levelo_inurba_marseille","lat":43.28417,"lon":5.34987,"is_reserved":false,"is_disabled":false,"rental_uris":{"android":"levelo://app?vid=4515da0e-7f2b-456d-b14b-d10877189dfa","ios":"levelo://app?vid=4515da0e-7f2b-456d-b14b-d10877189dfa"},"vehicle_type_id":"4","last_reported":1715432806,"current_range_meters":26000,"station_id":"ce4bhbh2rcd13ifvqepg","pricing_plan_id":"cebpf4jnsgd1na2vs0mg"},{"bike_id":"baf15fd0-1745-4cf3-abde-b92e62d75193","system_id":"levelo_inurba_marseille","lat":43.28419,"lon":5.3498,"is_reserved":false,"is_disabled":false,"rental_uris":{"android":"levelo://app?vid=baf15fd0-1745-4cf3-abde-b92e62d75193","ios":"levelo://app?vid=baf15fd0-1745-4cf3-abde-b92e62d75193"},"vehicle_type_id":"4","last_reported":1715432806,"current_range_meters":23600,"station_id":"ce4bhbh2rcd13ifvqepg","pricing_plan_id":"cebpf4jnsgd1na2vs0mg"},{"bike_id":"9a46652c-b062-491d-a7c6-2db6bf462f12","system_id":"levelo_inurba_marseille","lat":43.284214,"lon":5.349706,"is_reserved":false,"is_disabled":false,"rental_uris":{"android":"levelo://app?vid=9a46652c-b062-491d-a7c6-2db6bf462f12","ios":"levelo://app?vid=9a46652c-b062-491d-a7c6-2db6bf462f12"},"vehicle_type_id":"4","last_reported":1715432806,"current_range_meters":30400,"station_id":"ce4bhbh2rcd13ifvqepg","pricing_plan_id":"cebpf4jnsgd1na2vs0mg"},{"bike_id":"da88dac4-8ea3-408e-8311-c8f79536f767","system_id":"levelo_inurba_marseille","lat":43.28416,"lon":5.34989,"is_reserved":false,"is_disabled":false,"rental_uris":{"android":"levelo://app?vid=da88dac4-8ea3-408e-8311-c8f79536f767","ios":"levelo://app?vid=da88dac4-8ea3-408e-8311-c8f79536f767"},"vehicle_type_id":"4","last_reported":1715432806,"current_range_meters":14000,"station_id":"ce4bhbh2rcd13ifvqepg","pricing_plan_id":"cebpf4jnsgd1na2vs0mg"},{"bike_id":"c940c6ec-e2ad-4a78-a14c-30b702e674ca","system_id":"levelo_inurba_marseille","lat":43.28419,"lon":5.34979,"is_reserved":false,"is_disabled":false,"rental_uris":{"android":"levelo://app?vid=c940c6ec-e2ad-4a78-a14c-30b702e674ca","ios":"levelo://app?vid=c940c6ec-e2ad-4a78-a14c-30b702e674ca"},"vehicle_type_id":"4","last_reported":1715432806,"current_range_meters":19600,"station_id":"ce4bhbh2rcd13ifvqepg","pricing_plan_id":"cebpf4jnsgd1na2vs0mg"},{"bike_id":"09bcaa1a-cbc7-4af4-bd71-5a609eb1b00b","system_id":"levelo_inurba_marseille","lat":43.284146,"lon":5.349914,"is_reserved":false,"is_disabled":false,"rental_uris":{"android":"levelo://app?vid=09bcaa1a-cbc7-4af4-bd71-5a609eb1b00b","ios":"levelo://app?vid=09bcaa1a-cbc7-4af4-bd71-5a609eb1b00b"},"vehicle_type_id":"4","last_reported":1715432806,"current_range_meters":2800,"station_id":"ce4bhbh2rcd13ifvqepg","pricing_plan_id":"cebpf4jnsgd1na2vs0mg"},{"bike_id":"da7e215d-ec72-4156-85b4-11eae1bdeac3","system_id":"levelo_inurba_marseille","lat":43.28416,"lon":5.34986,"is_reserved":false,"is_disabled":false,"rental_uris":{"android":"levelo://app?vid=da7e215d-ec72-4156-85b4-11eae1bdeac3","ios":"levelo://app?vid=da7e215d-ec72-4156-85b4-11eae1bdeac3"},"vehicle_type_id":"4","last_reported":1715432806,"current_range_meters":26000,"station_id":"ce4bhbh2rcd13ifvqepg","pricing_plan_id":"cebpf4jnsgd1na2vs0mg"},{"bike_id":"dc7f55a0-feb9-4b08-88f1-3f103417dcf2","system_id":"levelo_inurba_marseille","lat":43.28416,"lon":5.34986,"is_reserved":false,"is_disabled":false,"rental_uris":{"android":"levelo://app?vid=dc7f55a0-feb9-4b08-88f1-3f103417dcf2","ios":"levelo://app?vid=dc7f55a0-feb9-4b08-88f1-3f103417dcf2"},"vehicle_type_id":"4","last_reported":1715432806,"current_range_meters":22400,"station_id":"ce4bhbh2rcd13ifvqepg","pricing_plan_id":"cebpf4jnsgd1na2vs0mg"},{"bike_id":"5b379034-9c1f-490b-a030-27980cb2361c","system_id":"levelo_inurba_marseille","lat":43.28415,"lon":5.34988,"is_reserved":false,"is_disabled":false,"rental_uris":{"android":"levelo://app?vid=5b379034-9c1f-490b-a030-27980cb2361c","ios":"levelo://app?vid=5b379034-9c1f-490b-a030-27980cb2361c"},"vehicle_type_id":"4","last_reported":1715432806,"current_range_meters":15200,"station_id":"ce4bhbh2rcd13ifvqepg","pricing_plan_id":"cebpf4jnsgd1na2vs0mg"},{"bike_id":"1cdf6df5-c7bd-4fbc-b064-3af1b9e01823","system_id":"levelo_inurba_marseille","lat":43.28417,"lon":5.34978,"is_reserved":false,"is_disabled":false,"rental_uris":{"android":"levelo://app?vid=1cdf6df5-c7bd-4fbc-b064-3af1b9e01823","ios":"levelo://app?vid=1cdf6df5-c7bd-4fbc-b064-3af1b9e01823"},"vehicle_type_id":"4","last_reported":1715432806,"current_range_meters":10400,"station_id":"ce4bhbh2rcd13ifvqepg","pricing_plan_id":"cebpf4jnsgd1na2vs0mg"},{"bike_id":"e68e9ade-7cc5-464c-8d97-35f477461d43","system_id":"levelo_inurba_marseille","lat":43.284133,"lon":5.349874,"is_reserved":false,"is_disabled":false,"rental_uris":{"android":"levelo://app?vid=e68e9ade-7cc5-464c-8d97-35f477461d43","ios":"levelo://app?vid=e68e9ade-7cc5-464c-8d97-35f477461d43"},"vehicle_type_id":"4","last_reported":1715432806,"current_range_meters":24800,"station_id":"","pricing_plan_id":"cebpf4jnsgd1na2vs0mg"},{"bike_id":"12cf2171-3292-4c5f-b008-aaefb25f366b","system_id":"levelo_inurba_marseille","lat":43.28415,"lon":5.3498,"is_reserved":false,"is_disabled":false,"rental_uris":{"android":"levelo://app?vid=12cf2171-3292-4c5f-b008-aaefb25f366b","ios":"levelo://app?vid=12cf2171-3292-4c5f-b008-aaefb25f366b"},"vehicle_type_id":"4","last_reported":1715432806,"current_range_meters":18400,"station_id":"ce4bhbh2rcd13ifvqepg","pricing_plan_id":"cebpf4jnsgd1na2vs0mg"},