{"last_updated":1707851120,"ttl":30,"version":"2.2","data":{"bikes":[{"bike_id":"941e1a41-0ea2-4c41-840f-58a9f8026d49","system_id":"levelo_inurba_marseille","lat":43.31247,"lon":5.368466,"is_reserved":false,"is_disabled":false,"rental_uris":{"android":"levelo://app?vid=941e1a41-0ea2-4c41-840f-58a9f8026d49","ios":"levelo://app?vid=941e1a41-0ea2-4c41-840f-58a9f8026d49"},"vehicle_type_id":"4","last_reported":1707851120,"current_range_meters":14000,"station_id":"ce4bgl92rcd13ifvqbq0","pricing_plan_id":"cebpf4jnsgd1na2vs0mg"},{"bike_id":"bd0d65df-1034-4498-8ed4-ca28f0386a3a","system_id":"levelo_inurba_marseille","lat":43.309076,"lon":5.368465,"is_reserved":false,"is_disabled":false,"rental_uris":{"android":"levelo://app?vid=bd0d65df-1034-4498-8ed4-ca28f0386a3a","ios":"levelo://app?vid=bd0d65df-1034-4498-8ed4-ca28f0386a3a"},"vehicle_type_id":"4","last_reported":1707851120,"current_range_meters":2800,"station_id":"ce4bgn92rcd13ifvqbvg","pricing_plan_id":"cebpf4jnsgd1na2vs0mg"},{"bike_id":"1c044b7c-dc74-48fe-b421-55d5f34fa106","system_id":"levelo_inurba_marseille","lat":43.309081,"lon":5.368436,"is_reserved":false,"is_disabled":false,"rental_uris":{"android":"levelo://app?vid=1c044b7c-dc74-48fe-b421-55d5f34fa106","ios":"levelo://app?vid=1c044b7c-dc74-48fe-b421-55d5f34fa106"},"vehicle_type_id":"4","last_reported":1707851120,"current_range_meters":26800,"station_id":"ce4bgn92rcd13ifvqbvg","pricing_plan_id":"cebpf4jnsgd1na2vs0mg"},{"bike_id":"939e3a4f-d81f-4124-8809-b5b36a6b7d53","system_id":"levelo_inurba_marseille","lat":43.309042,"lon":5.368496,"is_reserved":false,"is_disabled":false,"rental_uris":{"android":"levelo://app?vid=939e3a4f-d81f-4124-8809-b5b36a6b7d53","ios":"levelo://app?vid=939e3a4f-d81f-4124-8809-b5b36a6b7d53"},"vehicle_type_id":"4","last_reported":1707851120,"current_range_meters":1200,"station_id":"ce4bgn92rcd13ifvqbvg","pricing_plan_id":"cebpf4jnsgd1na2vs0mg"},{"bike_id":"52c6cd66-aeb8-4619-8557-58232f9075a2","system_id":"levelo_inurba_marseille","lat":43.308822,"lon":5.366949,"is_reserved":false,"is_disabled":false,"rental_uris":{"android":"levelo://app?vid=52c6cd66-aeb8-4619-8557-58232f9075a2","ios":"levelo://app?vid=52c6cd66-aeb8-4619-8557-58232f9075a2"},"vehicle_type_id":"4","last_reported":1707851120,"current_range_meters":7200,"station_id":"ce4bgn92rcd13ifvqbvg","pricing_plan_id":"cebpf4jnsgd1na2vs0mg"},{"bike_id":"38c494d8-0a15-423a-bd99-61c82deb897b","system_id":"levelo_inurba_marseille","lat":43.314811,"lon":5.373104,"is_reserved":false,"is_disabled":false,"rental_uris":{"android":"levelo://app?vid=38c494d8-0a15-423a-bd99-61c82deb897b","ios":"levelo://app?vid=38c494d8-0a15-423a-bd99-61c82deb897b"},"vehicle_type_id":"4","last_reported":1707851120,"current_range_meters":7200,"station_id":"ce4bgt12rcd13ifvqcd0","pricing_plan_id":"cebpf4jnsgd1na2vs0mg"},{"bike_id":"cf13d62b-e9ac-4319-bf84-78c512fda1b9","system_id":"levelo_inurba_marseille","lat":43.309038,"lon":5.396546,"is_reserved":false,"is_disabled":false,"rental_uris":{"android":"levelo://app?vid=cf13d62b-e9ac-4319-bf84-78c512fda1b9","ios":"levelo://app?vid=cf13d62b-e9ac-4319-bf84-78c512fda1b9"},"vehicle_type_id":"4","last_reported":1707851120,"current_range_meters":23200,"station_id":"ce4bh012rcd13ifvqcv0","pricing_plan_id":"cebpf4jnsgd1na2vs0mg"},{"bike_id":"fc97e716-d454-44c8-81de-561e62bfe1cc","system_id":"levelo_inurba_marseille","lat":43.305712,"lon":5.365641,"is_reserved":false,"is_disabled":false,"rental_uris":{"android":"levelo://app?vid=fc97e716-d454-44c8-81de-561e62bfe1cc","ios":"levelo://app?vid=fc97e716-d454-44c8-81de-561e62bfe1cc"},"vehicle_type_id":"4","last_reported":1707851120,"current_range_meters":11600,"station_id":"ce4bgs12rcd13ifvqcag","pricing_plan_id":"cebpf4jnsgd1na2vs0mg"},{"bike_id":"24141e23-0c7c-406f-a237-4918c06e395e","system_id":"levelo_inurba_marseille","lat":43.305368,"lon":5.367343,"is_reserved":false,"is_disabled":false,"rental_uris":{"android":"levelo://app?vid=24141e23-0c7c-406f-a237-4918c06e395e","ios":"levelo://app?vid=24141e23-0c7c-406f-a237-4918c06e395e"},"vehicle_type_id":"4","last_reported":1707851120,"current_range_meters":14000,"station_id":"ce4bgrp2rcd13ifvqc9g","pricing_plan_id":"cebpf4jnsgd1na2vs0mg"},{"bike_id":"16647468-362d-44dc-82a9-9a7e9d1c1252","system_id":"levelo_inurba_marseille","lat":43.305989,"lon":5.37225,"is_reserved":false,"is_disabled":false,"rental_uris":{"android":"levelo://app?vid=16647468-362d-44dc-82a9-9a7e9d1c1252","ios":"levelo://app?vid=16647468-362d-44dc-82a9-9a7e9d1c1252"},"vehicle_type_id":"4","last_reported":1707851120,"current_range_meters":0,"station_id":"ce4bgqh2rcd13ifvqc4g","pricing_plan_id":"cebpf4jnsgd1na2vs0mg"},{"bike_id":"cc8362a3-ac6e-447c-848f-18a96620a048","system_id":"levelo_inurba_marseille","lat":43.311125,"lon":5.377624,"is_reserved":false,"is_disabled":false,"rental_uris":{"android":"levelo://app?vid=cc8362a3-ac6e-447c-848f-18a96620a048","ios":"levelo://app?vid=cc8362a3-ac6e-447c-848f-18a96620a048"},"vehicle_type_id":"4","last_reported":1707851120,"current_range_meters":18800,"station_id":"ce4bgt92rcd13ifvqcg0","pricing_plan_id":"cebpf4jnsgd1na2vs0mg"},{"bike_id":"bdaa1503-6912-4967-b689-8d7b943af830","system_id":"levelo_inurba_marseille","lat":43.31132,"lon":5.37774,"is_reserved":false,"is_disabled":false,"rental_uris":{"android":"levelo://app?vid=bdaa1503-6912-4967-b689-8d7b943af830","ios":"levelo://app?vid=bdaa1503-6912-4967-b689-8d7b943af830"},"vehicle_type_id":"4","last_reported":1707851120,"current_range_meters":0,"station_id":"","pricing_plan_id":"cebpf4jnsgd1na2vs0mg"},{"bike_id":"0225ae1b-515d-4755-8585-1aed4e8d05af","system_id":"levelo_inurba_marseille","lat":43.316968,"lon":5.37688,"is_reserved":false,"is_disabled":false,"rental_uris":{"android":"levelo://app?vid=0225ae1b-515d-4755-8585-1aed4e8d05af","ios":"levelo://app?vid=0225ae1b-515d-4755-8585-1aed4e8d05af"},"vehicle_type_id":"4","last_reported":1707851120,"current_range_meters":400,"station_id":"ce4bgth2rcd13ifvqch0","pricing_plan_id":"cebpf4jnsgd1na2vs0mg"},{"bike_id":"31dce328-5716-47bf-bfaf-57af150b22df","system_id":"levelo_inurba_marseille","lat":43.317075,"lon":5.377367,"is_reserved":false,"is_disabled":false,"rental_uris":{"android":"levelo://app?vid=31dce328-5716-47bf-bfaf-57af150b22df","ios":"levelo://app?vid=31dce328-5716-47bf-bfaf-57af150b22df"},"vehicle_type_id":"4","last_reported":1707851120,"current_range_meters":27600,"station_id":"ce4bgth2rcd13ifvqch0","pricing_plan_id":"cebpf4jnsgd1na2vs0mg"},{"bike_id":"6c369859-bf26-4f50-b734-ddd82cf10574","system_id":"levelo_inurba_marseille","lat":43.317075,"lon":5.377367,"is_reserved":false,"is_disabled":false,"rental_uris":{"android":"levelo://app?vid=6c369859-bf26-4f50-b734-ddd82cf10574","ios":"levelo://app?vid=6c369859-bf26-4f50-b734-ddd82cf10574"},"vehicle_type_id":"4","last_reported":1707851120,"current_range_meters":9200,"station_id":"ce4bgth2rcd13ifvqch0","pricing_plan_id":"cebpf4jnsgd1na2vs0mg"},{"bike_id":"ea3a8a2f-e4df-4d97-b27b-3337c1f44d64","system_id":"levelo_inurba_marseille","lat":43.317075,"lon":5.377367,"is_reserved":false,"is_disabled":false,"rental_uris":{"android":"levelo://app?vid=ea3a8a2f-e4df-4d97-b27b-3337c1f44d64","ios":"levelo://app?vid=ea3a8a2f-e4df-4d97-b27b-3337c1f44d64"},"vehicle_type_id":"4","last_reported":1707851120,"current_range_meters":20800,"station_id":"ce4bgth2rcd13ifvqch0","pricing_plan_id":"cebpf4jnsgd1na2vs0mg"},{"bike_id":"876a9dab-fa6c-4878-919b-0435feceef8e","system_id":"levelo_inurba_marseille","lat":43.303046,"lon":5.368981,"is_reserved":false,"is_disabled":false,"rental_uris":{"android":"levelo://app?vid=876a9dab-fa6c-4878-919b-0435feceef8e","ios":"levelo://app?vid=876a9dab-fa6c-4878-919b-0435feceef8e"},"vehicle_type_id":"4","last_reported":1707851120,"current_range_meters":28000,"station_id":"ce4bgqh2rcd13ifvqc5g","pricing_plan_id":"cebpf4jnsgd1na2vs0mg"},{"bike_id":"92b98226-570e-4339-8336-f21914ed09d5","system_id":"levelo_inurba_marseille","lat":43.315293,"lon":5.380349,"is_reserved":false,"is_disabled":false,"rental_uris":{"android":"levelo://app?vid=92b98226-570e-4339-8336-f21914ed09d5","ios":"levelo://app?vid=92b98226-570e-4339-8336-f21914ed09d5"},"vehicle_type_id":"4","last_reported":1707851120,"current_range_meters":26400,"station_id":"ce4bhsp2rcd13ifvqi50","pricing_plan_id":"cebpf4jnsgd1na2vs0mg"},{"bike_id":"99b25015-5bc0-4096-9668-a27a161256eb","system_id":"levelo_inurba_marseille","lat":43.32273,"lon":5.36961,"is_reserved":false,"is_disabled":false,"rental_uris":{"android":"levelo://app?vid=99b25015-5bc0-4096-9668-a27a161256eb","ios":"levelo://app?vid=99b25015-5bc0-4096-9668-a27a161256eb"},"vehicle_type_id":"4","last_reported":1707851120,"current_range_meters":10000,"station_id":"","pricing_plan_id":"cebpf4jnsgd1na2vs0mg"},{"bike_id":"aba69981-d43d-4a29-a134-44d161edbd3f","system_id":"levelo_inurba_marseille","lat":43.301939,"lon":5.366286,"is_reserved":false,"is_disabled":false,"rental_uris":{"android":"levelo://app?vid=aba69981-d43d-4a29-a134-44d161edbd3f","ios":"levelo://app?vid=aba69981-d43d-4a29-a134-44d161edbd3f"},"vehicle_type_id":"4","last_reported":1707851120,"current_range_meters":0,"station_id":"ce4bgrh2rcd13ifvqc8g","pricing_plan_id":"cebpf4jnsgd1na2vs0mg"},{"bike_id":"9837374c-3dde-4b97-8ea7-61be83a641cc","system_id":"levelo_inurba_marseille","lat":43.301939,"lon":5.366286,"is_reserved":false,"is_disabled":false,"rental_uris":{"android":"levelo://app?vid=9837374c-3dde-4b97-8ea7-61be83a641cc","ios":"levelo://app?vid=9837374c-3dde-4b97-8ea7-61be83a641cc"},"vehicle_type_id":"4","last_reported":1707851120,"current_range_meters":26800,"station_id":"ce4bgrh2rcd13ifvqc8g","pricing_plan_id":"cebpf4jnsgd1na2vs0mg"},{"bike_id":"34fc1f60-2015-49c0-9c5f-4b8a4ea20596","system_id":"levelo_inurba_marseille","lat":43.304606,"lon":5.379026,"is_reserved":false,"is_disabled":false,"rental_uris":{"android":"levelo://app?vid=34fc1f60-2015-49c0-9c5f-4b8a4ea20596","ios":"levelo://app?vid=34fc1f60-2015-49c0-9c5f-4b8a4ea20596"},"vehicle_type_id":"4","last_reported":1707851120,"current_range_meters":0,"station_id":"ce4bgup2rcd13ifvqcn0","pricing_plan_id":"cebpf4jnsgd1na2vs0mg"},{"bike_id":"c95d8be7-6f03-442e-9aaa-0ec4b2d7a903","system_id":"levelo_inurba_marseille","lat":43.304606,"lon":5.379026,"is_reserved":false,"is_disabled":false,"rental_uris":{"android":"levelo://app?vid=c95d8be7-6f03-442e-9aaa-0ec4b2d7a903","ios":"levelo://app?vid=c95d8be7-6f03-442e-9aaa-0ec4b2d7a903"},"vehicle_type_id":"4","last_reported":1707851120,"current_range_meters":18800,"station_id":"ce4bgup2rcd13ifvqcn0","pricing_plan_id":"cebpf4jnsgd1na2vs0mg"},{"bike_id":"a5150c7a-e2e5-4922-972d-4b2fc2e80862","system_id":"levelo_inurba_marseille","lat":43.324771,"lon":5.36557,"is_reserved":false,"is_disabled":false,"rental_uris":{"android":"levelo://app?vid=a5150c7a-e2e5-4922-972d-4b2fc2e80862","ios":"levelo://app?vid=a5150c7a-e2e5-4922-972d-4b2fc2e80862"},"vehicle_type_id":"4","last_reported":1707851120,"current_range_meters":16400,"station_id":"ce4bhs12rcd13ifvqhvg","pricing_plan_id":"cebpf4jnsgd1na2vs0mg"},{"bike_id":"3c3b17ec-aa6b-4a35-9f14-1d304594707e","system_id":"levelo_inurba_marseille","lat":43.324771,"lon":5.36557,"is_reserved":false,"is_disabled":false,"rental_uris":{"android":"levelo://app?vid=3c3b17ec-aa6b-4a35-9f14-1d304594707e","ios":"levelo://app?vid=3c3b17ec-aa6b-4a35-9f14-1d304594707e"},"vehicle_type_id":"4","last_reported":1707851120,"current_range_meters":800,"station_id":"ce4bhs12rcd13ifvqhvg","pricing_plan_id":"cebpf4jnsgd1na2vs0mg"},{"bike_id":"4dfacadf-7ff6-40cb-b688-8cd93334986a","system_id":"levelo_inurba_marseille","lat":43.310804,"lon":5.38359,"is_reserved":false,"is_disabled":false,"rental_uris":{"android":"levelo://app?vid=4dfacadf-7ff6-40cb-b688-8cd93334986a","ios":"levelo://app?vid=4dfacadf-7ff6-40cb-b688-8cd93334986a"},"vehicle_type_id":"4","last_reported":1707851120,"current_range_meters":0,"station_id":"ce4bgv92rcd13ifvqcr0","pricing_plan_id":"cebpf4jnsgd1na2vs0mg"},{"bike_id":"237d60d5-e9da-4c8d-9843-6915d4445eeb","system_id":"levelo_inurba_marseille","lat":43.302784,"lon":5.377158,"is_reserved":false,"is_disabled":false,"rental_uris":{"android":"levelo://app?vid=237d60d5-e9da-4c8d-9843-6915d4445eeb","ios":"levelo://app?vid=237d60d5-e9da-4c8d-9843-6915d4445eeb"},"vehicle_type_id":"4","last_reported":1707851120,"current_range_meters":19600,"station_id":"ce4bguh2rcd13ifvqcj0","pricing_plan_id":"cebpf4jnsgd1na2vs0mg"},{"bike_id":"fa45974d-14c6-4e8f-a1f0-eb82d264dcee","system_id":"levelo_inurba_marseille","lat":43.30143,"lon":5.37413,"is_reserved":false,"is_disabled":false,"rental_uris":{"android":"levelo://app?vid=fa45974d-14c6-4e8f-a1f0-eb82d264dcee","ios":"levelo://app?vid=fa45974d-14c6-4e8f-a1f0-eb82d264dcee"},"vehicle_type_id":"4","last_reported":1707851120,"current_range_meters":8800,"station_id":"ce4bgs92rcd13ifvqcc0","pricing_plan_id":"cebpf4jnsgd1na2vs0mg"},{"bike_id":"904717e0-567f-402b-b8fb-82da03c63213","system_id":"levelo_inurba_marseille","lat":43.319935,"lon":5.381699,"is_reserved":false,"is_disabled":false,"rental_uris":{"android":"levelo://app?vid=904717e0-567f-402b-b8fb-82da03c63213","ios":"levelo://app?vid=904717e0-567f-402b-b8fb-82da03c63213"},"vehicle_type_id":"4","last_reported":1707851120,"current_range_meters":6800,"station_id":"ce4bhr12rcd13ifvqhpg","pricing_plan_id":"cebpf4jnsgd1na2vs0mg"},{"bike_id":"9fbc3664-6855-4721-960a-9f9f9da0da99","system_id":"levelo_inurba_marseille","lat":43.319935,"lon":5.381699,"is_reserved":false,"is_disabled":false,"rental_uris":{"android":"levelo://app?vid=9fbc3664-6855-4721-960a-9f9f9da0da99","ios":"levelo://app?vid=9fbc3664-6855-4721-960a-9f9f9da0da99"},"vehicle_type_id":"4","last_reported":1707851120,"current_range_meters":18800,"station_id":"ce4bhr12rcd13ifvqhpg","pricing_plan_id":"cebpf4jnsgd1na2vs0mg"},{"bike_id":"d60a56b1-8df5-46c7-9c58-03251d97f7ca","system_id":"levelo_inurba_marseille","lat":43.319935,"lon":5.381699,"is_reserved":false,"is_disabled":false,"rental_uris":{"android":"levelo://app?vid=d60a56b1-8df5-46c7-9c58-03251d97f7ca","ios":"levelo://app?vid=d60a56b1-8df5-46c7-9c58-03251d97f7ca"},"vehicle_type_id":"4","last_reported":1707851120,"current_range_meters":0,"station_id":"ce4bhr12rcd13ifvqhpg","pricing_plan_id":"cebpf4jnsgd1na2vs0mg"},{"bike_id":"0ec568e8-ea29-47b6-adf7-566d6e2149d4","system_id":"levelo_inurba_marseille","lat":43.319935,"lon":5.381699,"is_reserved":false,"is_disabled":false,"rental_uris":{"android":"levelo://app?vid=0ec568e8-ea29-47b6-adf7-566d6e2149d4","ios":"levelo://app?vid=0ec568e8-ea29-47b6-adf7-566d6e2149d4"},"vehicle_type_id":"4","last_reported":1707851120,"current_range_meters":15600,"station_id":"ce4bhr12rcd13ifvqhpg","pricing_plan_id":"cebpf4jnsgd1na2vs0mg"},{"bike_id":"5448cc57-7f69-4dd1-90ae-a06d75f3f987","system_id":"levelo_inurba_marseille","lat":43.319935,"lon":5.381699,"is_reserved":false,"is_disabled":false,"rental_uris":{"android":"levelo://app?vid=5448cc57-7f69-4dd1-90ae-a06d75f3f987","ios":"levelo://app?vid=5448cc57-7f69-4dd1-90ae-a06d75f3f987"},"vehicle_type_id":"4","last_reported":1707851120,"current_range_meters":0,"station_id":"ce4bhr12rcd13ifvqhpg","pricing_plan_id":"cebpf4jnsgd1na2vs0mg"},{"bike_id":"c37622e8-813d-4691-b64b-e5180e6ff89f","system_id":"levelo_inurba_marseille","lat":43.319935,"lon":5.381699,"is_reserved":false,"is_disabled":false,"rental_uris":{"android":"levelo://app?vid=c37622e8-813d-4691-b64b-e5180e6ff89f","ios":"levelo://app?vid=c37622e8-813d-4691-b64b-e5180e6ff89f"},"vehicle_type_id":"4","last_reported":1707851120,"current_range_meters":5200,"station_id":"ce4bhr12rcd13ifvqhpg","pricing_plan_id":"cebpf4jnsgd1na2vs0mg"},{"bike_id":"1ddcb4a9-2c2c-4499-8df2-9b141368eee9","system_id":"levelo_inurba_marseille","lat":43.319935,"lon":5.381699,"is_reserved":false,"is_disabled":false,"rental_uris":{"android":"levelo://app?vid=1ddcb4a9-2c2c-4499-8df2-9b141368eee9","ios":"levelo://app?vid=1ddcb4a9-2c2c-4499-8df2-9b141368eee9"},"vehicle_type_id":"4","last_reported":1707851120,"current_range_meters":26800,"station_id":"ce4bhr12rcd13ifvqhpg","pricing_plan_id":"cebpf4jnsgd1na2vs0mg"},{"bike_id":"3584f118-4d20-44ed-be03-6e7c7afdc922","system_id":"levelo_inurba_marseille","lat":43.313571,"lon":5.384829,"is_reserved":false,"is_disabled":false,"rental_uris":{"android":"levelo://app?vid=3584f118-4d20-44ed-be03-6e7c7afdc922","ios":"levelo://app?vid=3584f118-4d20-44ed-be03-6e7c7afdc922"},"vehicle_type_id":"4","last_reported":1707851120,"current_range_meters":25600,"station_id":"ce4bgt92rcd13ifvqcf0","pricing_plan_id":"cebpf4jnsgd1na2vs0mg"},{"bike_id":"8ee36d7e-6b13-493f-b77b-b236c33055d3","system_id":"levelo_inurba_marseille","lat":43.313571,"lon":5.384829,"is_reserved":false,"is_disabled":false,"rental_uris":{"android":"levelo://app?vid=8ee36d7e-6b13-493f-b77b-b236c33055d3","ios":"levelo://app?vid=8ee36d7e-6b13-493f-b77b-b236c33055d3"},"vehicle_type_id":"4","last_reported":1707851120,"current_range_meters":9200,"station_id":"ce4bgt92rcd13ifvqcf0","pricing_plan_id":"cebpf4jnsgd1na2vs0mg"},{"bike_id":"f84e40fc-494e-4a12-9c18-19f2eaaab545","system_id":"levelo_inurba_marseille","lat":43.313622,"lon":5.384966,"is_reserved":false,"is_disabled":false,"rental_uris":{"android":"levelo://app?vid=f84e40fc-494e-4a12-9c18-19f2eaaab545","ios":"levelo://app?vid=f84e40fc-494e-4a12-9c18-19f2eaaab545"},"vehicle_type_id":"4","last_reported":1707851120,"current_range_meters":6000,"station_id":"ce4bgt92rcd13ifvqcf0","pricing_plan_id":"cebpf4jnsgd1na2vs0mg"},{"bike_id":"32ab5c19-1225-4254-b071-d8925a93e7a1","system_id":"levelo_inurba_marseille","lat":43.299724,"lon":5.371829,"is_reserved":false,"is_disabled":false,"rental_uris":{"android":"levelo://app?vid=32ab5c19-1225-4254-b071-d8925a93e7a1","ios":"levelo://app?vid=32ab5c19-1225-4254-b071-d8925a93e7a1"},"vehicle_type_id":"4","last_reported":1707851120,"current_range_meters":0,"station_id":"ce4bgr92rcd13ifvqc7g","pricing_plan_id":"cebpf4jnsgd1na2vs0mg"},{"bike_id":"289b3640-a9ca-4913-a07b-395c0c5ad064","system_id":"levelo_inurba_marseille","lat":43.305364,"lon":5.384119,"is_reserved":false,"is_disabled":false,"rental_uris":{"android":"levelo://app?vid=289b3640-a9ca-4913-a07b-395c0c5ad064","ios":"levelo://app?vid=289b3640-a9ca-4913-a07b-395c0c5ad064"},"vehicle_type_id":"4","last_reported":1707851120,"current_range_meters":22400,"station_id":"ce4bgg92rcd13ifvqb30","pricing_plan_id":"cebpf4jnsgd1na2vs0mg"},{"bike_id":"3b6fd47c-f860-4967-b147-3526322b443e","system_id":"levelo_inurba_marseille","lat":43.311551,"lon":5.38676,"is_reserved":false,"is_disabled":false,"rental_uris":{"android":"levelo://app?vid=3b6fd47c-f860-4967-b147-3526322b443e","ios":"levelo://app?vid=3b6fd47c-f860-4967-b147-3526322b443e"},"vehicle_type_id":"4","last_reported":1707851120,"current_range_meters":14800,"station_id":"ce4bgv12rcd13ifvqcp0","pricing_plan_id":"cebpf4jnsgd1na2vs0mg"},{"bike_id":"addacc40-f340-417c-9675-3798d47b47cd","system_id":"levelo_inurba_marseille","lat":43.305364,"lon":5.384119,"is_reserved":false,"is_disabled":false,"rental_uris":{"android":"levelo://app?vid=addacc40-f340-417c-9675-3798d47b47cd","ios":"levelo://app?vid=addacc40-f340-417c-9675-3798d47b47cd"},"vehicle_type_id":"4","last_reported":1707851120,"current_range_meters":6400,"station_id":"ce4bgg92rcd13ifvqb30","pricing_plan_id":"cebpf4jnsgd1na2vs0mg"},{"bike_id":"a8b5180e-f39f-407d-b5d0-52b35fd20ac4","system_id":"levelo_inurba_marseille","lat":43.311722,"lon":5.387247,"is_reserved":false,"is_disabled":false,"rental_uris":{"android":"levelo://app?vid=a8b5180e-f39f-407d-b5d0-52b35fd20ac4","ios":"levelo://app?vid=a8b5180e-f39f-407d-b5d0-52b35fd20ac4"},"vehicle_type_id":"4","last_reported":1707851120,"current_range_meters":31600,"station_id":"ce4bgv12rcd13ifvqcp0","pricing_plan_id":"cebpf4jnsgd1na2vs0mg"},{"bike_id":"c5000238-0f79-4838-816b-624732c7e6c7","system_id":"levelo_inurba_marseille","lat":43.299243,"lon":5.374807,"is_reserved":false,"is_disabled":false,"rental_uris":{"android":"levelo://app?vid=c5000238-0f79-4838-816b-624732c7e6c7","ios":"levelo://app?vid=c5000238-0f79-4838-816b-624732c7e6c7"},"vehicle_type_id":"4","last_reported":1707851120,"current_range_meters":0,"station_id":"ce4bgjh2rcd13ifvqbg0","pricing_plan_id":"cebpf4jnsgd1na2vs0mg"},{"bike_id":"696b382e-1b9b-4bff-8007-f21f31777c5b","system_id":"levelo_inurba_marseille","lat":43.311722,"lon":5.387247,"is_reserved":false,"is_disabled":false,"rental_uris":{"android":"levelo://app?vid=696b382e-1b9b-4bff-8007-f21f31777c5b","ios":"levelo://app?vid=696b382e-1b9b-4bff-8007-f21f31777c5b"},"vehicle_type_id":"4","last_reported":1707851120,"current_range_meters":17600,"station_id":"ce4bgv12rcd13ifvqcp0","pricing_plan_id":"cebpf4jnsgd1na2vs0mg"},{"bike_id":"88c1afde-4863-4c74-a203-6c82ce46597f","system_id":"levelo_inurba_marseille","lat":43.322872,"lon":5.382756,"is_reserved":false,"is_disabled":false,"rental_uris":{"android":"levelo://app?vid=88c1afde-4863-4c74-a203-6c82ce46597f","ios":"levelo://app?vid=88c1afde-4863-4c74-a203-6c82ce46597f"},"vehicle_type_id":"4","last_reported":1707851120,"current_range_meters":30800,"station_id":"ce4bhr12rcd13ifvqhqg","pricing_plan_id":"cebpf4jnsgd1na2vs0mg"},{"bike_id":"0f1752c3-a621-413b-823c-ed05b903c18f","system_id":"levelo_inurba_marseille","lat":43.297774,"lon":5.370875,"is_reserved":false,"is_disabled":false,"rental_uris":{"android":"levelo://app?vid=0f1752c3-a621-413b-823c-ed05b903c18f","ios":"levelo://app?vid=0f1752c3-a621-413b-823c-ed05b903c18f"},"vehicle_type_id":"4","last_reported":1707851120,"current_range_meters":14800,"station_id":"ce4bgop2rcd13ifvqc1g","pricing_plan_id":"cebpf4jnsgd1na2vs0mg"},{"bike_id":"f9a328d6-c6dc-4cba-aea7-5d42634a1c6c","system_id":"levelo_inurba_marseille","lat":43.322872,"lon":5.382756,"is_reserved":false,"is_disabled":false,"rental_uris":{"android":"levelo://app?vid=f9a328d6-c6dc-4cba-aea7-5d42634a1c6c","ios":"levelo://app?vid=f9a328d6-c6dc-4cba-aea7-5d42634a1c6c"},"vehicle_type_id":"4","last_reported":1707851120,"current_range_meters":26000,"station_id":"ce4bhr12rcd13ifvqhqg","pricing_plan_id":"cebpf4jnsgd1na2vs0mg"},{"bike_id":"ba86b31f-2633-4749-a52f-df87d05cac59","system_id":"levelo_inurba_marseille","lat":43.297774,"lon":5.370875,"is_reserved":false,"is_disabled":false,"rental_uris":{"android":"levelo://app?vid=ba86b31f-2633-4749-a52f-df87d05cac59","ios":"levelo://app?vid=ba86b31f-2633-4749-a52f-df87d05cac59"},"vehicle_type_id":"4","last_reported":1707851120,"current_range_meters":8400,"station_id":"ce4bgop2rcd13ifvqc1g","pricing_plan_id":"cebpf4jnsgd1na2vs0mg"},{"bike_id":"3c8017d6-621c-4c14-ad01-fbce9c52c386","system_id":"levelo_inurba_marseille","lat":43.32805,"lon":5.366981,"is_reserved":false,"is_disabled":false,"rental_uris":{"android":"levelo://app?vid=3c8017d6-621c-4c14-ad01-fbce9c52c386","ios":"levelo://app?vid=3c8017d6-621c-4c14-ad01-fbce9c52c386"},"vehicle_type_id":"4","last_reported":1707851120,"current_range_meters":0,"station_id":"ce4bhs92rcd13ifvqi0g","pricing_plan_id":"cebpf4jnsgd1na2vs0mg"},{"bike_id":"d74bd2a1-22ad-4021-869f-09a8873f8a42","system_id":"levelo_inurba_marseille","lat":43.322872,"lon":5.382756,"is_reserved":false,"is_disabled":false,"rental_uris":{"android":"levelo://app?vid=d74bd2a1-22ad-4021-869f-09a8873f8a42","ios":"levelo://app?vid=d74bd2a1-22ad-4021-869f-09a8873f8a42"},"vehicle_type_id":"4","last_reported":1707851120,"current_range_meters":26400,"station_id":"ce4bhr12rcd13ifvqhqg","pricing_plan_id":"cebpf4jnsgd1na2vs0mg"},{"bike_id":"aed9e4ad-9c1a-4a51-8095-58a12f0b44f4","system_id":"levelo_inurba_marseille","lat":43.322872,"lon":5.382756,"is_reserved":false,"is_disabled":false,"rental_uris":{"android":"levelo://app?vid=aed9e4ad-9c1a-4a51-8095-58a12f0b44f4","ios":"levelo://app?vid=aed9e4ad-9c1a-4a51-8095-58a12f0b44f4"},"vehicle_type_id":"4","last_reported":1707851120,"current_range_meters":30800,"station_id":"ce4bhr12rcd13ifvqhqg","pricing_plan_id":"cebpf4jnsgd1na2vs0mg"},{"bike_id":"6229d0b0-b965-496c-b4a1-c0fb6c28b332","system_id":"levelo_inurba_marseille","lat":43.2976,"lon":5.37093,"is_reserved":false,"is_disabled":false,"rental_uris":{"android":"levelo://app?vid=6229d0b0-b965-496c-b4a1-c0fb6c28b332","ios":"levelo://app?vid=6229d0b0-b965-496c-b4a1-c0fb6c28b332"},"vehicle_type_id":"4","last_reported":1707851120,"current_range_meters":0,"station_id":"ce4bgop2rcd13ifvqc1g","pricing_plan_id":"cebpf4jnsgd1na2vs0mg"},{"bike_id":"24cbb04a-c763-4b6c-91c7-7ce4ce9a6969","system_id":"levelo_inurba_marseille","lat":43.32822,"lon":5.36686,"is_reserved":false,"is_disabled":false,"rental_uris":{"android":"levelo://app?vid=24cbb04a-c763-4b6c-91c7-7ce4ce9a6969","ios":"levelo://app?vid=24cbb04a-c763-4b6c-91c7-7ce4ce9a6969"},"vehicle_type_id":"4","last_reported":1707851120,"current_range_meters":20800,"station_id":"ce4bhs92rcd13ifvqi0g","pricing_plan_id":"cebpf4jnsgd1na2vs0mg"},{"bike_id":"ec21c626-faeb-41e5-9192-4d2bef3ee4d3","system_id":"levelo_inurba_marseille","lat":43.32822,"lon":5.36682,"is_reserved":false,"is_disabled":false,"rental_uris":{"android":"levelo://app?vid=ec21c626-faeb-41e5-9192-4d2bef3ee4d3","ios":"levelo://app?vid=ec21c626-faeb-41e5-9192-4d2bef3ee4d3"},"vehicle_type_id":"4","last_reported":1707851120,"current_range_meters":13600,"station_id":"ce4bhs92rcd13ifvqi0g","pricing_plan_id":"cebpf4jnsgd1na2vs0mg"},{"bike_id":"b69dafd6-5e51-4079-932c-30e4c80d8b2d","system_id":"levelo_inurba_marseille","lat":43.32824,"lon":5.36685,"is_reserved":false,"is_disabled":false,"rental_uris":{"android":"levelo://app?vid=b69dafd6-5e51-4079-932c-30e4c80d8b2d","ios":"levelo://app?vid=b69dafd6-5e51-4079-932c-30e4c80d8b2d"},"vehicle_type_id":"4","last_reported":1707851120,"current_range_meters":12000,"station_id":"ce4bhs92rcd13ifvqi0g","pricing_plan_id":"cebpf4jnsgd1na2vs0mg"},{"bike_id":"28b5e1aa-89c7-418e-b035-a545752e89f1","system_id":"levelo_inurba_marseille","lat":43.32824,"lon":5.36683,"is_reserved":false,"is_disabled":false,"rental_uris":{"android":"levelo://app?vid=28b5e1aa-89c7-418e-b035-a545752e89f1","ios":"levelo://app?vid=28b5e1aa-89c7-418e-b035-a545752e89f1"},"vehicle_type_id":"4","last_reported":1707851120,"current_range_meters":5200,"station_id":"ce4bhs92rcd13ifvqi0g","pricing_plan_id":"cebpf4jnsgd1na2vs0mg"},{"bike_id":"f4bc5f5b-9db1-4cc7-91ef-45246b43f923","system_id":"levelo_inurba_marseille","lat":43.297163,"lon":5.365866,"is_reserved":false,"is_disabled":false,"rental_uris":{"android":"levelo://app?vid=f4bc5f5b-9db1-4cc7-91ef-45246b43f923","ios":"levelo://app?vid=f4bc5f5b-9db1-4cc7-91ef-45246b43f923"},"vehicle_type_id":"4","last_reported":1707851120,"current_range_meters":6400,"station_id":"ce4bgn12rcd13ifvqbt0","pricing_plan_id":"cebpf4jnsgd1na2vs0mg"},{"bike_id":"de05c7b1-885e-455d-9a4f-56e96683d901","system_id":"levelo_inurba_marseille","lat":43.32826,"lon":5.367036,"is_reserved":false,"is_disabled":false,"rental_uris":{"android":"levelo://app?vid=de05c7b1-885e-455d-9a4f-56e96683d901","ios":"levelo://app?vid=de05c7b1-885e-455d-9a4f-56e96683d901"},"vehicle_type_id":"4","last_reported":1707851120,"current_range_meters":0,"station_id":"ce4bhs92rcd13ifvqi0g","pricing_plan_id":"cebpf4jnsgd1na2vs0mg"},{"bike_id":"07a2b44b-47c4-46fe-b8d8-d7ad3b775366","system_id":"levelo_inurba_marseille","lat":43.32826,"lon":5.36681,"is_reserved":false,"is_disabled":false,"rental_uris":{"android":"levelo://app?vid=07a2b44b-47c4-46fe-b8d8-d7ad3b775366","ios":"levelo://app?vid=07a2b44b-47c4-46fe-b8d8-d7ad3b775366"},"vehicle_type_id":"4","last_reported":1707851120,"current_range_meters":30400,"station_id":"ce4bhs92rcd13ifvqi0g","pricing_plan_id":"cebpf4jnsgd1na2vs0mg"},{"bike_id":"b1ae39ac-e250-4a6a-9a12-58352f8b9818","system_id":"levelo_inurba_marseille","lat":43.328263,"lon":5.366945,"is_reserved":false,"is_disabled":false,"rental_uris":{"android":"levelo://app?vid=b1ae39ac-e250-4a6a-9a12-58352f8b9818","ios":"levelo://app?vid=b1ae39ac-e250-4a6a-9a12-58352f8b9818"},"vehicle_type_id":"4","last_reported":1707851120,"current_range_meters":10000,"station_id":"ce4bhs92rcd13ifvqi0g","pricing_plan_id":"cebpf4jnsgd1na2vs0mg"},{"bike_id":"92d433a5-a7b5-4c09-a587-fcb1586970ce","system_id":"levelo_inurba_marseille","lat":43.32827,"lon":5.36689,"is_reserved":false,"is_disabled":false,"rental_uris":{"android":"levelo://app?vid=92d433a5-a7b5-4c09-a587-fcb1586970ce","ios":"levelo://app?vid=92d433a5-a7b5-4c09-a587-fcb1586970ce"},"vehicle_type_id":"4","last_reported":1707851120,"current_range_meters":25200,"station_id":"ce4bhs92rcd13ifvqi0g","pricing_plan_id":"cebpf4jnsgd1na2vs0mg"},{"bike_id":"b354d40e-f748-45df-b8a4-085ee0f39b31","system_id":"levelo_inurba_marseille","lat":43.32827,"lon":5.36682,"is_reserved":false,"is_disabled":false,"rental_uris":{"android":"levelo://app?vid=b354d40e-f748-45df-b8a4-085ee0f39b31","ios":"levelo://app?vid=b354d40e-f748-45df-b8a4-085ee0f39b31"},"vehicle_type_id":"4","last_reported":1707851120,"current_range_meters":28400,"station_id":"ce4bhs92rcd13ifvqi0g","pricing_plan_id":"cebpf4jnsgd1na2vs0mg"},{"bike_id":"8c90430b-95b2-4431-8551-469294caf146","system_id":"levelo_inurba_marseille","lat":43.32828,"lon":5.36693,"is_reserved":false,"is_disabled":false,"rental_uris":{"android":"levelo://app?vid=8c90430b-95b2-4431-8551-469294caf146","ios":"levelo://app?vid=8c90430b-95b2-4431-8551-469294caf146"},"vehicle_type_id":"4","last_reported":1707851120,"current_range_meters":18400,"station_id":"ce4bhs92rcd13ifvqi0g","pricing_plan_id":"cebpf4jnsgd1na2vs0mg"},{"bike_id":"eec18b1c-bcf1-4268-8859-b234d772b467","system_id":"levelo_inurba_marseille","lat":43.32828,"lon":5.3668,"is_reserved":false,"is_disabled":false,"rental_uris":{"android":"levelo://app?vid=eec18b1c-bcf1-4268-8859-b234d772b467","ios":"levelo://app?vid=eec18b1c-bcf1-4268-8859-b234d772b467"},"vehicle_type_id":"4","last_reported":1707851120,"current_range_meters":16400,"station_id":"ce4bhs92rcd13ifvqi0g","pricing_plan_id":"cebpf4jnsgd1na2vs0mg"},{"bike_id":"8b36ce43-3bc7-4f8a-bb1e-1f87c12ac26a","system_id":"levelo_inurba_marseille","lat":43.32829,"lon":5.3668,"is_reserved":false,"is_disabled":false,"rental_uris":{"android":"levelo://app?vid=8b36ce43-3bc7-4f8a-bb1e-1f87c12ac26a","ios":"levelo://app?vid=8b36ce43-3bc7-4f8a-bb1e-1f87c12ac26a"},"vehicle_type_id":"4","last_reported":1707851120,"current_range_meters":13600,"station_id":"ce4bhs92rcd13ifvqi0g","pricing_plan_id":"cebpf4jnsgd1na2vs0mg"},{"bike_id":"6df14f4e-5762-4688-823c-207c1d70636e","system_id":"levelo_inurba_marseille","lat":43.3283,"lon":5.3668,"is_reserved":false,"is_disabled":false,"rental_uris":{"android":"levelo://app?vid=6df14f4e-5762-4688-823c-207c1d70636e","ios":"levelo://app?vid=6df14f4e-5762-4688-823c-207c1d70636e"},"vehicle_type_id":"4","last_reported":1707851120,"current_range_meters":9200,"station_id":"ce4bhs92rcd13ifvqi0g","pricing_plan_id":"cebpf4jnsgd1na2vs0mg"},{"bike_id":"ca9eb2bd-76f0-467a-b34d-3f09418a4a5b","system_id":"levelo_inurba_marseille","lat":43.297163,"lon":5.365866,"is_reserved":false,"is_disabled":false,"rental_uris":{"android":"levelo://app?vid=ca9eb2bd-76f0-467a-b34d-3f09418a4a5b","ios":"levelo://app?vid=ca9eb2bd-76f0-467a-b34d-3f09418a4a5b"},"vehicle_type_id":"4","last_reported":1707851120,"current_range_meters":31200,"station_id":"ce4bgn12rcd13ifvqbt0","pricing_plan_id":"cebpf4jnsgd1na2vs0mg"},{"bike_id":"f41ceea4-9289-4d6b-990c-9f2656a72f3b","system_id":"levelo_inurba_marseille","lat":43.32831,"lon":5.3668,"is_reserved":false,"is_disabled":false,"rental_uris":{"android":"levelo://app?vid=f41ceea4-9289-4d6b-990c-9f2656a72f3b","ios":"levelo://app?vid=f41ceea4-9289-4d6b-990c-9f2656a72f3b"},"vehicle_type_id":"4","last_reported":1707851120,"current_range_meters":7600,"station_id":"ce4bhs92rcd13ifvqi0g","pricing_plan_id":"cebpf4jnsgd1na2vs0mg"},{"bike_id":"7c47e388-9433-4092-857a-2e1a28e7faaa","system_id":"levelo_inurba_marseille","lat":43.32831,"lon":5.36673,"is_reserved":false,"is_disabled":false,"rental_uris":{"android":"levelo://app?vid=7c47e388-9433-4092-857a-2e1a28e7faaa","ios":"levelo://app?vid=7c47e388-9433-4092-857a-2e1a28e7faaa"},"vehicle_type_id":"4","last_reported":1707851120,"current_range_meters":30800,"station_id":"ce4bhs92rcd13ifvqi0g","pricing_plan_id":"cebpf4jnsgd1na2vs0mg"},{"bike_id":"00c486e2-5b6f-4240-9c00-f34f4cd392e2","system_id":"levelo_inurba_marseille","lat":43.328312,"lon":5.366765,"is_reserved":false,"is_disabled":false,"rental_uris":{"android":"levelo://app?vid=00c486e2-5b6f-4240-9c00-f34f4cd392e2","ios":"levelo://app?vid=00c486e2-5b6f-4240-9c00-f34f4cd392e2"},"vehicle_type_id":"4","last_reported":1707851120,"current_range_meters":21200,"station_id":"ce4bhs92rcd13ifvqi0g","pricing_plan_id":"cebpf4jnsgd1na2vs0mg"},{"bike_id":"e53477e0-6f81-44d0-bf92-8c0c4ae8ef5b","system_id":"levelo_inurba_marseille","lat":43.32832,"lon":5.36686,"is_reserved":false,"is_disabled":false,"rental_uris":{"android":"levelo://app?vid=e53477e0-6f81-44d0-bf92-8c0c4ae8ef5b","ios":"levelo://app?vid=e53477e0-6f81-44d0-bf92-8c0c4ae8ef5b"},"vehicle_type_id":"4","last_reported":1707851120,"current_range_meters":24000,"station_id":"ce4bhs92rcd13ifvqi0g","pricing_plan_id":"cebpf4jnsgd1na2vs0mg"},{"bike_id":"c9b88aad-86c2-4a51-9436-08e8586a0048","system_id":"levelo_inurba_marseille","lat":43.32833,"lon":5.366853,"is_reserved":false,"is_disabled":false,"rental_uris":{"android":"levelo://app?vid=c9b88aad-86c2-4a51-9436-08e8586a0048","ios":"levelo://app?vid=c9b88aad-86c2-4a51-9436-08e8586a0048"},"vehicle_type_id":"4","last_reported":1707851120,"current_range_meters":23600,"station_id":"ce4bhs92rcd13ifvqi0g","pricing_plan_id":"cebpf4jnsgd1na2vs0mg"},{"bike_id":"f13968be-ff01-484e-90e7-f7595d28950b","system_id":"levelo_inurba_marseille","lat":43.297147,"lon":5.366033,"is_reserved":false,"is_disabled":false,"rental_uris":{"android":"levelo://app?vid=f13968be-ff01-484e-90e7-f7595d28950b","ios":"levelo://app?vid=f13968be-ff01-484e-90e7-f7595d28950b"},"vehicle_type_id":"4","last_reported":1707851120,"current_range_meters":0,"station_id":"ce4bgn12rcd13ifvqbt0","pricing_plan_id":"cebpf4jnsgd1na2vs0mg"},{"bike_id":"8d4d4aba-3495-4235-ada7-809a0bcb5c57","system_id":"levelo_inurba_marseille","lat":43.32835,"lon":5.36688,"is_reserved":false,"is_disabled":false,"rental_uris":{"android":"levelo://app?vid=8d4d4aba-3495-4235-ada7-809a0bcb5c57","ios":"levelo://app?vid=8d4d4aba-3495-4235-ada7-809a0bcb5c57"},"vehicle_type_id":"4","last_reported":1707851120,"current_range_meters":27200,"station_id":"ce4bhs92rcd13ifvqi0g","pricing_plan_id":"cebpf4jnsgd1na2vs0mg"},{"bike_id":"3325b1d2-585f-4cf2-9021-65f21551cc19","system_id":"levelo_inurba_marseille","lat":43.297163,"lon":5.365866,"is_reserved":false,"is_disabled":false,"rental_uris":{"android":"levelo://app?vid=3325b1d2-585f-4cf2-9021-65f21551cc19","ios":"levelo://app?vid=3325b1d2-585f-4cf2-9021-65f21551cc19"},"vehicle_type_id":"4","last_reported":1707851120,"current_range_meters":25200,"station_id":"ce4bgn12rcd13ifvqbt0","pricing_plan_id":"cebpf4jnsgd1na2vs0mg"},{"bike_id":"bebb1333-2837-440a-9c9b-d0f863982898","system_id":"levelo_inurba_marseille","lat":43.297163,"lon":5.365866,"is_reserved":false,"is_disabled":false,"rental_uris":{"android":"levelo://app?vid=bebb1333-2837-440a-9c9b-d0f863982898","ios":"levelo://app?vid=bebb1333-2837-440a-9c9b-d0f863982898"},"vehicle_type_id":"4","last_reported":1707851120,"current_range_meters":6400,"station_id":"ce4bgn12rcd13ifvqbt0","pricing_plan_id":"cebpf4jnsgd1na2vs0mg"},{"bike_id":"0435d52c-b7e7-462c-acda-8d7fa0c88b94","system_id":"levelo_inurba_marseille","lat":43.297057,"lon":5.366063,"is_reserved":false,"is_disabled":false,"rental_uris":{"android":"levelo://app?vid=0435d52c-b7e7-462c-acda-8d7fa0c88b94","ios":"levelo://app?vid=0435d52c-b7e7-462c-acda-8d7fa0c88b94"},"vehicle_type_id":"4","last_reported":1707851120,"current_range_meters":17600,"station_id":"ce4bgn12rcd13ifvqbt0","pricing_plan_id":"cebpf4jnsgd1na2vs0mg"},{"bike_id":"c4b5125b-06d0-4865-b239-c248f4688648","system_id":"levelo_inurba_marseille","lat":43.29841,"lon":5.3773,"is_reserved":false,"is_disabled":false,"rental_uris":{"android":"levelo://app?vid=c4b5125b-06d0-4865-b239-c248f4688648","ios":"levelo://app?vid=c4b5125b-06d0-4865-b239-c248f4688648"},"vehicle_type_id":"4","last_reported":1707851120,"current_range_meters":6800,"station_id":"","pricing_plan_id":"cebpf4jnsgd1na2vs0mg"},{"bike_id":"577ed64a-5b55-4203-a7d0-6960c380fd0d","system_id":"levelo_inurba_marseille","lat":43.2968,"lon":5.37291,"is_reserved":false,"is_disabled":false,"rental_uris":{"android":"levelo://app?vid=577ed64a-5b55-4203-a7d0-6960c380fd0d","ios":"levelo://app?vid=577ed64a-5b55-4203-a7d0-6960c380fd0d"},"vehicle_type_id":"4","last_reported":1707851120,"current_range_meters":17600,"station_id":"ce4bgk12rcd13ifvqbj0","pricing_plan_id":"cebpf4jnsgd1na2vs0mg"},{"bike_id":"2435e56d-e25d-449c-a36f-63f9f5a6b8a3","system_id":"levelo_inurba_marseille","lat":43.296129,"lon":5.370777,"is_reserved":false,"is_disabled":false,"rental_uris":{"android":"levelo://app?vid=2435e56d-e25d-449c-a36f-63f9f5a6b8a3","ios":"levelo://app?vid=2435e56d-e25d-449c-a36f-63f9f5a6b8a3"},"vehicle_type_id":"4","last_reported":1707851120,"current_range_meters":12800,"station_id":"ce4bgnh2rcd13ifvqc0g","pricing_plan_id":"cebpf4jnsgd1na2vs0mg"},{"bike_id":"671d730d-634a-4bf3-ad95-d681a709c0ab","system_id":"levelo_inurba_marseille","lat":43.296131,"lon":5.370791,"is_reserved":false,"is_disabled":false,"rental_uris":{"android":"levelo://app?vid=671d730d-634a-4bf3-ad95-d681a709c0ab","ios":"levelo://app?vid=671d730d-634a-4bf3-ad95-d681a709c0ab"},"vehicle_type_id":"4","last_reported":1707851120,"current_range_meters":11200,"station_id":"ce4bgnh2rcd13ifvqc0g","pricing_plan_id":"cebpf4jnsgd1na2vs0mg"},{"bike_id":"a3524ef9-d01b-4d05-a388-49758547fe16","system_id":"levelo_inurba_marseille","lat":43.296131,"lon":5.370791,"is_reserved":false,"is_disabled":false,"rental_uris":{"android":"levelo://app?vid=a3524ef9-d01b-4d05-a388-49758547fe16","ios":"levelo://app?vid=a3524ef9-d01b-4d05-a388-49758547fe16"},"vehicle_type_id":"4","last_reported":1707851120,"current_range_meters":4000,"station_id":"ce4bgnh2rcd13ifvqc0g","pricing_plan_id":"cebpf4jnsgd1na2vs0mg"},{"bike_id":"13d529fb-531e-420f-9ab3-afda36384712","system_id":"levelo_inurba_marseille","lat":43.299028,"lon":5.381509,"is_reserved":false,"is_disabled":false,"rental_uris":{"android":"levelo://app?vid=13d529fb-531e-420f-9ab3-afda36384712","ios":"levelo://app?vid=13d529fb-531e-420f-9ab3-afda36384712"},"vehicle_type_id":"4","last_reported":1707851120,"current_range_meters":2000,"station_id":"ce4bgj12rcd13ifvqbc0","pricing_plan_id":"cebpf4jnsgd1na2vs0mg"},{"bike_id":"043831fb-3eb8-4db2-82b1-97397d11ac7c","system_id":"levelo_inurba_marseille","lat":43.299028,"lon":5.381509,"is_reserved":false,"is_disabled":false,"rental_uris":{"android":"levelo://app?vid=043831fb-3eb8-4db2-82b1-97397d11ac7c","ios":"levelo://app?vid=043831fb-3eb8-4db2-82b1-97397d11ac7c"},"vehicle_type_id":"4","last_reported":1707851120,"current_range_meters":24400,"station_id":"ce4bgj12rcd13ifvqbc0","pricing_plan_id":"cebpf4jnsgd1na2vs0mg"},{"bike_id":"0d568f49-9e25-417a-91e9-babe78949eca","system_id":"levelo_inurba_marseille","lat":43.317557,"lon":5.390173,"is_reserved":false,"is_disabled":false,"rental_uris":{"android":"levelo://app?vid=0d568f49-9e25-417a-91e9-babe78949eca","ios":"levelo://app?vid=0d568f49-9e25-417a-91e9-babe78949eca"},"vehicle_type_id":"4","last_reported":1707851120,"current_range_meters":30400,"station_id":"ce4bhqp2rcd13ifvqhng","pricing_plan_id":"cebpf4jnsgd1na2vs0mg"},{"bike_id":"13db1a0a-84c8-4ba0-87f6-9800285e27fa","system_id":"levelo_inurba_marseille","lat":43.317557,"lon":5.390173,"is_reserved":false,"is_disabled":false,"rental_uris":{"android":"levelo://app?vid=13db1a0a-84c8-4ba0-87f6-9800285e27fa","ios":"levelo://app?vid=13db1a0a-84c8-4ba0-87f6-9800285e27fa"},"vehicle_type_id":"4","last_reported":1707851120,"current_range_meters":20000,"station_id":"ce4bhqp2rcd13ifvqhng","pricing_plan_id":"cebpf4jnsgd1na2vs0mg"},{"bike_id":"46fddee0-8afd-4938-8611-aae2e5c099d9","system_id":"levelo_inurba_marseille","lat":43.317557,"lon":5.390173,"is_reserved":false,"is_disabled":false,"rental_uris":{"android":"levelo://app?vid=46fddee0-8afd-4938-8611-aae2e5c099d9","ios":"levelo://app?vid=46fddee0-8afd-4938-8611-aae2e5c099d9"},"vehicle_type_id":"4","last_reported":1707851120,"current_range_meters":29600,"station_id":"ce4bhqp2rcd13ifvqhng","pricing_plan_id":"cebpf4jnsgd1na2vs0mg"},{"bike_id":"9310559c-22d3-4744-8b16-cacb48dba489","system_id":"levelo_inurba_marseille","lat":43.317557,"lon":5.390173,"is_reserved":false,"is_disabled":false,"rental_uris":{"android":"levelo://app?vid=9310559c-22d3-4744-8b16-cacb48dba489","ios":"levelo://app?vid=9310559c-22d3-4744-8b16-cacb48dba489"},"vehicle_type_id":"4","last_reported":1707851120,"current_range_meters":31600,"station_id":"ce4bhqp2rcd13ifvqhng","pricing_plan_id":"cebpf4jnsgd1na2vs0mg"},{"bike_id":"56248476-4f8c-46b8-bc3b-371e42bea68f","system_id":"levelo_inurba_marseille","lat":43.31758,"lon":5.39018,"is_reserved":false,"is_disabled":false,"rental_uris":{"android":"levelo://app?vid=56248476-4f8c-46b8-bc3b-371e42bea68f","ios":"levelo://app?vid=56248476-4f8c-46b8-bc3b-371e42bea68f"},"vehicle_type_id":"4","last_reported":1707851120,"current_range_meters":31200,"station_id":"ce4bhqp2rcd13ifvqhng","pricing_plan_id":"cebpf4jnsgd1na2vs0mg"},{"bike_id":"a49498e4-76a2-4a02-ae1f-68c796c15f59","system_id":"levelo_inurba_marseille","lat":43.31752,"lon":5.39024,"is_reserved":false,"is_disabled":false,"rental_uris":{"android":"levelo://app?vid=a49498e4-76a2-4a02-ae1f-68c796c15f59","ios":"levelo://app?vid=a49498e4-76a2-4a02-ae1f-68c796c15f59"},"vehicle_type_id":"4","last_reported":1707851120,"current_range_meters":1600,"station_id":"ce4bhqp2rcd13ifvqhng","pricing_plan_id":"cebpf4jnsgd1na2vs0mg"},{"bike_id":"3a8256a7-5c98-4e7e-8621-8a921558ea8d","system_id":"levelo_inurba_marseille","lat":43.317557,"lon":5.390231,"is_reserved":false,"is_disabled":false,"rental_uris":{"android":"levelo://app?vid=3a8256a7-5c98-4e7e-8621-8a921558ea8d","ios":"levelo://app?vid=3a8256a7-5c98-4e7e-8621-8a921558ea8d"},"vehicle_type_id":"4","last_reported":1707851120,"current_range_meters":31200,"station_id":"ce4bhqp2rcd13ifvqhng","pricing_plan_id":"cebpf4jnsgd1na2vs0mg"},{"bike_id":"095b561f-b67d-4dfc-8b7b-24904c0d74fe","system_id":"levelo_inurba_marseille","lat":43.31759,"lon":5.39022,"is_reserved":false,"is_disabled":false,"rental_uris":{"android":"levelo://app?vid=095b561f-b67d-4dfc-8b7b-24904c0d74fe","ios":"levelo://app?vid=095b561f-b67d-4dfc-8b7b-24904c0d74fe"},"vehicle_type_id":"4","last_reported":1707851120,"current_range_meters":22800,"station_id":"ce4bhqp2rcd13ifvqhng","pricing_plan_id":"cebpf4jnsgd1na2vs0mg"},{"bike_id":"6bbdbcf9-8545-4c1a-866f-b1aacd2086cc","system_id":"levelo_inurba_marseille","lat":43.317557,"lon":5.390173,"is_reserved":false,"is_disabled":false,"rental_uris":{"android":"levelo://app?vid=6bbdbcf9-8545-4c1a-866f-b1aacd2086cc","ios":"levelo://app?vid=6bbdbcf9-8545-4c1a-866f-b1aacd2086cc"},"vehicle_type_id":"4","last_reported":1707851120,"current_range_meters":22000,"station_id":"ce4bhqp2rcd13ifvqhng","pricing_plan_id":"cebpf4jnsgd1na2vs0mg"},{"bike_id":"a66fec16-5c26-4073-bc2a-b4cafe2573db","system_id":"levelo_inurba_marseille","lat":43.2975,"lon":5.37929,"is_reserved":false,"is_disabled":false,"rental_uris":{"android":"levelo://app?vid=a66fec16-5c26-4073-bc2a-b4cafe2573db","ios":"levelo://app?vid=a66fec16-5c26-4073-bc2a-b4cafe2573db"},"vehicle_type_id":"4","last_reported":1707851120,"current_range_meters":4000,"station_id":"","pricing_plan_id":"cebpf4jnsgd1na2vs0mg"},{"bike_id":"85ac76be-0762-49ae-bc2a-be3c4b9a8d06","system_id":"levelo_inurba_marseille","lat":43.304274,"lon":5.388873,"is_reserved":false,"is_disabled":false,"rental_uris":{"android":"levelo://app?vid=85ac76be-0762-49ae-bc2a-be3c4b9a8d06","ios":"levelo://app?vid=85ac76be-0762-49ae-bc2a-be3c4b9a8d06"},"vehicle_type_id":"4","last_reported":1707851120,"current_range_meters":11600,"station_id":"ce4bgk12rcd13ifvqbi0","pricing_plan_id":"cebpf4jnsgd1na2vs0mg"},{"bike_id":"87dca717-0ccb-4731-8b48-48db74325e38","system_id":"levelo_inurba_marseille","lat":43.298037,"lon":5.381066,"is_reserved":false,"is_disabled":false,"rental_uris":{"android":"levelo://app?vid=87dca717-0ccb-4731-8b48-48db74325e38","ios":"levelo://app?vid=87dca717-0ccb-4731-8b48-48db74325e38"},"vehicle_type_id":"4","last_reported":1707851120,"current_range_meters":31600,"station_id":"ce4bgip2rcd13ifvqbb0","pricing_plan_id":"cebpf4jnsgd1na2vs0mg"},{"bike_id":"cfbbf573-b4f8-4883-baf0-ceacbdeda221","system_id":"levelo_inurba_marseille","lat":43.29798,"lon":5.380935,"is_reserved":false,"is_disabled":false,"rental_uris":{"android":"levelo://app?vid=cfbbf573-b4f8-4883-baf0-ceacbdeda221","ios":"levelo://app?vid=cfbbf573-b4f8-4883-baf0-ceacbdeda221"},"vehicle_type_id":"4","last_reported":1707851120,"current_range_meters":14000,"station_id":"ce4bgip2rcd13ifvqbb0","pricing_plan_id":"cebpf4jnsgd1na2vs0mg"},{"bike_id":"94c94743-0fde-4ff3-8afa-70922bdde9bc","system_id":"levelo_inurba_marseille","lat":43.295718,"lon":5.375172,"is_reserved":false,"is_disabled":false,"rental_uris":{"android":"levelo://app?vid=94c94743-0fde-4ff3-8afa-70922bdde9bc","ios":"levelo://app?vid=94c94743-0fde-4ff3-8afa-70922bdde9bc"},"vehicle_type_id":"4","last_reported":1707851120,"current_range_meters":0,"station_id":"ce4bgh92rcd13ifvqb50","pricing_plan_id":"cebpf4jnsgd1na2vs0mg"},{"bike_id":"65d14d58-0ae1-449f-89c7-5a29bffa1681","system_id":"levelo_inurba_marseille","lat":43.295279,"lon":5.375048,"is_reserved":false,"is_disabled":false,"rental_uris":{"android":"levelo://app?vid=65d14d58-0ae1-449f-89c7-5a29bffa1681","ios":"levelo://app?vid=65d14d58-0ae1-449f-89c7-5a29bffa1681"},"vehicle_type_id":"4","last_reported":1707851120,"current_range_meters":3200,"station_id":"ce4bgkp2rcd13ifvqbmg","pricing_plan_id":"cebpf4jnsgd1na2vs0mg"},{"bike_id":"e4ed8f0c-2c44-4d3a-b202-ad62ace0f088","system_id":"levelo_inurba_marseille","lat":43.304274,"lon":5.388873,"is_reserved":false,"is_disabled":false,"rental_uris":{"android":"levelo://app?vid=e4ed8f0c-2c44-4d3a-b202-ad62ace0f088","ios":"levelo://app?vid=e4ed8f0c-2c44-4d3a-b202-ad62ace0f088"},"vehicle_type_id":"4","last_reported":1707851120,"current_range_meters":13200,"station_id":"ce4bgk12rcd13ifvqbi0","pricing_plan_id":"cebpf4jnsgd1na2vs0mg"},{"bike_id":"669ad198-505d-4954-8b13-b43b6a12f87d","system_id":"levelo_inurba_marseille","lat":43.304274,"lon":5.388873,"is_reserved":false,"is_disabled":false,"rental_uris":{"android":"levelo://app?vid=669ad198-505d-4954-8b13-b43b6a12f87d","ios":"levelo://app?vid=669ad198-505d-4954-8b13-b43b6a12f87d"},"vehicle_type_id":"4","last_reported":1707851120,"current_range_meters":16000,"station_id":"ce4bgk12rcd13ifvqbi0","pricing_plan_id":"cebpf4jnsgd1na2vs0mg"},{"bike_id":"d8a6393d-bcec-421b-81d0-b6efc831eda8","system_id":"levelo_inurba_marseille","lat":43.304278,"lon":5.388868,"is_reserved":false,"is_disabled":false,"rental_uris":{"android":"levelo://app?vid=d8a6393d-bcec-421b-81d0-b6efc831eda8","ios":"levelo://app?vid=d8a6393d-bcec-421b-81d0-b6efc831eda8"},"vehicle_type_id":"4","last_reported":1707851120,"current_range_meters":22800,"station_id":"ce4bgk12rcd13ifvqbi0","pricing_plan_id":"cebpf4jnsgd1na2vs0mg"},{"bike_id":"b1e8ccbf-c188-4947-bc25-f8729ea27cea","system_id":"levelo_inurba_marseille","lat":43.304274,"lon":5.388873,"is_reserved":false,"is_disabled":false,"rental_uris":{"android":"levelo://app?vid=b1e8ccbf-c188-4947-bc25-f8729ea27cea","ios":"levelo://app?vid=b1e8ccbf-c188-4947-bc25-f8729ea27cea"},"vehicle_type_id":"4","last_reported":1707851120,"current_range_meters":6800,"station_id":"ce4bgk12rcd13ifvqbi0","pricing_plan_id":"cebpf4jnsgd1na2vs0mg"},{"bike_id":"14c92331-196a-4b12-b42e-830d325c0574","system_id":"levelo_inurba_marseille","lat":43.29567,"lon":5.37529,"is_reserved":false,"is_disabled":false,"rental_uris":{"android":"levelo://app?vid=14c92331-196a-4b12-b42e-830d325c0574","ios":"levelo://app?vid=14c92331-196a-4b12-b42e-830d325c0574"},"vehicle_type_id":"4","last_reported":1707851120,"current_range_meters":0,"station_id":"ce4bgh92rcd13ifvqb50","pricing_plan_id":"cebpf4jnsgd1na2vs0mg"},{"bike_id":"88dcc8fa-eda2-406e-8daa-4a86ad32696c","system_id":"levelo_inurba_marseille","lat":43.29615,"lon":5.37724,"is_reserved":false,"is_disabled":false,"rental_uris":{"android":"levelo://app?vid=88dcc8fa-eda2-406e-8daa-4a86ad32696c","ios":"levelo://app?vid=88dcc8fa-eda2-406e-8daa-4a86ad32696c"},"vehicle_type_id":"4","last_reported":1707851120,"current_range_meters":22800,"station_id":"ce4bgi92rcd13ifvqb90","pricing_plan_id":"cebpf4jnsgd1na2vs0mg"},{"bike_id":"e991a3b6-8903-4749-91af-45add698466e","system_id":"levelo_inurba_marseille","lat":43.295279,"lon":5.375048,"is_reserved":false,"is_disabled":false,"rental_uris":{"android":"levelo://app?vid=e991a3b6-8903-4749-91af-45add698466e","ios":"levelo://app?vid=e991a3b6-8903-4749-91af-45add698466e"},"vehicle_type_id":"4","last_reported":1707851120,"current_range_meters":20000,"station_id":"ce4bgkp2rcd13ifvqbmg","pricing_plan_id":"cebpf4jnsgd1na2vs0mg"},{"bike_id":"705da99b-eb32-4593-9ce5-3afb7f6b914a","system_id":"levelo_inurba_marseille","lat":43.296116,"lon":5.377226,"is_reserved":false,"is_disabled":false,"rental_uris":{"android":"levelo://app?vid=705da99b-eb32-4593-9ce5-3afb7f6b914a","ios":"levelo://app?vid=705da99b-eb32-4593-9ce5-3afb7f6b914a"},"vehicle_type_id":"4","last_reported":1707851120,"current_range_meters":0,"station_id":"ce4bgi92rcd13ifvqb90","pricing_plan_id":"cebpf4jnsgd1na2vs0mg"},{"bike_id":"c398132f-40d7-47b7-8023-fb9cd006a73e","system_id":"levelo_inurba_marseille","lat":43.295279,"lon":5.375048,"is_reserved":false,"is_disabled":false,"rental_uris":{"android":"levelo://app?vid=c398132f-40d7-47b7-8023-fb9cd006a73e","ios":"levelo://app?vid=c398132f-40d7-47b7-8023-fb9cd006a73e"},"vehicle_type_id":"4","last_reported":1707851120,"current_range_meters":1200,"station_id":"ce4bgkp2rcd13ifvqbmg","pricing_plan_id":"cebpf4jnsgd1na2vs0mg"},{"bike_id":"2e2230d3-6077-4021-b510-dbc7aed16211","system_id":"levelo_inurba_marseille","lat":43.295279,"lon":5.375048,"is_reserved":false,"is_disabled":false,"rental_uris":{"android":"levelo://app?vid=2e2230d3-6077-4021-b510-dbc7aed16211","ios":"levelo://app?vid=2e2230d3-6077-4021-b510-dbc7aed16211"},"vehicle_type_id":"4","last_reported":1707851120,"current_range_meters":11600,"station_id":"ce4bgkp2rcd13ifvqbmg","pricing_plan_id":"cebpf4jnsgd1na2vs0mg"},{"bike_id":"44d21cf6-7730-4853-8b0f-9ec9dc43df45","system_id":"levelo_inurba_marseille","lat":43.29976,"lon":5.38492,"is_reserved":false,"is_disabled":false,"rental_uris":{"android":"levelo://app?vid=44d21cf6-7730-4853-8b0f-9ec9dc43df45","ios":"levelo://app?vid=44d21cf6-7730-4853-8b0f-9ec9dc43df45"},"vehicle_type_id":"4","last_reported":1707851120,"current_range_meters":27200,"station_id":"ce4bgj92rcd13ifvqbd0","pricing_plan_id":"cebpf4jnsgd1na2vs0mg"},{"bike_id":"1395f86a-03f7-4003-b15a-ee9a200b45d0","system_id":"levelo_inurba_marseille","lat":43.299717,"lon":5.384845,"is_reserved":false,"is_disabled":false,"rental_uris":{"android":"levelo://app?vid=1395f86a-03f7-4003-b15a-ee9a200b45d0","ios":"levelo://app?vid=1395f86a-03f7-4003-b15a-ee9a200b45d0"},"vehicle_type_id":"4","last_reported":1707851120,"current_range_meters":20400,"station_id":"ce4bgj92rcd13ifvqbd0","pricing_plan_id":"cebpf4jnsgd1na2vs0mg"},{"bike_id":"75431b05-36d9-4753-ad39-555cf8351be1","system_id":"levelo_inurba_marseille","lat":43.29979,"lon":5.38503,"is_reserved":false,"is_disabled":false,"rental_uris":{"android":"levelo://app?vid=75431b05-36d9-4753-ad39-555cf8351be1","ios":"levelo://app?vid=75431b05-36d9-4753-ad39-555cf8351be1"},"vehicle_type_id":"4","last_reported":1707851120,"current_range_meters":7600,"station_id":"ce4bgj92rcd13ifvqbd0","pricing_plan_id":"cebpf4jnsgd1na2vs0mg"},{"bike_id":"6bcaa1b7-3c66-4400-b0dc-ff1cf4da3875","system_id":"levelo_inurba_marseille","lat":43.299717,"lon":5.384845,"is_reserved":false,"is_disabled":false,"rental_uris":{"android":"levelo://app?vid=6bcaa1b7-3c66-4400-b0dc-ff1cf4da3875","ios":"levelo://app?vid=6bcaa1b7-3c66-4400-b0dc-ff1cf4da3875"},"vehicle_type_id":"4","last_reported":1707851120,"current_range_meters":4800,"station_id":"ce4bgj92rcd13ifvqbd0","pricing_plan_id":"cebpf4jnsgd1na2vs0mg"},{"bike_id":"6c69d610-454d-4d62-9b1c-04936ed6ee20","system_id":"levelo_inurba_marseille","lat":43.29967,"lon":5.38493,"is_reserved":false,"is_disabled":false,"rental_uris":{"android":"levelo://app?vid=6c69d610-454d-4d62-9b1c-04936ed6ee20","ios":"levelo://app?vid=6c69d610-454d-4d62-9b1c-04936ed6ee20"},"vehicle_type_id":"4","last_reported":1707851120,"current_range_meters":0,"station_id":"ce4bgj92rcd13ifvqbd0","pricing_plan_id":"cebpf4jnsgd1na2vs0mg"},{"bike_id":"567a38ac-36f5-4be0-b21d-a32db39615f8","system_id":"levelo_inurba_marseille","lat":43.299717,"lon":5.384845,"is_reserved":false,"is_disabled":false,"rental_uris":{"android":"levelo://app?vid=567a38ac-36f5-4be0-b21d-a32db39615f8","ios":"levelo://app?vid=567a38ac-36f5-4be0-b21d-a32db39615f8"},"vehicle_type_id":"4","last_reported":1707851120,"current_range_meters":14000,"station_id":"ce4bgj92rcd13ifvqbd0","pricing_plan_id":"cebpf4jnsgd1na2vs0mg"},{"bike_id":"717fae1b-74a7-49b2-b4c9-1f50976a1b71","system_id":"levelo_inurba_marseille","lat":43.32367,"lon":5.388836,"is_reserved":false,"is_disabled":false,"rental_uris":{"android":"levelo://app?vid=717fae1b-74a7-49b2-b4c9-1f50976a1b71","ios":"levelo://app?vid=717fae1b-74a7-49b2-b4c9-1f50976a1b71"},"vehicle_type_id":"4","last_reported":1707851120,"current_range_meters":21200,"station_id":"ce4bhqp2rcd13ifvqhog","pricing_plan_id":"cebpf4jnsgd1na2vs0mg"},{"bike_id":"0e0699ad-67da-434d-ada2-b82f05322f52","system_id":"levelo_inurba_marseille","lat":43.32368,"lon":5.38887,"is_reserved":false,"is_disabled":false,"rental_uris":{"android":"levelo://app?vid=0e0699ad-67da-434d-ada2-b82f05322f52","ios":"levelo://app?vid=0e0699ad-67da-434d-ada2-b82f05322f52"},"vehicle_type_id":"4","last_reported":1707851120,"current_range_meters":10800,"station_id":"ce4bhqp2rcd13ifvqhog","pricing_plan_id":"cebpf4jnsgd1na2vs0mg"},{"bike_id":"c814b3c0-3206-4333-9010-f90f4bcf60b7","system_id":"levelo_inurba_marseille","lat":43.32367,"lon":5.38889,"is_reserved":false,"is_disabled":false,"rental_uris":{"android":"levelo://app?vid=c814b3c0-3206-4333-9010-f90f4bcf60b7","ios":"levelo://app?vid=c814b3c0-3206-4333-9010-f90f4bcf60b7"},"vehicle_type_id":"4","last_reported":1707851120,"current_range_meters":26000,"station_id":"ce4bhqp2rcd13ifvqhog","pricing_plan_id":"cebpf4jnsgd1na2vs0mg"},{"bike_id":"dda016c9-25a8-4e98-89c2-61cf41b68115","system_id":"levelo_inurba_marseille","lat":43.32368,"lon":5.38889,"is_reserved":false,"is_disabled":false,"rental_uris":{"android":"levelo://app?vid=dda016c9-25a8-4e98-89c2-61cf41b68115","ios":"levelo://app?vid=dda016c9-25a8-4e98-89c2-61cf41b68115"},"vehicle_type_id":"4","last_reported":1707851120,"current_range_meters":14400,"station_id":"ce4bhqp2rcd13ifvqhog","pricing_plan_id":"cebpf4jnsgd1na2vs0mg"},{"bike_id":"ce187b18-23b3-4ca2-9841-ceafc12fae0b","system_id":"levelo_inurba_marseille","lat":43.295994,"lon":5.381095,"is_reserved":false,"is_disabled":false,"rental_uris":{"android":"levelo://app?vid=ce187b18-23b3-4ca2-9841-ceafc12fae0b","ios":"levelo://app?vid=ce187b18-23b3-4ca2-9841-ceafc12fae0b"},"vehicle_type_id":"4","last_reported":1707851120,"current_range_meters":2400,"station_id":"","pricing_plan_id":"cebpf4jnsgd1na2vs0mg"},{"bike_id":"962a2672-753a-4167-9ccf-0e439c02e452","system_id":"levelo_inurba_marseille","lat":43.29601,"lon":5.381084,"is_reserved":false,"is_disabled":false,"rental_uris":{"android":"levelo://app?vid=962a2672-753a-4167-9ccf-0e439c02e452","ios":"levelo://app?vid=962a2672-753a-4167-9ccf-0e439c02e452"},"vehicle_type_id":"4","last_reported":1707851120,"current_range_meters":0,"station_id":"ce4bgl12rcd13ifvqbo0","pricing_plan_id":"cebpf4jnsgd1na2vs0mg"},{"bike_id":"657f5275-fbd7-4e7d-a0bb-467fbb08aead","system_id":"levelo_inurba_marseille","lat":43.292749,"lon":5.368402,"is_reserved":false,"is_disabled":false,"rental_uris":{"android":"levelo://app?vid=657f5275-fbd7-4e7d-a0bb-467fbb08aead","ios":"levelo://app?vid=657f5275-fbd7-4e7d-a0bb-467fbb08aead"},"vehicle_type_id":"4","last_reported":1707851120,"current_range_meters":2800,"station_id":"ce4bhbp2rcd13ifvqesg","pricing_plan_id":"cebpf4jnsgd1na2vs0mg"},{"bike_id":"d6b36867-62f4-4e8e-bf3e-e7fc58c70079","system_id":"levelo_inurba_marseille","lat":43.293259,"lon":5.371586,"is_reserved":false,"is_disabled":false,"rental_uris":{"android":"levelo://app?vid=d6b36867-62f4-4e8e-bf3e-e7fc58c70079","ios":"levelo://app?vid=d6b36867-62f4-4e8e-bf3e-e7fc58c70079"},"vehicle_type_id":"4","last_reported":1707851120,"current_range_meters":0,"station_id":"ce4bgh92rcd13ifvqb40","pricing_plan_id":"cebpf4jnsgd1na2vs0mg"},{"bike_id":"d9cfde08-72d0-4be2-bc71-80633255060a","system_id":"levelo_inurba_marseille","lat":43.292749,"lon":5.368402,"is_reserved":false,"is_disabled":false,"rental_uris":{"android":"levelo://app?vid=d9cfde08-72d0-4be2-bc71-80633255060a","ios":"levelo://app?vid=d9cfde08-72d0-4be2-bc71-80633255060a"},"vehicle_type_id":"4","last_reported":1707851120,"current_range_meters":21200,"station_id":"ce4bhbp2rcd13ifvqesg","pricing_plan_id":"cebpf4jnsgd1na2vs0mg"},{"bike_id":"5d69e9e9-d25c-4057-bef3-b90319ca515d","system_id":"levelo_inurba_marseille","lat":43.2927,"lon":5.36842,"is_reserved":false,"is_disabled":false,"rental_uris":{"android":"levelo://app?vid=5d69e9e9-d25c-4057-bef3-b90319ca515d","ios":"levelo://app?vid=5d69e9e9-d25c-4057-bef3-b90319ca515d"},"vehicle_type_id":"4","last_reported":1707851120,"current_range_meters":24800,"station_id":"ce4bhbp2rcd13ifvqesg","pricing_plan_id":"cebpf4jnsgd1na2vs0mg"},{"bike_id":"05b6e15b-940b-4bbe-bce3-af532a15d6d8","system_id":"levelo_inurba_marseille","lat":43.292749,"lon":5.368402,"is_reserved":false,"is_disabled":false,"rental_uris":{"android":"levelo://app?vid=05b6e15b-940b-4bbe-bce3-af532a15d6d8","ios":"levelo://app?vid=05b6e15b-940b-4bbe-bce3-af532a15d6d8"},"vehicle_type_id":"4","last_reported":1707851120,"current_range_meters":8000,"station_id":"ce4bhbp2rcd13ifvqesg","pricing_plan_id":"cebpf4jnsgd1na2vs0mg"},{"bike_id":"8ade2b94-0096-4227-863e-4315473baf92","system_id":"levelo_inurba_marseille","lat":43.293009,"lon":5.374584,"is_reserved":false,"is_disabled":false,"rental_uris":{"android":"levelo://app?vid=8ade2b94-0096-4227-863e-4315473baf92","ios":"levelo://app?vid=8ade2b94-0096-4227-863e-4315473baf92"},"vehicle_type_id":"4","last_reported":1707851120,"current_range_meters":2800,"station_id":"ce4bgi12rcd13ifvqb70","pricing_plan_id":"cebpf4jnsgd1na2vs0mg"},{"bike_id":"dafed823-2a13-4e36-9011-3a3ea52ad392","system_id":"levelo_inurba_marseille","lat":43.293009,"lon":5.374584,"is_reserved":false,"is_disabled":false,"rental_uris":{"android":"levelo://app?vid=dafed823-2a13-4e36-9011-3a3ea52ad392","ios":"levelo://app?vid=dafed823-2a13-4e36-9011-3a3ea52ad392"},"vehicle_type_id":"4","last_reported":1707851120,"current_range_meters":0,"station_id":"ce4bgi12rcd13ifvqb70","pricing_plan_id":"cebpf4jnsgd1na2vs0mg"},{"bike_id":"93f66e2b-d781-4a8d-ae9e-854843841ad0","system_id":"levelo_inurba_marseille","lat":43.293009,"lon":5.374584,"is_reserved":false,"is_disabled":false,"rental_uris":{"android":"levelo://app?vid=93f66e2b-d781-4a8d-ae9e-854843841ad0","ios":"levelo://app?vid=93f66e2b-d781-4a8d-ae9e-854843841ad0"},"vehicle_type_id":"4","last_reported":1707851120,"current_range_meters":0,"station_id":"ce4bgi12rcd13ifvqb70","pricing_plan_id":"cebpf4jnsgd1na2vs0mg"},{"bike_id":"398bdc21-5b3d-464d-82f6-a3a6ad6d42db","system_id":"levelo_inurba_marseille","lat":43.29298,"lon":5.37453,"is_reserved":false,"is_disabled":false,"rental_uris":{"android":"levelo://app?vid=398bdc21-5b3d-464d-82f6-a3a6ad6d42db","ios":"levelo://app?vid=398bdc21-5b3d-464d-82f6-a3a6ad6d42db"},"vehicle_type_id":"4","last_reported":1707851120,"current_range_meters":0,"station_id":"ce4bgi12rcd13ifvqb70","pricing_plan_id":"cebpf4jnsgd1na2vs0mg"},{"bike_id":"ab66f18c-c072-4db5-857e-9bcb75fb684e","system_id":"levelo_inurba_marseille","lat":43.29293,"lon":5.3745,"is_reserved":false,"is_disabled":false,"rental_uris":{"android":"levelo://app?vid=ab66f18c-c072-4db5-857e-9bcb75fb684e","ios":"levelo://app?vid=ab66f18c-c072-4db5-857e-9bcb75fb684e"},"vehicle_type_id":"4","last_reported":1707851120,"current_range_meters":0,"station_id":"ce4bgi12rcd13ifvqb70","pricing_plan_id":"cebpf4jnsgd1na2vs0mg"},{"bike_id":"6dd66214-c896-402d-9b87-add061b95e25","system_id":"levelo_inurba_marseille","lat":43.293009,"lon":5.374584,"is_reserved":false,"is_disabled":false,"rental_uris":{"android":"levelo://app?vid=6dd66214-c896-402d-9b87-add061b95e25","ios":"levelo://app?vid=6dd66214-c896-402d-9b87-add061b95e25"},"vehicle_type_id":"4","last_reported":1707851120,"current_range_meters":22400,"station_id":"ce4bgi12rcd13ifvqb70","pricing_plan_id":"cebpf4jnsgd1na2vs0mg"},{"bike_id":"74c0c762-2649-46e8-9b8d-a35ccabfcda6","system_id":"levelo_inurba_marseille","lat":43.29292,"lon":5.37451,"is_reserved":false,"is_disabled":false,"rental_uris":{"android":"levelo://app?vid=74c0c762-2649-46e8-9b8d-a35ccabfcda6","ios":"levelo://app?vid=74c0c762-2649-46e8-9b8d-a35ccabfcda6"},"vehicle_type_id":"4","last_reported":1707851120,"current_range_meters":8400,"station_id":"ce4bgi12rcd13ifvqb70","pricing_plan_id":"cebpf4jnsgd1na2vs0mg"},{"bike_id":"6b1b40eb-7df6-4e5f-b6b9-8345877823d9","system_id":"levelo_inurba_marseille","lat":43.305986,"lon":5.393646,"is_reserved":false,"is_disabled":false,"rental_uris":{"android":"levelo://app?vid=6b1b40eb-7df6-4e5f-b6b9-8345877823d9","ios":"levelo://app?vid=6b1b40eb-7df6-4e5f-b6b9-8345877823d9"},"vehicle_type_id":"4","last_reported":1707851120,"current_range_meters":4000,"station_id":"","pricing_plan_id":"cebpf4jnsgd1na2vs0mg"},{"bike_id":"abb8f992-5167-4b4b-8574-0869422cadf7","system_id":"levelo_inurba_marseille","lat":43.309038,"lon":5.396546,"is_reserved":false,"is_disabled":false,"rental_uris":{"android":"levelo://app?vid=abb8f992-5167-4b4b-8574-0869422cadf7","ios":"levelo://app?vid=abb8f992-5167-4b4b-8574-0869422cadf7"},"vehicle_type_id":"4","last_reported":1707851120,"current_range_meters":11200,"station_id":"ce4bh012rcd13ifvqcv0","pricing_plan_id":"cebpf4jnsgd1na2vs0mg"},{"bike_id":"c806a097-f073-45e1-9ca1-45ad0c13db89","system_id":"levelo_inurba_marseille","lat":43.300852,"lon":5.390859,"is_reserved":false,"is_disabled":false,"rental_uris":{"android":"levelo://app?vid=c806a097-f073-45e1-9ca1-45ad0c13db89","ios":"levelo://app?vid=c806a097-f073-45e1-9ca1-45ad0c13db89"},"vehicle_type_id":"4","last_reported":1707851120,"current_range_meters":16000,"station_id":"ce4bh192rcd13ifvqdb0","pricing_plan_id":"cebpf4jnsgd1na2vs0mg"},{"bike_id":"4020e973-cb69-40cd-b8bf-fafffc7abaf1","system_id":"levelo_inurba_marseille","lat":43.302992,"lon":5.392136,"is_reserved":false,"is_disabled":false,"rental_uris":{"android":"levelo://app?vid=4020e973-cb69-40cd-b8bf-fafffc7abaf1","ios":"levelo://app?vid=4020e973-cb69-40cd-b8bf-fafffc7abaf1"},"vehicle_type_id":"4","last_reported":1707851120,"current_range_meters":7600,"station_id":"ce4bgkh2rcd13ifvqbk0","pricing_plan_id":"cebpf4jnsgd1na2vs0mg"},{"bike_id":"b2a6917a-7586-4207-b285-47524e47cb8d","system_id":"levelo_inurba_marseille","lat":43.302992,"lon":5.392136,"is_reserved":false,"is_disabled":false,"rental_uris":{"android":"levelo://app?vid=b2a6917a-7586-4207-b285-47524e47cb8d","ios":"levelo://app?vid=b2a6917a-7586-4207-b285-47524e47cb8d"},"vehicle_type_id":"4","last_reported":1707851120,"current_range_meters":3200,"station_id":"ce4bgkh2rcd13ifvqbk0","pricing_plan_id":"cebpf4jnsgd1na2vs0mg"},{"bike_id":"308fdf24-b628-413f-ac53-db9a2b29ab51","system_id":"levelo_inurba_marseille","lat":43.292747,"lon":5.375158,"is_reserved":false,"is_disabled":false,"rental_uris":{"android":"levelo://app?vid=308fdf24-b628-413f-ac53-db9a2b29ab51","ios":"levelo://app?vid=308fdf24-b628-413f-ac53-db9a2b29ab51"},"vehicle_type_id":"4","last_reported":1707851120,"current_range_meters":0,"station_id":"ce4bgi12rcd13ifvqb70","pricing_plan_id":"cebpf4jnsgd1na2vs0mg"},{"bike_id":"f578cb75-45c3-4a62-84f2-eb477b4c1a60","system_id":"levelo_inurba_marseille","lat":43.302912,"lon":5.39224,"is_reserved":false,"is_disabled":false,"rental_uris":{"android":"levelo://app?vid=f578cb75-45c3-4a62-84f2-eb477b4c1a60","ios":"levelo://app?vid=f578cb75-45c3-4a62-84f2-eb477b4c1a60"},"vehicle_type_id":"4","last_reported":1707851120,"current_range_meters":21600,"station_id":"ce4bgkh2rcd13ifvqbk0","pricing_plan_id":"cebpf4jnsgd1na2vs0mg"},{"bike_id":"83688e26-a0f9-43b4-9974-f4f7abd1920a","system_id":"levelo_inurba_marseille","lat":43.29225,"lon":5.36068,"is_reserved":false,"is_disabled":false,"rental_uris":{"android":"levelo://app?vid=83688e26-a0f9-43b4-9974-f4f7abd1920a","ios":"levelo://app?vid=83688e26-a0f9-43b4-9974-f4f7abd1920a"},"vehicle_type_id":"4","last_reported":1707851120,"current_range_meters":31200,"station_id":"ce4bhbh2rcd13ifvqeqg","pricing_plan_id":"cebpf4jnsgd1na2vs0mg"},{"bike_id":"ff760cc2-b458-4560-a902-ee8fb30f8443","system_id":"levelo_inurba_marseille","lat":43.292215,"lon":5.360555,"is_reserved":false,"is_disabled":false,"rental_uris":{"android":"levelo://app?vid=ff760cc2-b458-4560-a902-ee8fb30f8443","ios":"levelo://app?vid=ff760cc2-b458-4560-a902-ee8fb30f8443"},"vehicle_type_id":"4","last_reported":1707851120,"current_range_meters":22400,"station_id":"ce4bhbh2rcd13ifvqeqg","pricing_plan_id":"cebpf4jnsgd1na2vs0mg"},{"bike_id":"372d89c2-66e3-4e2a-896d-dba4e185d653","system_id":"levelo_inurba_marseille","lat":43.292217,"lon":5.36053,"is_reserved":false,"is_disabled":false,"rental_uris":{"android":"levelo://app?vid=372d89c2-66e3-4e2a-896d-dba4e185d653","ios":"levelo://app?vid=372d89c2-66e3-4e2a-896d-dba4e185d653"},"vehicle_type_id":"4","last_reported":1707851120,"current_range_meters":21200,"station_id":"ce4bhbh2rcd13ifvqeqg","pricing_plan_id":"cebpf4jnsgd1na2vs0mg"},{"bike_id":"39e84b90-19be-4174-9b60-0d74c9fac8f9","system_id":"levelo_inurba_marseille","lat":43.300852,"lon":5.390859,"is_reserved":false,"is_disabled":false,"rental_uris":{"android":"levelo://app?vid=39e84b90-19be-4174-9b60-0d74c9fac8f9","ios":"levelo://app?vid=39e84b90-19be-4174-9b60-0d74c9fac8f9"},"vehicle_type_id":"4","last_reported":1707851120,"current_range_meters":30400,"station_id":"ce4bh192rcd13ifvqdb0","pricing_plan_id":"cebpf4jnsgd1na2vs0mg"},{"bike_id":"64aaa745-e794-4a90-9dd1-b3265d89bf3c","system_id":"levelo_inurba_marseille","lat":43.30085,"lon":5.390856,"is_reserved":false,"is_disabled":false,"rental_uris":{"android":"levelo://app?vid=64aaa745-e794-4a90-9dd1-b3265d89bf3c","ios":"levelo://app?vid=64aaa745-e794-4a90-9dd1-b3265d89bf3c"},"vehicle_type_id":"4","last_reported":1707851120,"current_range_meters":9200,"station_id":"ce4bh192rcd13ifvqdb0","pricing_plan_id":"cebpf4jnsgd1na2vs0mg"},{"bike_id":"59ba627c-45f6-4744-8aba-4451f210e680","system_id":"levelo_inurba_marseille","lat":43.298764,"lon":5.388973,"is_reserved":false,"is_disabled":false,"rental_uris":{"android":"levelo://app?vid=59ba627c-45f6-4744-8aba-4451f210e680","ios":"levelo://app?vid=59ba627c-45f6-4744-8aba-4451f210e680"},"vehicle_type_id":"4","last_reported":1707851120,"current_range_meters":10800,"station_id":"ce4bh392rcd13ifvqdl0","pricing_plan_id":"cebpf4jnsgd1na2vs0mg"},{"bike_id":"3aa21617-ca2e-4a73-8145-77a07f5c8123","system_id":"levelo_inurba_marseille","lat":43.298764,"lon":5.388973,"is_reserved":false,"is_disabled":false,"rental_uris":{"android":"levelo://app?vid=3aa21617-ca2e-4a73-8145-77a07f5c8123","ios":"levelo://app?vid=3aa21617-ca2e-4a73-8145-77a07f5c8123"},"vehicle_type_id":"4","last_reported":1707851120,"current_range_meters":6400,"station_id":"ce4bh392rcd13ifvqdl0","pricing_plan_id":"cebpf4jnsgd1na2vs0mg"},{"bike_id":"49b6b8e3-7804-4f70-8b44-6667a37e802e","system_id":"levelo_inurba_marseille","lat":43.298764,"lon":5.388973,"is_reserved":false,"is_disabled":false,"rental_uris":{"android":"levelo://app?vid=49b6b8e3-7804-4f70-8b44-6667a37e802e","ios":"levelo://app?vid=49b6b8e3-7804-4f70-8b44-6667a37e802e"},"vehicle_type_id":"4","last_reported":1707851120,"current_range_meters":25200,"station_id":"ce4bh392rcd13ifvqdl0","pricing_plan_id":"cebpf4jnsgd1na2vs0mg"},{"bike_id":"d6cd38b4-678b-4b08-94a2-c080fcf3634e","system_id":"levelo_inurba_marseille","lat":43.29195,"lon":5.35804,"is_reserved":false,"is_disabled":false,"rental_uris":{"android":"levelo://app?vid=d6cd38b4-678b-4b08-94a2-c080fcf3634e","ios":"levelo://app?vid=d6cd38b4-678b-4b08-94a2-c080fcf3634e"},"vehicle_type_id":"4","last_reported":1707851120,"current_range_meters":30000,"station_id":"ce4bhb12rcd13ifvqel0","pricing_plan_id":"cebpf4jnsgd1na2vs0mg"},{"bike_id":"9c229404-84ad-4b13-a885-0acc2e42a3f0","system_id":"levelo_inurba_marseille","lat":43.313291,"lon":5.396838,"is_reserved":false,"is_disabled":false,"rental_uris":{"android":"levelo://app?vid=9c229404-84ad-4b13-a885-0acc2e42a3f0","ios":"levelo://app?vid=9c229404-84ad-4b13-a885-0acc2e42a3f0"},"vehicle_type_id":"4","last_reported":1707851120,"current_range_meters":30000,"station_id":"ce4bgvp2rcd13ifvqcu0","pricing_plan_id":"cebpf4jnsgd1na2vs0mg"},{"bike_id":"ff12b37a-01e9-4ebb-9529-c08ed21a796f","system_id":"levelo_inurba_marseille","lat":43.309038,"lon":5.396546,"is_reserved":false,"is_disabled":false,"rental_uris":{"android":"levelo://app?vid=ff12b37a-01e9-4ebb-9529-c08ed21a796f","ios":"levelo://app?vid=ff12b37a-01e9-4ebb-9529-c08ed21a796f"},"vehicle_type_id":"4","last_reported":1707851120,"current_range_meters":6800,"station_id":"ce4bh012rcd13ifvqcv0","pricing_plan_id":"cebpf4jnsgd1na2vs0mg"},{"bike_id":"96d5d210-2897-4318-9246-8eb6af5975cc","system_id":"levelo_inurba_marseille","lat":43.313291,"lon":5.396838,"is_reserved":false,"is_disabled":false,"rental_uris":{"android":"levelo://app?vid=96d5d210-2897-4318-9246-8eb6af5975cc","ios":"levelo://app?vid=96d5d210-2897-4318-9246-8eb6af5975cc"},"vehicle_type_id":"4","last_reported":1707851120,"current_range_meters":31200,"station_id":"ce4bgvp2rcd13ifvqcu0","pricing_plan_id":"cebpf4jnsgd1na2vs0mg"},{"bike_id":"e553c81c-593e-4c66-8ec8-9cdafcfbad23","system_id":"levelo_inurba_marseille","lat":43.309047,"lon":5.396551,"is_reserved":false,"is_disabled":false,"rental_uris":{"android":"levelo://app?vid=e553c81c-593e-4c66-8ec8-9cdafcfbad23","ios":"levelo://app?vid=e553c81c-593e-4c66-8ec8-9cdafcfbad23"},"vehicle_type_id":"4","last_reported":1707851120,"current_range_meters":21200,"station_id":"ce4bh012rcd13ifvqcv0","pricing_plan_id":"cebpf4jnsgd1na2vs0mg"},{"bike_id":"4a0b65b3-b31b-4db2-9e42-b5350cfb6a84","system_id":"levelo_inurba_marseille","lat":43.31321,"lon":5.39706,"is_reserved":false,"is_disabled":false,"rental_uris":{"android":"levelo://app?vid=4a0b65b3-b31b-4db2-9e42-b5350cfb6a84","ios":"levelo://app?vid=4a0b65b3-b31b-4db2-9e42-b5350cfb6a84"},"vehicle_type_id":"4","last_reported":1707851120,"current_range_meters":0,"station_id":"ce4bgvp2rcd13ifvqcu0","pricing_plan_id":"cebpf4jnsgd1na2vs0mg"},{"bike_id":"40d2783a-dc92-4ed3-81e4-d0b8ba9563bb","system_id":"levelo_inurba_marseille","lat":43.309047,"lon":5.396551,"is_reserved":false,"is_disabled":false,"rental_uris":{"android":"levelo://app?vid=40d2783a-dc92-4ed3-81e4-d0b8ba9563bb","ios":"levelo://app?vid=40d2783a-dc92-4ed3-81e4-d0b8ba9563bb"},"vehicle_type_id":"4","last_reported":1707851120,"current_range_meters":11200,"station_id":"ce4bh012rcd13ifvqcv0","pricing_plan_id":"cebpf4jnsgd1na2vs0mg"},{"bike_id":"61bddf63-0bc1-4efd-a5d5-f8d40970a19d","system_id":"levelo_inurba_marseille","lat":43.309047,"lon":5.396551,"is_reserved":false,"is_disabled":false,"rental_uris":{"android":"levelo://app?vid=61bddf63-0bc1-4efd-a5d5-f8d40970a19d","ios":"levelo://app?vid=61bddf63-0bc1-4efd-a5d5-f8d40970a19d"},"vehicle_type_id":"4","last_reported":1707851120,"current_range_meters":4400,"station_id":"ce4bh012rcd13ifvqcv0","pricing_plan_id":"cebpf4jnsgd1na2vs0mg"},{"bike_id":"7d6fcf7a-276f-40f4-84ac-f439a1e91ebe","system_id":"levelo_inurba_marseille","lat":43.309038,"lon":5.396546,"is_reserved":false,"is_disabled":false,"rental_uris":{"android":"levelo://app?vid=7d6fcf7a-276f-40f4-84ac-f439a1e91ebe","ios":"levelo://app?vid=7d6fcf7a-276f-40f4-84ac-f439a1e91ebe"},"vehicle_type_id":"4","last_reported":1707851120,"current_range_meters":12800,"station_id":"ce4bh012rcd13ifvqcv0","pricing_plan_id":"cebpf4jnsgd1na2vs0mg"},{"bike_id":"1ac10612-40ce-4c5a-a4a4-e21b3d0ea078","system_id":"levelo_inurba_marseille","lat":43.29529,"lon":5.385581,"is_reserved":false,"is_disabled":false,"rental_uris":{"android":"levelo://app?vid=1ac10612-40ce-4c5a-a4a4-e21b3d0ea078","ios":"levelo://app?vid=1ac10612-40ce-4c5a-a4a4-e21b3d0ea078"},"vehicle_type_id":"4","last_reported":1707851120,"current_range_meters":30400,"station_id":"ce4bgih2rcd13ifvqba0","pricing_plan_id":"cebpf4jnsgd1na2vs0mg"},{"bike_id":"9e14daf6-23c4-4cbe-b531-54d1be734b48","system_id":"levelo_inurba_marseille","lat":43.295328,"lon":5.385522,"is_reserved":false,"is_disabled":false,"rental_uris":{"android":"levelo://app?vid=9e14daf6-23c4-4cbe-b531-54d1be734b48","ios":"levelo://app?vid=9e14daf6-23c4-4cbe-b531-54d1be734b48"},"vehicle_type_id":"4","last_reported":1707851120,"current_range_meters":7600,"station_id":"ce4bgih2rcd13ifvqba0","pricing_plan_id":"cebpf4jnsgd1na2vs0mg"},{"bike_id":"e52978b1-b5b5-4bee-b203-82282179c309","system_id":"levelo_inurba_marseille","lat":43.295319,"lon":5.385531,"is_reserved":false,"is_disabled":false,"rental_uris":{"android":"levelo://app?vid=e52978b1-b5b5-4bee-b203-82282179c309","ios":"levelo://app?vid=e52978b1-b5b5-4bee-b203-82282179c309"},"vehicle_type_id":"4","last_reported":1707851120,"current_range_meters":2800,"station_id":"ce4bgih2rcd13ifvqba0","pricing_plan_id":"cebpf4jnsgd1na2vs0mg"},{"bike_id":"fd6be89c-483e-4209-a911-e8f15bd87e70","system_id":"levelo_inurba_marseille","lat":43.29524,"lon":5.38546,"is_reserved":false,"is_disabled":false,"rental_uris":{"android":"levelo://app?vid=fd6be89c-483e-4209-a911-e8f15bd87e70","ios":"levelo://app?vid=fd6be89c-483e-4209-a911-e8f15bd87e70"},"vehicle_type_id":"4","last_reported":1707851120,"current_range_meters":12400,"station_id":"ce4bgih2rcd13ifvqba0","pricing_plan_id":"cebpf4jnsgd1na2vs0mg"},{"bike_id":"10bd03dc-dfd9-4330-8f46-14dd5a10d503","system_id":"levelo_inurba_marseille","lat":43.29529,"lon":5.385581,"is_reserved":false,"is_disabled":false,"rental_uris":{"android":"levelo://app?vid=10bd03dc-dfd9-4330-8f46-14dd5a10d503","ios":"levelo://app?vid=10bd03dc-dfd9-4330-8f46-14dd5a10d503"},"vehicle_type_id":"4","last_reported":1707851120,"current_range_meters":18400,"station_id":"ce4bgih2rcd13ifvqba0","pricing_plan_id":"cebpf4jnsgd1na2vs0mg"},{"bike_id":"8a8c88aa-f46d-4801-a241-5d24553bb37b","system_id":"levelo_inurba_marseille","lat":43.294553,"lon":5.385151,"is_reserved":false,"is_disabled":false,"rental_uris":{"android":"levelo://app?vid=8a8c88aa-f46d-4801-a241-5d24553bb37b","ios":"levelo://app?vid=8a8c88aa-f46d-4801-a241-5d24553bb37b"},"vehicle_type_id":"4","last_reported":1707851120,"current_range_meters":0,"station_id":"ce4bh2h2rcd13ifvqdh0","pricing_plan_id":"cebpf4jnsgd1na2vs0mg"},{"bike_id":"e565b7ec-ccfa-4dad-9072-1432eadbda73","system_id":"levelo_inurba_marseille","lat":43.3021,"lon":5.39461,"is_reserved":false,"is_disabled":false,"rental_uris":{"android":"levelo://app?vid=e565b7ec-ccfa-4dad-9072-1432eadbda73","ios":"levelo://app?vid=e565b7ec-ccfa-4dad-9072-1432eadbda73"},"vehicle_type_id":"4","last_reported":1707851120,"current_range_meters":0,"station_id":"ce4bh0p2rcd13ifvqd70","pricing_plan_id":"cebpf4jnsgd1na2vs0mg"},{"bike_id":"46e3d354-edef-462a-819f-7f8a063aeaf4","system_id":"levelo_inurba_marseille","lat":43.290624,"lon":5.359245,"is_reserved":false,"is_disabled":false,"rental_uris":{"android":"levelo://app?vid=46e3d354-edef-462a-819f-7f8a063aeaf4","ios":"levelo://app?vid=46e3d354-edef-462a-819f-7f8a063aeaf4"},"vehicle_type_id":"4","last_reported":1707851120,"current_range_meters":21200,"station_id":"ce4bha92rcd13ifvqeg0","pricing_plan_id":"cebpf4jnsgd1na2vs0mg"},{"bike_id":"18bd592a-c942-4d0e-b4da-950369ab2aef","system_id":"levelo_inurba_marseille","lat":43.290631,"lon":5.359244,"is_reserved":false,"is_disabled":false,"rental_uris":{"android":"levelo://app?vid=18bd592a-c942-4d0e-b4da-950369ab2aef","ios":"levelo://app?vid=18bd592a-c942-4d0e-b4da-950369ab2aef"},"vehicle_type_id":"4","last_reported":1707851120,"current_range_meters":30400,"station_id":"ce4bha92rcd13ifvqeg0","pricing_plan_id":"cebpf4jnsgd1na2vs0mg"},{"bike_id":"c23ce342-4001-4eb0-8809-23a4816b0dd7","system_id":"levelo_inurba_marseille","lat":43.290624,"lon":5.359245,"is_reserved":false,"is_disabled":false,"rental_uris":{"android":"levelo://app?vid=c23ce342-4001-4eb0-8809-23a4816b0dd7","ios":"levelo://app?vid=c23ce342-4001-4eb0-8809-23a4816b0dd7"},"vehicle_type_id":"4","last_reported":1707851120,"current_range_meters":13200,"station_id":"ce4bha92rcd13ifvqeg0","pricing_plan_id":"cebpf4jnsgd1na2vs0mg"},{"bike_id":"bb5b13e7-136a-4177-a497-54b122b46511","system_id":"levelo_inurba_marseille","lat":43.290336,"lon":5.359122,"is_reserved":false,"is_disabled":false,"rental_uris":{"android":"levelo://app?vid=bb5b13e7-136a-4177-a497-54b122b46511","ios":"levelo://app?vid=bb5b13e7-136a-4177-a497-54b122b46511"},"vehicle_type_id":"4","last_reported":1707851120,"current_range_meters":0,"station_id":"ce4bha92rcd13ifvqeg0","pricing_plan_id":"cebpf4jnsgd1na2vs0mg"},{"bike_id":"bc91bd6b-4256-4dff-b704-b5577d6c63aa","system_id":"levelo_inurba_marseille","lat":43.294153,"lon":5.386305,"is_reserved":false,"is_disabled":false,"rental_uris":{"android":"levelo://app?vid=bc91bd6b-4256-4dff-b704-b5577d6c63aa","ios":"levelo://app?vid=bc91bd6b-4256-4dff-b704-b5577d6c63aa"},"vehicle_type_id":"4","last_reported":1707851120,"current_range_meters":2400,"station_id":"ce4bh2h2rcd13ifvqdh0","pricing_plan_id":"cebpf4jnsgd1na2vs0mg"},{"bike_id":"46a51dbc-3b0e-4cc3-ae8e-d8e33cc4bb6f","system_id":"levelo_inurba_marseille","lat":43.294153,"lon":5.386305,"is_reserved":false,"is_disabled":false,"rental_uris":{"android":"levelo://app?vid=46a51dbc-3b0e-4cc3-ae8e-d8e33cc4bb6f","ios":"levelo://app?vid=46a51dbc-3b0e-4cc3-ae8e-d8e33cc4bb6f"},"vehicle_type_id":"4","last_reported":1707851120,"current_range_meters":24000,"station_id":"ce4bh2h2rcd13ifvqdh0","pricing_plan_id":"cebpf4jnsgd1na2vs0mg"},{"bike_id":"3a5826f4-538f-404d-8b5f-d3827baeda30","system_id":"levelo_inurba_marseille","lat":43.294153,"lon":5.386305,"is_reserved":false,"is_disabled":false,"rental_uris":{"android":"levelo://app?vid=3a5826f4-538f-404d-8b5f-d3827baeda30","ios":"levelo://app?vid=3a5826f4-538f-404d-8b5f-d3827baeda30"},"vehicle_type_id":"4","last_reported":1707851120,"current_range_meters":21200,"station_id":"ce4bh2h2rcd13ifvqdh0","pricing_plan_id":"cebpf4jnsgd1na2vs0mg"},{"bike_id":"216ec099-daf8-4ac5-9235-51ae990acc07","system_id":"levelo_inurba_marseille","lat":43.294153,"lon":5.386305,"is_reserved":false,"is_disabled":false,"rental_uris":{"android":"levelo://app?vid=216ec099-daf8-4ac5-9235-51ae990acc07","ios":"levelo://app?vid=216ec099-daf8-4ac5-9235-51ae990acc07"},"vehicle_type_id":"4","last_reported":1707851120,"current_range_meters":10800,"station_id":"ce4bh2h2rcd13ifvqdh0","pricing_plan_id":"cebpf4jnsgd1na2vs0mg"},{"bike_id":"f6824f04-9bce-446e-93af-5890a4995791","system_id":"levelo_inurba_marseille","lat":43.28948,"lon":5.36634,"is_reserved":false,"is_disabled":false,"rental_uris":{"android":"levelo://app?vid=f6824f04-9bce-446e-93af-5890a4995791","ios":"levelo://app?vid=f6824f04-9bce-446e-93af-5890a4995791"},"vehicle_type_id":"4","last_reported":1707851120,"current_range_meters":1600,"station_id":"","pricing_plan_id":"cebpf4jnsgd1na2vs0mg"},{"bike_id":"1ea52bd4-2749-4546-94cf-e4c564ee61d3","system_id":"levelo_inurba_marseille","lat":43.294153,"lon":5.386305,"is_reserved":false,"is_disabled":false,"rental_uris":{"android":"levelo://app?vid=1ea52bd4-2749-4546-94cf-e4c564ee61d3","ios":"levelo://app?vid=1ea52bd4-2749-4546-94cf-e4c564ee61d3"},"vehicle_type_id":"4","last_reported":1707851120,"current_range_meters":3600,"station_id":"ce4bh2h2rcd13ifvqdh0","pricing_plan_id":"cebpf4jnsgd1na2vs0mg"},{"bike_id":"610bba5d-73f3-49b7-be36-b7ffa0915ad2","system_id":"levelo_inurba_marseille","lat":43.29423,"lon":5.3863,"is_reserved":false,"is_disabled":false,"rental_uris":{"android":"levelo://app?vid=610bba5d-73f3-49b7-be36-b7ffa0915ad2","ios":"levelo://app?vid=610bba5d-73f3-49b7-be36-b7ffa0915ad2"},"vehicle_type_id":"4","last_reported":1707851120,"current_range_meters":22000,"station_id":"ce4bh2h2rcd13ifvqdh0","pricing_plan_id":"cebpf4jnsgd1na2vs0mg"},{"bike_id":"508a6d5c-c369-404e-8999-b97fea44d260","system_id":"levelo_inurba_marseille","lat":43.29424,"lon":5.386327,"is_reserved":false,"is_disabled":false,"rental_uris":{"android":"levelo://app?vid=508a6d5c-c369-404e-8999-b97fea44d260","ios":"levelo://app?vid=508a6d5c-c369-404e-8999-b97fea44d260"},"vehicle_type_id":"4","last_reported":1707851120,"current_range_meters":0,"station_id":"ce4bh2h2rcd13ifvqdh0","pricing_plan_id":"cebpf4jnsgd1na2vs0mg"},{"bike_id":"1c61f68c-7c91-472d-bdb8-d2354ed3ff7b","system_id":"levelo_inurba_marseille","lat":43.289184,"lon":5.366408,"is_reserved":false,"is_disabled":false,"rental_uris":{"android":"levelo://app?vid=1c61f68c-7c91-472d-bdb8-d2354ed3ff7b","ios":"levelo://app?vid=1c61f68c-7c91-472d-bdb8-d2354ed3ff7b"},"vehicle_type_id":"4","last_reported":1707851120,"current_range_meters":12000,"station_id":"ce4bhap2rcd13ifvqek0","pricing_plan_id":"cebpf4jnsgd1na2vs0mg"},{"bike_id":"4493b867-ac6f-4c78-8518-ac28c73c96c6","system_id":"levelo_inurba_marseille","lat":43.294153,"lon":5.386305,"is_reserved":false,"is_disabled":false,"rental_uris":{"android":"levelo://app?vid=4493b867-ac6f-4c78-8518-ac28c73c96c6","ios":"levelo://app?vid=4493b867-ac6f-4c78-8518-ac28c73c96c6"},"vehicle_type_id":"4","last_reported":1707851120,"current_range_meters":1600,"station_id":"ce4bh2h2rcd13ifvqdh0","pricing_plan_id":"cebpf4jnsgd1na2vs0mg"},{"bike_id":"b1dd5cab-1cdb-4364-b08b-6c1c40e248e0","system_id":"levelo_inurba_marseille","lat":43.289184,"lon":5.366408,"is_reserved":false,"is_disabled":false,"rental_uris":{"android":"levelo://app?vid=b1dd5cab-1cdb-4364-b08b-6c1c40e248e0","ios":"levelo://app?vid=b1dd5cab-1cdb-4364-b08b-6c1c40e248e0"},"vehicle_type_id":"4","last_reported":1707851120,"current_range_meters":7600,"station_id":"ce4bhap2rcd13ifvqek0","pricing_plan_id":"cebpf4jnsgd1na2vs0mg"},{"bike_id":"8a0960c4-2dc4-4e6d-b86a-280a45d40387","system_id":"levelo_inurba_marseille","lat":43.29421,"lon":5.38631,"is_reserved":false,"is_disabled":false,"rental_uris":{"android":"levelo://app?vid=8a0960c4-2dc4-4e6d-b86a-280a45d40387","ios":"levelo://app?vid=8a0960c4-2dc4-4e6d-b86a-280a45d40387"},"vehicle_type_id":"4","last_reported":1707851120,"current_range_meters":22400,"station_id":"ce4bh2h2rcd13ifvqdh0","pricing_plan_id":"cebpf4jnsgd1na2vs0mg"},{"bike_id":"e9ee4a0c-f5d4-4a0a-96c7-6a6e1c4d075b","system_id":"levelo_inurba_marseille","lat":43.2942,"lon":5.3863,"is_reserved":false,"is_disabled":false,"rental_uris":{"android":"levelo://app?vid=e9ee4a0c-f5d4-4a0a-96c7-6a6e1c4d075b","ios":"levelo://app?vid=e9ee4a0c-f5d4-4a0a-96c7-6a6e1c4d075b"},"vehicle_type_id":"4","last_reported":1707851120,"current_range_meters":0,"station_id":"ce4bh2h2rcd13ifvqdh0","pricing_plan_id":"cebpf4jnsgd1na2vs0mg"},{"bike_id":"bcd36c31-3d05-4c86-ae56-1c25f23893ea","system_id":"levelo_inurba_marseille","lat":43.29421,"lon":5.38632,"is_reserved":false,"is_disabled":false,"rental_uris":{"android":"levelo://app?vid=bcd36c31-3d05-4c86-ae56-1c25f23893ea","ios":"levelo://app?vid=bcd36c31-3d05-4c86-ae56-1c25f23893ea"},"vehicle_type_id":"4","last_reported":1707851120,"current_range_meters":19200,"station_id":"ce4bh2h2rcd13ifvqdh0","pricing_plan_id":"cebpf4jnsgd1na2vs0mg"},{"bike_id":"1545af12-6829-44fb-ac0b-6c9dd2c1ee62","system_id":"levelo_inurba_marseille","lat":43.294153,"lon":5.386305,"is_reserved":false,"is_disabled":false,"rental_uris":{"android":"levelo://app?vid=1545af12-6829-44fb-ac0b-6c9dd2c1ee62","ios":"levelo://app?vid=1545af12-6829-44fb-ac0b-6c9dd2c1ee62"},"vehicle_type_id":"4","last_reported":1707851120,"current_range_meters":8400,"station_id":"ce4bh2h2rcd13ifvqdh0","pricing_plan_id":"cebpf4jnsgd1na2vs0mg"},{"bike_id":"8a421552-91d7-425b-84a2-6a8cb404e1b4","system_id":"levelo_inurba_marseille","lat":43.294153,"lon":5.386305,"is_reserved":false,"is_disabled":false,"rental_uris":{"android":"levelo://app?vid=8a421552-91d7-425b-84a2-6a8cb404e1b4","ios":"levelo://app?vid=8a421552-91d7-425b-84a2-6a8cb404e1b4"},"vehicle_type_id":"4","last_reported":1707851120,"current_range_meters":14800,"station_id":"ce4bh2h2rcd13ifvqdh0","pricing_plan_id":"cebpf4jnsgd1na2vs0mg"},{"bike_id":"555bb9a8-6837-4be2-802b-001bc9bc2a0e","system_id":"levelo_inurba_marseille","lat":43.294153,"lon":5.386305,"is_reserved":false,"is_disabled":false,"rental_uris":{"android":"levelo://app?vid=555bb9a8-6837-4be2-802b-001bc9bc2a0e","ios":"levelo://app?vid=555bb9a8-6837-4be2-802b-001bc9bc2a0e"},"vehicle_type_id":"4","last_reported":1707851120,"current_range_meters":22800,"station_id":"ce4bh2h2rcd13ifvqdh0","pricing_plan_id":"cebpf4jnsgd1na2vs0mg"},{"bike_id":"fba8ea91-4ecc-4f93-a974-476b87311b90","system_id":"levelo_inurba_marseille","lat":43.294153,"lon":5.386305,"is_reserved":false,"is_disabled":false,"rental_uris":{"android":"levelo://app?vid=fba8ea91-4ecc-4f93-a974-476b87311b90","ios":"levelo://app?vid=fba8ea91-4ecc-4f93-a974-476b87311b90"},"vehicle_type_id":"4","last_reported":1707851120,"current_range_meters":10000,"station_id":"ce4bh2h2rcd13ifvqdh0","pricing_plan_id":"cebpf4jnsgd1na2vs0mg"},{"bike_id":"6e7f0d17-6d7f-476f-905a-66158a069e9b","system_id":"levelo_inurba_marseille","lat":43.29411,"lon":5.386245,"is_reserved":false,"is_disabled":false,"rental_uris":{"android":"levelo://app?vid=6e7f0d17-6d7f-476f-905a-66158a069e9b","ios":"levelo://app?vid=6e7f0d17-6d7f-476f-905a-66158a069e9b"},"vehicle_type_id":"4","last_reported":1707851120,"current_range_meters":2400,"station_id":"ce4bh2h2rcd13ifvqdh0","pricing_plan_id":"cebpf4jnsgd1na2vs0mg"},{"bike_id":"91a91e43-0434-41bb-be6e-fd93aa0e7f1a","system_id":"levelo_inurba_marseille","lat":43.289184,"lon":5.366408,"is_reserved":false,"is_disabled":false,"rental_uris":{"android":"levelo://app?vid=91a91e43-0434-41bb-be6e-fd93aa0e7f1a","ios":"levelo://app?vid=91a91e43-0434-41bb-be6e-fd93aa0e7f1a"},"vehicle_type_id":"4","last_reported":1707851120,"current_range_meters":9600,"station_id":"ce4bhap2rcd13ifvqek0","pricing_plan_id":"cebpf4jnsgd1na2vs0mg"},{"bike_id":"462cd33d-20a7-4953-84a1-e24988761b12","system_id":"levelo_inurba_marseille","lat":43.289184,"lon":5.366408,"is_reserved":false,"is_disabled":false,"rental_uris":{"android":"levelo://app?vid=462cd33d-20a7-4953-84a1-e24988761b12","ios":"levelo://app?vid=462cd33d-20a7-4953-84a1-e24988761b12"},"vehicle_type_id":"4","last_reported":1707851120,"current_range_meters":22400,"station_id":"ce4bhap2rcd13ifvqek0","pricing_plan_id":"cebpf4jnsgd1na2vs0mg"},{"bike_id":"1affff20-befd-4be3-9834-ca28c05e941f","system_id":"levelo_inurba_marseille","lat":43.29415,"lon":5.38639,"is_reserved":false,"is_disabled":false,"rental_uris":{"android":"levelo://app?vid=1affff20-befd-4be3-9834-ca28c05e941f","ios":"levelo://app?vid=1affff20-befd-4be3-9834-ca28c05e941f"},"vehicle_type_id":"4","last_reported":1707851120,"current_range_meters":4800,"station_id":"ce4bh2h2rcd13ifvqdh0","pricing_plan_id":"cebpf4jnsgd1na2vs0mg"},{"bike_id":"26e33ff2-93df-44e3-9318-6b472bdb4f5d","system_id":"levelo_inurba_marseille","lat":43.28936,"lon":5.36648,"is_reserved":false,"is_disabled":false,"rental_uris":{"android":"levelo://app?vid=26e33ff2-93df-44e3-9318-6b472bdb4f5d","ios":"levelo://app?vid=26e33ff2-93df-44e3-9318-6b472bdb4f5d"},"vehicle_type_id":"4","last_reported":1707851120,"current_range_meters":0,"station_id":"ce4bhap2rcd13ifvqek0","pricing_plan_id":"cebpf4jnsgd1na2vs0mg"},{"bike_id":"bacceb55-b56a-4d07-ba4e-96718b181ec2","system_id":"levelo_inurba_marseille","lat":43.289468,"lon":5.363719,"is_reserved":false,"is_disabled":false,"rental_uris":{"android":"levelo://app?vid=bacceb55-b56a-4d07-ba4e-96718b181ec2","ios":"levelo://app?vid=bacceb55-b56a-4d07-ba4e-96718b181ec2"},"vehicle_type_id":"4","last_reported":1707851120,"current_range_meters":5600,"station_id":"ce4bhc92rcd13ifvqetg","pricing_plan_id":"cebpf4jnsgd1na2vs0mg"},{"bike_id":"93a3ea74-aeab-4c67-b49e-a2fc3eb58f68","system_id":"levelo_inurba_marseille","lat":43.289468,"lon":5.363719,"is_reserved":false,"is_disabled":false,"rental_uris":{"android":"levelo://app?vid=93a3ea74-aeab-4c67-b49e-a2fc3eb58f68","ios":"levelo://app?vid=93a3ea74-aeab-4c67-b49e-a2fc3eb58f68"},"vehicle_type_id":"4","last_reported":1707851120,"current_range_meters":19600,"station_id":"ce4bhc92rcd13ifvqetg","pricing_plan_id":"cebpf4jnsgd1na2vs0mg"},{"bike_id":"568fff12-a03c-4b8a-9d62-313b31e526dc","system_id":"levelo_inurba_marseille","lat":43.28934,"lon":5.36636,"is_reserved":false,"is_disabled":false,"rental_uris":{"android":"levelo://app?vid=568fff12-a03c-4b8a-9d62-313b31e526dc","ios":"levelo://app?vid=568fff12-a03c-4b8a-9d62-313b31e526dc"},"vehicle_type_id":"4","last_reported":1707851120,"current_range_meters":0,"station_id":"ce4bhap2rcd13ifvqek0","pricing_plan_id":"cebpf4jnsgd1na2vs0mg"},{"bike_id":"66ebc568-512e-4f6c-ac72-b208e6f24cf4","system_id":"levelo_inurba_marseille","lat":43.289184,"lon":5.366408,"is_reserved":false,"is_disabled":false,"rental_uris":{"android":"levelo://app?vid=66ebc568-512e-4f6c-ac72-b208e6f24cf4","ios":"levelo://app?vid=66ebc568-512e-4f6c-ac72-b208e6f24cf4"},"vehicle_type_id":"4","last_reported":1707851120,"current_range_meters":6800,"station_id":"ce4bhap2rcd13ifvqek0","pricing_plan_id":"cebpf4jnsgd1na2vs0mg"},{"bike_id":"60da6186-084e-4b7e-8cc7-1379618ef68c","system_id":"levelo_inurba_marseille","lat":43.289184,"lon":5.366408,"is_reserved":false,"is_disabled":false,"rental_uris":{"android":"levelo://app?vid=60da6186-084e-4b7e-8cc7-1379618ef68c","ios":"levelo://app?vid=60da6186-084e-4b7e-8cc7-1379618ef68c"},"vehicle_type_id":"4","last_reported":1707851120,"current_range_meters":8000,"station_id":"ce4bhap2rcd13ifvqek0","pricing_plan_id":"cebpf4jnsgd1na2vs0mg"},{"bike_id":"68a92b45-a80a-428c-830e-fe945c0bf194","system_id":"levelo_inurba_marseille","lat":43.289184,"lon":5.366408,"is_reserved":false,"is_disabled":false,"rental_uris":{"android":"levelo://app?vid=68a92b45-a80a-428c-830e-fe945c0bf194","ios":"levelo://app?vid=68a92b45-a80a-428c-830e-fe945c0bf194"},"vehicle_type_id":"4","last_reported":1707851120,"current_range_meters":8800,"station_id":"ce4bhap2rcd13ifvqek0","pricing_plan_id":"cebpf4jnsgd1na2vs0mg"},{"bike_id":"a5434ef5-1558-4100-b59a-989f74f629ef","system_id":"levelo_inurba_marseille","lat":43.289184,"lon":5.366408,"is_reserved":false,"is_disabled":false,"rental_uris":{"android":"levelo://app?vid=a5434ef5-1558-4100-b59a-989f74f629ef","ios":"levelo://app?vid=a5434ef5-1558-4100-b59a-989f74f629ef"},"vehicle_type_id":"4","last_reported":1707851120,"current_range_meters":6800,"station_id":"ce4bhap2rcd13ifvqek0","pricing_plan_id":"cebpf4jnsgd1na2vs0mg"},{"bike_id":"02b0d1b1-a224-44d0-b036-e4ee7d24b264","system_id":"levelo_inurba_marseille","lat":43.289468,"lon":5.363719,"is_reserved":false,"is_disabled":false,"rental_uris":{"android":"levelo://app?vid=02b0d1b1-a224-44d0-b036-e4ee7d24b264","ios":"levelo://app?vid=02b0d1b1-a224-44d0-b036-e4ee7d24b264"},"vehicle_type_id":"4","last_reported":1707851120,"current_range_meters":9200,"station_id":"ce4bhc92rcd13ifvqetg","pricing_plan_id":"cebpf4jnsgd1na2vs0mg"},{"bike_id":"90ffa4ca-6109-4942-afc7-d5a2411225e3","system_id":"levelo_inurba_marseille","lat":43.289468,"lon":5.363719,"is_reserved":false,"is_disabled":false,"rental_uris":{"android":"levelo://app?vid=90ffa4ca-6109-4942-afc7-d5a2411225e3","ios":"levelo://app?vid=90ffa4ca-6109-4942-afc7-d5a2411225e3"},"vehicle_type_id":"4","last_reported":1707851120,"current_range_meters":27600,"station_id":"ce4bhc92rcd13ifvqetg","pricing_plan_id":"cebpf4jnsgd1na2vs0mg"},{"bike_id":"b68f5f2f-2fc0-4f10-ad7c-28cf2da890c2","system_id":"levelo_inurba_marseille","lat":43.292745,"lon":5.384379,"is_reserved":false,"is_disabled":false,"rental_uris":{"android":"levelo://app?vid=b68f5f2f-2fc0-4f10-ad7c-28cf2da890c2","ios":"levelo://app?vid=b68f5f2f-2fc0-4f10-ad7c-28cf2da890c2"},"vehicle_type_id":"4","last_reported":1707851120,"current_range_meters":2000,"station_id":"","pricing_plan_id":"cebpf4jnsgd1na2vs0mg"},{"bike_id":"4b0bfae6-f378-4371-a5a8-d0d7b4071287","system_id":"levelo_inurba_marseille","lat":43.292642,"lon":5.384254,"is_reserved":false,"is_disabled":false,"rental_uris":{"android":"levelo://app?vid=4b0bfae6-f378-4371-a5a8-d0d7b4071287","ios":"levelo://app?vid=4b0bfae6-f378-4371-a5a8-d0d7b4071287"},"vehicle_type_id":"4","last_reported":1707851120,"current_range_meters":8400,"station_id":"ce4bh692rcd13ifvqea0","pricing_plan_id":"cebpf4jnsgd1na2vs0mg"},{"bike_id":"64873df0-a18e-4d0c-94f0-975c462baab4","system_id":"levelo_inurba_marseille","lat":43.29271,"lon":5.38441,"is_reserved":false,"is_disabled":false,"rental_uris":{"android":"levelo://app?vid=64873df0-a18e-4d0c-94f0-975c462baab4","ios":"levelo://app?vid=64873df0-a18e-4d0c-94f0-975c462baab4"},"vehicle_type_id":"4","last_reported":1707851120,"current_range_meters":8400,"station_id":"ce4bh692rcd13ifvqea0","pricing_plan_id":"cebpf4jnsgd1na2vs0mg"},{"bike_id":"67678ea8-4a2a-4abc-b51c-6c1becb4a2af","system_id":"levelo_inurba_marseille","lat":43.292581,"lon":5.384199,"is_reserved":false,"is_disabled":false,"rental_uris":{"android":"levelo://app?vid=67678ea8-4a2a-4abc-b51c-6c1becb4a2af","ios":"levelo://app?vid=67678ea8-4a2a-4abc-b51c-6c1becb4a2af"},"vehicle_type_id":"4","last_reported":1707851120,"current_range_meters":4000,"station_id":"ce4bh692rcd13ifvqea0","pricing_plan_id":"cebpf4jnsgd1na2vs0mg"},{"bike_id":"a88779b8-f0ba-4080-a707-b3a0ea663526","system_id":"levelo_inurba_marseille","lat":43.29256,"lon":5.38429,"is_reserved":false,"is_disabled":false,"rental_uris":{"android":"levelo://app?vid=a88779b8-f0ba-4080-a707-b3a0ea663526","ios":"levelo://app?vid=a88779b8-f0ba-4080-a707-b3a0ea663526"},"vehicle_type_id":"4","last_reported":1707851120,"current_range_meters":12400,"station_id":"ce4bh692rcd13ifvqea0","pricing_plan_id":"cebpf4jnsgd1na2vs0mg"},{"bike_id":"4651e3b3-41c3-41e0-a2c4-d39d8bbea6bf","system_id":"levelo_inurba_marseille","lat":43.29261,"lon":5.38448,"is_reserved":false,"is_disabled":false,"rental_uris":{"android":"levelo://app?vid=4651e3b3-41c3-41e0-a2c4-d39d8bbea6bf","ios":"levelo://app?vid=4651e3b3-41c3-41e0-a2c4-d39d8bbea6bf"},"vehicle_type_id":"4","last_reported":1707851120,"current_range_meters":11600,"station_id":"ce4bh692rcd13ifvqea0","pricing_plan_id":"cebpf4jnsgd1na2vs0mg"},{"bike_id":"7796d938-7e51-4647-b449-57deacdf2a78","system_id":"levelo_inurba_marseille","lat":43.292642,"lon":5.384254,"is_reserved":false,"is_disabled":false,"rental_uris":{"android":"levelo://app?vid=7796d938-7e51-4647-b449-57deacdf2a78","ios":"levelo://app?vid=7796d938-7e51-4647-b449-57deacdf2a78"},"vehicle_type_id":"4","last_reported":1707851120,"current_range_meters":0,"station_id":"ce4bh692rcd13ifvqea0","pricing_plan_id":"cebpf4jnsgd1na2vs0mg"},{"bike_id":"ed955276-c3a3-4e06-8210-33a696876823","system_id":"levelo_inurba_marseille","lat":43.292644,"lon":5.384257,"is_reserved":false,"is_disabled":false,"rental_uris":{"android":"levelo://app?vid=ed955276-c3a3-4e06-8210-33a696876823","ios":"levelo://app?vid=ed955276-c3a3-4e06-8210-33a696876823"},"vehicle_type_id":"4","last_reported":1707851120,"current_range_meters":0,"station_id":"ce4bh692rcd13ifvqea0","pricing_plan_id":"cebpf4jnsgd1na2vs0mg"},{"bike_id":"00d7fcc9-5e55-42ff-b165-252818f02c4e","system_id":"levelo_inurba_marseille","lat":43.29255,"lon":5.3845,"is_reserved":false,"is_disabled":false,"rental_uris":{"android":"levelo://app?vid=00d7fcc9-5e55-42ff-b165-252818f02c4e","ios":"levelo://app?vid=00d7fcc9-5e55-42ff-b165-252818f02c4e"},"vehicle_type_id":"4","last_reported":1707851120,"current_range_meters":0,"station_id":"ce4bh692rcd13ifvqea0","pricing_plan_id":"cebpf4jnsgd1na2vs0mg"},{"bike_id":"d552e8f8-0fc6-4c50-9a75-e674fcee9cee","system_id":"levelo_inurba_marseille","lat":43.32901,"lon":5.391022,"is_reserved":false,"is_disabled":false,"rental_uris":{"android":"levelo://app?vid=d552e8f8-0fc6-4c50-9a75-e674fcee9cee","ios":"levelo://app?vid=d552e8f8-0fc6-4c50-9a75-e674fcee9cee"},"vehicle_type_id":"4","last_reported":1707851120,"current_range_meters":7200,"station_id":"","pricing_plan_id":"cebpf4jnsgd1na2vs0mg"},{"bike_id":"a76aa733-2c2c-4cb4-b969-c99ddd7d4f61","system_id":"levelo_inurba_marseille","lat":43.292642,"lon":5.384254,"is_reserved":false,"is_disabled":false,"rental_uris":{"android":"levelo://app?vid=a76aa733-2c2c-4cb4-b969-c99ddd7d4f61","ios":"levelo://app?vid=a76aa733-2c2c-4cb4-b969-c99ddd7d4f61"},"vehicle_type_id":"4","last_reported":1707851120,"current_range_meters":31200,"station_id":"ce4bh692rcd13ifvqea0","pricing_plan_id":"cebpf4jnsgd1na2vs0mg"},{"bike_id":"5626413b-2d61-47ee-b6be-18f7923273b1","system_id":"levelo_inurba_marseille","lat":43.29006,"lon":5.35616,"is_reserved":false,"is_disabled":false,"rental_uris":{"android":"levelo://app?vid=5626413b-2d61-47ee-b6be-18f7923273b1","ios":"levelo://app?vid=5626413b-2d61-47ee-b6be-18f7923273b1"},"vehicle_type_id":"4","last_reported":1707851120,"current_range_meters":0,"station_id":"ce4bhb92rcd13ifvqen0","pricing_plan_id":"cebpf4jnsgd1na2vs0mg"},{"bike_id":"a9102ef3-54bc-40f3-805f-10186a9f6eeb","system_id":"levelo_inurba_marseille","lat":43.29005,"lon":5.35613,"is_reserved":false,"is_disabled":false,"rental_uris":{"android":"levelo://app?vid=a9102ef3-54bc-40f3-805f-10186a9f6eeb","ios":"levelo://app?vid=a9102ef3-54bc-40f3-805f-10186a9f6eeb"},"vehicle_type_id":"4","last_reported":1707851120,"current_range_meters":0,"station_id":"ce4bhb92rcd13ifvqen0","pricing_plan_id":"cebpf4jnsgd1na2vs0mg"},{"bike_id":"c7350db9-c48e-493e-ae54-f8ff7e122c0b","system_id":"levelo_inurba_marseille","lat":43.290104,"lon":5.356111,"is_reserved":false,"is_disabled":false,"rental_uris":{"android":"levelo://app?vid=c7350db9-c48e-493e-ae54-f8ff7e122c0b","ios":"levelo://app?vid=c7350db9-c48e-493e-ae54-f8ff7e122c0b"},"vehicle_type_id":"4","last_reported":1707851120,"current_range_meters":13200,"station_id":"ce4bhb92rcd13ifvqen0","pricing_plan_id":"cebpf4jnsgd1na2vs0mg"},{"bike_id":"ab3e09c5-9bdd-4ae0-86de-0ca384530a10","system_id":"levelo_inurba_marseille","lat":43.29002,"lon":5.35612,"is_reserved":false,"is_disabled":false,"rental_uris":{"android":"levelo://app?vid=ab3e09c5-9bdd-4ae0-86de-0ca384530a10","ios":"levelo://app?vid=ab3e09c5-9bdd-4ae0-86de-0ca384530a10"},"vehicle_type_id":"4","last_reported":1707851120,"current_range_meters":20000,"station_id":"ce4bhb92rcd13ifvqen0","pricing_plan_id":"cebpf4jnsgd1na2vs0mg"},{"bike_id":"4ff221ef-131b-4ab5-bc4f-9dafeb81b319","system_id":"levelo_inurba_marseille","lat":43.290104,"lon":5.356111,"is_reserved":false,"is_disabled":false,"rental_uris":{"android":"levelo://app?vid=4ff221ef-131b-4ab5-bc4f-9dafeb81b319","ios":"levelo://app?vid=4ff221ef-131b-4ab5-bc4f-9dafeb81b319"},"vehicle_type_id":"4","last_reported":1707851120,"current_range_meters":18800,"station_id":"ce4bhb92rcd13ifvqen0","pricing_plan_id":"cebpf4jnsgd1na2vs0mg"},{"bike_id":"f1def2d7-5725-47cd-97b4-929eaf5e42a1","system_id":"levelo_inurba_marseille","lat":43.28995,"lon":5.35612,"is_reserved":false,"is_disabled":false,"rental_uris":{"android":"levelo://app?vid=f1def2d7-5725-47cd-97b4-929eaf5e42a1","ios":"levelo://app?vid=f1def2d7-5725-47cd-97b4-929eaf5e42a1"},"vehicle_type_id":"4","last_reported":1707851120,"current_range_meters":21200,"station_id":"ce4bhb92rcd13ifvqen0","pricing_plan_id":"cebpf4jnsgd1na2vs0mg"},{"bike_id":"9f3a4da8-3b11-4db7-b4fb-c322ac279c6a","system_id":"levelo_inurba_marseille","lat":43.295169,"lon":5.390426,"is_reserved":false,"is_disabled":false,"rental_uris":{"android":"levelo://app?vid=9f3a4da8-3b11-4db7-b4fb-c322ac279c6a","ios":"levelo://app?vid=9f3a4da8-3b11-4db7-b4fb-c322ac279c6a"},