{"last_updated":1691100360,"ttl":30,"version":"2.2","data":{"bikes":[{"bike_id":"9205c172-124c-45f0-81ac-fe956897bf66","system_id":"levelo_inurba_marseille","lat":43.313391,"lon":5.36706,"is_reserved":false,"is_disabled":false,"rental_uris":{"android":"levelo://app?vid=9205c172-124c-45f0-81ac-fe956897bf66","ios":"levelo://app?vid=9205c172-124c-45f0-81ac-fe956897bf66"},"vehicle_type_id":"4","last_reported":1691100360,"current_range_meters":19200,"station_id":"ce4bgr92rcd13ifvqc6g","pricing_plan_id":"free"},{"bike_id":"87218cf5-3676-4764-8534-5ddf86294d8c","system_id":"levelo_inurba_marseille","lat":43.31049,"lon":5.37167,"is_reserved":false,"is_disabled":false,"rental_uris":{"android":"levelo://app?vid=87218cf5-3676-4764-8534-5ddf86294d8c","ios":"levelo://app?vid=87218cf5-3676-4764-8534-5ddf86294d8c"},"vehicle_type_id":"4","last_reported":1691100360,"current_range_meters":9600,"station_id":"","pricing_plan_id":"free"},{"bike_id":"3328d062-d497-46dc-a4f5-7fd232cb1a4b","system_id":"levelo_inurba_marseille","lat":43.314811,"lon":5.373103,"is_reserved":false,"is_disabled":false,"rental_uris":{"android":"levelo://app?vid=3328d062-d497-46dc-a4f5-7fd232cb1a4b","ios":"levelo://app?vid=3328d062-d497-46dc-a4f5-7fd232cb1a4b"},"vehicle_type_id":"4","last_reported":1691100360,"current_range_meters":18000,"station_id":"ce4bgt12rcd13ifvqcd0","pricing_plan_id":"free"},{"bike_id":"2a6a824e-ff70-4859-aee3-1daa8b737cfe","system_id":"levelo_inurba_marseille","lat":43.314811,"lon":5.373103,"is_reserved":false,"is_disabled":false,"rental_uris":{"android":"levelo://app?vid=2a6a824e-ff70-4859-aee3-1daa8b737cfe","ios":"levelo://app?vid=2a6a824e-ff70-4859-aee3-1daa8b737cfe"},"vehicle_type_id":"4","last_reported":1691100360,"current_range_meters":5200,"station_id":"ce4bgt12rcd13ifvqcd0","pricing_plan_id":"free"},{"bike_id":"ab4362c6-f9af-4be1-a14c-8e18586da58c","system_id":"levelo_inurba_marseille","lat":43.30886,"lon":5.37195,"is_reserved":false,"is_disabled":false,"rental_uris":{"android":"levelo://app?vid=ab4362c6-f9af-4be1-a14c-8e18586da58c","ios":"levelo://app?vid=ab4362c6-f9af-4be1-a14c-8e18586da58c"},"vehicle_type_id":"4","last_reported":1691100360,"current_range_meters":13600,"station_id":"ce4bguh2rcd13ifvqckg","pricing_plan_id":"free"},{"bike_id":"c4156d17-1eed-443c-84b9-c5d05b4bbcd2","system_id":"levelo_inurba_marseille","lat":43.309039,"lon":5.371797,"is_reserved":false,"is_disabled":false,"rental_uris":{"android":"levelo://app?vid=c4156d17-1eed-443c-84b9-c5d05b4bbcd2","ios":"levelo://app?vid=c4156d17-1eed-443c-84b9-c5d05b4bbcd2"},"vehicle_type_id":"4","last_reported":1691100360,"current_range_meters":10400,"station_id":"ce4bguh2rcd13ifvqckg","pricing_plan_id":"free"},{"bike_id":"6fd05439-eec5-4c60-861e-ff81b9fabcf7","system_id":"levelo_inurba_marseille","lat":43.30888,"lon":5.37202,"is_reserved":false,"is_disabled":false,"rental_uris":{"android":"levelo://app?vid=6fd05439-eec5-4c60-861e-ff81b9fabcf7","ios":"levelo://app?vid=6fd05439-eec5-4c60-861e-ff81b9fabcf7"},"vehicle_type_id":"4","last_reported":1691100360,"current_range_meters":4800,"station_id":"ce4bguh2rcd13ifvqckg","pricing_plan_id":"free"},{"bike_id":"7cfb81a3-fd7f-41d1-987d-c1037b7c6b4a","system_id":"levelo_inurba_marseille","lat":43.31469,"lon":5.37545,"is_reserved":false,"is_disabled":false,"rental_uris":{"android":"levelo://app?vid=7cfb81a3-fd7f-41d1-987d-c1037b7c6b4a","ios":"levelo://app?vid=7cfb81a3-fd7f-41d1-987d-c1037b7c6b4a"},"vehicle_type_id":"4","last_reported":1691100360,"current_range_meters":20800,"station_id":"","pricing_plan_id":"free"},{"bike_id":"df393884-a462-414a-b3f9-c65f6d7308c5","system_id":"levelo_inurba_marseille","lat":43.305368,"lon":5.367343,"is_reserved":false,"is_disabled":false,"rental_uris":{"android":"levelo://app?vid=df393884-a462-414a-b3f9-c65f6d7308c5","ios":"levelo://app?vid=df393884-a462-414a-b3f9-c65f6d7308c5"},"vehicle_type_id":"4","last_reported":1691100360,"current_range_meters":15200,"station_id":"ce4bgrp2rcd13ifvqc9g","pricing_plan_id":"free"},{"bike_id":"22d19c72-b37f-4cba-a416-3d0acb986675","system_id":"levelo_inurba_marseille","lat":43.30531,"lon":5.36703,"is_reserved":false,"is_disabled":false,"rental_uris":{"android":"levelo://app?vid=22d19c72-b37f-4cba-a416-3d0acb986675","ios":"levelo://app?vid=22d19c72-b37f-4cba-a416-3d0acb986675"},"vehicle_type_id":"4","last_reported":1691100360,"current_range_meters":2800,"station_id":"ce4bgrp2rcd13ifvqc9g","pricing_plan_id":"free"},{"bike_id":"f20ea888-8740-440b-bfeb-8eb2a7c1f652","system_id":"levelo_inurba_marseille","lat":43.305989,"lon":5.37225,"is_reserved":false,"is_disabled":false,"rental_uris":{"android":"levelo://app?vid=f20ea888-8740-440b-bfeb-8eb2a7c1f652","ios":"levelo://app?vid=f20ea888-8740-440b-bfeb-8eb2a7c1f652"},"vehicle_type_id":"4","last_reported":1691100360,"current_range_meters":31200,"station_id":"ce4bgqh2rcd13ifvqc4g","pricing_plan_id":"free"},{"bike_id":"9e217681-566c-4e88-93b0-69ff2ed16c17","system_id":"levelo_inurba_marseille","lat":43.311131,"lon":5.377651,"is_reserved":false,"is_disabled":false,"rental_uris":{"android":"levelo://app?vid=9e217681-566c-4e88-93b0-69ff2ed16c17","ios":"levelo://app?vid=9e217681-566c-4e88-93b0-69ff2ed16c17"},"vehicle_type_id":"4","last_reported":1691100360,"current_range_meters":26800,"station_id":"ce4bgt92rcd13ifvqcg0","pricing_plan_id":"free"},{"bike_id":"c44dddb3-9b93-4d00-96df-650b067307cd","system_id":"levelo_inurba_marseille","lat":43.311125,"lon":5.377624,"is_reserved":false,"is_disabled":false,"rental_uris":{"android":"levelo://app?vid=c44dddb3-9b93-4d00-96df-650b067307cd","ios":"levelo://app?vid=c44dddb3-9b93-4d00-96df-650b067307cd"},"vehicle_type_id":"4","last_reported":1691100360,"current_range_meters":30800,"station_id":"ce4bgt92rcd13ifvqcg0","pricing_plan_id":"free"},{"bike_id":"680ec662-985e-434a-a79c-79445c612fa4","system_id":"levelo_inurba_marseille","lat":43.31117,"lon":5.37775,"is_reserved":false,"is_disabled":false,"rental_uris":{"android":"levelo://app?vid=680ec662-985e-434a-a79c-79445c612fa4","ios":"levelo://app?vid=680ec662-985e-434a-a79c-79445c612fa4"},"vehicle_type_id":"4","last_reported":1691100360,"current_range_meters":4800,"station_id":"ce4bgt92rcd13ifvqcg0","pricing_plan_id":"free"},{"bike_id":"6e13717e-9914-4817-b446-8ca53f78e166","system_id":"levelo_inurba_marseille","lat":43.307945,"lon":5.376487,"is_reserved":false,"is_disabled":false,"rental_uris":{"android":"levelo://app?vid=6e13717e-9914-4817-b446-8ca53f78e166","ios":"levelo://app?vid=6e13717e-9914-4817-b446-8ca53f78e166"},"vehicle_type_id":"4","last_reported":1691100360,"current_range_meters":7200,"station_id":"ce4bgv92rcd13ifvqcq0","pricing_plan_id":"free"},{"bike_id":"740acca2-d7a2-4410-aa65-7b7281183141","system_id":"levelo_inurba_marseille","lat":43.30785,"lon":5.37653,"is_reserved":false,"is_disabled":false,"rental_uris":{"android":"levelo://app?vid=740acca2-d7a2-4410-aa65-7b7281183141","ios":"levelo://app?vid=740acca2-d7a2-4410-aa65-7b7281183141"},"vehicle_type_id":"4","last_reported":1691100360,"current_range_meters":29600,"station_id":"ce4bgv92rcd13ifvqcq0","pricing_plan_id":"free"},{"bike_id":"cfac6340-2b0e-4511-9eaa-8d0430840b78","system_id":"levelo_inurba_marseille","lat":43.307945,"lon":5.376487,"is_reserved":false,"is_disabled":false,"rental_uris":{"android":"levelo://app?vid=cfac6340-2b0e-4511-9eaa-8d0430840b78","ios":"levelo://app?vid=cfac6340-2b0e-4511-9eaa-8d0430840b78"},"vehicle_type_id":"4","last_reported":1691100360,"current_range_meters":10800,"station_id":"ce4bgv92rcd13ifvqcq0","pricing_plan_id":"free"},{"bike_id":"5187998b-3924-4c9e-b415-df4ed4cb8223","system_id":"levelo_inurba_marseille","lat":43.307945,"lon":5.376487,"is_reserved":false,"is_disabled":false,"rental_uris":{"android":"levelo://app?vid=5187998b-3924-4c9e-b415-df4ed4cb8223","ios":"levelo://app?vid=5187998b-3924-4c9e-b415-df4ed4cb8223"},"vehicle_type_id":"4","last_reported":1691100360,"current_range_meters":19200,"station_id":"ce4bgv92rcd13ifvqcq0","pricing_plan_id":"free"},{"bike_id":"84c9ada1-381a-4fb9-941f-7a726aae932b","system_id":"levelo_inurba_marseille","lat":43.317075,"lon":5.377367,"is_reserved":false,"is_disabled":false,"rental_uris":{"android":"levelo://app?vid=84c9ada1-381a-4fb9-941f-7a726aae932b","ios":"levelo://app?vid=84c9ada1-381a-4fb9-941f-7a726aae932b"},"vehicle_type_id":"4","last_reported":1691100360,"current_range_meters":25200,"station_id":"ce4bgth2rcd13ifvqch0","pricing_plan_id":"free"},{"bike_id":"6ec4bb7e-8606-49b4-a556-2cb681532bba","system_id":"levelo_inurba_marseille","lat":43.317075,"lon":5.377367,"is_reserved":false,"is_disabled":false,"rental_uris":{"android":"levelo://app?vid=6ec4bb7e-8606-49b4-a556-2cb681532bba","ios":"levelo://app?vid=6ec4bb7e-8606-49b4-a556-2cb681532bba"},"vehicle_type_id":"4","last_reported":1691100360,"current_range_meters":31200,"station_id":"ce4bgth2rcd13ifvqch0","pricing_plan_id":"free"},{"bike_id":"0f2902ef-403c-458f-92a9-dfbe4b28e1b1","system_id":"levelo_inurba_marseille","lat":43.317075,"lon":5.377367,"is_reserved":false,"is_disabled":false,"rental_uris":{"android":"levelo://app?vid=0f2902ef-403c-458f-92a9-dfbe4b28e1b1","ios":"levelo://app?vid=0f2902ef-403c-458f-92a9-dfbe4b28e1b1"},"vehicle_type_id":"4","last_reported":1691100360,"current_range_meters":8800,"station_id":"ce4bgth2rcd13ifvqch0","pricing_plan_id":"free"},{"bike_id":"ca03c504-734e-402b-8597-fb77a9549039","system_id":"levelo_inurba_marseille","lat":43.31534,"lon":5.38031,"is_reserved":false,"is_disabled":false,"rental_uris":{"android":"levelo://app?vid=ca03c504-734e-402b-8597-fb77a9549039","ios":"levelo://app?vid=ca03c504-734e-402b-8597-fb77a9549039"},"vehicle_type_id":"4","last_reported":1691100360,"current_range_meters":30400,"station_id":"ce4bhsp2rcd13ifvqi50","pricing_plan_id":"free"},{"bike_id":"b3e84857-6c7e-434a-a6bb-0c1dd4e59a7b","system_id":"levelo_inurba_marseille","lat":43.315289,"lon":5.380349,"is_reserved":false,"is_disabled":false,"rental_uris":{"android":"levelo://app?vid=b3e84857-6c7e-434a-a6bb-0c1dd4e59a7b","ios":"levelo://app?vid=b3e84857-6c7e-434a-a6bb-0c1dd4e59a7b"},"vehicle_type_id":"4","last_reported":1691100360,"current_range_meters":14800,"station_id":"ce4bhsp2rcd13ifvqi50","pricing_plan_id":"free"},{"bike_id":"91a0e5cd-e6ae-4bbb-9785-900d671574df","system_id":"levelo_inurba_marseille","lat":43.315289,"lon":5.380349,"is_reserved":false,"is_disabled":false,"rental_uris":{"android":"levelo://app?vid=91a0e5cd-e6ae-4bbb-9785-900d671574df","ios":"levelo://app?vid=91a0e5cd-e6ae-4bbb-9785-900d671574df"},"vehicle_type_id":"4","last_reported":1691100360,"current_range_meters":6800,"station_id":"ce4bhsp2rcd13ifvqi50","pricing_plan_id":"free"},{"bike_id":"69efd253-fbbb-4a73-9ba0-16d8244fa080","system_id":"levelo_inurba_marseille","lat":43.30467,"lon":5.37901,"is_reserved":false,"is_disabled":false,"rental_uris":{"android":"levelo://app?vid=69efd253-fbbb-4a73-9ba0-16d8244fa080","ios":"levelo://app?vid=69efd253-fbbb-4a73-9ba0-16d8244fa080"},"vehicle_type_id":"4","last_reported":1691100360,"current_range_meters":31200,"station_id":"ce4bgup2rcd13ifvqcn0","pricing_plan_id":"free"},{"bike_id":"e4620710-c697-46dc-959c-6fecbc56535f","system_id":"levelo_inurba_marseille","lat":43.304606,"lon":5.379026,"is_reserved":false,"is_disabled":false,"rental_uris":{"android":"levelo://app?vid=e4620710-c697-46dc-959c-6fecbc56535f","ios":"levelo://app?vid=e4620710-c697-46dc-959c-6fecbc56535f"},"vehicle_type_id":"4","last_reported":1691100360,"current_range_meters":7600,"station_id":"ce4bgup2rcd13ifvqcn0","pricing_plan_id":"free"},{"bike_id":"4d195947-7840-43c6-8ce6-ccb5b609969c","system_id":"levelo_inurba_marseille","lat":43.32,"lon":5.38141,"is_reserved":false,"is_disabled":false,"rental_uris":{"android":"levelo://app?vid=4d195947-7840-43c6-8ce6-ccb5b609969c","ios":"levelo://app?vid=4d195947-7840-43c6-8ce6-ccb5b609969c"},"vehicle_type_id":"4","last_reported":1691100360,"current_range_meters":10400,"station_id":"ce4bhr12rcd13ifvqhpg","pricing_plan_id":"free"},{"bike_id":"dac54eb1-a107-4483-ae6c-ee7237f93a9d","system_id":"levelo_inurba_marseille","lat":43.32001,"lon":5.38157,"is_reserved":false,"is_disabled":false,"rental_uris":{"android":"levelo://app?vid=dac54eb1-a107-4483-ae6c-ee7237f93a9d","ios":"levelo://app?vid=dac54eb1-a107-4483-ae6c-ee7237f93a9d"},"vehicle_type_id":"4","last_reported":1691100360,"current_range_meters":20000,"station_id":"ce4bhr12rcd13ifvqhpg","pricing_plan_id":"free"},{"bike_id":"791aecf0-48e6-4775-bc04-3b9f8a573be3","system_id":"levelo_inurba_marseille","lat":43.32002,"lon":5.38158,"is_reserved":false,"is_disabled":false,"rental_uris":{"android":"levelo://app?vid=791aecf0-48e6-4775-bc04-3b9f8a573be3","ios":"levelo://app?vid=791aecf0-48e6-4775-bc04-3b9f8a573be3"},"vehicle_type_id":"4","last_reported":1691100360,"current_range_meters":10000,"station_id":"ce4bhr12rcd13ifvqhpg","pricing_plan_id":"free"},{"bike_id":"3cb7fd70-121e-4eb5-9a01-ecc8718aa1bb","system_id":"levelo_inurba_marseille","lat":43.29951,"lon":5.36552,"is_reserved":false,"is_disabled":false,"rental_uris":{"android":"levelo://app?vid=3cb7fd70-121e-4eb5-9a01-ecc8718aa1bb","ios":"levelo://app?vid=3cb7fd70-121e-4eb5-9a01-ecc8718aa1bb"},"vehicle_type_id":"4","last_reported":1691100360,"current_range_meters":30800,"station_id":"ce4bgm92rcd13ifvqbr0","pricing_plan_id":"free"},{"bike_id":"44b750c8-cdaa-4af5-80ad-47e36da34806","system_id":"levelo_inurba_marseille","lat":43.298433,"lon":5.362774,"is_reserved":false,"is_disabled":false,"rental_uris":{"android":"levelo://app?vid=44b750c8-cdaa-4af5-80ad-47e36da34806","ios":"levelo://app?vid=44b750c8-cdaa-4af5-80ad-47e36da34806"},"vehicle_type_id":"4","last_reported":1691100360,"current_range_meters":11600,"station_id":"ce4bgpp2rcd13ifvqc3g","pricing_plan_id":"free"},{"bike_id":"e3041c7e-125d-4595-b231-60bb0c656f65","system_id":"levelo_inurba_marseille","lat":43.305327,"lon":5.384217,"is_reserved":false,"is_disabled":false,"rental_uris":{"android":"levelo://app?vid=e3041c7e-125d-4595-b231-60bb0c656f65","ios":"levelo://app?vid=e3041c7e-125d-4595-b231-60bb0c656f65"},"vehicle_type_id":"4","last_reported":1691100360,"current_range_meters":30000,"station_id":"ce4bgg92rcd13ifvqb30","pricing_plan_id":"free"},{"bike_id":"30537d43-af02-4a10-b928-7b9b8cf633d2","system_id":"levelo_inurba_marseille","lat":43.305364,"lon":5.384119,"is_reserved":false,"is_disabled":false,"rental_uris":{"android":"levelo://app?vid=30537d43-af02-4a10-b928-7b9b8cf633d2","ios":"levelo://app?vid=30537d43-af02-4a10-b928-7b9b8cf633d2"},"vehicle_type_id":"4","last_reported":1691100360,"current_range_meters":28000,"station_id":"ce4bgg92rcd13ifvqb30","pricing_plan_id":"free"},{"bike_id":"d0da70c5-7e0a-4b6a-a70b-fcb1bcee6cb6","system_id":"levelo_inurba_marseille","lat":43.30538,"lon":5.38432,"is_reserved":false,"is_disabled":false,"rental_uris":{"android":"levelo://app?vid=d0da70c5-7e0a-4b6a-a70b-fcb1bcee6cb6","ios":"levelo://app?vid=d0da70c5-7e0a-4b6a-a70b-fcb1bcee6cb6"},"vehicle_type_id":"4","last_reported":1691100360,"current_range_meters":31200,"station_id":"ce4bgg92rcd13ifvqb30","pricing_plan_id":"free"},{"bike_id":"cd1aa34e-ac88-4a5d-908c-f2421f3727d7","system_id":"levelo_inurba_marseille","lat":43.299243,"lon":5.37481,"is_reserved":false,"is_disabled":false,"rental_uris":{"android":"levelo://app?vid=cd1aa34e-ac88-4a5d-908c-f2421f3727d7","ios":"levelo://app?vid=cd1aa34e-ac88-4a5d-908c-f2421f3727d7"},"vehicle_type_id":"4","last_reported":1691100360,"current_range_meters":9600,"station_id":"ce4bgjh2rcd13ifvqbg0","pricing_plan_id":"free"},{"bike_id":"41f4f027-227c-416b-99c0-11085c498a58","system_id":"levelo_inurba_marseille","lat":43.299243,"lon":5.37481,"is_reserved":false,"is_disabled":false,"rental_uris":{"android":"levelo://app?vid=41f4f027-227c-416b-99c0-11085c498a58","ios":"levelo://app?vid=41f4f027-227c-416b-99c0-11085c498a58"},"vehicle_type_id":"4","last_reported":1691100360,"current_range_meters":4800,"station_id":"ce4bgjh2rcd13ifvqbg0","pricing_plan_id":"free"},{"bike_id":"8147217b-acd6-4642-96c9-f740e6aaf3d8","system_id":"levelo_inurba_marseille","lat":43.299243,"lon":5.374807,"is_reserved":false,"is_disabled":false,"rental_uris":{"android":"levelo://app?vid=8147217b-acd6-4642-96c9-f740e6aaf3d8","ios":"levelo://app?vid=8147217b-acd6-4642-96c9-f740e6aaf3d8"},"vehicle_type_id":"4","last_reported":1691100360,"current_range_meters":22800,"station_id":"ce4bgjh2rcd13ifvqbg0","pricing_plan_id":"free"},{"bike_id":"ebc523c0-2f69-490e-b4c2-af74345955b4","system_id":"levelo_inurba_marseille","lat":43.299243,"lon":5.37481,"is_reserved":false,"is_disabled":false,"rental_uris":{"android":"levelo://app?vid=ebc523c0-2f69-490e-b4c2-af74345955b4","ios":"levelo://app?vid=ebc523c0-2f69-490e-b4c2-af74345955b4"},"vehicle_type_id":"4","last_reported":1691100360,"current_range_meters":11200,"station_id":"ce4bgjh2rcd13ifvqbg0","pricing_plan_id":"free"},{"bike_id":"53f1bd32-120c-480d-b870-09d81035607f","system_id":"levelo_inurba_marseille","lat":43.299243,"lon":5.374807,"is_reserved":false,"is_disabled":false,"rental_uris":{"android":"levelo://app?vid=53f1bd32-120c-480d-b870-09d81035607f","ios":"levelo://app?vid=53f1bd32-120c-480d-b870-09d81035607f"},"vehicle_type_id":"4","last_reported":1691100360,"current_range_meters":0,"station_id":"ce4bgjh2rcd13ifvqbg0","pricing_plan_id":"free"},{"bike_id":"7cf1aab8-38a1-47db-af16-2123c0ca6e97","system_id":"levelo_inurba_marseille","lat":43.322872,"lon":5.382756,"is_reserved":false,"is_disabled":false,"rental_uris":{"android":"levelo://app?vid=7cf1aab8-38a1-47db-af16-2123c0ca6e97","ios":"levelo://app?vid=7cf1aab8-38a1-47db-af16-2123c0ca6e97"},"vehicle_type_id":"4","last_reported":1691100360,"current_range_meters":19200,"station_id":"ce4bhr12rcd13ifvqhqg","pricing_plan_id":"free"},{"bike_id":"dd789220-e7b5-42c1-b9dc-dc4243148021","system_id":"levelo_inurba_marseille","lat":43.297163,"lon":5.365866,"is_reserved":false,"is_disabled":false,"rental_uris":{"android":"levelo://app?vid=dd789220-e7b5-42c1-b9dc-dc4243148021","ios":"levelo://app?vid=dd789220-e7b5-42c1-b9dc-dc4243148021"},"vehicle_type_id":"4","last_reported":1691100360,"current_range_meters":31200,"station_id":"ce4bgn12rcd13ifvqbt0","pricing_plan_id":"free"},{"bike_id":"ac3f9995-623d-4785-8a45-5d221a9c2fa0","system_id":"levelo_inurba_marseille","lat":43.328371,"lon":5.366909,"is_reserved":false,"is_disabled":false,"rental_uris":{"android":"levelo://app?vid=ac3f9995-623d-4785-8a45-5d221a9c2fa0","ios":"levelo://app?vid=ac3f9995-623d-4785-8a45-5d221a9c2fa0"},"vehicle_type_id":"4","last_reported":1691100360,"current_range_meters":17200,"station_id":"ce4bhs92rcd13ifvqi0g","pricing_plan_id":"free"},{"bike_id":"bcdc03eb-e50d-43f7-8cdb-322543d75932","system_id":"levelo_inurba_marseille","lat":43.32828,"lon":5.36701,"is_reserved":false,"is_disabled":false,"rental_uris":{"android":"levelo://app?vid=bcdc03eb-e50d-43f7-8cdb-322543d75932","ios":"levelo://app?vid=bcdc03eb-e50d-43f7-8cdb-322543d75932"},"vehicle_type_id":"4","last_reported":1691100360,"current_range_meters":5200,"station_id":"ce4bhs92rcd13ifvqi0g","pricing_plan_id":"free"},{"bike_id":"ca641f54-3d5a-4364-a5e2-fb3efce404d3","system_id":"levelo_inurba_marseille","lat":43.32829,"lon":5.36693,"is_reserved":false,"is_disabled":false,"rental_uris":{"android":"levelo://app?vid=ca641f54-3d5a-4364-a5e2-fb3efce404d3","ios":"levelo://app?vid=ca641f54-3d5a-4364-a5e2-fb3efce404d3"},"vehicle_type_id":"4","last_reported":1691100360,"current_range_meters":7600,"station_id":"ce4bhs92rcd13ifvqi0g","pricing_plan_id":"free"},{"bike_id":"c818fda6-d3a8-4581-8e5f-963e17e4e50b","system_id":"levelo_inurba_marseille","lat":43.328371,"lon":5.366909,"is_reserved":false,"is_disabled":false,"rental_uris":{"android":"levelo://app?vid=c818fda6-d3a8-4581-8e5f-963e17e4e50b","ios":"levelo://app?vid=c818fda6-d3a8-4581-8e5f-963e17e4e50b"},"vehicle_type_id":"4","last_reported":1691100360,"current_range_meters":11200,"station_id":"ce4bhs92rcd13ifvqi0g","pricing_plan_id":"free"},{"bike_id":"fb4f6003-5761-4aa1-83e7-9bec0069ec17","system_id":"levelo_inurba_marseille","lat":43.328371,"lon":5.366912,"is_reserved":false,"is_disabled":false,"rental_uris":{"android":"levelo://app?vid=fb4f6003-5761-4aa1-83e7-9bec0069ec17","ios":"levelo://app?vid=fb4f6003-5761-4aa1-83e7-9bec0069ec17"},"vehicle_type_id":"4","last_reported":1691100360,"current_range_meters":4400,"station_id":"ce4bhs92rcd13ifvqi0g","pricing_plan_id":"free"},{"bike_id":"77dfb8c6-e5ba-4f0f-9c0f-67d821695f73","system_id":"levelo_inurba_marseille","lat":43.328371,"lon":5.366912,"is_reserved":false,"is_disabled":false,"rental_uris":{"android":"levelo://app?vid=77dfb8c6-e5ba-4f0f-9c0f-67d821695f73","ios":"levelo://app?vid=77dfb8c6-e5ba-4f0f-9c0f-67d821695f73"},"vehicle_type_id":"4","last_reported":1691100360,"current_range_meters":15200,"station_id":"ce4bhs92rcd13ifvqi0g","pricing_plan_id":"free"},{"bike_id":"81467de6-2847-473e-9e69-32a4899f3166","system_id":"levelo_inurba_marseille","lat":43.328371,"lon":5.366912,"is_reserved":false,"is_disabled":false,"rental_uris":{"android":"levelo://app?vid=81467de6-2847-473e-9e69-32a4899f3166","ios":"levelo://app?vid=81467de6-2847-473e-9e69-32a4899f3166"},"vehicle_type_id":"4","last_reported":1691100360,"current_range_meters":11600,"station_id":"ce4bhs92rcd13ifvqi0g","pricing_plan_id":"free"},{"bike_id":"98b1bbca-23b1-4475-8179-1840351ee800","system_id":"levelo_inurba_marseille","lat":43.299028,"lon":5.381509,"is_reserved":false,"is_disabled":false,"rental_uris":{"android":"levelo://app?vid=98b1bbca-23b1-4475-8179-1840351ee800","ios":"levelo://app?vid=98b1bbca-23b1-4475-8179-1840351ee800"},"vehicle_type_id":"4","last_reported":1691100360,"current_range_meters":28000,"station_id":"ce4bgj12rcd13ifvqbc0","pricing_plan_id":"free"},{"bike_id":"f0b1921d-8fc5-42f6-8214-26455e772ce5","system_id":"levelo_inurba_marseille","lat":43.309589,"lon":5.390258,"is_reserved":false,"is_disabled":false,"rental_uris":{"android":"levelo://app?vid=f0b1921d-8fc5-42f6-8214-26455e772ce5","ios":"levelo://app?vid=f0b1921d-8fc5-42f6-8214-26455e772ce5"},"vehicle_type_id":"4","last_reported":1691100360,"current_range_meters":26400,"station_id":"ce4bgup2rcd13ifvqco0","pricing_plan_id":"free"},{"bike_id":"e2d56348-a014-4847-a8fa-89bc121d5af6","system_id":"levelo_inurba_marseille","lat":43.298037,"lon":5.381066,"is_reserved":false,"is_disabled":false,"rental_uris":{"android":"levelo://app?vid=e2d56348-a014-4847-a8fa-89bc121d5af6","ios":"levelo://app?vid=e2d56348-a014-4847-a8fa-89bc121d5af6"},"vehicle_type_id":"4","last_reported":1691100360,"current_range_meters":30000,"station_id":"ce4bgip2rcd13ifvqbb0","pricing_plan_id":"free"},{"bike_id":"911332c5-4e93-4732-bcf8-66f66cfc18fa","system_id":"levelo_inurba_marseille","lat":43.295748,"lon":5.37522,"is_reserved":false,"is_disabled":false,"rental_uris":{"android":"levelo://app?vid=911332c5-4e93-4732-bcf8-66f66cfc18fa","ios":"levelo://app?vid=911332c5-4e93-4732-bcf8-66f66cfc18fa"},"vehicle_type_id":"4","last_reported":1691100360,"current_range_meters":30800,"station_id":"ce4bgh92rcd13ifvqb50","pricing_plan_id":"free"},{"bike_id":"69a8c22f-7932-4d71-9360-8a46a9b76f93","system_id":"levelo_inurba_marseille","lat":43.29974,"lon":5.38488,"is_reserved":false,"is_disabled":false,"rental_uris":{"android":"levelo://app?vid=69a8c22f-7932-4d71-9360-8a46a9b76f93","ios":"levelo://app?vid=69a8c22f-7932-4d71-9360-8a46a9b76f93"},"vehicle_type_id":"4","last_reported":1691100360,"current_range_meters":24000,"station_id":"ce4bgj92rcd13ifvqbd0","pricing_plan_id":"free"},{"bike_id":"e7413cb7-8520-4af3-81db-d2b3ba5a040f","system_id":"levelo_inurba_marseille","lat":43.32331,"lon":5.389,"is_reserved":false,"is_disabled":false,"rental_uris":{"android":"levelo://app?vid=e7413cb7-8520-4af3-81db-d2b3ba5a040f","ios":"levelo://app?vid=e7413cb7-8520-4af3-81db-d2b3ba5a040f"},"vehicle_type_id":"4","last_reported":1691100360,"current_range_meters":800,"station_id":"ce4bhqp2rcd13ifvqhog","pricing_plan_id":"free"},{"bike_id":"3205d0e9-dc07-44ba-8cfe-0b5a882e32d0","system_id":"levelo_inurba_marseille","lat":43.32367,"lon":5.388836,"is_reserved":false,"is_disabled":false,"rental_uris":{"android":"levelo://app?vid=3205d0e9-dc07-44ba-8cfe-0b5a882e32d0","ios":"levelo://app?vid=3205d0e9-dc07-44ba-8cfe-0b5a882e32d0"},"vehicle_type_id":"4","last_reported":1691100360,"current_range_meters":28800,"station_id":"ce4bhqp2rcd13ifvqhog","pricing_plan_id":"free"},{"bike_id":"153806a9-c106-4acb-8efe-f81ba29b58d3","system_id":"levelo_inurba_marseille","lat":43.32368,"lon":5.38875,"is_reserved":false,"is_disabled":false,"rental_uris":{"android":"levelo://app?vid=153806a9-c106-4acb-8efe-f81ba29b58d3","ios":"levelo://app?vid=153806a9-c106-4acb-8efe-f81ba29b58d3"},"vehicle_type_id":"4","last_reported":1691100360,"current_range_meters":30400,"station_id":"ce4bhqp2rcd13ifvqhog","pricing_plan_id":"free"},{"bike_id":"be3b9c7a-ef73-47f2-8a40-38431e709cbe","system_id":"levelo_inurba_marseille","lat":43.32357,"lon":5.38888,"is_reserved":false,"is_disabled":false,"rental_uris":{"android":"levelo://app?vid=be3b9c7a-ef73-47f2-8a40-38431e709cbe","ios":"levelo://app?vid=be3b9c7a-ef73-47f2-8a40-38431e709cbe"},"vehicle_type_id":"4","last_reported":1691100360,"current_range_meters":30400,"station_id":"ce4bhqp2rcd13ifvqhog","pricing_plan_id":"free"},{"bike_id":"8302eeba-1a7c-4b0b-af87-29f1cf9b8a06","system_id":"levelo_inurba_marseille","lat":43.32362,"lon":5.38884,"is_reserved":false,"is_disabled":false,"rental_uris":{"android":"levelo://app?vid=8302eeba-1a7c-4b0b-af87-29f1cf9b8a06","ios":"levelo://app?vid=8302eeba-1a7c-4b0b-af87-29f1cf9b8a06"},"vehicle_type_id":"4","last_reported":1691100360,"current_range_meters":30400,"station_id":"ce4bhqp2rcd13ifvqhog","pricing_plan_id":"free"},{"bike_id":"0096218a-32f1-4ad1-a7f6-a83210e4e020","system_id":"levelo_inurba_marseille","lat":43.32358,"lon":5.3889,"is_reserved":false,"is_disabled":false,"rental_uris":{"android":"levelo://app?vid=0096218a-32f1-4ad1-a7f6-a83210e4e020","ios":"levelo://app?vid=0096218a-32f1-4ad1-a7f6-a83210e4e020"},"vehicle_type_id":"4","last_reported":1691100360,"current_range_meters":31200,"station_id":"ce4bhqp2rcd13ifvqhog","pricing_plan_id":"free"},{"bike_id":"83e40035-5ae5-4bb2-89ae-adf2ef147026","system_id":"levelo_inurba_marseille","lat":43.323676,"lon":5.388816,"is_reserved":false,"is_disabled":false,"rental_uris":{"android":"levelo://app?vid=83e40035-5ae5-4bb2-89ae-adf2ef147026","ios":"levelo://app?vid=83e40035-5ae5-4bb2-89ae-adf2ef147026"},"vehicle_type_id":"4","last_reported":1691100360,"current_range_meters":13600,"station_id":"","pricing_plan_id":"free"},{"bike_id":"5f1c231d-5549-420b-a974-1b1406435a60","system_id":"levelo_inurba_marseille","lat":43.32367,"lon":5.388836,"is_reserved":false,"is_disabled":false,"rental_uris":{"android":"levelo://app?vid=5f1c231d-5549-420b-a974-1b1406435a60","ios":"levelo://app?vid=5f1c231d-5549-420b-a974-1b1406435a60"},"vehicle_type_id":"4","last_reported":1691100360,"current_range_meters":29200,"station_id":"ce4bhqp2rcd13ifvqhog","pricing_plan_id":"free"},{"bike_id":"b0c7ca86-ee56-4d5b-8ef5-0c1132701ee5","system_id":"levelo_inurba_marseille","lat":43.32368,"lon":5.38885,"is_reserved":false,"is_disabled":false,"rental_uris":{"android":"levelo://app?vid=b0c7ca86-ee56-4d5b-8ef5-0c1132701ee5","ios":"levelo://app?vid=b0c7ca86-ee56-4d5b-8ef5-0c1132701ee5"},"vehicle_type_id":"4","last_reported":1691100360,"current_range_meters":29600,"station_id":"ce4bhqp2rcd13ifvqhog","pricing_plan_id":"free"},{"bike_id":"9efa5f42-3932-4bd3-8a34-9a3505ec82cd","system_id":"levelo_inurba_marseille","lat":43.32367,"lon":5.388836,"is_reserved":false,"is_disabled":false,"rental_uris":{"android":"levelo://app?vid=9efa5f42-3932-4bd3-8a34-9a3505ec82cd","ios":"levelo://app?vid=9efa5f42-3932-4bd3-8a34-9a3505ec82cd"},"vehicle_type_id":"4","last_reported":1691100360,"current_range_meters":12000,"station_id":"ce4bhqp2rcd13ifvqhog","pricing_plan_id":"free"},{"bike_id":"07531f33-29bc-4432-9204-831fa945154d","system_id":"levelo_inurba_marseille","lat":43.32367,"lon":5.388836,"is_reserved":false,"is_disabled":false,"rental_uris":{"android":"levelo://app?vid=07531f33-29bc-4432-9204-831fa945154d","ios":"levelo://app?vid=07531f33-29bc-4432-9204-831fa945154d"},"vehicle_type_id":"4","last_reported":1691100360,"current_range_meters":30000,"station_id":"ce4bhqp2rcd13ifvqhog","pricing_plan_id":"free"},{"bike_id":"ea8035d1-28fe-43e1-9f00-12a102f9e97f","system_id":"levelo_inurba_marseille","lat":43.32367,"lon":5.388836,"is_reserved":false,"is_disabled":false,"rental_uris":{"android":"levelo://app?vid=ea8035d1-28fe-43e1-9f00-12a102f9e97f","ios":"levelo://app?vid=ea8035d1-28fe-43e1-9f00-12a102f9e97f"},"vehicle_type_id":"4","last_reported":1691100360,"current_range_meters":27200,"station_id":"ce4bhqp2rcd13ifvqhog","pricing_plan_id":"free"},{"bike_id":"3d2edb57-516f-41bc-985e-42a721904578","system_id":"levelo_inurba_marseille","lat":43.32367,"lon":5.388836,"is_reserved":false,"is_disabled":false,"rental_uris":{"android":"levelo://app?vid=3d2edb57-516f-41bc-985e-42a721904578","ios":"levelo://app?vid=3d2edb57-516f-41bc-985e-42a721904578"},"vehicle_type_id":"4","last_reported":1691100360,"current_range_meters":29200,"station_id":"ce4bhqp2rcd13ifvqhog","pricing_plan_id":"free"},{"bike_id":"660de016-7b00-4735-9d75-3ae99d5de62d","system_id":"levelo_inurba_marseille","lat":43.32367,"lon":5.388836,"is_reserved":false,"is_disabled":false,"rental_uris":{"android":"levelo://app?vid=660de016-7b00-4735-9d75-3ae99d5de62d","ios":"levelo://app?vid=660de016-7b00-4735-9d75-3ae99d5de62d"},"vehicle_type_id":"4","last_reported":1691100360,"current_range_meters":29600,"station_id":"ce4bhqp2rcd13ifvqhog","pricing_plan_id":"free"},{"bike_id":"6be534a9-96c6-4989-b3bb-e9dea76376c4","system_id":"levelo_inurba_marseille","lat":43.32369,"lon":5.38888,"is_reserved":false,"is_disabled":false,"rental_uris":{"android":"levelo://app?vid=6be534a9-96c6-4989-b3bb-e9dea76376c4","ios":"levelo://app?vid=6be534a9-96c6-4989-b3bb-e9dea76376c4"},"vehicle_type_id":"4","last_reported":1691100360,"current_range_meters":14800,"station_id":"ce4bhqp2rcd13ifvqhog","pricing_plan_id":"free"},{"bike_id":"ee373f4b-d04e-43ef-92b8-3105e264ba5d","system_id":"levelo_inurba_marseille","lat":43.32374,"lon":5.38884,"is_reserved":false,"is_disabled":false,"rental_uris":{"android":"levelo://app?vid=ee373f4b-d04e-43ef-92b8-3105e264ba5d","ios":"levelo://app?vid=ee373f4b-d04e-43ef-92b8-3105e264ba5d"},"vehicle_type_id":"4","last_reported":1691100360,"current_range_meters":30000,"station_id":"ce4bhqp2rcd13ifvqhog","pricing_plan_id":"free"},{"bike_id":"83cbeb62-988f-4ba1-ad60-d05472bccfe3","system_id":"levelo_inurba_marseille","lat":43.32367,"lon":5.388836,"is_reserved":false,"is_disabled":false,"rental_uris":{"android":"levelo://app?vid=83cbeb62-988f-4ba1-ad60-d05472bccfe3","ios":"levelo://app?vid=83cbeb62-988f-4ba1-ad60-d05472bccfe3"},"vehicle_type_id":"4","last_reported":1691100360,"current_range_meters":800,"station_id":"ce4bhqp2rcd13ifvqhog","pricing_plan_id":"free"},{"bike_id":"e646e225-31c7-48db-a6df-531e4bda14e7","system_id":"levelo_inurba_marseille","lat":43.29602,"lon":5.381084,"is_reserved":false,"is_disabled":false,"rental_uris":{"android":"levelo://app?vid=e646e225-31c7-48db-a6df-531e4bda14e7","ios":"levelo://app?vid=e646e225-31c7-48db-a6df-531e4bda14e7"},"vehicle_type_id":"4","last_reported":1691100360,"current_range_meters":8800,"station_id":"ce4bgl12rcd13ifvqbo0","pricing_plan_id":"free"},{"bike_id":"d21488ec-34f0-47a6-9598-dd0c52696fd6","system_id":"levelo_inurba_marseille","lat":43.29601,"lon":5.381084,"is_reserved":false,"is_disabled":false,"rental_uris":{"android":"levelo://app?vid=d21488ec-34f0-47a6-9598-dd0c52696fd6","ios":"levelo://app?vid=d21488ec-34f0-47a6-9598-dd0c52696fd6"},"vehicle_type_id":"4","last_reported":1691100360,"current_range_meters":10400,"station_id":"ce4bgl12rcd13ifvqbo0","pricing_plan_id":"free"},{"bike_id":"8b50b0c5-5321-46aa-901f-914b1339019c","system_id":"levelo_inurba_marseille","lat":43.29601,"lon":5.381084,"is_reserved":false,"is_disabled":false,"rental_uris":{"android":"levelo://app?vid=8b50b0c5-5321-46aa-901f-914b1339019c","ios":"levelo://app?vid=8b50b0c5-5321-46aa-901f-914b1339019c"},"vehicle_type_id":"4","last_reported":1691100360,"current_range_meters":4800,"station_id":"ce4bgl12rcd13ifvqbo0","pricing_plan_id":"free"},{"bike_id":"8726dd29-053e-4f78-9c47-2df4e02b2b6b","system_id":"levelo_inurba_marseille","lat":43.29587,"lon":5.38102,"is_reserved":false,"is_disabled":false,"rental_uris":{"android":"levelo://app?vid=8726dd29-053e-4f78-9c47-2df4e02b2b6b","ios":"levelo://app?vid=8726dd29-053e-4f78-9c47-2df4e02b2b6b"},"vehicle_type_id":"4","last_reported":1691100360,"current_range_meters":22400,"station_id":"ce4bgl12rcd13ifvqbo0","pricing_plan_id":"free"},{"bike_id":"50e7de08-77e1-486d-93bc-29b582d85659","system_id":"levelo_inurba_marseille","lat":43.293249,"lon":5.371578,"is_reserved":false,"is_disabled":false,"rental_uris":{"android":"levelo://app?vid=50e7de08-77e1-486d-93bc-29b582d85659","ios":"levelo://app?vid=50e7de08-77e1-486d-93bc-29b582d85659"},"vehicle_type_id":"4","last_reported":1691100360,"current_range_meters":20000,"station_id":"ce4bgh92rcd13ifvqb40","pricing_plan_id":"free"},{"bike_id":"dff1f61a-237c-4e01-b6cb-65322759bb63","system_id":"levelo_inurba_marseille","lat":43.293249,"lon":5.371578,"is_reserved":false,"is_disabled":false,"rental_uris":{"android":"levelo://app?vid=dff1f61a-237c-4e01-b6cb-65322759bb63","ios":"levelo://app?vid=dff1f61a-237c-4e01-b6cb-65322759bb63"},"vehicle_type_id":"4","last_reported":1691100360,"current_range_meters":25200,"station_id":"ce4bgh92rcd13ifvqb40","pricing_plan_id":"free"},{"bike_id":"ed469384-a95f-4985-b6fc-ec9c50d51e5b","system_id":"levelo_inurba_marseille","lat":43.305994,"lon":5.393687,"is_reserved":false,"is_disabled":false,"rental_uris":{"android":"levelo://app?vid=ed469384-a95f-4985-b6fc-ec9c50d51e5b","ios":"levelo://app?vid=ed469384-a95f-4985-b6fc-ec9c50d51e5b"},"vehicle_type_id":"4","last_reported":1691100360,"current_range_meters":26000,"station_id":"ce4bh0p2rcd13ifvqd80","pricing_plan_id":"free"},{"bike_id":"1246cff5-e7a9-489e-a57a-d070822d972a","system_id":"levelo_inurba_marseille","lat":43.2936,"lon":5.37835,"is_reserved":false,"is_disabled":false,"rental_uris":{"android":"levelo://app?vid=1246cff5-e7a9-489e-a57a-d070822d972a","ios":"levelo://app?vid=1246cff5-e7a9-489e-a57a-d070822d972a"},"vehicle_type_id":"4","last_reported":1691100360,"current_range_meters":1600,"station_id":"ce4bgjh2rcd13ifvqbf0","pricing_plan_id":"free"},{"bike_id":"314f7852-f8f3-45df-a261-e3febde8c387","system_id":"levelo_inurba_marseille","lat":43.29889,"lon":5.38892,"is_reserved":false,"is_disabled":false,"rental_uris":{"android":"levelo://app?vid=314f7852-f8f3-45df-a261-e3febde8c387","ios":"levelo://app?vid=314f7852-f8f3-45df-a261-e3febde8c387"},"vehicle_type_id":"4","last_reported":1691100360,"current_range_meters":23200,"station_id":"ce4bh392rcd13ifvqdl0","pricing_plan_id":"free"},{"bike_id":"9987bed1-4a8c-492c-a991-5d3edd398696","system_id":"levelo_inurba_marseille","lat":43.298885,"lon":5.388948,"is_reserved":false,"is_disabled":false,"rental_uris":{"android":"levelo://app?vid=9987bed1-4a8c-492c-a991-5d3edd398696","ios":"levelo://app?vid=9987bed1-4a8c-492c-a991-5d3edd398696"},"vehicle_type_id":"4","last_reported":1691100360,"current_range_meters":24000,"station_id":"","pricing_plan_id":"free"},{"bike_id":"8118ce4a-aa31-4159-9cb0-53652c776f8e","system_id":"levelo_inurba_marseille","lat":43.291675,"lon":5.371583,"is_reserved":false,"is_disabled":false,"rental_uris":{"android":"levelo://app?vid=8118ce4a-aa31-4159-9cb0-53652c776f8e","ios":"levelo://app?vid=8118ce4a-aa31-4159-9cb0-53652c776f8e"},"vehicle_type_id":"4","last_reported":1691100360,"current_range_meters":30400,"station_id":"ce4bha92rcd13ifvqeh0","pricing_plan_id":"free"},{"bike_id":"1a41b8d6-75a9-40cf-8f3b-58865ee680ac","system_id":"levelo_inurba_marseille","lat":43.291671,"lon":5.371575,"is_reserved":false,"is_disabled":false,"rental_uris":{"android":"levelo://app?vid=1a41b8d6-75a9-40cf-8f3b-58865ee680ac","ios":"levelo://app?vid=1a41b8d6-75a9-40cf-8f3b-58865ee680ac"},"vehicle_type_id":"4","last_reported":1691100360,"current_range_meters":2000,"station_id":"ce4bha92rcd13ifvqeh0","pricing_plan_id":"free"},{"bike_id":"dbc517e1-7ab5-48e7-b340-24744b2146fc","system_id":"levelo_inurba_marseille","lat":43.291671,"lon":5.371575,"is_reserved":false,"is_disabled":false,"rental_uris":{"android":"levelo://app?vid=dbc517e1-7ab5-48e7-b340-24744b2146fc","ios":"levelo://app?vid=dbc517e1-7ab5-48e7-b340-24744b2146fc"},"vehicle_type_id":"4","last_reported":1691100360,"current_range_meters":19200,"station_id":"ce4bha92rcd13ifvqeh0","pricing_plan_id":"free"},{"bike_id":"2675487f-d54f-4b21-ba9e-e9ff1df2263e","system_id":"levelo_inurba_marseille","lat":43.29881,"lon":5.38911,"is_reserved":false,"is_disabled":false,"rental_uris":{"android":"levelo://app?vid=2675487f-d54f-4b21-ba9e-e9ff1df2263e","ios":"levelo://app?vid=2675487f-d54f-4b21-ba9e-e9ff1df2263e"},"vehicle_type_id":"4","last_reported":1691100360,"current_range_meters":0,"station_id":"ce4bh392rcd13ifvqdl0","pricing_plan_id":"free"},{"bike_id":"e3672c44-20ce-467a-9052-5c432a7d6201","system_id":"levelo_inurba_marseille","lat":43.298764,"lon":5.388973,"is_reserved":false,"is_disabled":false,"rental_uris":{"android":"levelo://app?vid=e3672c44-20ce-467a-9052-5c432a7d6201","ios":"levelo://app?vid=e3672c44-20ce-467a-9052-5c432a7d6201"},"vehicle_type_id":"4","last_reported":1691100360,"current_range_meters":29600,"station_id":"ce4bh392rcd13ifvqdl0","pricing_plan_id":"free"},{"bike_id":"400b4f97-f048-4fd4-a452-a36ffa17b9eb","system_id":"levelo_inurba_marseille","lat":43.30889,"lon":5.39629,"is_reserved":false,"is_disabled":false,"rental_uris":{"android":"levelo://app?vid=400b4f97-f048-4fd4-a452-a36ffa17b9eb","ios":"levelo://app?vid=400b4f97-f048-4fd4-a452-a36ffa17b9eb"},"vehicle_type_id":"4","last_reported":1691100360,"current_range_meters":31200,"station_id":"ce4bh012rcd13ifvqcv0","pricing_plan_id":"free"},{"bike_id":"4a7ec550-5e53-4bba-8b15-c2745ab92b83","system_id":"levelo_inurba_marseille","lat":43.313291,"lon":5.396838,"is_reserved":false,"is_disabled":false,"rental_uris":{"android":"levelo://app?vid=4a7ec550-5e53-4bba-8b15-c2745ab92b83","ios":"levelo://app?vid=4a7ec550-5e53-4bba-8b15-c2745ab92b83"},"vehicle_type_id":"4","last_reported":1691100360,"current_range_meters":31200,"station_id":"ce4bgvp2rcd13ifvqcu0","pricing_plan_id":"free"},{"bike_id":"8e0acab3-b764-4288-8f68-9cec13576984","system_id":"levelo_inurba_marseille","lat":43.30881,"lon":5.39649,"is_reserved":false,"is_disabled":false,"rental_uris":{"android":"levelo://app?vid=8e0acab3-b764-4288-8f68-9cec13576984","ios":"levelo://app?vid=8e0acab3-b764-4288-8f68-9cec13576984"},"vehicle_type_id":"4","last_reported":1691100360,"current_range_meters":31200,"station_id":"ce4bh012rcd13ifvqcv0","pricing_plan_id":"free"},{"bike_id":"06d10a03-29d8-4d49-90fa-3a1469df04d5","system_id":"levelo_inurba_marseille","lat":43.30885,"lon":5.3965,"is_reserved":false,"is_disabled":false,"rental_uris":{"android":"levelo://app?vid=06d10a03-29d8-4d49-90fa-3a1469df04d5","ios":"levelo://app?vid=06d10a03-29d8-4d49-90fa-3a1469df04d5"},"vehicle_type_id":"4","last_reported":1691100360,"current_range_meters":23200,"station_id":"ce4bh012rcd13ifvqcv0","pricing_plan_id":"free"},{"bike_id":"999a1647-40cc-4514-9544-250d28ccac9b","system_id":"levelo_inurba_marseille","lat":43.308995,"lon":5.396538,"is_reserved":false,"is_disabled":false,"rental_uris":{"android":"levelo://app?vid=999a1647-40cc-4514-9544-250d28ccac9b","ios":"levelo://app?vid=999a1647-40cc-4514-9544-250d28ccac9b"},"vehicle_type_id":"4","last_reported":1691100360,"current_range_meters":31200,"station_id":"ce4bh012rcd13ifvqcv0","pricing_plan_id":"free"},{"bike_id":"6892b0b6-a11f-494e-89c9-02e8f6fb3c65","system_id":"levelo_inurba_marseille","lat":43.31337,"lon":5.39698,"is_reserved":false,"is_disabled":false,"rental_uris":{"android":"levelo://app?vid=6892b0b6-a11f-494e-89c9-02e8f6fb3c65","ios":"levelo://app?vid=6892b0b6-a11f-494e-89c9-02e8f6fb3c65"},"vehicle_type_id":"4","last_reported":1691100360,"current_range_meters":14800,"station_id":"ce4bgvp2rcd13ifvqcu0","pricing_plan_id":"free"},{"bike_id":"1653e5d6-16d9-4b78-ac23-f6c911a787b2","system_id":"levelo_inurba_marseille","lat":43.31312,"lon":5.39699,"is_reserved":false,"is_disabled":false,"rental_uris":{"android":"levelo://app?vid=1653e5d6-16d9-4b78-ac23-f6c911a787b2","ios":"levelo://app?vid=1653e5d6-16d9-4b78-ac23-f6c911a787b2"},"vehicle_type_id":"4","last_reported":1691100360,"current_range_meters":31200,"station_id":"ce4bgvp2rcd13ifvqcu0","pricing_plan_id":"free"},{"bike_id":"4d288822-d5e1-410e-81fb-ed49ffb36265","system_id":"levelo_inurba_marseille","lat":43.31337,"lon":5.39699,"is_reserved":false,"is_disabled":false,"rental_uris":{"android":"levelo://app?vid=4d288822-d5e1-410e-81fb-ed49ffb36265","ios":"levelo://app?vid=4d288822-d5e1-410e-81fb-ed49ffb36265"},"vehicle_type_id":"4","last_reported":1691100360,"current_range_meters":30800,"station_id":"ce4bgvp2rcd13ifvqcu0","pricing_plan_id":"free"},{"bike_id":"c192acaa-0fb8-43a8-b6ff-c5a39515f26a","system_id":"levelo_inurba_marseille","lat":43.30884,"lon":5.39655,"is_reserved":false,"is_disabled":false,"rental_uris":{"android":"levelo://app?vid=c192acaa-0fb8-43a8-b6ff-c5a39515f26a","ios":"levelo://app?vid=c192acaa-0fb8-43a8-b6ff-c5a39515f26a"},"vehicle_type_id":"4","last_reported":1691100360,"current_range_meters":27200,"station_id":"ce4bh012rcd13ifvqcv0","pricing_plan_id":"free"},{"bike_id":"c6d51ee1-15e1-46de-8313-32d3220fe0bb","system_id":"levelo_inurba_marseille","lat":43.313291,"lon":5.396838,"is_reserved":false,"is_disabled":false,"rental_uris":{"android":"levelo://app?vid=c6d51ee1-15e1-46de-8313-32d3220fe0bb","ios":"levelo://app?vid=c6d51ee1-15e1-46de-8313-32d3220fe0bb"},"vehicle_type_id":"4","last_reported":1691100360,"current_range_meters":13600,"station_id":"ce4bgvp2rcd13ifvqcu0","pricing_plan_id":"free"},{"bike_id":"0ff213c0-38fb-4ede-bcf8-c0815dcb221e","system_id":"levelo_inurba_marseille","lat":43.30894,"lon":5.3966,"is_reserved":false,"is_disabled":false,"rental_uris":{"android":"levelo://app?vid=0ff213c0-38fb-4ede-bcf8-c0815dcb221e","ios":"levelo://app?vid=0ff213c0-38fb-4ede-bcf8-c0815dcb221e"},"vehicle_type_id":"4","last_reported":1691100360,"current_range_meters":2000,"station_id":"ce4bh012rcd13ifvqcv0","pricing_plan_id":"free"},{"bike_id":"980205b1-fee9-47c9-b877-9eaf9f378842","system_id":"levelo_inurba_marseille","lat":43.30882,"lon":5.39658,"is_reserved":false,"is_disabled":false,"rental_uris":{"android":"levelo://app?vid=980205b1-fee9-47c9-b877-9eaf9f378842","ios":"levelo://app?vid=980205b1-fee9-47c9-b877-9eaf9f378842"},"vehicle_type_id":"4","last_reported":1691100360,"current_range_meters":31200,"station_id":"ce4bh012rcd13ifvqcv0","pricing_plan_id":"free"},{"bike_id":"76d4c447-6579-417f-82ea-a841943ee2c4","system_id":"levelo_inurba_marseille","lat":43.30897,"lon":5.39664,"is_reserved":false,"is_disabled":false,"rental_uris":{"android":"levelo://app?vid=76d4c447-6579-417f-82ea-a841943ee2c4","ios":"levelo://app?vid=76d4c447-6579-417f-82ea-a841943ee2c4"},"vehicle_type_id":"4","last_reported":1691100360,"current_range_meters":6800,"station_id":"ce4bh012rcd13ifvqcv0","pricing_plan_id":"free"},{"bike_id":"0485a86c-7e9e-4eab-bf2b-304a7d3ffef0","system_id":"levelo_inurba_marseille","lat":43.31316,"lon":5.3971,"is_reserved":false,"is_disabled":false,"rental_uris":{"android":"levelo://app?vid=0485a86c-7e9e-4eab-bf2b-304a7d3ffef0","ios":"levelo://app?vid=0485a86c-7e9e-4eab-bf2b-304a7d3ffef0"},"vehicle_type_id":"4","last_reported":1691100360,"current_range_meters":31200,"station_id":"ce4bgvp2rcd13ifvqcu0","pricing_plan_id":"free"},{"bike_id":"79109456-6153-4364-99c0-03b94a5a0196","system_id":"levelo_inurba_marseille","lat":43.309038,"lon":5.396546,"is_reserved":false,"is_disabled":false,"rental_uris":{"android":"levelo://app?vid=79109456-6153-4364-99c0-03b94a5a0196","ios":"levelo://app?vid=79109456-6153-4364-99c0-03b94a5a0196"},"vehicle_type_id":"4","last_reported":1691100360,"current_range_meters":31200,"station_id":"ce4bh012rcd13ifvqcv0","pricing_plan_id":"free"},{"bike_id":"afbf3bf9-fbc3-4906-9e21-e5ab49839864","system_id":"levelo_inurba_marseille","lat":43.309038,"lon":5.396715,"is_reserved":false,"is_disabled":false,"rental_uris":{"android":"levelo://app?vid=afbf3bf9-fbc3-4906-9e21-e5ab49839864","ios":"levelo://app?vid=afbf3bf9-fbc3-4906-9e21-e5ab49839864"},"vehicle_type_id":"4","last_reported":1691100360,"current_range_meters":0,"station_id":"","pricing_plan_id":"free"},{"bike_id":"4dba00ed-a699-4e02-98ac-89e1943ee8cf","system_id":"levelo_inurba_marseille","lat":43.302008,"lon":5.394694,"is_reserved":false,"is_disabled":false,"rental_uris":{"android":"levelo://app?vid=4dba00ed-a699-4e02-98ac-89e1943ee8cf","ios":"levelo://app?vid=4dba00ed-a699-4e02-98ac-89e1943ee8cf"},"vehicle_type_id":"4","last_reported":1691100360,"current_range_meters":23200,"station_id":"ce4bh0p2rcd13ifvqd70","pricing_plan_id":"free"},{"bike_id":"6d4f6d7d-6f99-429b-852e-9374b39a7275","system_id":"levelo_inurba_marseille","lat":43.302008,"lon":5.394694,"is_reserved":false,"is_disabled":false,"rental_uris":{"android":"levelo://app?vid=6d4f6d7d-6f99-429b-852e-9374b39a7275","ios":"levelo://app?vid=6d4f6d7d-6f99-429b-852e-9374b39a7275"},"vehicle_type_id":"4","last_reported":1691100360,"current_range_meters":30800,"station_id":"ce4bh0p2rcd13ifvqd70","pricing_plan_id":"free"},{"bike_id":"73075dc5-5317-473f-84ec-8534fdfd76f6","system_id":"levelo_inurba_marseille","lat":43.302008,"lon":5.394694,"is_reserved":false,"is_disabled":false,"rental_uris":{"android":"levelo://app?vid=73075dc5-5317-473f-84ec-8534fdfd76f6","ios":"levelo://app?vid=73075dc5-5317-473f-84ec-8534fdfd76f6"},"vehicle_type_id":"4","last_reported":1691100360,"current_range_meters":27200,"station_id":"ce4bh0p2rcd13ifvqd70","pricing_plan_id":"free"},{"bike_id":"316b625a-5516-4b30-95e8-a40ed0939a53","system_id":"levelo_inurba_marseille","lat":43.302008,"lon":5.394694,"is_reserved":false,"is_disabled":false,"rental_uris":{"android":"levelo://app?vid=316b625a-5516-4b30-95e8-a40ed0939a53","ios":"levelo://app?vid=316b625a-5516-4b30-95e8-a40ed0939a53"},"vehicle_type_id":"4","last_reported":1691100360,"current_range_meters":5200,"station_id":"ce4bh0p2rcd13ifvqd70","pricing_plan_id":"free"},{"bike_id":"bd34a539-6ab5-4cd2-a926-ca6de4b74d49","system_id":"levelo_inurba_marseille","lat":43.294153,"lon":5.386305,"is_reserved":false,"is_disabled":false,"rental_uris":{"android":"levelo://app?vid=bd34a539-6ab5-4cd2-a926-ca6de4b74d49","ios":"levelo://app?vid=bd34a539-6ab5-4cd2-a926-ca6de4b74d49"},"vehicle_type_id":"4","last_reported":1691100360,"current_range_meters":22800,"station_id":"ce4bh2h2rcd13ifvqdh0","pricing_plan_id":"free"},{"bike_id":"f7eb1169-bf50-4eb0-a5ae-ef8c7a6faa2f","system_id":"levelo_inurba_marseille","lat":43.29423,"lon":5.38626,"is_reserved":false,"is_disabled":false,"rental_uris":{"android":"levelo://app?vid=f7eb1169-bf50-4eb0-a5ae-ef8c7a6faa2f","ios":"levelo://app?vid=f7eb1169-bf50-4eb0-a5ae-ef8c7a6faa2f"},"vehicle_type_id":"4","last_reported":1691100360,"current_range_meters":19600,"station_id":"ce4bh2h2rcd13ifvqdh0","pricing_plan_id":"free"},{"bike_id":"562a562a-77db-4b5c-a2f5-1ae942a57eef","system_id":"levelo_inurba_marseille","lat":43.294153,"lon":5.386305,"is_reserved":false,"is_disabled":false,"rental_uris":{"android":"levelo://app?vid=562a562a-77db-4b5c-a2f5-1ae942a57eef","ios":"levelo://app?vid=562a562a-77db-4b5c-a2f5-1ae942a57eef"},"vehicle_type_id":"4","last_reported":1691100360,"current_range_meters":800,"station_id":"ce4bh2h2rcd13ifvqdh0","pricing_plan_id":"free"},{"bike_id":"c8f5dc86-743a-4fd5-9ec7-12d8a98efafc","system_id":"levelo_inurba_marseille","lat":43.292642,"lon":5.384254,"is_reserved":false,"is_disabled":false,"rental_uris":{"android":"levelo://app?vid=c8f5dc86-743a-4fd5-9ec7-12d8a98efafc","ios":"levelo://app?vid=c8f5dc86-743a-4fd5-9ec7-12d8a98efafc"},"vehicle_type_id":"4","last_reported":1691100360,"current_range_meters":25200,"station_id":"ce4bh692rcd13ifvqea0","pricing_plan_id":"free"},{"bike_id":"cdc469b4-1e2b-4476-a0d6-3c6b197e350a","system_id":"levelo_inurba_marseille","lat":43.292642,"lon":5.384254,"is_reserved":false,"is_disabled":false,"rental_uris":{"android":"levelo://app?vid=cdc469b4-1e2b-4476-a0d6-3c6b197e350a","ios":"levelo://app?vid=cdc469b4-1e2b-4476-a0d6-3c6b197e350a"},"vehicle_type_id":"4","last_reported":1691100360,"current_range_meters":27200,"station_id":"ce4bh692rcd13ifvqea0","pricing_plan_id":"free"},{"bike_id":"00b2dcdc-2882-40a1-9132-89c3ec15cf18","system_id":"levelo_inurba_marseille","lat":43.33039,"lon":5.38916,"is_reserved":false,"is_disabled":false,"rental_uris":{"android":"levelo://app?vid=00b2dcdc-2882-40a1-9132-89c3ec15cf18","ios":"levelo://app?vid=00b2dcdc-2882-40a1-9132-89c3ec15cf18"},"vehicle_type_id":"4","last_reported":1691100360,"current_range_meters":22400,"station_id":"ce4bhr92rcd13ifvqhrg","pricing_plan_id":"free"},{"bike_id":"f67edc25-bcc7-41fb-8431-1add679b0933","system_id":"levelo_inurba_marseille","lat":43.33042,"lon":5.38915,"is_reserved":false,"is_disabled":false,"rental_uris":{"android":"levelo://app?vid=f67edc25-bcc7-41fb-8431-1add679b0933","ios":"levelo://app?vid=f67edc25-bcc7-41fb-8431-1add679b0933"},"vehicle_type_id":"4","last_reported":1691100360,"current_range_meters":23200,"station_id":"ce4bhr92rcd13ifvqhrg","pricing_plan_id":"free"},{"bike_id":"976f718a-bfdb-4480-a757-e5b9a5d1a5d6","system_id":"levelo_inurba_marseille","lat":43.33045,"lon":5.38912,"is_reserved":false,"is_disabled":false,"rental_uris":{"android":"levelo://app?vid=976f718a-bfdb-4480-a757-e5b9a5d1a5d6","ios":"levelo://app?vid=976f718a-bfdb-4480-a757-e5b9a5d1a5d6"},"vehicle_type_id":"4","last_reported":1691100360,"current_range_meters":16400,"station_id":"ce4bhr92rcd13ifvqhrg","pricing_plan_id":"free"},{"bike_id":"16bb14ed-7d88-467c-ab3f-857c5a303700","system_id":"levelo_inurba_marseille","lat":43.33045,"lon":5.38913,"is_reserved":false,"is_disabled":false,"rental_uris":{"android":"levelo://app?vid=16bb14ed-7d88-467c-ab3f-857c5a303700","ios":"levelo://app?vid=16bb14ed-7d88-467c-ab3f-857c5a303700"},"vehicle_type_id":"4","last_reported":1691100360,"current_range_meters":8000,"station_id":"ce4bhr92rcd13ifvqhrg","pricing_plan_id":"free"},{"bike_id":"2f2d42a2-8de0-405f-9429-d3eae654394c","system_id":"levelo_inurba_marseille","lat":43.33047,"lon":5.3891,"is_reserved":false,"is_disabled":false,"rental_uris":{"android":"levelo://app?vid=2f2d42a2-8de0-405f-9429-d3eae654394c","ios":"levelo://app?vid=2f2d42a2-8de0-405f-9429-d3eae654394c"},"vehicle_type_id":"4","last_reported":1691100360,"current_range_meters":24800,"station_id":"ce4bhr92rcd13ifvqhrg","pricing_plan_id":"free"},{"bike_id":"7c9deefa-64c9-4365-9ae6-9d26097f09ea","system_id":"levelo_inurba_marseille","lat":43.33041,"lon":5.38921,"is_reserved":false,"is_disabled":false,"rental_uris":{"android":"levelo://app?vid=7c9deefa-64c9-4365-9ae6-9d26097f09ea","ios":"levelo://app?vid=7c9deefa-64c9-4365-9ae6-9d26097f09ea"},"vehicle_type_id":"4","last_reported":1691100360,"current_range_meters":0,"station_id":"ce4bhr92rcd13ifvqhrg","pricing_plan_id":"free"},{"bike_id":"20cf3f6d-acf4-4653-bf24-baa04253f77a","system_id":"levelo_inurba_marseille","lat":43.33047,"lon":5.38954,"is_reserved":false,"is_disabled":false,"rental_uris":{"android":"levelo://app?vid=20cf3f6d-acf4-4653-bf24-baa04253f77a","ios":"levelo://app?vid=20cf3f6d-acf4-4653-bf24-baa04253f77a"},"vehicle_type_id":"4","last_reported":1691100360,"current_range_meters":22000,"station_id":"ce4bhr92rcd13ifvqhrg","pricing_plan_id":"free"},{"bike_id":"05bf2cc0-c80b-4d3b-9303-5cea93148e89","system_id":"levelo_inurba_marseille","lat":43.290995,"lon":5.381361,"is_reserved":false,"is_disabled":false,"rental_uris":{"android":"levelo://app?vid=05bf2cc0-c80b-4d3b-9303-5cea93148e89","ios":"levelo://app?vid=05bf2cc0-c80b-4d3b-9303-5cea93148e89"},"vehicle_type_id":"4","last_reported":1691100360,"current_range_meters":31200,"station_id":"ce4bh512rcd13ifvqe2g","pricing_plan_id":"free"},{"bike_id":"59e25e42-197b-4bf0-98e5-6ba627c6ac13","system_id":"levelo_inurba_marseille","lat":43.297815,"lon":5.393548,"is_reserved":false,"is_disabled":false,"rental_uris":{"android":"levelo://app?vid=59e25e42-197b-4bf0-98e5-6ba627c6ac13","ios":"levelo://app?vid=59e25e42-197b-4bf0-98e5-6ba627c6ac13"},"vehicle_type_id":"4","last_reported":1691100360,"current_range_meters":24800,"station_id":"chh1huq6cuj3fo74tm60","pricing_plan_id":"free"},{"bike_id":"bdbc9dfe-3f41-4097-a850-4ee4397a4d7e","system_id":"levelo_inurba_marseille","lat":43.297815,"lon":5.393548,"is_reserved":false,"is_disabled":false,"rental_uris":{"android":"levelo://app?vid=bdbc9dfe-3f41-4097-a850-4ee4397a4d7e","ios":"levelo://app?vid=bdbc9dfe-3f41-4097-a850-4ee4397a4d7e"},"vehicle_type_id":"4","last_reported":1691100360,"current_range_meters":3600,"station_id":"chh1huq6cuj3fo74tm60","pricing_plan_id":"free"},{"bike_id":"f1bf9832-1816-4af4-a5a1-e603cfceeed9","system_id":"levelo_inurba_marseille","lat":43.297815,"lon":5.393548,"is_reserved":false,"is_disabled":false,"rental_uris":{"android":"levelo://app?vid=f1bf9832-1816-4af4-a5a1-e603cfceeed9","ios":"levelo://app?vid=f1bf9832-1816-4af4-a5a1-e603cfceeed9"},"vehicle_type_id":"4","last_reported":1691100360,"current_range_meters":30000,"station_id":"chh1huq6cuj3fo74tm60","pricing_plan_id":"free"},{"bike_id":"fb0f9bc1-4ef7-4281-8516-1e3a8858835a","system_id":"levelo_inurba_marseille","lat":43.33749,"lon":5.37498,"is_reserved":false,"is_disabled":false,"rental_uris":{"android":"levelo://app?vid=fb0f9bc1-4ef7-4281-8516-1e3a8858835a","ios":"levelo://app?vid=fb0f9bc1-4ef7-4281-8516-1e3a8858835a"},"vehicle_type_id":"4","last_reported":1691100360,"current_range_meters":26800,"station_id":"","pricing_plan_id":"free"},{"bike_id":"0f284c9a-b71c-4112-b68a-45d60b77c87a","system_id":"levelo_inurba_marseille","lat":43.30931,"lon":5.40159,"is_reserved":false,"is_disabled":false,"rental_uris":{"android":"levelo://app?vid=0f284c9a-b71c-4112-b68a-45d60b77c87a","ios":"levelo://app?vid=0f284c9a-b71c-4112-b68a-45d60b77c87a"},"vehicle_type_id":"4","last_reported":1691100360,"current_range_meters":2000,"station_id":"ce4bgvp2rcd13ifvqct0","pricing_plan_id":"free"},{"bike_id":"51fb9891-86c5-4d0b-8b1f-fa446de6a5a5","system_id":"levelo_inurba_marseille","lat":43.33752,"lon":5.37502,"is_reserved":false,"is_disabled":false,"rental_uris":{"android":"levelo://app?vid=51fb9891-86c5-4d0b-8b1f-fa446de6a5a5","ios":"levelo://app?vid=51fb9891-86c5-4d0b-8b1f-fa446de6a5a5"},"vehicle_type_id":"4","last_reported":1691100360,"current_range_meters":27200,"station_id":"","pricing_plan_id":"free"},{"bike_id":"d615a9ee-dc67-417e-bf7d-5ccf03126185","system_id":"levelo_inurba_marseille","lat":43.33763,"lon":5.37446,"is_reserved":false,"is_disabled":false,"rental_uris":{"android":"levelo://app?vid=d615a9ee-dc67-417e-bf7d-5ccf03126185","ios":"levelo://app?vid=d615a9ee-dc67-417e-bf7d-5ccf03126185"},"vehicle_type_id":"4","last_reported":1691100360,"current_range_meters":31200,"station_id":"","pricing_plan_id":"free"},{"bike_id":"1056c3a1-74f5-4926-be69-e4bc0d68c190","system_id":"levelo_inurba_marseille","lat":43.33756,"lon":5.37491,"is_reserved":false,"is_disabled":false,"rental_uris":{"android":"levelo://app?vid=1056c3a1-74f5-4926-be69-e4bc0d68c190","ios":"levelo://app?vid=1056c3a1-74f5-4926-be69-e4bc0d68c190"},"vehicle_type_id":"4","last_reported":1691100360,"current_range_meters":30000,"station_id":"","pricing_plan_id":"free"},{"bike_id":"1f9201be-b44c-4316-9454-40212873ae7f","system_id":"levelo_inurba_marseille","lat":43.33757,"lon":5.37494,"is_reserved":false,"is_disabled":false,"rental_uris":{"android":"levelo://app?vid=1f9201be-b44c-4316-9454-40212873ae7f","ios":"levelo://app?vid=1f9201be-b44c-4316-9454-40212873ae7f"},"vehicle_type_id":"4","last_reported":1691100360,"current_range_meters":30800,"station_id":"","pricing_plan_id":"free"},{"bike_id":"850fdc32-3aee-42a2-bf86-499dc7646f02","system_id":"levelo_inurba_marseille","lat":43.33758,"lon":5.3749,"is_reserved":false,"is_disabled":false,"rental_uris":{"android":"levelo://app?vid=850fdc32-3aee-42a2-bf86-499dc7646f02","ios":"levelo://app?vid=850fdc32-3aee-42a2-bf86-499dc7646f02"},"vehicle_type_id":"4","last_reported":1691100360,"current_range_meters":18800,"station_id":"","pricing_plan_id":"free"},{"bike_id":"f6198eea-596f-43bd-8d44-fe02429ed013","system_id":"levelo_inurba_marseille","lat":43.33759,"lon":5.37501,"is_reserved":false,"is_disabled":false,"rental_uris":{"android":"levelo://app?vid=f6198eea-596f-43bd-8d44-fe02429ed013","ios":"levelo://app?vid=f6198eea-596f-43bd-8d44-fe02429ed013"},"vehicle_type_id":"4","last_reported":1691100360,"current_range_meters":12400,"station_id":"","pricing_plan_id":"free"},{"bike_id":"e6146384-20ea-4bda-a8f0-cb68f244af52","system_id":"levelo_inurba_marseille","lat":43.306412,"lon":5.401035,"is_reserved":false,"is_disabled":false,"rental_uris":{"android":"levelo://app?vid=e6146384-20ea-4bda-a8f0-cb68f244af52","ios":"levelo://app?vid=e6146384-20ea-4bda-a8f0-cb68f244af52"},"vehicle_type_id":"4","last_reported":1691100360,"current_range_meters":10400,"station_id":"ce4bh112rcd13ifvqda0","pricing_plan_id":"free"},{"bike_id":"29c3dabd-5585-4bcf-902f-1cdab176d148","system_id":"levelo_inurba_marseille","lat":43.301117,"lon":5.398795,"is_reserved":false,"is_disabled":false,"rental_uris":{"android":"levelo://app?vid=29c3dabd-5585-4bcf-902f-1cdab176d148","ios":"levelo://app?vid=29c3dabd-5585-4bcf-902f-1cdab176d148"},"vehicle_type_id":"4","last_reported":1691100360,"current_range_meters":1600,"station_id":"ce4bh0h2rcd13ifvqd40","pricing_plan_id":"free"},{"bike_id":"815e6108-243e-4488-8a0e-87235679e69d","system_id":"levelo_inurba_marseille","lat":43.301117,"lon":5.398795,"is_reserved":false,"is_disabled":false,"rental_uris":{"android":"levelo://app?vid=815e6108-243e-4488-8a0e-87235679e69d","ios":"levelo://app?vid=815e6108-243e-4488-8a0e-87235679e69d"},"vehicle_type_id":"4","last_reported":1691100360,"current_range_meters":25600,"station_id":"ce4bh0h2rcd13ifvqd40","pricing_plan_id":"free"},{"bike_id":"cafa9dfd-7ac0-4a10-a37a-69442daedb4a","system_id":"levelo_inurba_marseille","lat":43.301117,"lon":5.398795,"is_reserved":false,"is_disabled":false,"rental_uris":{"android":"levelo://app?vid=cafa9dfd-7ac0-4a10-a37a-69442daedb4a","ios":"levelo://app?vid=cafa9dfd-7ac0-4a10-a37a-69442daedb4a"},"vehicle_type_id":"4","last_reported":1691100360,"current_range_meters":14000,"station_id":"ce4bh0h2rcd13ifvqd40","pricing_plan_id":"free"},{"bike_id":"aa62fb65-04e6-4a12-95d7-049ddf0eef14","system_id":"levelo_inurba_marseille","lat":43.301117,"lon":5.398795,"is_reserved":false,"is_disabled":false,"rental_uris":{"android":"levelo://app?vid=aa62fb65-04e6-4a12-95d7-049ddf0eef14","ios":"levelo://app?vid=aa62fb65-04e6-4a12-95d7-049ddf0eef14"},"vehicle_type_id":"4","last_reported":1691100360,"current_range_meters":31200,"station_id":"ce4bh0h2rcd13ifvqd40","pricing_plan_id":"free"},{"bike_id":"b9a00f88-544c-4482-a100-6d042bc171cf","system_id":"levelo_inurba_marseille","lat":43.30137,"lon":5.39889,"is_reserved":false,"is_disabled":false,"rental_uris":{"android":"levelo://app?vid=b9a00f88-544c-4482-a100-6d042bc171cf","ios":"levelo://app?vid=b9a00f88-544c-4482-a100-6d042bc171cf"},"vehicle_type_id":"4","last_reported":1691100360,"current_range_meters":0,"station_id":"ce4bh0h2rcd13ifvqd40","pricing_plan_id":"free"},{"bike_id":"066126de-2e58-4127-a355-0541254444ff","system_id":"levelo_inurba_marseille","lat":43.286591,"lon":5.363346,"is_reserved":false,"is_disabled":false,"rental_uris":{"android":"levelo://app?vid=066126de-2e58-4127-a355-0541254444ff","ios":"levelo://app?vid=066126de-2e58-4127-a355-0541254444ff"},"vehicle_type_id":"4","last_reported":1691100360,"current_range_meters":29600,"station_id":"ce4bhah2rcd13ifvqej0","pricing_plan_id":"free"},{"bike_id":"e2137bde-116d-4840-a615-82b46edd5d65","system_id":"levelo_inurba_marseille","lat":43.286591,"lon":5.363346,"is_reserved":false,"is_disabled":false,"rental_uris":{"android":"levelo://app?vid=e2137bde-116d-4840-a615-82b46edd5d65","ios":"levelo://app?vid=e2137bde-116d-4840-a615-82b46edd5d65"},"vehicle_type_id":"4","last_reported":1691100360,"current_range_meters":20400,"station_id":"ce4bhah2rcd13ifvqej0","pricing_plan_id":"free"},{"bike_id":"c4d8e5e8-5beb-4015-bd61-1b838c13e7f4","system_id":"levelo_inurba_marseille","lat":43.29178,"lon":5.38836,"is_reserved":false,"is_disabled":false,"rental_uris":{"android":"levelo://app?vid=c4d8e5e8-5beb-4015-bd61-1b838c13e7f4","ios":"levelo://app?vid=c4d8e5e8-5beb-4015-bd61-1b838c13e7f4"},"vehicle_type_id":"4","last_reported":1691100360,"current_range_meters":24000,"station_id":"","pricing_plan_id":"free"},{"bike_id":"893d59a8-596a-4617-a72c-23874817ec33","system_id":"levelo_inurba_marseille","lat":43.286961,"lon":5.373785,"is_reserved":false,"is_disabled":false,"rental_uris":{"android":"levelo://app?vid=893d59a8-596a-4617-a72c-23874817ec33","ios":"levelo://app?vid=893d59a8-596a-4617-a72c-23874817ec33"},"vehicle_type_id":"4","last_reported":1691100360,"current_range_meters":31200,"station_id":"ce4bh3p2rcd13ifvqdq0","pricing_plan_id":"free"},{"bike_id":"e512daf6-ca25-4c1d-b741-f785bb3d4f90","system_id":"levelo_inurba_marseille","lat":43.286961,"lon":5.373785,"is_reserved":false,"is_disabled":false,"rental_uris":{"android":"levelo://app?vid=e512daf6-ca25-4c1d-b741-f785bb3d4f90","ios":"levelo://app?vid=e512daf6-ca25-4c1d-b741-f785bb3d4f90"},"vehicle_type_id":"4","last_reported":1691100360,"current_range_meters":31200,"station_id":"ce4bh3p2rcd13ifvqdq0","pricing_plan_id":"free"},{"bike_id":"20076c1d-cf3b-4a12-b9aa-b3c9ec4c68fa","system_id":"levelo_inurba_marseille","lat":43.286591,"lon":5.363346,"is_reserved":false,"is_disabled":false,"rental_uris":{"android":"levelo://app?vid=20076c1d-cf3b-4a12-b9aa-b3c9ec4c68fa","ios":"levelo://app?vid=20076c1d-cf3b-4a12-b9aa-b3c9ec4c68fa"},"vehicle_type_id":"4","last_reported":1691100360,"current_range_meters":16800,"station_id":"ce4bhah2rcd13ifvqej0","pricing_plan_id":"free"},{"bike_id":"aab21bf7-a4ca-44f0-baf9-7194dfb8077d","system_id":"levelo_inurba_marseille","lat":43.286591,"lon":5.363346,"is_reserved":false,"is_disabled":false,"rental_uris":{"android":"levelo://app?vid=aab21bf7-a4ca-44f0-baf9-7194dfb8077d","ios":"levelo://app?vid=aab21bf7-a4ca-44f0-baf9-7194dfb8077d"},"vehicle_type_id":"4","last_reported":1691100360,"current_range_meters":0,"station_id":"ce4bhah2rcd13ifvqej0","pricing_plan_id":"free"},{"bike_id":"cbcbd585-e4f7-4572-abb0-6ff33efc2f91","system_id":"levelo_inurba_marseille","lat":43.286961,"lon":5.373785,"is_reserved":false,"is_disabled":false,"rental_uris":{"android":"levelo://app?vid=cbcbd585-e4f7-4572-abb0-6ff33efc2f91","ios":"levelo://app?vid=cbcbd585-e4f7-4572-abb0-6ff33efc2f91"},"vehicle_type_id":"4","last_reported":1691100360,"current_range_meters":11200,"station_id":"ce4bh3p2rcd13ifvqdq0","pricing_plan_id":"free"},{"bike_id":"01aaee03-0e25-4327-8d0f-15388cbd14a3","system_id":"levelo_inurba_marseille","lat":43.298681,"lon":5.397225,"is_reserved":false,"is_disabled":false,"rental_uris":{"android":"levelo://app?vid=01aaee03-0e25-4327-8d0f-15388cbd14a3","ios":"levelo://app?vid=01aaee03-0e25-4327-8d0f-15388cbd14a3"},"vehicle_type_id":"4","last_reported":1691100360,"current_range_meters":18800,"station_id":"ce4bh0h2rcd13ifvqd50","pricing_plan_id":"free"},{"bike_id":"75199276-b705-4ad7-b6a9-49aeaa84628a","system_id":"levelo_inurba_marseille","lat":43.286591,"lon":5.363346,"is_reserved":false,"is_disabled":false,"rental_uris":{"android":"levelo://app?vid=75199276-b705-4ad7-b6a9-49aeaa84628a","ios":"levelo://app?vid=75199276-b705-4ad7-b6a9-49aeaa84628a"},"vehicle_type_id":"4","last_reported":1691100360,"current_range_meters":31600,"station_id":"ce4bhah2rcd13ifvqej0","pricing_plan_id":"free"},{"bike_id":"883ced4e-3720-4d37-be89-4468d7d697b6","system_id":"levelo_inurba_marseille","lat":43.286591,"lon":5.363346,"is_reserved":false,"is_disabled":false,"rental_uris":{"android":"levelo://app?vid=883ced4e-3720-4d37-be89-4468d7d697b6","ios":"levelo://app?vid=883ced4e-3720-4d37-be89-4468d7d697b6"},"vehicle_type_id":"4","last_reported":1691100360,"current_range_meters":22800,"station_id":"ce4bhah2rcd13ifvqej0","pricing_plan_id":"free"},{"bike_id":"c68674f4-767f-4f21-9841-9ec97999786f","system_id":"levelo_inurba_marseille","lat":43.298681,"lon":5.397225,"is_reserved":false,"is_disabled":false,"rental_uris":{"android":"levelo://app?vid=c68674f4-767f-4f21-9841-9ec97999786f","ios":"levelo://app?vid=c68674f4-767f-4f21-9841-9ec97999786f"},"vehicle_type_id":"4","last_reported":1691100360,"current_range_meters":13200,"station_id":"ce4bh0h2rcd13ifvqd50","pricing_plan_id":"free"},{"bike_id":"7e1b3fc6-18eb-4cb4-b8c6-688dd1e95388","system_id":"levelo_inurba_marseille","lat":43.286961,"lon":5.373785,"is_reserved":false,"is_disabled":false,"rental_uris":{"android":"levelo://app?vid=7e1b3fc6-18eb-4cb4-b8c6-688dd1e95388","ios":"levelo://app?vid=7e1b3fc6-18eb-4cb4-b8c6-688dd1e95388"},"vehicle_type_id":"4","last_reported":1691100360,"current_range_meters":8000,"station_id":"ce4bh3p2rcd13ifvqdq0","pricing_plan_id":"free"},{"bike_id":"3d075063-9027-4570-befb-36b7e2c58e12","system_id":"levelo_inurba_marseille","lat":43.295196,"lon":5.39397,"is_reserved":false,"is_disabled":false,"rental_uris":{"android":"levelo://app?vid=3d075063-9027-4570-befb-36b7e2c58e12","ios":"levelo://app?vid=3d075063-9027-4570-befb-36b7e2c58e12"},"vehicle_type_id":"4","last_reported":1691100360,"current_range_meters":3600,"station_id":"ce4bh292rcd13ifvqdf0","pricing_plan_id":"free"},{"bike_id":"4fc18c00-5df7-47a8-a77d-5c6bb7b53b74","system_id":"levelo_inurba_marseille","lat":43.286593,"lon":5.363346,"is_reserved":false,"is_disabled":false,"rental_uris":{"android":"levelo://app?vid=4fc18c00-5df7-47a8-a77d-5c6bb7b53b74","ios":"levelo://app?vid=4fc18c00-5df7-47a8-a77d-5c6bb7b53b74"},"vehicle_type_id":"4","last_reported":1691100360,"current_range_meters":29200,"station_id":"ce4bhah2rcd13ifvqej0","pricing_plan_id":"free"},{"bike_id":"1a9c86c2-d02b-4993-bbbd-b35b4b83fda1","system_id":"levelo_inurba_marseille","lat":43.295196,"lon":5.39397,"is_reserved":false,"is_disabled":false,"rental_uris":{"android":"levelo://app?vid=1a9c86c2-d02b-4993-bbbd-b35b4b83fda1","ios":"levelo://app?vid=1a9c86c2-d02b-4993-bbbd-b35b4b83fda1"},"vehicle_type_id":"4","last_reported":1691100360,"current_range_meters":14000,"station_id":"ce4bh292rcd13ifvqdf0","pricing_plan_id":"free"},{"bike_id":"d02e6528-1cf6-4429-a793-c9b3a2478b1d","system_id":"levelo_inurba_marseille","lat":43.295196,"lon":5.39397,"is_reserved":false,"is_disabled":false,"rental_uris":{"android":"levelo://app?vid=d02e6528-1cf6-4429-a793-c9b3a2478b1d","ios":"levelo://app?vid=d02e6528-1cf6-4429-a793-c9b3a2478b1d"},"vehicle_type_id":"4","last_reported":1691100360,"current_range_meters":12400,"station_id":"ce4bh292rcd13ifvqdf0","pricing_plan_id":"free"},{"bike_id":"d2fc9eb3-4a1d-488d-b03d-8e34d5428896","system_id":"levelo_inurba_marseille","lat":43.295196,"lon":5.39397,"is_reserved":false,"is_disabled":false,"rental_uris":{"android":"levelo://app?vid=d2fc9eb3-4a1d-488d-b03d-8e34d5428896","ios":"levelo://app?vid=d2fc9eb3-4a1d-488d-b03d-8e34d5428896"},"vehicle_type_id":"4","last_reported":1691100360,"current_range_meters":31200,"station_id":"ce4bh292rcd13ifvqdf0","pricing_plan_id":"free"},{"bike_id":"64726253-c89b-4fdb-a80f-44341e363421","system_id":"levelo_inurba_marseille","lat":43.295196,"lon":5.39397,"is_reserved":false,"is_disabled":false,"rental_uris":{"android":"levelo://app?vid=64726253-c89b-4fdb-a80f-44341e363421","ios":"levelo://app?vid=64726253-c89b-4fdb-a80f-44341e363421"},"vehicle_type_id":"4","last_reported":1691100360,"current_range_meters":19600,"station_id":"ce4bh292rcd13ifvqdf0","pricing_plan_id":"free"},{"bike_id":"375033c6-1484-4608-bd6f-532f806067fc","system_id":"levelo_inurba_marseille","lat":43.295196,"lon":5.39397,"is_reserved":false,"is_disabled":false,"rental_uris":{"android":"levelo://app?vid=375033c6-1484-4608-bd6f-532f806067fc","ios":"levelo://app?vid=375033c6-1484-4608-bd6f-532f806067fc"},"vehicle_type_id":"4","last_reported":1691100360,"current_range_meters":23200,"station_id":"ce4bh292rcd13ifvqdf0","pricing_plan_id":"free"},{"bike_id":"7b9e2d57-7c2f-4652-8ec0-ee4d147afe24","system_id":"levelo_inurba_marseille","lat":43.302548,"lon":5.400568,"is_reserved":false,"is_disabled":false,"rental_uris":{"android":"levelo://app?vid=7b9e2d57-7c2f-4652-8ec0-ee4d147afe24","ios":"levelo://app?vid=7b9e2d57-7c2f-4652-8ec0-ee4d147afe24"},"vehicle_type_id":"4","last_reported":1691100360,"current_range_meters":17200,"station_id":"","pricing_plan_id":"free"},{"bike_id":"280a4491-2d6e-4882-9ab7-2f6a565684c8","system_id":"levelo_inurba_marseille","lat":43.290345,"lon":5.38646,"is_reserved":false,"is_disabled":false,"rental_uris":{"android":"levelo://app?vid=280a4491-2d6e-4882-9ab7-2f6a565684c8","ios":"levelo://app?vid=280a4491-2d6e-4882-9ab7-2f6a565684c8"},"vehicle_type_id":"4","last_reported":1691100360,"current_range_meters":31200,"station_id":"ce4bh4p2rcd13ifvqe0g","pricing_plan_id":"free"},{"bike_id":"0e1793df-58b4-4907-8bff-acd649e8696d","system_id":"levelo_inurba_marseille","lat":43.290345,"lon":5.38646,"is_reserved":false,"is_disabled":false,"rental_uris":{"android":"levelo://app?vid=0e1793df-58b4-4907-8bff-acd649e8696d","ios":"levelo://app?vid=0e1793df-58b4-4907-8bff-acd649e8696d"},"vehicle_type_id":"4","last_reported":1691100360,"current_range_meters":31200,"station_id":"ce4bh4p2rcd13ifvqe0g","pricing_plan_id":"free"},{"bike_id":"c84652a0-14bb-454f-afc0-cb8608b6166d","system_id":"levelo_inurba_marseille","lat":43.302759,"lon":5.400793,"is_reserved":false,"is_disabled":false,"rental_uris":{"android":"levelo://app?vid=c84652a0-14bb-454f-afc0-cb8608b6166d","ios":"levelo://app?vid=c84652a0-14bb-454f-afc0-cb8608b6166d"},"vehicle_type_id":"4","last_reported":1691100360,"current_range_meters":19600,"station_id":"ce4bgvh2rcd13ifvqcs0","pricing_plan_id":"free"},{"bike_id":"9c70dac5-2369-460b-aaa4-c866ccd96854","system_id":"levelo_inurba_marseille","lat":43.302759,"lon":5.400793,"is_reserved":false,"is_disabled":false,"rental_uris":{"android":"levelo://app?vid=9c70dac5-2369-460b-aaa4-c866ccd96854","ios":"levelo://app?vid=9c70dac5-2369-460b-aaa4-c866ccd96854"},"vehicle_type_id":"4","last_reported":1691100360,"current_range_meters":28400,"station_id":"ce4bgvh2rcd13ifvqcs0","pricing_plan_id":"free"},{"bike_id":"a1e6e7cc-01d4-4494-b06c-63184b79e35c","system_id":"levelo_inurba_marseille","lat":43.286039,"lon":5.370681,"is_reserved":false,"is_disabled":false,"rental_uris":{"android":"levelo://app?vid=a1e6e7cc-01d4-4494-b06c-63184b79e35c","ios":"levelo://app?vid=a1e6e7cc-01d4-4494-b06c-63184b79e35c"},"vehicle_type_id":"4","last_reported":1691100360,"current_range_meters":6400,"station_id":"ce4bht12rcd13ifvqi60","pricing_plan_id":"free"},{"bike_id":"0673d8e6-73cb-420a-b702-e983a7b63d46","system_id":"levelo_inurba_marseille","lat":43.286039,"lon":5.370679,"is_reserved":false,"is_disabled":false,"rental_uris":{"android":"levelo://app?vid=0673d8e6-73cb-420a-b702-e983a7b63d46","ios":"levelo://app?vid=0673d8e6-73cb-420a-b702-e983a7b63d46"},"vehicle_type_id":"4","last_reported":1691100360,"current_range_meters":0,"station_id":"ce4bht12rcd13ifvqi60","pricing_plan_id":"free"},{"bike_id":"fea3e8b7-fcf5-443c-a2ff-625d26b251a9","system_id":"levelo_inurba_marseille","lat":43.286039,"lon":5.370679,"is_reserved":false,"is_disabled":false,"rental_uris":{"android":"levelo://app?vid=fea3e8b7-fcf5-443c-a2ff-625d26b251a9","ios":"levelo://app?vid=fea3e8b7-fcf5-443c-a2ff-625d26b251a9"},"vehicle_type_id":"4","last_reported":1691100360,"current_range_meters":21200,"station_id":"ce4bht12rcd13ifvqi60","pricing_plan_id":"free"},{"bike_id":"60093e45-1543-449d-92e1-cf37a2294b8e","system_id":"levelo_inurba_marseille","lat":43.286039,"lon":5.370681,"is_reserved":false,"is_disabled":false,"rental_uris":{"android":"levelo://app?vid=60093e45-1543-449d-92e1-cf37a2294b8e","ios":"levelo://app?vid=60093e45-1543-449d-92e1-cf37a2294b8e"},"vehicle_type_id":"4","last_reported":1691100360,"current_range_meters":26000,"station_id":"ce4bht12rcd13ifvqi60","pricing_plan_id":"free"},{"bike_id":"e903b02d-848c-477c-bdc3-eed524ed64a6","system_id":"levelo_inurba_marseille","lat":43.287185,"lon":5.379373,"is_reserved":false,"is_disabled":false,"rental_uris":{"android":"levelo://app?vid=e903b02d-848c-477c-bdc3-eed524ed64a6","ios":"levelo://app?vid=e903b02d-848c-477c-bdc3-eed524ed64a6"},"vehicle_type_id":"4","last_reported":1691100360,"current_range_meters":26000,"station_id":"ce4bh9p2rcd13ifvqec0","pricing_plan_id":"free"},{"bike_id":"73243fd3-1d1f-49a3-b60d-aa37a39392e6","system_id":"levelo_inurba_marseille","lat":43.287184,"lon":5.37937,"is_reserved":false,"is_disabled":false,"rental_uris":{"android":"levelo://app?vid=73243fd3-1d1f-49a3-b60d-aa37a39392e6","ios":"levelo://app?vid=73243fd3-1d1f-49a3-b60d-aa37a39392e6"},"vehicle_type_id":"4","last_reported":1691100360,"current_range_meters":30400,"station_id":"ce4bh9p2rcd13ifvqec0","pricing_plan_id":"free"},{"bike_id":"4577bd88-21c4-4615-ac39-f615cca6e59c","system_id":"levelo_inurba_marseille","lat":43.28779,"lon":5.35233,"is_reserved":false,"is_disabled":false,"rental_uris":{"android":"levelo://app?vid=4577bd88-21c4-4615-ac39-f615cca6e59c","ios":"levelo://app?vid=4577bd88-21c4-4615-ac39-f615cca6e59c"},"vehicle_type_id":"4","last_reported":1691100360,"current_range_meters":7200,"station_id":"","pricing_plan_id":"free"},{"bike_id":"67f1e737-ce15-487e-b104-d616b41718f3","system_id":"levelo_inurba_marseille","lat":43.31643,"lon":5.40434,"is_reserved":false,"is_disabled":false,"rental_uris":{"android":"levelo://app?vid=67f1e737-ce15-487e-b104-d616b41718f3","ios":"levelo://app?vid=67f1e737-ce15-487e-b104-d616b41718f3"},"vehicle_type_id":"4","last_reported":1691100360,"current_range_meters":4800,"station_id":"ce4bh012rcd13ifvqd00","pricing_plan_id":"free"},{"bike_id":"505579c6-72ba-4c58-83d0-fb23fcb3bfdd","system_id":"levelo_inurba_marseille","lat":43.31643,"lon":5.40436,"is_reserved":false,"is_disabled":false,"rental_uris":{"android":"levelo://app?vid=505579c6-72ba-4c58-83d0-fb23fcb3bfdd","ios":"levelo://app?vid=505579c6-72ba-4c58-83d0-fb23fcb3bfdd"},"vehicle_type_id":"4","last_reported":1691100360,"current_range_meters":26400,"station_id":"ce4bh012rcd13ifvqd00","pricing_plan_id":"free"},{"bike_id":"520a4f39-296f-418a-9176-ddf2b8f281db","system_id":"levelo_inurba_marseille","lat":43.3165,"lon":5.40436,"is_reserved":false,"is_disabled":false,"rental_uris":{"android":"levelo://app?vid=520a4f39-296f-418a-9176-ddf2b8f281db","ios":"levelo://app?vid=520a4f39-296f-418a-9176-ddf2b8f281db"},"vehicle_type_id":"4","last_reported":1691100360,"current_range_meters":26000,"station_id":"ce4bh012rcd13ifvqd00","pricing_plan_id":"free"},{"bike_id":"d01171e4-03ab-4317-9856-76e61396e64e","system_id":"levelo_inurba_marseille","lat":43.316517,"lon":5.404375,"is_reserved":false,"is_disabled":false,"rental_uris":{"android":"levelo://app?vid=d01171e4-03ab-4317-9856-76e61396e64e","ios":"levelo://app?vid=d01171e4-03ab-4317-9856-76e61396e64e"},"vehicle_type_id":"4","last_reported":1691100360,"current_range_meters":0,"station_id":"ce4bh012rcd13ifvqd00","pricing_plan_id":"free"},{"bike_id":"3474ff5f-0a50-4146-9c1e-000370ac4fe0","system_id":"levelo_inurba_marseille","lat":43.31647,"lon":5.40437,"is_reserved":false,"is_disabled":false,"rental_uris":{"android":"levelo://app?vid=3474ff5f-0a50-4146-9c1e-000370ac4fe0","ios":"levelo://app?vid=3474ff5f-0a50-4146-9c1e-000370ac4fe0"},"vehicle_type_id":"4","last_reported":1691100360,"current_range_meters":11600,"station_id":"ce4bh012rcd13ifvqd00","pricing_plan_id":"free"},{"bike_id":"48ad477d-1b86-462a-a335-912be81d5676","system_id":"levelo_inurba_marseille","lat":43.316517,"lon":5.404375,"is_reserved":false,"is_disabled":false,"rental_uris":{"android":"levelo://app?vid=48ad477d-1b86-462a-a335-912be81d5676","ios":"levelo://app?vid=48ad477d-1b86-462a-a335-912be81d5676"},"vehicle_type_id":"4","last_reported":1691100360,"current_range_meters":24800,"station_id":"ce4bh012rcd13ifvqd00","pricing_plan_id":"free"},{"bike_id":"dbb83019-1f6e-4c55-a5e4-2ed2e82c0122","system_id":"levelo_inurba_marseille","lat":43.29213,"lon":5.39322,"is_reserved":false,"is_disabled":false,"rental_uris":{"android":"levelo://app?vid=dbb83019-1f6e-4c55-a5e4-2ed2e82c0122","ios":"levelo://app?vid=dbb83019-1f6e-4c55-a5e4-2ed2e82c0122"},"vehicle_type_id":"4","last_reported":1691100360,"current_range_meters":12800,"station_id":"ce4bh192rcd13ifvqdd0","pricing_plan_id":"free"},{"bike_id":"28f1812d-2b10-44dc-baa3-e73cb221037d","system_id":"levelo_inurba_marseille","lat":43.29205,"lon":5.39322,"is_reserved":false,"is_disabled":false,"rental_uris":{"android":"levelo://app?vid=28f1812d-2b10-44dc-baa3-e73cb221037d","ios":"levelo://app?vid=28f1812d-2b10-44dc-baa3-e73cb221037d"},"vehicle_type_id":"4","last_reported":1691100360,"current_range_meters":25600,"station_id":"ce4bh192rcd13ifvqdd0","pricing_plan_id":"free"},{"bike_id":"088d0689-aff7-4f28-b1c8-fb5cb54958fc","system_id":"levelo_inurba_marseille","lat":43.2921,"lon":5.39333,"is_reserved":false,"is_disabled":false,"rental_uris":{"android":"levelo://app?vid=088d0689-aff7-4f28-b1c8-fb5cb54958fc","ios":"levelo://app?vid=088d0689-aff7-4f28-b1c8-fb5cb54958fc"},"vehicle_type_id":"4","last_reported":1691100360,"current_range_meters":2000,"station_id":"ce4bh192rcd13ifvqdd0","pricing_plan_id":"free"},{"bike_id":"daeb0f78-19d3-4beb-a6b1-9d79208cdcba","system_id":"levelo_inurba_marseille","lat":43.291994,"lon":5.392907,"is_reserved":false,"is_disabled":false,"rental_uris":{"android":"levelo://app?vid=daeb0f78-19d3-4beb-a6b1-9d79208cdcba","ios":"levelo://app?vid=daeb0f78-19d3-4beb-a6b1-9d79208cdcba"},"vehicle_type_id":"4","last_reported":1691100360,"current_range_meters":0,"station_id":"ce4bh192rcd13ifvqdd0","pricing_plan_id":"free"},{"bike_id":"99ef77c8-5f24-48f8-b499-d5f3fc911ee4","system_id":"levelo_inurba_marseille","lat":43.29247,"lon":5.3941,"is_reserved":false,"is_disabled":false,"rental_uris":{"android":"levelo://app?vid=99ef77c8-5f24-48f8-b499-d5f3fc911ee4","ios":"levelo://app?vid=99ef77c8-5f24-48f8-b499-d5f3fc911ee4"},"vehicle_type_id":"4","last_reported":1691100360,"current_range_meters":17600,"station_id":"","pricing_plan_id":"free"},{"bike_id":"23ab9a18-9ed3-4267-8d82-b838ea023682","system_id":"levelo_inurba_marseille","lat":43.284534,"lon":5.358662,"is_reserved":false,"is_disabled":false,"rental_uris":{"android":"levelo://app?vid=23ab9a18-9ed3-4267-8d82-b838ea023682","ios":"levelo://app?vid=23ab9a18-9ed3-4267-8d82-b838ea023682"},"vehicle_type_id":"4","last_reported":1691100360,"current_range_meters":24800,"station_id":"ce4bhah2rcd13ifvqei0","pricing_plan_id":"free"},{"bike_id":"144545cf-ad51-44ad-a185-c80d84914776","system_id":"levelo_inurba_marseille","lat":43.286039,"lon":5.370679,"is_reserved":false,"is_disabled":false,"rental_uris":{"android":"levelo://app?vid=144545cf-ad51-44ad-a185-c80d84914776","ios":"levelo://app?vid=144545cf-ad51-44ad-a185-c80d84914776"},"vehicle_type_id":"4","last_reported":1691100360,"current_range_meters":16800,"station_id":"ce4bht12rcd13ifvqi60","pricing_plan_id":"free"},{"bike_id":"0fad56f5-1e54-4911-bffb-4fd9d9294521","system_id":"levelo_inurba_marseille","lat":43.29209,"lon":5.39419,"is_reserved":false,"is_disabled":false,"rental_uris":{"android":"levelo://app?vid=0fad56f5-1e54-4911-bffb-4fd9d9294521","ios":"levelo://app?vid=0fad56f5-1e54-4911-bffb-4fd9d9294521"},"vehicle_type_id":"4","last_reported":1691100360,"current_range_meters":7200,"station_id":"","pricing_plan_id":"free"},{"bike_id":"ffc7537c-5df0-4de0-b29c-d5979f7b6bdf","system_id":"levelo_inurba_marseille","lat":43.284534,"lon":5.358662,"is_reserved":false,"is_disabled":false,"rental_uris":{"android":"levelo://app?vid=ffc7537c-5df0-4de0-b29c-d5979f7b6bdf","ios":"levelo://app?vid=ffc7537c-5df0-4de0-b29c-d5979f7b6bdf"},"vehicle_type_id":"4","last_reported":1691100360,"current_range_meters":9200,"station_id":"ce4bhah2rcd13ifvqei0","pricing_plan_id":"free"},{"bike_id":"636185a4-d17f-410e-91da-28ed820b7f63","system_id":"levelo_inurba_marseille","lat":43.28465,"lon":5.35892,"is_reserved":false,"is_disabled":false,"rental_uris":{"android":"levelo://app?vid=636185a4-d17f-410e-91da-28ed820b7f63","ios":"levelo://app?vid=636185a4-d17f-410e-91da-28ed820b7f63"},"vehicle_type_id":"4","last_reported":1691100360,"current_range_meters":8800,"station_id":"ce4bhah2rcd13ifvqei0","pricing_plan_id":"free"},{"bike_id":"f3f30c8c-1414-4558-9ffc-2374753c31eb","system_id":"levelo_inurba_marseille","lat":43.28464,"lon":5.35892,"is_reserved":false,"is_disabled":false,"rental_uris":{"android":"levelo://app?vid=f3f30c8c-1414-4558-9ffc-2374753c31eb","ios":"levelo://app?vid=f3f30c8c-1414-4558-9ffc-2374753c31eb"},"vehicle_type_id":"4","last_reported":1691100360,"current_range_meters":20800,"station_id":"ce4bhah2rcd13ifvqei0","pricing_plan_id":"free"},{"bike_id":"5255c2f7-c4a3-43d0-9f5e-bc37db02bdec","system_id":"levelo_inurba_marseille","lat":43.294314,"lon":5.397498,"is_reserved":false,"is_disabled":false,"rental_uris":{"android":"levelo://app?vid=5255c2f7-c4a3-43d0-9f5e-bc37db02bdec","ios":"levelo://app?vid=5255c2f7-c4a3-43d0-9f5e-bc37db02bdec"},"vehicle_type_id":"4","last_reported":1691100360,"current_range_meters":15200,"station_id":"ce4bh3h2rcd13ifvqdo0","pricing_plan_id":"free"},{"bike_id":"0f6da66b-64fc-4d76-8436-ade472adf2f6","system_id":"levelo_inurba_marseille","lat":43.284534,"lon":5.358662,"is_reserved":false,"is_disabled":false,"rental_uris":{"android":"levelo://app?vid=0f6da66b-64fc-4d76-8436-ade472adf2f6","ios":"levelo://app?vid=0f6da66b-64fc-4d76-8436-ade472adf2f6"},"vehicle_type_id":"4","last_reported":1691100360,"current_range_meters":0,"station_id":"ce4bhah2rcd13ifvqei0","pricing_plan_id":"free"},{"bike_id":"84a1871d-63b9-4174-bc5a-fc1fad91e5c8","system_id":"levelo_inurba_marseille","lat":43.295713,"lon":5.399639,"is_reserved":false,"is_disabled":false,"rental_uris":{"android":"levelo://app?vid=84a1871d-63b9-4174-bc5a-fc1fad91e5c8","ios":"levelo://app?vid=84a1871d-63b9-4174-bc5a-fc1fad91e5c8"},"vehicle_type_id":"4","last_reported":1691100360,"current_range_meters":19600,"station_id":"ce4bh312rcd13ifvqdj0","pricing_plan_id":"free"},{"bike_id":"00a7288e-6abe-4c5d-a458-183f65b0f9f2","system_id":"levelo_inurba_marseille","lat":43.295713,"lon":5.399639,"is_reserved":false,"is_disabled":false,"rental_uris":{"android":"levelo://app?vid=00a7288e-6abe-4c5d-a458-183f65b0f9f2","ios":"levelo://app?vid=00a7288e-6abe-4c5d-a458-183f65b0f9f2"},"vehicle_type_id":"4","last_reported":1691100360,"current_range_meters":5200,"station_id":"ce4bh312rcd13ifvqdj0","pricing_plan_id":"free"},{"bike_id":"2bb606fe-80b2-4ce2-bb55-c061e382958f","system_id":"levelo_inurba_marseille","lat":43.295713,"lon":5.399639,"is_reserved":false,"is_disabled":false,"rental_uris":{"android":"levelo://app?vid=2bb606fe-80b2-4ce2-bb55-c061e382958f","ios":"levelo://app?vid=2bb606fe-80b2-4ce2-bb55-c061e382958f"},"vehicle_type_id":"4","last_reported":1691100360,"current_range_meters":17200,"station_id":"ce4bh312rcd13ifvqdj0","pricing_plan_id":"free"},{"bike_id":"39293f85-bb74-477c-8f92-eafd69f90d57","system_id":"levelo_inurba_marseille","lat":43.295713,"lon":5.399639,"is_reserved":false,"is_disabled":false,"rental_uris":{"android":"levelo://app?vid=39293f85-bb74-477c-8f92-eafd69f90d57","ios":"levelo://app?vid=39293f85-bb74-477c-8f92-eafd69f90d57"},"vehicle_type_id":"4","last_reported":1691100360,"current_range_meters":20400,"station_id":"ce4bh312rcd13ifvqdj0","pricing_plan_id":"free"},{"bike_id":"5b98b5c8-73af-49c2-a3a3-e50684c64668","system_id":"levelo_inurba_marseille","lat":43.283998,"lon":5.375062,"is_reserved":false,"is_disabled":false,"rental_uris":{"android":"levelo://app?vid=5b98b5c8-73af-49c2-a3a3-e50684c64668","ios":"levelo://app?vid=5b98b5c8-73af-49c2-a3a3-e50684c64668"},"vehicle_type_id":"4","last_reported":1691100360,"current_range_meters":24400,"station_id":"ce4bh412rcd13ifvqds0","pricing_plan_id":"free"},{"bike_id":"67689133-1ebf-493a-ba0a-fa521fa77b6d","system_id":"levelo_inurba_marseille","lat":43.295713,"lon":5.399639,"is_reserved":false,"is_disabled":false,"rental_uris":{"android":"levelo://app?vid=67689133-1ebf-493a-ba0a-fa521fa77b6d","ios":"levelo://app?vid=67689133-1ebf-493a-ba0a-fa521fa77b6d"},"vehicle_type_id":"4","last_reported":1691100360,"current_range_meters":3200,"station_id":"ce4bh312rcd13ifvqdj0","pricing_plan_id":"free"},{"bike_id":"08e61131-ed5a-4503-99f4-10a87afc7eb0","system_id":"levelo_inurba_marseille","lat":43.295713,"lon":5.399639,"is_reserved":false,"is_disabled":false,"rental_uris":{"android":"levelo://app?vid=08e61131-ed5a-4503-99f4-10a87afc7eb0","ios":"levelo://app?vid=08e61131-ed5a-4503-99f4-10a87afc7eb0"},"vehicle_type_id":"4","last_reported":1691100360,"current_range_meters":22800,"station_id":"ce4bh312rcd13ifvqdj0","pricing_plan_id":"free"},{"bike_id":"a9623265-b40f-4e3c-8425-7b15533d8208","system_id":"levelo_inurba_marseille","lat":43.295713,"lon":5.399639,"is_reserved":false,"is_disabled":false,"rental_uris":{"android":"levelo://app?vid=a9623265-b40f-4e3c-8425-7b15533d8208","ios":"levelo://app?vid=a9623265-b40f-4e3c-8425-7b15533d8208"},"vehicle_type_id":"4","last_reported":1691100360,"current_range_meters":8000,"station_id":"ce4bh312rcd13ifvqdj0","pricing_plan_id":"free"},{"bike_id":"b7a62d85-a90a-4b2e-8382-e980268d04fb","system_id":"levelo_inurba_marseille","lat":43.295713,"lon":5.399639,"is_reserved":false,"is_disabled":false,"rental_uris":{"android":"levelo://app?vid=b7a62d85-a90a-4b2e-8382-e980268d04fb","ios":"levelo://app?vid=b7a62d85-a90a-4b2e-8382-e980268d04fb"},"vehicle_type_id":"4","last_reported":1691100360,"current_range_meters":29600,"station_id":"ce4bh312rcd13ifvqdj0","pricing_plan_id":"free"},{"bike_id":"8acdbe64-3306-4539-9227-595f7abfea40","system_id":"levelo_inurba_marseille","lat":43.28572,"lon":5.35069,"is_reserved":false,"is_disabled":false,"rental_uris":{"android":"levelo://app?vid=8acdbe64-3306-4539-9227-595f7abfea40","ios":"levelo://app?vid=8acdbe64-3306-4539-9227-595f7abfea40"},"vehicle_type_id":"4","last_reported":1691100360,"current_range_meters":6800,"station_id":"","pricing_plan_id":"free"},{"bike_id":"755e1319-a2ca-4027-945c-fa56906d373e","system_id":"levelo_inurba_marseille","lat":43.286595,"lon":5.386795,"is_reserved":false,"is_disabled":false,"rental_uris":{"android":"levelo://app?vid=755e1319-a2ca-4027-945c-fa56906d373e","ios":"levelo://app?vid=755e1319-a2ca-4027-945c-fa56906d373e"},"vehicle_type_id":"4","last_reported":1691100360,"current_range_meters":10800,"station_id":"ce4bh492rcd13ifvqdug","pricing_plan_id":"free"},{"bike_id":"40799fcc-cd09-418d-9666-c83c4348f7ef","system_id":"levelo_inurba_marseille","lat":43.319179,"lon":5.407725,"is_reserved":false,"is_disabled":false,"rental_uris":{"android":"levelo://app?vid=40799fcc-cd09-418d-9666-c83c4348f7ef","ios":"levelo://app?vid=40799fcc-cd09-418d-9666-c83c4348f7ef"},"vehicle_type_id":"4","last_reported":1691100360,"current_range_meters":3600,"station_id":"ce4bhq12rcd13ifvqhig","pricing_plan_id":"free"},{"bike_id":"cedbc9c4-3cd8-4974-be60-104359550a71","system_id":"levelo_inurba_marseille","lat":43.32377,"lon":5.40545,"is_reserved":false,"is_disabled":false,"rental_uris":{"android":"levelo://app?vid=cedbc9c4-3cd8-4974-be60-104359550a71","ios":"levelo://app?vid=cedbc9c4-3cd8-4974-be60-104359550a71"},"vehicle_type_id":"4","last_reported":1691100360,"current_range_meters":16000,"station_id":"ce4bhr92rcd13ifvqhrg","pricing_plan_id":"free"},{"bike_id":"c59f30af-b7c9-4762-b544-56156d6a8a97","system_id":"levelo_inurba_marseille","lat":43.337168,"lon":5.391825,"is_reserved":false,"is_disabled":false,"rental_uris":{"android":"levelo://app?vid=c59f30af-b7c9-4762-b544-56156d6a8a97","ios":"levelo://app?vid=c59f30af-b7c9-4762-b544-56156d6a8a97"},"vehicle_type_id":"4","last_reported":1691100360,"current_range_meters":22800,"station_id":"ce4bhr92rcd13ifvqhsg","pricing_plan_id":"free"},{"bike_id":"3e563380-a985-451c-801d-2783d7714294","system_id":"levelo_inurba_marseille","lat":43.33718,"lon":5.39181,"is_reserved":false,"is_disabled":false,"rental_uris":{"android":"levelo://app?vid=3e563380-a985-451c-801d-2783d7714294","ios":"levelo://app?vid=3e563380-a985-451c-801d-2783d7714294"},"vehicle_type_id":"4","last_reported":1691100360,"current_range_meters":19200,"station_id":"ce4bhr92rcd13ifvqhsg","pricing_plan_id":"free"},{"bike_id":"1f5722b0-5667-43f6-9dad-3a3b818c5a69","system_id":"levelo_inurba_marseille","lat":43.337168,"lon":5.391825,"is_reserved":false,"is_disabled":false,"rental_uris":{"android":"levelo://app?vid=1f5722b0-5667-43f6-9dad-3a3b818c5a69","ios":"levelo://app?vid=1f5722b0-5667-43f6-9dad-3a3b818c5a69"},"vehicle_type_id":"4","last_reported":1691100360,"current_range_meters":6400,"station_id":"ce4bhr92rcd13ifvqhsg","pricing_plan_id":"free"},{"bike_id":"5fd6a347-0a02-4efa-ab4a-06802493ed56","system_id":"levelo_inurba_marseille","lat":43.33717,"lon":5.391857,"is_reserved":false,"is_disabled":false,"rental_uris":{"android":"levelo://app?vid=5fd6a347-0a02-4efa-ab4a-06802493ed56","ios":"levelo://app?vid=5fd6a347-0a02-4efa-ab4a-06802493ed56"},"vehicle_type_id":"4","last_reported":1691100360,"current_range_meters":19200,"station_id":"ce4bhr92rcd13ifvqhsg","pricing_plan_id":"free"},{"bike_id":"37dfae56-2a13-495c-9752-c992e0ad9ccf","system_id":"levelo_inurba_marseille","lat":43.323464,"lon":5.406297,"is_reserved":false,"is_disabled":false,"rental_uris":{"android":"levelo://app?vid=37dfae56-2a13-495c-9752-c992e0ad9ccf","ios":"levelo://app?vid=37dfae56-2a13-495c-9752-c992e0ad9ccf"},"vehicle_type_id":"4","last_reported":1691100360,"current_range_meters":31200,"station_id":"ce4bhq92rcd13ifvqhjg","pricing_plan_id":"free"},{"bike_id":"9d8dc018-8295-487e-aae9-79ce0f469cdf","system_id":"levelo_inurba_marseille","lat":43.33725,"lon":5.39184,"is_reserved":false,"is_disabled":false,"rental_uris":{"android":"levelo://app?vid=9d8dc018-8295-487e-aae9-79ce0f469cdf","ios":"levelo://app?vid=9d8dc018-8295-487e-aae9-79ce0f469cdf"},"vehicle_type_id":"4","last_reported":1691100360,"current_range_meters":28800,"station_id":"ce4bhr92rcd13ifvqhsg","pricing_plan_id":"free"},{"bike_id":"939edbe6-adcc-4f97-ad69-99748df4073d","system_id":"levelo_inurba_marseille","lat":43.33727,"lon":5.39181,"is_reserved":false,"is_disabled":false,"rental_uris":{"android":"levelo://app?vid=939edbe6-adcc-4f97-ad69-99748df4073d","ios":"levelo://app?vid=939edbe6-adcc-4f97-ad69-99748df4073d"},"vehicle_type_id":"4","last_reported":1691100360,"current_range_meters":29200,"station_id":"ce4bhr92rcd13ifvqhsg","pricing_plan_id":"free"},{"bike_id":"9ed5c8cd-5716-467d-9a0b-e5002dcb5a2c","system_id":"levelo_inurba_marseille","lat":43.33728,"lon":5.3918,"is_reserved":false,"is_disabled":false,"rental_uris":{"android":"levelo://app?vid=9ed5c8cd-5716-467d-9a0b-e5002dcb5a2c","ios":"levelo://app?vid=9ed5c8cd-5716-467d-9a0b-e5002dcb5a2c"},"vehicle_type_id":"4","last_reported":1691100360,"current_range_meters":4400,"station_id":"ce4bhr92rcd13ifvqhsg","pricing_plan_id":"free"},{"bike_id":"65e7209e-43de-4472-85bf-edccad84c81f","system_id":"levelo_inurba_marseille","lat":43.33717,"lon":5.391857,"is_reserved":false,"is_disabled":false,"rental_uris":{"android":"levelo://app?vid=65e7209e-43de-4472-85bf-edccad84c81f","ios":"levelo://app?vid=65e7209e-43de-4472-85bf-edccad84c81f"},"vehicle_type_id":"4","last_reported":1691100360,"current_range_meters":30000,"station_id":"ce4bhr92rcd13ifvqhsg","pricing_plan_id":"free"},{"bike_id":"df82d2f9-f688-4670-ac84-3e543122cedb","system_id":"levelo_inurba_marseille","lat":43.33717,"lon":5.391857,"is_reserved":false,"is_disabled":false,"rental_uris":{"android":"levelo://app?vid=df82d2f9-f688-4670-ac84-3e543122cedb","ios":"levelo://app?vid=df82d2f9-f688-4670-ac84-3e543122cedb"},"vehicle_type_id":"4","last_reported":1691100360,"current_range_meters":17600,"station_id":"ce4bhr92rcd13ifvqhsg","pricing_plan_id":"free"},{"bike_id":"9be39f6c-974f-4a4e-90c3-357a4d8fdcc8","system_id":"levelo_inurba_marseille","lat":43.323464,"lon":5.406297,"is_reserved":false,"is_disabled":false,"rental_uris":{"android":"levelo://app?vid=9be39f6c-974f-4a4e-90c3-357a4d8fdcc8","ios":"levelo://app?vid=9be39f6c-974f-4a4e-90c3-357a4d8fdcc8"},"vehicle_type_id":"4","last_reported":1691100360,"current_range_meters":31200,"station_id":"ce4bhq92rcd13ifvqhjg","pricing_plan_id":"free"},{"bike_id":"23dafe58-bc58-41ce-843c-2b5e651c84c2","system_id":"levelo_inurba_marseille","lat":43.323464,"lon":5.406297,"is_reserved":false,"is_disabled":false,"rental_uris":{"android":"levelo://app?vid=23dafe58-bc58-41ce-843c-2b5e651c84c2","ios":"levelo://app?vid=23dafe58-bc58-41ce-843c-2b5e651c84c2"},"vehicle_type_id":"4","last_reported":1691100360,"current_range_meters":31200,"station_id":"ce4bhq92rcd13ifvqhjg","pricing_plan_id":"free"},{"bike_id":"dbada9f9-e33c-4a7d-ab43-1cac4e571e70","system_id":"levelo_inurba_marseille","lat":43.28472,"lon":5.38421,"is_reserved":false,"is_disabled":false,"rental_uris":{"android":"levelo://app?vid=dbada9f9-e33c-4a7d-ab43-1cac4e571e70","ios":"levelo://app?vid=dbada9f9-e33c-4a7d-ab43-1cac4e571e70"},"vehicle_type_id":"4","last_reported":1691100360,"current_range_meters":30400,"station_id":"ce4bh512rcd13ifvqe3g","pricing_plan_id":"free"},{"bike_id":"891b750a-182f-4dfb-803c-ae781522a955","system_id":"levelo_inurba_marseille","lat":43.29791,"lon":5.4041,"is_reserved":false,"is_disabled":false,"rental_uris":{"android":"levelo://app?vid=891b750a-182f-4dfb-803c-ae781522a955","ios":"levelo://app?vid=891b750a-182f-4dfb-803c-ae781522a955"},"vehicle_type_id":"4","last_reported":1691100360,"current_range_meters":21600,"station_id":"","pricing_plan_id":"free"},{"bike_id":"6fd7b1b5-cf92-4db8-83ac-1d438361cd6e","system_id":"levelo_inurba_marseille","lat":43.288497,"lon":5.393089,"is_reserved":false,"is_disabled":false,"rental_uris":{"android":"levelo://app?vid=6fd7b1b5-cf92-4db8-83ac-1d438361cd6e","ios":"levelo://app?vid=6fd7b1b5-cf92-4db8-83ac-1d438361cd6e"},"vehicle_type_id":"4","last_reported":1691100360,"current_range_meters":29600,"station_id":"ce4bh2p2rcd13ifvqdi0","pricing_plan_id":"free"},{"bike_id":"a803db44-d852-4003-9431-a9d4fc2bb378","system_id":"levelo_inurba_marseille","lat":43.283498,"lon":5.380948,"is_reserved":false,"is_disabled":false,"rental_uris":{"android":"levelo://app?vid=a803db44-d852-4003-9431-a9d4fc2bb378","ios":"levelo://app?vid=a803db44-d852-4003-9431-a9d4fc2bb378"},"vehicle_type_id":"4","last_reported":1691100360,"current_range_meters":29200,"station_id":"ce4bh412rcd13ifvqdr0","pricing_plan_id":"free"},{"bike_id":"fda551b4-3441-40db-86d6-43f161611759","system_id":"levelo_inurba_marseille","lat":43.283498,"lon":5.380948,"is_reserved":false,"is_disabled":false,"rental_uris":{"android":"levelo://app?vid=fda551b4-3441-40db-86d6-43f161611759","ios":"levelo://app?vid=fda551b4-3441-40db-86d6-43f161611759"},"vehicle_type_id":"4","last_reported":1691100360,"current_range_meters":27600,"station_id":"ce4bh412rcd13ifvqdr0","pricing_plan_id":"free"},{"bike_id":"1b1b33fa-f963-457e-8fbf-e659900a5623","system_id":"levelo_inurba_marseille","lat":43.283498,"lon":5.380948,"is_reserved":false,"is_disabled":false,"rental_uris":{"android":"levelo://app?vid=1b1b33fa-f963-457e-8fbf-e659900a5623","ios":"levelo://app?vid=1b1b33fa-f963-457e-8fbf-e659900a5623"},"vehicle_type_id":"4","last_reported":1691100360,"current_range_meters":14400,"station_id":"ce4bh412rcd13ifvqdr0","pricing_plan_id":"free"},{"bike_id":"dc0d4f49-cc81-4265-83b5-670f8aa40743","system_id":"levelo_inurba_marseille","lat":43.28347,"lon":5.38109,"is_reserved":false,"is_disabled":false,"rental_uris":{"android":"levelo://app?vid=dc0d4f49-cc81-4265-83b5-670f8aa40743","ios":"levelo://app?vid=dc0d4f49-cc81-4265-83b5-670f8aa40743"},"vehicle_type_id":"4","last_reported":1691100360,"current_range_meters":22800,"station_id":"ce4bh412rcd13ifvqdr0","pricing_plan_id":"free"},{"bike_id":"da926dd0-fd68-4c4f-b9cf-a78e0307c57d","system_id":"levelo_inurba_marseille","lat":43.284219,"lon":5.3497,"is_reserved":false,"is_disabled":false,"rental_uris":{"android":"levelo://app?vid=da926dd0-fd68-4c4f-b9cf-a78e0307c57d","ios":"levelo://app?vid=da926dd0-fd68-4c4f-b9cf-a78e0307c57d"},"vehicle_type_id":"4","last_reported":1691100360,"current_range_meters":6800,"station_id":"ce4bhbh2rcd13ifvqepg","pricing_plan_id":"free"},{"bike_id":"fadb43ae-a078-4af9-97b5-60ef1c2f2678","system_id":"levelo_inurba_marseille","lat":43.284219,"lon":5.3497,"is_reserved":false,"is_disabled":false,"rental_uris":{"android":"levelo://app?vid=fadb43ae-a078-4af9-97b5-60ef1c2f2678","ios":"levelo://app?vid=fadb43ae-a078-4af9-97b5-60ef1c2f2678"},"vehicle_type_id":"4","last_reported":1691100360,"current_range_meters":28000,"station_id":"ce4bhbh2rcd13ifvqepg","pricing_plan_id":"free"},{"bike_id":"f7f5768e-b80f-4da0-8864-86696a8877fb","system_id":"levelo_inurba_marseille","lat":43.32456,"lon":5.40727,"is_reserved":false,"is_disabled":false,"rental_uris":{"android":"levelo://app?vid=f7f5768e-b80f-4da0-8864-86696a8877fb","ios":"levelo://app?vid=f7f5768e-b80f-4da0-8864-86696a8877fb"},"vehicle_type_id":"4","last_reported":1691100360,"current_range_meters":0,"station_id":"","pricing_plan_id":"free"},{"bike_id":"82c03a20-8a0e-4027-b466-9cbe1d2327bb","system_id":"levelo_inurba_marseille","lat":43.292724,"lon":5.401131,"is_reserved":false,"is_disabled":false,"rental_uris":{"android":"levelo://app?vid=82c03a20-8a0e-4027-b466-9cbe1d2327bb","ios":"levelo://app?vid=82c03a20-8a0e-4027-b466-9cbe1d2327bb"},"vehicle_type_id":"4","last_reported":1691100360,"current_range_meters":28800,"station_id":"ce4bh312rcd13ifvqdk0","pricing_plan_id":"free"},{"bike_id":"d3918a8e-f63b-439b-8693-f4af736bcf50","system_id":"levelo_inurba_marseille","lat":43.292724,"lon":5.401131,"is_reserved":false,"is_disabled":false,"rental_uris":{"android":"levelo://app?vid=d3918a8e-f63b-439b-8693-f4af736bcf50","ios":"levelo://app?vid=d3918a8e-f63b-439b-8693-f4af736bcf50"},"vehicle_type_id":"4","last_reported":1691100360,"current_range_meters":30800,"station_id":"ce4bh312rcd13ifvqdk0","pricing_plan_id":"free"},{"bike_id":"520224cb-21b5-45d6-9f68-59028550dcdc","system_id":"levelo_inurba_marseille","lat":43.283502,"lon":5.386471,"is_reserved":false,"is_disabled":false,"rental_uris":{"android":"levelo://app?vid=520224cb-21b5-45d6-9f68-59028550dcdc","ios":"levelo://app?vid=520224cb-21b5-45d6-9f68-59028550dcdc"},"vehicle_type_id":"4","last_reported":1691100360,"current_range_meters":31200,"station_id":"ce4bh492rcd13ifvqdvg","pricing_plan_id":"free"},{"bike_id":"21220158-fc8a-4633-a681-188b837932a3","system_id":"levelo_inurba_marseille","lat":43.282754,"lon":5.350519,"is_reserved":false,"is_disabled":false,"rental_uris":{"android":"levelo://app?vid=21220158-fc8a-4633-a681-188b837932a3","ios":"levelo://app?vid=21220158-fc8a-4633-a681-188b837932a3"},"vehicle_type_id":"4","last_reported":1691100360,"current_range_meters":5600,"station_id":"ce4bhbp2rcd13ifvqerg","pricing_plan_id":"free"},{"bike_id":"38ad0d0c-80c5-47eb-8ac3-95692b6f9ae4","system_id":"levelo_inurba_marseille","lat":43.283502,"lon":5.386471,"is_reserved":false,"is_disabled":false,"rental_uris":{"android":"levelo://app?vid=38ad0d0c-80c5-47eb-8ac3-95692b6f9ae4","ios":"levelo://app?vid=38ad0d0c-80c5-47eb-8ac3-95692b6f9ae4"},"vehicle_type_id":"4","last_reported":1691100360,"current_range_meters":14000,"station_id":"ce4bh492rcd13ifvqdvg","pricing_plan_id":"free"},{"bike_id":"0a64b612-527b-4b98-9dde-b4f7f7f6b74b","system_id":"levelo_inurba_marseille","lat":43.283502,"lon":5.386471,"is_reserved":false,"is_disabled":false,"rental_uris":{"android":"levelo://app?vid=0a64b612-527b-4b98-9dde-b4f7f7f6b74b","ios":"levelo://app?vid=0a64b612-527b-4b98-9dde-b4f7f7f6b74b"},"vehicle_type_id":"4","last_reported":1691100360,"current_range_meters":31200,"station_id":"ce4bh492rcd13ifvqdvg","pricing_plan_id":"free"},