{"last_updated":1751224052,"ttl":60,"version":"2.2","data":{"bikes":[{"bike_id":"3da29fb8-fc97-44c6-b9ac-31dd456b2fd4","system_id":"levelo_inurba_marseille","lat":43.33771,"lon":5.37424,"is_reserved":false,"is_disabled":true,"rental_uris":{"android":"levelo://app?vid=3da29fb8-fc97-44c6-b9ac-31dd456b2fd4","ios":"levelo://app?vid=3da29fb8-fc97-44c6-b9ac-31dd456b2fd4"},"vehicle_type_id":"4","last_reported":1751224053,"current_range_meters":0,"station_id":"","pricing_plan_id":"cebpf4jnsgd1na2vs0mg"},{"bike_id":"01861ad8-a8d7-4be6-816e-651927c87584","system_id":"levelo_inurba_marseille","lat":43.33751,"lon":5.37456,"is_reserved":false,"is_disabled":true,"rental_uris":{"android":"levelo://app?vid=01861ad8-a8d7-4be6-816e-651927c87584","ios":"levelo://app?vid=01861ad8-a8d7-4be6-816e-651927c87584"},"vehicle_type_id":"4","last_reported":1751224053,"current_range_meters":0,"station_id":"","pricing_plan_id":"cebpf4jnsgd1na2vs0mg"},{"bike_id":"e83d088b-72a0-4ba6-a73e-716a311dec4d","system_id":"levelo_inurba_marseille","lat":43.2453,"lon":5.37303,"is_reserved":false,"is_disabled":true,"rental_uris":{"android":"levelo://app?vid=e83d088b-72a0-4ba6-a73e-716a311dec4d","ios":"levelo://app?vid=e83d088b-72a0-4ba6-a73e-716a311dec4d"},"vehicle_type_id":"4","last_reported":1751224053,"current_range_meters":0,"station_id":"","pricing_plan_id":"cebpf4jnsgd1na2vs0mg"},{"bike_id":"7aac647a-260b-423f-ae41-874b82472ad9","system_id":"levelo_inurba_marseille","lat":43.23223,"lon":5.35073,"is_reserved":false,"is_disabled":true,"rental_uris":{"android":"levelo://app?vid=7aac647a-260b-423f-ae41-874b82472ad9","ios":"levelo://app?vid=7aac647a-260b-423f-ae41-874b82472ad9"},"vehicle_type_id":"4","last_reported":1751224053,"current_range_meters":0,"station_id":"","pricing_plan_id":"cebpf4jnsgd1na2vs0mg"},{"bike_id":"f1483ff6-ae8a-4286-a635-7d40887e3e92","system_id":"levelo_inurba_marseille","lat":43.26963,"lon":5.36627,"is_reserved":false,"is_disabled":true,"rental_uris":{"android":"levelo://app?vid=f1483ff6-ae8a-4286-a635-7d40887e3e92","ios":"levelo://app?vid=f1483ff6-ae8a-4286-a635-7d40887e3e92"},"vehicle_type_id":"4","last_reported":1751224053,"current_range_meters":0,"station_id":"","pricing_plan_id":"cebpf4jnsgd1na2vs0mg"},{"bike_id":"95180a58-545e-4211-8813-cfe4554d1332","system_id":"levelo_inurba_marseille","lat":43.30031,"lon":5.36537,"is_reserved":false,"is_disabled":true,"rental_uris":{"android":"levelo://app?vid=95180a58-545e-4211-8813-cfe4554d1332","ios":"levelo://app?vid=95180a58-545e-4211-8813-cfe4554d1332"},"vehicle_type_id":"4","last_reported":1751224053,"current_range_meters":0,"station_id":"","pricing_plan_id":"cebpf4jnsgd1na2vs0mg"},{"bike_id":"47518bf2-1afd-4e4a-8020-c33a22ac20df","system_id":"levelo_inurba_marseille","lat":43.31576,"lon":5.3853,"is_reserved":false,"is_disabled":true,"rental_uris":{"android":"levelo://app?vid=47518bf2-1afd-4e4a-8020-c33a22ac20df","ios":"levelo://app?vid=47518bf2-1afd-4e4a-8020-c33a22ac20df"},"vehicle_type_id":"4","last_reported":1751224053,"current_range_meters":0,"station_id":"","pricing_plan_id":"cebpf4jnsgd1na2vs0mg"},{"bike_id":"e9a7f2ce-f5b2-41e5-b572-5533013492a4","system_id":"levelo_inurba_marseille","lat":43.337444,"lon":5.374475,"is_reserved":false,"is_disabled":true,"rental_uris":{"android":"levelo://app?vid=e9a7f2ce-f5b2-41e5-b572-5533013492a4","ios":"levelo://app?vid=e9a7f2ce-f5b2-41e5-b572-5533013492a4"},"vehicle_type_id":"4","last_reported":1751224053,"current_range_meters":0,"station_id":"","pricing_plan_id":"cebpf4jnsgd1na2vs0mg"},{"bike_id":"40aee803-414a-4148-998d-804b2633f581","system_id":"levelo_inurba_marseille","lat":43.30961,"lon":5.40252,"is_reserved":false,"is_disabled":true,"rental_uris":{"android":"levelo://app?vid=40aee803-414a-4148-998d-804b2633f581","ios":"levelo://app?vid=40aee803-414a-4148-998d-804b2633f581"},"vehicle_type_id":"4","last_reported":1751224053,"current_range_meters":0,"station_id":"","pricing_plan_id":"cebpf4jnsgd1na2vs0mg"},{"bike_id":"666ef40e-8142-4330-a1bf-355f72ca0910","system_id":"levelo_inurba_marseille","lat":43.26325,"lon":5.40119,"is_reserved":false,"is_disabled":true,"rental_uris":{"android":"levelo://app?vid=666ef40e-8142-4330-a1bf-355f72ca0910","ios":"levelo://app?vid=666ef40e-8142-4330-a1bf-355f72ca0910"},"vehicle_type_id":"4","last_reported":1751224053,"current_range_meters":0,"station_id":"","pricing_plan_id":"cebpf4jnsgd1na2vs0mg"},{"bike_id":"fa3ac23d-5dd1-488d-9530-3c49b9639bca","system_id":"levelo_inurba_marseille","lat":43.3045,"lon":5.40758,"is_reserved":false,"is_disabled":true,"rental_uris":{"android":"levelo://app?vid=fa3ac23d-5dd1-488d-9530-3c49b9639bca","ios":"levelo://app?vid=fa3ac23d-5dd1-488d-9530-3c49b9639bca"},"vehicle_type_id":"4","last_reported":1751224053,"current_range_meters":0,"station_id":"ce4bgvh2rcd13ifvqcs0","pricing_plan_id":"cebpf4jnsgd1na2vs0mg"},{"bike_id":"0eb16ec2-ba84-4fd5-a73e-820542acaa03","system_id":"levelo_inurba_marseille","lat":43.28345,"lon":5.38103,"is_reserved":false,"is_disabled":true,"rental_uris":{"android":"levelo://app?vid=0eb16ec2-ba84-4fd5-a73e-820542acaa03","ios":"levelo://app?vid=0eb16ec2-ba84-4fd5-a73e-820542acaa03"},"vehicle_type_id":"4","last_reported":1751224053,"current_range_meters":0,"station_id":"ce4bh412rcd13ifvqdr0","pricing_plan_id":"cebpf4jnsgd1na2vs0mg"},{"bike_id":"be35c8a5-0100-4818-8ac2-a478ee9dfb26","system_id":"levelo_inurba_marseille","lat":43.28416,"lon":5.37497,"is_reserved":false,"is_disabled":true,"rental_uris":{"android":"levelo://app?vid=be35c8a5-0100-4818-8ac2-a478ee9dfb26","ios":"levelo://app?vid=be35c8a5-0100-4818-8ac2-a478ee9dfb26"},"vehicle_type_id":"4","last_reported":1751224053,"current_range_meters":0,"station_id":"ce4bh412rcd13ifvqds0","pricing_plan_id":"cebpf4jnsgd1na2vs0mg"},{"bike_id":"c4886be0-4237-486e-b2ed-40252c8b3a08","system_id":"levelo_inurba_marseille","lat":43.295816,"lon":5.385546,"is_reserved":false,"is_disabled":true,"rental_uris":{"android":"levelo://app?vid=c4886be0-4237-486e-b2ed-40252c8b3a08","ios":"levelo://app?vid=c4886be0-4237-486e-b2ed-40252c8b3a08"},"vehicle_type_id":"4","last_reported":1751224053,"current_range_meters":0,"station_id":"ce4bh692rcd13ifvqea0","pricing_plan_id":"cebpf4jnsgd1na2vs0mg"},{"bike_id":"a352eee7-ecd9-4743-8b77-60227dcb9087","system_id":"levelo_inurba_marseille","lat":43.28487,"lon":5.38545,"is_reserved":false,"is_disabled":true,"rental_uris":{"android":"levelo://app?vid=a352eee7-ecd9-4743-8b77-60227dcb9087","ios":"levelo://app?vid=a352eee7-ecd9-4743-8b77-60227dcb9087"},"vehicle_type_id":"4","last_reported":1751224053,"current_range_meters":0,"station_id":"ce4bh8p2rcd13ifvqeb0","pricing_plan_id":"cebpf4jnsgd1na2vs0mg"},{"bike_id":"398f972f-6445-41c3-a036-41e5a6746489","system_id":"levelo_inurba_marseille","lat":43.279034,"lon":5.380116,"is_reserved":false,"is_disabled":true,"rental_uris":{"android":"levelo://app?vid=398f972f-6445-41c3-a036-41e5a6746489","ios":"levelo://app?vid=398f972f-6445-41c3-a036-41e5a6746489"},"vehicle_type_id":"4","last_reported":1751224053,"current_range_meters":0,"station_id":"ce4bhf92rcd13ifvqf50","pricing_plan_id":"cebpf4jnsgd1na2vs0mg"},{"bike_id":"85d95ed4-992e-470e-9ad6-62646db0284d","system_id":"levelo_inurba_marseille","lat":43.23969,"lon":5.36627,"is_reserved":false,"is_disabled":true,"rental_uris":{"android":"levelo://app?vid=85d95ed4-992e-470e-9ad6-62646db0284d","ios":"levelo://app?vid=85d95ed4-992e-470e-9ad6-62646db0284d"},"vehicle_type_id":"4","last_reported":1751224053,"current_range_meters":0,"station_id":"ce4bhi12rcd13ifvqfp0","pricing_plan_id":"cebpf4jnsgd1na2vs0mg"},{"bike_id":"1bf565d5-f0db-4318-8f30-86a017013aab","system_id":"levelo_inurba_marseille","lat":43.25111,"lon":5.4032,"is_reserved":false,"is_disabled":true,"rental_uris":{"android":"levelo://app?vid=1bf565d5-f0db-4318-8f30-86a017013aab","ios":"levelo://app?vid=1bf565d5-f0db-4318-8f30-86a017013aab"},"vehicle_type_id":"4","last_reported":1751224053,"current_range_meters":0,"station_id":"ce4bhlh2rcd13ifvqgig","pricing_plan_id":"cebpf4jnsgd1na2vs0mg"},{"bike_id":"273d62a5-4636-4c16-8a53-fba05b22ed2a","system_id":"levelo_inurba_marseille","lat":43.2418,"lon":5.39723,"is_reserved":false,"is_disabled":true,"rental_uris":{"android":"levelo://app?vid=273d62a5-4636-4c16-8a53-fba05b22ed2a","ios":"levelo://app?vid=273d62a5-4636-4c16-8a53-fba05b22ed2a"},"vehicle_type_id":"4","last_reported":1751224053,"current_range_meters":0,"station_id":"ce4bhn12rcd13ifvqgpg","pricing_plan_id":"cebpf4jnsgd1na2vs0mg"},{"bike_id":"6291fb8f-fb37-409c-9e82-e9f29c3f6416","system_id":"levelo_inurba_marseille","lat":43.24074,"lon":5.37737,"is_reserved":false,"is_disabled":true,"rental_uris":{"android":"levelo://app?vid=6291fb8f-fb37-409c-9e82-e9f29c3f6416","ios":"levelo://app?vid=6291fb8f-fb37-409c-9e82-e9f29c3f6416"},"vehicle_type_id":"4","last_reported":1751224053,"current_range_meters":0,"station_id":"ce4bhnp2rcd13ifvqgvg","pricing_plan_id":"cebpf4jnsgd1na2vs0mg"},{"bike_id":"1fc5f1e8-2876-4600-8317-28acec076cd9","system_id":"levelo_inurba_marseille","lat":43.24811,"lon":5.37457,"is_reserved":false,"is_disabled":true,"rental_uris":{"android":"levelo://app?vid=1fc5f1e8-2876-4600-8317-28acec076cd9","ios":"levelo://app?vid=1fc5f1e8-2876-4600-8317-28acec076cd9"},"vehicle_type_id":"4","last_reported":1751224053,"current_range_meters":800,"station_id":"ce4bhgh2rcd13ifvqfb0","pricing_plan_id":"cebpf4jnsgd1na2vs0mg"},{"bike_id":"d93518a7-acea-49d1-8b1d-66917831e25a","system_id":"levelo_inurba_marseille","lat":43.28384,"lon":5.39553,"is_reserved":false,"is_disabled":true,"rental_uris":{"android":"levelo://app?vid=d93518a7-acea-49d1-8b1d-66917831e25a","ios":"levelo://app?vid=d93518a7-acea-49d1-8b1d-66917831e25a"},"vehicle_type_id":"4","last_reported":1751224053,"current_range_meters":1200,"station_id":"","pricing_plan_id":"cebpf4jnsgd1na2vs0mg"},{"bike_id":"16fac1f5-62e0-49e9-8127-96154d379ed1","system_id":"levelo_inurba_marseille","lat":43.28666,"lon":5.38624,"is_reserved":false,"is_disabled":true,"rental_uris":{"android":"levelo://app?vid=16fac1f5-62e0-49e9-8127-96154d379ed1","ios":"levelo://app?vid=16fac1f5-62e0-49e9-8127-96154d379ed1"},"vehicle_type_id":"4","last_reported":1751224053,"current_range_meters":1200,"station_id":"ce4bh492rcd13ifvqdug","pricing_plan_id":"cebpf4jnsgd1na2vs0mg"},{"bike_id":"ef971e8e-726f-4c72-a58d-89dfd86de0f6","system_id":"levelo_inurba_marseille","lat":43.27496,"lon":5.42447,"is_reserved":false,"is_disabled":true,"rental_uris":{"android":"levelo://app?vid=ef971e8e-726f-4c72-a58d-89dfd86de0f6","ios":"levelo://app?vid=ef971e8e-726f-4c72-a58d-89dfd86de0f6"},"vehicle_type_id":"4","last_reported":1751224053,"current_range_meters":1200,"station_id":"ce4bhn92rcd13ifvqgrg","pricing_plan_id":"cebpf4jnsgd1na2vs0mg"},{"bike_id":"d2ddfe8a-ce9d-457c-8d56-c1f483072960","system_id":"levelo_inurba_marseille","lat":43.29713,"lon":5.36598,"is_reserved":false,"is_disabled":true,"rental_uris":{"android":"levelo://app?vid=d2ddfe8a-ce9d-457c-8d56-c1f483072960","ios":"levelo://app?vid=d2ddfe8a-ce9d-457c-8d56-c1f483072960"},"vehicle_type_id":"4","last_reported":1751224053,"current_range_meters":1600,"station_id":"ce4bgn12rcd13ifvqbt0","pricing_plan_id":"cebpf4jnsgd1na2vs0mg"},{"bike_id":"e2ce73c3-363c-4ca8-8c01-f7c0a69f7724","system_id":"levelo_inurba_marseille","lat":43.28479,"lon":5.38412,"is_reserved":false,"is_disabled":true,"rental_uris":{"android":"levelo://app?vid=e2ce73c3-363c-4ca8-8c01-f7c0a69f7724","ios":"levelo://app?vid=e2ce73c3-363c-4ca8-8c01-f7c0a69f7724"},"vehicle_type_id":"4","last_reported":1751224053,"current_range_meters":1600,"station_id":"ce4bh512rcd13ifvqe3g","pricing_plan_id":"cebpf4jnsgd1na2vs0mg"},{"bike_id":"2da7ffea-92c7-4e0a-88cf-dd0561074dc4","system_id":"levelo_inurba_marseille","lat":43.27374,"lon":5.3625,"is_reserved":false,"is_disabled":true,"rental_uris":{"android":"levelo://app?vid=2da7ffea-92c7-4e0a-88cf-dd0561074dc4","ios":"levelo://app?vid=2da7ffea-92c7-4e0a-88cf-dd0561074dc4"},"vehicle_type_id":"4","last_reported":1751224053,"current_range_meters":1600,"station_id":"ce4bhbh2rcd13ifvqeo0","pricing_plan_id":"cebpf4jnsgd1na2vs0mg"},{"bike_id":"a4a2fabb-e917-4a9b-a5e6-cba34200b2c5","system_id":"levelo_inurba_marseille","lat":43.29531,"lon":5.39032,"is_reserved":false,"is_disabled":true,"rental_uris":{"android":"levelo://app?vid=a4a2fabb-e917-4a9b-a5e6-cba34200b2c5","ios":"levelo://app?vid=a4a2fabb-e917-4a9b-a5e6-cba34200b2c5"},"vehicle_type_id":"4","last_reported":1751224053,"current_range_meters":2000,"station_id":"ce4bh3p2rcd13ifvqdp0","pricing_plan_id":"cebpf4jnsgd1na2vs0mg"},{"bike_id":"ce6d460e-6a5c-43d6-9adf-b05cc848f242","system_id":"levelo_inurba_marseille","lat":43.25115,"lon":5.40321,"is_reserved":false,"is_disabled":true,"rental_uris":{"android":"levelo://app?vid=ce6d460e-6a5c-43d6-9adf-b05cc848f242","ios":"levelo://app?vid=ce6d460e-6a5c-43d6-9adf-b05cc848f242"},"vehicle_type_id":"4","last_reported":1751224053,"current_range_meters":2000,"station_id":"ce4bhlh2rcd13ifvqgig","pricing_plan_id":"cebpf4jnsgd1na2vs0mg"},{"bike_id":"d904f9e6-0f90-4710-b213-5d87ca694e88","system_id":"levelo_inurba_marseille","lat":43.29787,"lon":5.38079,"is_reserved":false,"is_disabled":false,"rental_uris":{"android":"levelo://app?vid=d904f9e6-0f90-4710-b213-5d87ca694e88","ios":"levelo://app?vid=d904f9e6-0f90-4710-b213-5d87ca694e88"},"vehicle_type_id":"4","last_reported":1751224053,"current_range_meters":2800,"station_id":"ce4bgip2rcd13ifvqbb0","pricing_plan_id":"cebpf4jnsgd1na2vs0mg"},{"bike_id":"46570f64-7688-48a1-a93a-b67fb68103cd","system_id":"levelo_inurba_marseille","lat":43.30593,"lon":5.39359,"is_reserved":false,"is_disabled":false,"rental_uris":{"android":"levelo://app?vid=46570f64-7688-48a1-a93a-b67fb68103cd","ios":"levelo://app?vid=46570f64-7688-48a1-a93a-b67fb68103cd"},"vehicle_type_id":"4","last_reported":1751224053,"current_range_meters":2800,"station_id":"ce4bh0p2rcd13ifvqd80","pricing_plan_id":"cebpf4jnsgd1na2vs0mg"},{"bike_id":"2a200c54-cd0e-46c4-903d-d773d6aff620","system_id":"levelo_inurba_marseille","lat":43.25001,"lon":5.38921,"is_reserved":false,"is_disabled":false,"rental_uris":{"android":"levelo://app?vid=2a200c54-cd0e-46c4-903d-d773d6aff620","ios":"levelo://app?vid=2a200c54-cd0e-46c4-903d-d773d6aff620"},"vehicle_type_id":"4","last_reported":1751224053,"current_range_meters":2800,"station_id":"ce4bhgp2rcd13ifvqfd0","pricing_plan_id":"cebpf4jnsgd1na2vs0mg"},{"bike_id":"04687d1f-2c3b-4b5e-8e33-56e355008d0e","system_id":"levelo_inurba_marseille","lat":43.25,"lon":5.38925,"is_reserved":false,"is_disabled":false,"rental_uris":{"android":"levelo://app?vid=04687d1f-2c3b-4b5e-8e33-56e355008d0e","ios":"levelo://app?vid=04687d1f-2c3b-4b5e-8e33-56e355008d0e"},"vehicle_type_id":"4","last_reported":1751224053,"current_range_meters":3200,"station_id":"ce4bhgp2rcd13ifvqfd0","pricing_plan_id":"cebpf4jnsgd1na2vs0mg"},{"bike_id":"8a24a76e-a7c7-4854-83b7-3ddb768c6dc7","system_id":"levelo_inurba_marseille","lat":43.30369,"lon":5.4249,"is_reserved":false,"is_disabled":false,"rental_uris":{"android":"levelo://app?vid=8a24a76e-a7c7-4854-83b7-3ddb768c6dc7","ios":"levelo://app?vid=8a24a76e-a7c7-4854-83b7-3ddb768c6dc7"},"vehicle_type_id":"4","last_reported":1751224053,"current_range_meters":3600,"station_id":"ce4bhoh2rcd13ifvqh6g","pricing_plan_id":"cebpf4jnsgd1na2vs0mg"},{"bike_id":"ce992139-b465-482c-8ef7-7f1636b3d518","system_id":"levelo_inurba_marseille","lat":43.21189,"lon":5.3507,"is_reserved":false,"is_disabled":false,"rental_uris":{"android":"levelo://app?vid=ce992139-b465-482c-8ef7-7f1636b3d518","ios":"levelo://app?vid=ce992139-b465-482c-8ef7-7f1636b3d518"},"vehicle_type_id":"4","last_reported":1751224053,"current_range_meters":3600,"station_id":"st_cvj6sg6p6f1abm77japg","pricing_plan_id":"cebpf4jnsgd1na2vs0mg"},{"bike_id":"6ecfe8b8-c9a3-4447-8d91-448f6429b084","system_id":"levelo_inurba_marseille","lat":43.29981,"lon":5.37176,"is_reserved":false,"is_disabled":false,"rental_uris":{"android":"levelo://app?vid=6ecfe8b8-c9a3-4447-8d91-448f6429b084","ios":"levelo://app?vid=6ecfe8b8-c9a3-4447-8d91-448f6429b084"},"vehicle_type_id":"4","last_reported":1751224053,"current_range_meters":4400,"station_id":"ce4bgr92rcd13ifvqc7g","pricing_plan_id":"cebpf4jnsgd1na2vs0mg"},{"bike_id":"c4a0137e-a333-4bf2-be2c-dc9d4d53e9f7","system_id":"levelo_inurba_marseille","lat":43.21197,"lon":5.35042,"is_reserved":false,"is_disabled":false,"rental_uris":{"android":"levelo://app?vid=c4a0137e-a333-4bf2-be2c-dc9d4d53e9f7","ios":"levelo://app?vid=c4a0137e-a333-4bf2-be2c-dc9d4d53e9f7"},"vehicle_type_id":"4","last_reported":1751224053,"current_range_meters":4400,"station_id":"st_cvj6sg6p6f1abm77japg","pricing_plan_id":"cebpf4jnsgd1na2vs0mg"},{"bike_id":"96f0362e-fdfd-4811-b2e7-1fe88bf3cf15","system_id":"levelo_inurba_marseille","lat":43.29967,"lon":5.38495,"is_reserved":false,"is_disabled":false,"rental_uris":{"android":"levelo://app?vid=96f0362e-fdfd-4811-b2e7-1fe88bf3cf15","ios":"levelo://app?vid=96f0362e-fdfd-4811-b2e7-1fe88bf3cf15"},"vehicle_type_id":"4","last_reported":1751224053,"current_range_meters":5600,"station_id":"ce4bgj92rcd13ifvqbd0","pricing_plan_id":"cebpf4jnsgd1na2vs0mg"},{"bike_id":"3dd8e7d9-2743-42af-9d64-97ebf8f1f92e","system_id":"levelo_inurba_marseille","lat":43.24811,"lon":5.37458,"is_reserved":false,"is_disabled":false,"rental_uris":{"android":"levelo://app?vid=3dd8e7d9-2743-42af-9d64-97ebf8f1f92e","ios":"levelo://app?vid=3dd8e7d9-2743-42af-9d64-97ebf8f1f92e"},"vehicle_type_id":"4","last_reported":1751224053,"current_range_meters":6000,"station_id":"ce4bhgh2rcd13ifvqfb0","pricing_plan_id":"cebpf4jnsgd1na2vs0mg"},{"bike_id":"e31a2772-6a54-4ed9-ab69-4b155e45da68","system_id":"levelo_inurba_marseille","lat":43.28908,"lon":5.36142,"is_reserved":false,"is_disabled":false,"rental_uris":{"android":"levelo://app?vid=e31a2772-6a54-4ed9-ab69-4b155e45da68","ios":"levelo://app?vid=e31a2772-6a54-4ed9-ab69-4b155e45da68"},"vehicle_type_id":"4","last_reported":1751224053,"current_range_meters":6400,"station_id":"","pricing_plan_id":"cebpf4jnsgd1na2vs0mg"},{"bike_id":"1294f36e-38b8-48ce-a7be-084ac447e481","system_id":"levelo_inurba_marseille","lat":43.23183,"lon":5.39988,"is_reserved":false,"is_disabled":false,"rental_uris":{"android":"levelo://app?vid=1294f36e-38b8-48ce-a7be-084ac447e481","ios":"levelo://app?vid=1294f36e-38b8-48ce-a7be-084ac447e481"},"vehicle_type_id":"4","last_reported":1751224053,"current_range_meters":6400,"station_id":"ce4bhn12rcd13ifvqgqg","pricing_plan_id":"cebpf4jnsgd1na2vs0mg"},{"bike_id":"576f18cb-11f1-46b5-8a92-c849696644a1","system_id":"levelo_inurba_marseille","lat":43.28698,"lon":5.39986,"is_reserved":false,"is_disabled":false,"rental_uris":{"android":"levelo://app?vid=576f18cb-11f1-46b5-8a92-c849696644a1","ios":"levelo://app?vid=576f18cb-11f1-46b5-8a92-c849696644a1"},"vehicle_type_id":"4","last_reported":1751224053,"current_range_meters":6400,"station_id":"ce4bho92rcd13ifvqh3g","pricing_plan_id":"cebpf4jnsgd1na2vs0mg"},{"bike_id":"ee1a5364-0753-4949-a6f5-902a1441f651","system_id":"levelo_inurba_marseille","lat":43.2781,"lon":5.40709,"is_reserved":false,"is_disabled":false,"rental_uris":{"android":"levelo://app?vid=ee1a5364-0753-4949-a6f5-902a1441f651","ios":"levelo://app?vid=ee1a5364-0753-4949-a6f5-902a1441f651"},"vehicle_type_id":"4","last_reported":1751224053,"current_range_meters":6800,"station_id":"ce4bhnh2rcd13ifvqgtg","pricing_plan_id":"cebpf4jnsgd1na2vs0mg"},{"bike_id":"f98d6ac1-e77b-4a58-b25c-7c60156ded32","system_id":"levelo_inurba_marseille","lat":43.29891,"lon":5.43651,"is_reserved":false,"is_disabled":false,"rental_uris":{"android":"levelo://app?vid=f98d6ac1-e77b-4a58-b25c-7c60156ded32","ios":"levelo://app?vid=f98d6ac1-e77b-4a58-b25c-7c60156ded32"},"vehicle_type_id":"4","last_reported":1751224053,"current_range_meters":6800,"station_id":"ce4bhpp2rcd13ifvqhfg","pricing_plan_id":"cebpf4jnsgd1na2vs0mg"},{"bike_id":"12c7fc9f-7c7b-4185-9b2f-badd0c17e36b","system_id":"levelo_inurba_marseille","lat":43.24739,"lon":5.37449,"is_reserved":false,"is_disabled":false,"rental_uris":{"android":"levelo://app?vid=12c7fc9f-7c7b-4185-9b2f-badd0c17e36b","ios":"levelo://app?vid=12c7fc9f-7c7b-4185-9b2f-badd0c17e36b"},"vehicle_type_id":"4","last_reported":1751224053,"current_range_meters":7200,"station_id":"","pricing_plan_id":"cebpf4jnsgd1na2vs0mg"},{"bike_id":"b0914b2f-cbe2-444e-a4c0-a081883acad7","system_id":"levelo_inurba_marseille","lat":43.31711,"lon":5.43706,"is_reserved":false,"is_disabled":false,"rental_uris":{"android":"levelo://app?vid=b0914b2f-cbe2-444e-a4c0-a081883acad7","ios":"levelo://app?vid=b0914b2f-cbe2-444e-a4c0-a081883acad7"},"vehicle_type_id":"4","last_reported":1751224053,"current_range_meters":7200,"station_id":"ce4bhp92rcd13ifvqhcg","pricing_plan_id":"cebpf4jnsgd1na2vs0mg"},{"bike_id":"6eb63e15-815b-4ec4-99df-c60aa1b15c1e","system_id":"levelo_inurba_marseille","lat":43.32121,"lon":5.36768,"is_reserved":false,"is_disabled":false,"rental_uris":{"android":"levelo://app?vid=6eb63e15-815b-4ec4-99df-c60aa1b15c1e","ios":"levelo://app?vid=6eb63e15-815b-4ec4-99df-c60aa1b15c1e"},"vehicle_type_id":"4","last_reported":1751224053,"current_range_meters":7200,"station_id":"ce4bhrh2rcd13ifvqhug","pricing_plan_id":"cebpf4jnsgd1na2vs0mg"},{"bike_id":"e449aa29-cae1-4432-9aec-dedc13360b20","system_id":"levelo_inurba_marseille","lat":43.211918,"lon":5.350766,"is_reserved":false,"is_disabled":false,"rental_uris":{"android":"levelo://app?vid=e449aa29-cae1-4432-9aec-dedc13360b20","ios":"levelo://app?vid=e449aa29-cae1-4432-9aec-dedc13360b20"},"vehicle_type_id":"4","last_reported":1751224053,"current_range_meters":7200,"station_id":"st_cvj6sg6p6f1abm77japg","pricing_plan_id":"cebpf4jnsgd1na2vs0mg"},{"bike_id":"afb781ea-e5df-415e-9843-dda91f2779fb","system_id":"levelo_inurba_marseille","lat":43.33607,"lon":5.41032,"is_reserved":false,"is_disabled":false,"rental_uris":{"android":"levelo://app?vid=afb781ea-e5df-415e-9843-dda91f2779fb","ios":"levelo://app?vid=afb781ea-e5df-415e-9843-dda91f2779fb"},"vehicle_type_id":"4","last_reported":1751224053,"current_range_meters":8000,"station_id":"ce4bhqh2rcd13ifvqhmg","pricing_plan_id":"cebpf4jnsgd1na2vs0mg"},{"bike_id":"721165c1-ef6f-40cc-8d33-af3a7999864b","system_id":"levelo_inurba_marseille","lat":43.325933,"lon":5.378743,"is_reserved":false,"is_disabled":false,"rental_uris":{"android":"levelo://app?vid=721165c1-ef6f-40cc-8d33-af3a7999864b","ios":"levelo://app?vid=721165c1-ef6f-40cc-8d33-af3a7999864b"},"vehicle_type_id":"4","last_reported":1751224053,"current_range_meters":8400,"station_id":"","pricing_plan_id":"cebpf4jnsgd1na2vs0mg"},{"bike_id":"071d9ad8-79e9-447b-b25c-0a0463116df8","system_id":"levelo_inurba_marseille","lat":43.23864,"lon":5.36526,"is_reserved":false,"is_disabled":false,"rental_uris":{"android":"levelo://app?vid=071d9ad8-79e9-447b-b25c-0a0463116df8","ios":"levelo://app?vid=071d9ad8-79e9-447b-b25c-0a0463116df8"},"vehicle_type_id":"4","last_reported":1751224053,"current_range_meters":8800,"station_id":"","pricing_plan_id":"cebpf4jnsgd1na2vs0mg"},{"bike_id":"444fbcc3-a1a8-4b43-8c8b-0cf0d5a5051d","system_id":"levelo_inurba_marseille","lat":43.296829,"lon":5.373042,"is_reserved":false,"is_disabled":false,"rental_uris":{"android":"levelo://app?vid=444fbcc3-a1a8-4b43-8c8b-0cf0d5a5051d","ios":"levelo://app?vid=444fbcc3-a1a8-4b43-8c8b-0cf0d5a5051d"},"vehicle_type_id":"4","last_reported":1751224053,"current_range_meters":8800,"station_id":"","pricing_plan_id":"cebpf4jnsgd1na2vs0mg"},{"bike_id":"6b3fa41c-350d-4b39-abe0-934a61f5d401","system_id":"levelo_inurba_marseille","lat":43.23179,"lon":5.39985,"is_reserved":false,"is_disabled":false,"rental_uris":{"android":"levelo://app?vid=6b3fa41c-350d-4b39-abe0-934a61f5d401","ios":"levelo://app?vid=6b3fa41c-350d-4b39-abe0-934a61f5d401"},"vehicle_type_id":"4","last_reported":1751224053,"current_range_meters":8800,"station_id":"ce4bhn12rcd13ifvqgqg","pricing_plan_id":"cebpf4jnsgd1na2vs0mg"},{"bike_id":"762acdc5-9b99-47a0-bda1-ee8060271245","system_id":"levelo_inurba_marseille","lat":43.21186,"lon":5.3507,"is_reserved":false,"is_disabled":false,"rental_uris":{"android":"levelo://app?vid=762acdc5-9b99-47a0-bda1-ee8060271245","ios":"levelo://app?vid=762acdc5-9b99-47a0-bda1-ee8060271245"},"vehicle_type_id":"4","last_reported":1751224053,"current_range_meters":8800,"station_id":"st_cvj6sg6p6f1abm77japg","pricing_plan_id":"cebpf4jnsgd1na2vs0mg"},{"bike_id":"d5b5bc74-aaeb-40c0-b979-fb1a262527de","system_id":"levelo_inurba_marseille","lat":43.33266,"lon":5.35875,"is_reserved":false,"is_disabled":false,"rental_uris":{"android":"levelo://app?vid=d5b5bc74-aaeb-40c0-b979-fb1a262527de","ios":"levelo://app?vid=d5b5bc74-aaeb-40c0-b979-fb1a262527de"},"vehicle_type_id":"4","last_reported":1751224053,"current_range_meters":9200,"station_id":"","pricing_plan_id":"cebpf4jnsgd1na2vs0mg"},{"bike_id":"1b16a4b0-4c4e-4646-9f71-d69269f62e00","system_id":"levelo_inurba_marseille","lat":43.29703,"lon":5.36607,"is_reserved":false,"is_disabled":false,"rental_uris":{"android":"levelo://app?vid=1b16a4b0-4c4e-4646-9f71-d69269f62e00","ios":"levelo://app?vid=1b16a4b0-4c4e-4646-9f71-d69269f62e00"},"vehicle_type_id":"4","last_reported":1751224053,"current_range_meters":9200,"station_id":"ce4bgn12rcd13ifvqbt0","pricing_plan_id":"cebpf4jnsgd1na2vs0mg"},{"bike_id":"38feaa8c-6626-4e01-8694-1d866c62c386","system_id":"levelo_inurba_marseille","lat":43.30922,"lon":5.4014,"is_reserved":false,"is_disabled":false,"rental_uris":{"android":"levelo://app?vid=38feaa8c-6626-4e01-8694-1d866c62c386","ios":"levelo://app?vid=38feaa8c-6626-4e01-8694-1d866c62c386"},"vehicle_type_id":"4","last_reported":1751224053,"current_range_meters":9200,"station_id":"ce4bgvp2rcd13ifvqct0","pricing_plan_id":"cebpf4jnsgd1na2vs0mg"},{"bike_id":"8bf0d992-d2a0-428e-940a-091ee9b7c2a4","system_id":"levelo_inurba_marseille","lat":43.21187,"lon":5.35061,"is_reserved":false,"is_disabled":false,"rental_uris":{"android":"levelo://app?vid=8bf0d992-d2a0-428e-940a-091ee9b7c2a4","ios":"levelo://app?vid=8bf0d992-d2a0-428e-940a-091ee9b7c2a4"},"vehicle_type_id":"4","last_reported":1751224053,"current_range_meters":9200,"station_id":"st_cvj6sg6p6f1abm77japg","pricing_plan_id":"cebpf4jnsgd1na2vs0mg"},{"bike_id":"735fb3ec-51d3-42a0-b0e0-35a6ef148211","system_id":"levelo_inurba_marseille","lat":43.31297,"lon":5.37295,"is_reserved":false,"is_disabled":false,"rental_uris":{"android":"levelo://app?vid=735fb3ec-51d3-42a0-b0e0-35a6ef148211","ios":"levelo://app?vid=735fb3ec-51d3-42a0-b0e0-35a6ef148211"},"vehicle_type_id":"4","last_reported":1751224053,"current_range_meters":9600,"station_id":"","pricing_plan_id":"cebpf4jnsgd1na2vs0mg"},{"bike_id":"7b28ebac-3c6a-43aa-aca9-7bd954b07205","system_id":"levelo_inurba_marseille","lat":43.29649,"lon":5.37948,"is_reserved":false,"is_disabled":false,"rental_uris":{"android":"levelo://app?vid=7b28ebac-3c6a-43aa-aca9-7bd954b07205","ios":"levelo://app?vid=7b28ebac-3c6a-43aa-aca9-7bd954b07205"},"vehicle_type_id":"4","last_reported":1751224053,"current_range_meters":10000,"station_id":"","pricing_plan_id":"cebpf4jnsgd1na2vs0mg"},{"bike_id":"9a990897-10d6-49b3-8dbd-612e87464be4","system_id":"levelo_inurba_marseille","lat":43.31712,"lon":5.37739,"is_reserved":false,"is_disabled":false,"rental_uris":{"android":"levelo://app?vid=9a990897-10d6-49b3-8dbd-612e87464be4","ios":"levelo://app?vid=9a990897-10d6-49b3-8dbd-612e87464be4"},"vehicle_type_id":"4","last_reported":1751224053,"current_range_meters":10000,"station_id":"ce4bgth2rcd13ifvqch0","pricing_plan_id":"cebpf4jnsgd1na2vs0mg"},{"bike_id":"acbd5eb9-8499-485f-ac82-6d674f34490c","system_id":"levelo_inurba_marseille","lat":43.31072,"lon":5.38355,"is_reserved":false,"is_disabled":false,"rental_uris":{"android":"levelo://app?vid=acbd5eb9-8499-485f-ac82-6d674f34490c","ios":"levelo://app?vid=acbd5eb9-8499-485f-ac82-6d674f34490c"},"vehicle_type_id":"4","last_reported":1751224053,"current_range_meters":10000,"station_id":"ce4bgv92rcd13ifvqcr0","pricing_plan_id":"cebpf4jnsgd1na2vs0mg"},{"bike_id":"d38239dd-cafe-4b24-90ac-a7956f3fbcc3","system_id":"levelo_inurba_marseille","lat":43.30886,"lon":5.39656,"is_reserved":false,"is_disabled":false,"rental_uris":{"android":"levelo://app?vid=d38239dd-cafe-4b24-90ac-a7956f3fbcc3","ios":"levelo://app?vid=d38239dd-cafe-4b24-90ac-a7956f3fbcc3"},"vehicle_type_id":"4","last_reported":1751224053,"current_range_meters":10000,"station_id":"ce4bh012rcd13ifvqcv0","pricing_plan_id":"cebpf4jnsgd1na2vs0mg"},{"bike_id":"3e07ff03-8308-495f-b700-73b1552363ac","system_id":"levelo_inurba_marseille","lat":43.31684,"lon":5.40472,"is_reserved":false,"is_disabled":false,"rental_uris":{"android":"levelo://app?vid=3e07ff03-8308-495f-b700-73b1552363ac","ios":"levelo://app?vid=3e07ff03-8308-495f-b700-73b1552363ac"},"vehicle_type_id":"4","last_reported":1751224053,"current_range_meters":10000,"station_id":"ce4bh012rcd13ifvqd00","pricing_plan_id":"cebpf4jnsgd1na2vs0mg"},{"bike_id":"b636965d-7db1-47cd-adbf-cfced905006a","system_id":"levelo_inurba_marseille","lat":43.21191,"lon":5.35082,"is_reserved":false,"is_disabled":false,"rental_uris":{"android":"levelo://app?vid=b636965d-7db1-47cd-adbf-cfced905006a","ios":"levelo://app?vid=b636965d-7db1-47cd-adbf-cfced905006a"},"vehicle_type_id":"4","last_reported":1751224053,"current_range_meters":10000,"station_id":"st_cvj6sg6p6f1abm77japg","pricing_plan_id":"cebpf4jnsgd1na2vs0mg"},{"bike_id":"22b97c67-1d12-453c-bf0b-f55f89f8f299","system_id":"levelo_inurba_marseille","lat":43.28471,"lon":5.38417,"is_reserved":false,"is_disabled":false,"rental_uris":{"android":"levelo://app?vid=22b97c67-1d12-453c-bf0b-f55f89f8f299","ios":"levelo://app?vid=22b97c67-1d12-453c-bf0b-f55f89f8f299"},"vehicle_type_id":"4","last_reported":1751224053,"current_range_meters":10800,"station_id":"ce4bh512rcd13ifvqe3g","pricing_plan_id":"cebpf4jnsgd1na2vs0mg"},{"bike_id":"940c8448-39b7-4d8b-b4cc-9918765a5bbc","system_id":"levelo_inurba_marseille","lat":43.21193,"lon":5.35081,"is_reserved":false,"is_disabled":false,"rental_uris":{"android":"levelo://app?vid=940c8448-39b7-4d8b-b4cc-9918765a5bbc","ios":"levelo://app?vid=940c8448-39b7-4d8b-b4cc-9918765a5bbc"},"vehicle_type_id":"4","last_reported":1751224053,"current_range_meters":10800,"station_id":"st_cvj6sg6p6f1abm77japg","pricing_plan_id":"cebpf4jnsgd1na2vs0mg"},{"bike_id":"9fc6b39a-5532-40ac-8f58-975bced56a19","system_id":"levelo_inurba_marseille","lat":43.3262,"lon":5.40429,"is_reserved":false,"is_disabled":false,"rental_uris":{"android":"levelo://app?vid=9fc6b39a-5532-40ac-8f58-975bced56a19","ios":"levelo://app?vid=9fc6b39a-5532-40ac-8f58-975bced56a19"},"vehicle_type_id":"4","last_reported":1751224053,"current_range_meters":11200,"station_id":"","pricing_plan_id":"cebpf4jnsgd1na2vs0mg"},{"bike_id":"66abb35b-0e37-4ddd-bf66-70dc62e8f63c","system_id":"levelo_inurba_marseille","lat":43.22844,"lon":5.35114,"is_reserved":false,"is_disabled":false,"rental_uris":{"android":"levelo://app?vid=66abb35b-0e37-4ddd-bf66-70dc62e8f63c","ios":"levelo://app?vid=66abb35b-0e37-4ddd-bf66-70dc62e8f63c"},"vehicle_type_id":"4","last_reported":1751224053,"current_range_meters":11200,"station_id":"","pricing_plan_id":"cebpf4jnsgd1na2vs0mg"},{"bike_id":"d308c658-b19c-49c0-8014-5506ff26f69a","system_id":"levelo_inurba_marseille","lat":43.23083,"lon":5.4049,"is_reserved":false,"is_disabled":false,"rental_uris":{"android":"levelo://app?vid=d308c658-b19c-49c0-8014-5506ff26f69a","ios":"levelo://app?vid=d308c658-b19c-49c0-8014-5506ff26f69a"},"vehicle_type_id":"4","last_reported":1751224053,"current_range_meters":11200,"station_id":"","pricing_plan_id":"cebpf4jnsgd1na2vs0mg"},{"bike_id":"7da6acc5-2df2-412d-8c2a-a01df915d820","system_id":"levelo_inurba_marseille","lat":43.23968,"lon":5.36631,"is_reserved":false,"is_disabled":false,"rental_uris":{"android":"levelo://app?vid=7da6acc5-2df2-412d-8c2a-a01df915d820","ios":"levelo://app?vid=7da6acc5-2df2-412d-8c2a-a01df915d820"},"vehicle_type_id":"4","last_reported":1751224053,"current_range_meters":11600,"station_id":"ce4bhi12rcd13ifvqfp0","pricing_plan_id":"cebpf4jnsgd1na2vs0mg"},{"bike_id":"e219543a-880e-4c38-aff0-63dd83878c8b","system_id":"levelo_inurba_marseille","lat":43.32108,"lon":5.36775,"is_reserved":false,"is_disabled":false,"rental_uris":{"android":"levelo://app?vid=e219543a-880e-4c38-aff0-63dd83878c8b","ios":"levelo://app?vid=e219543a-880e-4c38-aff0-63dd83878c8b"},"vehicle_type_id":"4","last_reported":1751224053,"current_range_meters":11600,"station_id":"ce4bhrh2rcd13ifvqhug","pricing_plan_id":"cebpf4jnsgd1na2vs0mg"},{"bike_id":"8aefb3bc-6d82-47f6-9ad2-ca34264ea11a","system_id":"levelo_inurba_marseille","lat":43.21761,"lon":5.34584,"is_reserved":false,"is_disabled":false,"rental_uris":{"android":"levelo://app?vid=8aefb3bc-6d82-47f6-9ad2-ca34264ea11a","ios":"levelo://app?vid=8aefb3bc-6d82-47f6-9ad2-ca34264ea11a"},"vehicle_type_id":"4","last_reported":1751224053,"current_range_meters":11600,"station_id":"st_cvj6r9ubvosntc0bgbag","pricing_plan_id":"cebpf4jnsgd1na2vs0mg"},{"bike_id":"f5c16f07-bc6f-4121-91a7-5ad90eec4f34","system_id":"levelo_inurba_marseille","lat":43.31199,"lon":5.37335,"is_reserved":false,"is_disabled":false,"rental_uris":{"android":"levelo://app?vid=f5c16f07-bc6f-4121-91a7-5ad90eec4f34","ios":"levelo://app?vid=f5c16f07-bc6f-4121-91a7-5ad90eec4f34"},"vehicle_type_id":"4","last_reported":1751224053,"current_range_meters":12000,"station_id":"","pricing_plan_id":"cebpf4jnsgd1na2vs0mg"},{"bike_id":"c595d0e1-c778-4abe-9c79-a9dd74f54e27","system_id":"levelo_inurba_marseille","lat":43.2447,"lon":5.37208,"is_reserved":false,"is_disabled":false,"rental_uris":{"android":"levelo://app?vid=c595d0e1-c778-4abe-9c79-a9dd74f54e27","ios":"levelo://app?vid=c595d0e1-c778-4abe-9c79-a9dd74f54e27"},"vehicle_type_id":"4","last_reported":1751224053,"current_range_meters":12000,"station_id":"","pricing_plan_id":"cebpf4jnsgd1na2vs0mg"},{"bike_id":"9fe87db7-c6a4-40c2-a2f8-dd019bdf5970","system_id":"levelo_inurba_marseille","lat":43.27395,"lon":5.36229,"is_reserved":false,"is_disabled":false,"rental_uris":{"android":"levelo://app?vid=9fe87db7-c6a4-40c2-a2f8-dd019bdf5970","ios":"levelo://app?vid=9fe87db7-c6a4-40c2-a2f8-dd019bdf5970"},"vehicle_type_id":"4","last_reported":1751224053,"current_range_meters":12000,"station_id":"","pricing_plan_id":"cebpf4jnsgd1na2vs0mg"},{"bike_id":"cf724533-264c-4784-ab66-9ced25ae4e38","system_id":"levelo_inurba_marseille","lat":43.28074,"lon":5.39659,"is_reserved":false,"is_disabled":false,"rental_uris":{"android":"levelo://app?vid=cf724533-264c-4784-ab66-9ced25ae4e38","ios":"levelo://app?vid=cf724533-264c-4784-ab66-9ced25ae4e38"},"vehicle_type_id":"4","last_reported":1751224053,"current_range_meters":12000,"station_id":"ce4bho12rcd13ifvqh2g","pricing_plan_id":"cebpf4jnsgd1na2vs0mg"},{"bike_id":"6bd83605-4626-45c1-b411-9aadbef88bed","system_id":"levelo_inurba_marseille","lat":43.31486,"lon":5.37296,"is_reserved":false,"is_disabled":false,"rental_uris":{"android":"levelo://app?vid=6bd83605-4626-45c1-b411-9aadbef88bed","ios":"levelo://app?vid=6bd83605-4626-45c1-b411-9aadbef88bed"},"vehicle_type_id":"4","last_reported":1751224053,"current_range_meters":12400,"station_id":"ce4bgt12rcd13ifvqcd0","pricing_plan_id":"cebpf4jnsgd1na2vs0mg"},{"bike_id":"8f496132-332f-44a9-94b6-d269e7c82690","system_id":"levelo_inurba_marseille","lat":43.31714,"lon":5.37727,"is_reserved":false,"is_disabled":false,"rental_uris":{"android":"levelo://app?vid=8f496132-332f-44a9-94b6-d269e7c82690","ios":"levelo://app?vid=8f496132-332f-44a9-94b6-d269e7c82690"},"vehicle_type_id":"4","last_reported":1751224053,"current_range_meters":12400,"station_id":"ce4bgth2rcd13ifvqch0","pricing_plan_id":"cebpf4jnsgd1na2vs0mg"},{"bike_id":"39ac5be4-bab4-41e5-9122-24a739d405de","system_id":"levelo_inurba_marseille","lat":43.273349,"lon":5.392774,"is_reserved":false,"is_disabled":false,"rental_uris":{"android":"levelo://app?vid=39ac5be4-bab4-41e5-9122-24a739d405de","ios":"levelo://app?vid=39ac5be4-bab4-41e5-9122-24a739d405de"},"vehicle_type_id":"4","last_reported":1751224053,"current_range_meters":12400,"station_id":"ce4bhdp2rcd13ifvqf20","pricing_plan_id":"cebpf4jnsgd1na2vs0mg"},{"bike_id":"aac8608d-cd11-4597-b4a5-3a801dd5d598","system_id":"levelo_inurba_marseille","lat":43.31539,"lon":5.38026,"is_reserved":false,"is_disabled":false,"rental_uris":{"android":"levelo://app?vid=aac8608d-cd11-4597-b4a5-3a801dd5d598","ios":"levelo://app?vid=aac8608d-cd11-4597-b4a5-3a801dd5d598"},"vehicle_type_id":"4","last_reported":1751224053,"current_range_meters":12400,"station_id":"ce4bhsp2rcd13ifvqi50","pricing_plan_id":"cebpf4jnsgd1na2vs0mg"},{"bike_id":"fbe8d6ff-3d6e-41f9-b273-107772f90263","system_id":"levelo_inurba_marseille","lat":43.29976,"lon":5.38507,"is_reserved":false,"is_disabled":false,"rental_uris":{"android":"levelo://app?vid=fbe8d6ff-3d6e-41f9-b273-107772f90263","ios":"levelo://app?vid=fbe8d6ff-3d6e-41f9-b273-107772f90263"},"vehicle_type_id":"4","last_reported":1751224053,"current_range_meters":12800,"station_id":"ce4bgj92rcd13ifvqbd0","pricing_plan_id":"cebpf4jnsgd1na2vs0mg"},{"bike_id":"29224259-329f-4f67-ac68-32eed89b18a1","system_id":"levelo_inurba_marseille","lat":43.21193,"lon":5.35055,"is_reserved":false,"is_disabled":false,"rental_uris":{"android":"levelo://app?vid=29224259-329f-4f67-ac68-32eed89b18a1","ios":"levelo://app?vid=29224259-329f-4f67-ac68-32eed89b18a1"},"vehicle_type_id":"4","last_reported":1751224053,"current_range_meters":12800,"station_id":"st_cvj6sg6p6f1abm77japg","pricing_plan_id":"cebpf4jnsgd1na2vs0mg"},{"bike_id":"3a6751a2-84be-4e5e-95a2-63f23295a3e0","system_id":"levelo_inurba_marseille","lat":43.3009,"lon":5.39069,"is_reserved":false,"is_disabled":false,"rental_uris":{"android":"levelo://app?vid=3a6751a2-84be-4e5e-95a2-63f23295a3e0","ios":"levelo://app?vid=3a6751a2-84be-4e5e-95a2-63f23295a3e0"},"vehicle_type_id":"4","last_reported":1751224053,"current_range_meters":13600,"station_id":"ce4bh192rcd13ifvqdb0","pricing_plan_id":"cebpf4jnsgd1na2vs0mg"},{"bike_id":"8b29af76-d681-4d57-bbbf-b8ee9965be65","system_id":"levelo_inurba_marseille","lat":43.29073,"lon":5.37177,"is_reserved":false,"is_disabled":false,"rental_uris":{"android":"levelo://app?vid=8b29af76-d681-4d57-bbbf-b8ee9965be65","ios":"levelo://app?vid=8b29af76-d681-4d57-bbbf-b8ee9965be65"},"vehicle_type_id":"4","last_reported":1751224053,"current_range_meters":13600,"station_id":"ce4bh5p2rcd13ifvqe4g","pricing_plan_id":"cebpf4jnsgd1na2vs0mg"},{"bike_id":"16f4f259-527d-4228-aed4-88206eea9720","system_id":"levelo_inurba_marseille","lat":43.33599,"lon":5.4098,"is_reserved":false,"is_disabled":false,"rental_uris":{"android":"levelo://app?vid=16f4f259-527d-4228-aed4-88206eea9720","ios":"levelo://app?vid=16f4f259-527d-4228-aed4-88206eea9720"},"vehicle_type_id":"4","last_reported":1751224053,"current_range_meters":13600,"station_id":"ce4bhqh2rcd13ifvqhmg","pricing_plan_id":"cebpf4jnsgd1na2vs0mg"},{"bike_id":"6e53ad1f-d4f5-4de6-9418-67b290ec993f","system_id":"levelo_inurba_marseille","lat":43.30966,"lon":5.41063,"is_reserved":false,"is_disabled":false,"rental_uris":{"android":"levelo://app?vid=6e53ad1f-d4f5-4de6-9418-67b290ec993f","ios":"levelo://app?vid=6e53ad1f-d4f5-4de6-9418-67b290ec993f"},"vehicle_type_id":"4","last_reported":1751224053,"current_range_meters":14000,"station_id":"","pricing_plan_id":"cebpf4jnsgd1na2vs0mg"},{"bike_id":"0755cf6d-31db-4228-9d92-3a5a80d0cde3","system_id":"levelo_inurba_marseille","lat":43.30092,"lon":5.39069,"is_reserved":false,"is_disabled":false,"rental_uris":{"android":"levelo://app?vid=0755cf6d-31db-4228-9d92-3a5a80d0cde3","ios":"levelo://app?vid=0755cf6d-31db-4228-9d92-3a5a80d0cde3"},"vehicle_type_id":"4","last_reported":1751224053,"current_range_meters":14000,"station_id":"ce4bh192rcd13ifvqdb0","pricing_plan_id":"cebpf4jnsgd1na2vs0mg"},{"bike_id":"b7450cbd-1878-4aa4-8fad-56d69ff08315","system_id":"levelo_inurba_marseille","lat":43.24166,"lon":5.36399,"is_reserved":false,"is_disabled":false,"rental_uris":{"android":"levelo://app?vid=b7450cbd-1878-4aa4-8fad-56d69ff08315","ios":"levelo://app?vid=b7450cbd-1878-4aa4-8fad-56d69ff08315"},"vehicle_type_id":"4","last_reported":1751224053,"current_range_meters":14000,"station_id":"cpo36qri1sfpv3e86is0","pricing_plan_id":"cebpf4jnsgd1na2vs0mg"},{"bike_id":"706791be-79ff-4961-85f9-10b00214ce8a","system_id":"levelo_inurba_marseille","lat":43.33027,"lon":5.39255,"is_reserved":false,"is_disabled":false,"rental_uris":{"android":"levelo://app?vid=706791be-79ff-4961-85f9-10b00214ce8a","ios":"levelo://app?vid=706791be-79ff-4961-85f9-10b00214ce8a"},"vehicle_type_id":"4","last_reported":1751224053,"current_range_meters":14400,"station_id":"","pricing_plan_id":"cebpf4jnsgd1na2vs0mg"},{"bike_id":"5bf04527-9b64-43ec-a5c9-69c41e952cc9","system_id":"levelo_inurba_marseille","lat":43.29527,"lon":5.38549,"is_reserved":false,"is_disabled":false,"rental_uris":{"android":"levelo://app?vid=5bf04527-9b64-43ec-a5c9-69c41e952cc9","ios":"levelo://app?vid=5bf04527-9b64-43ec-a5c9-69c41e952cc9"},"vehicle_type_id":"4","last_reported":1751224053,"current_range_meters":14400,"station_id":"ce4bgih2rcd13ifvqba0","pricing_plan_id":"cebpf4jnsgd1na2vs0mg"},{"bike_id":"c6615a83-44eb-4af1-a7fb-02a3386d689b","system_id":"levelo_inurba_marseille","lat":43.21193,"lon":5.35027,"is_reserved":false,"is_disabled":false,"rental_uris":{"android":"levelo://app?vid=c6615a83-44eb-4af1-a7fb-02a3386d689b","ios":"levelo://app?vid=c6615a83-44eb-4af1-a7fb-02a3386d689b"},"vehicle_type_id":"4","last_reported":1751224053,"current_range_meters":14800,"station_id":"","pricing_plan_id":"cebpf4jnsgd1na2vs0mg"},{"bike_id":"5d12740f-c571-48ab-9780-84c11ec55db9","system_id":"levelo_inurba_marseille","lat":43.25579,"lon":5.38219,"is_reserved":false,"is_disabled":false,"rental_uris":{"android":"levelo://app?vid=5d12740f-c571-48ab-9780-84c11ec55db9","ios":"levelo://app?vid=5d12740f-c571-48ab-9780-84c11ec55db9"},"vehicle_type_id":"4","last_reported":1751224053,"current_range_meters":14800,"station_id":"ce4bhih2rcd13ifvqfs0","pricing_plan_id":"cebpf4jnsgd1na2vs0mg"},{"bike_id":"d03eec7b-097f-4720-9e49-962f2a4897f6","system_id":"levelo_inurba_marseille","lat":43.23197,"lon":5.39979,"is_reserved":false,"is_disabled":false,"rental_uris":{"android":"levelo://app?vid=d03eec7b-097f-4720-9e49-962f2a4897f6","ios":"levelo://app?vid=d03eec7b-097f-4720-9e49-962f2a4897f6"},"vehicle_type_id":"4","last_reported":1751224053,"current_range_meters":14800,"station_id":"ce4bhn12rcd13ifvqgqg","pricing_plan_id":"cebpf4jnsgd1na2vs0mg"},{"bike_id":"bf24b26e-7f51-4120-9a48-54c87edaa2f7","system_id":"levelo_inurba_marseille","lat":43.21205,"lon":5.35062,"is_reserved":false,"is_disabled":false,"rental_uris":{"android":"levelo://app?vid=bf24b26e-7f51-4120-9a48-54c87edaa2f7","ios":"levelo://app?vid=bf24b26e-7f51-4120-9a48-54c87edaa2f7"},"vehicle_type_id":"4","last_reported":1751224053,"current_range_meters":14800,"station_id":"st_cvj6sg6p6f1abm77japg","pricing_plan_id":"cebpf4jnsgd1na2vs0mg"},{"bike_id":"7cd73daf-6410-4b72-a872-e5224e9d29ff","system_id":"levelo_inurba_marseille","lat":43.27422,"lon":5.41153,"is_reserved":false,"is_disabled":false,"rental_uris":{"android":"levelo://app?vid=7cd73daf-6410-4b72-a872-e5224e9d29ff","ios":"levelo://app?vid=7cd73daf-6410-4b72-a872-e5224e9d29ff"},"vehicle_type_id":"4","last_reported":1751224053,"current_range_meters":15200,"station_id":"","pricing_plan_id":"cebpf4jnsgd1na2vs0mg"},{"bike_id":"62f96d07-23fa-4148-b41f-db728bdd1998","system_id":"levelo_inurba_marseille","lat":43.25815,"lon":5.39415,"is_reserved":false,"is_disabled":false,"rental_uris":{"android":"levelo://app?vid=62f96d07-23fa-4148-b41f-db728bdd1998","ios":"levelo://app?vid=62f96d07-23fa-4148-b41f-db728bdd1998"},"vehicle_type_id":"4","last_reported":1751224053,"current_range_meters":15200,"station_id":"ce4bhip2rcd13ifvqft0","pricing_plan_id":"cebpf4jnsgd1na2vs0mg"},{"bike_id":"ac6898ad-39b6-489e-9c1d-97aa0ba03fe7","system_id":"levelo_inurba_marseille","lat":43.31549,"lon":5.38028,"is_reserved":false,"is_disabled":false,"rental_uris":{"android":"levelo://app?vid=ac6898ad-39b6-489e-9c1d-97aa0ba03fe7","ios":"levelo://app?vid=ac6898ad-39b6-489e-9c1d-97aa0ba03fe7"},"vehicle_type_id":"4","last_reported":1751224053,"current_range_meters":15200,"station_id":"ce4bhsp2rcd13ifvqi50","pricing_plan_id":"cebpf4jnsgd1na2vs0mg"},{"bike_id":"dce085d4-8de2-4a4a-a01d-5388f80c4009","system_id":"levelo_inurba_marseille","lat":43.29528,"lon":5.3854,"is_reserved":false,"is_disabled":false,"rental_uris":{"android":"levelo://app?vid=dce085d4-8de2-4a4a-a01d-5388f80c4009","ios":"levelo://app?vid=dce085d4-8de2-4a4a-a01d-5388f80c4009"},"vehicle_type_id":"4","last_reported":1751224053,"current_range_meters":16000,"station_id":"ce4bgih2rcd13ifvqba0","pricing_plan_id":"cebpf4jnsgd1na2vs0mg"},{"bike_id":"9452ff52-77fe-4a52-90ae-51de27742a1e","system_id":"levelo_inurba_marseille","lat":43.29093,"lon":5.38134,"is_reserved":false,"is_disabled":false,"rental_uris":{"android":"levelo://app?vid=9452ff52-77fe-4a52-90ae-51de27742a1e","ios":"levelo://app?vid=9452ff52-77fe-4a52-90ae-51de27742a1e"},"vehicle_type_id":"4","last_reported":1751224053,"current_range_meters":16000,"station_id":"ce4bh512rcd13ifvqe2g","pricing_plan_id":"cebpf4jnsgd1na2vs0mg"},{"bike_id":"0595f76a-1f63-40df-8f3a-f96f60e5a3e0","system_id":"levelo_inurba_marseille","lat":43.32115,"lon":5.36764,"is_reserved":false,"is_disabled":false,"rental_uris":{"android":"levelo://app?vid=0595f76a-1f63-40df-8f3a-f96f60e5a3e0","ios":"levelo://app?vid=0595f76a-1f63-40df-8f3a-f96f60e5a3e0"},"vehicle_type_id":"4","last_reported":1751224053,"current_range_meters":16000,"station_id":"ce4bhrh2rcd13ifvqhug","pricing_plan_id":"cebpf4jnsgd1na2vs0mg"},{"bike_id":"e7641e58-176f-485d-9342-129003cdc52b","system_id":"levelo_inurba_marseille","lat":43.32122,"lon":5.36772,"is_reserved":false,"is_disabled":false,"rental_uris":{"android":"levelo://app?vid=e7641e58-176f-485d-9342-129003cdc52b","ios":"levelo://app?vid=e7641e58-176f-485d-9342-129003cdc52b"},"vehicle_type_id":"4","last_reported":1751224053,"current_range_meters":16000,"station_id":"ce4bhrh2rcd13ifvqhug","pricing_plan_id":"cebpf4jnsgd1na2vs0mg"},{"bike_id":"3035be0e-7c3d-4f7d-a1cb-7a1af59e497b","system_id":"levelo_inurba_marseille","lat":43.29662,"lon":5.35905,"is_reserved":false,"is_disabled":false,"rental_uris":{"android":"levelo://app?vid=3035be0e-7c3d-4f7d-a1cb-7a1af59e497b","ios":"levelo://app?vid=3035be0e-7c3d-4f7d-a1cb-7a1af59e497b"},"vehicle_type_id":"4","last_reported":1751224053,"current_range_meters":16400,"station_id":"","pricing_plan_id":"cebpf4jnsgd1na2vs0mg"},{"bike_id":"452e8211-4f44-45d0-814a-3e9e25b8c44e","system_id":"levelo_inurba_marseille","lat":43.21209,"lon":5.3506,"is_reserved":false,"is_disabled":false,"rental_uris":{"android":"levelo://app?vid=452e8211-4f44-45d0-814a-3e9e25b8c44e","ios":"levelo://app?vid=452e8211-4f44-45d0-814a-3e9e25b8c44e"},"vehicle_type_id":"4","last_reported":1751224053,"current_range_meters":16400,"station_id":"st_cvj6sg6p6f1abm77japg","pricing_plan_id":"cebpf4jnsgd1na2vs0mg"},{"bike_id":"2a7d4522-b0dd-48c1-8653-7a6d0e58cc43","system_id":"levelo_inurba_marseille","lat":43.32064,"lon":5.40144,"is_reserved":false,"is_disabled":false,"rental_uris":{"android":"levelo://app?vid=2a7d4522-b0dd-48c1-8653-7a6d0e58cc43","ios":"levelo://app?vid=2a7d4522-b0dd-48c1-8653-7a6d0e58cc43"},"vehicle_type_id":"4","last_reported":1751224053,"current_range_meters":16800,"station_id":"","pricing_plan_id":"cebpf4jnsgd1na2vs0mg"},{"bike_id":"a2e4a52b-7763-4ad9-8373-6df4fc6db6f3","system_id":"levelo_inurba_marseille","lat":43.29529,"lon":5.38544,"is_reserved":false,"is_disabled":false,"rental_uris":{"android":"levelo://app?vid=a2e4a52b-7763-4ad9-8373-6df4fc6db6f3","ios":"levelo://app?vid=a2e4a52b-7763-4ad9-8373-6df4fc6db6f3"},"vehicle_type_id":"4","last_reported":1751224053,"current_range_meters":16800,"station_id":"ce4bgih2rcd13ifvqba0","pricing_plan_id":"cebpf4jnsgd1na2vs0mg"},{"bike_id":"ba926bfc-9632-4680-b0ed-32a040d6fb83","system_id":"levelo_inurba_marseille","lat":43.211949,"lon":5.350791,"is_reserved":false,"is_disabled":false,"rental_uris":{"android":"levelo://app?vid=ba926bfc-9632-4680-b0ed-32a040d6fb83","ios":"levelo://app?vid=ba926bfc-9632-4680-b0ed-32a040d6fb83"},"vehicle_type_id":"4","last_reported":1751224053,"current_range_meters":16800,"station_id":"st_cvj6sg6p6f1abm77japg","pricing_plan_id":"cebpf4jnsgd1na2vs0mg"},{"bike_id":"13b41e45-346e-4c7f-9637-3246dd9f4d26","system_id":"levelo_inurba_marseille","lat":43.33006,"lon":5.39337,"is_reserved":false,"is_disabled":false,"rental_uris":{"android":"levelo://app?vid=13b41e45-346e-4c7f-9637-3246dd9f4d26","ios":"levelo://app?vid=13b41e45-346e-4c7f-9637-3246dd9f4d26"},"vehicle_type_id":"4","last_reported":1751224053,"current_range_meters":17200,"station_id":"","pricing_plan_id":"cebpf4jnsgd1na2vs0mg"},{"bike_id":"1ac664aa-f2a4-4b75-879f-dcb93272d133","system_id":"levelo_inurba_marseille","lat":43.320229,"lon":5.40961,"is_reserved":false,"is_disabled":false,"rental_uris":{"android":"levelo://app?vid=1ac664aa-f2a4-4b75-879f-dcb93272d133","ios":"levelo://app?vid=1ac664aa-f2a4-4b75-879f-dcb93272d133"},"vehicle_type_id":"4","last_reported":1751224053,"current_range_meters":17200,"station_id":"","pricing_plan_id":"cebpf4jnsgd1na2vs0mg"},{"bike_id":"e83e5f6f-faf8-4895-a855-fe56b2f57aa1","system_id":"levelo_inurba_marseille","lat":43.2811,"lon":5.37838,"is_reserved":false,"is_disabled":false,"rental_uris":{"android":"levelo://app?vid=e83e5f6f-faf8-4895-a855-fe56b2f57aa1","ios":"levelo://app?vid=e83e5f6f-faf8-4895-a855-fe56b2f57aa1"},"vehicle_type_id":"4","last_reported":1751224053,"current_range_meters":17200,"station_id":"ce4bha12rcd13ifvqee0","pricing_plan_id":"cebpf4jnsgd1na2vs0mg"},{"bike_id":"3a2fa425-1b86-4c5b-af2b-5db2d2aa4124","system_id":"levelo_inurba_marseille","lat":43.28608,"lon":5.37065,"is_reserved":false,"is_disabled":false,"rental_uris":{"android":"levelo://app?vid=3a2fa425-1b86-4c5b-af2b-5db2d2aa4124","ios":"levelo://app?vid=3a2fa425-1b86-4c5b-af2b-5db2d2aa4124"},"vehicle_type_id":"4","last_reported":1751224053,"current_range_meters":17200,"station_id":"ce4bht12rcd13ifvqi60","pricing_plan_id":"cebpf4jnsgd1na2vs0mg"},{"bike_id":"3eabe1e2-f9f5-41cb-a4ed-73ca7f909c5c","system_id":"levelo_inurba_marseille","lat":43.21201,"lon":5.35052,"is_reserved":false,"is_disabled":false,"rental_uris":{"android":"levelo://app?vid=3eabe1e2-f9f5-41cb-a4ed-73ca7f909c5c","ios":"levelo://app?vid=3eabe1e2-f9f5-41cb-a4ed-73ca7f909c5c"},"vehicle_type_id":"4","last_reported":1751224053,"current_range_meters":17200,"station_id":"st_cvj6sg6p6f1abm77japg","pricing_plan_id":"cebpf4jnsgd1na2vs0mg"},{"bike_id":"37b84a38-055a-4a6e-a56a-8ff3d0c1b2ec","system_id":"levelo_inurba_marseille","lat":43.21182,"lon":5.35062,"is_reserved":false,"is_disabled":false,"rental_uris":{"android":"levelo://app?vid=37b84a38-055a-4a6e-a56a-8ff3d0c1b2ec","ios":"levelo://app?vid=37b84a38-055a-4a6e-a56a-8ff3d0c1b2ec"},"vehicle_type_id":"4","last_reported":1751224053,"current_range_meters":17200,"station_id":"st_cvj6sg6p6f1abm77japg","pricing_plan_id":"cebpf4jnsgd1na2vs0mg"},{"bike_id":"5f470112-8139-4343-b082-08a74e0b7074","system_id":"levelo_inurba_marseille","lat":43.21207,"lon":5.35053,"is_reserved":false,"is_disabled":false,"rental_uris":{"android":"levelo://app?vid=5f470112-8139-4343-b082-08a74e0b7074","ios":"levelo://app?vid=5f470112-8139-4343-b082-08a74e0b7074"},"vehicle_type_id":"4","last_reported":1751224053,"current_range_meters":17200,"station_id":"st_cvj6sg6p6f1abm77japg","pricing_plan_id":"cebpf4jnsgd1na2vs0mg"},{"bike_id":"046e6bd8-7988-486f-affb-0a726c6f703f","system_id":"levelo_inurba_marseille","lat":43.31666,"lon":5.39638,"is_reserved":false,"is_disabled":false,"rental_uris":{"android":"levelo://app?vid=046e6bd8-7988-486f-affb-0a726c6f703f","ios":"levelo://app?vid=046e6bd8-7988-486f-affb-0a726c6f703f"},"vehicle_type_id":"4","last_reported":1751224053,"current_range_meters":17600,"station_id":"","pricing_plan_id":"cebpf4jnsgd1na2vs0mg"},{"bike_id":"7dc148e5-fd7e-4677-bce3-55c94c6ee080","system_id":"levelo_inurba_marseille","lat":43.30682,"lon":5.40909,"is_reserved":false,"is_disabled":false,"rental_uris":{"android":"levelo://app?vid=7dc148e5-fd7e-4677-bce3-55c94c6ee080","ios":"levelo://app?vid=7dc148e5-fd7e-4677-bce3-55c94c6ee080"},"vehicle_type_id":"4","last_reported":1751224053,"current_range_meters":17600,"station_id":"","pricing_plan_id":"cebpf4jnsgd1na2vs0mg"},{"bike_id":"7fc14041-b409-4eac-96af-c553d9b94213","system_id":"levelo_inurba_marseille","lat":43.24076,"lon":5.37771,"is_reserved":false,"is_disabled":false,"rental_uris":{"android":"levelo://app?vid=7fc14041-b409-4eac-96af-c553d9b94213","ios":"levelo://app?vid=7fc14041-b409-4eac-96af-c553d9b94213"},"vehicle_type_id":"4","last_reported":1751224053,"current_range_meters":17600,"station_id":"ce4bhnp2rcd13ifvqgvg","pricing_plan_id":"cebpf4jnsgd1na2vs0mg"},{"bike_id":"cec51844-6ed3-4f3b-bd23-62a3b5f7e73c","system_id":"levelo_inurba_marseille","lat":43.24175,"lon":5.36387,"is_reserved":false,"is_disabled":false,"rental_uris":{"android":"levelo://app?vid=cec51844-6ed3-4f3b-bd23-62a3b5f7e73c","ios":"levelo://app?vid=cec51844-6ed3-4f3b-bd23-62a3b5f7e73c"},"vehicle_type_id":"4","last_reported":1751224053,"current_range_meters":17600,"station_id":"cpo36qri1sfpv3e86is0","pricing_plan_id":"cebpf4jnsgd1na2vs0mg"},{"bike_id":"0801cd49-e46d-4adb-a196-d56f23f979d9","system_id":"levelo_inurba_marseille","lat":43.21761,"lon":5.34596,"is_reserved":false,"is_disabled":false,"rental_uris":{"android":"levelo://app?vid=0801cd49-e46d-4adb-a196-d56f23f979d9","ios":"levelo://app?vid=0801cd49-e46d-4adb-a196-d56f23f979d9"},"vehicle_type_id":"4","last_reported":1751224053,"current_range_meters":17600,"station_id":"st_cvj6r9ubvosntc0bgbag","pricing_plan_id":"cebpf4jnsgd1na2vs0mg"},{"bike_id":"cc04118e-9312-4bf8-9106-d64e829afbaa","system_id":"levelo_inurba_marseille","lat":43.21191,"lon":5.3507,"is_reserved":false,"is_disabled":false,"rental_uris":{"android":"levelo://app?vid=cc04118e-9312-4bf8-9106-d64e829afbaa","ios":"levelo://app?vid=cc04118e-9312-4bf8-9106-d64e829afbaa"},"vehicle_type_id":"4","last_reported":1751224053,"current_range_meters":17600,"station_id":"st_cvj6sg6p6f1abm77japg","pricing_plan_id":"cebpf4jnsgd1na2vs0mg"},{"bike_id":"1f30e6ed-8504-4448-b3d0-3017ab371be8","system_id":"levelo_inurba_marseille","lat":43.30009,"lon":5.43549,"is_reserved":false,"is_disabled":false,"rental_uris":{"android":"levelo://app?vid=1f30e6ed-8504-4448-b3d0-3017ab371be8","ios":"levelo://app?vid=1f30e6ed-8504-4448-b3d0-3017ab371be8"},"vehicle_type_id":"4","last_reported":1751224053,"current_range_meters":18000,"station_id":"","pricing_plan_id":"cebpf4jnsgd1na2vs0mg"},{"bike_id":"7712491c-e18b-4b09-bb79-30880b357c07","system_id":"levelo_inurba_marseille","lat":43.21222,"lon":5.35047,"is_reserved":false,"is_disabled":false,"rental_uris":{"android":"levelo://app?vid=7712491c-e18b-4b09-bb79-30880b357c07","ios":"levelo://app?vid=7712491c-e18b-4b09-bb79-30880b357c07"},"vehicle_type_id":"4","last_reported":1751224053,"current_range_meters":18000,"station_id":"","pricing_plan_id":"cebpf4jnsgd1na2vs0mg"},{"bike_id":"318214f6-9636-49a9-9cc7-437c9779bd0d","system_id":"levelo_inurba_marseille","lat":43.30789,"lon":5.37638,"is_reserved":false,"is_disabled":false,"rental_uris":{"android":"levelo://app?vid=318214f6-9636-49a9-9cc7-437c9779bd0d","ios":"levelo://app?vid=318214f6-9636-49a9-9cc7-437c9779bd0d"},"vehicle_type_id":"4","last_reported":1751224053,"current_range_meters":18000,"station_id":"ce4bgv92rcd13ifvqcq0","pricing_plan_id":"cebpf4jnsgd1na2vs0mg"},{"bike_id":"3cd24a14-6618-494d-ab9d-2216d263b315","system_id":"levelo_inurba_marseille","lat":43.30885,"lon":5.39653,"is_reserved":false,"is_disabled":false,"rental_uris":{"android":"levelo://app?vid=3cd24a14-6618-494d-ab9d-2216d263b315","ios":"levelo://app?vid=3cd24a14-6618-494d-ab9d-2216d263b315"},"vehicle_type_id":"4","last_reported":1751224053,"current_range_meters":18000,"station_id":"ce4bh012rcd13ifvqcv0","pricing_plan_id":"cebpf4jnsgd1na2vs0mg"},{"bike_id":"e93429b0-0b9c-4b20-9ea0-f0b0ec901de8","system_id":"levelo_inurba_marseille","lat":43.288583,"lon":5.358496,"is_reserved":false,"is_disabled":false,"rental_uris":{"android":"levelo://app?vid=e93429b0-0b9c-4b20-9ea0-f0b0ec901de8","ios":"levelo://app?vid=e93429b0-0b9c-4b20-9ea0-f0b0ec901de8"},"vehicle_type_id":"4","last_reported":1751224053,"current_range_meters":18000,"station_id":"ce4bhb12rcd13ifvqem0","pricing_plan_id":"cebpf4jnsgd1na2vs0mg"},{"bike_id":"4e47abe4-6598-4756-807d-26ba558e3c39","system_id":"levelo_inurba_marseille","lat":43.29909,"lon":5.43648,"is_reserved":false,"is_disabled":false,"rental_uris":{"android":"levelo://app?vid=4e47abe4-6598-4756-807d-26ba558e3c39","ios":"levelo://app?vid=4e47abe4-6598-4756-807d-26ba558e3c39"},"vehicle_type_id":"4","last_reported":1751224053,"current_range_meters":18000,"station_id":"ce4bhpp2rcd13ifvqhfg","pricing_plan_id":"cebpf4jnsgd1na2vs0mg"},{"bike_id":"4f97e136-2006-43b5-84b8-8ce28f4647e9","system_id":"levelo_inurba_marseille","lat":43.211924,"lon":5.350777,"is_reserved":false,"is_disabled":false,"rental_uris":{"android":"levelo://app?vid=4f97e136-2006-43b5-84b8-8ce28f4647e9","ios":"levelo://app?vid=4f97e136-2006-43b5-84b8-8ce28f4647e9"},"vehicle_type_id":"4","last_reported":1751224053,"current_range_meters":18000,"station_id":"st_cvj6sg6p6f1abm77japg","pricing_plan_id":"cebpf4jnsgd1na2vs0mg"},{"bike_id":"fb962856-9daa-4861-b7bd-0516ab57e593","system_id":"levelo_inurba_marseille","lat":43.2119,"lon":5.35071,"is_reserved":false,"is_disabled":false,"rental_uris":{"android":"levelo://app?vid=fb962856-9daa-4861-b7bd-0516ab57e593","ios":"levelo://app?vid=fb962856-9daa-4861-b7bd-0516ab57e593"},"vehicle_type_id":"4","last_reported":1751224053,"current_range_meters":18000,"station_id":"st_cvj6sg6p6f1abm77japg","pricing_plan_id":"cebpf4jnsgd1na2vs0mg"},{"bike_id":"8ceb2860-ca09-420a-8aab-fcf0c529a0d3","system_id":"levelo_inurba_marseille","lat":43.212,"lon":5.35073,"is_reserved":false,"is_disabled":false,"rental_uris":{"android":"levelo://app?vid=8ceb2860-ca09-420a-8aab-fcf0c529a0d3","ios":"levelo://app?vid=8ceb2860-ca09-420a-8aab-fcf0c529a0d3"},"vehicle_type_id":"4","last_reported":1751224053,"current_range_meters":18800,"station_id":"st_cvj6sg6p6f1abm77japg","pricing_plan_id":"cebpf4jnsgd1na2vs0mg"},{"bike_id":"828367f0-19fb-4e0a-8420-57a47d2ded31","system_id":"levelo_inurba_marseille","lat":43.26035,"lon":5.41728,"is_reserved":false,"is_disabled":false,"rental_uris":{"android":"levelo://app?vid=828367f0-19fb-4e0a-8420-57a47d2ded31","ios":"levelo://app?vid=828367f0-19fb-4e0a-8420-57a47d2ded31"},"vehicle_type_id":"4","last_reported":1751224053,"current_range_meters":19200,"station_id":"","pricing_plan_id":"cebpf4jnsgd1na2vs0mg"},{"bike_id":"d31c4de6-7880-4540-be09-40d62c289ea0","system_id":"levelo_inurba_marseille","lat":43.2942,"lon":5.38607,"is_reserved":false,"is_disabled":false,"rental_uris":{"android":"levelo://app?vid=d31c4de6-7880-4540-be09-40d62c289ea0","ios":"levelo://app?vid=d31c4de6-7880-4540-be09-40d62c289ea0"},"vehicle_type_id":"4","last_reported":1751224053,"current_range_meters":19200,"station_id":"ce4bh2h2rcd13ifvqdh0","pricing_plan_id":"cebpf4jnsgd1na2vs0mg"},{"bike_id":"532fba8b-bb70-420c-85dd-9b09aa57b1de","system_id":"levelo_inurba_marseille","lat":43.29257,"lon":5.38435,"is_reserved":false,"is_disabled":false,"rental_uris":{"android":"levelo://app?vid=532fba8b-bb70-420c-85dd-9b09aa57b1de","ios":"levelo://app?vid=532fba8b-bb70-420c-85dd-9b09aa57b1de"},"vehicle_type_id":"4","last_reported":1751224053,"current_range_meters":19200,"station_id":"ce4bh692rcd13ifvqea0","pricing_plan_id":"cebpf4jnsgd1na2vs0mg"},{"bike_id":"cfcd7055-2b0c-40d9-952c-fbba834e3a06","system_id":"levelo_inurba_marseille","lat":43.248,"lon":5.37452,"is_reserved":false,"is_disabled":false,"rental_uris":{"android":"levelo://app?vid=cfcd7055-2b0c-40d9-952c-fbba834e3a06","ios":"levelo://app?vid=cfcd7055-2b0c-40d9-952c-fbba834e3a06"},"vehicle_type_id":"4","last_reported":1751224053,"current_range_meters":19200,"station_id":"ce4bhgh2rcd13ifvqfb0","pricing_plan_id":"cebpf4jnsgd1na2vs0mg"},{"bike_id":"e12fe0de-5714-4166-af87-568d69c75014","system_id":"levelo_inurba_marseille","lat":43.27167,"lon":5.40977,"is_reserved":false,"is_disabled":false,"rental_uris":{"android":"levelo://app?vid=e12fe0de-5714-4166-af87-568d69c75014","ios":"levelo://app?vid=e12fe0de-5714-4166-af87-568d69c75014"},"vehicle_type_id":"4","last_reported":1751224053,"current_range_meters":19200,"station_id":"ce4bhl12rcd13ifvqgf0","pricing_plan_id":"cebpf4jnsgd1na2vs0mg"},{"bike_id":"17548cf0-8a43-4fa2-b272-9ceeef61f1a8","system_id":"levelo_inurba_marseille","lat":43.25143,"lon":5.40258,"is_reserved":false,"is_disabled":false,"rental_uris":{"android":"levelo://app?vid=17548cf0-8a43-4fa2-b272-9ceeef61f1a8","ios":"levelo://app?vid=17548cf0-8a43-4fa2-b272-9ceeef61f1a8"},"vehicle_type_id":"4","last_reported":1751224053,"current_range_meters":19200,"station_id":"ce4bhlh2rcd13ifvqgig","pricing_plan_id":"cebpf4jnsgd1na2vs0mg"},{"bike_id":"6b04a8db-f012-4ea9-88f5-d59ff3f24fd9","system_id":"levelo_inurba_marseille","lat":43.29901,"lon":5.43643,"is_reserved":false,"is_disabled":false,"rental_uris":{"android":"levelo://app?vid=6b04a8db-f012-4ea9-88f5-d59ff3f24fd9","ios":"levelo://app?vid=6b04a8db-f012-4ea9-88f5-d59ff3f24fd9"},"vehicle_type_id":"4","last_reported":1751224053,"current_range_meters":19200,"station_id":"ce4bhpp2rcd13ifvqhfg","pricing_plan_id":"cebpf4jnsgd1na2vs0mg"},{"bike_id":"a879ee54-e9c9-4794-9bda-14399abada8c","system_id":"levelo_inurba_marseille","lat":43.21749,"lon":5.34595,"is_reserved":false,"is_disabled":false,"rental_uris":{"android":"levelo://app?vid=a879ee54-e9c9-4794-9bda-14399abada8c","ios":"levelo://app?vid=a879ee54-e9c9-4794-9bda-14399abada8c"},"vehicle_type_id":"4","last_reported":1751224053,"current_range_meters":19200,"station_id":"st_cvj6r9ubvosntc0bgbag","pricing_plan_id":"cebpf4jnsgd1na2vs0mg"},{"bike_id":"d24f65b4-4711-4398-9983-7aa74873d215","system_id":"levelo_inurba_marseille","lat":43.32995,"lon":5.39351,"is_reserved":false,"is_disabled":false,"rental_uris":{"android":"levelo://app?vid=d24f65b4-4711-4398-9983-7aa74873d215","ios":"levelo://app?vid=d24f65b4-4711-4398-9983-7aa74873d215"},"vehicle_type_id":"4","last_reported":1751224053,"current_range_meters":19600,"station_id":"","pricing_plan_id":"cebpf4jnsgd1na2vs0mg"},{"bike_id":"5452237a-4fc5-4612-8f4a-68d2dfd12fa7","system_id":"levelo_inurba_marseille","lat":43.29253,"lon":5.43945,"is_reserved":false,"is_disabled":false,"rental_uris":{"android":"levelo://app?vid=5452237a-4fc5-4612-8f4a-68d2dfd12fa7","ios":"levelo://app?vid=5452237a-4fc5-4612-8f4a-68d2dfd12fa7"},"vehicle_type_id":"4","last_reported":1751224053,"current_range_meters":19600,"station_id":"","pricing_plan_id":"cebpf4jnsgd1na2vs0mg"},{"bike_id":"e8609a16-9d42-4d01-b7d5-2ba639368c7c","system_id":"levelo_inurba_marseille","lat":43.30883,"lon":5.39651,"is_reserved":false,"is_disabled":false,"rental_uris":{"android":"levelo://app?vid=e8609a16-9d42-4d01-b7d5-2ba639368c7c","ios":"levelo://app?vid=e8609a16-9d42-4d01-b7d5-2ba639368c7c"},"vehicle_type_id":"4","last_reported":1751224053,"current_range_meters":19600,"station_id":"ce4bh012rcd13ifvqcv0","pricing_plan_id":"cebpf4jnsgd1na2vs0mg"},{"bike_id":"041bb6bc-37fa-49ce-a3f5-3cfe06069228","system_id":"levelo_inurba_marseille","lat":43.28916,"lon":5.38401,"is_reserved":false,"is_disabled":false,"rental_uris":{"android":"levelo://app?vid=041bb6bc-37fa-49ce-a3f5-3cfe06069228","ios":"levelo://app?vid=041bb6bc-37fa-49ce-a3f5-3cfe06069228"},"vehicle_type_id":"4","last_reported":1751224053,"current_range_meters":19600,"station_id":"ce4bh612rcd13ifvqe6g","pricing_plan_id":"cebpf4jnsgd1na2vs0mg"},{"bike_id":"59330811-b828-4a91-b399-787020f1e9f6","system_id":"levelo_inurba_marseille","lat":43.26681,"lon":5.38266,"is_reserved":false,"is_disabled":false,"rental_uris":{"android":"levelo://app?vid=59330811-b828-4a91-b399-787020f1e9f6","ios":"levelo://app?vid=59330811-b828-4a91-b399-787020f1e9f6"},"vehicle_type_id":"4","last_reported":1751224053,"current_range_meters":19600,"station_id":"ce4bhg92rcd13ifvqf90","pricing_plan_id":"cebpf4jnsgd1na2vs0mg"},{"bike_id":"b6edf60d-ea25-41d1-b5e0-e1c0242cf19c","system_id":"levelo_inurba_marseille","lat":43.2396,"lon":5.36637,"is_reserved":false,"is_disabled":false,"rental_uris":{"android":"levelo://app?vid=b6edf60d-ea25-41d1-b5e0-e1c0242cf19c","ios":"levelo://app?vid=b6edf60d-ea25-41d1-b5e0-e1c0242cf19c"},"vehicle_type_id":"4","last_reported":1751224053,"current_range_meters":19600,"station_id":"ce4bhi12rcd13ifvqfp0","pricing_plan_id":"cebpf4jnsgd1na2vs0mg"},{"bike_id":"d9becb3d-08d1-47f7-8211-285655f95622","system_id":"levelo_inurba_marseille","lat":43.24073,"lon":5.37761,"is_reserved":false,"is_disabled":false,"rental_uris":{"android":"levelo://app?vid=d9becb3d-08d1-47f7-8211-285655f95622","ios":"levelo://app?vid=d9becb3d-08d1-47f7-8211-285655f95622"},"vehicle_type_id":"4","last_reported":1751224053,"current_range_meters":19600,"station_id":"ce4bhnp2rcd13ifvqgvg","pricing_plan_id":"cebpf4jnsgd1na2vs0mg"},{"bike_id":"6248a3ef-766e-45da-9351-45f0df09d787","system_id":"levelo_inurba_marseille","lat":43.33744,"lon":5.39175,"is_reserved":false,"is_disabled":false,"rental_uris":{"android":"levelo://app?vid=6248a3ef-766e-45da-9351-45f0df09d787","ios":"levelo://app?vid=6248a3ef-766e-45da-9351-45f0df09d787"},"vehicle_type_id":"4","last_reported":1751224053,"current_range_meters":19600,"station_id":"ce4bhr92rcd13ifvqhsg","pricing_plan_id":"cebpf4jnsgd1na2vs0mg"},{"bike_id":"240e6e2b-2fec-4dad-888c-1da14c1288c2","system_id":"levelo_inurba_marseille","lat":43.29526,"lon":5.38541,"is_reserved":false,"is_disabled":false,"rental_uris":{"android":"levelo://app?vid=240e6e2b-2fec-4dad-888c-1da14c1288c2","ios":"levelo://app?vid=240e6e2b-2fec-4dad-888c-1da14c1288c2"},"vehicle_type_id":"4","last_reported":1751224053,"current_range_meters":20000,"station_id":"ce4bgih2rcd13ifvqba0","pricing_plan_id":"cebpf4jnsgd1na2vs0mg"},{"bike_id":"7496fd3b-f72e-43ea-9aff-3c105aa7604e","system_id":"levelo_inurba_marseille","lat":43.29961,"lon":5.38496,"is_reserved":false,"is_disabled":false,"rental_uris":{"android":"levelo://app?vid=7496fd3b-f72e-43ea-9aff-3c105aa7604e","ios":"levelo://app?vid=7496fd3b-f72e-43ea-9aff-3c105aa7604e"},"vehicle_type_id":"4","last_reported":1751224053,"current_range_meters":20000,"station_id":"ce4bgj92rcd13ifvqbd0","pricing_plan_id":"cebpf4jnsgd1na2vs0mg"},{"bike_id":"944bb849-2008-4253-aa87-1cad102f686f","system_id":"levelo_inurba_marseille","lat":43.29267,"lon":5.38435,"is_reserved":false,"is_disabled":false,"rental_uris":{"android":"levelo://app?vid=944bb849-2008-4253-aa87-1cad102f686f","ios":"levelo://app?vid=944bb849-2008-4253-aa87-1cad102f686f"},"vehicle_type_id":"4","last_reported":1751224053,"current_range_meters":20000,"station_id":"ce4bh692rcd13ifvqea0","pricing_plan_id":"cebpf4jnsgd1na2vs0mg"},{"bike_id":"0916777d-03cd-48e6-a9a4-db262dad48b4","system_id":"levelo_inurba_marseille","lat":43.23964,"lon":5.36621,"is_reserved":false,"is_disabled":false,"rental_uris":{"android":"levelo://app?vid=0916777d-03cd-48e6-a9a4-db262dad48b4","ios":"levelo://app?vid=0916777d-03cd-48e6-a9a4-db262dad48b4"},"vehicle_type_id":"4","last_reported":1751224053,"current_range_meters":20000,"station_id":"ce4bhi12rcd13ifvqfp0","pricing_plan_id":"cebpf4jnsgd1na2vs0mg"},{"bike_id":"25ae00ba-daec-4962-9ad1-c04653a2a01f","system_id":"levelo_inurba_marseille","lat":43.28074,"lon":5.3966,"is_reserved":false,"is_disabled":false,"rental_uris":{"android":"levelo://app?vid=25ae00ba-daec-4962-9ad1-c04653a2a01f","ios":"levelo://app?vid=25ae00ba-daec-4962-9ad1-c04653a2a01f"},"vehicle_type_id":"4","last_reported":1751224053,"current_range_meters":20000,"station_id":"ce4bho12rcd13ifvqh2g","pricing_plan_id":"cebpf4jnsgd1na2vs0mg"},{"bike_id":"048ec6e9-5fd9-4256-ae6a-a72856ab2acf","system_id":"levelo_inurba_marseille","lat":43.21164,"lon":5.35091,"is_reserved":false,"is_disabled":false,"rental_uris":{"android":"levelo://app?vid=048ec6e9-5fd9-4256-ae6a-a72856ab2acf","ios":"levelo://app?vid=048ec6e9-5fd9-4256-ae6a-a72856ab2acf"},"vehicle_type_id":"4","last_reported":1751224053,"current_range_meters":20000,"station_id":"st_cvj6sg6p6f1abm77japg","pricing_plan_id":"cebpf4jnsgd1na2vs0mg"},{"bike_id":"d5da5bd9-7c2a-48e5-92aa-fa21076cad13","system_id":"levelo_inurba_marseille","lat":43.21201,"lon":5.35048,"is_reserved":false,"is_disabled":false,"rental_uris":{"android":"levelo://app?vid=d5da5bd9-7c2a-48e5-92aa-fa21076cad13","ios":"levelo://app?vid=d5da5bd9-7c2a-48e5-92aa-fa21076cad13"},"vehicle_type_id":"4","last_reported":1751224053,"current_range_meters":20000,"station_id":"st_cvj6sg6p6f1abm77japg","pricing_plan_id":"cebpf4jnsgd1na2vs0mg"},{"bike_id":"d5b9b2e0-e0ad-484e-a1c8-e46322310774","system_id":"levelo_inurba_marseille","lat":43.28347,"lon":5.38118,"is_reserved":false,"is_disabled":false,"rental_uris":{"android":"levelo://app?vid=d5b9b2e0-e0ad-484e-a1c8-e46322310774","ios":"levelo://app?vid=d5b9b2e0-e0ad-484e-a1c8-e46322310774"},"vehicle_type_id":"4","last_reported":1751224053,"current_range_meters":20400,"station_id":"ce4bh412rcd13ifvqdr0","pricing_plan_id":"cebpf4jnsgd1na2vs0mg"},{"bike_id":"55dd6534-f5dc-4a50-941e-c9dac86ed0c8","system_id":"levelo_inurba_marseille","lat":43.27388,"lon":5.36235,"is_reserved":false,"is_disabled":false,"rental_uris":{"android":"levelo://app?vid=55dd6534-f5dc-4a50-941e-c9dac86ed0c8","ios":"levelo://app?vid=55dd6534-f5dc-4a50-941e-c9dac86ed0c8"},"vehicle_type_id":"4","last_reported":1751224053,"current_range_meters":20400,"station_id":"ce4bhbh2rcd13ifvqeo0","pricing_plan_id":"cebpf4jnsgd1na2vs0mg"},{"bike_id":"85e815e6-99a8-43dc-b37a-7d54e93bfb0b","system_id":"levelo_inurba_marseille","lat":43.27992,"lon":5.41671,"is_reserved":false,"is_disabled":false,"rental_uris":{"android":"levelo://app?vid=85e815e6-99a8-43dc-b37a-7d54e93bfb0b","ios":"levelo://app?vid=85e815e6-99a8-43dc-b37a-7d54e93bfb0b"},"vehicle_type_id":"4","last_reported":1751224053,"current_range_meters":20400,"station_id":"ce4bho12rcd13ifvqh1g","pricing_plan_id":"cebpf4jnsgd1na2vs0mg"},{"bike_id":"620a0ae8-e22f-4ae1-b037-aef9aefbb9cc","system_id":"levelo_inurba_marseille","lat":43.231943,"lon":5.355457,"is_reserved":false,"is_disabled":false,"rental_uris":{"android":"levelo://app?vid=620a0ae8-e22f-4ae1-b037-aef9aefbb9cc","ios":"levelo://app?vid=620a0ae8-e22f-4ae1-b037-aef9aefbb9cc"},"vehicle_type_id":"4","last_reported":1751224053,"current_range_meters":20400,"station_id":"ce4bhu92rcd13ifvqi70","pricing_plan_id":"cebpf4jnsgd1na2vs0mg"},{"bike_id":"b13877a6-4825-4d82-b46b-67fa8ad66c5d","system_id":"levelo_inurba_marseille","lat":43.21193,"lon":5.35068,"is_reserved":false,"is_disabled":false,"rental_uris":{"android":"levelo://app?vid=b13877a6-4825-4d82-b46b-67fa8ad66c5d","ios":"levelo://app?vid=b13877a6-4825-4d82-b46b-67fa8ad66c5d"},"vehicle_type_id":"4","last_reported":1751224053,"current_range_meters":20400,"station_id":"st_cvj6sg6p6f1abm77japg","pricing_plan_id":"cebpf4jnsgd1na2vs0mg"},{"bike_id":"604ac643-099b-4234-9893-1dc080c39b58","system_id":"levelo_inurba_marseille","lat":43.21193,"lon":5.3507,"is_reserved":false,"is_disabled":false,"rental_uris":{"android":"levelo://app?vid=604ac643-099b-4234-9893-1dc080c39b58","ios":"levelo://app?vid=604ac643-099b-4234-9893-1dc080c39b58"},"vehicle_type_id":"4","last_reported":1751224053,"current_range_meters":20400,"station_id":"st_cvj6sg6p6f1abm77japg","pricing_plan_id":"cebpf4jnsgd1na2vs0mg"},{"bike_id":"1219f5ca-dc9d-4711-a912-8877414f9155","system_id":"levelo_inurba_marseille","lat":43.31689,"lon":5.40479,"is_reserved":false,"is_disabled":false,"rental_uris":{"android":"levelo://app?vid=1219f5ca-dc9d-4711-a912-8877414f9155","ios":"levelo://app?vid=1219f5ca-dc9d-4711-a912-8877414f9155"},"vehicle_type_id":"4","last_reported":1751224053,"current_range_meters":20800,"station_id":"ce4bh012rcd13ifvqd00","pricing_plan_id":"cebpf4jnsgd1na2vs0mg"},{"bike_id":"e3bb831f-98fd-4492-9d59-c67f7303069a","system_id":"levelo_inurba_marseille","lat":43.29091,"lon":5.3812,"is_reserved":false,"is_disabled":false,"rental_uris":{"android":"levelo://app?vid=e3bb831f-98fd-4492-9d59-c67f7303069a","ios":"levelo://app?vid=e3bb831f-98fd-4492-9d59-c67f7303069a"},"vehicle_type_id":"4","last_reported":1751224053,"current_range_meters":20800,"station_id":"ce4bh512rcd13ifvqe2g","pricing_plan_id":"cebpf4jnsgd1na2vs0mg"},{"bike_id":"2b4f9e0e-1eab-4f51-90e3-7a644628a136","system_id":"levelo_inurba_marseille","lat":43.24545,"lon":5.39517,"is_reserved":false,"is_disabled":false,"rental_uris":{"android":"levelo://app?vid=2b4f9e0e-1eab-4f51-90e3-7a644628a136","ios":"levelo://app?vid=2b4f9e0e-1eab-4f51-90e3-7a644628a136"},"vehicle_type_id":"4","last_reported":1751224053,"current_range_meters":20800,"station_id":"ce4bhlp2rcd13ifvqgjg","pricing_plan_id":"cebpf4jnsgd1na2vs0mg"},{"bike_id":"5c813aad-c588-4955-8a3f-41515943c3a0","system_id":"levelo_inurba_marseille","lat":43.30355,"lon":5.41879,"is_reserved":false,"is_disabled":false,"rental_uris":{"android":"levelo://app?vid=5c813aad-c588-4955-8a3f-41515943c3a0","ios":"levelo://app?vid=5c813aad-c588-4955-8a3f-41515943c3a0"},"vehicle_type_id":"4","last_reported":1751224053,"current_range_meters":20800,"station_id":"ce4bhop2rcd13ifvqh7g","pricing_plan_id":"cebpf4jnsgd1na2vs0mg"},{"bike_id":"27de128b-79d6-4ae4-99ba-8537bd95d5a2","system_id":"levelo_inurba_marseille","lat":43.32473,"lon":5.36574,"is_reserved":false,"is_disabled":false,"rental_uris":{"android":"levelo://app?vid=27de128b-79d6-4ae4-99ba-8537bd95d5a2","ios":"levelo://app?vid=27de128b-79d6-4ae4-99ba-8537bd95d5a2"},"vehicle_type_id":"4","last_reported":1751224053,"current_range_meters":20800,"station_id":"ce4bhs12rcd13ifvqhvg","pricing_plan_id":"cebpf4jnsgd1na2vs0mg"},{"bike_id":"944d402e-cbb5-4064-9382-1f0541d1792b","system_id":"levelo_inurba_marseille","lat":43.21208,"lon":5.35054,"is_reserved":false,"is_disabled":false,"rental_uris":{"android":"levelo://app?vid=944d402e-cbb5-4064-9382-1f0541d1792b","ios":"levelo://app?vid=944d402e-cbb5-4064-9382-1f0541d1792b"},"vehicle_type_id":"4","last_reported":1751224053,"current_range_meters":20800,"station_id":"st_cvj6sg6p6f1abm77japg","pricing_plan_id":"cebpf4jnsgd1na2vs0mg"},{"bike_id":"c2b72fe0-bae6-4c7b-ad48-9e771b203dc8","system_id":"levelo_inurba_marseille","lat":43.31351,"lon":5.38447,"is_reserved":false,"is_disabled":false,"rental_uris":{"android":"levelo://app?vid=c2b72fe0-bae6-4c7b-ad48-9e771b203dc8","ios":"levelo://app?vid=c2b72fe0-bae6-4c7b-ad48-9e771b203dc8"},"vehicle_type_id":"4","last_reported":1751224053,"current_range_meters":21600,"station_id":"ce4bgt92rcd13ifvqcf0","pricing_plan_id":"cebpf4jnsgd1na2vs0mg"},{"bike_id":"11283693-bcf5-4f42-af41-eeb588892a62","system_id":"levelo_inurba_marseille","lat":43.31539,"lon":5.38032,"is_reserved":false,"is_disabled":false,"rental_uris":{"android":"levelo://app?vid=11283693-bcf5-4f42-af41-eeb588892a62","ios":"levelo://app?vid=11283693-bcf5-4f42-af41-eeb588892a62"},"vehicle_type_id":"4","last_reported":1751224053,"current_range_meters":21600,"station_id":"ce4bhsp2rcd13ifvqi50","pricing_plan_id":"cebpf4jnsgd1na2vs0mg"},{"bike_id":"504c4c1f-74c1-48cc-9a3f-54a34f64dc48","system_id":"levelo_inurba_marseille","lat":43.28943,"lon":5.36622,"is_reserved":false,"is_disabled":false,"rental_uris":{"android":"levelo://app?vid=504c4c1f-74c1-48cc-9a3f-54a34f64dc48","ios":"levelo://app?vid=504c4c1f-74c1-48cc-9a3f-54a34f64dc48"},"vehicle_type_id":"4","last_reported":1751224053,"current_range_meters":22000,"station_id":"ce4bhap2rcd13ifvqek0","pricing_plan_id":"cebpf4jnsgd1na2vs0mg"},{"bike_id":"352380ee-ad43-4641-b75a-8ca6767ae9f1","system_id":"levelo_inurba_marseille","lat":43.29892,"lon":5.43639,"is_reserved":false,"is_disabled":false,"rental_uris":{"android":"levelo://app?vid=352380ee-ad43-4641-b75a-8ca6767ae9f1","ios":"levelo://app?vid=352380ee-ad43-4641-b75a-8ca6767ae9f1"},"vehicle_type_id":"4","last_reported":1751224053,"current_range_meters":22000,"station_id":"ce4bhpp2rcd13ifvqhfg","pricing_plan_id":"cebpf4jnsgd1na2vs0mg"},{"bike_id":"e07ede1c-41b0-45dc-a667-3fd41847147b","system_id":"levelo_inurba_marseille","lat":43.22555,"lon":5.3475,"is_reserved":false,"is_disabled":false,"rental_uris":{"android":"levelo://app?vid=e07ede1c-41b0-45dc-a667-3fd41847147b","ios":"levelo://app?vid=e07ede1c-41b0-45dc-a667-3fd41847147b"},"vehicle_type_id":"4","last_reported":1751224053,"current_range_meters":22000,"station_id":"st_cvj5dfep6f1abm77gieg","pricing_plan_id":"cebpf4jnsgd1na2vs0mg"},{"bike_id":"9255ee74-8ddc-4853-938e-c48bac8bd0e0","system_id":"levelo_inurba_marseille","lat":43.287,"lon":5.37383,"is_reserved":false,"is_disabled":false,"rental_uris":{"android":"levelo://app?vid=9255ee74-8ddc-4853-938e-c48bac8bd0e0","ios":"levelo://app?vid=9255ee74-8ddc-4853-938e-c48bac8bd0e0"},"vehicle_type_id":"4","last_reported":1751224053,"current_range_meters":22400,"station_id":"ce4bh3p2rcd13ifvqdq0","pricing_plan_id":"cebpf4jnsgd1na2vs0mg"},{"bike_id":"73c6590b-db28-48bc-a9a1-0ad3a33002f9","system_id":"levelo_inurba_marseille","lat":43.28462,"lon":5.35883,"is_reserved":false,"is_disabled":false,"rental_uris":{"android":"levelo://app?vid=73c6590b-db28-48bc-a9a1-0ad3a33002f9","ios":"levelo://app?vid=73c6590b-db28-48bc-a9a1-0ad3a33002f9"},"vehicle_type_id":"4","last_reported":1751224053,"current_range_meters":22400,"station_id":"ce4bhah2rcd13ifvqei0","pricing_plan_id":"cebpf4jnsgd1na2vs0mg"},{"bike_id":"899c34dd-8252-4e2a-83f9-763d8c0f4c26","system_id":"levelo_inurba_marseille","lat":43.2894,"lon":5.3664,"is_reserved":false,"is_disabled":false,"rental_uris":{"android":"levelo://app?vid=899c34dd-8252-4e2a-83f9-763d8c0f4c26","ios":"levelo://app?vid=899c34dd-8252-4e2a-83f9-763d8c0f4c26"},"vehicle_type_id":"4","last_reported":1751224053,"current_range_meters":22400,"station_id":"ce4bhap2rcd13ifvqek0","pricing_plan_id":"cebpf4jnsgd1na2vs0mg"},{"bike_id":"b70898f9-5630-48e2-b1a6-daac6fc220e2","system_id":"levelo_inurba_marseille","lat":43.27378,"lon":5.36225,"is_reserved":false,"is_disabled":false,"rental_uris":{"android":"levelo://app?vid=b70898f9-5630-48e2-b1a6-daac6fc220e2","ios":"levelo://app?vid=b70898f9-5630-48e2-b1a6-daac6fc220e2"},"vehicle_type_id":"4","last_reported":1751224053,"current_range_meters":22400,"station_id":"ce4bhbh2rcd13ifvqeo0","pricing_plan_id":"cebpf4jnsgd1na2vs0mg"},{"bike_id":"261b47af-582d-45bd-8ea9-014d517ce0b2","system_id":"levelo_inurba_marseille","lat":43.27822,"lon":5.40708,"is_reserved":false,"is_disabled":false,"rental_uris":{"android":"levelo://app?vid=261b47af-582d-45bd-8ea9-014d517ce0b2","ios":"levelo://app?vid=261b47af-582d-45bd-8ea9-014d517ce0b2"},"vehicle_type_id":"4","last_reported":1751224053,"current_range_meters":22400,"station_id":"ce4bhnh2rcd13ifvqgtg","pricing_plan_id":"cebpf4jnsgd1na2vs0mg"},{"bike_id":"a9f7af8e-2e85-4124-97a3-8be5a011c112","system_id":"levelo_inurba_marseille","lat":43.29538,"lon":5.42259,"is_reserved":false,"is_disabled":false,"rental_uris":{"android":"levelo://app?vid=a9f7af8e-2e85-4124-97a3-8be5a011c112","ios":"levelo://app?vid=a9f7af8e-2e85-4124-97a3-8be5a011c112"},"vehicle_type_id":"4","last_reported":1751224053,"current_range_meters":22400,"station_id":"ce4bhph2rcd13ifvqhdg","pricing_plan_id":"cebpf4jnsgd1na2vs0mg"},{"bike_id":"94f3e12e-b0bd-4b72-9ef5-5ab8a20dfbe5","system_id":"levelo_inurba_marseille","lat":43.32288,"lon":5.38273,"is_reserved":false,"is_disabled":false,"rental_uris":{"android":"levelo://app?vid=94f3e12e-b0bd-4b72-9ef5-5ab8a20dfbe5","ios":"levelo://app?vid=94f3e12e-b0bd-4b72-9ef5-5ab8a20dfbe5"},"vehicle_type_id":"4","last_reported":1751224053,"current_range_meters":22400,"station_id":"ce4bhr12rcd13ifvqhqg","pricing_plan_id":"cebpf4jnsgd1na2vs0mg"},{"bike_id":"ca86e845-df48-4863-8457-63ce62094f1a","system_id":"levelo_inurba_marseille","lat":43.21192,"lon":5.35071,"is_reserved":false,"is_disabled":false,"rental_uris":{"android":"levelo://app?vid=ca86e845-df48-4863-8457-63ce62094f1a","ios":"levelo://app?vid=ca86e845-df48-4863-8457-63ce62094f1a"},"vehicle_type_id":"4","last_reported":1751224053,"current_range_meters":22400,"station_id":"st_cvj6sg6p6f1abm77japg","pricing_plan_id":"cebpf4jnsgd1na2vs0mg"},{"bike_id":"10b34c9f-4f30-41ac-96ad-07824905aa82","system_id":"levelo_inurba_marseille","lat":43.21191,"lon":5.35067,"is_reserved":false,"is_disabled":false,"rental_uris":{"android":"levelo://app?vid=10b34c9f-4f30-41ac-96ad-07824905aa82","ios":"levelo://app?vid=10b34c9f-4f30-41ac-96ad-07824905aa82"},"vehicle_type_id":"4","last_reported":1751224053,"current_range_meters":22400,"station_id":"st_cvj6sg6p6f1abm77japg","pricing_plan_id":"cebpf4jnsgd1na2vs0mg"},{"bike_id":"f603f3aa-5bf7-4a19-a8a1-b47909f854c7","system_id":"levelo_inurba_marseille","lat":43.21186,"lon":5.35072,"is_reserved":false,"is_disabled":false,"rental_uris":{"android":"levelo://app?vid=f603f3aa-5bf7-4a19-a8a1-b47909f854c7","ios":"levelo://app?vid=f603f3aa-5bf7-4a19-a8a1-b47909f854c7"},"vehicle_type_id":"4","last_reported":1751224053,"current_range_meters":22400,"station_id":"st_cvj6sg6p6f1abm77japg","pricing_plan_id":"cebpf4jnsgd1na2vs0mg"},{"bike_id":"0d839b5e-baaf-4b32-8658-bb0d20744629","system_id":"levelo_inurba_marseille","lat":43.21233,"lon":5.35044,"is_reserved":false,"is_disabled":false,"rental_uris":{"android":"levelo://app?vid=0d839b5e-baaf-4b32-8658-bb0d20744629","ios":"levelo://app?vid=0d839b5e-baaf-4b32-8658-bb0d20744629"},"vehicle_type_id":"4","last_reported":1751224053,"current_range_meters":22800,"station_id":"","pricing_plan_id":"cebpf4jnsgd1na2vs0mg"},{"bike_id":"415b4173-51f8-4d86-8ca4-8bd6564b2861","system_id":"levelo_inurba_marseille","lat":43.27611,"lon":5.36105,"is_reserved":false,"is_disabled":false,"rental_uris":{"android":"levelo://app?vid=415b4173-51f8-4d86-8ca4-8bd6564b2861","ios":"levelo://app?vid=415b4173-51f8-4d86-8ca4-8bd6564b2861"},"vehicle_type_id":"4","last_reported":1751224053,"current_range_meters":22800,"station_id":"ce4bgj92rcd13ifvqbe0","pricing_plan_id":"cebpf4jnsgd1na2vs0mg"},{"bike_id":"52355150-f7be-4efd-afe7-693b9ebc6212","system_id":"levelo_inurba_marseille","lat":43.25,"lon":5.38922,"is_reserved":false,"is_disabled":false,"rental_uris":{"android":"levelo://app?vid=52355150-f7be-4efd-afe7-693b9ebc6212","ios":"levelo://app?vid=52355150-f7be-4efd-afe7-693b9ebc6212"},"vehicle_type_id":"4","last_reported":1751224053,"current_range_meters":22800,"station_id":"ce4bhgp2rcd13ifvqfd0","pricing_plan_id":"cebpf4jnsgd1na2vs0mg"},{"bike_id":"c1f2acaf-ec2f-41fb-8711-01563cabf987","system_id":"levelo_inurba_marseille","lat":43.23987,"lon":5.36639,"is_reserved":false,"is_disabled":false,"rental_uris":{"android":"levelo://app?vid=c1f2acaf-ec2f-41fb-8711-01563cabf987","ios":"levelo://app?vid=c1f2acaf-ec2f-41fb-8711-01563cabf987"},"vehicle_type_id":"4","last_reported":1751224053,"current_range_meters":22800,"station_id":"ce4bhi12rcd13ifvqfp0","pricing_plan_id":"cebpf4jnsgd1na2vs0mg"},{"bike_id":"f5d8ca5e-01c3-4818-b662-ea2a8a03fd4b","system_id":"levelo_inurba_marseille","lat":43.31665,"lon":5.3967,"is_reserved":false,"is_disabled":false,"rental_uris":{"android":"levelo://app?vid=f5d8ca5e-01c3-4818-b662-ea2a8a03fd4b","ios":"levelo://app?vid=f5d8ca5e-01c3-4818-b662-ea2a8a03fd4b"},"vehicle_type_id":"4","last_reported":1751224053,"current_range_meters":23200,"station_id":"","pricing_plan_id":"cebpf4jnsgd1na2vs0mg"},{"bike_id":"83ccacb5-3968-4fc3-9b24-7b3b68cc34a1","system_id":"levelo_inurba_marseille","lat":43.29977,"lon":5.38484,"is_reserved":false,"is_disabled":false,"rental_uris":{"android":"levelo://app?vid=83ccacb5-3968-4fc3-9b24-7b3b68cc34a1","ios":"levelo://app?vid=83ccacb5-3968-4fc3-9b24-7b3b68cc34a1"},"vehicle_type_id":"4","last_reported":1751224053,"current_range_meters":23200,"station_id":"ce4bgj92rcd13ifvqbd0","pricing_plan_id":"cebpf4jnsgd1na2vs0mg"},{"bike_id":"164d8932-4e3f-4ef8-b9c1-14b007b2c0a8","system_id":"levelo_inurba_marseille","lat":43.29922,"lon":5.37479,"is_reserved":false,"is_disabled":false,"rental_uris":{"android":"levelo://app?vid=164d8932-4e3f-4ef8-b9c1-14b007b2c0a8","ios":"levelo://app?vid=164d8932-4e3f-4ef8-b9c1-14b007b2c0a8"},"vehicle_type_id":"4","last_reported":1751224053,"current_range_meters":23200,"station_id":"ce4bgjh2rcd13ifvqbg0","pricing_plan_id":"cebpf4jnsgd1na2vs0mg"},{"bike_id":"1d93cfc5-ddea-4fc0-95cb-36a59f7455e0","system_id":"levelo_inurba_marseille","lat":43.29975,"lon":5.37188,"is_reserved":false,"is_disabled":false,"rental_uris":{"android":"levelo://app?vid=1d93cfc5-ddea-4fc0-95cb-36a59f7455e0","ios":"levelo://app?vid=1d93cfc5-ddea-4fc0-95cb-36a59f7455e0"},"vehicle_type_id":"4","last_reported":1751224053,"current_range_meters":23200,"station_id":"ce4bgr92rcd13ifvqc7g","pricing_plan_id":"cebpf4jnsgd1na2vs0mg"},{"bike_id":"357c0a7a-0a0b-4ba8-a36d-ca2bf622c829","system_id":"levelo_inurba_marseille","lat":43.29518,"lon":5.394,"is_reserved":false,"is_disabled":false,"rental_uris":{"android":"levelo://app?vid=357c0a7a-0a0b-4ba8-a36d-ca2bf622c829","ios":"levelo://app?vid=357c0a7a-0a0b-4ba8-a36d-ca2bf622c829"},"vehicle_type_id":"4","last_reported":1751224053,"current_range_meters":23200,"station_id":"ce4bh292rcd13ifvqdf0","pricing_plan_id":"cebpf4jnsgd1na2vs0mg"},{"bike_id":"c98e0a8e-c079-4e07-9d48-856c263dad47","system_id":"levelo_inurba_marseille","lat":43.337684,"lon":5.374859,"is_reserved":false,"is_disabled":false,"rental_uris":{"android":"levelo://app?vid=c98e0a8e-c079-4e07-9d48-856c263dad47","ios":"levelo://app?vid=c98e0a8e-c079-4e07-9d48-856c263dad47"},"vehicle_type_id":"4","last_reported":1751224053,"current_range_meters":24000,"station_id":"","pricing_plan_id":"cebpf4jnsgd1na2vs0mg"},{"bike_id":"80953d4e-bcf5-44a3-a159-04727e705602","system_id":"levelo_inurba_marseille","lat":43.30604,"lon":5.37212,"is_reserved":false,"is_disabled":false,"rental_uris":{"android":"levelo://app?vid=80953d4e-bcf5-44a3-a159-04727e705602","ios":"levelo://app?vid=80953d4e-bcf5-44a3-a159-04727e705602"},"vehicle_type_id":"4","last_reported":1751224053,"current_range_meters":24000,"station_id":"ce4bgqh2rcd13ifvqc4g","pricing_plan_id":"cebpf4jnsgd1na2vs0mg"},{"bike_id":"ff261d13-1bfc-47bd-a812-b5ae640c953a","system_id":"levelo_inurba_marseille","lat":43.31497,"lon":5.37309,"is_reserved":false,"is_disabled":false,"rental_uris":{"android":"levelo://app?vid=ff261d13-1bfc-47bd-a812-b5ae640c953a","ios":"levelo://app?vid=ff261d13-1bfc-47bd-a812-b5ae640c953a"},"vehicle_type_id":"4","last_reported":1751224053,"current_range_meters":24000,"station_id":"ce4bgt12rcd13ifvqcd0","pricing_plan_id":"cebpf4jnsgd1na2vs0mg"},{"bike_id":"a0102975-0d7e-416f-b3e6-32772afb0b7b","system_id":"levelo_inurba_marseille","lat":43.31076,"lon":5.3835,"is_reserved":false,"is_disabled":false,"rental_uris":{"android":"levelo://app?vid=a0102975-0d7e-416f-b3e6-32772afb0b7b","ios":"levelo://app?vid=a0102975-0d7e-416f-b3e6-32772afb0b7b"},"vehicle_type_id":"4","last_reported":1751224053,"current_range_meters":24000,"station_id":"ce4bgv92rcd13ifvqcr0","pricing_plan_id":"cebpf4jnsgd1na2vs0mg"},{"bike_id":"779c17cf-609a-444a-8faf-b2ecd709dae6","system_id":"levelo_inurba_marseille","lat":43.29887,"lon":5.388993,"is_reserved":false,"is_disabled":false,"rental_uris":{"android":"levelo://app?vid=779c17cf-609a-444a-8faf-b2ecd709dae6","ios":"levelo://app?vid=779c17cf-609a-444a-8faf-b2ecd709dae6"},"vehicle_type_id":"4","last_reported":1751224053,"current_range_meters":24000,"station_id":"ce4bh392rcd13ifvqdl0","pricing_plan_id":"cebpf4jnsgd1na2vs0mg"},{"bike_id":"1cdb807e-f822-43c0-ae70-b52651a24646","system_id":"levelo_inurba_marseille","lat":43.31992,"lon":5.38162,"is_reserved":false,"is_disabled":false,"rental_uris":{"android":"levelo://app?vid=1cdb807e-f822-43c0-ae70-b52651a24646","ios":"levelo://app?vid=1cdb807e-f822-43c0-ae70-b52651a24646"},"vehicle_type_id":"4","last_reported":1751224053,"current_range_meters":24000,"station_id":"ce4bhr12rcd13ifvqhpg","pricing_plan_id":"cebpf4jnsgd1na2vs0mg"},{"bike_id":"e4db0b25-9f64-4181-9f55-3fbace724190","system_id":"levelo_inurba_marseille","lat":43.31541,"lon":5.38033,"is_reserved":false,"is_disabled":false,"rental_uris":{"android":"levelo://app?vid=e4db0b25-9f64-4181-9f55-3fbace724190","ios":"levelo://app?vid=e4db0b25-9f64-4181-9f55-3fbace724190"},"vehicle_type_id":"4","last_reported":1751224053,"current_range_meters":24000,"station_id":"ce4bhsp2rcd13ifvqi50","pricing_plan_id":"cebpf4jnsgd1na2vs0mg"},{"bike_id":"86fa6ce7-8cbe-47ff-b5d3-c2b4938fd05c","system_id":"levelo_inurba_marseille","lat":43.21203,"lon":5.35043,"is_reserved":false,"is_disabled":false,"rental_uris":{"android":"levelo://app?vid=86fa6ce7-8cbe-47ff-b5d3-c2b4938fd05c","ios":"levelo://app?vid=86fa6ce7-8cbe-47ff-b5d3-c2b4938fd05c"},"vehicle_type_id":"4","last_reported":1751224053,"current_range_meters":24000,"station_id":"st_cvj6sg6p6f1abm77japg","pricing_plan_id":"cebpf4jnsgd1na2vs0mg"},{"bike_id":"5767b9e4-81ec-40bf-bccc-db289ba35b4e","system_id":"levelo_inurba_marseille","lat":43.27385,"lon":5.41224,"is_reserved":false,"is_disabled":false,"rental_uris":{"android":"levelo://app?vid=5767b9e4-81ec-40bf-bccc-db289ba35b4e","ios":"levelo://app?vid=5767b9e4-81ec-40bf-bccc-db289ba35b4e"},"vehicle_type_id":"4","last_reported":1751224053,"current_range_meters":24400,"station_id":"","pricing_plan_id":"cebpf4jnsgd1na2vs0mg"},{"bike_id":"569afbd4-da57-4911-aecb-840950c33922","system_id":"levelo_inurba_marseille","lat":43.21216,"lon":5.35048,"is_reserved":false,"is_disabled":false,"rental_uris":{"android":"levelo://app?vid=569afbd4-da57-4911-aecb-840950c33922","ios":"levelo://app?vid=569afbd4-da57-4911-aecb-840950c33922"},"vehicle_type_id":"4","last_reported":1751224053,"current_range_meters":24400,"station_id":"","pricing_plan_id":"cebpf4jnsgd1na2vs0mg"},{"bike_id":"d2f72e45-6b0c-4b36-9924-deef3cd98510","system_id":"levelo_inurba_marseille","lat":43.27516,"lon":5.4244,"is_reserved":false,"is_disabled":false,"rental_uris":{"android":"levelo://app?vid=d2f72e45-6b0c-4b36-9924-deef3cd98510","ios":"levelo://app?vid=d2f72e45-6b0c-4b36-9924-deef3cd98510"},"vehicle_type_id":"4","last_reported":1751224053,"current_range_meters":24400,"station_id":"ce4bhn92rcd13ifvqgrg","pricing_plan_id":"cebpf4jnsgd1na2vs0mg"},{"bike_id":"d2019eb4-f450-4e51-abec-b5191e2306d5","system_id":"levelo_inurba_marseille","lat":43.29904,"lon":5.43656,"is_reserved":false,"is_disabled":false,"rental_uris":{"android":"levelo://app?vid=d2019eb4-f450-4e51-abec-b5191e2306d5","ios":"levelo://app?vid=d2019eb4-f450-4e51-abec-b5191e2306d5"},"vehicle_type_id":"4","last_reported":1751224053,"current_range_meters":24400,"station_id":"ce4bhpp2rcd13ifvqhfg","pricing_plan_id":"cebpf4jnsgd1na2vs0mg"},{"bike_id":"2f74da00-3813-4297-a135-858660c55c8a","system_id":"levelo_inurba_marseille","lat":43.31995,"lon":5.38162,"is_reserved":false,"is_disabled":false,"rental_uris":{"android":"levelo://app?vid=2f74da00-3813-4297-a135-858660c55c8a","ios":"levelo://app?vid=2f74da00-3813-4297-a135-858660c55c8a"},"vehicle_type_id":"4","last_reported":1751224053,"current_range_meters":24400,"station_id":"ce4bhr12rcd13ifvqhpg","pricing_plan_id":"cebpf4jnsgd1na2vs0mg"},{"bike_id":"3a33ebd2-49a2-4e39-92d7-f09d7dd08672","system_id":"levelo_inurba_marseille","lat":43.21203,"lon":5.35031,"is_reserved":false,"is_disabled":false,"rental_uris":{"android":"levelo://app?vid=3a33ebd2-49a2-4e39-92d7-f09d7dd08672","ios":"levelo://app?vid=3a33ebd2-49a2-4e39-92d7-f09d7dd08672"},"vehicle_type_id":"4","last_reported":1751224053,"current_range_meters":24800,"station_id":"","pricing_plan_id":"cebpf4jnsgd1na2vs0mg"},{"bike_id":"48342f25-568d-46bf-988a-faf0c9266c1e","system_id":"levelo_inurba_marseille","lat":43.23192,"lon":5.39977,"is_reserved":false,"is_disabled":false,"rental_uris":{"android":"levelo://app?vid=48342f25-568d-46bf-988a-faf0c9266c1e","ios":"levelo://app?vid=48342f25-568d-46bf-988a-faf0c9266c1e"},"vehicle_type_id":"4","last_reported":1751224053,"current_range_meters":24800,"station_id":"ce4bhn12rcd13ifvqgqg","pricing_plan_id":"cebpf4jnsgd1na2vs0mg"},{"bike_id":"8bd0a9ad-961c-4558-ac21-b28104c6e504","system_id":"levelo_inurba_marseille","lat":43.28074,"lon":5.39659,"is_reserved":false,"is_disabled":false,"rental_uris":{"android":"levelo://app?vid=8bd0a9ad-961c-4558-ac21-b28104c6e504","ios":"levelo://app?vid=8bd0a9ad-961c-4558-ac21-b28104c6e504"},"vehicle_type_id":"4","last_reported":1751224053,"current_range_meters":24800,"station_id":"ce4bho12rcd13ifvqh2g","pricing_plan_id":"cebpf4jnsgd1na2vs0mg"},{"bike_id":"e0c4211a-662e-4f11-90b6-981ca029649d","system_id":"levelo_inurba_marseille","lat":43.22512,"lon":5.34781,"is_reserved":false,"is_disabled":false,"rental_uris":{"android":"levelo://app?vid=e0c4211a-662e-4f11-90b6-981ca029649d","ios":"levelo://app?vid=e0c4211a-662e-4f11-90b6-981ca029649d"},"vehicle_type_id":"4","last_reported":1751224053,"current_range_meters":24800,"station_id":"st_cvj5dfep6f1abm77gieg","pricing_plan_id":"cebpf4jnsgd1na2vs0mg"},{"bike_id":"2146bf6a-a903-46d5-8775-2a5ece509eef","system_id":"levelo_inurba_marseille","lat":43.31662,"lon":5.39743,"is_reserved":false,"is_disabled":false,"rental_uris":{"android":"levelo://app?vid=2146bf6a-a903-46d5-8775-2a5ece509eef","ios":"levelo://app?vid=2146bf6a-a903-46d5-8775-2a5ece509eef"},"vehicle_type_id":"4","last_reported":1751224053,"current_range_meters":25200,"station_id":"","pricing_plan_id":"cebpf4jnsgd1na2vs0mg"},{"bike_id":"9a4a582a-a565-4063-b460-01c8d0054d6f","system_id":"levelo_inurba_marseille","lat":43.28865,"lon":5.43743,"is_reserved":false,"is_disabled":false,"rental_uris":{"android":"levelo://app?vid=9a4a582a-a565-4063-b460-01c8d0054d6f","ios":"levelo://app?vid=9a4a582a-a565-4063-b460-01c8d0054d6f"},"vehicle_type_id":"4","last_reported":1751224053,"current_range_meters":25200,"station_id":"","pricing_plan_id":"cebpf4jnsgd1na2vs0mg"},{"bike_id":"7e57e58e-3598-4eaa-ab6a-08f1ef4f9860","system_id":"levelo_inurba_marseille","lat":43.29035,"lon":5.39959,"is_reserved":false,"is_disabled":false,"rental_uris":{"android":"levelo://app?vid=7e57e58e-3598-4eaa-ab6a-08f1ef4f9860","ios":"levelo://app?vid=7e57e58e-3598-4eaa-ab6a-08f1ef4f9860"},"vehicle_type_id":"4","last_reported":1751224053,"current_range_meters":25200,"station_id":"ce4bh392rcd13ifvqdm0","pricing_plan_id":"cebpf4jnsgd1na2vs0mg"},{"bike_id":"064e2af7-f5e8-48f6-9d36-dd35cd087d4a","system_id":"levelo_inurba_marseille","lat":43.27388,"lon":5.36249,"is_reserved":false,"is_disabled":false,"rental_uris":{"android":"levelo://app?vid=064e2af7-f5e8-48f6-9d36-dd35cd087d4a","ios":"levelo://app?vid=064e2af7-f5e8-48f6-9d36-dd35cd087d4a"},"vehicle_type_id":"4","last_reported":1751224053,"current_range_meters":25200,"station_id":"ce4bhbh2rcd13ifvqeo0","pricing_plan_id":"cebpf4jnsgd1na2vs0mg"},{"bike_id":"63b0242d-5adf-4e2a-a4cb-c7d191432eac","system_id":"levelo_inurba_marseille","lat":43.24805,"lon":5.37456,"is_reserved":false,"is_disabled":false,"rental_uris":{"android":"levelo://app?vid=63b0242d-5adf-4e2a-a4cb-c7d191432eac","ios":"levelo://app?vid=63b0242d-5adf-4e2a-a4cb-c7d191432eac"},"vehicle_type_id":"4","last_reported":1751224053,"current_range_meters":25200,"station_id":"ce4bhgh2rcd13ifvqfb0","pricing_plan_id":"cebpf4jnsgd1na2vs0mg"},{"bike_id":"46b868eb-29cf-4d5e-94d2-e4ec9da53c9d","system_id":"levelo_inurba_marseille","lat":43.27994,"lon":5.41648,"is_reserved":false,"is_disabled":false,"rental_uris":{"android":"levelo://app?vid=46b868eb-29cf-4d5e-94d2-e4ec9da53c9d","ios":"levelo://app?vid=46b868eb-29cf-4d5e-94d2-e4ec9da53c9d"},"vehicle_type_id":"4","last_reported":1751224053,"current_range_meters":25200,"station_id":"ce4bho12rcd13ifvqh1g","pricing_plan_id":"cebpf4jnsgd1na2vs0mg"},{"bike_id":"0f01fb63-914e-4728-bd9f-69c044a83bda","system_id":"levelo_inurba_marseille","lat":43.32499,"lon":5.36526,"is_reserved":false,"is_disabled":false,"rental_uris":{"android":"levelo://app?vid=0f01fb63-914e-4728-bd9f-69c044a83bda","ios":"levelo://app?vid=0f01fb63-914e-4728-bd9f-69c044a83bda"},"vehicle_type_id":"4","last_reported":1751224053,"current_range_meters":25200,"station_id":"ce4bhs12rcd13ifvqhvg","pricing_plan_id":"cebpf4jnsgd1na2vs0mg"},{"bike_id":"58770b9d-e2f8-45fa-a3f6-6bfd5e6a4ce5","system_id":"levelo_inurba_marseille","lat":43.21761,"lon":5.34619,"is_reserved":false,"is_disabled":false,"rental_uris":{"android":"levelo://app?vid=58770b9d-e2f8-45fa-a3f6-6bfd5e6a4ce5","ios":"levelo://app?vid=58770b9d-e2f8-45fa-a3f6-6bfd5e6a4ce5"},"vehicle_type_id":"4","last_reported":1751224053,"current_range_meters":25200,"station_id":"st_cvj6r9ubvosntc0bgbag","pricing_plan_id":"cebpf4jnsgd1na2vs0mg"},{"bike_id":"e891d413-f511-44d4-9ddd-90f57509289b","system_id":"levelo_inurba_marseille","lat":43.31708,"lon":5.36836,"is_reserved":false,"is_disabled":false,"rental_uris":{"android":"levelo://app?vid=e891d413-f511-44d4-9ddd-90f57509289b","ios":"levelo://app?vid=e891d413-f511-44d4-9ddd-90f57509289b"},"vehicle_type_id":"4","last_reported":1751224053,"current_range_meters":25600,"station_id":"","pricing_plan_id":"cebpf4jnsgd1na2vs0mg"},{"bike_id":"ae496ab8-0bd3-4cca-a6a5-0fd755c90db5","system_id":"levelo_inurba_marseille","lat":43.30606,"lon":5.37227,"is_reserved":false,"is_disabled":false,"rental_uris":{"android":"levelo://app?vid=ae496ab8-0bd3-4cca-a6a5-0fd755c90db5","ios":"levelo://app?vid=ae496ab8-0bd3-4cca-a6a5-0fd755c90db5"},"vehicle_type_id":"4","last_reported":1751224053,"current_range_meters":25600,"station_id":"ce4bgqh2rcd13ifvqc4g","pricing_plan_id":"cebpf4jnsgd1na2vs0mg"},{"bike_id":"e0e65500-eb41-4c83-a7c0-1282a01b3c20","system_id":"levelo_inurba_marseille","lat":43.29279,"lon":5.3844,"is_reserved":false,"is_disabled":false,"rental_uris":{"android":"levelo://app?vid=e0e65500-eb41-4c83-a7c0-1282a01b3c20","ios":"levelo://app?vid=e0e65500-eb41-4c83-a7c0-1282a01b3c20"},"vehicle_type_id":"4","last_reported":1751224053,"current_range_meters":25600,"station_id":"ce4bh692rcd13ifvqea0","pricing_plan_id":"cebpf4jnsgd1na2vs0mg"},{"bike_id":"76473d3c-a7aa-47b4-9aa5-2c40edb048dc","system_id":"levelo_inurba_marseille","lat":43.26212,"lon":5.37452,"is_reserved":false,"is_disabled":false,"rental_uris":{"android":"levelo://app?vid=76473d3c-a7aa-47b4-9aa5-2c40edb048dc","ios":"levelo://app?vid=76473d3c-a7aa-47b4-9aa5-2c40edb048dc"},"vehicle_type_id":"4","last_reported":1751224053,"current_range_meters":25600,"station_id":"ce4bhgp2rcd13ifvqfc0","pricing_plan_id":"cebpf4jnsgd1na2vs0mg"},{"bike_id":"41acd39e-4171-4def-b064-c7e4c267548c","system_id":"levelo_inurba_marseille","lat":43.275574,"lon":5.384481,"is_reserved":false,"is_disabled":false,"rental_uris":{"android":"levelo://app?vid=41acd39e-4171-4def-b064-c7e4c267548c","ios":"levelo://app?vid=41acd39e-4171-4def-b064-c7e4c267548c"},"vehicle_type_id":"4","last_reported":1751224053,"current_range_meters":25600,"station_id":"ce4bhh92rcd13ifvqfi0","pricing_plan_id":"cebpf4jnsgd1na2vs0mg"},{"bike_id":"b61e0b50-6955-4485-8940-35dea5920c98","system_id":"levelo_inurba_marseille","lat":43.279724,"lon":5.399601,"is_reserved":false,"is_disabled":false,"rental_uris":{"android":"levelo://app?vid=b61e0b50-6955-4485-8940-35dea5920c98","ios":"levelo://app?vid=b61e0b50-6955-4485-8940-35dea5920c98"},"vehicle_type_id":"4","last_reported":1751224053,"current_range_meters":25600,"station_id":"ce4bho92rcd13ifvqh4g","pricing_plan_id":"cebpf4jnsgd1na2vs0mg"},{"bike_id":"4a3233b2-9d89-4765-be90-43e6521e7e80","system_id":"levelo_inurba_marseille","lat":43.28615,"lon":5.37067,"is_reserved":false,"is_disabled":false,"rental_uris":{"android":"levelo://app?vid=4a3233b2-9d89-4765-be90-43e6521e7e80","ios":"levelo://app?vid=4a3233b2-9d89-4765-be90-43e6521e7e80"},"vehicle_type_id":"4","last_reported":1751224053,"current_range_meters":25600,"station_id":"ce4bht12rcd13ifvqi60","pricing_plan_id":"cebpf4jnsgd1na2vs0mg"},{"bike_id":"1f724e21-76c7-4d0f-a508-909ce3762ae1","system_id":"levelo_inurba_marseille","lat":43.28609,"lon":5.37056,"is_reserved":false,"is_disabled":false,"rental_uris":{"android":"levelo://app?vid=1f724e21-76c7-4d0f-a508-909ce3762ae1","ios":"levelo://app?vid=1f724e21-76c7-4d0f-a508-909ce3762ae1"},