{"last_updated":1753600280,"ttl":60,"version":"2.2","data":{"bikes":[{"bike_id":"ddb41611-b336-4121-ad5c-d2ee92e95b9c","system_id":"levelo_inurba_marseille","lat":43.307378,"lon":5.42452,"is_reserved":false,"is_disabled":false,"rental_uris":{"android":"levelo://app?vid=ddb41611-b336-4121-ad5c-d2ee92e95b9c","ios":"levelo://app?vid=ddb41611-b336-4121-ad5c-d2ee92e95b9c"},"vehicle_type_id":"4","last_reported":1753600280,"current_range_meters":2800,"station_id":"st_cvj6ca6bvosntc0bfgr0","pricing_plan_id":"cebpf4jnsgd1na2vs0mg"},{"bike_id":"ff30a5ee-0e9d-4bfa-a593-c7beaf9df463","system_id":"levelo_inurba_marseille","lat":43.3354,"lon":5.36201,"is_reserved":false,"is_disabled":false,"rental_uris":{"android":"levelo://app?vid=ff30a5ee-0e9d-4bfa-a593-c7beaf9df463","ios":"levelo://app?vid=ff30a5ee-0e9d-4bfa-a593-c7beaf9df463"},"vehicle_type_id":"4","last_reported":1753600280,"current_range_meters":3200,"station_id":"","pricing_plan_id":"cebpf4jnsgd1na2vs0mg"},{"bike_id":"be1f46e1-b208-4477-ac0e-0e8346ce7117","system_id":"levelo_inurba_marseille","lat":43.22506,"lon":5.34769,"is_reserved":false,"is_disabled":false,"rental_uris":{"android":"levelo://app?vid=be1f46e1-b208-4477-ac0e-0e8346ce7117","ios":"levelo://app?vid=be1f46e1-b208-4477-ac0e-0e8346ce7117"},"vehicle_type_id":"4","last_reported":1753600280,"current_range_meters":3600,"station_id":"st_cvj5dfep6f1abm77gieg","pricing_plan_id":"cebpf4jnsgd1na2vs0mg"},{"bike_id":"6af7a72a-189c-4dbc-9282-a956426542ba","system_id":"levelo_inurba_marseille","lat":43.22512,"lon":5.34779,"is_reserved":false,"is_disabled":false,"rental_uris":{"android":"levelo://app?vid=6af7a72a-189c-4dbc-9282-a956426542ba","ios":"levelo://app?vid=6af7a72a-189c-4dbc-9282-a956426542ba"},"vehicle_type_id":"4","last_reported":1753600280,"current_range_meters":3600,"station_id":"","pricing_plan_id":"cebpf4jnsgd1na2vs0mg"},{"bike_id":"f5baa1e2-d60a-4e51-a277-16960806edac","system_id":"levelo_inurba_marseille","lat":43.28697,"lon":5.38666,"is_reserved":false,"is_disabled":false,"rental_uris":{"android":"levelo://app?vid=f5baa1e2-d60a-4e51-a277-16960806edac","ios":"levelo://app?vid=f5baa1e2-d60a-4e51-a277-16960806edac"},"vehicle_type_id":"4","last_reported":1753600280,"current_range_meters":3600,"station_id":"ce4bh492rcd13ifvqdug","pricing_plan_id":"cebpf4jnsgd1na2vs0mg"},{"bike_id":"659696a2-3854-4019-bdd0-5ad56ba4750d","system_id":"levelo_inurba_marseille","lat":43.28158,"lon":5.42642,"is_reserved":false,"is_disabled":true,"rental_uris":{"android":"levelo://app?vid=659696a2-3854-4019-bdd0-5ad56ba4750d","ios":"levelo://app?vid=659696a2-3854-4019-bdd0-5ad56ba4750d"},"vehicle_type_id":"4","last_reported":1753600280,"current_range_meters":4000,"station_id":"ce4bhnh2rcd13ifvqgug","pricing_plan_id":"cebpf4jnsgd1na2vs0mg"},{"bike_id":"b9d90a33-242e-4108-916f-926fe59baba6","system_id":"levelo_inurba_marseille","lat":43.286104,"lon":5.383378,"is_reserved":false,"is_disabled":false,"rental_uris":{"android":"levelo://app?vid=b9d90a33-242e-4108-916f-926fe59baba6","ios":"levelo://app?vid=b9d90a33-242e-4108-916f-926fe59baba6"},"vehicle_type_id":"4","last_reported":1753600280,"current_range_meters":4000,"station_id":"","pricing_plan_id":"cebpf4jnsgd1na2vs0mg"},{"bike_id":"3880f549-e9a8-4e14-91a6-528ce8b1c22a","system_id":"levelo_inurba_marseille","lat":43.330227,"lon":5.390319,"is_reserved":false,"is_disabled":false,"rental_uris":{"android":"levelo://app?vid=3880f549-e9a8-4e14-91a6-528ce8b1c22a","ios":"levelo://app?vid=3880f549-e9a8-4e14-91a6-528ce8b1c22a"},"vehicle_type_id":"4","last_reported":1753600280,"current_range_meters":4800,"station_id":"ce4bhr92rcd13ifvqhrg","pricing_plan_id":"cebpf4jnsgd1na2vs0mg"},{"bike_id":"d3367d47-c56d-4569-8cf2-bf73ff504e87","system_id":"levelo_inurba_marseille","lat":43.29779,"lon":5.37115,"is_reserved":false,"is_disabled":false,"rental_uris":{"android":"levelo://app?vid=d3367d47-c56d-4569-8cf2-bf73ff504e87","ios":"levelo://app?vid=d3367d47-c56d-4569-8cf2-bf73ff504e87"},"vehicle_type_id":"4","last_reported":1753600280,"current_range_meters":4800,"station_id":"ce4bgop2rcd13ifvqc1g","pricing_plan_id":"cebpf4jnsgd1na2vs0mg"},{"bike_id":"f2e73ed9-a948-43ea-ab9d-32368cf8a475","system_id":"levelo_inurba_marseille","lat":43.26198,"lon":5.37433,"is_reserved":false,"is_disabled":true,"rental_uris":{"android":"levelo://app?vid=f2e73ed9-a948-43ea-ab9d-32368cf8a475","ios":"levelo://app?vid=f2e73ed9-a948-43ea-ab9d-32368cf8a475"},"vehicle_type_id":"4","last_reported":1753600280,"current_range_meters":4800,"station_id":"ce4bhgp2rcd13ifvqfc0","pricing_plan_id":"cebpf4jnsgd1na2vs0mg"},{"bike_id":"8b454f8e-a2cc-4f8a-9b75-defe6a01169e","system_id":"levelo_inurba_marseille","lat":43.287231,"lon":5.375055,"is_reserved":false,"is_disabled":false,"rental_uris":{"android":"levelo://app?vid=8b454f8e-a2cc-4f8a-9b75-defe6a01169e","ios":"levelo://app?vid=8b454f8e-a2cc-4f8a-9b75-defe6a01169e"},"vehicle_type_id":"4","last_reported":1753600280,"current_range_meters":4800,"station_id":"","pricing_plan_id":"cebpf4jnsgd1na2vs0mg"},{"bike_id":"078febbd-6d49-4abf-8b46-d33f87f8da46","system_id":"levelo_inurba_marseille","lat":43.25452,"lon":5.38007,"is_reserved":false,"is_disabled":false,"rental_uris":{"android":"levelo://app?vid=078febbd-6d49-4abf-8b46-d33f87f8da46","ios":"levelo://app?vid=078febbd-6d49-4abf-8b46-d33f87f8da46"},"vehicle_type_id":"4","last_reported":1753600280,"current_range_meters":5600,"station_id":"","pricing_plan_id":"cebpf4jnsgd1na2vs0mg"},{"bike_id":"db10d4dc-fc45-4699-9765-7986ee07b810","system_id":"levelo_inurba_marseille","lat":43.286115,"lon":5.385015,"is_reserved":false,"is_disabled":false,"rental_uris":{"android":"levelo://app?vid=db10d4dc-fc45-4699-9765-7986ee07b810","ios":"levelo://app?vid=db10d4dc-fc45-4699-9765-7986ee07b810"},"vehicle_type_id":"4","last_reported":1753600280,"current_range_meters":5600,"station_id":"ce4bhoh2rcd13ifvqh5g","pricing_plan_id":"cebpf4jnsgd1na2vs0mg"},{"bike_id":"9f2c2b2f-63ef-43ea-a99e-b086901fbdc7","system_id":"levelo_inurba_marseille","lat":43.283478,"lon":5.381092,"is_reserved":false,"is_disabled":false,"rental_uris":{"android":"levelo://app?vid=9f2c2b2f-63ef-43ea-a99e-b086901fbdc7","ios":"levelo://app?vid=9f2c2b2f-63ef-43ea-a99e-b086901fbdc7"},"vehicle_type_id":"4","last_reported":1753600280,"current_range_meters":5600,"station_id":"ce4bh412rcd13ifvqdr0","pricing_plan_id":"cebpf4jnsgd1na2vs0mg"},{"bike_id":"2325751d-867b-49df-8863-056e8656ae73","system_id":"levelo_inurba_marseille","lat":43.30254,"lon":5.40079,"is_reserved":false,"is_disabled":false,"rental_uris":{"android":"levelo://app?vid=2325751d-867b-49df-8863-056e8656ae73","ios":"levelo://app?vid=2325751d-867b-49df-8863-056e8656ae73"},"vehicle_type_id":"4","last_reported":1753600280,"current_range_meters":6000,"station_id":"ce4bgvh2rcd13ifvqcs0","pricing_plan_id":"cebpf4jnsgd1na2vs0mg"},{"bike_id":"68efc304-0d41-4c98-a023-943580f46380","system_id":"levelo_inurba_marseille","lat":43.22505,"lon":5.34759,"is_reserved":false,"is_disabled":true,"rental_uris":{"android":"levelo://app?vid=68efc304-0d41-4c98-a023-943580f46380","ios":"levelo://app?vid=68efc304-0d41-4c98-a023-943580f46380"},"vehicle_type_id":"4","last_reported":1753600280,"current_range_meters":6000,"station_id":"st_cvj5dfep6f1abm77gieg","pricing_plan_id":"cebpf4jnsgd1na2vs0mg"},{"bike_id":"483a3748-672f-45fa-9972-d8ba8ae4575e","system_id":"levelo_inurba_marseille","lat":43.29191,"lon":5.35803,"is_reserved":false,"is_disabled":false,"rental_uris":{"android":"levelo://app?vid=483a3748-672f-45fa-9972-d8ba8ae4575e","ios":"levelo://app?vid=483a3748-672f-45fa-9972-d8ba8ae4575e"},"vehicle_type_id":"4","last_reported":1753600280,"current_range_meters":6000,"station_id":"ce4bhb12rcd13ifvqel0","pricing_plan_id":"cebpf4jnsgd1na2vs0mg"},{"bike_id":"f123af25-f5e1-4535-bf9a-e453fb7322cc","system_id":"levelo_inurba_marseille","lat":43.275303,"lon":5.408981,"is_reserved":false,"is_disabled":true,"rental_uris":{"android":"levelo://app?vid=f123af25-f5e1-4535-bf9a-e453fb7322cc","ios":"levelo://app?vid=f123af25-f5e1-4535-bf9a-e453fb7322cc"},"vehicle_type_id":"4","last_reported":1753600280,"current_range_meters":6400,"station_id":"","pricing_plan_id":"cebpf4jnsgd1na2vs0mg"},{"bike_id":"02ad9c89-0406-4b96-a530-c10fdce1f041","system_id":"levelo_inurba_marseille","lat":43.2547,"lon":5.41614,"is_reserved":false,"is_disabled":false,"rental_uris":{"android":"levelo://app?vid=02ad9c89-0406-4b96-a530-c10fdce1f041","ios":"levelo://app?vid=02ad9c89-0406-4b96-a530-c10fdce1f041"},"vehicle_type_id":"4","last_reported":1753600280,"current_range_meters":6800,"station_id":"","pricing_plan_id":"cebpf4jnsgd1na2vs0mg"},{"bike_id":"f2184493-17fc-43eb-baa2-c5af709ef3a0","system_id":"levelo_inurba_marseille","lat":43.30937,"lon":5.40138,"is_reserved":false,"is_disabled":false,"rental_uris":{"android":"levelo://app?vid=f2184493-17fc-43eb-baa2-c5af709ef3a0","ios":"levelo://app?vid=f2184493-17fc-43eb-baa2-c5af709ef3a0"},"vehicle_type_id":"4","last_reported":1753600280,"current_range_meters":6800,"station_id":"ce4bgvp2rcd13ifvqct0","pricing_plan_id":"cebpf4jnsgd1na2vs0mg"},{"bike_id":"acdc15f3-f881-4795-bd43-7b1b297ebaa4","system_id":"levelo_inurba_marseille","lat":43.270695,"lon":5.42291,"is_reserved":false,"is_disabled":true,"rental_uris":{"android":"levelo://app?vid=acdc15f3-f881-4795-bd43-7b1b297ebaa4","ios":"levelo://app?vid=acdc15f3-f881-4795-bd43-7b1b297ebaa4"},"vehicle_type_id":"4","last_reported":1753600280,"current_range_meters":6800,"station_id":"ce4bhk92rcd13ifvqgb0","pricing_plan_id":"cebpf4jnsgd1na2vs0mg"},{"bike_id":"b7ed9571-0d35-4df5-9ba8-fcfa0cd8d52b","system_id":"levelo_inurba_marseille","lat":43.32612,"lon":5.37874,"is_reserved":false,"is_disabled":false,"rental_uris":{"android":"levelo://app?vid=b7ed9571-0d35-4df5-9ba8-fcfa0cd8d52b","ios":"levelo://app?vid=b7ed9571-0d35-4df5-9ba8-fcfa0cd8d52b"},"vehicle_type_id":"4","last_reported":1753600280,"current_range_meters":6800,"station_id":"","pricing_plan_id":"cebpf4jnsgd1na2vs0mg"},{"bike_id":"952da92d-a415-486b-965d-287fad3f2a8a","system_id":"levelo_inurba_marseille","lat":43.29521,"lon":5.3904,"is_reserved":false,"is_disabled":false,"rental_uris":{"android":"levelo://app?vid=952da92d-a415-486b-965d-287fad3f2a8a","ios":"levelo://app?vid=952da92d-a415-486b-965d-287fad3f2a8a"},"vehicle_type_id":"4","last_reported":1753600280,"current_range_meters":8400,"station_id":"ce4bh3p2rcd13ifvqdp0","pricing_plan_id":"cebpf4jnsgd1na2vs0mg"},{"bike_id":"a0d60e44-246d-4cc0-aef3-dc664879b373","system_id":"levelo_inurba_marseille","lat":43.21756,"lon":5.34575,"is_reserved":false,"is_disabled":true,"rental_uris":{"android":"levelo://app?vid=a0d60e44-246d-4cc0-aef3-dc664879b373","ios":"levelo://app?vid=a0d60e44-246d-4cc0-aef3-dc664879b373"},"vehicle_type_id":"4","last_reported":1753600280,"current_range_meters":7200,"station_id":"st_cvj6r9ubvosntc0bgbag","pricing_plan_id":"cebpf4jnsgd1na2vs0mg"},{"bike_id":"f907f5fc-1c5d-420e-b462-8023f79ec54a","system_id":"levelo_inurba_marseille","lat":43.28725,"lon":5.39976,"is_reserved":false,"is_disabled":false,"rental_uris":{"android":"levelo://app?vid=f907f5fc-1c5d-420e-b462-8023f79ec54a","ios":"levelo://app?vid=f907f5fc-1c5d-420e-b462-8023f79ec54a"},"vehicle_type_id":"4","last_reported":1753600280,"current_range_meters":7200,"station_id":"ce4bho92rcd13ifvqh3g","pricing_plan_id":"cebpf4jnsgd1na2vs0mg"},{"bike_id":"47dba6f9-a813-46aa-a47e-33063f264a67","system_id":"levelo_inurba_marseille","lat":43.302445,"lon":5.400663,"is_reserved":false,"is_disabled":false,"rental_uris":{"android":"levelo://app?vid=47dba6f9-a813-46aa-a47e-33063f264a67","ios":"levelo://app?vid=47dba6f9-a813-46aa-a47e-33063f264a67"},"vehicle_type_id":"4","last_reported":1753600280,"current_range_meters":7200,"station_id":"ce4bgvh2rcd13ifvqcs0","pricing_plan_id":"cebpf4jnsgd1na2vs0mg"},{"bike_id":"83a67c65-7f9b-4a81-a80c-c007cd448d24","system_id":"levelo_inurba_marseille","lat":43.292531,"lon":5.384314,"is_reserved":false,"is_disabled":false,"rental_uris":{"android":"levelo://app?vid=83a67c65-7f9b-4a81-a80c-c007cd448d24","ios":"levelo://app?vid=83a67c65-7f9b-4a81-a80c-c007cd448d24"},"vehicle_type_id":"4","last_reported":1753600280,"current_range_meters":7200,"station_id":"","pricing_plan_id":"cebpf4jnsgd1na2vs0mg"},{"bike_id":"9ecd9ef7-e07c-47cd-a7c3-5ed0d84c5b67","system_id":"levelo_inurba_marseille","lat":43.29143,"lon":5.37449,"is_reserved":false,"is_disabled":false,"rental_uris":{"android":"levelo://app?vid=9ecd9ef7-e07c-47cd-a7c3-5ed0d84c5b67","ios":"levelo://app?vid=9ecd9ef7-e07c-47cd-a7c3-5ed0d84c5b67"},"vehicle_type_id":"4","last_reported":1753600280,"current_range_meters":8000,"station_id":"","pricing_plan_id":"cebpf4jnsgd1na2vs0mg"},{"bike_id":"ab991371-506a-411d-b1d8-1efc5ac7cde6","system_id":"levelo_inurba_marseille","lat":43.2281,"lon":5.35159,"is_reserved":false,"is_disabled":false,"rental_uris":{"android":"levelo://app?vid=ab991371-506a-411d-b1d8-1efc5ac7cde6","ios":"levelo://app?vid=ab991371-506a-411d-b1d8-1efc5ac7cde6"},"vehicle_type_id":"4","last_reported":1753600280,"current_range_meters":8000,"station_id":"","pricing_plan_id":"cebpf4jnsgd1na2vs0mg"},{"bike_id":"75a52d90-a84e-49e8-9197-7fd3f8d0259a","system_id":"levelo_inurba_marseille","lat":43.261941,"lon":5.374646,"is_reserved":false,"is_disabled":true,"rental_uris":{"android":"levelo://app?vid=75a52d90-a84e-49e8-9197-7fd3f8d0259a","ios":"levelo://app?vid=75a52d90-a84e-49e8-9197-7fd3f8d0259a"},"vehicle_type_id":"4","last_reported":1753600280,"current_range_meters":8000,"station_id":"ce4bhgp2rcd13ifvqfc0","pricing_plan_id":"cebpf4jnsgd1na2vs0mg"},{"bike_id":"0b6e37e1-db39-4d64-9941-7e484c9ea038","system_id":"levelo_inurba_marseille","lat":43.30153,"lon":5.38091,"is_reserved":false,"is_disabled":true,"rental_uris":{"android":"levelo://app?vid=0b6e37e1-db39-4d64-9941-7e484c9ea038","ios":"levelo://app?vid=0b6e37e1-db39-4d64-9941-7e484c9ea038"},"vehicle_type_id":"4","last_reported":1753600280,"current_range_meters":8000,"station_id":"ce4bgjp2rcd13ifvqbh0","pricing_plan_id":"cebpf4jnsgd1na2vs0mg"},{"bike_id":"a3fe9995-2e3e-423b-9540-429a92fa997e","system_id":"levelo_inurba_marseille","lat":43.301842,"lon":5.371776,"is_reserved":false,"is_disabled":false,"rental_uris":{"android":"levelo://app?vid=a3fe9995-2e3e-423b-9540-429a92fa997e","ios":"levelo://app?vid=a3fe9995-2e3e-423b-9540-429a92fa997e"},"vehicle_type_id":"4","last_reported":1753600280,"current_range_meters":8000,"station_id":"","pricing_plan_id":"cebpf4jnsgd1na2vs0mg"},{"bike_id":"d8ede7a6-2370-4585-9b4e-834634539090","system_id":"levelo_inurba_marseille","lat":43.22508,"lon":5.34769,"is_reserved":false,"is_disabled":false,"rental_uris":{"android":"levelo://app?vid=d8ede7a6-2370-4585-9b4e-834634539090","ios":"levelo://app?vid=d8ede7a6-2370-4585-9b4e-834634539090"},"vehicle_type_id":"4","last_reported":1753600280,"current_range_meters":8400,"station_id":"st_cvj5dfep6f1abm77gieg","pricing_plan_id":"cebpf4jnsgd1na2vs0mg"},{"bike_id":"22dca147-1260-44d8-822d-d9d1d50cce31","system_id":"levelo_inurba_marseille","lat":43.274636,"lon":5.395875,"is_reserved":false,"is_disabled":true,"rental_uris":{"android":"levelo://app?vid=22dca147-1260-44d8-822d-d9d1d50cce31","ios":"levelo://app?vid=22dca147-1260-44d8-822d-d9d1d50cce31"},"vehicle_type_id":"4","last_reported":1753600280,"current_range_meters":8400,"station_id":"","pricing_plan_id":"cebpf4jnsgd1na2vs0mg"},{"bike_id":"01919711-51c0-4b9e-863e-584f9a31b4ec","system_id":"levelo_inurba_marseille","lat":43.29884,"lon":5.397371,"is_reserved":false,"is_disabled":true,"rental_uris":{"android":"levelo://app?vid=01919711-51c0-4b9e-863e-584f9a31b4ec","ios":"levelo://app?vid=01919711-51c0-4b9e-863e-584f9a31b4ec"},"vehicle_type_id":"4","last_reported":1753600280,"current_range_meters":8400,"station_id":"ce4bh0h2rcd13ifvqd50","pricing_plan_id":"cebpf4jnsgd1na2vs0mg"},{"bike_id":"295de28f-5469-421c-873e-076d2fbd1d95","system_id":"levelo_inurba_marseille","lat":43.28616,"lon":5.37062,"is_reserved":false,"is_disabled":false,"rental_uris":{"android":"levelo://app?vid=295de28f-5469-421c-873e-076d2fbd1d95","ios":"levelo://app?vid=295de28f-5469-421c-873e-076d2fbd1d95"},"vehicle_type_id":"4","last_reported":1753600280,"current_range_meters":8400,"station_id":"ce4bht12rcd13ifvqi60","pricing_plan_id":"cebpf4jnsgd1na2vs0mg"},{"bike_id":"8aec49e9-2a7c-473f-936a-01f180d46c56","system_id":"levelo_inurba_marseille","lat":43.225044,"lon":5.347839,"is_reserved":false,"is_disabled":false,"rental_uris":{"android":"levelo://app?vid=8aec49e9-2a7c-473f-936a-01f180d46c56","ios":"levelo://app?vid=8aec49e9-2a7c-473f-936a-01f180d46c56"},"vehicle_type_id":"4","last_reported":1753600280,"current_range_meters":8400,"station_id":"st_cvj5dfep6f1abm77gieg","pricing_plan_id":"cebpf4jnsgd1na2vs0mg"},{"bike_id":"dfe47d69-6adb-481f-ab6f-2e7a79e7b948","system_id":"levelo_inurba_marseille","lat":43.30967,"lon":5.40122,"is_reserved":false,"is_disabled":false,"rental_uris":{"android":"levelo://app?vid=dfe47d69-6adb-481f-ab6f-2e7a79e7b948","ios":"levelo://app?vid=dfe47d69-6adb-481f-ab6f-2e7a79e7b948"},"vehicle_type_id":"4","last_reported":1753600280,"current_range_meters":8400,"station_id":"ce4bgvp2rcd13ifvqct0","pricing_plan_id":"cebpf4jnsgd1na2vs0mg"},{"bike_id":"6ab0b13c-2ff1-417a-acfd-489d6800d4c9","system_id":"levelo_inurba_marseille","lat":43.273775,"lon":5.362495,"is_reserved":false,"is_disabled":true,"rental_uris":{"android":"levelo://app?vid=6ab0b13c-2ff1-417a-acfd-489d6800d4c9","ios":"levelo://app?vid=6ab0b13c-2ff1-417a-acfd-489d6800d4c9"},"vehicle_type_id":"4","last_reported":1753600280,"current_range_meters":8400,"station_id":"ce4bhbh2rcd13ifvqeo0","pricing_plan_id":"cebpf4jnsgd1na2vs0mg"},{"bike_id":"8e878e8f-5d80-490d-b86c-324c23d42717","system_id":"levelo_inurba_marseille","lat":43.2919,"lon":5.40742,"is_reserved":false,"is_disabled":false,"rental_uris":{"android":"levelo://app?vid=8e878e8f-5d80-490d-b86c-324c23d42717","ios":"levelo://app?vid=8e878e8f-5d80-490d-b86c-324c23d42717"},"vehicle_type_id":"4","last_reported":1753600280,"current_range_meters":8800,"station_id":"","pricing_plan_id":"cebpf4jnsgd1na2vs0mg"},{"bike_id":"de99b14c-9afd-4bdd-bc56-50354c110c3d","system_id":"levelo_inurba_marseille","lat":43.25467,"lon":5.37687,"is_reserved":false,"is_disabled":false,"rental_uris":{"android":"levelo://app?vid=de99b14c-9afd-4bdd-bc56-50354c110c3d","ios":"levelo://app?vid=de99b14c-9afd-4bdd-bc56-50354c110c3d"},"vehicle_type_id":"4","last_reported":1753600280,"current_range_meters":8800,"station_id":"","pricing_plan_id":"cebpf4jnsgd1na2vs0mg"},{"bike_id":"a520741a-dcb6-494d-9d43-0ad113907acb","system_id":"levelo_inurba_marseille","lat":43.29223,"lon":5.40003,"is_reserved":false,"is_disabled":false,"rental_uris":{"android":"levelo://app?vid=a520741a-dcb6-494d-9d43-0ad113907acb","ios":"levelo://app?vid=a520741a-dcb6-494d-9d43-0ad113907acb"},"vehicle_type_id":"4","last_reported":1753600280,"current_range_meters":8800,"station_id":"","pricing_plan_id":"cebpf4jnsgd1na2vs0mg"},{"bike_id":"368fa742-ee19-475f-aae0-349ba7916325","system_id":"levelo_inurba_marseille","lat":43.276235,"lon":5.361098,"is_reserved":false,"is_disabled":false,"rental_uris":{"android":"levelo://app?vid=368fa742-ee19-475f-aae0-349ba7916325","ios":"levelo://app?vid=368fa742-ee19-475f-aae0-349ba7916325"},"vehicle_type_id":"4","last_reported":1753600280,"current_range_meters":8800,"station_id":"ce4bgj92rcd13ifvqbe0","pricing_plan_id":"cebpf4jnsgd1na2vs0mg"},{"bike_id":"1e555c6b-044c-4bd1-a690-5b7bdd1ff5ab","system_id":"levelo_inurba_marseille","lat":43.30955,"lon":5.39012,"is_reserved":false,"is_disabled":true,"rental_uris":{"android":"levelo://app?vid=1e555c6b-044c-4bd1-a690-5b7bdd1ff5ab","ios":"levelo://app?vid=1e555c6b-044c-4bd1-a690-5b7bdd1ff5ab"},"vehicle_type_id":"4","last_reported":1753600280,"current_range_meters":9200,"station_id":"ce4bgup2rcd13ifvqco0","pricing_plan_id":"cebpf4jnsgd1na2vs0mg"},{"bike_id":"91bce01a-afd4-4344-8169-29d626e55b18","system_id":"levelo_inurba_marseille","lat":43.28682,"lon":5.38651,"is_reserved":false,"is_disabled":false,"rental_uris":{"android":"levelo://app?vid=91bce01a-afd4-4344-8169-29d626e55b18","ios":"levelo://app?vid=91bce01a-afd4-4344-8169-29d626e55b18"},"vehicle_type_id":"4","last_reported":1753600280,"current_range_meters":9200,"station_id":"ce4bh492rcd13ifvqdug","pricing_plan_id":"cebpf4jnsgd1na2vs0mg"},{"bike_id":"57755280-973c-4ff3-9c25-8f15e2c5b510","system_id":"levelo_inurba_marseille","lat":43.31872,"lon":5.37373,"is_reserved":false,"is_disabled":true,"rental_uris":{"android":"levelo://app?vid=57755280-973c-4ff3-9c25-8f15e2c5b510","ios":"levelo://app?vid=57755280-973c-4ff3-9c25-8f15e2c5b510"},"vehicle_type_id":"4","last_reported":1753600280,"current_range_meters":9200,"station_id":"","pricing_plan_id":"cebpf4jnsgd1na2vs0mg"},{"bike_id":"f2c0d178-a474-46a0-b002-379a7a30c411","system_id":"levelo_inurba_marseille","lat":43.29417,"lon":5.376,"is_reserved":false,"is_disabled":false,"rental_uris":{"android":"levelo://app?vid=f2c0d178-a474-46a0-b002-379a7a30c411","ios":"levelo://app?vid=f2c0d178-a474-46a0-b002-379a7a30c411"},"vehicle_type_id":"4","last_reported":1753600280,"current_range_meters":9600,"station_id":"","pricing_plan_id":"cebpf4jnsgd1na2vs0mg"},{"bike_id":"315d4637-0f05-4e02-ae0b-52e018b5ade9","system_id":"levelo_inurba_marseille","lat":43.28851,"lon":5.39309,"is_reserved":false,"is_disabled":false,"rental_uris":{"android":"levelo://app?vid=315d4637-0f05-4e02-ae0b-52e018b5ade9","ios":"levelo://app?vid=315d4637-0f05-4e02-ae0b-52e018b5ade9"},"vehicle_type_id":"4","last_reported":1753600280,"current_range_meters":9600,"station_id":"ce4bh2p2rcd13ifvqdi0","pricing_plan_id":"cebpf4jnsgd1na2vs0mg"},{"bike_id":"e1c4a9a8-723d-42ba-b341-cfb98adc6ab9","system_id":"levelo_inurba_marseille","lat":43.2867,"lon":5.38663,"is_reserved":false,"is_disabled":false,"rental_uris":{"android":"levelo://app?vid=e1c4a9a8-723d-42ba-b341-cfb98adc6ab9","ios":"levelo://app?vid=e1c4a9a8-723d-42ba-b341-cfb98adc6ab9"},"vehicle_type_id":"4","last_reported":1753600280,"current_range_meters":9200,"station_id":"ce4bh492rcd13ifvqdug","pricing_plan_id":"cebpf4jnsgd1na2vs0mg"},{"bike_id":"e12e8492-ebb5-494e-9a26-60742e21ef5e","system_id":"levelo_inurba_marseille","lat":43.287255,"lon":5.399842,"is_reserved":false,"is_disabled":false,"rental_uris":{"android":"levelo://app?vid=e12e8492-ebb5-494e-9a26-60742e21ef5e","ios":"levelo://app?vid=e12e8492-ebb5-494e-9a26-60742e21ef5e"},"vehicle_type_id":"4","last_reported":1753600280,"current_range_meters":9600,"station_id":"ce4bho92rcd13ifvqh3g","pricing_plan_id":"cebpf4jnsgd1na2vs0mg"},{"bike_id":"52859a08-51f2-4403-afb6-16e93cbfb11f","system_id":"levelo_inurba_marseille","lat":43.3171,"lon":5.40445,"is_reserved":false,"is_disabled":false,"rental_uris":{"android":"levelo://app?vid=52859a08-51f2-4403-afb6-16e93cbfb11f","ios":"levelo://app?vid=52859a08-51f2-4403-afb6-16e93cbfb11f"},"vehicle_type_id":"4","last_reported":1753600280,"current_range_meters":9600,"station_id":"ce4bh012rcd13ifvqd00","pricing_plan_id":"cebpf4jnsgd1na2vs0mg"},{"bike_id":"4eb8e6d8-6017-4e84-a7f3-2ace9b6fffab","system_id":"levelo_inurba_marseille","lat":43.312793,"lon":5.401598,"is_reserved":false,"is_disabled":false,"rental_uris":{"android":"levelo://app?vid=4eb8e6d8-6017-4e84-a7f3-2ace9b6fffab","ios":"levelo://app?vid=4eb8e6d8-6017-4e84-a7f3-2ace9b6fffab"},"vehicle_type_id":"4","last_reported":1753600280,"current_range_meters":9600,"station_id":"ce4bh092rcd13ifvqd30","pricing_plan_id":"cebpf4jnsgd1na2vs0mg"},{"bike_id":"d00b6abc-174d-48a1-8e37-47955a519e3f","system_id":"levelo_inurba_marseille","lat":43.229345,"lon":5.353762,"is_reserved":false,"is_disabled":false,"rental_uris":{"android":"levelo://app?vid=d00b6abc-174d-48a1-8e37-47955a519e3f","ios":"levelo://app?vid=d00b6abc-174d-48a1-8e37-47955a519e3f"},"vehicle_type_id":"4","last_reported":1753600280,"current_range_meters":10000,"station_id":"cpo3532slgdg3j2ikp40","pricing_plan_id":"cebpf4jnsgd1na2vs0mg"},{"bike_id":"1b4f060d-024e-4b5b-a67b-2d78d44d6edb","system_id":"levelo_inurba_marseille","lat":43.22511,"lon":5.34771,"is_reserved":false,"is_disabled":true,"rental_uris":{"android":"levelo://app?vid=1b4f060d-024e-4b5b-a67b-2d78d44d6edb","ios":"levelo://app?vid=1b4f060d-024e-4b5b-a67b-2d78d44d6edb"},"vehicle_type_id":"4","last_reported":1753600280,"current_range_meters":10000,"station_id":"st_cvj5dfep6f1abm77gieg","pricing_plan_id":"cebpf4jnsgd1na2vs0mg"},{"bike_id":"bb7d952e-46e7-4b95-87c0-fb3fba1860ff","system_id":"levelo_inurba_marseille","lat":43.282754,"lon":5.350672,"is_reserved":false,"is_disabled":false,"rental_uris":{"android":"levelo://app?vid=bb7d952e-46e7-4b95-87c0-fb3fba1860ff","ios":"levelo://app?vid=bb7d952e-46e7-4b95-87c0-fb3fba1860ff"},"vehicle_type_id":"4","last_reported":1753600280,"current_range_meters":10000,"station_id":"ce4bhbp2rcd13ifvqerg","pricing_plan_id":"cebpf4jnsgd1na2vs0mg"},{"bike_id":"dd5b3db2-62f9-4716-992d-435138b6493d","system_id":"levelo_inurba_marseille","lat":43.30825,"lon":5.38148,"is_reserved":false,"is_disabled":true,"rental_uris":{"android":"levelo://app?vid=dd5b3db2-62f9-4716-992d-435138b6493d","ios":"levelo://app?vid=dd5b3db2-62f9-4716-992d-435138b6493d"},"vehicle_type_id":"4","last_reported":1753600280,"current_range_meters":10000,"station_id":"ce4bgt12rcd13ifvqce0","pricing_plan_id":"cebpf4jnsgd1na2vs0mg"},{"bike_id":"80cda384-a0de-4854-88d7-81c5eb0a10d1","system_id":"levelo_inurba_marseille","lat":43.28957,"lon":5.36387,"is_reserved":false,"is_disabled":true,"rental_uris":{"android":"levelo://app?vid=80cda384-a0de-4854-88d7-81c5eb0a10d1","ios":"levelo://app?vid=80cda384-a0de-4854-88d7-81c5eb0a10d1"},"vehicle_type_id":"4","last_reported":1753600280,"current_range_meters":10000,"station_id":"ce4bhc92rcd13ifvqetg","pricing_plan_id":"cebpf4jnsgd1na2vs0mg"},{"bike_id":"53ef8a59-b619-4569-8c4f-4c6ff0b90b29","system_id":"levelo_inurba_marseille","lat":43.28697,"lon":5.39981,"is_reserved":false,"is_disabled":false,"rental_uris":{"android":"levelo://app?vid=53ef8a59-b619-4569-8c4f-4c6ff0b90b29","ios":"levelo://app?vid=53ef8a59-b619-4569-8c4f-4c6ff0b90b29"},"vehicle_type_id":"4","last_reported":1753600280,"current_range_meters":10000,"station_id":"ce4bho92rcd13ifvqh3g","pricing_plan_id":"cebpf4jnsgd1na2vs0mg"},{"bike_id":"76874c93-4196-48c1-b4ce-9dc79e3034f2","system_id":"levelo_inurba_marseille","lat":43.31757,"lon":5.39006,"is_reserved":false,"is_disabled":false,"rental_uris":{"android":"levelo://app?vid=76874c93-4196-48c1-b4ce-9dc79e3034f2","ios":"levelo://app?vid=76874c93-4196-48c1-b4ce-9dc79e3034f2"},"vehicle_type_id":"4","last_reported":1753600280,"current_range_meters":10800,"station_id":"ce4bhqp2rcd13ifvqhng","pricing_plan_id":"cebpf4jnsgd1na2vs0mg"},{"bike_id":"9995144f-2085-423c-b0a0-4bd80fdaf928","system_id":"levelo_inurba_marseille","lat":43.29568,"lon":5.39959,"is_reserved":false,"is_disabled":false,"rental_uris":{"android":"levelo://app?vid=9995144f-2085-423c-b0a0-4bd80fdaf928","ios":"levelo://app?vid=9995144f-2085-423c-b0a0-4bd80fdaf928"},"vehicle_type_id":"4","last_reported":1753600280,"current_range_meters":10800,"station_id":"ce4bh312rcd13ifvqdj0","pricing_plan_id":"cebpf4jnsgd1na2vs0mg"},{"bike_id":"81fd8889-6d34-4233-b5fb-6df92dc89b48","system_id":"levelo_inurba_marseille","lat":43.30603,"lon":5.37211,"is_reserved":false,"is_disabled":false,"rental_uris":{"android":"levelo://app?vid=81fd8889-6d34-4233-b5fb-6df92dc89b48","ios":"levelo://app?vid=81fd8889-6d34-4233-b5fb-6df92dc89b48"},"vehicle_type_id":"4","last_reported":1753600280,"current_range_meters":10800,"station_id":"ce4bgqh2rcd13ifvqc4g","pricing_plan_id":"cebpf4jnsgd1na2vs0mg"},{"bike_id":"3902dffc-78e7-41a6-acbd-2f993885378c","system_id":"levelo_inurba_marseille","lat":43.31279,"lon":5.40163,"is_reserved":false,"is_disabled":false,"rental_uris":{"android":"levelo://app?vid=3902dffc-78e7-41a6-acbd-2f993885378c","ios":"levelo://app?vid=3902dffc-78e7-41a6-acbd-2f993885378c"},"vehicle_type_id":"4","last_reported":1753600280,"current_range_meters":10800,"station_id":"ce4bh092rcd13ifvqd30","pricing_plan_id":"cebpf4jnsgd1na2vs0mg"},{"bike_id":"ad676354-5f32-402a-ace7-3af7e2297b05","system_id":"levelo_inurba_marseille","lat":43.32444,"lon":5.36723,"is_reserved":false,"is_disabled":false,"rental_uris":{"android":"levelo://app?vid=ad676354-5f32-402a-ace7-3af7e2297b05","ios":"levelo://app?vid=ad676354-5f32-402a-ace7-3af7e2297b05"},"vehicle_type_id":"4","last_reported":1753600280,"current_range_meters":10800,"station_id":"ce4bhsh2rcd13ifvqi2g","pricing_plan_id":"cebpf4jnsgd1na2vs0mg"},{"bike_id":"4e97a19b-88ac-4646-bb67-c4e1763b513d","system_id":"levelo_inurba_marseille","lat":43.29252,"lon":5.38435,"is_reserved":false,"is_disabled":true,"rental_uris":{"android":"levelo://app?vid=4e97a19b-88ac-4646-bb67-c4e1763b513d","ios":"levelo://app?vid=4e97a19b-88ac-4646-bb67-c4e1763b513d"},"vehicle_type_id":"4","last_reported":1753600280,"current_range_meters":10800,"station_id":"ce4bh692rcd13ifvqea0","pricing_plan_id":"cebpf4jnsgd1na2vs0mg"},{"bike_id":"2fa9dd39-7ea8-42db-9ead-ca5e3675e815","system_id":"levelo_inurba_marseille","lat":43.30215,"lon":5.394602,"is_reserved":false,"is_disabled":true,"rental_uris":{"android":"levelo://app?vid=2fa9dd39-7ea8-42db-9ead-ca5e3675e815","ios":"levelo://app?vid=2fa9dd39-7ea8-42db-9ead-ca5e3675e815"},"vehicle_type_id":"4","last_reported":1753600280,"current_range_meters":10800,"station_id":"ce4bh0p2rcd13ifvqd70","pricing_plan_id":"cebpf4jnsgd1na2vs0mg"},{"bike_id":"bb0db1a8-1b0c-444a-bb9a-ea686810084f","system_id":"levelo_inurba_marseille","lat":43.22508,"lon":5.34774,"is_reserved":false,"is_disabled":false,"rental_uris":{"android":"levelo://app?vid=bb0db1a8-1b0c-444a-bb9a-ea686810084f","ios":"levelo://app?vid=bb0db1a8-1b0c-444a-bb9a-ea686810084f"},"vehicle_type_id":"4","last_reported":1753600280,"current_range_meters":10800,"station_id":"st_cvj5dfep6f1abm77gieg","pricing_plan_id":"cebpf4jnsgd1na2vs0mg"},{"bike_id":"9377d52d-7c04-4205-81e5-05265b3eabff","system_id":"levelo_inurba_marseille","lat":43.287102,"lon":5.379335,"is_reserved":false,"is_disabled":true,"rental_uris":{"android":"levelo://app?vid=9377d52d-7c04-4205-81e5-05265b3eabff","ios":"levelo://app?vid=9377d52d-7c04-4205-81e5-05265b3eabff"},"vehicle_type_id":"4","last_reported":1753600280,"current_range_meters":11200,"station_id":"ce4bh9p2rcd13ifvqec0","pricing_plan_id":"cebpf4jnsgd1na2vs0mg"},{"bike_id":"c3c2652b-f2d7-4ed4-89ec-9559feb01451","system_id":"levelo_inurba_marseille","lat":43.29226,"lon":5.360481,"is_reserved":false,"is_disabled":true,"rental_uris":{"android":"levelo://app?vid=c3c2652b-f2d7-4ed4-89ec-9559feb01451","ios":"levelo://app?vid=c3c2652b-f2d7-4ed4-89ec-9559feb01451"},"vehicle_type_id":"4","last_reported":1753600280,"current_range_meters":11200,"station_id":"ce4bhbh2rcd13ifvqeqg","pricing_plan_id":"cebpf4jnsgd1na2vs0mg"},{"bike_id":"43cf4049-15dd-4e8c-88a8-61cd8dc10bf5","system_id":"levelo_inurba_marseille","lat":43.33253,"lon":5.37979,"is_reserved":false,"is_disabled":true,"rental_uris":{"android":"levelo://app?vid=43cf4049-15dd-4e8c-88a8-61cd8dc10bf5","ios":"levelo://app?vid=43cf4049-15dd-4e8c-88a8-61cd8dc10bf5"},"vehicle_type_id":"4","last_reported":1753600280,"current_range_meters":11200,"station_id":"","pricing_plan_id":"cebpf4jnsgd1na2vs0mg"},{"bike_id":"b6751497-a40a-45f8-83f1-ad7426e2abbb","system_id":"levelo_inurba_marseille","lat":43.311141,"lon":5.3777,"is_reserved":false,"is_disabled":false,"rental_uris":{"android":"levelo://app?vid=b6751497-a40a-45f8-83f1-ad7426e2abbb","ios":"levelo://app?vid=b6751497-a40a-45f8-83f1-ad7426e2abbb"},"vehicle_type_id":"4","last_reported":1753600280,"current_range_meters":11200,"station_id":"ce4bgt92rcd13ifvqcg0","pricing_plan_id":"cebpf4jnsgd1na2vs0mg"},{"bike_id":"4f069cb2-e85f-44ab-8659-b3444c19b657","system_id":"levelo_inurba_marseille","lat":43.231899,"lon":5.355615,"is_reserved":false,"is_disabled":false,"rental_uris":{"android":"levelo://app?vid=4f069cb2-e85f-44ab-8659-b3444c19b657","ios":"levelo://app?vid=4f069cb2-e85f-44ab-8659-b3444c19b657"},"vehicle_type_id":"4","last_reported":1753600280,"current_range_meters":11200,"station_id":"ce4bhu92rcd13ifvqi70","pricing_plan_id":"cebpf4jnsgd1na2vs0mg"},{"bike_id":"61cd7fe3-237f-4708-afc7-dd8a81b4454c","system_id":"levelo_inurba_marseille","lat":43.22935,"lon":5.35364,"is_reserved":false,"is_disabled":false,"rental_uris":{"android":"levelo://app?vid=61cd7fe3-237f-4708-afc7-dd8a81b4454c","ios":"levelo://app?vid=61cd7fe3-237f-4708-afc7-dd8a81b4454c"},"vehicle_type_id":"4","last_reported":1753600280,"current_range_meters":11200,"station_id":"cpo3532slgdg3j2ikp40","pricing_plan_id":"cebpf4jnsgd1na2vs0mg"},{"bike_id":"1bc45126-5a42-4554-aade-2c8d76493896","system_id":"levelo_inurba_marseille","lat":43.3136,"lon":5.384957,"is_reserved":false,"is_disabled":false,"rental_uris":{"android":"levelo://app?vid=1bc45126-5a42-4554-aade-2c8d76493896","ios":"levelo://app?vid=1bc45126-5a42-4554-aade-2c8d76493896"},"vehicle_type_id":"4","last_reported":1753600280,"current_range_meters":11200,"station_id":"ce4bgt92rcd13ifvqcf0","pricing_plan_id":"cebpf4jnsgd1na2vs0mg"},{"bike_id":"3e7f512d-c1e0-49b1-a237-1dd2b80e25e7","system_id":"levelo_inurba_marseille","lat":43.24075,"lon":5.37744,"is_reserved":false,"is_disabled":false,"rental_uris":{"android":"levelo://app?vid=3e7f512d-c1e0-49b1-a237-1dd2b80e25e7","ios":"levelo://app?vid=3e7f512d-c1e0-49b1-a237-1dd2b80e25e7"},"vehicle_type_id":"4","last_reported":1753600280,"current_range_meters":11200,"station_id":"ce4bhnp2rcd13ifvqgvg","pricing_plan_id":"cebpf4jnsgd1na2vs0mg"},{"bike_id":"573c51cb-3b97-449b-8cf3-83f1cf30fc4b","system_id":"levelo_inurba_marseille","lat":43.24167,"lon":5.36391,"is_reserved":false,"is_disabled":false,"rental_uris":{"android":"levelo://app?vid=573c51cb-3b97-449b-8cf3-83f1cf30fc4b","ios":"levelo://app?vid=573c51cb-3b97-449b-8cf3-83f1cf30fc4b"},"vehicle_type_id":"4","last_reported":1753600280,"current_range_meters":11200,"station_id":"cpo36qri1sfpv3e86is0","pricing_plan_id":"cebpf4jnsgd1na2vs0mg"},{"bike_id":"30133404-7504-46d1-a210-93560b553255","system_id":"levelo_inurba_marseille","lat":43.3172,"lon":5.37754,"is_reserved":false,"is_disabled":false,"rental_uris":{"android":"levelo://app?vid=30133404-7504-46d1-a210-93560b553255","ios":"levelo://app?vid=30133404-7504-46d1-a210-93560b553255"},"vehicle_type_id":"4","last_reported":1753600280,"current_range_meters":11200,"station_id":"ce4bgth2rcd13ifvqch0","pricing_plan_id":"cebpf4jnsgd1na2vs0mg"},{"bike_id":"0629e191-9bdb-4f9b-b2c7-fbf450dadc9d","system_id":"levelo_inurba_marseille","lat":43.22928,"lon":5.35368,"is_reserved":false,"is_disabled":false,"rental_uris":{"android":"levelo://app?vid=0629e191-9bdb-4f9b-b2c7-fbf450dadc9d","ios":"levelo://app?vid=0629e191-9bdb-4f9b-b2c7-fbf450dadc9d"},"vehicle_type_id":"4","last_reported":1753600280,"current_range_meters":11200,"station_id":"cpo3532slgdg3j2ikp40","pricing_plan_id":"cebpf4jnsgd1na2vs0mg"},{"bike_id":"7e65c5ea-0429-45f5-a396-bd32e67f0744","system_id":"levelo_inurba_marseille","lat":43.33475,"lon":5.40047,"is_reserved":false,"is_disabled":false,"rental_uris":{"android":"levelo://app?vid=7e65c5ea-0429-45f5-a396-bd32e67f0744","ios":"levelo://app?vid=7e65c5ea-0429-45f5-a396-bd32e67f0744"},"vehicle_type_id":"4","last_reported":1753600280,"current_range_meters":11200,"station_id":"","pricing_plan_id":"cebpf4jnsgd1na2vs0mg"},{"bike_id":"fc3636ac-7d26-4c05-a8bc-a81db8b8f38d","system_id":"levelo_inurba_marseille","lat":43.29193,"lon":5.3579,"is_reserved":false,"is_disabled":false,"rental_uris":{"android":"levelo://app?vid=fc3636ac-7d26-4c05-a8bc-a81db8b8f38d","ios":"levelo://app?vid=fc3636ac-7d26-4c05-a8bc-a81db8b8f38d"},"vehicle_type_id":"4","last_reported":1753600280,"current_range_meters":11600,"station_id":"ce4bhb12rcd13ifvqel0","pricing_plan_id":"cebpf4jnsgd1na2vs0mg"},{"bike_id":"7a44f089-675f-46b0-ba24-53a7919e8bcc","system_id":"levelo_inurba_marseille","lat":43.29257,"lon":5.40904,"is_reserved":false,"is_disabled":false,"rental_uris":{"android":"levelo://app?vid=7a44f089-675f-46b0-ba24-53a7919e8bcc","ios":"levelo://app?vid=7a44f089-675f-46b0-ba24-53a7919e8bcc"},"vehicle_type_id":"4","last_reported":1753600280,"current_range_meters":11200,"station_id":"ce4bh192rcd13ifvqdc0","pricing_plan_id":"cebpf4jnsgd1na2vs0mg"},{"bike_id":"d5a63dee-a415-40f6-88a8-f1d25d6ddaa1","system_id":"levelo_inurba_marseille","lat":43.290311,"lon":5.399895,"is_reserved":false,"is_disabled":true,"rental_uris":{"android":"levelo://app?vid=d5a63dee-a415-40f6-88a8-f1d25d6ddaa1","ios":"levelo://app?vid=d5a63dee-a415-40f6-88a8-f1d25d6ddaa1"},"vehicle_type_id":"4","last_reported":1753600280,"current_range_meters":11600,"station_id":"ce4bh392rcd13ifvqdm0","pricing_plan_id":"cebpf4jnsgd1na2vs0mg"},{"bike_id":"f3d9f4e3-18e1-46b0-943e-1414afeca2da","system_id":"levelo_inurba_marseille","lat":43.22938,"lon":5.35365,"is_reserved":false,"is_disabled":false,"rental_uris":{"android":"levelo://app?vid=f3d9f4e3-18e1-46b0-943e-1414afeca2da","ios":"levelo://app?vid=f3d9f4e3-18e1-46b0-943e-1414afeca2da"},"vehicle_type_id":"4","last_reported":1753600280,"current_range_meters":11600,"station_id":"cpo3532slgdg3j2ikp40","pricing_plan_id":"cebpf4jnsgd1na2vs0mg"},{"bike_id":"02cab979-ccb2-40ce-bd89-cd624415fc04","system_id":"levelo_inurba_marseille","lat":43.277751,"lon":5.39939,"is_reserved":false,"is_disabled":false,"rental_uris":{"android":"levelo://app?vid=02cab979-ccb2-40ce-bd89-cd624415fc04","ios":"levelo://app?vid=02cab979-ccb2-40ce-bd89-cd624415fc04"},"vehicle_type_id":"4","last_reported":1753600280,"current_range_meters":11600,"station_id":"","pricing_plan_id":"cebpf4jnsgd1na2vs0mg"},{"bike_id":"c5794c7a-bb35-409f-9175-7d8933c8fd68","system_id":"levelo_inurba_marseille","lat":43.3111,"lon":5.39627,"is_reserved":false,"is_disabled":false,"rental_uris":{"android":"levelo://app?vid=c5794c7a-bb35-409f-9175-7d8933c8fd68","ios":"levelo://app?vid=c5794c7a-bb35-409f-9175-7d8933c8fd68"},"vehicle_type_id":"4","last_reported":1753600280,"current_range_meters":11600,"station_id":"","pricing_plan_id":"cebpf4jnsgd1na2vs0mg"},{"bike_id":"a1d5115b-997f-44a5-8b4b-21cb29757407","system_id":"levelo_inurba_marseille","lat":43.312088,"lon":5.373127,"is_reserved":false,"is_disabled":false,"rental_uris":{"android":"levelo://app?vid=a1d5115b-997f-44a5-8b4b-21cb29757407","ios":"levelo://app?vid=a1d5115b-997f-44a5-8b4b-21cb29757407"},"vehicle_type_id":"4","last_reported":1753600280,"current_range_meters":11600,"station_id":"","pricing_plan_id":"cebpf4jnsgd1na2vs0mg"},{"bike_id":"898d1f8e-e261-4f25-9386-a6825028d102","system_id":"levelo_inurba_marseille","lat":43.290677,"lon":5.473483,"is_reserved":false,"is_disabled":false,"rental_uris":{"android":"levelo://app?vid=898d1f8e-e261-4f25-9386-a6825028d102","ios":"levelo://app?vid=898d1f8e-e261-4f25-9386-a6825028d102"},"vehicle_type_id":"4","last_reported":1753600280,"current_range_meters":12000,"station_id":"","pricing_plan_id":"cebpf4jnsgd1na2vs0mg"},{"bike_id":"54405b04-0f04-4c64-af8f-9ccbb34ae9ba","system_id":"levelo_inurba_marseille","lat":43.280335,"lon":5.369464,"is_reserved":false,"is_disabled":false,"rental_uris":{"android":"levelo://app?vid=54405b04-0f04-4c64-af8f-9ccbb34ae9ba","ios":"levelo://app?vid=54405b04-0f04-4c64-af8f-9ccbb34ae9ba"},"vehicle_type_id":"4","last_reported":1753600280,"current_range_meters":12000,"station_id":"ce4bha12rcd13ifvqef0","pricing_plan_id":"cebpf4jnsgd1na2vs0mg"},{"bike_id":"b895b54e-07d8-473e-85aa-63378254c806","system_id":"levelo_inurba_marseille","lat":43.22918,"lon":5.35381,"is_reserved":false,"is_disabled":false,"rental_uris":{"android":"levelo://app?vid=b895b54e-07d8-473e-85aa-63378254c806","ios":"levelo://app?vid=b895b54e-07d8-473e-85aa-63378254c806"},"vehicle_type_id":"4","last_reported":1753600280,"current_range_meters":12000,"station_id":"cpo3532slgdg3j2ikp40","pricing_plan_id":"cebpf4jnsgd1na2vs0mg"},{"bike_id":"1e5c96a6-9d0f-4d5f-85ef-5a5f8ac0317a","system_id":"levelo_inurba_marseille","lat":43.33439,"lon":5.39095,"is_reserved":false,"is_disabled":false,"rental_uris":{"android":"levelo://app?vid=1e5c96a6-9d0f-4d5f-85ef-5a5f8ac0317a","ios":"levelo://app?vid=1e5c96a6-9d0f-4d5f-85ef-5a5f8ac0317a"},"vehicle_type_id":"4","last_reported":1753600280,"current_range_meters":12000,"station_id":"","pricing_plan_id":"cebpf4jnsgd1na2vs0mg"},{"bike_id":"9188366a-c6a3-4354-b558-553177316347","system_id":"levelo_inurba_marseille","lat":43.2624,"lon":5.37424,"is_reserved":false,"is_disabled":true,"rental_uris":{"android":"levelo://app?vid=9188366a-c6a3-4354-b558-553177316347","ios":"levelo://app?vid=9188366a-c6a3-4354-b558-553177316347"},"vehicle_type_id":"4","last_reported":1753600280,"current_range_meters":12000,"station_id":"","pricing_plan_id":"cebpf4jnsgd1na2vs0mg"},{"bike_id":"a7d896f9-ed90-400f-b521-60f094bf2ab7","system_id":"levelo_inurba_marseille","lat":43.21193,"lon":5.35046,"is_reserved":false,"is_disabled":false,"rental_uris":{"android":"levelo://app?vid=a7d896f9-ed90-400f-b521-60f094bf2ab7","ios":"levelo://app?vid=a7d896f9-ed90-400f-b521-60f094bf2ab7"},"vehicle_type_id":"4","last_reported":1753600280,"current_range_meters":12400,"station_id":"st_cvj6sg6p6f1abm77japg","pricing_plan_id":"cebpf4jnsgd1na2vs0mg"},{"bike_id":"690bdb28-ab22-4b3f-846e-0b505f9cd023","system_id":"levelo_inurba_marseille","lat":43.284839,"lon":5.38424,"is_reserved":false,"is_disabled":false,"rental_uris":{"android":"levelo://app?vid=690bdb28-ab22-4b3f-846e-0b505f9cd023","ios":"levelo://app?vid=690bdb28-ab22-4b3f-846e-0b505f9cd023"},"vehicle_type_id":"4","last_reported":1753600280,"current_range_meters":12400,"station_id":"ce4bh512rcd13ifvqe3g","pricing_plan_id":"cebpf4jnsgd1na2vs0mg"},{"bike_id":"706555d6-f7d3-481b-bda9-1c4099510dc4","system_id":"levelo_inurba_marseille","lat":43.229281,"lon":5.353799,"is_reserved":false,"is_disabled":false,"rental_uris":{"android":"levelo://app?vid=706555d6-f7d3-481b-bda9-1c4099510dc4","ios":"levelo://app?vid=706555d6-f7d3-481b-bda9-1c4099510dc4"},"vehicle_type_id":"4","last_reported":1753600280,"current_range_meters":12400,"station_id":"cpo3532slgdg3j2ikp40","pricing_plan_id":"cebpf4jnsgd1na2vs0mg"},{"bike_id":"9dfdeb8a-ee13-4931-94b4-ad2b5f23aa4b","system_id":"levelo_inurba_marseille","lat":43.23177,"lon":5.4,"is_reserved":false,"is_disabled":true,"rental_uris":{"android":"levelo://app?vid=9dfdeb8a-ee13-4931-94b4-ad2b5f23aa4b","ios":"levelo://app?vid=9dfdeb8a-ee13-4931-94b4-ad2b5f23aa4b"},"vehicle_type_id":"4","last_reported":1753600280,"current_range_meters":12400,"station_id":"ce4bhn12rcd13ifvqgqg","pricing_plan_id":"cebpf4jnsgd1na2vs0mg"},{"bike_id":"bdc8ef21-146d-46ff-9c91-249dba0037c7","system_id":"levelo_inurba_marseille","lat":43.22924,"lon":5.35374,"is_reserved":false,"is_disabled":false,"rental_uris":{"android":"levelo://app?vid=bdc8ef21-146d-46ff-9c91-249dba0037c7","ios":"levelo://app?vid=bdc8ef21-146d-46ff-9c91-249dba0037c7"},"vehicle_type_id":"4","last_reported":1753600280,"current_range_meters":12400,"station_id":"cpo3532slgdg3j2ikp40","pricing_plan_id":"cebpf4jnsgd1na2vs0mg"},{"bike_id":"a05343f6-5345-451e-92c9-8d14b4ec04eb","system_id":"levelo_inurba_marseille","lat":43.314919,"lon":5.373082,"is_reserved":false,"is_disabled":false,"rental_uris":{"android":"levelo://app?vid=a05343f6-5345-451e-92c9-8d14b4ec04eb","ios":"levelo://app?vid=a05343f6-5345-451e-92c9-8d14b4ec04eb"},"vehicle_type_id":"4","last_reported":1753600280,"current_range_meters":12400,"station_id":"","pricing_plan_id":"cebpf4jnsgd1na2vs0mg"},{"bike_id":"28c1ca6c-120f-4c6d-9d5b-3bf2970c88bb","system_id":"levelo_inurba_marseille","lat":43.298235,"lon":5.376573,"is_reserved":false,"is_disabled":false,"rental_uris":{"android":"levelo://app?vid=28c1ca6c-120f-4c6d-9d5b-3bf2970c88bb","ios":"levelo://app?vid=28c1ca6c-120f-4c6d-9d5b-3bf2970c88bb"},"vehicle_type_id":"4","last_reported":1753600280,"current_range_meters":12400,"station_id":"","pricing_plan_id":"cebpf4jnsgd1na2vs0mg"},{"bike_id":"43dbc09e-d0e4-4ddb-bafe-4f55874d23a9","system_id":"levelo_inurba_marseille","lat":43.30239,"lon":5.38233,"is_reserved":false,"is_disabled":false,"rental_uris":{"android":"levelo://app?vid=43dbc09e-d0e4-4ddb-bafe-4f55874d23a9","ios":"levelo://app?vid=43dbc09e-d0e4-4ddb-bafe-4f55874d23a9"},"vehicle_type_id":"4","last_reported":1753600280,"current_range_meters":12400,"station_id":"","pricing_plan_id":"cebpf4jnsgd1na2vs0mg"},{"bike_id":"2fdc39d0-1145-410a-9228-33ea9620b500","system_id":"levelo_inurba_marseille","lat":43.30149,"lon":5.38079,"is_reserved":false,"is_disabled":false,"rental_uris":{"android":"levelo://app?vid=2fdc39d0-1145-410a-9228-33ea9620b500","ios":"levelo://app?vid=2fdc39d0-1145-410a-9228-33ea9620b500"},"vehicle_type_id":"4","last_reported":1753600280,"current_range_meters":12400,"station_id":"ce4bgjp2rcd13ifvqbh0","pricing_plan_id":"cebpf4jnsgd1na2vs0mg"},{"bike_id":"bedd5d41-2a79-468d-b057-cdbc0e80362b","system_id":"levelo_inurba_marseille","lat":43.292586,"lon":5.409009,"is_reserved":false,"is_disabled":false,"rental_uris":{"android":"levelo://app?vid=bedd5d41-2a79-468d-b057-cdbc0e80362b","ios":"levelo://app?vid=bedd5d41-2a79-468d-b057-cdbc0e80362b"},"vehicle_type_id":"4","last_reported":1753600280,"current_range_meters":12800,"station_id":"ce4bh192rcd13ifvqdc0","pricing_plan_id":"cebpf4jnsgd1na2vs0mg"},{"bike_id":"1a8dca22-c656-4807-8819-ff03a2da9bf4","system_id":"levelo_inurba_marseille","lat":43.310768,"lon":5.383537,"is_reserved":false,"is_disabled":false,"rental_uris":{"android":"levelo://app?vid=1a8dca22-c656-4807-8819-ff03a2da9bf4","ios":"levelo://app?vid=1a8dca22-c656-4807-8819-ff03a2da9bf4"},"vehicle_type_id":"4","last_reported":1753600280,"current_range_meters":12800,"station_id":"ce4bgv92rcd13ifvqcr0","pricing_plan_id":"cebpf4jnsgd1na2vs0mg"},{"bike_id":"ec370b31-cc55-499b-a9ad-82a32cff8b80","system_id":"levelo_inurba_marseille","lat":43.30321,"lon":5.40427,"is_reserved":false,"is_disabled":false,"rental_uris":{"android":"levelo://app?vid=ec370b31-cc55-499b-a9ad-82a32cff8b80","ios":"levelo://app?vid=ec370b31-cc55-499b-a9ad-82a32cff8b80"},"vehicle_type_id":"4","last_reported":1753600280,"current_range_meters":12800,"station_id":"ce4bh012rcd13ifvqd10","pricing_plan_id":"cebpf4jnsgd1na2vs0mg"},{"bike_id":"1533361c-c8b0-46c4-bb07-47847e110ffc","system_id":"levelo_inurba_marseille","lat":43.281594,"lon":5.426417,"is_reserved":false,"is_disabled":false,"rental_uris":{"android":"levelo://app?vid=1533361c-c8b0-46c4-bb07-47847e110ffc","ios":"levelo://app?vid=1533361c-c8b0-46c4-bb07-47847e110ffc"},"vehicle_type_id":"4","last_reported":1753600280,"current_range_meters":12800,"station_id":"ce4bhnh2rcd13ifvqgug","pricing_plan_id":"cebpf4jnsgd1na2vs0mg"},{"bike_id":"c9fcf720-9aa1-454f-a5fe-0fef884d4245","system_id":"levelo_inurba_marseille","lat":43.31687,"lon":5.40474,"is_reserved":false,"is_disabled":false,"rental_uris":{"android":"levelo://app?vid=c9fcf720-9aa1-454f-a5fe-0fef884d4245","ios":"levelo://app?vid=c9fcf720-9aa1-454f-a5fe-0fef884d4245"},"vehicle_type_id":"4","last_reported":1753600280,"current_range_meters":13600,"station_id":"ce4bh012rcd13ifvqd00","pricing_plan_id":"cebpf4jnsgd1na2vs0mg"},{"bike_id":"b9539560-62f7-48e2-9b5b-93f2915f3a7b","system_id":"levelo_inurba_marseille","lat":43.2869,"lon":5.37616,"is_reserved":false,"is_disabled":false,"rental_uris":{"android":"levelo://app?vid=b9539560-62f7-48e2-9b5b-93f2915f3a7b","ios":"levelo://app?vid=b9539560-62f7-48e2-9b5b-93f2915f3a7b"},"vehicle_type_id":"4","last_reported":1753600280,"current_range_meters":13600,"station_id":"","pricing_plan_id":"cebpf4jnsgd1na2vs0mg"},{"bike_id":"adbc006e-c51d-4434-863c-610344ea30cd","system_id":"levelo_inurba_marseille","lat":43.21746,"lon":5.34597,"is_reserved":false,"is_disabled":true,"rental_uris":{"android":"levelo://app?vid=adbc006e-c51d-4434-863c-610344ea30cd","ios":"levelo://app?vid=adbc006e-c51d-4434-863c-610344ea30cd"},"vehicle_type_id":"4","last_reported":1753600280,"current_range_meters":13600,"station_id":"st_cvj6r9ubvosntc0bgbag","pricing_plan_id":"cebpf4jnsgd1na2vs0mg"},{"bike_id":"8d801f83-3686-49fa-a7fd-3701c57be20d","system_id":"levelo_inurba_marseille","lat":43.2407,"lon":5.37748,"is_reserved":false,"is_disabled":false,"rental_uris":{"android":"levelo://app?vid=8d801f83-3686-49fa-a7fd-3701c57be20d","ios":"levelo://app?vid=8d801f83-3686-49fa-a7fd-3701c57be20d"},"vehicle_type_id":"4","last_reported":1753600280,"current_range_meters":13600,"station_id":"ce4bhnp2rcd13ifvqgvg","pricing_plan_id":"cebpf4jnsgd1na2vs0mg"},{"bike_id":"cbd3c835-3646-48da-a31a-110bb275e07a","system_id":"levelo_inurba_marseille","lat":43.28608,"lon":5.37053,"is_reserved":false,"is_disabled":false,"rental_uris":{"android":"levelo://app?vid=cbd3c835-3646-48da-a31a-110bb275e07a","ios":"levelo://app?vid=cbd3c835-3646-48da-a31a-110bb275e07a"},"vehicle_type_id":"4","last_reported":1753600280,"current_range_meters":14000,"station_id":"ce4bht12rcd13ifvqi60","pricing_plan_id":"cebpf4jnsgd1na2vs0mg"},{"bike_id":"6a0157f9-1e4d-4729-8e5d-9ab142c0ff1e","system_id":"levelo_inurba_marseille","lat":43.29889,"lon":5.39742,"is_reserved":false,"is_disabled":false,"rental_uris":{"android":"levelo://app?vid=6a0157f9-1e4d-4729-8e5d-9ab142c0ff1e","ios":"levelo://app?vid=6a0157f9-1e4d-4729-8e5d-9ab142c0ff1e"},"vehicle_type_id":"4","last_reported":1753600280,"current_range_meters":14000,"station_id":"ce4bh0h2rcd13ifvqd50","pricing_plan_id":"cebpf4jnsgd1na2vs0mg"},{"bike_id":"63e1804c-7034-4d3a-b7fd-0a9682fa11f7","system_id":"levelo_inurba_marseille","lat":43.30739,"lon":5.42424,"is_reserved":false,"is_disabled":false,"rental_uris":{"android":"levelo://app?vid=63e1804c-7034-4d3a-b7fd-0a9682fa11f7","ios":"levelo://app?vid=63e1804c-7034-4d3a-b7fd-0a9682fa11f7"},"vehicle_type_id":"4","last_reported":1753600280,"current_range_meters":14000,"station_id":"st_cvj6ca6bvosntc0bfgr0","pricing_plan_id":"cebpf4jnsgd1na2vs0mg"},{"bike_id":"c23df043-d598-4a2a-a0ec-87b67e9647eb","system_id":"levelo_inurba_marseille","lat":43.29098,"lon":5.38147,"is_reserved":false,"is_disabled":true,"rental_uris":{"android":"levelo://app?vid=c23df043-d598-4a2a-a0ec-87b67e9647eb","ios":"levelo://app?vid=c23df043-d598-4a2a-a0ec-87b67e9647eb"},"vehicle_type_id":"4","last_reported":1753600280,"current_range_meters":14000,"station_id":"ce4bh512rcd13ifvqe2g","pricing_plan_id":"cebpf4jnsgd1na2vs0mg"},{"bike_id":"aebdf431-3b97-428a-a9b4-1e35e4b29383","system_id":"levelo_inurba_marseille","lat":43.317079,"lon":5.404367,"is_reserved":false,"is_disabled":false,"rental_uris":{"android":"levelo://app?vid=aebdf431-3b97-428a-a9b4-1e35e4b29383","ios":"levelo://app?vid=aebdf431-3b97-428a-a9b4-1e35e4b29383"},"vehicle_type_id":"4","last_reported":1753600280,"current_range_meters":14000,"station_id":"ce4bh012rcd13ifvqd00","pricing_plan_id":"cebpf4jnsgd1na2vs0mg"},{"bike_id":"e3ed80d3-1465-4162-918b-d2972cea9615","system_id":"levelo_inurba_marseille","lat":43.28289,"lon":5.35058,"is_reserved":false,"is_disabled":false,"rental_uris":{"android":"levelo://app?vid=e3ed80d3-1465-4162-918b-d2972cea9615","ios":"levelo://app?vid=e3ed80d3-1465-4162-918b-d2972cea9615"},"vehicle_type_id":"4","last_reported":1753600280,"current_range_meters":14000,"station_id":"ce4bhbp2rcd13ifvqerg","pricing_plan_id":"cebpf4jnsgd1na2vs0mg"},{"bike_id":"52e396ea-d41c-4e47-942b-62bd162a18d7","system_id":"levelo_inurba_marseille","lat":43.29279,"lon":5.36838,"is_reserved":false,"is_disabled":false,"rental_uris":{"android":"levelo://app?vid=52e396ea-d41c-4e47-942b-62bd162a18d7","ios":"levelo://app?vid=52e396ea-d41c-4e47-942b-62bd162a18d7"},"vehicle_type_id":"4","last_reported":1753600280,"current_range_meters":14000,"station_id":"ce4bhbp2rcd13ifvqesg","pricing_plan_id":"cebpf4jnsgd1na2vs0mg"},{"bike_id":"809b96e7-0b55-471b-a55f-e3ed348af3b1","system_id":"levelo_inurba_marseille","lat":43.2992,"lon":5.37463,"is_reserved":false,"is_disabled":false,"rental_uris":{"android":"levelo://app?vid=809b96e7-0b55-471b-a55f-e3ed348af3b1","ios":"levelo://app?vid=809b96e7-0b55-471b-a55f-e3ed348af3b1"},"vehicle_type_id":"4","last_reported":1753600280,"current_range_meters":14000,"station_id":"ce4bgjh2rcd13ifvqbg0","pricing_plan_id":"cebpf4jnsgd1na2vs0mg"},{"bike_id":"9931c2f7-cb63-42af-810f-97aa98038f74","system_id":"levelo_inurba_marseille","lat":43.28708,"lon":5.39979,"is_reserved":false,"is_disabled":false,"rental_uris":{"android":"levelo://app?vid=9931c2f7-cb63-42af-810f-97aa98038f74","ios":"levelo://app?vid=9931c2f7-cb63-42af-810f-97aa98038f74"},"vehicle_type_id":"4","last_reported":1753600280,"current_range_meters":14400,"station_id":"ce4bho92rcd13ifvqh3g","pricing_plan_id":"cebpf4jnsgd1na2vs0mg"},{"bike_id":"857905f4-fbac-43bd-bfe6-e5e8a2d57bb6","system_id":"levelo_inurba_marseille","lat":43.287052,"lon":5.399814,"is_reserved":false,"is_disabled":false,"rental_uris":{"android":"levelo://app?vid=857905f4-fbac-43bd-bfe6-e5e8a2d57bb6","ios":"levelo://app?vid=857905f4-fbac-43bd-bfe6-e5e8a2d57bb6"},"vehicle_type_id":"4","last_reported":1753600280,"current_range_meters":14400,"station_id":"ce4bho92rcd13ifvqh3g","pricing_plan_id":"cebpf4jnsgd1na2vs0mg"},{"bike_id":"da0dea9a-07a2-4249-aa7c-2489e28d40de","system_id":"levelo_inurba_marseille","lat":43.29683,"lon":5.36229,"is_reserved":false,"is_disabled":false,"rental_uris":{"android":"levelo://app?vid=da0dea9a-07a2-4249-aa7c-2489e28d40de","ios":"levelo://app?vid=da0dea9a-07a2-4249-aa7c-2489e28d40de"},"vehicle_type_id":"4","last_reported":1753600280,"current_range_meters":14800,"station_id":"","pricing_plan_id":"cebpf4jnsgd1na2vs0mg"},{"bike_id":"762045d0-8ca6-4787-ab11-7183b3abf0c1","system_id":"levelo_inurba_marseille","lat":43.28704,"lon":5.37388,"is_reserved":false,"is_disabled":false,"rental_uris":{"android":"levelo://app?vid=762045d0-8ca6-4787-ab11-7183b3abf0c1","ios":"levelo://app?vid=762045d0-8ca6-4787-ab11-7183b3abf0c1"},"vehicle_type_id":"4","last_reported":1753600280,"current_range_meters":14800,"station_id":"ce4bh3p2rcd13ifvqdq0","pricing_plan_id":"cebpf4jnsgd1na2vs0mg"},{"bike_id":"9f5543b8-8f45-4b07-b495-a9a0f2a356ab","system_id":"levelo_inurba_marseille","lat":43.30151,"lon":5.38099,"is_reserved":false,"is_disabled":false,"rental_uris":{"android":"levelo://app?vid=9f5543b8-8f45-4b07-b495-a9a0f2a356ab","ios":"levelo://app?vid=9f5543b8-8f45-4b07-b495-a9a0f2a356ab"},"vehicle_type_id":"4","last_reported":1753600280,"current_range_meters":14800,"station_id":"ce4bgjp2rcd13ifvqbh0","pricing_plan_id":"cebpf4jnsgd1na2vs0mg"},{"bike_id":"a940fd59-4ef0-4a43-8b6c-6f24c2dd6526","system_id":"levelo_inurba_marseille","lat":43.305407,"lon":5.384216,"is_reserved":false,"is_disabled":false,"rental_uris":{"android":"levelo://app?vid=a940fd59-4ef0-4a43-8b6c-6f24c2dd6526","ios":"levelo://app?vid=a940fd59-4ef0-4a43-8b6c-6f24c2dd6526"},"vehicle_type_id":"4","last_reported":1753600280,"current_range_meters":14800,"station_id":"ce4bgg92rcd13ifvqb30","pricing_plan_id":"cebpf4jnsgd1na2vs0mg"},{"bike_id":"40b50140-57d7-4649-a595-901bc273781b","system_id":"levelo_inurba_marseille","lat":43.308824,"lon":5.396405,"is_reserved":false,"is_disabled":false,"rental_uris":{"android":"levelo://app?vid=40b50140-57d7-4649-a595-901bc273781b","ios":"levelo://app?vid=40b50140-57d7-4649-a595-901bc273781b"},"vehicle_type_id":"4","last_reported":1753600280,"current_range_meters":14800,"station_id":"ce4bh012rcd13ifvqcv0","pricing_plan_id":"cebpf4jnsgd1na2vs0mg"},{"bike_id":"8512b265-75e1-49d7-bb7d-bd988c357d7c","system_id":"levelo_inurba_marseille","lat":43.28709,"lon":5.39973,"is_reserved":false,"is_disabled":true,"rental_uris":{"android":"levelo://app?vid=8512b265-75e1-49d7-bb7d-bd988c357d7c","ios":"levelo://app?vid=8512b265-75e1-49d7-bb7d-bd988c357d7c"},"vehicle_type_id":"4","last_reported":1753600280,"current_range_meters":14800,"station_id":"ce4bho92rcd13ifvqh3g","pricing_plan_id":"cebpf4jnsgd1na2vs0mg"},{"bike_id":"fb54fb8d-5151-434b-9b41-657bb2c50009","system_id":"levelo_inurba_marseille","lat":43.32545,"lon":5.41426,"is_reserved":false,"is_disabled":false,"rental_uris":{"android":"levelo://app?vid=fb54fb8d-5151-434b-9b41-657bb2c50009","ios":"levelo://app?vid=fb54fb8d-5151-434b-9b41-657bb2c50009"},"vehicle_type_id":"4","last_reported":1753600280,"current_range_meters":15200,"station_id":"ce4bhq12rcd13ifvqhhg","pricing_plan_id":"cebpf4jnsgd1na2vs0mg"},{"bike_id":"d44de309-2133-47ca-892d-2a318467e55f","system_id":"levelo_inurba_marseille","lat":43.312749,"lon":5.401684,"is_reserved":false,"is_disabled":false,"rental_uris":{"android":"levelo://app?vid=d44de309-2133-47ca-892d-2a318467e55f","ios":"levelo://app?vid=d44de309-2133-47ca-892d-2a318467e55f"},"vehicle_type_id":"4","last_reported":1753600280,"current_range_meters":15200,"station_id":"ce4bh092rcd13ifvqd30","pricing_plan_id":"cebpf4jnsgd1na2vs0mg"},{"bike_id":"e666153e-0d94-49fc-a285-a6a2347ef6ad","system_id":"levelo_inurba_marseille","lat":43.269646,"lon":5.385915,"is_reserved":false,"is_disabled":true,"rental_uris":{"android":"levelo://app?vid=e666153e-0d94-49fc-a285-a6a2347ef6ad","ios":"levelo://app?vid=e666153e-0d94-49fc-a285-a6a2347ef6ad"},"vehicle_type_id":"4","last_reported":1753600280,"current_range_meters":15200,"station_id":"ce4bhh92rcd13ifvqfh0","pricing_plan_id":"cebpf4jnsgd1na2vs0mg"},{"bike_id":"690e58e2-f4a9-4881-b497-ca12c6a89ba5","system_id":"levelo_inurba_marseille","lat":43.30363,"lon":5.42463,"is_reserved":false,"is_disabled":false,"rental_uris":{"android":"levelo://app?vid=690e58e2-f4a9-4881-b497-ca12c6a89ba5","ios":"levelo://app?vid=690e58e2-f4a9-4881-b497-ca12c6a89ba5"},"vehicle_type_id":"4","last_reported":1753600280,"current_range_meters":15200,"station_id":"ce4bhoh2rcd13ifvqh6g","pricing_plan_id":"cebpf4jnsgd1na2vs0mg"},{"bike_id":"62e4f384-a69f-4285-9553-29178195efe4","system_id":"levelo_inurba_marseille","lat":43.31062,"lon":5.38345,"is_reserved":false,"is_disabled":false,"rental_uris":{"android":"levelo://app?vid=62e4f384-a69f-4285-9553-29178195efe4","ios":"levelo://app?vid=62e4f384-a69f-4285-9553-29178195efe4"},"vehicle_type_id":"4","last_reported":1753600280,"current_range_meters":16000,"station_id":"ce4bgv92rcd13ifvqcr0","pricing_plan_id":"cebpf4jnsgd1na2vs0mg"},{"bike_id":"484ce80f-12be-41fa-9586-784b84db2ffe","system_id":"levelo_inurba_marseille","lat":43.2481,"lon":5.37458,"is_reserved":false,"is_disabled":false,"rental_uris":{"android":"levelo://app?vid=484ce80f-12be-41fa-9586-784b84db2ffe","ios":"levelo://app?vid=484ce80f-12be-41fa-9586-784b84db2ffe"},"vehicle_type_id":"4","last_reported":1753600280,"current_range_meters":16000,"station_id":"ce4bhgh2rcd13ifvqfb0","pricing_plan_id":"cebpf4jnsgd1na2vs0mg"},{"bike_id":"b64dad25-8e0d-4258-bfd2-304c64c6d313","system_id":"levelo_inurba_marseille","lat":43.317349,"lon":5.37729,"is_reserved":false,"is_disabled":false,"rental_uris":{"android":"levelo://app?vid=b64dad25-8e0d-4258-bfd2-304c64c6d313","ios":"levelo://app?vid=b64dad25-8e0d-4258-bfd2-304c64c6d313"},"vehicle_type_id":"4","last_reported":1753600280,"current_range_meters":16000,"station_id":"ce4bgth2rcd13ifvqch0","pricing_plan_id":"cebpf4jnsgd1na2vs0mg"},{"bike_id":"55661540-733b-4bd0-ad5d-bb688398f06e","system_id":"levelo_inurba_marseille","lat":43.22511,"lon":5.34783,"is_reserved":false,"is_disabled":false,"rental_uris":{"android":"levelo://app?vid=55661540-733b-4bd0-ad5d-bb688398f06e","ios":"levelo://app?vid=55661540-733b-4bd0-ad5d-bb688398f06e"},"vehicle_type_id":"4","last_reported":1753600280,"current_range_meters":16000,"station_id":"st_cvj5dfep6f1abm77gieg","pricing_plan_id":"cebpf4jnsgd1na2vs0mg"},{"bike_id":"06c069f2-cc3e-41de-9e00-6787f3105285","system_id":"levelo_inurba_marseille","lat":43.292513,"lon":5.408999,"is_reserved":false,"is_disabled":false,"rental_uris":{"android":"levelo://app?vid=06c069f2-cc3e-41de-9e00-6787f3105285","ios":"levelo://app?vid=06c069f2-cc3e-41de-9e00-6787f3105285"},"vehicle_type_id":"4","last_reported":1753600280,"current_range_meters":16000,"station_id":"ce4bh192rcd13ifvqdc0","pricing_plan_id":"cebpf4jnsgd1na2vs0mg"},{"bike_id":"8c4ba3d1-fbad-456c-a3ea-f0a55e402980","system_id":"levelo_inurba_marseille","lat":43.28864,"lon":5.35851,"is_reserved":false,"is_disabled":false,"rental_uris":{"android":"levelo://app?vid=8c4ba3d1-fbad-456c-a3ea-f0a55e402980","ios":"levelo://app?vid=8c4ba3d1-fbad-456c-a3ea-f0a55e402980"},"vehicle_type_id":"4","last_reported":1753600280,"current_range_meters":16000,"station_id":"ce4bhb12rcd13ifvqem0","pricing_plan_id":"cebpf4jnsgd1na2vs0mg"},{"bike_id":"687dd01b-2a1d-44cd-9069-917f4f3529ae","system_id":"levelo_inurba_marseille","lat":43.30304,"lon":5.36896,"is_reserved":false,"is_disabled":false,"rental_uris":{"android":"levelo://app?vid=687dd01b-2a1d-44cd-9069-917f4f3529ae","ios":"levelo://app?vid=687dd01b-2a1d-44cd-9069-917f4f3529ae"},"vehicle_type_id":"4","last_reported":1753600280,"current_range_meters":16400,"station_id":"ce4bgqh2rcd13ifvqc5g","pricing_plan_id":"cebpf4jnsgd1na2vs0mg"},{"bike_id":"70381b97-b2ee-4f26-8f16-caf046608e7f","system_id":"levelo_inurba_marseille","lat":43.279982,"lon":5.400084,"is_reserved":false,"is_disabled":true,"rental_uris":{"android":"levelo://app?vid=70381b97-b2ee-4f26-8f16-caf046608e7f","ios":"levelo://app?vid=70381b97-b2ee-4f26-8f16-caf046608e7f"},"vehicle_type_id":"4","last_reported":1753600280,"current_range_meters":16400,"station_id":"ce4bho92rcd13ifvqh4g","pricing_plan_id":"cebpf4jnsgd1na2vs0mg"},{"bike_id":"37a5c024-c5d2-470a-ba5d-2631f91bf7cf","system_id":"levelo_inurba_marseille","lat":43.31119,"lon":5.37764,"is_reserved":false,"is_disabled":false,"rental_uris":{"android":"levelo://app?vid=37a5c024-c5d2-470a-ba5d-2631f91bf7cf","ios":"levelo://app?vid=37a5c024-c5d2-470a-ba5d-2631f91bf7cf"},"vehicle_type_id":"4","last_reported":1753600280,"current_range_meters":16400,"station_id":"ce4bgt92rcd13ifvqcg0","pricing_plan_id":"cebpf4jnsgd1na2vs0mg"},{"bike_id":"63fbea1b-2b40-4aee-afa7-a9c9dcf79dc3","system_id":"levelo_inurba_marseille","lat":43.23157,"lon":5.40002,"is_reserved":false,"is_disabled":false,"rental_uris":{"android":"levelo://app?vid=63fbea1b-2b40-4aee-afa7-a9c9dcf79dc3","ios":"levelo://app?vid=63fbea1b-2b40-4aee-afa7-a9c9dcf79dc3"},"vehicle_type_id":"4","last_reported":1753600280,"current_range_meters":16400,"station_id":"ce4bhn12rcd13ifvqgqg","pricing_plan_id":"cebpf4jnsgd1na2vs0mg"},{"bike_id":"a08db877-a69e-46c8-b5c7-592facf74a8b","system_id":"levelo_inurba_marseille","lat":43.30116,"lon":5.38786,"is_reserved":false,"is_disabled":false,"rental_uris":{"android":"levelo://app?vid=a08db877-a69e-46c8-b5c7-592facf74a8b","ios":"levelo://app?vid=a08db877-a69e-46c8-b5c7-592facf74a8b"},"vehicle_type_id":"4","last_reported":1753600280,"current_range_meters":16800,"station_id":"ce4bghh2rcd13ifvqb60","pricing_plan_id":"cebpf4jnsgd1na2vs0mg"},{"bike_id":"7c5dc5f1-6d19-4bae-8e64-f46388fc2cc5","system_id":"levelo_inurba_marseille","lat":43.30249,"lon":5.40076,"is_reserved":false,"is_disabled":false,"rental_uris":{"android":"levelo://app?vid=7c5dc5f1-6d19-4bae-8e64-f46388fc2cc5","ios":"levelo://app?vid=7c5dc5f1-6d19-4bae-8e64-f46388fc2cc5"},"vehicle_type_id":"4","last_reported":1753600280,"current_range_meters":16800,"station_id":"ce4bgvh2rcd13ifvqcs0","pricing_plan_id":"cebpf4jnsgd1na2vs0mg"},{"bike_id":"b65f4e3b-a4f8-4bac-b64a-9a35477c4f80","system_id":"levelo_inurba_marseille","lat":43.26218,"lon":5.3744,"is_reserved":false,"is_disabled":false,"rental_uris":{"android":"levelo://app?vid=b65f4e3b-a4f8-4bac-b64a-9a35477c4f80","ios":"levelo://app?vid=b65f4e3b-a4f8-4bac-b64a-9a35477c4f80"},"vehicle_type_id":"4","last_reported":1753600280,"current_range_meters":16800,"station_id":"ce4bhgp2rcd13ifvqfc0","pricing_plan_id":"cebpf4jnsgd1na2vs0mg"},{"bike_id":"5de4d1ff-47cd-40a5-ad2e-4b1052508ef8","system_id":"levelo_inurba_marseille","lat":43.32338,"lon":5.40631,"is_reserved":false,"is_disabled":false,"rental_uris":{"android":"levelo://app?vid=5de4d1ff-47cd-40a5-ad2e-4b1052508ef8","ios":"levelo://app?vid=5de4d1ff-47cd-40a5-ad2e-4b1052508ef8"},"vehicle_type_id":"4","last_reported":1753600280,"current_range_meters":16800,"station_id":"ce4bhq92rcd13ifvqhjg","pricing_plan_id":"cebpf4jnsgd1na2vs0mg"},{"bike_id":"e38d01e0-1ddf-49b7-9598-f39cc301a401","system_id":"levelo_inurba_marseille","lat":43.287012,"lon":5.399699,"is_reserved":false,"is_disabled":false,"rental_uris":{"android":"levelo://app?vid=e38d01e0-1ddf-49b7-9598-f39cc301a401","ios":"levelo://app?vid=e38d01e0-1ddf-49b7-9598-f39cc301a401"},"vehicle_type_id":"4","last_reported":1753600280,"current_range_meters":16800,"station_id":"ce4bho92rcd13ifvqh3g","pricing_plan_id":"cebpf4jnsgd1na2vs0mg"},{"bike_id":"48538135-5d0a-49ee-9320-155fbd091354","system_id":"levelo_inurba_marseille","lat":43.25938,"lon":5.40902,"is_reserved":false,"is_disabled":false,"rental_uris":{"android":"levelo://app?vid=48538135-5d0a-49ee-9320-155fbd091354","ios":"levelo://app?vid=48538135-5d0a-49ee-9320-155fbd091354"},"vehicle_type_id":"4","last_reported":1753600280,"current_range_meters":16800,"station_id":"ce4bhm92rcd13ifvqglg","pricing_plan_id":"cebpf4jnsgd1na2vs0mg"},{"bike_id":"702fbc69-7ecf-4ef2-935f-2eb604378010","system_id":"levelo_inurba_marseille","lat":43.30319,"lon":5.40441,"is_reserved":false,"is_disabled":false,"rental_uris":{"android":"levelo://app?vid=702fbc69-7ecf-4ef2-935f-2eb604378010","ios":"levelo://app?vid=702fbc69-7ecf-4ef2-935f-2eb604378010"},"vehicle_type_id":"4","last_reported":1753600280,"current_range_meters":16800,"station_id":"ce4bh012rcd13ifvqd10","pricing_plan_id":"cebpf4jnsgd1na2vs0mg"},{"bike_id":"d8cd6055-23c8-4622-a5bf-68f9b9ebfe53","system_id":"levelo_inurba_marseille","lat":43.27063,"lon":5.42267,"is_reserved":false,"is_disabled":true,"rental_uris":{"android":"levelo://app?vid=d8cd6055-23c8-4622-a5bf-68f9b9ebfe53","ios":"levelo://app?vid=d8cd6055-23c8-4622-a5bf-68f9b9ebfe53"},"vehicle_type_id":"4","last_reported":1753600280,"current_range_meters":16800,"station_id":"ce4bhk92rcd13ifvqgb0","pricing_plan_id":"cebpf4jnsgd1na2vs0mg"},{"bike_id":"56ec8761-dee0-49c1-aba7-a69ac65d386f","system_id":"levelo_inurba_marseille","lat":43.229377,"lon":5.353778,"is_reserved":false,"is_disabled":false,"rental_uris":{"android":"levelo://app?vid=56ec8761-dee0-49c1-aba7-a69ac65d386f","ios":"levelo://app?vid=56ec8761-dee0-49c1-aba7-a69ac65d386f"},"vehicle_type_id":"4","last_reported":1753600280,"current_range_meters":16800,"station_id":"cpo3532slgdg3j2ikp40","pricing_plan_id":"cebpf4jnsgd1na2vs0mg"},{"bike_id":"6c17f6f6-a8d8-4559-a952-a479db4a8339","system_id":"levelo_inurba_marseille","lat":43.23193,"lon":5.35551,"is_reserved":false,"is_disabled":false,"rental_uris":{"android":"levelo://app?vid=6c17f6f6-a8d8-4559-a952-a479db4a8339","ios":"levelo://app?vid=6c17f6f6-a8d8-4559-a952-a479db4a8339"},"vehicle_type_id":"4","last_reported":1753600280,"current_range_meters":16800,"station_id":"ce4bhu92rcd13ifvqi70","pricing_plan_id":"cebpf4jnsgd1na2vs0mg"},{"bike_id":"9306cb98-ff63-47ed-9064-9c9a8b611a79","system_id":"levelo_inurba_marseille","lat":43.29643,"lon":5.37316,"is_reserved":false,"is_disabled":false,"rental_uris":{"android":"levelo://app?vid=9306cb98-ff63-47ed-9064-9c9a8b611a79","ios":"levelo://app?vid=9306cb98-ff63-47ed-9064-9c9a8b611a79"},"vehicle_type_id":"4","last_reported":1753600280,"current_range_meters":16800,"station_id":"ce4bgk12rcd13ifvqbj0","pricing_plan_id":"cebpf4jnsgd1na2vs0mg"},{"bike_id":"bf40b6a7-961a-4734-a48d-9c22b6181bd8","system_id":"levelo_inurba_marseille","lat":43.29288,"lon":5.40904,"is_reserved":false,"is_disabled":false,"rental_uris":{"android":"levelo://app?vid=bf40b6a7-961a-4734-a48d-9c22b6181bd8","ios":"levelo://app?vid=bf40b6a7-961a-4734-a48d-9c22b6181bd8"},"vehicle_type_id":"4","last_reported":1753600280,"current_range_meters":16800,"station_id":"ce4bh192rcd13ifvqdc0","pricing_plan_id":"cebpf4jnsgd1na2vs0mg"},{"bike_id":"a9504c9d-7518-4bac-b2a8-fec9ea3d9cd0","system_id":"levelo_inurba_marseille","lat":43.23063,"lon":5.35493,"is_reserved":false,"is_disabled":false,"rental_uris":{"android":"levelo://app?vid=a9504c9d-7518-4bac-b2a8-fec9ea3d9cd0","ios":"levelo://app?vid=a9504c9d-7518-4bac-b2a8-fec9ea3d9cd0"},"vehicle_type_id":"4","last_reported":1753600280,"current_range_meters":16800,"station_id":"cpo3342slgdg3j2ifvpg","pricing_plan_id":"cebpf4jnsgd1na2vs0mg"},{"bike_id":"6f4f77f3-f698-45c8-b168-3bd095af11b2","system_id":"levelo_inurba_marseille","lat":43.299318,"lon":5.3754,"is_reserved":false,"is_disabled":false,"rental_uris":{"android":"levelo://app?vid=6f4f77f3-f698-45c8-b168-3bd095af11b2","ios":"levelo://app?vid=6f4f77f3-f698-45c8-b168-3bd095af11b2"},"vehicle_type_id":"4","last_reported":1753600280,"current_range_meters":16800,"station_id":"ce4bgjh2rcd13ifvqbg0","pricing_plan_id":"cebpf4jnsgd1na2vs0mg"},{"bike_id":"21aa107a-bf62-4e00-bfde-e3a216054615","system_id":"levelo_inurba_marseille","lat":43.30142,"lon":5.38081,"is_reserved":false,"is_disabled":false,"rental_uris":{"android":"levelo://app?vid=21aa107a-bf62-4e00-bfde-e3a216054615","ios":"levelo://app?vid=21aa107a-bf62-4e00-bfde-e3a216054615"},"vehicle_type_id":"4","last_reported":1753600280,"current_range_meters":16800,"station_id":"ce4bgjp2rcd13ifvqbh0","pricing_plan_id":"cebpf4jnsgd1na2vs0mg"},{"bike_id":"3152576e-d602-4c3f-980e-717f41aed773","system_id":"levelo_inurba_marseille","lat":43.33737,"lon":5.37465,"is_reserved":false,"is_disabled":false,"rental_uris":{"android":"levelo://app?vid=3152576e-d602-4c3f-980e-717f41aed773","ios":"levelo://app?vid=3152576e-d602-4c3f-980e-717f41aed773"},"vehicle_type_id":"4","last_reported":1753600280,"current_range_meters":16800,"station_id":"","pricing_plan_id":"cebpf4jnsgd1na2vs0mg"},{"bike_id":"afeeba2b-a9f8-4f97-8963-950fdfe79f1b","system_id":"levelo_inurba_marseille","lat":43.31689,"lon":5.40472,"is_reserved":false,"is_disabled":false,"rental_uris":{"android":"levelo://app?vid=afeeba2b-a9f8-4f97-8963-950fdfe79f1b","ios":"levelo://app?vid=afeeba2b-a9f8-4f97-8963-950fdfe79f1b"},"vehicle_type_id":"4","last_reported":1753600280,"current_range_meters":17200,"station_id":"ce4bh012rcd13ifvqd00","pricing_plan_id":"cebpf4jnsgd1na2vs0mg"},{"bike_id":"cefaf313-76a2-46ed-93b0-1824639624fa","system_id":"levelo_inurba_marseille","lat":43.29288,"lon":5.40177,"is_reserved":false,"is_disabled":false,"rental_uris":{"android":"levelo://app?vid=cefaf313-76a2-46ed-93b0-1824639624fa","ios":"levelo://app?vid=cefaf313-76a2-46ed-93b0-1824639624fa"},"vehicle_type_id":"4","last_reported":1753600280,"current_range_meters":17200,"station_id":"ce4bh312rcd13ifvqdk0","pricing_plan_id":"cebpf4jnsgd1na2vs0mg"},{"bike_id":"e347e191-2146-4139-b8f3-fb84c59c2ce7","system_id":"levelo_inurba_marseille","lat":43.23201,"lon":5.39954,"is_reserved":false,"is_disabled":false,"rental_uris":{"android":"levelo://app?vid=e347e191-2146-4139-b8f3-fb84c59c2ce7","ios":"levelo://app?vid=e347e191-2146-4139-b8f3-fb84c59c2ce7"},"vehicle_type_id":"4","last_reported":1753600280,"current_range_meters":17200,"station_id":"ce4bhn12rcd13ifvqgqg","pricing_plan_id":"cebpf4jnsgd1na2vs0mg"},{"bike_id":"9e2722f5-8f23-4a0a-8b90-dcc5ca4975f8","system_id":"levelo_inurba_marseille","lat":43.22508,"lon":5.34772,"is_reserved":false,"is_disabled":false,"rental_uris":{"android":"levelo://app?vid=9e2722f5-8f23-4a0a-8b90-dcc5ca4975f8","ios":"levelo://app?vid=9e2722f5-8f23-4a0a-8b90-dcc5ca4975f8"},"vehicle_type_id":"4","last_reported":1753600280,"current_range_meters":17200,"station_id":"st_cvj5dfep6f1abm77gieg","pricing_plan_id":"cebpf4jnsgd1na2vs0mg"},{"bike_id":"c3ffa3d6-f44a-4930-b5f0-fc0fbc76b4d1","system_id":"levelo_inurba_marseille","lat":43.251245,"lon":5.403221,"is_reserved":false,"is_disabled":false,"rental_uris":{"android":"levelo://app?vid=c3ffa3d6-f44a-4930-b5f0-fc0fbc76b4d1","ios":"levelo://app?vid=c3ffa3d6-f44a-4930-b5f0-fc0fbc76b4d1"},"vehicle_type_id":"4","last_reported":1753600280,"current_range_meters":17200,"station_id":"ce4bhlh2rcd13ifvqgig","pricing_plan_id":"cebpf4jnsgd1na2vs0mg"},{"bike_id":"7aff84f4-6f03-4e27-8d42-d4f436b18e6d","system_id":"levelo_inurba_marseille","lat":43.284849,"lon":5.384265,"is_reserved":false,"is_disabled":false,"rental_uris":{"android":"levelo://app?vid=7aff84f4-6f03-4e27-8d42-d4f436b18e6d","ios":"levelo://app?vid=7aff84f4-6f03-4e27-8d42-d4f436b18e6d"},"vehicle_type_id":"4","last_reported":1753600280,"current_range_meters":17200,"station_id":"ce4bh512rcd13ifvqe3g","pricing_plan_id":"cebpf4jnsgd1na2vs0mg"},{"bike_id":"bffbd166-3093-465e-8536-cc7b9d248a16","system_id":"levelo_inurba_marseille","lat":43.23196,"lon":5.35549,"is_reserved":false,"is_disabled":false,"rental_uris":{"android":"levelo://app?vid=bffbd166-3093-465e-8536-cc7b9d248a16","ios":"levelo://app?vid=bffbd166-3093-465e-8536-cc7b9d248a16"},"vehicle_type_id":"4","last_reported":1753600280,"current_range_meters":17200,"station_id":"ce4bhu92rcd13ifvqi70","pricing_plan_id":"cebpf4jnsgd1na2vs0mg"},{"bike_id":"220cf17f-9c61-468f-af88-f24ca56003a4","system_id":"levelo_inurba_marseille","lat":43.306049,"lon":5.371987,"is_reserved":false,"is_disabled":false,"rental_uris":{"android":"levelo://app?vid=220cf17f-9c61-468f-af88-f24ca56003a4","ios":"levelo://app?vid=220cf17f-9c61-468f-af88-f24ca56003a4"},"vehicle_type_id":"4","last_reported":1753600280,"current_range_meters":17200,"station_id":"ce4bgqh2rcd13ifvqc4g","pricing_plan_id":"cebpf4jnsgd1na2vs0mg"},{"bike_id":"9c7aeaec-5df9-4ed5-9a45-96fac68c60c5","system_id":"levelo_inurba_marseille","lat":43.22507,"lon":5.34779,"is_reserved":false,"is_disabled":false,"rental_uris":{"android":"levelo://app?vid=9c7aeaec-5df9-4ed5-9a45-96fac68c60c5","ios":"levelo://app?vid=9c7aeaec-5df9-4ed5-9a45-96fac68c60c5"},"vehicle_type_id":"4","last_reported":1753600280,"current_range_meters":17600,"station_id":"st_cvj5dfep6f1abm77gieg","pricing_plan_id":"cebpf4jnsgd1na2vs0mg"},{"bike_id":"ec2a87eb-2de4-4d6d-ac86-7c275a6a8c47","system_id":"levelo_inurba_marseille","lat":43.22802,"lon":5.3518,"is_reserved":false,"is_disabled":false,"rental_uris":{"android":"levelo://app?vid=ec2a87eb-2de4-4d6d-ac86-7c275a6a8c47","ios":"levelo://app?vid=ec2a87eb-2de4-4d6d-ac86-7c275a6a8c47"},"vehicle_type_id":"4","last_reported":1753600280,"current_range_meters":17600,"station_id":"","pricing_plan_id":"cebpf4jnsgd1na2vs0mg"},{"bike_id":"36011d2f-d5c6-47fe-8f19-38d5d3126547","system_id":"levelo_inurba_marseille","lat":43.27856,"lon":5.38577,"is_reserved":false,"is_disabled":false,"rental_uris":{"android":"levelo://app?vid=36011d2f-d5c6-47fe-8f19-38d5d3126547","ios":"levelo://app?vid=36011d2f-d5c6-47fe-8f19-38d5d3126547"},"vehicle_type_id":"4","last_reported":1753600280,"current_range_meters":18000,"station_id":"","pricing_plan_id":"cebpf4jnsgd1na2vs0mg"},{"bike_id":"87a4d710-c859-4883-a056-db27db09862e","system_id":"levelo_inurba_marseille","lat":43.277585,"lon":5.355971,"is_reserved":false,"is_disabled":false,"rental_uris":{"android":"levelo://app?vid=87a4d710-c859-4883-a056-db27db09862e","ios":"levelo://app?vid=87a4d710-c859-4883-a056-db27db09862e"},"vehicle_type_id":"4","last_reported":1753600280,"current_range_meters":17600,"station_id":"","pricing_plan_id":"cebpf4jnsgd1na2vs0mg"},{"bike_id":"4d5f84b7-a55d-420e-b2eb-d786d198c2f5","system_id":"levelo_inurba_marseille","lat":43.265759,"lon":5.390058,"is_reserved":false,"is_disabled":false,"rental_uris":{"android":"levelo://app?vid=4d5f84b7-a55d-420e-b2eb-d786d198c2f5","ios":"levelo://app?vid=4d5f84b7-a55d-420e-b2eb-d786d198c2f5"},"vehicle_type_id":"4","last_reported":1753600280,"current_range_meters":17600,"station_id":"ce4bhe12rcd13ifvqf30","pricing_plan_id":"cebpf4jnsgd1na2vs0mg"},{"bike_id":"0ecb478d-d04e-40c7-83db-4e066b025b54","system_id":"levelo_inurba_marseille","lat":43.286181,"lon":5.370488,"is_reserved":false,"is_disabled":false,"rental_uris":{"android":"levelo://app?vid=0ecb478d-d04e-40c7-83db-4e066b025b54","ios":"levelo://app?vid=0ecb478d-d04e-40c7-83db-4e066b025b54"},"vehicle_type_id":"4","last_reported":1753600280,"current_range_meters":17600,"station_id":"ce4bht12rcd13ifvqi60","pricing_plan_id":"cebpf4jnsgd1na2vs0mg"},{"bike_id":"329681ee-4b7c-4b42-a093-9c4985b10282","system_id":"levelo_inurba_marseille","lat":43.28425,"lon":5.34984,"is_reserved":false,"is_disabled":true,"rental_uris":{"android":"levelo://app?vid=329681ee-4b7c-4b42-a093-9c4985b10282","ios":"levelo://app?vid=329681ee-4b7c-4b42-a093-9c4985b10282"},"vehicle_type_id":"4","last_reported":1753600280,"current_range_meters":17600,"station_id":"ce4bhbh2rcd13ifvqepg","pricing_plan_id":"cebpf4jnsgd1na2vs0mg"},{"bike_id":"9b8be9f7-01c6-4227-aa0f-6cda367fc7e0","system_id":"levelo_inurba_marseille","lat":43.293089,"lon":5.369365,"is_reserved":false,"is_disabled":false,"rental_uris":{"android":"levelo://app?vid=9b8be9f7-01c6-4227-aa0f-6cda367fc7e0","ios":"levelo://app?vid=9b8be9f7-01c6-4227-aa0f-6cda367fc7e0"},"vehicle_type_id":"4","last_reported":1753600280,"current_range_meters":17600,"station_id":"ce4bhbp2rcd13ifvqesg","pricing_plan_id":"cebpf4jnsgd1na2vs0mg"},{"bike_id":"2edf8151-cb92-46cc-9321-24e397aeed28","system_id":"levelo_inurba_marseille","lat":43.230526,"lon":5.354906,"is_reserved":false,"is_disabled":false,"rental_uris":{"android":"levelo://app?vid=2edf8151-cb92-46cc-9321-24e397aeed28","ios":"levelo://app?vid=2edf8151-cb92-46cc-9321-24e397aeed28"},"vehicle_type_id":"4","last_reported":1753600280,"current_range_meters":18000,"station_id":"cpo3342slgdg3j2ifvpg","pricing_plan_id":"cebpf4jnsgd1na2vs0mg"},{"bike_id":"d6f576dc-ffe7-4ab5-bc96-13103d0759e3","system_id":"levelo_inurba_marseille","lat":43.23957,"lon":5.36636,"is_reserved":false,"is_disabled":false,"rental_uris":{"android":"levelo://app?vid=d6f576dc-ffe7-4ab5-bc96-13103d0759e3","ios":"levelo://app?vid=d6f576dc-ffe7-4ab5-bc96-13103d0759e3"},"vehicle_type_id":"4","last_reported":1753600280,"current_range_meters":18000,"station_id":"ce4bhi12rcd13ifvqfp0","pricing_plan_id":"cebpf4jnsgd1na2vs0mg"},{"bike_id":"f9999ec6-9371-4e85-b7d5-6a9f0024b861","system_id":"levelo_inurba_marseille","lat":43.31287,"lon":5.37148,"is_reserved":false,"is_disabled":false,"rental_uris":{"android":"levelo://app?vid=f9999ec6-9371-4e85-b7d5-6a9f0024b861","ios":"levelo://app?vid=f9999ec6-9371-4e85-b7d5-6a9f0024b861"},"vehicle_type_id":"4","last_reported":1753600280,"current_range_meters":18000,"station_id":"","pricing_plan_id":"cebpf4jnsgd1na2vs0mg"},{"bike_id":"f4a8a670-189b-48a4-9dde-b40858d05778","system_id":"levelo_inurba_marseille","lat":43.31688,"lon":5.40453,"is_reserved":false,"is_disabled":false,"rental_uris":{"android":"levelo://app?vid=f4a8a670-189b-48a4-9dde-b40858d05778","ios":"levelo://app?vid=f4a8a670-189b-48a4-9dde-b40858d05778"},"vehicle_type_id":"4","last_reported":1753600280,"current_range_meters":18000,"station_id":"","pricing_plan_id":"cebpf4jnsgd1na2vs0mg"},{"bike_id":"96cb9b33-e675-4586-9193-9f0a3309af58","system_id":"levelo_inurba_marseille","lat":43.24815,"lon":5.37455,"is_reserved":false,"is_disabled":true,"rental_uris":{"android":"levelo://app?vid=96cb9b33-e675-4586-9193-9f0a3309af58","ios":"levelo://app?vid=96cb9b33-e675-4586-9193-9f0a3309af58"},"vehicle_type_id":"4","last_reported":1753600280,"current_range_meters":18000,"station_id":"ce4bhgh2rcd13ifvqfb0","pricing_plan_id":"cebpf4jnsgd1na2vs0mg"},{"bike_id":"21119b74-9092-450b-a780-dc3f5e5aa101","system_id":"levelo_inurba_marseille","lat":43.24078,"lon":5.37737,"is_reserved":false,"is_disabled":false,"rental_uris":{"android":"levelo://app?vid=21119b74-9092-450b-a780-dc3f5e5aa101","ios":"levelo://app?vid=21119b74-9092-450b-a780-dc3f5e5aa101"},"vehicle_type_id":"4","last_reported":1753600280,"current_range_meters":18000,"station_id":"ce4bhnp2rcd13ifvqgvg","pricing_plan_id":"cebpf4jnsgd1na2vs0mg"},{"bike_id":"098b018e-2607-4af2-bc10-8758893e88ea","system_id":"levelo_inurba_marseille","lat":43.240729,"lon":5.377588,"is_reserved":false,"is_disabled":false,"rental_uris":{"android":"levelo://app?vid=098b018e-2607-4af2-bc10-8758893e88ea","ios":"levelo://app?vid=098b018e-2607-4af2-bc10-8758893e88ea"},"vehicle_type_id":"4","last_reported":1753600280,"current_range_meters":18000,"station_id":"ce4bhnp2rcd13ifvqgvg","pricing_plan_id":"cebpf4jnsgd1na2vs0mg"},{"bike_id":"c8b0abd1-7f1c-4392-99c5-bdeb36f3e17e","system_id":"levelo_inurba_marseille","lat":43.21743,"lon":5.34591,"is_reserved":false,"is_disabled":true,"rental_uris":{"android":"levelo://app?vid=c8b0abd1-7f1c-4392-99c5-bdeb36f3e17e","ios":"levelo://app?vid=c8b0abd1-7f1c-4392-99c5-bdeb36f3e17e"},"vehicle_type_id":"4","last_reported":1753600280,"current_range_meters":18000,"station_id":"st_cvj6r9ubvosntc0bgbag","pricing_plan_id":"cebpf4jnsgd1na2vs0mg"},{"bike_id":"5aec1aa1-cdff-4d22-8b9f-302fc9f35474","system_id":"levelo_inurba_marseille","lat":43.29569,"lon":5.37503,"is_reserved":false,"is_disabled":false,"rental_uris":{"android":"levelo://app?vid=5aec1aa1-cdff-4d22-8b9f-302fc9f35474","ios":"levelo://app?vid=5aec1aa1-cdff-4d22-8b9f-302fc9f35474"},"vehicle_type_id":"4","last_reported":1753600280,"current_range_meters":18000,"station_id":"ce4bgh92rcd13ifvqb50","pricing_plan_id":"cebpf4jnsgd1na2vs0mg"},{"bike_id":"7fd76c9e-4d33-4b7e-95bd-222e0d10502e","system_id":"levelo_inurba_marseille","lat":43.30454,"lon":5.39739,"is_reserved":false,"is_disabled":false,"rental_uris":{"android":"levelo://app?vid=7fd76c9e-4d33-4b7e-95bd-222e0d10502e","ios":"levelo://app?vid=7fd76c9e-4d33-4b7e-95bd-222e0d10502e"},"vehicle_type_id":"4","last_reported":1753600280,"current_range_meters":18000,"station_id":"ce4bh092rcd13ifvqd20","pricing_plan_id":"cebpf4jnsgd1na2vs0mg"},{"bike_id":"4b584daf-aa6b-4cf2-8906-02a8a3281b3d","system_id":"levelo_inurba_marseille","lat":43.30921,"lon":5.40114,"is_reserved":false,"is_disabled":false,"rental_uris":{"android":"levelo://app?vid=4b584daf-aa6b-4cf2-8906-02a8a3281b3d","ios":"levelo://app?vid=4b584daf-aa6b-4cf2-8906-02a8a3281b3d"},"vehicle_type_id":"4","last_reported":1753600280,"current_range_meters":18000,"station_id":"ce4bgvp2rcd13ifvqct0","pricing_plan_id":"cebpf4jnsgd1na2vs0mg"},{"bike_id":"06b37b78-75ad-42cc-bf01-6fceceed78c5","system_id":"levelo_inurba_marseille","lat":43.239553,"lon":5.366362,"is_reserved":false,"is_disabled":false,"rental_uris":{"android":"levelo://app?vid=06b37b78-75ad-42cc-bf01-6fceceed78c5","ios":"levelo://app?vid=06b37b78-75ad-42cc-bf01-6fceceed78c5"},"vehicle_type_id":"4","last_reported":1753600280,"current_range_meters":18800,"station_id":"ce4bhi12rcd13ifvqfp0","pricing_plan_id":"cebpf4jnsgd1na2vs0mg"},{"bike_id":"e00168b7-a5cc-4782-9fc4-2adde691a41d","system_id":"levelo_inurba_marseille","lat":43.307861,"lon":5.381762,"is_reserved":false,"is_disabled":false,"rental_uris":{"android":"levelo://app?vid=e00168b7-a5cc-4782-9fc4-2adde691a41d","ios":"levelo://app?vid=e00168b7-a5cc-4782-9fc4-2adde691a41d"},"vehicle_type_id":"4","last_reported":1753600280,"current_range_meters":18800,"station_id":"ce4bgt12rcd13ifvqce0","pricing_plan_id":"cebpf4jnsgd1na2vs0mg"},{"bike_id":"a395e9fb-25cb-46a1-bf5a-829909009b66","system_id":"levelo_inurba_marseille","lat":43.29232,"lon":5.40885,"is_reserved":false,"is_disabled":false,"rental_uris":{"android":"levelo://app?vid=a395e9fb-25cb-46a1-bf5a-829909009b66","ios":"levelo://app?vid=a395e9fb-25cb-46a1-bf5a-829909009b66"},"vehicle_type_id":"4","last_reported":1753600280,"current_range_meters":18800,"station_id":"ce4bh192rcd13ifvqdc0","pricing_plan_id":"cebpf4jnsgd1na2vs0mg"},{"bike_id":"768658ed-1084-4cf3-8de4-cf3b64bf976d","system_id":"levelo_inurba_marseille","lat":43.22524,"lon":5.34726,"is_reserved":false,"is_disabled":false,"rental_uris":{"android":"levelo://app?vid=768658ed-1084-4cf3-8de4-cf3b64bf976d","ios":"levelo://app?vid=768658ed-1084-4cf3-8de4-cf3b64bf976d"},"vehicle_type_id":"4","last_reported":1753600280,"current_range_meters":18800,"station_id":"","pricing_plan_id":"cebpf4jnsgd1na2vs0mg"},{"bike_id":"32dd2ddc-a3dc-4749-b831-b34092911e67","system_id":"levelo_inurba_marseille","lat":43.323663,"lon":5.388872,"is_reserved":false,"is_disabled":false,"rental_uris":{"android":"levelo://app?vid=32dd2ddc-a3dc-4749-b831-b34092911e67","ios":"levelo://app?vid=32dd2ddc-a3dc-4749-b831-b34092911e67"},"vehicle_type_id":"4","last_reported":1753600280,"current_range_meters":18800,"station_id":"ce4bhqp2rcd13ifvqhog","pricing_plan_id":"cebpf4jnsgd1na2vs0mg"},{"bike_id":"f0cdf0c8-bc5a-4d40-b028-109d2b47cbb8","system_id":"levelo_inurba_marseille","lat":43.316882,"lon":5.404718,"is_reserved":false,"is_disabled":false,"rental_uris":{"android":"levelo://app?vid=f0cdf0c8-bc5a-4d40-b028-109d2b47cbb8","ios":"levelo://app?vid=f0cdf0c8-bc5a-4d40-b028-109d2b47cbb8"},"vehicle_type_id":"4","last_reported":1753600280,"current_range_meters":18800,"station_id":"ce4bh012rcd13ifvqd00","pricing_plan_id":"cebpf4jnsgd1na2vs0mg"},{"bike_id":"149fbe11-3bce-47a0-b584-c7c7bd6bb12f","system_id":"levelo_inurba_marseille","lat":43.21625,"lon":5.34431,"is_reserved":false,"is_disabled":false,"rental_uris":{"android":"levelo://app?vid=149fbe11-3bce-47a0-b584-c7c7bd6bb12f","ios":"levelo://app?vid=149fbe11-3bce-47a0-b584-c7c7bd6bb12f"},"vehicle_type_id":"4","last_reported":1753600280,"current_range_meters":18800,"station_id":"","pricing_plan_id":"cebpf4jnsgd1na2vs0mg"},{"bike_id":"8fb5a2db-da4c-447d-8305-b6ddf41e048a","system_id":"levelo_inurba_marseille","lat":43.30679,"lon":5.40084,"is_reserved":false,"is_disabled":false,"rental_uris":{"android":"levelo://app?vid=8fb5a2db-da4c-447d-8305-b6ddf41e048a","ios":"levelo://app?vid=8fb5a2db-da4c-447d-8305-b6ddf41e048a"},"vehicle_type_id":"4","last_reported":1753600280,"current_range_meters":18800,"station_id":"ce4bh112rcd13ifvqda0","pricing_plan_id":"cebpf4jnsgd1na2vs0mg"},{"bike_id":"209c73e6-1f69-4d13-9fed-77cb46eecd05","system_id":"levelo_inurba_marseille","lat":43.34681,"lon":5.38065,"is_reserved":false,"is_disabled":false,"rental_uris":{"android":"levelo://app?vid=209c73e6-1f69-4d13-9fed-77cb46eecd05","ios":"levelo://app?vid=209c73e6-1f69-4d13-9fed-77cb46eecd05"},"vehicle_type_id":"4","last_reported":1753600280,"current_range_meters":18800,"station_id":"","pricing_plan_id":"cebpf4jnsgd1na2vs0mg"},{"bike_id":"f7331053-00f9-4a82-be77-15a848ac5592","system_id":"levelo_inurba_marseille","lat":43.29268,"lon":5.36854,"is_reserved":false,"is_disabled":false,"rental_uris":{"android":"levelo://app?vid=f7331053-00f9-4a82-be77-15a848ac5592","ios":"levelo://app?vid=f7331053-00f9-4a82-be77-15a848ac5592"},"vehicle_type_id":"4","last_reported":1753600280,"current_range_meters":19200,"station_id":"ce4bhbp2rcd13ifvqesg","pricing_plan_id":"cebpf4jnsgd1na2vs0mg"},{"bike_id":"95dd70e4-879c-49e7-b318-a6c71b22a43e","system_id":"levelo_inurba_marseille","lat":43.2703,"lon":5.39295,"is_reserved":false,"is_disabled":false,"rental_uris":{"android":"levelo://app?vid=95dd70e4-879c-49e7-b318-a6c71b22a43e","ios":"levelo://app?vid=95dd70e4-879c-49e7-b318-a6c71b22a43e"},"vehicle_type_id":"4","last_reported":1753600280,"current_range_meters":19200,"station_id":"","pricing_plan_id":"cebpf4jnsgd1na2vs0mg"},{"bike_id":"62f0adcc-1f39-4436-99c8-3e0814d46c2f","system_id":"levelo_inurba_marseille","lat":43.25608,"lon":5.37649,"is_reserved":false,"is_disabled":false,"rental_uris":{"android":"levelo://app?vid=62f0adcc-1f39-4436-99c8-3e0814d46c2f","ios":"levelo://app?vid=62f0adcc-1f39-4436-99c8-3e0814d46c2f"},"vehicle_type_id":"4","last_reported":1753600280,"current_range_meters":19200,"station_id":"","pricing_plan_id":"cebpf4jnsgd1na2vs0mg"},{"bike_id":"32a747e2-27c2-49de-8556-18e76d1bff8f","system_id":"levelo_inurba_marseille","lat":43.31182,"lon":5.38707,"is_reserved":false,"is_disabled":false,"rental_uris":{"android":"levelo://app?vid=32a747e2-27c2-49de-8556-18e76d1bff8f","ios":"levelo://app?vid=32a747e2-27c2-49de-8556-18e76d1bff8f"},"vehicle_type_id":"4","last_reported":1753600280,"current_range_meters":19600,"station_id":"ce4bgv12rcd13ifvqcp0","pricing_plan_id":"cebpf4jnsgd1na2vs0mg"},{"bike_id":"8142408b-84ea-4577-9728-f52c3a5f16f1","system_id":"levelo_inurba_marseille","lat":43.24181,"lon":5.36384,"is_reserved":false,"is_disabled":true,"rental_uris":{"android":"levelo://app?vid=8142408b-84ea-4577-9728-f52c3a5f16f1","ios":"levelo://app?vid=8142408b-84ea-4577-9728-f52c3a5f16f1"},"vehicle_type_id":"4","last_reported":1753600280,"current_range_meters":19600,"station_id":"cpo36qri1sfpv3e86is0","pricing_plan_id":"cebpf4jnsgd1na2vs0mg"},{"bike_id":"3ea0d71c-6a33-435d-83f3-4896a9bfd722","system_id":"levelo_inurba_marseille","lat":43.312861,"lon":5.405004,"is_reserved":false,"is_disabled":false,"rental_uris":{"android":"levelo://app?vid=3ea0d71c-6a33-435d-83f3-4896a9bfd722","ios":"levelo://app?vid=3ea0d71c-6a33-435d-83f3-4896a9bfd722"},"vehicle_type_id":"4","last_reported":1753600280,"current_range_meters":19600,"station_id":"","pricing_plan_id":"cebpf4jnsgd1na2vs0mg"},{"bike_id":"a05b4c17-6ecc-4f3c-9993-8a34990feebc","system_id":"levelo_inurba_marseille","lat":43.29572,"lon":5.37509,"is_reserved":false,"is_disabled":false,"rental_uris":{"android":"levelo://app?vid=a05b4c17-6ecc-4f3c-9993-8a34990feebc","ios":"levelo://app?vid=a05b4c17-6ecc-4f3c-9993-8a34990feebc"},"vehicle_type_id":"4","last_reported":1753600280,"current_range_meters":19600,"station_id":"ce4bgh92rcd13ifvqb50","pricing_plan_id":"cebpf4jnsgd1na2vs0mg"},{"bike_id":"47eb4bcd-34cb-4441-8fc0-2fa8b9a9f4b2","system_id":"levelo_inurba_marseille","lat":43.24537,"lon":5.40222,"is_reserved":false,"is_disabled":false,"rental_uris":{"android":"levelo://app?vid=47eb4bcd-34cb-4441-8fc0-2fa8b9a9f4b2","ios":"levelo://app?vid=47eb4bcd-34cb-4441-8fc0-2fa8b9a9f4b2"},"vehicle_type_id":"4","last_reported":1753600280,"current_range_meters":19600,"station_id":"","pricing_plan_id":"cebpf4jnsgd1na2vs0mg"},{"bike_id":"e014be52-533f-408e-8321-de4ff655213a","system_id":"levelo_inurba_marseille","lat":43.28692,"lon":5.39966,"is_reserved":false,"is_disabled":false,"rental_uris":{"android":"levelo://app?vid=e014be52-533f-408e-8321-de4ff655213a","ios":"levelo://app?vid=e014be52-533f-408e-8321-de4ff655213a"},"vehicle_type_id":"4","last_reported":1753600280,"current_range_meters":19600,"station_id":"ce4bho92rcd13ifvqh3g","pricing_plan_id":"cebpf4jnsgd1na2vs0mg"},{"bike_id":"9d6f4d9f-a761-4ae2-9e4b-00f8fda461c4","system_id":"levelo_inurba_marseille","lat":43.285694,"lon":5.395009,"is_reserved":false,"is_disabled":true,"rental_uris":{"android":"levelo://app?vid=9d6f4d9f-a761-4ae2-9e4b-00f8fda461c4","ios":"levelo://app?vid=9d6f4d9f-a761-4ae2-9e4b-00f8fda461c4"},"vehicle_type_id":"4","last_reported":1753600280,"current_range_meters":19600,"station_id":"ce4bh292rcd13ifvqdg0","pricing_plan_id":"cebpf4jnsgd1na2vs0mg"},{"bike_id":"5b49cf77-30e4-44a0-9a4f-d407afba1979","system_id":"levelo_inurba_marseille","lat":43.23058,"lon":5.35488,"is_reserved":false,"is_disabled":false,"rental_uris":{"android":"levelo://app?vid=5b49cf77-30e4-44a0-9a4f-d407afba1979","ios":"levelo://app?vid=5b49cf77-30e4-44a0-9a4f-d407afba1979"},"vehicle_type_id":"4","last_reported":1753600280,"current_range_meters":19200,"station_id":"cpo3342slgdg3j2ifvpg","pricing_plan_id":"cebpf4jnsgd1na2vs0mg"},{"bike_id":"1e05dfc2-1b36-4f7b-87b6-0e3d00941d07","system_id":"levelo_inurba_marseille","lat":43.30642,"lon":5.40089,"is_reserved":false,"is_disabled":false,"rental_uris":{"android":"levelo://app?vid=1e05dfc2-1b36-4f7b-87b6-0e3d00941d07","ios":"levelo://app?vid=1e05dfc2-1b36-4f7b-87b6-0e3d00941d07"},"vehicle_type_id":"4","last_reported":1753600280,"current_range_meters":19600,"station_id":"ce4bh112rcd13ifvqda0","pricing_plan_id":"cebpf4jnsgd1na2vs0mg"},{"bike_id":"c5b06a6c-4ce7-4cf6-9425-26cce9b47149","system_id":"levelo_inurba_marseille","lat":43.30148,"lon":5.37416,"is_reserved":false,"is_disabled":false,"rental_uris":{"android":"levelo://app?vid=c5b06a6c-4ce7-4cf6-9425-26cce9b47149","ios":"levelo://app?vid=c5b06a6c-4ce7-4cf6-9425-26cce9b47149"},"vehicle_type_id":"4","last_reported":1753600280,"current_range_meters":19600,"station_id":"ce4bgs92rcd13ifvqcc0","pricing_plan_id":"cebpf4jnsgd1na2vs0mg"},{"bike_id":"2ff0dbde-f806-45a0-bc8e-93c1d8652f37","system_id":"levelo_inurba_marseille","lat":43.284151,"lon":5.375153,"is_reserved":false,"is_disabled":false,"rental_uris":{"android":"levelo://app?vid=2ff0dbde-f806-45a0-bc8e-93c1d8652f37","ios":"levelo://app?vid=2ff0dbde-f806-45a0-bc8e-93c1d8652f37"},"vehicle_type_id":"4","last_reported":1753600280,"current_range_meters":20000,"station_id":"ce4bh412rcd13ifvqds0","pricing_plan_id":"cebpf4jnsgd1na2vs0mg"},{"bike_id":"5f5f35e9-d36e-492a-a242-a7d421a7c07e","system_id":"levelo_inurba_marseille","lat":43.302452,"lon":5.400823,"is_reserved":false,"is_disabled":false,"rental_uris":{"android":"levelo://app?vid=5f5f35e9-d36e-492a-a242-a7d421a7c07e","ios":"levelo://app?vid=5f5f35e9-d36e-492a-a242-a7d421a7c07e"},"vehicle_type_id":"4","last_reported":1753600280,"current_range_meters":20000,"station_id":"ce4bgvh2rcd13ifvqcs0","pricing_plan_id":"cebpf4jnsgd1na2vs0mg"},{"bike_id":"308bf59a-da62-48e3-ae19-11fff609b68f","system_id":"levelo_inurba_marseille","lat":43.27993,"lon":5.416618,"is_reserved":false,"is_disabled":false,"rental_uris":{"android":"levelo://app?vid=308bf59a-da62-48e3-ae19-11fff609b68f","ios":"levelo://app?vid=308bf59a-da62-48e3-ae19-11fff609b68f"},"vehicle_type_id":"4","last_reported":1753600280,"current_range_meters":20000,"station_id":"ce4bho12rcd13ifvqh1g","pricing_plan_id":"cebpf4jnsgd1na2vs0mg"},{"bike_id":"37cbb8bc-1e07-42d2-aacd-df0cfc9b0489","system_id":"levelo_inurba_marseille","lat":43.23197,"lon":5.355548,"is_reserved":false,"is_disabled":false,"rental_uris":{"android":"levelo://app?vid=37cbb8bc-1e07-42d2-aacd-df0cfc9b0489","ios":"levelo://app?vid=37cbb8bc-1e07-42d2-aacd-df0cfc9b0489"},"vehicle_type_id":"4","last_reported":1753600280,"current_range_meters":20000,"station_id":"ce4bhu92rcd13ifvqi70","pricing_plan_id":"cebpf4jnsgd1na2vs0mg"},{"bike_id":"2d9628be-7dc2-417c-ac77-0359bae99825","system_id":"levelo_inurba_marseille","lat":43.31067,"lon":5.38344,"is_reserved":false,"is_disabled":false,"rental_uris":{"android":"levelo://app?vid=2d9628be-7dc2-417c-ac77-0359bae99825","ios":"levelo://app?vid=2d9628be-7dc2-417c-ac77-0359bae99825"},"vehicle_type_id":"4","last_reported":1753600280,"current_range_meters":20000,"station_id":"ce4bgv92rcd13ifvqcr0","pricing_plan_id":"cebpf4jnsgd1na2vs0mg"},{"bike_id":"ff60fd53-3fb6-47e2-bd2c-9d5e53fa6383","system_id":"levelo_inurba_marseille","lat":43.24074,"lon":5.37753,"is_reserved":false,"is_disabled":false,"rental_uris":{"android":"levelo://app?vid=ff60fd53-3fb6-47e2-bd2c-9d5e53fa6383","ios":"levelo://app?vid=ff60fd53-3fb6-47e2-bd2c-9d5e53fa6383"},"vehicle_type_id":"4","last_reported":1753600280,"current_range_meters":20000,"station_id":"ce4bhnp2rcd13ifvqgvg","pricing_plan_id":"cebpf4jnsgd1na2vs0mg"},{"bike_id":"821c68b1-9e71-4b97-96e1-33d1af4b00b7","system_id":"levelo_inurba_marseille","lat":43.255243,"lon":5.409608,"is_reserved":false,"is_disabled":false,"rental_uris":{"android":"levelo://app?vid=821c68b1-9e71-4b97-96e1-33d1af4b00b7","ios":"levelo://app?vid=821c68b1-9e71-4b97-96e1-33d1af4b00b7"},"vehicle_type_id":"4","last_reported":1753600280,"current_range_meters":20000,"station_id":"ce4bhkp2rcd13ifvqgd0","pricing_plan_id":"cebpf4jnsgd1na2vs0mg"},{"bike_id":"cd6ebbf8-e30b-4e8b-8f41-cfbcf6fe3260","system_id":"levelo_inurba_marseille","lat":43.28284,"lon":5.35075,"is_reserved":false,"is_disabled":false,"rental_uris":{"android":"levelo://app?vid=cd6ebbf8-e30b-4e8b-8f41-cfbcf6fe3260","ios":"levelo://app?vid=cd6ebbf8-e30b-4e8b-8f41-cfbcf6fe3260"},"vehicle_type_id":"4","last_reported":1753600280,"current_range_meters":20000,"station_id":"ce4bhbp2rcd13ifvqerg","pricing_plan_id":"cebpf4jnsgd1na2vs0mg"},{"bike_id":"69af1056-d53f-49ab-8c7a-36818e893230","system_id":"levelo_inurba_marseille","lat":43.32325,"lon":5.36728,"is_reserved":false,"is_disabled":false,"rental_uris":{"android":"levelo://app?vid=69af1056-d53f-49ab-8c7a-36818e893230","ios":"levelo://app?vid=69af1056-d53f-49ab-8c7a-36818e893230"},"vehicle_type_id":"4","last_reported":1753600280,"current_range_meters":20000,"station_id":"ce4bhsh2rcd13ifvqi2g","pricing_plan_id":"cebpf4jnsgd1na2vs0mg"},{"bike_id":"47e2491f-adeb-40eb-8e20-cffb91682761","system_id":"levelo_inurba_marseille","lat":43.24857,"lon":5.37431,"is_reserved":false,"is_disabled":false,"rental_uris":{"android":"levelo://app?vid=47e2491f-adeb-40eb-8e20-cffb91682761","ios":"levelo://app?vid=47e2491f-adeb-40eb-8e20-cffb91682761"},"vehicle_type_id":"4","last_reported":1753600280,"current_range_meters":20000,"station_id":"","pricing_plan_id":"cebpf4jnsgd1na2vs0mg"},{"bike_id":"c5d6c16c-667e-4c61-9e09-b5efae6e86bc","system_id":"levelo_inurba_marseille","lat":43.298997,"lon":5.436712,"is_reserved":false,"is_disabled":false,"rental_uris":{"android":"levelo://app?vid=c5d6c16c-667e-4c61-9e09-b5efae6e86bc","ios":"levelo://app?vid=c5d6c16c-667e-4c61-9e09-b5efae6e86bc"},"vehicle_type_id":"4","last_reported":1753600280,"current_range_meters":20000,"station_id":"ce4bhpp2rcd13ifvqhfg","pricing_plan_id":"cebpf4jnsgd1na2vs0mg"},{"bike_id":"e52d8005-6321-424e-b866-9424defdc722","system_id":"levelo_inurba_marseille","lat":43.28042,"lon":5.36929,"is_reserved":false,"is_disabled":false,"rental_uris":{"android":"levelo://app?vid=e52d8005-6321-424e-b866-9424defdc722","ios":"levelo://app?vid=e52d8005-6321-424e-b866-9424defdc722"},"vehicle_type_id":"4","last_reported":1753600280,"current_range_meters":20000,"station_id":"ce4bha12rcd13ifvqef0","pricing_plan_id":"cebpf4jnsgd1na2vs0mg"},{"bike_id":"ecaeca81-f41e-42d9-9bea-01c875315b83","system_id":"levelo_inurba_marseille","lat":43.280363,"lon":5.369299,"is_reserved":false,"is_disabled":false,"rental_uris":{"android":"levelo://app?vid=ecaeca81-f41e-42d9-9bea-01c875315b83","ios":"levelo://app?vid=ecaeca81-f41e-42d9-9bea-01c875315b83"},"vehicle_type_id":"4","last_reported":1753600280,"current_range_meters":20400,"station_id":"ce4bha12rcd13ifvqef0","pricing_plan_id":"cebpf4jnsgd1na2vs0mg"},{"bike_id":"93c33c47-0b37-4bbf-a053-490efa24e020","system_id":"levelo_inurba_marseille","lat":43.281558,"lon":5.426338,"is_reserved":false,"is_disabled":false,"rental_uris":{"android":"levelo://app?vid=93c33c47-0b37-4bbf-a053-490efa24e020","ios":"levelo://app?vid=93c33c47-0b37-4bbf-a053-490efa24e020"},"vehicle_type_id":"4","last_reported":1753600280,"current_range_meters":20400,"station_id":"ce4bhnh2rcd13ifvqgug","pricing_plan_id":"cebpf4jnsgd1na2vs0mg"},{"bike_id":"c6354dbe-7447-447b-a791-963bc788f093","system_id":"levelo_inurba_marseille","lat":43.239567,"lon":5.36621,"is_reserved":false,"is_disabled":false,"rental_uris":{"android":"levelo://app?vid=c6354dbe-7447-447b-a791-963bc788f093","ios":"levelo://app?vid=c6354dbe-7447-447b-a791-963bc788f093"},"vehicle_type_id":"4","last_reported":1753600280,"current_range_meters":20400,"station_id":"ce4bhi12rcd13ifvqfp0","pricing_plan_id":"cebpf4jnsgd1na2vs0mg"},{"bike_id":"15cde3be-4938-4cc3-974d-6a14e8f2bfbc","system_id":"levelo_inurba_marseille","lat":43.29976,"lon":5.38544,"is_reserved":false,"is_disabled":false,"rental_uris":{"android":"levelo://app?vid=15cde3be-4938-4cc3-974d-6a14e8f2bfbc","ios":"levelo://app?vid=15cde3be-4938-4cc3-974d-6a14e8f2bfbc"},"vehicle_type_id":"4","last_reported":1753600280,"current_range_meters":20400,"station_id":"ce4bgj92rcd13ifvqbd0","pricing_plan_id":"cebpf4jnsgd1na2vs0mg"},{"bike_id":"72e9581e-243c-489b-ac72-946b1381353f","system_id":"levelo_inurba_marseille","lat":43.30619,"lon":5.37619,"is_reserved":false,"is_disabled":false,"rental_uris":{"android":"levelo://app?vid=72e9581e-243c-489b-ac72-946b1381353f","ios":"levelo://app?vid=72e9581e-243c-489b-ac72-946b1381353f"},"vehicle_type_id":"4","last_reported":1753600280,"current_range_meters":20400,"station_id":"","pricing_plan_id":"cebpf4jnsgd1na2vs0mg"},{"bike_id":"a530a3fb-b3a3-4e65-8eeb-d9e4d0214da9","system_id":"levelo_inurba_marseille","lat":43.2455,"lon":5.39517,"is_reserved":false,"is_disabled":false,"rental_uris":{"android":"levelo://app?vid=a530a3fb-b3a3-4e65-8eeb-d9e4d0214da9","ios":"levelo://app?vid=a530a3fb-b3a3-4e65-8eeb-d9e4d0214da9"},"vehicle_type_id":"4","last_reported":1753600280,"current_range_meters":20400,"station_id":"ce4bhlp2rcd13ifvqgjg","pricing_plan_id":"cebpf4jnsgd1na2vs0mg"},