{"last_updated":1752919877,"ttl":60,"version":"2.2","data":{"bikes":[{"bike_id":"53b742a7-31ae-4272-9bba-7740339e2a2f","system_id":"levelo_inurba_marseille","lat":43.33747,"lon":5.37463,"is_reserved":false,"is_disabled":false,"rental_uris":{"android":"levelo://app?vid=53b742a7-31ae-4272-9bba-7740339e2a2f","ios":"levelo://app?vid=53b742a7-31ae-4272-9bba-7740339e2a2f"},"vehicle_type_id":"1","last_reported":1752919877,"current_range_meters":16000,"station_id":"","pricing_plan_id":"cebpf4jnsgd1na2vs0mg"},{"bike_id":"37437322-8c8c-42de-b8fa-18f1317c54a8","system_id":"levelo_inurba_marseille","lat":43.23295,"lon":5.36804,"is_reserved":false,"is_disabled":false,"rental_uris":{"android":"levelo://app?vid=37437322-8c8c-42de-b8fa-18f1317c54a8","ios":"levelo://app?vid=37437322-8c8c-42de-b8fa-18f1317c54a8"},"vehicle_type_id":"4","last_reported":1752919877,"current_range_meters":3200,"station_id":"","pricing_plan_id":"cebpf4jnsgd1na2vs0mg"},{"bike_id":"3444bdc6-514a-4ba6-9650-f9073305e33d","system_id":"levelo_inurba_marseille","lat":43.29682,"lon":5.3698,"is_reserved":false,"is_disabled":false,"rental_uris":{"android":"levelo://app?vid=3444bdc6-514a-4ba6-9650-f9073305e33d","ios":"levelo://app?vid=3444bdc6-514a-4ba6-9650-f9073305e33d"},"vehicle_type_id":"4","last_reported":1752919877,"current_range_meters":4400,"station_id":"","pricing_plan_id":"cebpf4jnsgd1na2vs0mg"},{"bike_id":"4298709f-d90a-45df-8a57-9ba59538e3fc","system_id":"levelo_inurba_marseille","lat":43.281543,"lon":5.407291,"is_reserved":false,"is_disabled":false,"rental_uris":{"android":"levelo://app?vid=4298709f-d90a-45df-8a57-9ba59538e3fc","ios":"levelo://app?vid=4298709f-d90a-45df-8a57-9ba59538e3fc"},"vehicle_type_id":"4","last_reported":1752919877,"current_range_meters":4400,"station_id":"","pricing_plan_id":"cebpf4jnsgd1na2vs0mg"},{"bike_id":"10d4576d-f1c9-4b21-884a-455de00e4875","system_id":"levelo_inurba_marseille","lat":43.299768,"lon":5.381634,"is_reserved":false,"is_disabled":false,"rental_uris":{"android":"levelo://app?vid=10d4576d-f1c9-4b21-884a-455de00e4875","ios":"levelo://app?vid=10d4576d-f1c9-4b21-884a-455de00e4875"},"vehicle_type_id":"4","last_reported":1752919877,"current_range_meters":4400,"station_id":"ce4bgj12rcd13ifvqbc0","pricing_plan_id":"cebpf4jnsgd1na2vs0mg"},{"bike_id":"b096d892-c035-4752-9e8b-40a8501d6982","system_id":"levelo_inurba_marseille","lat":43.284771,"lon":5.384118,"is_reserved":false,"is_disabled":false,"rental_uris":{"android":"levelo://app?vid=b096d892-c035-4752-9e8b-40a8501d6982","ios":"levelo://app?vid=b096d892-c035-4752-9e8b-40a8501d6982"},"vehicle_type_id":"4","last_reported":1752919877,"current_range_meters":4800,"station_id":"ce4bh512rcd13ifvqe3g","pricing_plan_id":"cebpf4jnsgd1na2vs0mg"},{"bike_id":"48582861-c10e-4f9e-a6cb-e1eceb6b5746","system_id":"levelo_inurba_marseille","lat":43.2892,"lon":5.38412,"is_reserved":false,"is_disabled":false,"rental_uris":{"android":"levelo://app?vid=48582861-c10e-4f9e-a6cb-e1eceb6b5746","ios":"levelo://app?vid=48582861-c10e-4f9e-a6cb-e1eceb6b5746"},"vehicle_type_id":"4","last_reported":1752919877,"current_range_meters":4800,"station_id":"ce4bh612rcd13ifvqe6g","pricing_plan_id":"cebpf4jnsgd1na2vs0mg"},{"bike_id":"a2713a5b-81e5-4903-bbcb-29014848a6df","system_id":"levelo_inurba_marseille","lat":43.30552,"lon":5.36711,"is_reserved":false,"is_disabled":false,"rental_uris":{"android":"levelo://app?vid=a2713a5b-81e5-4903-bbcb-29014848a6df","ios":"levelo://app?vid=a2713a5b-81e5-4903-bbcb-29014848a6df"},"vehicle_type_id":"4","last_reported":1752919877,"current_range_meters":4800,"station_id":"ce4bgrp2rcd13ifvqc9g","pricing_plan_id":"cebpf4jnsgd1na2vs0mg"},{"bike_id":"df7c669d-9c1f-4a70-8a48-31418fef8178","system_id":"levelo_inurba_marseille","lat":43.30138,"lon":5.374265,"is_reserved":false,"is_disabled":false,"rental_uris":{"android":"levelo://app?vid=df7c669d-9c1f-4a70-8a48-31418fef8178","ios":"levelo://app?vid=df7c669d-9c1f-4a70-8a48-31418fef8178"},"vehicle_type_id":"4","last_reported":1752919877,"current_range_meters":7200,"station_id":"","pricing_plan_id":"cebpf4jnsgd1na2vs0mg"},{"bike_id":"4be4bd2c-0260-46f3-8683-ca215580d4d7","system_id":"levelo_inurba_marseille","lat":43.30395,"lon":5.42472,"is_reserved":false,"is_disabled":false,"rental_uris":{"android":"levelo://app?vid=4be4bd2c-0260-46f3-8683-ca215580d4d7","ios":"levelo://app?vid=4be4bd2c-0260-46f3-8683-ca215580d4d7"},"vehicle_type_id":"4","last_reported":1752919877,"current_range_meters":7200,"station_id":"ce4bghh2rcd13ifvqb60","pricing_plan_id":"cebpf4jnsgd1na2vs0mg"},{"bike_id":"da891840-0cec-4ccc-961c-48903736c6fa","system_id":"levelo_inurba_marseille","lat":43.31139,"lon":5.37692,"is_reserved":false,"is_disabled":false,"rental_uris":{"android":"levelo://app?vid=da891840-0cec-4ccc-961c-48903736c6fa","ios":"levelo://app?vid=da891840-0cec-4ccc-961c-48903736c6fa"},"vehicle_type_id":"4","last_reported":1752919877,"current_range_meters":7200,"station_id":"","pricing_plan_id":"cebpf4jnsgd1na2vs0mg"},{"bike_id":"e555b545-304c-4dce-8496-1643c0f2600e","system_id":"levelo_inurba_marseille","lat":43.337444,"lon":5.374475,"is_reserved":false,"is_disabled":false,"rental_uris":{"android":"levelo://app?vid=e555b545-304c-4dce-8496-1643c0f2600e","ios":"levelo://app?vid=e555b545-304c-4dce-8496-1643c0f2600e"},"vehicle_type_id":"4","last_reported":1752919877,"current_range_meters":7200,"station_id":"","pricing_plan_id":"cebpf4jnsgd1na2vs0mg"},{"bike_id":"d34ede16-cfaa-4ae1-bb9d-58012d5d4c0a","system_id":"levelo_inurba_marseille","lat":43.29851,"lon":5.36285,"is_reserved":false,"is_disabled":false,"rental_uris":{"android":"levelo://app?vid=d34ede16-cfaa-4ae1-bb9d-58012d5d4c0a","ios":"levelo://app?vid=d34ede16-cfaa-4ae1-bb9d-58012d5d4c0a"},"vehicle_type_id":"4","last_reported":1752919877,"current_range_meters":8000,"station_id":"ce4bgpp2rcd13ifvqc3g","pricing_plan_id":"cebpf4jnsgd1na2vs0mg"},{"bike_id":"2d95b47d-d06f-40a4-bb6e-c13e954e3c8f","system_id":"levelo_inurba_marseille","lat":43.27713,"lon":5.41426,"is_reserved":false,"is_disabled":false,"rental_uris":{"android":"levelo://app?vid=2d95b47d-d06f-40a4-bb6e-c13e954e3c8f","ios":"levelo://app?vid=2d95b47d-d06f-40a4-bb6e-c13e954e3c8f"},"vehicle_type_id":"4","last_reported":1752919877,"current_range_meters":8400,"station_id":"","pricing_plan_id":"cebpf4jnsgd1na2vs0mg"},{"bike_id":"15b782ad-27bb-4194-84f4-86fc26aa5460","system_id":"levelo_inurba_marseille","lat":43.24169,"lon":5.36402,"is_reserved":false,"is_disabled":false,"rental_uris":{"android":"levelo://app?vid=15b782ad-27bb-4194-84f4-86fc26aa5460","ios":"levelo://app?vid=15b782ad-27bb-4194-84f4-86fc26aa5460"},"vehicle_type_id":"4","last_reported":1752919877,"current_range_meters":8800,"station_id":"cpo36qri1sfpv3e86is0","pricing_plan_id":"cebpf4jnsgd1na2vs0mg"},{"bike_id":"b004baab-db70-453e-84a5-9312df4bd1d6","system_id":"levelo_inurba_marseille","lat":43.22513,"lon":5.348,"is_reserved":false,"is_disabled":false,"rental_uris":{"android":"levelo://app?vid=b004baab-db70-453e-84a5-9312df4bd1d6","ios":"levelo://app?vid=b004baab-db70-453e-84a5-9312df4bd1d6"},"vehicle_type_id":"4","last_reported":1752919877,"current_range_meters":8800,"station_id":"st_cvj5dfep6f1abm77gieg","pricing_plan_id":"cebpf4jnsgd1na2vs0mg"},{"bike_id":"a168d389-ea1d-4756-ad9b-cf73a31ab442","system_id":"levelo_inurba_marseille","lat":43.288747,"lon":5.400098,"is_reserved":false,"is_disabled":true,"rental_uris":{"android":"levelo://app?vid=a168d389-ea1d-4756-ad9b-cf73a31ab442","ios":"levelo://app?vid=a168d389-ea1d-4756-ad9b-cf73a31ab442"},"vehicle_type_id":"4","last_reported":1752919877,"current_range_meters":9200,"station_id":"ce4bho92rcd13ifvqh3g","pricing_plan_id":"cebpf4jnsgd1na2vs0mg"},{"bike_id":"ce7bd25b-5213-4881-a28b-f582e6a1d712","system_id":"levelo_inurba_marseille","lat":43.31366,"lon":5.36734,"is_reserved":false,"is_disabled":true,"rental_uris":{"android":"levelo://app?vid=ce7bd25b-5213-4881-a28b-f582e6a1d712","ios":"levelo://app?vid=ce7bd25b-5213-4881-a28b-f582e6a1d712"},"vehicle_type_id":"4","last_reported":1752919877,"current_range_meters":9200,"station_id":"ce4bgr92rcd13ifvqc6g","pricing_plan_id":"cebpf4jnsgd1na2vs0mg"},{"bike_id":"c6db0f6a-96fe-4e1d-8ded-c2ef38c9bab4","system_id":"levelo_inurba_marseille","lat":43.305688,"lon":5.418387,"is_reserved":false,"is_disabled":true,"rental_uris":{"android":"levelo://app?vid=c6db0f6a-96fe-4e1d-8ded-c2ef38c9bab4","ios":"levelo://app?vid=c6db0f6a-96fe-4e1d-8ded-c2ef38c9bab4"},"vehicle_type_id":"4","last_reported":1752919877,"current_range_meters":9600,"station_id":"ce4bht12rcd13ifvqi60","pricing_plan_id":"cebpf4jnsgd1na2vs0mg"},{"bike_id":"27d73909-4874-4604-aa11-895509b11de2","system_id":"levelo_inurba_marseille","lat":43.28106,"lon":5.37851,"is_reserved":false,"is_disabled":false,"rental_uris":{"android":"levelo://app?vid=27d73909-4874-4604-aa11-895509b11de2","ios":"levelo://app?vid=27d73909-4874-4604-aa11-895509b11de2"},"vehicle_type_id":"4","last_reported":1752919877,"current_range_meters":9600,"station_id":"ce4bha12rcd13ifvqee0","pricing_plan_id":"cebpf4jnsgd1na2vs0mg"},{"bike_id":"5ac93e7c-286a-4c1e-b6c0-4e9963e5a9f8","system_id":"levelo_inurba_marseille","lat":43.21188,"lon":5.35072,"is_reserved":false,"is_disabled":false,"rental_uris":{"android":"levelo://app?vid=5ac93e7c-286a-4c1e-b6c0-4e9963e5a9f8","ios":"levelo://app?vid=5ac93e7c-286a-4c1e-b6c0-4e9963e5a9f8"},"vehicle_type_id":"4","last_reported":1752919877,"current_range_meters":9600,"station_id":"st_cvj6sg6p6f1abm77japg","pricing_plan_id":"cebpf4jnsgd1na2vs0mg"},{"bike_id":"b7fe52dd-f025-4212-9e78-19e7f6f09593","system_id":"levelo_inurba_marseille","lat":43.21214,"lon":5.35062,"is_reserved":false,"is_disabled":false,"rental_uris":{"android":"levelo://app?vid=b7fe52dd-f025-4212-9e78-19e7f6f09593","ios":"levelo://app?vid=b7fe52dd-f025-4212-9e78-19e7f6f09593"},"vehicle_type_id":"4","last_reported":1752919877,"current_range_meters":10000,"station_id":"st_cvj6sg6p6f1abm77japg","pricing_plan_id":"cebpf4jnsgd1na2vs0mg"},{"bike_id":"cfb52d04-9134-4c86-8269-771716b20f27","system_id":"levelo_inurba_marseille","lat":43.21192,"lon":5.35074,"is_reserved":false,"is_disabled":false,"rental_uris":{"android":"levelo://app?vid=cfb52d04-9134-4c86-8269-771716b20f27","ios":"levelo://app?vid=cfb52d04-9134-4c86-8269-771716b20f27"},"vehicle_type_id":"4","last_reported":1752919877,"current_range_meters":10000,"station_id":"st_cvj6sg6p6f1abm77japg","pricing_plan_id":"cebpf4jnsgd1na2vs0mg"},{"bike_id":"4c9c2454-af7e-4f9c-aaf8-e98ee399b36f","system_id":"levelo_inurba_marseille","lat":43.30471,"lon":5.37913,"is_reserved":false,"is_disabled":false,"rental_uris":{"android":"levelo://app?vid=4c9c2454-af7e-4f9c-aaf8-e98ee399b36f","ios":"levelo://app?vid=4c9c2454-af7e-4f9c-aaf8-e98ee399b36f"},"vehicle_type_id":"4","last_reported":1752919877,"current_range_meters":10800,"station_id":"ce4bgup2rcd13ifvqcn0","pricing_plan_id":"cebpf4jnsgd1na2vs0mg"},{"bike_id":"f2f0a83b-f6a3-4c12-b155-1a5ed3879b9e","system_id":"levelo_inurba_marseille","lat":43.28485,"lon":5.38574,"is_reserved":false,"is_disabled":false,"rental_uris":{"android":"levelo://app?vid=f2f0a83b-f6a3-4c12-b155-1a5ed3879b9e","ios":"levelo://app?vid=f2f0a83b-f6a3-4c12-b155-1a5ed3879b9e"},"vehicle_type_id":"4","last_reported":1752919877,"current_range_meters":10800,"station_id":"ce4bh8p2rcd13ifvqeb0","pricing_plan_id":"cebpf4jnsgd1na2vs0mg"},{"bike_id":"0b250332-c99a-4726-ac2a-74deb04ffed3","system_id":"levelo_inurba_marseille","lat":43.2794,"lon":5.39571,"is_reserved":false,"is_disabled":true,"rental_uris":{"android":"levelo://app?vid=0b250332-c99a-4726-ac2a-74deb04ffed3","ios":"levelo://app?vid=0b250332-c99a-4726-ac2a-74deb04ffed3"},"vehicle_type_id":"4","last_reported":1752919877,"current_range_meters":10800,"station_id":"ce4bhf92rcd13ifvqf40","pricing_plan_id":"cebpf4jnsgd1na2vs0mg"},{"bike_id":"57a30f0b-84eb-4b98-8989-8d3c02b43bf0","system_id":"levelo_inurba_marseille","lat":43.286303,"lon":5.36998,"is_reserved":false,"is_disabled":false,"rental_uris":{"android":"levelo://app?vid=57a30f0b-84eb-4b98-8989-8d3c02b43bf0","ios":"levelo://app?vid=57a30f0b-84eb-4b98-8989-8d3c02b43bf0"},"vehicle_type_id":"4","last_reported":1752919877,"current_range_meters":10800,"station_id":"","pricing_plan_id":"cebpf4jnsgd1na2vs0mg"},{"bike_id":"aeb3a11f-399c-4d71-965c-be1446312b7b","system_id":"levelo_inurba_marseille","lat":43.29255,"lon":5.3763,"is_reserved":false,"is_disabled":false,"rental_uris":{"android":"levelo://app?vid=aeb3a11f-399c-4d71-965c-be1446312b7b","ios":"levelo://app?vid=aeb3a11f-399c-4d71-965c-be1446312b7b"},"vehicle_type_id":"4","last_reported":1752919877,"current_range_meters":10800,"station_id":"ce4bgi12rcd13ifvqb80","pricing_plan_id":"cebpf4jnsgd1na2vs0mg"},{"bike_id":"6f18ab1b-0c74-47b1-bed8-837677176207","system_id":"levelo_inurba_marseille","lat":43.32056,"lon":5.40924,"is_reserved":false,"is_disabled":false,"rental_uris":{"android":"levelo://app?vid=6f18ab1b-0c74-47b1-bed8-837677176207","ios":"levelo://app?vid=6f18ab1b-0c74-47b1-bed8-837677176207"},"vehicle_type_id":"4","last_reported":1752919877,"current_range_meters":10800,"station_id":"","pricing_plan_id":"cebpf4jnsgd1na2vs0mg"},{"bike_id":"359c7332-742a-4dda-b3a2-45ee9c9ecca8","system_id":"levelo_inurba_marseille","lat":43.246571,"lon":5.381667,"is_reserved":false,"is_disabled":false,"rental_uris":{"android":"levelo://app?vid=359c7332-742a-4dda-b3a2-45ee9c9ecca8","ios":"levelo://app?vid=359c7332-742a-4dda-b3a2-45ee9c9ecca8"},"vehicle_type_id":"4","last_reported":1752919877,"current_range_meters":10800,"station_id":"","pricing_plan_id":"cebpf4jnsgd1na2vs0mg"},{"bike_id":"4c87653e-12b3-4bbc-a093-105253726fb6","system_id":"levelo_inurba_marseille","lat":43.29621,"lon":5.37727,"is_reserved":false,"is_disabled":false,"rental_uris":{"android":"levelo://app?vid=4c87653e-12b3-4bbc-a093-105253726fb6","ios":"levelo://app?vid=4c87653e-12b3-4bbc-a093-105253726fb6"},"vehicle_type_id":"4","last_reported":1752919877,"current_range_meters":11200,"station_id":"ce4bgi92rcd13ifvqb90","pricing_plan_id":"cebpf4jnsgd1na2vs0mg"},{"bike_id":"6f7da231-4744-4511-a490-f3271468d0b3","system_id":"levelo_inurba_marseille","lat":43.26933,"lon":5.38946,"is_reserved":false,"is_disabled":false,"rental_uris":{"android":"levelo://app?vid=6f7da231-4744-4511-a490-f3271468d0b3","ios":"levelo://app?vid=6f7da231-4744-4511-a490-f3271468d0b3"},"vehicle_type_id":"4","last_reported":1752919877,"current_range_meters":11200,"station_id":"ce4bhhh2rcd13ifvqfl0","pricing_plan_id":"cebpf4jnsgd1na2vs0mg"},{"bike_id":"a67156ae-789e-45f5-ab3f-ed7d95b24540","system_id":"levelo_inurba_marseille","lat":43.21183,"lon":5.35074,"is_reserved":false,"is_disabled":false,"rental_uris":{"android":"levelo://app?vid=a67156ae-789e-45f5-ab3f-ed7d95b24540","ios":"levelo://app?vid=a67156ae-789e-45f5-ab3f-ed7d95b24540"},"vehicle_type_id":"4","last_reported":1752919877,"current_range_meters":11200,"station_id":"st_cvj6sg6p6f1abm77japg","pricing_plan_id":"cebpf4jnsgd1na2vs0mg"},{"bike_id":"ff38f9a0-22fe-4d29-963d-b076e305cb17","system_id":"levelo_inurba_marseille","lat":43.289738,"lon":5.37841,"is_reserved":false,"is_disabled":false,"rental_uris":{"android":"levelo://app?vid=ff38f9a0-22fe-4d29-963d-b076e305cb17","ios":"levelo://app?vid=ff38f9a0-22fe-4d29-963d-b076e305cb17"},"vehicle_type_id":"4","last_reported":1752919877,"current_range_meters":11600,"station_id":"ce4bh9p2rcd13ifvqed0","pricing_plan_id":"cebpf4jnsgd1na2vs0mg"},{"bike_id":"3dbe5912-b178-4d6a-b0a5-780c833ee7fa","system_id":"levelo_inurba_marseille","lat":43.29065,"lon":5.35576,"is_reserved":false,"is_disabled":false,"rental_uris":{"android":"levelo://app?vid=3dbe5912-b178-4d6a-b0a5-780c833ee7fa","ios":"levelo://app?vid=3dbe5912-b178-4d6a-b0a5-780c833ee7fa"},"vehicle_type_id":"4","last_reported":1752919877,"current_range_meters":11600,"station_id":"","pricing_plan_id":"cebpf4jnsgd1na2vs0mg"},{"bike_id":"b120679c-932d-4ab6-9d01-7c4cb9ddf1e0","system_id":"levelo_inurba_marseille","lat":43.321,"lon":5.36793,"is_reserved":false,"is_disabled":false,"rental_uris":{"android":"levelo://app?vid=b120679c-932d-4ab6-9d01-7c4cb9ddf1e0","ios":"levelo://app?vid=b120679c-932d-4ab6-9d01-7c4cb9ddf1e0"},"vehicle_type_id":"4","last_reported":1752919877,"current_range_meters":11600,"station_id":"ce4bhrh2rcd13ifvqhug","pricing_plan_id":"cebpf4jnsgd1na2vs0mg"},{"bike_id":"ac0ed4be-466c-4caa-b855-3c6bbe5a11b5","system_id":"levelo_inurba_marseille","lat":43.22929,"lon":5.35373,"is_reserved":false,"is_disabled":false,"rental_uris":{"android":"levelo://app?vid=ac0ed4be-466c-4caa-b855-3c6bbe5a11b5","ios":"levelo://app?vid=ac0ed4be-466c-4caa-b855-3c6bbe5a11b5"},"vehicle_type_id":"4","last_reported":1752919877,"current_range_meters":11600,"station_id":"","pricing_plan_id":"cebpf4jnsgd1na2vs0mg"},{"bike_id":"f0dbba60-7fa2-4835-8cf4-423440f8b95a","system_id":"levelo_inurba_marseille","lat":43.21729,"lon":5.3465,"is_reserved":false,"is_disabled":false,"rental_uris":{"android":"levelo://app?vid=f0dbba60-7fa2-4835-8cf4-423440f8b95a","ios":"levelo://app?vid=f0dbba60-7fa2-4835-8cf4-423440f8b95a"},"vehicle_type_id":"4","last_reported":1752919877,"current_range_meters":11600,"station_id":"","pricing_plan_id":"cebpf4jnsgd1na2vs0mg"},{"bike_id":"08a94e68-7279-4c26-9ca7-7cd2e2f2fe4c","system_id":"levelo_inurba_marseille","lat":43.24163,"lon":5.364,"is_reserved":false,"is_disabled":false,"rental_uris":{"android":"levelo://app?vid=08a94e68-7279-4c26-9ca7-7cd2e2f2fe4c","ios":"levelo://app?vid=08a94e68-7279-4c26-9ca7-7cd2e2f2fe4c"},"vehicle_type_id":"4","last_reported":1752919877,"current_range_meters":11600,"station_id":"cpo36qri1sfpv3e86is0","pricing_plan_id":"cebpf4jnsgd1na2vs0mg"},{"bike_id":"c9575a1d-2b0b-41e6-ab61-00d0a593ebc0","system_id":"levelo_inurba_marseille","lat":43.2993,"lon":5.36556,"is_reserved":false,"is_disabled":false,"rental_uris":{"android":"levelo://app?vid=c9575a1d-2b0b-41e6-ab61-00d0a593ebc0","ios":"levelo://app?vid=c9575a1d-2b0b-41e6-ab61-00d0a593ebc0"},"vehicle_type_id":"4","last_reported":1752919877,"current_range_meters":11600,"station_id":"ce4bgm92rcd13ifvqbr0","pricing_plan_id":"cebpf4jnsgd1na2vs0mg"},{"bike_id":"50a36931-63e6-4819-9058-f86f9fcd0ab3","system_id":"levelo_inurba_marseille","lat":43.32532,"lon":5.41466,"is_reserved":false,"is_disabled":false,"rental_uris":{"android":"levelo://app?vid=50a36931-63e6-4819-9058-f86f9fcd0ab3","ios":"levelo://app?vid=50a36931-63e6-4819-9058-f86f9fcd0ab3"},"vehicle_type_id":"4","last_reported":1752919877,"current_range_meters":12000,"station_id":"ce4bhq12rcd13ifvqhhg","pricing_plan_id":"cebpf4jnsgd1na2vs0mg"},{"bike_id":"1ec4eaa5-8358-4ab4-9a43-bd805d4f9a92","system_id":"levelo_inurba_marseille","lat":43.29278,"lon":5.40159,"is_reserved":false,"is_disabled":false,"rental_uris":{"android":"levelo://app?vid=1ec4eaa5-8358-4ab4-9a43-bd805d4f9a92","ios":"levelo://app?vid=1ec4eaa5-8358-4ab4-9a43-bd805d4f9a92"},"vehicle_type_id":"4","last_reported":1752919877,"current_range_meters":12000,"station_id":"ce4bh312rcd13ifvqdk0","pricing_plan_id":"cebpf4jnsgd1na2vs0mg"},{"bike_id":"cb375507-c01f-458d-8d10-1f83f1748560","system_id":"levelo_inurba_marseille","lat":43.27806,"lon":5.40723,"is_reserved":false,"is_disabled":false,"rental_uris":{"android":"levelo://app?vid=cb375507-c01f-458d-8d10-1f83f1748560","ios":"levelo://app?vid=cb375507-c01f-458d-8d10-1f83f1748560"},"vehicle_type_id":"4","last_reported":1752919877,"current_range_meters":12000,"station_id":"ce4bhnh2rcd13ifvqgtg","pricing_plan_id":"cebpf4jnsgd1na2vs0mg"},{"bike_id":"7bce4995-29f7-472b-9a2b-22fcd26a1a6a","system_id":"levelo_inurba_marseille","lat":43.31761,"lon":5.40456,"is_reserved":false,"is_disabled":false,"rental_uris":{"android":"levelo://app?vid=7bce4995-29f7-472b-9a2b-22fcd26a1a6a","ios":"levelo://app?vid=7bce4995-29f7-472b-9a2b-22fcd26a1a6a"},"vehicle_type_id":"4","last_reported":1752919877,"current_range_meters":12000,"station_id":"","pricing_plan_id":"cebpf4jnsgd1na2vs0mg"},{"bike_id":"75d72599-b952-42ed-8207-1b3d2c9ad744","system_id":"levelo_inurba_marseille","lat":43.30151,"lon":5.38087,"is_reserved":false,"is_disabled":false,"rental_uris":{"android":"levelo://app?vid=75d72599-b952-42ed-8207-1b3d2c9ad744","ios":"levelo://app?vid=75d72599-b952-42ed-8207-1b3d2c9ad744"},"vehicle_type_id":"4","last_reported":1752919877,"current_range_meters":12000,"station_id":"ce4bgjp2rcd13ifvqbh0","pricing_plan_id":"cebpf4jnsgd1na2vs0mg"},{"bike_id":"2fd3d782-24a7-42a3-b248-8e69e5a88f8a","system_id":"levelo_inurba_marseille","lat":43.3172,"lon":5.40501,"is_reserved":false,"is_disabled":false,"rental_uris":{"android":"levelo://app?vid=2fd3d782-24a7-42a3-b248-8e69e5a88f8a","ios":"levelo://app?vid=2fd3d782-24a7-42a3-b248-8e69e5a88f8a"},"vehicle_type_id":"4","last_reported":1752919877,"current_range_meters":12000,"station_id":"ce4bh012rcd13ifvqd00","pricing_plan_id":"cebpf4jnsgd1na2vs0mg"},{"bike_id":"edd0079d-996b-4ae3-9a31-d781f3a059ec","system_id":"levelo_inurba_marseille","lat":43.33786,"lon":5.37426,"is_reserved":false,"is_disabled":false,"rental_uris":{"android":"levelo://app?vid=edd0079d-996b-4ae3-9a31-d781f3a059ec","ios":"levelo://app?vid=edd0079d-996b-4ae3-9a31-d781f3a059ec"},"vehicle_type_id":"4","last_reported":1752919877,"current_range_meters":12000,"station_id":"","pricing_plan_id":"cebpf4jnsgd1na2vs0mg"},{"bike_id":"e339bab6-e761-48fb-ba48-e2cf0f640677","system_id":"levelo_inurba_marseille","lat":43.26205,"lon":5.37472,"is_reserved":false,"is_disabled":false,"rental_uris":{"android":"levelo://app?vid=e339bab6-e761-48fb-ba48-e2cf0f640677","ios":"levelo://app?vid=e339bab6-e761-48fb-ba48-e2cf0f640677"},"vehicle_type_id":"4","last_reported":1752919877,"current_range_meters":12400,"station_id":"ce4bhgp2rcd13ifvqfc0","pricing_plan_id":"cebpf4jnsgd1na2vs0mg"},{"bike_id":"08e59cc5-1db3-46bd-b7ce-321671d15eab","system_id":"levelo_inurba_marseille","lat":43.24182,"lon":5.3973,"is_reserved":false,"is_disabled":false,"rental_uris":{"android":"levelo://app?vid=08e59cc5-1db3-46bd-b7ce-321671d15eab","ios":"levelo://app?vid=08e59cc5-1db3-46bd-b7ce-321671d15eab"},"vehicle_type_id":"4","last_reported":1752919877,"current_range_meters":14400,"station_id":"ce4bhn12rcd13ifvqgpg","pricing_plan_id":"cebpf4jnsgd1na2vs0mg"},{"bike_id":"380d9762-7aa7-482d-9fc2-515ae61b009c","system_id":"levelo_inurba_marseille","lat":43.24077,"lon":5.37744,"is_reserved":false,"is_disabled":false,"rental_uris":{"android":"levelo://app?vid=380d9762-7aa7-482d-9fc2-515ae61b009c","ios":"levelo://app?vid=380d9762-7aa7-482d-9fc2-515ae61b009c"},"vehicle_type_id":"4","last_reported":1752919877,"current_range_meters":12800,"station_id":"ce4bhnp2rcd13ifvqgvg","pricing_plan_id":"cebpf4jnsgd1na2vs0mg"},{"bike_id":"6e6cf457-561c-4cfc-a8e1-ad08a689887f","system_id":"levelo_inurba_marseille","lat":43.25864,"lon":5.39898,"is_reserved":false,"is_disabled":false,"rental_uris":{"android":"levelo://app?vid=6e6cf457-561c-4cfc-a8e1-ad08a689887f","ios":"levelo://app?vid=6e6cf457-561c-4cfc-a8e1-ad08a689887f"},"vehicle_type_id":"4","last_reported":1752919877,"current_range_meters":12800,"station_id":"ce4bhl92rcd13ifvqghg","pricing_plan_id":"cebpf4jnsgd1na2vs0mg"},{"bike_id":"09a99cc9-81c2-4c00-890e-b8a9af05bd19","system_id":"levelo_inurba_marseille","lat":43.241673,"lon":5.363906,"is_reserved":false,"is_disabled":false,"rental_uris":{"android":"levelo://app?vid=09a99cc9-81c2-4c00-890e-b8a9af05bd19","ios":"levelo://app?vid=09a99cc9-81c2-4c00-890e-b8a9af05bd19"},"vehicle_type_id":"4","last_reported":1752919877,"current_range_meters":12800,"station_id":"cpo36qri1sfpv3e86is0","pricing_plan_id":"cebpf4jnsgd1na2vs0mg"},{"bike_id":"0916292f-c60f-4ec2-a3c5-bb862cec8507","system_id":"levelo_inurba_marseille","lat":43.23191,"lon":5.35565,"is_reserved":false,"is_disabled":false,"rental_uris":{"android":"levelo://app?vid=0916292f-c60f-4ec2-a3c5-bb862cec8507","ios":"levelo://app?vid=0916292f-c60f-4ec2-a3c5-bb862cec8507"},"vehicle_type_id":"4","last_reported":1752919877,"current_range_meters":12800,"station_id":"ce4bhu92rcd13ifvqi70","pricing_plan_id":"cebpf4jnsgd1na2vs0mg"},{"bike_id":"3156dd82-450e-432e-8790-d68888cab71a","system_id":"levelo_inurba_marseille","lat":43.27127,"lon":5.39174,"is_reserved":false,"is_disabled":false,"rental_uris":{"android":"levelo://app?vid=3156dd82-450e-432e-8790-d68888cab71a","ios":"levelo://app?vid=3156dd82-450e-432e-8790-d68888cab71a"},"vehicle_type_id":"4","last_reported":1752919877,"current_range_meters":12400,"station_id":"ce4bhl92rcd13ifvqghg","pricing_plan_id":"cebpf4jnsgd1na2vs0mg"},{"bike_id":"7f02cd16-abf2-40a4-97c2-19dc0dd97d66","system_id":"levelo_inurba_marseille","lat":43.262237,"lon":5.404453,"is_reserved":false,"is_disabled":false,"rental_uris":{"android":"levelo://app?vid=7f02cd16-abf2-40a4-97c2-19dc0dd97d66","ios":"levelo://app?vid=7f02cd16-abf2-40a4-97c2-19dc0dd97d66"},"vehicle_type_id":"4","last_reported":1752919877,"current_range_meters":13600,"station_id":"ce4bhmh2rcd13ifvqgmg","pricing_plan_id":"cebpf4jnsgd1na2vs0mg"},{"bike_id":"b54db505-defc-4207-b45c-f1c44aac46e8","system_id":"levelo_inurba_marseille","lat":43.269776,"lon":5.403121,"is_reserved":false,"is_disabled":false,"rental_uris":{"android":"levelo://app?vid=b54db505-defc-4207-b45c-f1c44aac46e8","ios":"levelo://app?vid=b54db505-defc-4207-b45c-f1c44aac46e8"},"vehicle_type_id":"4","last_reported":1752919877,"current_range_meters":13600,"station_id":"cjm6bp8fraef2m0cb0m0","pricing_plan_id":"cebpf4jnsgd1na2vs0mg"},{"bike_id":"afc91c81-7042-4270-a28e-07e325ae83c9","system_id":"levelo_inurba_marseille","lat":43.21192,"lon":5.35071,"is_reserved":false,"is_disabled":false,"rental_uris":{"android":"levelo://app?vid=afc91c81-7042-4270-a28e-07e325ae83c9","ios":"levelo://app?vid=afc91c81-7042-4270-a28e-07e325ae83c9"},"vehicle_type_id":"4","last_reported":1752919877,"current_range_meters":14000,"station_id":"st_cvj6sg6p6f1abm77japg","pricing_plan_id":"cebpf4jnsgd1na2vs0mg"},{"bike_id":"96579d04-b9e9-484c-9b9a-af500e5e8552","system_id":"levelo_inurba_marseille","lat":43.32679,"lon":5.36394,"is_reserved":false,"is_disabled":false,"rental_uris":{"android":"levelo://app?vid=96579d04-b9e9-484c-9b9a-af500e5e8552","ios":"levelo://app?vid=96579d04-b9e9-484c-9b9a-af500e5e8552"},"vehicle_type_id":"4","last_reported":1752919877,"current_range_meters":14000,"station_id":"","pricing_plan_id":"cebpf4jnsgd1na2vs0mg"},{"bike_id":"94c07cb2-0943-4d24-99f2-97bdab47aa3f","system_id":"levelo_inurba_marseille","lat":43.337444,"lon":5.374475,"is_reserved":false,"is_disabled":false,"rental_uris":{"android":"levelo://app?vid=94c07cb2-0943-4d24-99f2-97bdab47aa3f","ios":"levelo://app?vid=94c07cb2-0943-4d24-99f2-97bdab47aa3f"},"vehicle_type_id":"4","last_reported":1752919877,"current_range_meters":14000,"station_id":"","pricing_plan_id":"cebpf4jnsgd1na2vs0mg"},{"bike_id":"2897780d-1e4c-4e08-9fc5-61986da6e9fd","system_id":"levelo_inurba_marseille","lat":43.28842,"lon":5.39313,"is_reserved":false,"is_disabled":false,"rental_uris":{"android":"levelo://app?vid=2897780d-1e4c-4e08-9fc5-61986da6e9fd","ios":"levelo://app?vid=2897780d-1e4c-4e08-9fc5-61986da6e9fd"},"vehicle_type_id":"4","last_reported":1752919877,"current_range_meters":14000,"station_id":"ce4bh2p2rcd13ifvqdi0","pricing_plan_id":"cebpf4jnsgd1na2vs0mg"},{"bike_id":"11a10c3e-2518-452e-9534-fe8c7d8faf7f","system_id":"levelo_inurba_marseille","lat":43.247457,"lon":5.411821,"is_reserved":false,"is_disabled":false,"rental_uris":{"android":"levelo://app?vid=11a10c3e-2518-452e-9534-fe8c7d8faf7f","ios":"levelo://app?vid=11a10c3e-2518-452e-9534-fe8c7d8faf7f"},"vehicle_type_id":"4","last_reported":1752919877,"current_range_meters":14400,"station_id":"","pricing_plan_id":"cebpf4jnsgd1na2vs0mg"},{"bike_id":"221a8f03-67cb-485b-8573-9abcf816d5d5","system_id":"levelo_inurba_marseille","lat":43.29868,"lon":5.39734,"is_reserved":false,"is_disabled":false,"rental_uris":{"android":"levelo://app?vid=221a8f03-67cb-485b-8573-9abcf816d5d5","ios":"levelo://app?vid=221a8f03-67cb-485b-8573-9abcf816d5d5"},"vehicle_type_id":"4","last_reported":1752919877,"current_range_meters":14400,"station_id":"","pricing_plan_id":"cebpf4jnsgd1na2vs0mg"},{"bike_id":"b109a4f8-64ff-45b2-bcf7-0449233dd6f0","system_id":"levelo_inurba_marseille","lat":43.25087,"lon":5.39527,"is_reserved":false,"is_disabled":false,"rental_uris":{"android":"levelo://app?vid=b109a4f8-64ff-45b2-bcf7-0449233dd6f0","ios":"levelo://app?vid=b109a4f8-64ff-45b2-bcf7-0449233dd6f0"},"vehicle_type_id":"4","last_reported":1752919877,"current_range_meters":14400,"station_id":"ce4bhm12rcd13ifvqgkg","pricing_plan_id":"cebpf4jnsgd1na2vs0mg"},{"bike_id":"58301191-be91-447c-bd16-c76dbb8d3cce","system_id":"levelo_inurba_marseille","lat":43.28714,"lon":5.37938,"is_reserved":false,"is_disabled":false,"rental_uris":{"android":"levelo://app?vid=58301191-be91-447c-bd16-c76dbb8d3cce","ios":"levelo://app?vid=58301191-be91-447c-bd16-c76dbb8d3cce"},"vehicle_type_id":"4","last_reported":1752919877,"current_range_meters":14400,"station_id":"ce4bh9p2rcd13ifvqec0","pricing_plan_id":"cebpf4jnsgd1na2vs0mg"},{"bike_id":"7360b2c1-827d-4a45-ba07-948ef7d2fc35","system_id":"levelo_inurba_marseille","lat":43.229295,"lon":5.353761,"is_reserved":false,"is_disabled":false,"rental_uris":{"android":"levelo://app?vid=7360b2c1-827d-4a45-ba07-948ef7d2fc35","ios":"levelo://app?vid=7360b2c1-827d-4a45-ba07-948ef7d2fc35"},"vehicle_type_id":"4","last_reported":1752919877,"current_range_meters":14400,"station_id":"","pricing_plan_id":"cebpf4jnsgd1na2vs0mg"},{"bike_id":"9eb19af1-3ac3-436d-805d-794abdcba832","system_id":"levelo_inurba_marseille","lat":43.23196,"lon":5.35527,"is_reserved":false,"is_disabled":false,"rental_uris":{"android":"levelo://app?vid=9eb19af1-3ac3-436d-805d-794abdcba832","ios":"levelo://app?vid=9eb19af1-3ac3-436d-805d-794abdcba832"},"vehicle_type_id":"4","last_reported":1752919877,"current_range_meters":14800,"station_id":"ce4bhu92rcd13ifvqi70","pricing_plan_id":"cebpf4jnsgd1na2vs0mg"},{"bike_id":"160d16e6-1bcc-4613-bb62-d3184d2b36a4","system_id":"levelo_inurba_marseille","lat":43.30161,"lon":5.38081,"is_reserved":false,"is_disabled":false,"rental_uris":{"android":"levelo://app?vid=160d16e6-1bcc-4613-bb62-d3184d2b36a4","ios":"levelo://app?vid=160d16e6-1bcc-4613-bb62-d3184d2b36a4"},"vehicle_type_id":"4","last_reported":1752919877,"current_range_meters":14800,"station_id":"ce4bgjp2rcd13ifvqbh0","pricing_plan_id":"cebpf4jnsgd1na2vs0mg"},{"bike_id":"300796fd-b242-42b9-a8dd-3be06f1515c0","system_id":"levelo_inurba_marseille","lat":43.254977,"lon":5.376396,"is_reserved":false,"is_disabled":false,"rental_uris":{"android":"levelo://app?vid=300796fd-b242-42b9-a8dd-3be06f1515c0","ios":"levelo://app?vid=300796fd-b242-42b9-a8dd-3be06f1515c0"},"vehicle_type_id":"4","last_reported":1752919877,"current_range_meters":14800,"station_id":"ce4bhh12rcd13ifvqff0","pricing_plan_id":"cebpf4jnsgd1na2vs0mg"},{"bike_id":"b970126c-c1c3-439a-8880-44ad88bd90cf","system_id":"levelo_inurba_marseille","lat":43.321222,"lon":5.367691,"is_reserved":false,"is_disabled":false,"rental_uris":{"android":"levelo://app?vid=b970126c-c1c3-439a-8880-44ad88bd90cf","ios":"levelo://app?vid=b970126c-c1c3-439a-8880-44ad88bd90cf"},"vehicle_type_id":"4","last_reported":1752919877,"current_range_meters":14800,"station_id":"ce4bhrh2rcd13ifvqhug","pricing_plan_id":"cebpf4jnsgd1na2vs0mg"},{"bike_id":"94384395-6746-44d0-8207-c06965f79dc0","system_id":"levelo_inurba_marseille","lat":43.33617,"lon":5.4104,"is_reserved":false,"is_disabled":false,"rental_uris":{"android":"levelo://app?vid=94384395-6746-44d0-8207-c06965f79dc0","ios":"levelo://app?vid=94384395-6746-44d0-8207-c06965f79dc0"},"vehicle_type_id":"4","last_reported":1752919877,"current_range_meters":14800,"station_id":"ce4bhqh2rcd13ifvqhmg","pricing_plan_id":"cebpf4jnsgd1na2vs0mg"},{"bike_id":"ad9d3bef-c0d0-4f0d-bd07-55d122ecfe71","system_id":"levelo_inurba_marseille","lat":43.28845,"lon":5.39307,"is_reserved":false,"is_disabled":false,"rental_uris":{"android":"levelo://app?vid=ad9d3bef-c0d0-4f0d-bd07-55d122ecfe71","ios":"levelo://app?vid=ad9d3bef-c0d0-4f0d-bd07-55d122ecfe71"},"vehicle_type_id":"4","last_reported":1752919877,"current_range_meters":14800,"station_id":"ce4bh2p2rcd13ifvqdi0","pricing_plan_id":"cebpf4jnsgd1na2vs0mg"},{"bike_id":"9eee562f-c74b-4c1a-8fa0-1792764207de","system_id":"levelo_inurba_marseille","lat":43.25491,"lon":5.37652,"is_reserved":false,"is_disabled":false,"rental_uris":{"android":"levelo://app?vid=9eee562f-c74b-4c1a-8fa0-1792764207de","ios":"levelo://app?vid=9eee562f-c74b-4c1a-8fa0-1792764207de"},"vehicle_type_id":"4","last_reported":1752919877,"current_range_meters":15200,"station_id":"ce4bhh12rcd13ifvqff0","pricing_plan_id":"cebpf4jnsgd1na2vs0mg"},{"bike_id":"c8c552a0-9110-43d5-974f-1267533c0c87","system_id":"levelo_inurba_marseille","lat":43.29244,"lon":5.366381,"is_reserved":false,"is_disabled":false,"rental_uris":{"android":"levelo://app?vid=c8c552a0-9110-43d5-974f-1267533c0c87","ios":"levelo://app?vid=c8c552a0-9110-43d5-974f-1267533c0c87"},"vehicle_type_id":"4","last_reported":1752919877,"current_range_meters":15200,"station_id":"ce4bgs12rcd13ifvqcag","pricing_plan_id":"cebpf4jnsgd1na2vs0mg"},{"bike_id":"2e73ca94-9293-404b-9207-03d0f48ea2b6","system_id":"levelo_inurba_marseille","lat":43.29889,"lon":5.39763,"is_reserved":false,"is_disabled":false,"rental_uris":{"android":"levelo://app?vid=2e73ca94-9293-404b-9207-03d0f48ea2b6","ios":"levelo://app?vid=2e73ca94-9293-404b-9207-03d0f48ea2b6"},"vehicle_type_id":"4","last_reported":1752919877,"current_range_meters":15200,"station_id":"ce4bh0h2rcd13ifvqd50","pricing_plan_id":"cebpf4jnsgd1na2vs0mg"},{"bike_id":"b63e8a2f-fce2-4c51-ba36-e5afdbd91582","system_id":"levelo_inurba_marseille","lat":43.286891,"lon":5.373932,"is_reserved":false,"is_disabled":false,"rental_uris":{"android":"levelo://app?vid=b63e8a2f-fce2-4c51-ba36-e5afdbd91582","ios":"levelo://app?vid=b63e8a2f-fce2-4c51-ba36-e5afdbd91582"},"vehicle_type_id":"4","last_reported":1752919877,"current_range_meters":16000,"station_id":"ce4bh3p2rcd13ifvqdq0","pricing_plan_id":"cebpf4jnsgd1na2vs0mg"},{"bike_id":"03c88ba5-4a11-4d30-b529-8b963a258f56","system_id":"levelo_inurba_marseille","lat":43.23154,"lon":5.43728,"is_reserved":false,"is_disabled":false,"rental_uris":{"android":"levelo://app?vid=03c88ba5-4a11-4d30-b529-8b963a258f56","ios":"levelo://app?vid=03c88ba5-4a11-4d30-b529-8b963a258f56"},"vehicle_type_id":"4","last_reported":1752919877,"current_range_meters":16000,"station_id":"ce4bhmp2rcd13ifvqgog","pricing_plan_id":"cebpf4jnsgd1na2vs0mg"},{"bike_id":"d1e9c72e-7489-4052-b944-813b64bc55b4","system_id":"levelo_inurba_marseille","lat":43.31625,"lon":5.39006,"is_reserved":false,"is_disabled":false,"rental_uris":{"android":"levelo://app?vid=d1e9c72e-7489-4052-b944-813b64bc55b4","ios":"levelo://app?vid=d1e9c72e-7489-4052-b944-813b64bc55b4"},"vehicle_type_id":"4","last_reported":1752919877,"current_range_meters":16000,"station_id":"","pricing_plan_id":"cebpf4jnsgd1na2vs0mg"},{"bike_id":"ccd16db9-fe40-407a-8aa4-3a1b94ad4924","system_id":"levelo_inurba_marseille","lat":43.28968,"lon":5.37826,"is_reserved":false,"is_disabled":false,"rental_uris":{"android":"levelo://app?vid=ccd16db9-fe40-407a-8aa4-3a1b94ad4924","ios":"levelo://app?vid=ccd16db9-fe40-407a-8aa4-3a1b94ad4924"},"vehicle_type_id":"4","last_reported":1752919877,"current_range_meters":16400,"station_id":"ce4bh9p2rcd13ifvqed0","pricing_plan_id":"cebpf4jnsgd1na2vs0mg"},{"bike_id":"504b82cb-e3a2-4f37-8b12-9b1fa1b5ad65","system_id":"levelo_inurba_marseille","lat":43.301445,"lon":5.374148,"is_reserved":false,"is_disabled":false,"rental_uris":{"android":"levelo://app?vid=504b82cb-e3a2-4f37-8b12-9b1fa1b5ad65","ios":"levelo://app?vid=504b82cb-e3a2-4f37-8b12-9b1fa1b5ad65"},"vehicle_type_id":"4","last_reported":1752919877,"current_range_meters":16400,"station_id":"ce4bgs92rcd13ifvqcc0","pricing_plan_id":"cebpf4jnsgd1na2vs0mg"},{"bike_id":"a54008a8-d6df-4141-9c71-b657434298fc","system_id":"levelo_inurba_marseille","lat":43.31722,"lon":5.40472,"is_reserved":false,"is_disabled":false,"rental_uris":{"android":"levelo://app?vid=a54008a8-d6df-4141-9c71-b657434298fc","ios":"levelo://app?vid=a54008a8-d6df-4141-9c71-b657434298fc"},"vehicle_type_id":"4","last_reported":1752919877,"current_range_meters":16400,"station_id":"ce4bh012rcd13ifvqd00","pricing_plan_id":"cebpf4jnsgd1na2vs0mg"},{"bike_id":"83554a23-a358-4883-a715-c909e7b9d241","system_id":"levelo_inurba_marseille","lat":43.284825,"lon":5.38549,"is_reserved":false,"is_disabled":false,"rental_uris":{"android":"levelo://app?vid=83554a23-a358-4883-a715-c909e7b9d241","ios":"levelo://app?vid=83554a23-a358-4883-a715-c909e7b9d241"},"vehicle_type_id":"4","last_reported":1752919877,"current_range_meters":16400,"station_id":"ce4bh8p2rcd13ifvqeb0","pricing_plan_id":"cebpf4jnsgd1na2vs0mg"},{"bike_id":"5e1e4ce9-0647-4873-89d2-fc28efd06e93","system_id":"levelo_inurba_marseille","lat":43.30561,"lon":5.365572,"is_reserved":false,"is_disabled":false,"rental_uris":{"android":"levelo://app?vid=5e1e4ce9-0647-4873-89d2-fc28efd06e93","ios":"levelo://app?vid=5e1e4ce9-0647-4873-89d2-fc28efd06e93"},"vehicle_type_id":"4","last_reported":1752919877,"current_range_meters":16400,"station_id":"","pricing_plan_id":"cebpf4jnsgd1na2vs0mg"},{"bike_id":"e122d88a-9b60-4e16-a29e-60ef32a8dad5","system_id":"levelo_inurba_marseille","lat":43.21197,"lon":5.35065,"is_reserved":false,"is_disabled":false,"rental_uris":{"android":"levelo://app?vid=e122d88a-9b60-4e16-a29e-60ef32a8dad5","ios":"levelo://app?vid=e122d88a-9b60-4e16-a29e-60ef32a8dad5"},"vehicle_type_id":"4","last_reported":1752919877,"current_range_meters":16400,"station_id":"st_cvj6sg6p6f1abm77japg","pricing_plan_id":"cebpf4jnsgd1na2vs0mg"},{"bike_id":"ae514fe1-85ea-4b12-b065-9e5a24663928","system_id":"levelo_inurba_marseille","lat":43.211936,"lon":5.350739,"is_reserved":false,"is_disabled":false,"rental_uris":{"android":"levelo://app?vid=ae514fe1-85ea-4b12-b065-9e5a24663928","ios":"levelo://app?vid=ae514fe1-85ea-4b12-b065-9e5a24663928"},"vehicle_type_id":"4","last_reported":1752919877,"current_range_meters":16400,"station_id":"st_cvj6sg6p6f1abm77japg","pricing_plan_id":"cebpf4jnsgd1na2vs0mg"},{"bike_id":"ae0392da-a19c-4231-8f83-9975dc7bb000","system_id":"levelo_inurba_marseille","lat":43.29279,"lon":5.40126,"is_reserved":false,"is_disabled":false,"rental_uris":{"android":"levelo://app?vid=ae0392da-a19c-4231-8f83-9975dc7bb000","ios":"levelo://app?vid=ae0392da-a19c-4231-8f83-9975dc7bb000"},"vehicle_type_id":"4","last_reported":1752919877,"current_range_meters":16000,"station_id":"ce4bh312rcd13ifvqdk0","pricing_plan_id":"cebpf4jnsgd1na2vs0mg"},{"bike_id":"fdbeb289-adb3-4e25-b0dd-c635efbe92b2","system_id":"levelo_inurba_marseille","lat":43.317,"lon":5.40465,"is_reserved":false,"is_disabled":false,"rental_uris":{"android":"levelo://app?vid=fdbeb289-adb3-4e25-b0dd-c635efbe92b2","ios":"levelo://app?vid=fdbeb289-adb3-4e25-b0dd-c635efbe92b2"},"vehicle_type_id":"4","last_reported":1752919877,"current_range_meters":16400,"station_id":"ce4bh012rcd13ifvqd00","pricing_plan_id":"cebpf4jnsgd1na2vs0mg"},{"bike_id":"0aed0735-3cc1-45bb-97e8-dab2dceebba7","system_id":"levelo_inurba_marseille","lat":43.29367,"lon":5.37851,"is_reserved":false,"is_disabled":false,"rental_uris":{"android":"levelo://app?vid=0aed0735-3cc1-45bb-97e8-dab2dceebba7","ios":"levelo://app?vid=0aed0735-3cc1-45bb-97e8-dab2dceebba7"},"vehicle_type_id":"4","last_reported":1752919877,"current_range_meters":16400,"station_id":"ce4bgjh2rcd13ifvqbf0","pricing_plan_id":"cebpf4jnsgd1na2vs0mg"},{"bike_id":"d421927e-7ddd-40a0-904f-5b4ff0266a72","system_id":"levelo_inurba_marseille","lat":43.31915,"lon":5.4015,"is_reserved":false,"is_disabled":false,"rental_uris":{"android":"levelo://app?vid=d421927e-7ddd-40a0-904f-5b4ff0266a72","ios":"levelo://app?vid=d421927e-7ddd-40a0-904f-5b4ff0266a72"},"vehicle_type_id":"4","last_reported":1752919877,"current_range_meters":16800,"station_id":"","pricing_plan_id":"cebpf4jnsgd1na2vs0mg"},{"bike_id":"45dea0eb-918d-49f1-8341-001e35c226f0","system_id":"levelo_inurba_marseille","lat":43.21216,"lon":5.35085,"is_reserved":false,"is_disabled":false,"rental_uris":{"android":"levelo://app?vid=45dea0eb-918d-49f1-8341-001e35c226f0","ios":"levelo://app?vid=45dea0eb-918d-49f1-8341-001e35c226f0"},"vehicle_type_id":"4","last_reported":1752919877,"current_range_meters":16800,"station_id":"st_cvj6sg6p6f1abm77japg","pricing_plan_id":"cebpf4jnsgd1na2vs0mg"},{"bike_id":"948cc778-4b52-43d4-bd05-9525cc0c3471","system_id":"levelo_inurba_marseille","lat":43.28093,"lon":5.39302,"is_reserved":false,"is_disabled":false,"rental_uris":{"android":"levelo://app?vid=948cc778-4b52-43d4-bd05-9525cc0c3471","ios":"levelo://app?vid=948cc778-4b52-43d4-bd05-9525cc0c3471"},"vehicle_type_id":"4","last_reported":1752919877,"current_range_meters":16800,"station_id":"","pricing_plan_id":"cebpf4jnsgd1na2vs0mg"},{"bike_id":"da9491f3-312c-4aea-8ad8-78120d4f6886","system_id":"levelo_inurba_marseille","lat":43.27211,"lon":5.39179,"is_reserved":false,"is_disabled":false,"rental_uris":{"android":"levelo://app?vid=da9491f3-312c-4aea-8ad8-78120d4f6886","ios":"levelo://app?vid=da9491f3-312c-4aea-8ad8-78120d4f6886"},"vehicle_type_id":"4","last_reported":1752919877,"current_range_meters":16800,"station_id":"ce4bhhp2rcd13ifvqfm0","pricing_plan_id":"cebpf4jnsgd1na2vs0mg"},{"bike_id":"b6ea612c-d0d3-4bea-962e-28454bf3f133","system_id":"levelo_inurba_marseille","lat":43.30149,"lon":5.37423,"is_reserved":false,"is_disabled":false,"rental_uris":{"android":"levelo://app?vid=b6ea612c-d0d3-4bea-962e-28454bf3f133","ios":"levelo://app?vid=b6ea612c-d0d3-4bea-962e-28454bf3f133"},"vehicle_type_id":"4","last_reported":1752919877,"current_range_meters":16800,"station_id":"ce4bgs92rcd13ifvqcc0","pricing_plan_id":"cebpf4jnsgd1na2vs0mg"},{"bike_id":"629769f2-97d8-4abd-b69d-8a93a126ec0a","system_id":"levelo_inurba_marseille","lat":43.30155,"lon":5.38089,"is_reserved":false,"is_disabled":false,"rental_uris":{"android":"levelo://app?vid=629769f2-97d8-4abd-b69d-8a93a126ec0a","ios":"levelo://app?vid=629769f2-97d8-4abd-b69d-8a93a126ec0a"},"vehicle_type_id":"4","last_reported":1752919877,"current_range_meters":16800,"station_id":"ce4bgjp2rcd13ifvqbh0","pricing_plan_id":"cebpf4jnsgd1na2vs0mg"},{"bike_id":"85b60914-ad7f-48ac-a269-72858d03ea23","system_id":"levelo_inurba_marseille","lat":43.30418,"lon":5.37819,"is_reserved":false,"is_disabled":false,"rental_uris":{"android":"levelo://app?vid=85b60914-ad7f-48ac-a269-72858d03ea23","ios":"levelo://app?vid=85b60914-ad7f-48ac-a269-72858d03ea23"},"vehicle_type_id":"4","last_reported":1752919877,"current_range_meters":16800,"station_id":"","pricing_plan_id":"cebpf4jnsgd1na2vs0mg"},{"bike_id":"adcbd47e-0356-4041-8465-c6bc4ac1b030","system_id":"levelo_inurba_marseille","lat":43.23184,"lon":5.39992,"is_reserved":false,"is_disabled":false,"rental_uris":{"android":"levelo://app?vid=adcbd47e-0356-4041-8465-c6bc4ac1b030","ios":"levelo://app?vid=adcbd47e-0356-4041-8465-c6bc4ac1b030"},"vehicle_type_id":"4","last_reported":1752919877,"current_range_meters":16800,"station_id":"ce4bhn12rcd13ifvqgqg","pricing_plan_id":"cebpf4jnsgd1na2vs0mg"},{"bike_id":"44e89ad7-16a2-4910-805f-061f2aee5ab7","system_id":"levelo_inurba_marseille","lat":43.23183,"lon":5.35576,"is_reserved":false,"is_disabled":false,"rental_uris":{"android":"levelo://app?vid=44e89ad7-16a2-4910-805f-061f2aee5ab7","ios":"levelo://app?vid=44e89ad7-16a2-4910-805f-061f2aee5ab7"},"vehicle_type_id":"4","last_reported":1752919877,"current_range_meters":16800,"station_id":"ce4bhu92rcd13ifvqi70","pricing_plan_id":"cebpf4jnsgd1na2vs0mg"},{"bike_id":"c563397a-8e95-43de-9482-c447bf9c775e","system_id":"levelo_inurba_marseille","lat":43.293325,"lon":5.411534,"is_reserved":false,"is_disabled":false,"rental_uris":{"android":"levelo://app?vid=c563397a-8e95-43de-9482-c447bf9c775e","ios":"levelo://app?vid=c563397a-8e95-43de-9482-c447bf9c775e"},"vehicle_type_id":"4","last_reported":1752919877,"current_range_meters":16800,"station_id":"","pricing_plan_id":"cebpf4jnsgd1na2vs0mg"},{"bike_id":"6ef2414e-5c57-4077-84ee-455e6c466a26","system_id":"levelo_inurba_marseille","lat":43.29441,"lon":5.39748,"is_reserved":false,"is_disabled":false,"rental_uris":{"android":"levelo://app?vid=6ef2414e-5c57-4077-84ee-455e6c466a26","ios":"levelo://app?vid=6ef2414e-5c57-4077-84ee-455e6c466a26"},"vehicle_type_id":"4","last_reported":1752919877,"current_range_meters":16800,"station_id":"ce4bh3h2rcd13ifvqdo0","pricing_plan_id":"cebpf4jnsgd1na2vs0mg"},{"bike_id":"7d91d34c-95ba-419a-8d0b-21d2aeaa83ad","system_id":"levelo_inurba_marseille","lat":43.25485,"lon":5.376707,"is_reserved":false,"is_disabled":false,"rental_uris":{"android":"levelo://app?vid=7d91d34c-95ba-419a-8d0b-21d2aeaa83ad","ios":"levelo://app?vid=7d91d34c-95ba-419a-8d0b-21d2aeaa83ad"},"vehicle_type_id":"4","last_reported":1752919877,"current_range_meters":16800,"station_id":"ce4bhh12rcd13ifvqff0","pricing_plan_id":"cebpf4jnsgd1na2vs0mg"},{"bike_id":"1c522f02-0b79-4f13-8656-a28cc4186541","system_id":"levelo_inurba_marseille","lat":43.21758,"lon":5.34601,"is_reserved":false,"is_disabled":false,"rental_uris":{"android":"levelo://app?vid=1c522f02-0b79-4f13-8656-a28cc4186541","ios":"levelo://app?vid=1c522f02-0b79-4f13-8656-a28cc4186541"},"vehicle_type_id":"4","last_reported":1752919877,"current_range_meters":16800,"station_id":"","pricing_plan_id":"cebpf4jnsgd1na2vs0mg"},{"bike_id":"f64d4495-c6c3-4047-b421-2e9c29951567","system_id":"levelo_inurba_marseille","lat":43.22507,"lon":5.34801,"is_reserved":false,"is_disabled":false,"rental_uris":{"android":"levelo://app?vid=f64d4495-c6c3-4047-b421-2e9c29951567","ios":"levelo://app?vid=f64d4495-c6c3-4047-b421-2e9c29951567"},"vehicle_type_id":"4","last_reported":1752919877,"current_range_meters":17200,"station_id":"st_cvj5dfep6f1abm77gieg","pricing_plan_id":"cebpf4jnsgd1na2vs0mg"},{"bike_id":"c8e0233e-d756-4455-b025-f97439608561","system_id":"levelo_inurba_marseille","lat":43.30771,"lon":5.37381,"is_reserved":false,"is_disabled":false,"rental_uris":{"android":"levelo://app?vid=c8e0233e-d756-4455-b025-f97439608561","ios":"levelo://app?vid=c8e0233e-d756-4455-b025-f97439608561"},"vehicle_type_id":"4","last_reported":1752919877,"current_range_meters":17200,"station_id":"","pricing_plan_id":"cebpf4jnsgd1na2vs0mg"},{"bike_id":"ce2d33c7-f5ba-4c86-93e2-74fe4592b5f8","system_id":"levelo_inurba_marseille","lat":43.26936,"lon":5.40285,"is_reserved":false,"is_disabled":false,"rental_uris":{"android":"levelo://app?vid=ce2d33c7-f5ba-4c86-93e2-74fe4592b5f8","ios":"levelo://app?vid=ce2d33c7-f5ba-4c86-93e2-74fe4592b5f8"},"vehicle_type_id":"4","last_reported":1752919877,"current_range_meters":17200,"station_id":"cjm6bp8fraef2m0cb0m0","pricing_plan_id":"cebpf4jnsgd1na2vs0mg"},{"bike_id":"4a2af6fb-f040-4dff-9ff5-d70c4f952e83","system_id":"levelo_inurba_marseille","lat":43.31522,"lon":5.37335,"is_reserved":false,"is_disabled":false,"rental_uris":{"android":"levelo://app?vid=4a2af6fb-f040-4dff-9ff5-d70c4f952e83","ios":"levelo://app?vid=4a2af6fb-f040-4dff-9ff5-d70c4f952e83"},"vehicle_type_id":"4","last_reported":1752919877,"current_range_meters":17200,"station_id":"ce4bgt12rcd13ifvqcd0","pricing_plan_id":"cebpf4jnsgd1na2vs0mg"},{"bike_id":"25c61d91-92f9-47bc-ba2a-34ec5d0a2e05","system_id":"levelo_inurba_marseille","lat":43.22935,"lon":5.35379,"is_reserved":false,"is_disabled":false,"rental_uris":{"android":"levelo://app?vid=25c61d91-92f9-47bc-ba2a-34ec5d0a2e05","ios":"levelo://app?vid=25c61d91-92f9-47bc-ba2a-34ec5d0a2e05"},"vehicle_type_id":"4","last_reported":1752919877,"current_range_meters":17200,"station_id":"cpo3532slgdg3j2ikp40","pricing_plan_id":"cebpf4jnsgd1na2vs0mg"},{"bike_id":"733c402f-6bbd-4ff7-9cc1-681ba0e2f489","system_id":"levelo_inurba_marseille","lat":43.330309,"lon":5.390371,"is_reserved":false,"is_disabled":false,"rental_uris":{"android":"levelo://app?vid=733c402f-6bbd-4ff7-9cc1-681ba0e2f489","ios":"levelo://app?vid=733c402f-6bbd-4ff7-9cc1-681ba0e2f489"},"vehicle_type_id":"4","last_reported":1752919877,"current_range_meters":17200,"station_id":"ce4bhr92rcd13ifvqhrg","pricing_plan_id":"cebpf4jnsgd1na2vs0mg"},{"bike_id":"0b4d8de7-25a5-4971-ac4e-4d4a5549a73c","system_id":"levelo_inurba_marseille","lat":43.29256,"lon":5.37615,"is_reserved":false,"is_disabled":false,"rental_uris":{"android":"levelo://app?vid=0b4d8de7-25a5-4971-ac4e-4d4a5549a73c","ios":"levelo://app?vid=0b4d8de7-25a5-4971-ac4e-4d4a5549a73c"},"vehicle_type_id":"4","last_reported":1752919877,"current_range_meters":17200,"station_id":"ce4bgi12rcd13ifvqb80","pricing_plan_id":"cebpf4jnsgd1na2vs0mg"},{"bike_id":"5a570911-22d0-41b1-a776-0fe138c4bdc4","system_id":"levelo_inurba_marseille","lat":43.211878,"lon":5.350677,"is_reserved":false,"is_disabled":false,"rental_uris":{"android":"levelo://app?vid=5a570911-22d0-41b1-a776-0fe138c4bdc4","ios":"levelo://app?vid=5a570911-22d0-41b1-a776-0fe138c4bdc4"},"vehicle_type_id":"4","last_reported":1752919877,"current_range_meters":17200,"station_id":"st_cvj6sg6p6f1abm77japg","pricing_plan_id":"cebpf4jnsgd1na2vs0mg"},{"bike_id":"30bcf5a2-54ff-4a2c-8c02-bb341edfaa7c","system_id":"levelo_inurba_marseille","lat":43.25483,"lon":5.37655,"is_reserved":false,"is_disabled":false,"rental_uris":{"android":"levelo://app?vid=30bcf5a2-54ff-4a2c-8c02-bb341edfaa7c","ios":"levelo://app?vid=30bcf5a2-54ff-4a2c-8c02-bb341edfaa7c"},"vehicle_type_id":"4","last_reported":1752919877,"current_range_meters":17200,"station_id":"","pricing_plan_id":"cebpf4jnsgd1na2vs0mg"},{"bike_id":"7592d3b0-727d-4107-ba81-a2966cdc2b34","system_id":"levelo_inurba_marseille","lat":43.26212,"lon":5.40504,"is_reserved":false,"is_disabled":false,"rental_uris":{"android":"levelo://app?vid=7592d3b0-727d-4107-ba81-a2966cdc2b34","ios":"levelo://app?vid=7592d3b0-727d-4107-ba81-a2966cdc2b34"},"vehicle_type_id":"4","last_reported":1752919877,"current_range_meters":17200,"station_id":"ce4bhmh2rcd13ifvqgmg","pricing_plan_id":"cebpf4jnsgd1na2vs0mg"},{"bike_id":"3f168989-e1a1-4443-996c-74afdfc36898","system_id":"levelo_inurba_marseille","lat":43.30175,"lon":5.38063,"is_reserved":false,"is_disabled":false,"rental_uris":{"android":"levelo://app?vid=3f168989-e1a1-4443-996c-74afdfc36898","ios":"levelo://app?vid=3f168989-e1a1-4443-996c-74afdfc36898"},"vehicle_type_id":"4","last_reported":1752919877,"current_range_meters":17600,"station_id":"ce4bgjp2rcd13ifvqbh0","pricing_plan_id":"cebpf4jnsgd1na2vs0mg"},{"bike_id":"f8b76ae5-e6b9-46ea-bf06-5b7fe9ab6cd4","system_id":"levelo_inurba_marseille","lat":43.27971,"lon":5.38749,"is_reserved":false,"is_disabled":false,"rental_uris":{"android":"levelo://app?vid=f8b76ae5-e6b9-46ea-bf06-5b7fe9ab6cd4","ios":"levelo://app?vid=f8b76ae5-e6b9-46ea-bf06-5b7fe9ab6cd4"},"vehicle_type_id":"4","last_reported":1752919877,"current_range_meters":17600,"station_id":"ce4bhg12rcd13ifvqf80","pricing_plan_id":"cebpf4jnsgd1na2vs0mg"},{"bike_id":"be2fb6b8-f9f1-4e24-8d7a-ce43be2126d1","system_id":"levelo_inurba_marseille","lat":43.21753,"lon":5.34598,"is_reserved":false,"is_disabled":false,"rental_uris":{"android":"levelo://app?vid=be2fb6b8-f9f1-4e24-8d7a-ce43be2126d1","ios":"levelo://app?vid=be2fb6b8-f9f1-4e24-8d7a-ce43be2126d1"},"vehicle_type_id":"4","last_reported":1752919877,"current_range_meters":17600,"station_id":"st_cvj6r9ubvosntc0bgbag","pricing_plan_id":"cebpf4jnsgd1na2vs0mg"},{"bike_id":"9f00b516-2e6c-49ff-b45a-2a85d3e69abf","system_id":"levelo_inurba_marseille","lat":43.29267,"lon":5.39142,"is_reserved":false,"is_disabled":false,"rental_uris":{"android":"levelo://app?vid=9f00b516-2e6c-49ff-b45a-2a85d3e69abf","ios":"levelo://app?vid=9f00b516-2e6c-49ff-b45a-2a85d3e69abf"},"vehicle_type_id":"4","last_reported":1752919877,"current_range_meters":17600,"station_id":"","pricing_plan_id":"cebpf4jnsgd1na2vs0mg"},{"bike_id":"0ac9b427-819d-4139-8162-77866abdf07d","system_id":"levelo_inurba_marseille","lat":43.24669,"lon":5.38881,"is_reserved":false,"is_disabled":false,"rental_uris":{"android":"levelo://app?vid=0ac9b427-819d-4139-8162-77866abdf07d","ios":"levelo://app?vid=0ac9b427-819d-4139-8162-77866abdf07d"},"vehicle_type_id":"4","last_reported":1752919877,"current_range_meters":17600,"station_id":"ce4bhg12rcd13ifvqf60","pricing_plan_id":"cebpf4jnsgd1na2vs0mg"},{"bike_id":"2060869b-d87e-4c30-8864-6b1d75522919","system_id":"levelo_inurba_marseille","lat":43.29904,"lon":5.43659,"is_reserved":false,"is_disabled":false,"rental_uris":{"android":"levelo://app?vid=2060869b-d87e-4c30-8864-6b1d75522919","ios":"levelo://app?vid=2060869b-d87e-4c30-8864-6b1d75522919"},"vehicle_type_id":"4","last_reported":1752919877,"current_range_meters":17600,"station_id":"ce4bhpp2rcd13ifvqhfg","pricing_plan_id":"cebpf4jnsgd1na2vs0mg"},{"bike_id":"4d16fb63-b4d8-4b82-a63b-e0e3be7988a7","system_id":"levelo_inurba_marseille","lat":43.28617,"lon":5.351,"is_reserved":false,"is_disabled":false,"rental_uris":{"android":"levelo://app?vid=4d16fb63-b4d8-4b82-a63b-e0e3be7988a7","ios":"levelo://app?vid=4d16fb63-b4d8-4b82-a63b-e0e3be7988a7"},"vehicle_type_id":"4","last_reported":1752919877,"current_range_meters":17600,"station_id":"ce4bhch2rcd13ifvqeug","pricing_plan_id":"cebpf4jnsgd1na2vs0mg"},{"bike_id":"f91c99ba-7455-4afb-abf7-b87487382cc7","system_id":"levelo_inurba_marseille","lat":43.32369,"lon":5.38893,"is_reserved":false,"is_disabled":false,"rental_uris":{"android":"levelo://app?vid=f91c99ba-7455-4afb-abf7-b87487382cc7","ios":"levelo://app?vid=f91c99ba-7455-4afb-abf7-b87487382cc7"},"vehicle_type_id":"4","last_reported":1752919877,"current_range_meters":17600,"station_id":"ce4bhqp2rcd13ifvqhog","pricing_plan_id":"cebpf4jnsgd1na2vs0mg"},{"bike_id":"eca2d9a6-9946-4ff6-a3f3-9bce5243c578","system_id":"levelo_inurba_marseille","lat":43.24165,"lon":5.36399,"is_reserved":false,"is_disabled":false,"rental_uris":{"android":"levelo://app?vid=eca2d9a6-9946-4ff6-a3f3-9bce5243c578","ios":"levelo://app?vid=eca2d9a6-9946-4ff6-a3f3-9bce5243c578"},"vehicle_type_id":"4","last_reported":1752919877,"current_range_meters":18000,"station_id":"cpo36qri1sfpv3e86is0","pricing_plan_id":"cebpf4jnsgd1na2vs0mg"},{"bike_id":"d01966a7-5e23-40f7-8323-4d6534e79969","system_id":"levelo_inurba_marseille","lat":43.22937,"lon":5.35428,"is_reserved":false,"is_disabled":false,"rental_uris":{"android":"levelo://app?vid=d01966a7-5e23-40f7-8323-4d6534e79969","ios":"levelo://app?vid=d01966a7-5e23-40f7-8323-4d6534e79969"},"vehicle_type_id":"4","last_reported":1752919877,"current_range_meters":18000,"station_id":"cpo3532slgdg3j2ikp40","pricing_plan_id":"cebpf4jnsgd1na2vs0mg"},{"bike_id":"4fa5ac28-5040-45f4-822d-9f4f49627e90","system_id":"levelo_inurba_marseille","lat":43.28617,"lon":5.351045,"is_reserved":false,"is_disabled":false,"rental_uris":{"android":"levelo://app?vid=4fa5ac28-5040-45f4-822d-9f4f49627e90","ios":"levelo://app?vid=4fa5ac28-5040-45f4-822d-9f4f49627e90"},"vehicle_type_id":"4","last_reported":1752919877,"current_range_meters":18000,"station_id":"ce4bgg92rcd13ifvqb30","pricing_plan_id":"cebpf4jnsgd1na2vs0mg"},{"bike_id":"f734d1ab-e95f-49df-a640-db407264fdd1","system_id":"levelo_inurba_marseille","lat":43.29563,"lon":5.375202,"is_reserved":false,"is_disabled":false,"rental_uris":{"android":"levelo://app?vid=f734d1ab-e95f-49df-a640-db407264fdd1","ios":"levelo://app?vid=f734d1ab-e95f-49df-a640-db407264fdd1"},"vehicle_type_id":"4","last_reported":1752919877,"current_range_meters":18000,"station_id":"ce4bgh92rcd13ifvqb50","pricing_plan_id":"cebpf4jnsgd1na2vs0mg"},{"bike_id":"a4849453-fc76-4eef-856a-587b0feaf6dc","system_id":"levelo_inurba_marseille","lat":43.28413,"lon":5.3498,"is_reserved":false,"is_disabled":false,"rental_uris":{"android":"levelo://app?vid=a4849453-fc76-4eef-856a-587b0feaf6dc","ios":"levelo://app?vid=a4849453-fc76-4eef-856a-587b0feaf6dc"},"vehicle_type_id":"4","last_reported":1752919877,"current_range_meters":18000,"station_id":"ce4bhbh2rcd13ifvqepg","pricing_plan_id":"cebpf4jnsgd1na2vs0mg"},{"bike_id":"e92263ed-3bc3-411f-8f4c-27ac84923f85","system_id":"levelo_inurba_marseille","lat":43.27057,"lon":5.40292,"is_reserved":false,"is_disabled":false,"rental_uris":{"android":"levelo://app?vid=e92263ed-3bc3-411f-8f4c-27ac84923f85","ios":"levelo://app?vid=e92263ed-3bc3-411f-8f4c-27ac84923f85"},"vehicle_type_id":"4","last_reported":1752919877,"current_range_meters":18000,"station_id":"ce4bhk92rcd13ifvqgc0","pricing_plan_id":"cebpf4jnsgd1na2vs0mg"},{"bike_id":"8cd4a7fd-f0fe-4c0b-8398-eaedf409fc8a","system_id":"levelo_inurba_marseille","lat":43.23184,"lon":5.39988,"is_reserved":false,"is_disabled":false,"rental_uris":{"android":"levelo://app?vid=8cd4a7fd-f0fe-4c0b-8398-eaedf409fc8a","ios":"levelo://app?vid=8cd4a7fd-f0fe-4c0b-8398-eaedf409fc8a"},"vehicle_type_id":"4","last_reported":1752919877,"current_range_meters":18000,"station_id":"ce4bhn12rcd13ifvqgqg","pricing_plan_id":"cebpf4jnsgd1na2vs0mg"},{"bike_id":"0f1307af-c52e-4243-8926-1a68a6fa1405","system_id":"levelo_inurba_marseille","lat":43.2603,"lon":5.37549,"is_reserved":false,"is_disabled":false,"rental_uris":{"android":"levelo://app?vid=0f1307af-c52e-4243-8926-1a68a6fa1405","ios":"levelo://app?vid=0f1307af-c52e-4243-8926-1a68a6fa1405"},"vehicle_type_id":"4","last_reported":1752919877,"current_range_meters":18800,"station_id":"ce4bhgh2rcd13ifvqfa0","pricing_plan_id":"cebpf4jnsgd1na2vs0mg"},{"bike_id":"ea3d95ea-8a46-4756-8124-0ff791fd1160","system_id":"levelo_inurba_marseille","lat":43.305754,"lon":5.393345,"is_reserved":false,"is_disabled":false,"rental_uris":{"android":"levelo://app?vid=ea3d95ea-8a46-4756-8124-0ff791fd1160","ios":"levelo://app?vid=ea3d95ea-8a46-4756-8124-0ff791fd1160"},"vehicle_type_id":"4","last_reported":1752919877,"current_range_meters":18800,"station_id":"ce4bh0p2rcd13ifvqd80","pricing_plan_id":"cebpf4jnsgd1na2vs0mg"},{"bike_id":"6fb131dd-8bae-4bc0-b0c0-17992306572f","system_id":"levelo_inurba_marseille","lat":43.295525,"lon":5.422918,"is_reserved":false,"is_disabled":false,"rental_uris":{"android":"levelo://app?vid=6fb131dd-8bae-4bc0-b0c0-17992306572f","ios":"levelo://app?vid=6fb131dd-8bae-4bc0-b0c0-17992306572f"},"vehicle_type_id":"4","last_reported":1752919877,"current_range_meters":18800,"station_id":"ce4bhph2rcd13ifvqhdg","pricing_plan_id":"cebpf4jnsgd1na2vs0mg"},{"bike_id":"eb382225-cbaf-4316-b149-09be7dc8ddca","system_id":"levelo_inurba_marseille","lat":43.29591,"lon":5.38108,"is_reserved":false,"is_disabled":false,"rental_uris":{"android":"levelo://app?vid=eb382225-cbaf-4316-b149-09be7dc8ddca","ios":"levelo://app?vid=eb382225-cbaf-4316-b149-09be7dc8ddca"},"vehicle_type_id":"4","last_reported":1752919877,"current_range_meters":18800,"station_id":"ce4bgl12rcd13ifvqbo0","pricing_plan_id":"cebpf4jnsgd1na2vs0mg"},{"bike_id":"c9e13ae8-81d2-45a5-adef-f1b61a66153b","system_id":"levelo_inurba_marseille","lat":43.2396,"lon":5.36632,"is_reserved":false,"is_disabled":false,"rental_uris":{"android":"levelo://app?vid=c9e13ae8-81d2-45a5-adef-f1b61a66153b","ios":"levelo://app?vid=c9e13ae8-81d2-45a5-adef-f1b61a66153b"},"vehicle_type_id":"4","last_reported":1752919877,"current_range_meters":18800,"station_id":"ce4bhi12rcd13ifvqfp0","pricing_plan_id":"cebpf4jnsgd1na2vs0mg"},{"bike_id":"2ba13de8-2053-45a6-bcbf-51b7a4e83469","system_id":"levelo_inurba_marseille","lat":43.23762,"lon":5.36173,"is_reserved":false,"is_disabled":false,"rental_uris":{"android":"levelo://app?vid=2ba13de8-2053-45a6-bcbf-51b7a4e83469","ios":"levelo://app?vid=2ba13de8-2053-45a6-bcbf-51b7a4e83469"},"vehicle_type_id":"4","last_reported":1752919877,"current_range_meters":18800,"station_id":"","pricing_plan_id":"cebpf4jnsgd1na2vs0mg"},{"bike_id":"def684fe-5ae6-4eaf-af4f-a8755d3dab4f","system_id":"levelo_inurba_marseille","lat":43.284718,"lon":5.384179,"is_reserved":false,"is_disabled":true,"rental_uris":{"android":"levelo://app?vid=def684fe-5ae6-4eaf-af4f-a8755d3dab4f","ios":"levelo://app?vid=def684fe-5ae6-4eaf-af4f-a8755d3dab4f"},"vehicle_type_id":"4","last_reported":1752919877,"current_range_meters":18800,"station_id":"","pricing_plan_id":"cebpf4jnsgd1na2vs0mg"},{"bike_id":"4a606dc0-516f-47fa-a756-6d5a8417a0ea","system_id":"levelo_inurba_marseille","lat":43.29254,"lon":5.37624,"is_reserved":false,"is_disabled":false,"rental_uris":{"android":"levelo://app?vid=4a606dc0-516f-47fa-a756-6d5a8417a0ea","ios":"levelo://app?vid=4a606dc0-516f-47fa-a756-6d5a8417a0ea"},"vehicle_type_id":"4","last_reported":1752919877,"current_range_meters":18800,"station_id":"ce4bgi12rcd13ifvqb80","pricing_plan_id":"cebpf4jnsgd1na2vs0mg"},{"bike_id":"ee8a2061-b27f-4d79-8e8e-61ca083bc130","system_id":"levelo_inurba_marseille","lat":43.2466,"lon":5.38171,"is_reserved":false,"is_disabled":false,"rental_uris":{"android":"levelo://app?vid=ee8a2061-b27f-4d79-8e8e-61ca083bc130","ios":"levelo://app?vid=ee8a2061-b27f-4d79-8e8e-61ca083bc130"},"vehicle_type_id":"4","last_reported":1752919877,"current_range_meters":18800,"station_id":"ce4bhih2rcd13ifvqfr0","pricing_plan_id":"cebpf4jnsgd1na2vs0mg"},{"bike_id":"476b9d68-b82a-49d6-b328-73fe9b3366ca","system_id":"levelo_inurba_marseille","lat":43.26235,"lon":5.40506,"is_reserved":false,"is_disabled":false,"rental_uris":{"android":"levelo://app?vid=476b9d68-b82a-49d6-b328-73fe9b3366ca","ios":"levelo://app?vid=476b9d68-b82a-49d6-b328-73fe9b3366ca"},"vehicle_type_id":"4","last_reported":1752919877,"current_range_meters":18800,"station_id":"ce4bhmh2rcd13ifvqgmg","pricing_plan_id":"cebpf4jnsgd1na2vs0mg"},{"bike_id":"95b5bcfa-54af-48c0-bd18-8f73f959ce2b","system_id":"levelo_inurba_marseille","lat":43.31935,"lon":5.37313,"is_reserved":false,"is_disabled":false,"rental_uris":{"android":"levelo://app?vid=95b5bcfa-54af-48c0-bd18-8f73f959ce2b","ios":"levelo://app?vid=95b5bcfa-54af-48c0-bd18-8f73f959ce2b"},"vehicle_type_id":"4","last_reported":1752919877,"current_range_meters":18800,"station_id":"","pricing_plan_id":"cebpf4jnsgd1na2vs0mg"},{"bike_id":"c9f96f28-361e-497d-8e30-cb3897e7419e","system_id":"levelo_inurba_marseille","lat":43.29801,"lon":5.40398,"is_reserved":false,"is_disabled":false,"rental_uris":{"android":"levelo://app?vid=c9f96f28-361e-497d-8e30-cb3897e7419e","ios":"levelo://app?vid=c9f96f28-361e-497d-8e30-cb3897e7419e"},"vehicle_type_id":"4","last_reported":1752919877,"current_range_meters":18000,"station_id":"ce4bh112rcd13ifvqd90","pricing_plan_id":"cebpf4jnsgd1na2vs0mg"},{"bike_id":"f99ff1e4-4111-475a-aa3e-cb902d081040","system_id":"levelo_inurba_marseille","lat":43.23197,"lon":5.35558,"is_reserved":false,"is_disabled":false,"rental_uris":{"android":"levelo://app?vid=f99ff1e4-4111-475a-aa3e-cb902d081040","ios":"levelo://app?vid=f99ff1e4-4111-475a-aa3e-cb902d081040"},"vehicle_type_id":"4","last_reported":1752919877,"current_range_meters":19200,"station_id":"ce4bhu92rcd13ifvqi70","pricing_plan_id":"cebpf4jnsgd1na2vs0mg"},{"bike_id":"48a94d49-f8dd-4dc0-8e44-7af8af7686c4","system_id":"levelo_inurba_marseille","lat":43.29247,"lon":5.38449,"is_reserved":false,"is_disabled":false,"rental_uris":{"android":"levelo://app?vid=48a94d49-f8dd-4dc0-8e44-7af8af7686c4","ios":"levelo://app?vid=48a94d49-f8dd-4dc0-8e44-7af8af7686c4"},"vehicle_type_id":"4","last_reported":1752919877,"current_range_meters":19200,"station_id":"ce4bh692rcd13ifvqea0","pricing_plan_id":"cebpf4jnsgd1na2vs0mg"},{"bike_id":"1e6b4bb8-11c1-4647-8f99-3dbca91b4438","system_id":"levelo_inurba_marseille","lat":43.28622,"lon":5.35101,"is_reserved":false,"is_disabled":false,"rental_uris":{"android":"levelo://app?vid=1e6b4bb8-11c1-4647-8f99-3dbca91b4438","ios":"levelo://app?vid=1e6b4bb8-11c1-4647-8f99-3dbca91b4438"},"vehicle_type_id":"4","last_reported":1752919877,"current_range_meters":19200,"station_id":"ce4bhch2rcd13ifvqeug","pricing_plan_id":"cebpf4jnsgd1na2vs0mg"},{"bike_id":"39abf049-3891-4481-9c25-7fb7a413c85a","system_id":"levelo_inurba_marseille","lat":43.25495,"lon":5.37662,"is_reserved":false,"is_disabled":false,"rental_uris":{"android":"levelo://app?vid=39abf049-3891-4481-9c25-7fb7a413c85a","ios":"levelo://app?vid=39abf049-3891-4481-9c25-7fb7a413c85a"},"vehicle_type_id":"4","last_reported":1752919877,"current_range_meters":19200,"station_id":"ce4bhh12rcd13ifvqff0","pricing_plan_id":"cebpf4jnsgd1na2vs0mg"},{"bike_id":"e0174573-e125-416e-aeeb-930eb384c5e0","system_id":"levelo_inurba_marseille","lat":43.28609,"lon":5.37082,"is_reserved":false,"is_disabled":false,"rental_uris":{"android":"levelo://app?vid=e0174573-e125-416e-aeeb-930eb384c5e0","ios":"levelo://app?vid=e0174573-e125-416e-aeeb-930eb384c5e0"},"vehicle_type_id":"4","last_reported":1752919877,"current_range_meters":19200,"station_id":"ce4bht12rcd13ifvqi60","pricing_plan_id":"cebpf4jnsgd1na2vs0mg"},{"bike_id":"889f2022-147e-48d0-8392-dc436ffe31e0","system_id":"levelo_inurba_marseille","lat":43.29003,"lon":5.38125,"is_reserved":false,"is_disabled":false,"rental_uris":{"android":"levelo://app?vid=889f2022-147e-48d0-8392-dc436ffe31e0","ios":"levelo://app?vid=889f2022-147e-48d0-8392-dc436ffe31e0"},"vehicle_type_id":"4","last_reported":1752919877,"current_range_meters":19200,"station_id":"ce4bh4p2rcd13ifvqe1g","pricing_plan_id":"cebpf4jnsgd1na2vs0mg"},{"bike_id":"26b8cc06-1e63-495f-b599-843d277731ee","system_id":"levelo_inurba_marseille","lat":43.24091,"lon":5.378,"is_reserved":false,"is_disabled":false,"rental_uris":{"android":"levelo://app?vid=26b8cc06-1e63-495f-b599-843d277731ee","ios":"levelo://app?vid=26b8cc06-1e63-495f-b599-843d277731ee"},"vehicle_type_id":"4","last_reported":1752919877,"current_range_meters":19200,"station_id":"ce4bhnp2rcd13ifvqgvg","pricing_plan_id":"cebpf4jnsgd1na2vs0mg"},{"bike_id":"157990d3-b9c3-4f5c-8a17-d78382994a2f","system_id":"levelo_inurba_marseille","lat":43.2621,"lon":5.37929,"is_reserved":false,"is_disabled":false,"rental_uris":{"android":"levelo://app?vid=157990d3-b9c3-4f5c-8a17-d78382994a2f","ios":"levelo://app?vid=157990d3-b9c3-4f5c-8a17-d78382994a2f"},"vehicle_type_id":"4","last_reported":1752919877,"current_range_meters":19200,"station_id":"ce4bhjp2rcd13ifvqg90","pricing_plan_id":"cebpf4jnsgd1na2vs0mg"},{"bike_id":"b84f9719-43cd-4797-b7de-e6aec5982bf0","system_id":"levelo_inurba_marseille","lat":43.29573,"lon":5.42323,"is_reserved":false,"is_disabled":false,"rental_uris":{"android":"levelo://app?vid=b84f9719-43cd-4797-b7de-e6aec5982bf0","ios":"levelo://app?vid=b84f9719-43cd-4797-b7de-e6aec5982bf0"},"vehicle_type_id":"4","last_reported":1752919877,"current_range_meters":19200,"station_id":"ce4bhph2rcd13ifvqhdg","pricing_plan_id":"cebpf4jnsgd1na2vs0mg"},{"bike_id":"be18fe6b-421b-4714-a746-7cfa1f61ae20","system_id":"levelo_inurba_marseille","lat":43.28443,"lon":5.39235,"is_reserved":false,"is_disabled":false,"rental_uris":{"android":"levelo://app?vid=be18fe6b-421b-4714-a746-7cfa1f61ae20","ios":"levelo://app?vid=be18fe6b-421b-4714-a746-7cfa1f61ae20"},"vehicle_type_id":"4","last_reported":1752919877,"current_range_meters":19600,"station_id":"ce4bhoh2rcd13ifvqh5g","pricing_plan_id":"cebpf4jnsgd1na2vs0mg"},{"bike_id":"5a5b7059-de5e-47e7-be11-f5d3f6782a3f","system_id":"levelo_inurba_marseille","lat":43.28604,"lon":5.35118,"is_reserved":false,"is_disabled":false,"rental_uris":{"android":"levelo://app?vid=5a5b7059-de5e-47e7-be11-f5d3f6782a3f","ios":"levelo://app?vid=5a5b7059-de5e-47e7-be11-f5d3f6782a3f"},"vehicle_type_id":"4","last_reported":1752919877,"current_range_meters":19600,"station_id":"ce4bhch2rcd13ifvqeug","pricing_plan_id":"cebpf4jnsgd1na2vs0mg"},{"bike_id":"345733dd-3cbb-4a2f-b70a-755dc4ec9122","system_id":"levelo_inurba_marseille","lat":43.28264,"lon":5.35063,"is_reserved":false,"is_disabled":false,"rental_uris":{"android":"levelo://app?vid=345733dd-3cbb-4a2f-b70a-755dc4ec9122","ios":"levelo://app?vid=345733dd-3cbb-4a2f-b70a-755dc4ec9122"},"vehicle_type_id":"4","last_reported":1752919877,"current_range_meters":19600,"station_id":"ce4bhbp2rcd13ifvqerg","pricing_plan_id":"cebpf4jnsgd1na2vs0mg"},{"bike_id":"80de03c8-792e-4502-b58e-47e7d0b713bf","system_id":"levelo_inurba_marseille","lat":43.29423,"lon":5.38605,"is_reserved":false,"is_disabled":false,"rental_uris":{"android":"levelo://app?vid=80de03c8-792e-4502-b58e-47e7d0b713bf","ios":"levelo://app?vid=80de03c8-792e-4502-b58e-47e7d0b713bf"},"vehicle_type_id":"4","last_reported":1752919877,"current_range_meters":19600,"station_id":"ce4bh2h2rcd13ifvqdh0","pricing_plan_id":"cebpf4jnsgd1na2vs0mg"},{"bike_id":"3b00adda-c6b8-43c0-ac39-5f1e22fce8e9","system_id":"levelo_inurba_marseille","lat":43.286883,"lon":5.38669,"is_reserved":false,"is_disabled":true,"rental_uris":{"android":"levelo://app?vid=3b00adda-c6b8-43c0-ac39-5f1e22fce8e9","ios":"levelo://app?vid=3b00adda-c6b8-43c0-ac39-5f1e22fce8e9"},"vehicle_type_id":"4","last_reported":1752919877,"current_range_meters":19600,"station_id":"ce4bh492rcd13ifvqdug","pricing_plan_id":"cebpf4jnsgd1na2vs0mg"},{"bike_id":"491359d4-eadf-48c5-8407-a7d3c92d7c33","system_id":"levelo_inurba_marseille","lat":43.269521,"lon":5.402818,"is_reserved":false,"is_disabled":false,"rental_uris":{"android":"levelo://app?vid=491359d4-eadf-48c5-8407-a7d3c92d7c33","ios":"levelo://app?vid=491359d4-eadf-48c5-8407-a7d3c92d7c33"},"vehicle_type_id":"4","last_reported":1752919877,"current_range_meters":19600,"station_id":"cjm6bp8fraef2m0cb0m0","pricing_plan_id":"cebpf4jnsgd1na2vs0mg"},{"bike_id":"d3aca52a-4e64-461a-8fd1-e9a035bafbdf","system_id":"levelo_inurba_marseille","lat":43.257213,"lon":5.411019,"is_reserved":false,"is_disabled":false,"rental_uris":{"android":"levelo://app?vid=d3aca52a-4e64-461a-8fd1-e9a035bafbdf","ios":"levelo://app?vid=d3aca52a-4e64-461a-8fd1-e9a035bafbdf"},"vehicle_type_id":"4","last_reported":1752919877,"current_range_meters":19600,"station_id":"","pricing_plan_id":"cebpf4jnsgd1na2vs0mg"},{"bike_id":"7cb87117-19f1-4d48-84b2-bec6ac38464c","system_id":"levelo_inurba_marseille","lat":43.295522,"lon":5.422865,"is_reserved":false,"is_disabled":false,"rental_uris":{"android":"levelo://app?vid=7cb87117-19f1-4d48-84b2-bec6ac38464c","ios":"levelo://app?vid=7cb87117-19f1-4d48-84b2-bec6ac38464c"},"vehicle_type_id":"4","last_reported":1752919877,"current_range_meters":19600,"station_id":"ce4bhph2rcd13ifvqhdg","pricing_plan_id":"cebpf4jnsgd1na2vs0mg"},{"bike_id":"11e83057-0ec7-4823-b401-afd7fa372ac6","system_id":"levelo_inurba_marseille","lat":43.23193,"lon":5.40008,"is_reserved":false,"is_disabled":false,"rental_uris":{"android":"levelo://app?vid=11e83057-0ec7-4823-b401-afd7fa372ac6","ios":"levelo://app?vid=11e83057-0ec7-4823-b401-afd7fa372ac6"},"vehicle_type_id":"4","last_reported":1752919877,"current_range_meters":19600,"station_id":"ce4bhn12rcd13ifvqgqg","pricing_plan_id":"cebpf4jnsgd1na2vs0mg"},{"bike_id":"edb4f659-00e1-4afd-8eb2-37b13ca5d820","system_id":"levelo_inurba_marseille","lat":43.25089,"lon":5.39527,"is_reserved":false,"is_disabled":false,"rental_uris":{"android":"levelo://app?vid=edb4f659-00e1-4afd-8eb2-37b13ca5d820","ios":"levelo://app?vid=edb4f659-00e1-4afd-8eb2-37b13ca5d820"},"vehicle_type_id":"4","last_reported":1752919877,"current_range_meters":19600,"station_id":"ce4bhm12rcd13ifvqgkg","pricing_plan_id":"cebpf4jnsgd1na2vs0mg"},{"bike_id":"04382c46-bed7-41bc-a96c-befaf01eb19e","system_id":"levelo_inurba_marseille","lat":43.289367,"lon":5.36383,"is_reserved":false,"is_disabled":false,"rental_uris":{"android":"levelo://app?vid=04382c46-bed7-41bc-a96c-befaf01eb19e","ios":"levelo://app?vid=04382c46-bed7-41bc-a96c-befaf01eb19e"},"vehicle_type_id":"4","last_reported":1752919877,"current_range_meters":20000,"station_id":"","pricing_plan_id":"cebpf4jnsgd1na2vs0mg"},{"bike_id":"62bab3ae-0057-4f55-921a-69f1a65846f3","system_id":"levelo_inurba_marseille","lat":43.2892,"lon":5.38391,"is_reserved":false,"is_disabled":false,"rental_uris":{"android":"levelo://app?vid=62bab3ae-0057-4f55-921a-69f1a65846f3","ios":"levelo://app?vid=62bab3ae-0057-4f55-921a-69f1a65846f3"},"vehicle_type_id":"4","last_reported":1752919877,"current_range_meters":20000,"station_id":"ce4bh612rcd13ifvqe6g","pricing_plan_id":"cebpf4jnsgd1na2vs0mg"},{"bike_id":"87e6a2f2-e7ef-4dba-aeba-5588e1270124","system_id":"levelo_inurba_marseille","lat":43.22933,"lon":5.35455,"is_reserved":false,"is_disabled":false,"rental_uris":{"android":"levelo://app?vid=87e6a2f2-e7ef-4dba-aeba-5588e1270124","ios":"levelo://app?vid=87e6a2f2-e7ef-4dba-aeba-5588e1270124"},"vehicle_type_id":"4","last_reported":1752919877,"current_range_meters":20000,"station_id":"cpo3532slgdg3j2ikp40","pricing_plan_id":"cebpf4jnsgd1na2vs0mg"},{"bike_id":"9abbba3f-9e1c-401b-875e-85c26d1727ed","system_id":"levelo_inurba_marseille","lat":43.28101,"lon":5.37861,"is_reserved":false,"is_disabled":false,"rental_uris":{"android":"levelo://app?vid=9abbba3f-9e1c-401b-875e-85c26d1727ed","ios":"levelo://app?vid=9abbba3f-9e1c-401b-875e-85c26d1727ed"},"vehicle_type_id":"4","last_reported":1752919877,"current_range_meters":20000,"station_id":"ce4bha12rcd13ifvqee0","pricing_plan_id":"cebpf4jnsgd1na2vs0mg"},{"bike_id":"1be7c861-eb24-45a0-977f-a7a3c77b4df2","system_id":"levelo_inurba_marseille","lat":43.2962,"lon":5.37167,"is_reserved":false,"is_disabled":false,"rental_uris":{"android":"levelo://app?vid=1be7c861-eb24-45a0-977f-a7a3c77b4df2","ios":"levelo://app?vid=1be7c861-eb24-45a0-977f-a7a3c77b4df2"},"vehicle_type_id":"4","last_reported":1752919877,"current_range_meters":20000,"station_id":"ce4bgnh2rcd13ifvqc0g","pricing_plan_id":"cebpf4jnsgd1na2vs0mg"},{"bike_id":"aaa60820-80fd-4afd-9d4a-de02de98b358","system_id":"levelo_inurba_marseille","lat":43.21226,"lon":5.35103,"is_reserved":false,"is_disabled":false,"rental_uris":{"android":"levelo://app?vid=aaa60820-80fd-4afd-9d4a-de02de98b358","ios":"levelo://app?vid=aaa60820-80fd-4afd-9d4a-de02de98b358"},"vehicle_type_id":"4","last_reported":1752919877,"current_range_meters":20000,"station_id":"","pricing_plan_id":"cebpf4jnsgd1na2vs0mg"},{"bike_id":"42937e6c-ed5c-4ebf-95b2-f8a75a78b730","system_id":"levelo_inurba_marseille","lat":43.30531,"lon":5.36543,"is_reserved":false,"is_disabled":false,"rental_uris":{"android":"levelo://app?vid=42937e6c-ed5c-4ebf-95b2-f8a75a78b730","ios":"levelo://app?vid=42937e6c-ed5c-4ebf-95b2-f8a75a78b730"},"vehicle_type_id":"4","last_reported":1752919877,"current_range_meters":20000,"station_id":"ce4bgs12rcd13ifvqcag","pricing_plan_id":"cebpf4jnsgd1na2vs0mg"},{"bike_id":"6f530211-2d31-4918-b78d-6fbc7b6302a4","system_id":"levelo_inurba_marseille","lat":43.23578,"lon":5.36136,"is_reserved":false,"is_disabled":false,"rental_uris":{"android":"levelo://app?vid=6f530211-2d31-4918-b78d-6fbc7b6302a4","ios":"levelo://app?vid=6f530211-2d31-4918-b78d-6fbc7b6302a4"},"vehicle_type_id":"4","last_reported":1752919877,"current_range_meters":20400,"station_id":"","pricing_plan_id":"cebpf4jnsgd1na2vs0mg"},{"bike_id":"03c06480-1eaf-4ccf-96ff-18423cbc8b58","system_id":"levelo_inurba_marseille","lat":43.22499,"lon":5.34783,"is_reserved":false,"is_disabled":false,"rental_uris":{"android":"levelo://app?vid=03c06480-1eaf-4ccf-96ff-18423cbc8b58","ios":"levelo://app?vid=03c06480-1eaf-4ccf-96ff-18423cbc8b58"},"vehicle_type_id":"4","last_reported":1752919877,"current_range_meters":20400,"station_id":"st_cvj5dfep6f1abm77gieg","pricing_plan_id":"cebpf4jnsgd1na2vs0mg"},{"bike_id":"586f5c84-081d-4b6b-88b8-b2a85a5a6252","system_id":"levelo_inurba_marseille","lat":43.27199,"lon":5.39191,"is_reserved":false,"is_disabled":false,"rental_uris":{"android":"levelo://app?vid=586f5c84-081d-4b6b-88b8-b2a85a5a6252","ios":"levelo://app?vid=586f5c84-081d-4b6b-88b8-b2a85a5a6252"},"vehicle_type_id":"4","last_reported":1752919877,"current_range_meters":20400,"station_id":"ce4bhhp2rcd13ifvqfm0","pricing_plan_id":"cebpf4jnsgd1na2vs0mg"},{"bike_id":"ca427fd6-b16e-43cc-9f37-58925b0ecefa","system_id":"levelo_inurba_marseille","lat":43.337444,"lon":5.374475,"is_reserved":false,"is_disabled":false,"rental_uris":{"android":"levelo://app?vid=ca427fd6-b16e-43cc-9f37-58925b0ecefa","ios":"levelo://app?vid=ca427fd6-b16e-43cc-9f37-58925b0ecefa"},"vehicle_type_id":"4","last_reported":1752919877,"current_range_meters":20400,"station_id":"","pricing_plan_id":"cebpf4jnsgd1na2vs0mg"},{"bike_id":"6713717b-dc50-4f92-af05-69f7fed3813b","system_id":"levelo_inurba_marseille","lat":43.29599,"lon":5.380786,"is_reserved":false,"is_disabled":false,"rental_uris":{"android":"levelo://app?vid=6713717b-dc50-4f92-af05-69f7fed3813b","ios":"levelo://app?vid=6713717b-dc50-4f92-af05-69f7fed3813b"},"vehicle_type_id":"4","last_reported":1752919877,"current_range_meters":20400,"station_id":"ce4bgl12rcd13ifvqbo0","pricing_plan_id":"cebpf4jnsgd1na2vs0mg"},{"bike_id":"981e5050-d9c8-497a-92ad-00ca59d1b50c","system_id":"levelo_inurba_marseille","lat":43.246608,"lon":5.381706,"is_reserved":false,"is_disabled":false,"rental_uris":{"android":"levelo://app?vid=981e5050-d9c8-497a-92ad-00ca59d1b50c","ios":"levelo://app?vid=981e5050-d9c8-497a-92ad-00ca59d1b50c"},"vehicle_type_id":"4","last_reported":1752919877,"current_range_meters":20400,"station_id":"ce4bhih2rcd13ifvqfr0","pricing_plan_id":"cebpf4jnsgd1na2vs0mg"},{"bike_id":"99bd6c09-393f-410e-82d2-ec603016b86a","system_id":"levelo_inurba_marseille","lat":43.25496,"lon":5.37657,"is_reserved":false,"is_disabled":false,"rental_uris":{"android":"levelo://app?vid=99bd6c09-393f-410e-82d2-ec603016b86a","ios":"levelo://app?vid=99bd6c09-393f-410e-82d2-ec603016b86a"},"vehicle_type_id":"4","last_reported":1752919877,"current_range_meters":20400,"station_id":"ce4bhh12rcd13ifvqff0","pricing_plan_id":"cebpf4jnsgd1na2vs0mg"},{"bike_id":"b2892f63-825b-4d05-9400-1c616be803d1","system_id":"levelo_inurba_marseille","lat":43.24384,"lon":5.37063,"is_reserved":false,"is_disabled":false,"rental_uris":{"android":"levelo://app?vid=b2892f63-825b-4d05-9400-1c616be803d1","ios":"levelo://app?vid=b2892f63-825b-4d05-9400-1c616be803d1"},"vehicle_type_id":"4","last_reported":1752919877,"current_range_meters":20400,"station_id":"ce4bhhh2rcd13ifvqfk0","pricing_plan_id":"cebpf4jnsgd1na2vs0mg"},{"bike_id":"34e3266e-58c1-4eb0-8321-517f3552939d","system_id":"levelo_inurba_marseille","lat":43.30373,"lon":5.42487,"is_reserved":false,"is_disabled":false,"rental_uris":{"android":"levelo://app?vid=34e3266e-58c1-4eb0-8321-517f3552939d","ios":"levelo://app?vid=34e3266e-58c1-4eb0-8321-517f3552939d"},"vehicle_type_id":"4","last_reported":1752919877,"current_range_meters":20400,"station_id":"ce4bhoh2rcd13ifvqh6g","pricing_plan_id":"cebpf4jnsgd1na2vs0mg"},{"bike_id":"b47d139d-bb01-4bb9-a116-f3d167e4a6a4","system_id":"levelo_inurba_marseille","lat":43.26557,"lon":5.37306,"is_reserved":false,"is_disabled":false,"rental_uris":{"android":"levelo://app?vid=b47d139d-bb01-4bb9-a116-f3d167e4a6a4","ios":"levelo://app?vid=b47d139d-bb01-4bb9-a116-f3d167e4a6a4"},"vehicle_type_id":"4","last_reported":1752919877,"current_range_meters":20400,"station_id":"ce4bhg12rcd13ifvqf70","pricing_plan_id":"cebpf4jnsgd1na2vs0mg"},{"bike_id":"72b2915f-104b-4593-ab50-bf58e95b0c27","system_id":"levelo_inurba_marseille","lat":43.22925,"lon":5.35378,"is_reserved":false,"is_disabled":false,"rental_uris":{"android":"levelo://app?vid=72b2915f-104b-4593-ab50-bf58e95b0c27","ios":"levelo://app?vid=72b2915f-104b-4593-ab50-bf58e95b0c27"},"vehicle_type_id":"4","last_reported":1752919877,"current_range_meters":20800,"station_id":"cpo3532slgdg3j2ikp40","pricing_plan_id":"cebpf4jnsgd1na2vs0mg"},{"bike_id":"a0366b78-e95d-46cb-885e-fc776e82cfe5","system_id":"levelo_inurba_marseille","lat":43.29879,"lon":5.38155,"is_reserved":false,"is_disabled":false,"rental_uris":{"android":"levelo://app?vid=a0366b78-e95d-46cb-885e-fc776e82cfe5","ios":"levelo://app?vid=a0366b78-e95d-46cb-885e-fc776e82cfe5"},"vehicle_type_id":"4","last_reported":1752919877,"current_range_meters":20800,"station_id":"ce4bgj12rcd13ifvqbc0","pricing_plan_id":"cebpf4jnsgd1na2vs0mg"},{"bike_id":"9de70091-76d0-4c7e-b9b1-c06774610758","system_id":"levelo_inurba_marseille","lat":43.267834,"lon":5.394108,"is_reserved":false,"is_disabled":false,"rental_uris":{"android":"levelo://app?vid=9de70091-76d0-4c7e-b9b1-c06774610758","ios":"levelo://app?vid=9de70091-76d0-4c7e-b9b1-c06774610758"},"vehicle_type_id":"4","last_reported":1752919877,"current_range_meters":20800,"station_id":"ce4bhh12rcd13ifvqfg0","pricing_plan_id":"cebpf4jnsgd1na2vs0mg"},{"bike_id":"ab2f4c5c-050c-4627-86d4-a73427ba1b1c","system_id":"levelo_inurba_marseille","lat":43.298512,"lon":5.362867,"is_reserved":false,"is_disabled":false,"rental_uris":{"android":"levelo://app?vid=ab2f4c5c-050c-4627-86d4-a73427ba1b1c","ios":"levelo://app?vid=ab2f4c5c-050c-4627-86d4-a73427ba1b1c"},"vehicle_type_id":"4","last_reported":1752919877,"current_range_meters":20800,"station_id":"ce4bgpp2rcd13ifvqc3g","pricing_plan_id":"cebpf4jnsgd1na2vs0mg"},{"bike_id":"303c5f22-133c-4e3e-9d53-1f6cbb91c93f","system_id":"levelo_inurba_marseille","lat":43.30285,"lon":5.37952,"is_reserved":false,"is_disabled":false,"rental_uris":{"android":"levelo://app?vid=303c5f22-133c-4e3e-9d53-1f6cbb91c93f","ios":"levelo://app?vid=303c5f22-133c-4e3e-9d53-1f6cbb91c93f"},"vehicle_type_id":"4","last_reported":1752919877,"current_range_meters":20800,"station_id":"","pricing_plan_id":"cebpf4jnsgd1na2vs0mg"},{"bike_id":"63ac27c8-2928-4282-acb7-08824f698a02","system_id":"levelo_inurba_marseille","lat":43.24804,"lon":5.37457,"is_reserved":false,"is_disabled":false,"rental_uris":{"android":"levelo://app?vid=63ac27c8-2928-4282-acb7-08824f698a02","ios":"levelo://app?vid=63ac27c8-2928-4282-acb7-08824f698a02"},"vehicle_type_id":"4","last_reported":1752919877,"current_range_meters":20800,"station_id":"ce4bhgh2rcd13ifvqfb0","pricing_plan_id":"cebpf4jnsgd1na2vs0mg"},{"bike_id":"a5e03aa1-e26b-46ae-82c8-e5edf1a51960","system_id":"levelo_inurba_marseille","lat":43.286988,"lon":5.373864,"is_reserved":false,"is_disabled":false,"rental_uris":{"android":"levelo://app?vid=a5e03aa1-e26b-46ae-82c8-e5edf1a51960","ios":"levelo://app?vid=a5e03aa1-e26b-46ae-82c8-e5edf1a51960"},"vehicle_type_id":"4","last_reported":1752919877,"current_range_meters":20800,"station_id":"ce4bh3p2rcd13ifvqdq0","pricing_plan_id":"cebpf4jnsgd1na2vs0mg"},{"bike_id":"89296ac2-7950-4447-a22a-e1dd237ad810","system_id":"levelo_inurba_marseille","lat":43.246574,"lon":5.381655,"is_reserved":false,"is_disabled":false,"rental_uris":{"android":"levelo://app?vid=89296ac2-7950-4447-a22a-e1dd237ad810","ios":"levelo://app?vid=89296ac2-7950-4447-a22a-e1dd237ad810"},"vehicle_type_id":"4","last_reported":1752919877,"current_range_meters":20800,"station_id":"ce4bhih2rcd13ifvqfr0","pricing_plan_id":"cebpf4jnsgd1na2vs0mg"},{"bike_id":"cae03a6b-e58c-4076-af6b-9e849b21800d","system_id":"levelo_inurba_marseille","lat":43.28155,"lon":5.4264,"is_reserved":false,"is_disabled":false,"rental_uris":{"android":"levelo://app?vid=cae03a6b-e58c-4076-af6b-9e849b21800d","ios":"levelo://app?vid=cae03a6b-e58c-4076-af6b-9e849b21800d"},"vehicle_type_id":"4","last_reported":1752919877,"current_range_meters":21600,"station_id":"ce4bhnh2rcd13ifvqgug","pricing_plan_id":"cebpf4jnsgd1na2vs0mg"},{"bike_id":"d88bcda5-45b1-428f-8cd6-a7bc7c4d3ab6","system_id":"levelo_inurba_marseille","lat":43.27974,"lon":5.40051,"is_reserved":false,"is_disabled":false,"rental_uris":{"android":"levelo://app?vid=d88bcda5-45b1-428f-8cd6-a7bc7c4d3ab6","ios":"levelo://app?vid=d88bcda5-45b1-428f-8cd6-a7bc7c4d3ab6"},"vehicle_type_id":"4","last_reported":1752919877,"current_range_meters":21600,"station_id":"ce4bho92rcd13ifvqh4g","pricing_plan_id":"cebpf4jnsgd1na2vs0mg"},{"bike_id":"c1e6057c-ff5a-4477-a9f1-93444a633642","system_id":"levelo_inurba_marseille","lat":43.27171,"lon":5.39035,"is_reserved":false,"is_disabled":false,"rental_uris":{"android":"levelo://app?vid=c1e6057c-ff5a-4477-a9f1-93444a633642","ios":"levelo://app?vid=c1e6057c-ff5a-4477-a9f1-93444a633642"},"vehicle_type_id":"4","last_reported":1752919877,"current_range_meters":21600,"station_id":"","pricing_plan_id":"cebpf4jnsgd1na2vs0mg"},{"bike_id":"7f98c65c-6593-4352-858e-be8fe24c31fc","system_id":"levelo_inurba_marseille","lat":43.22514,"lon":5.34776,"is_reserved":false,"is_disabled":false,"rental_uris":{"android":"levelo://app?vid=7f98c65c-6593-4352-858e-be8fe24c31fc","ios":"levelo://app?vid=7f98c65c-6593-4352-858e-be8fe24c31fc"},"vehicle_type_id":"4","last_reported":1752919877,"current_range_meters":21600,"station_id":"st_cvj5dfep6f1abm77gieg","pricing_plan_id":"cebpf4jnsgd1na2vs0mg"},{"bike_id":"4c8283f7-9214-4f90-b93f-b371d5ff3abb","system_id":"levelo_inurba_marseille","lat":43.2119,"lon":5.3508,"is_reserved":false,"is_disabled":false,"rental_uris":{"android":"levelo://app?vid=4c8283f7-9214-4f90-b93f-b371d5ff3abb","ios":"levelo://app?vid=4c8283f7-9214-4f90-b93f-b371d5ff3abb"},"vehicle_type_id":"4","last_reported":1752919877,"current_range_meters":22000,"station_id":"st_cvj6sg6p6f1abm77japg","pricing_plan_id":"cebpf4jnsgd1na2vs0mg"},{"bike_id":"c273d628-d3ac-4657-90b7-2e1f43937f2c","system_id":"levelo_inurba_marseille","lat":43.2951,"lon":5.375,"is_reserved":false,"is_disabled":false,"rental_uris":{"android":"levelo://app?vid=c273d628-d3ac-4657-90b7-2e1f43937f2c","ios":"levelo://app?vid=c273d628-d3ac-4657-90b7-2e1f43937f2c"},"vehicle_type_id":"4","last_reported":1752919877,"current_range_meters":22000,"station_id":"ce4bgkp2rcd13ifvqbmg","pricing_plan_id":"cebpf4jnsgd1na2vs0mg"},{"bike_id":"ec0e25fd-92e1-4b0d-a00f-f3146f31b6ff","system_id":"levelo_inurba_marseille","lat":43.30925,"lon":5.4016,"is_reserved":false,"is_disabled":false,"rental_uris":{"android":"levelo://app?vid=ec0e25fd-92e1-4b0d-a00f-f3146f31b6ff","ios":"levelo://app?vid=ec0e25fd-92e1-4b0d-a00f-f3146f31b6ff"},"vehicle_type_id":"4","last_reported":1752919877,"current_range_meters":22000,"station_id":"ce4bgvp2rcd13ifvqct0","pricing_plan_id":"cebpf4jnsgd1na2vs0mg"},{"bike_id":"de531335-c858-4baa-8522-22b42e208094","system_id":"levelo_inurba_marseille","lat":43.25492,"lon":5.37644,"is_reserved":false,"is_disabled":false,"rental_uris":{"android":"levelo://app?vid=de531335-c858-4baa-8522-22b42e208094","ios":"levelo://app?vid=de531335-c858-4baa-8522-22b42e208094"},"vehicle_type_id":"4","last_reported":1752919877,"current_range_meters":21600,"station_id":"ce4bhh12rcd13ifvqff0","pricing_plan_id":"cebpf4jnsgd1na2vs0mg"},{"bike_id":"155970fe-352b-4598-af4b-43fbca0d36a7","system_id":"levelo_inurba_marseille","lat":43.29867,"lon":5.39736,"is_reserved":false,"is_disabled":false,"rental_uris":{"android":"levelo://app?vid=155970fe-352b-4598-af4b-43fbca0d36a7","ios":"levelo://app?vid=155970fe-352b-4598-af4b-43fbca0d36a7"},"vehicle_type_id":"4","last_reported":1752919877,"current_range_meters":22000,"station_id":"ce4bh0h2rcd13ifvqd50","pricing_plan_id":"cebpf4jnsgd1na2vs0mg"},{"bike_id":"3b99e123-fb27-4421-8157-fbde1a4b540d","system_id":"levelo_inurba_marseille","lat":43.24094,"lon":5.37762,"is_reserved":false,"is_disabled":false,"rental_uris":{"android":"levelo://app?vid=3b99e123-fb27-4421-8157-fbde1a4b540d","ios":"levelo://app?vid=3b99e123-fb27-4421-8157-fbde1a4b540d"},"vehicle_type_id":"4","last_reported":1752919877,"current_range_meters":22000,"station_id":"ce4bhnp2rcd13ifvqgvg","pricing_plan_id":"cebpf4jnsgd1na2vs0mg"},{"bike_id":"eb98e2b3-1607-48ca-814e-8dee4b2f8d2d","system_id":"levelo_inurba_marseille","lat":43.21754,"lon":5.34612,"is_reserved":false,"is_disabled":false,"rental_uris":{"android":"levelo://app?vid=eb98e2b3-1607-48ca-814e-8dee4b2f8d2d","ios":"levelo://app?vid=eb98e2b3-1607-48ca-814e-8dee4b2f8d2d"},"vehicle_type_id":"4","last_reported":1752919877,"current_range_meters":22400,"station_id":"st_cvj6r9ubvosntc0bgbag","pricing_plan_id":"cebpf4jnsgd1na2vs0mg"},{"bike_id":"da13e02d-3f59-4dea-9388-63cd1e3846b7","system_id":"levelo_inurba_marseille","lat":43.32315,"lon":5.4056,"is_reserved":false,"is_disabled":true,"rental_uris":{"android":"levelo://app?vid=da13e02d-3f59-4dea-9388-63cd1e3846b7","ios":"levelo://app?vid=da13e02d-3f59-4dea-9388-63cd1e3846b7"},"vehicle_type_id":"4","last_reported":1752919877,"current_range_meters":22400,"station_id":"ce4bhq92rcd13ifvqhjg","pricing_plan_id":"cebpf4jnsgd1na2vs0mg"},{"bike_id":"01d11bfe-5940-4e30-810f-b3f69b162cbf","system_id":"levelo_inurba_marseille","lat":43.3055,"lon":5.36702,"is_reserved":false,"is_disabled":false,"rental_uris":{"android":"levelo://app?vid=01d11bfe-5940-4e30-810f-b3f69b162cbf","ios":"levelo://app?vid=01d11bfe-5940-4e30-810f-b3f69b162cbf"},"vehicle_type_id":"4","last_reported":1752919877,"current_range_meters":22400,"station_id":"ce4bgrp2rcd13ifvqc9g","pricing_plan_id":"cebpf4jnsgd1na2vs0mg"},{"bike_id":"7b53909a-d089-478b-9727-7bcf163d661e","system_id":"levelo_inurba_marseille","lat":43.23079,"lon":5.35487,"is_reserved":false,"is_disabled":true,"rental_uris":{"android":"levelo://app?vid=7b53909a-d089-478b-9727-7bcf163d661e","ios":"levelo://app?vid=7b53909a-d089-478b-9727-7bcf163d661e"},"vehicle_type_id":"4","last_reported":1752919877,"current_range_meters":22400,"station_id":"cpo3342slgdg3j2ifvpg","pricing_plan_id":"cebpf4jnsgd1na2vs0mg"},{"bike_id":"54f44961-c1f7-43e6-9d2e-a35b8d6e8f08","system_id":"levelo_inurba_marseille","lat":43.29265,"lon":5.38434,"is_reserved":false,"is_disabled":false,"rental_uris":{"android":"levelo://app?vid=54f44961-c1f7-43e6-9d2e-a35b8d6e8f08","ios":"levelo://app?vid=54f44961-c1f7-43e6-9d2e-a35b8d6e8f08"},"vehicle_type_id":"4","last_reported":1752919877,"current_range_meters":22400,"station_id":"ce4bh692rcd13ifvqea0","pricing_plan_id":"cebpf4jnsgd1na2vs0mg"},{"bike_id":"a5bf56f4-6055-4da6-a1a1-f44440eef516","system_id":"levelo_inurba_marseille","lat":43.27398,"lon":5.39355,"is_reserved":false,"is_disabled":false,"rental_uris":{"android":"levelo://app?vid=a5bf56f4-6055-4da6-a1a1-f44440eef516","ios":"levelo://app?vid=a5bf56f4-6055-4da6-a1a1-f44440eef516"},"vehicle_type_id":"4","last_reported":1752919877,"current_range_meters":22400,"station_id":"ce4bhdp2rcd13ifvqf20","pricing_plan_id":"cebpf4jnsgd1na2vs0mg"},{"bike_id":"d17ff4ac-5551-4bc9-9f5f-694d1a028162","system_id":"levelo_inurba_marseille","lat":43.298944,"lon":5.38144,"is_reserved":false,"is_disabled":false,"rental_uris":{"android":"levelo://app?vid=d17ff4ac-5551-4bc9-9f5f-694d1a028162","ios":"levelo://app?vid=d17ff4ac-5551-4bc9-9f5f-694d1a028162"},"vehicle_type_id":"4","last_reported":1752919877,"current_range_meters":22400,"station_id":"ce4bgj12rcd13ifvqbc0","pricing_plan_id":"cebpf4jnsgd1na2vs0mg"},{"bike_id":"605b589d-7454-4145-b941-f456ba791209","system_id":"levelo_inurba_marseille","lat":43.316955,"lon":5.404581,"is_reserved":false,"is_disabled":false,"rental_uris":{"android":"levelo://app?vid=605b589d-7454-4145-b941-f456ba791209","ios":"levelo://app?vid=605b589d-7454-4145-b941-f456ba791209"},"vehicle_type_id":"4","last_reported":1752919877,"current_range_meters":22800,"station_id":"ce4bh012rcd13ifvqd00","pricing_plan_id":"cebpf4jnsgd1na2vs0mg"},{"bike_id":"c9562c65-a3ee-4ace-8538-d263591ef4f2","system_id":"levelo_inurba_marseille","lat":43.24552,"lon":5.39555,"is_reserved":false,"is_disabled":false,"rental_uris":{"android":"levelo://app?vid=c9562c65-a3ee-4ace-8538-d263591ef4f2","ios":"levelo://app?vid=c9562c65-a3ee-4ace-8538-d263591ef4f2"},"vehicle_type_id":"4","last_reported":1752919877,"current_range_meters":22800,"station_id":"ce4bhlp2rcd13ifvqgjg","pricing_plan_id":"cebpf4jnsgd1na2vs0mg"},{"bike_id":"18fdf47c-6f71-47f4-b73b-bc426d22ad42","system_id":"levelo_inurba_marseille","lat":43.241665,"lon":5.364007,"is_reserved":false,"is_disabled":false,"rental_uris":{"android":"levelo://app?vid=18fdf47c-6f71-47f4-b73b-bc426d22ad42","ios":"levelo://app?vid=18fdf47c-6f71-47f4-b73b-bc426d22ad42"},"vehicle_type_id":"4","last_reported":1752919877,"current_range_meters":22800,"station_id":"cpo36qri1sfpv3e86is0","pricing_plan_id":"cebpf4jnsgd1na2vs0mg"},{"bike_id":"ce4d8357-d548-48c7-bd0e-e6d39b519e40","system_id":"levelo_inurba_marseille","lat":43.22927,"lon":5.35414,"is_reserved":false,"is_disabled":false,"rental_uris":{"android":"levelo://app?vid=ce4d8357-d548-48c7-bd0e-e6d39b519e40","ios":"levelo://app?vid=ce4d8357-d548-48c7-bd0e-e6d39b519e40"},"vehicle_type_id":"4","last_reported":1752919877,"current_range_meters":22800,"station_id":"cpo3532slgdg3j2ikp40","pricing_plan_id":"cebpf4jnsgd1na2vs0mg"},{"bike_id":"a13f1f9a-3e01-4965-9ad6-9791424812ef","system_id":"levelo_inurba_marseille","lat":43.23139,"lon":5.43701,"is_reserved":false,"is_disabled":false,"rental_uris":{"android":"levelo://app?vid=a13f1f9a-3e01-4965-9ad6-9791424812ef","ios":"levelo://app?vid=a13f1f9a-3e01-4965-9ad6-9791424812ef"},"vehicle_type_id":"4","last_reported":1752919877,"current_range_meters":22800,"station_id":"ce4bhmp2rcd13ifvqgog","pricing_plan_id":"cebpf4jnsgd1na2vs0mg"},{"bike_id":"cae05453-133e-45b9-ad7a-79d090cf63f7","system_id":"levelo_inurba_marseille","lat":43.28973,"lon":5.37823,"is_reserved":false,"is_disabled":false,"rental_uris":{"android":"levelo://app?vid=cae05453-133e-45b9-ad7a-79d090cf63f7","ios":"levelo://app?vid=cae05453-133e-45b9-ad7a-79d090cf63f7"},"vehicle_type_id":"4","last_reported":1752919877,"current_range_meters":22800,"station_id":"ce4bh9p2rcd13ifvqed0","pricing_plan_id":"cebpf4jnsgd1na2vs0mg"},{"bike_id":"b3a2cd20-7287-4bd0-9d55-9debd460ce10","system_id":"levelo_inurba_marseille","lat":43.21768,"lon":5.34598,"is_reserved":false,"is_disabled":false,"rental_uris":{"android":"levelo://app?vid=b3a2cd20-7287-4bd0-9d55-9debd460ce10","ios":"levelo://app?vid=b3a2cd20-7287-4bd0-9d55-9debd460ce10"},"vehicle_type_id":"4","last_reported":1752919877,"current_range_meters":22800,"station_id":"st_cvj6r9ubvosntc0bgbag","pricing_plan_id":"cebpf4jnsgd1na2vs0mg"},{"bike_id":"88aebb63-1a13-4a6b-822b-640c950352bb","system_id":"levelo_inurba_marseille","lat":43.23193,"lon":5.35537,"is_reserved":false,"is_disabled":false,"rental_uris":{"android":"levelo://app?vid=88aebb63-1a13-4a6b-822b-640c950352bb","ios":"levelo://app?vid=88aebb63-1a13-4a6b-822b-640c950352bb"},"vehicle_type_id":"4","last_reported":1752919877,"current_range_meters":22800,"station_id":"ce4bhu92rcd13ifvqi70","pricing_plan_id":"cebpf4jnsgd1na2vs0mg"},{"bike_id":"054459cc-5be1-4b82-9260-a4f74104380f","system_id":"levelo_inurba_marseille","lat":43.29552,"lon":5.42298,"is_reserved":false,"is_disabled":false,"rental_uris":{"android":"levelo://app?vid=054459cc-5be1-4b82-9260-a4f74104380f","ios":"levelo://app?vid=054459cc-5be1-4b82-9260-a4f74104380f"},"vehicle_type_id":"4","last_reported":1752919877,"current_range_meters":22800,"station_id":"ce4bhph2rcd13ifvqhdg","pricing_plan_id":"cebpf4jnsgd1na2vs0mg"},{"bike_id":"4a6fd7da-a3e7-4c99-a091-31de832fdcf3","system_id":"levelo_inurba_marseille","lat":43.21768,"lon":5.34623,"is_reserved":false,"is_disabled":false,"rental_uris":{"android":"levelo://app?vid=4a6fd7da-a3e7-4c99-a091-31de832fdcf3","ios":"levelo://app?vid=4a6fd7da-a3e7-4c99-a091-31de832fdcf3"},"vehicle_type_id":"4","last_reported":1752919877,"current_range_meters":22800,"station_id":"st_cvj6r9ubvosntc0bgbag","pricing_plan_id":"cebpf4jnsgd1na2vs0mg"},{"bike_id":"a14d5e8d-5807-471a-821e-61f4a29b99bf","system_id":"levelo_inurba_marseille","lat":43.29566,"lon":5.37505,"is_reserved":false,"is_disabled":false,"rental_uris":{"android":"levelo://app?vid=a14d5e8d-5807-471a-821e-61f4a29b99bf","ios":"levelo://app?vid=a14d5e8d-5807-471a-821e-61f4a29b99bf"},"vehicle_type_id":"4","last_reported":1752919877,"current_range_meters":23200,"station_id":"ce4bgh92rcd13ifvqb50","pricing_plan_id":"cebpf4jnsgd1na2vs0mg"},{"bike_id":"b1ce9a04-b5f2-46d3-a6e6-7130ccb8daa4","system_id":"levelo_inurba_marseille","lat":43.25109,"lon":5.40323,"is_reserved":false,"is_disabled":false,"rental_uris":{"android":"levelo://app?vid=b1ce9a04-b5f2-46d3-a6e6-7130ccb8daa4","ios":"levelo://app?vid=b1ce9a04-b5f2-46d3-a6e6-7130ccb8daa4"},"vehicle_type_id":"4","last_reported":1752919877,"current_range_meters":23200,"station_id":"ce4bhlh2rcd13ifvqgig","pricing_plan_id":"cebpf4jnsgd1na2vs0mg"},{"bike_id":"dc13d891-f18e-4f73-8ff0-34a0fb9beb36","system_id":"levelo_inurba_marseille","lat":43.2929,"lon":5.37467,"is_reserved":false,"is_disabled":false,"rental_uris":{"android":"levelo://app?vid=dc13d891-f18e-4f73-8ff0-34a0fb9beb36","ios":"levelo://app?vid=dc13d891-f18e-4f73-8ff0-34a0fb9beb36"},"vehicle_type_id":"4","last_reported":1752919877,"current_range_meters":23200,"station_id":"ce4bgi12rcd13ifvqb70","pricing_plan_id":"cebpf4jnsgd1na2vs0mg"},{"bike_id":"8c57d177-1b0d-4f51-ae89-411129025918","system_id":"levelo_inurba_marseille","lat":43.28628,"lon":5.35105,"is_reserved":false,"is_disabled":false,"rental_uris":{"android":"levelo://app?vid=8c57d177-1b0d-4f51-ae89-411129025918","ios":"levelo://app?vid=8c57d177-1b0d-4f51-ae89-411129025918"},"vehicle_type_id":"4","last_reported":1752919877,"current_range_meters":23200,"station_id":"ce4bhch2rcd13ifvqeug","pricing_plan_id":"cebpf4jnsgd1na2vs0mg"},{"bike_id":"0cc6b95f-54c1-4efe-bbb4-d50f576f47ae","system_id":"levelo_inurba_marseille","lat":43.33552,"lon":5.36375,"is_reserved":false,"is_disabled":false,"rental_uris":{"android":"levelo://app?vid=0cc6b95f-54c1-4efe-bbb4-d50f576f47ae","ios":"levelo://app?vid=0cc6b95f-54c1-4efe-bbb4-d50f576f47ae"},"vehicle_type_id":"4","last_reported":1752919877,"current_range_meters":23200,"station_id":"","pricing_plan_id":"cebpf4jnsgd1na2vs0mg"},{"bike_id":"df12b4ca-81a1-41f0-a928-6714d560788a","system_id":"levelo_inurba_marseille","lat":43.26554,"lon":5.37295,"is_reserved":false,"is_disabled":false,"rental_uris":{"android":"levelo://app?vid=df12b4ca-81a1-41f0-a928-6714d560788a","ios":"levelo://app?vid=df12b4ca-81a1-41f0-a928-6714d560788a"},"vehicle_type_id":"4","last_reported":1752919877,"current_range_meters":23200,"station_id":"ce4bhg12rcd13ifvqf70","pricing_plan_id":"cebpf4jnsgd1na2vs0mg"},{"bike_id":"c109bf45-17f4-423e-a932-3194bf923870","system_id":"levelo_inurba_marseille","lat":43.288759,"lon":5.378674,"is_reserved":false,"is_disabled":false,"rental_uris":{"android":"levelo://app?vid=c109bf45-17f4-423e-a932-3194bf923870","ios":"levelo://app?vid=c109bf45-17f4-423e-a932-3194bf923870"},"vehicle_type_id":"4","last_reported":1752919877,"current_range_meters":23200,"station_id":"","pricing_plan_id":"cebpf4jnsgd1na2vs0mg"},{"bike_id":"71401511-67b4-4788-a2dd-ec13f8d37e87","system_id":"levelo_inurba_marseille","lat":43.30535,"lon":5.36559,"is_reserved":false,"is_disabled":false,"rental_uris":{"android":"levelo://app?vid=71401511-67b4-4788-a2dd-ec13f8d37e87","ios":"levelo://app?vid=71401511-67b4-4788-a2dd-ec13f8d37e87"},"vehicle_type_id":"4","last_reported":1752919877,"current_range_meters":23200,"station_id":"ce4bgs12rcd13ifvqcag","pricing_plan_id":"cebpf4jnsgd1na2vs0mg"},{"bike_id":"29e15a71-5d04-4f30-924e-ef67f052210a","system_id":"levelo_inurba_marseille","lat":43.29197,"lon":5.36115,"is_reserved":false,"is_disabled":false,"rental_uris":{"android":"levelo://app?vid=29e15a71-5d04-4f30-924e-ef67f052210a","ios":"levelo://app?vid=29e15a71-5d04-4f30-924e-ef67f052210a"},"vehicle_type_id":"4","last_reported":1752919877,"current_range_meters":24000,"station_id":"","pricing_plan_id":"cebpf4jnsgd1na2vs0mg"},{"bike_id":"a36b9eb7-ce63-47f4-a703-3f92e6b55480","system_id":"levelo_inurba_marseille","lat":43.21753,"lon":5.34603,"is_reserved":false,"is_disabled":false,"rental_uris":{"android":"levelo://app?vid=a36b9eb7-ce63-47f4-a703-3f92e6b55480","ios":"levelo://app?vid=a36b9eb7-ce63-47f4-a703-3f92e6b55480"},"vehicle_type_id":"4","last_reported":1752919877,"current_range_meters":24000,"station_id":"","pricing_plan_id":"cebpf4jnsgd1na2vs0mg"},{"bike_id":"daf6852c-ef03-4678-8189-1b733982a091","system_id":"levelo_inurba_marseille","lat":43.23172,"lon":5.39993,"is_reserved":false,"is_disabled":false,"rental_uris":{"android":"levelo://app?vid=daf6852c-ef03-4678-8189-1b733982a091","ios":"levelo://app?vid=daf6852c-ef03-4678-8189-1b733982a091"},"vehicle_type_id":"4","last_reported":1752919877,"current_range_meters":23200,"station_id":"ce4bhn12rcd13ifvqgqg","pricing_plan_id":"cebpf4jnsgd1na2vs0mg"},{"bike_id":"6da7ca7d-6633-429b-9803-313dc5de4c11","system_id":"levelo_inurba_marseille","lat":43.22505,"lon":5.34782,"is_reserved":false,"is_disabled":false,"rental_uris":{"android":"levelo://app?vid=6da7ca7d-6633-429b-9803-313dc5de4c11","ios":"levelo://app?vid=6da7ca7d-6633-429b-9803-313dc5de4c11"},"vehicle_type_id":"4","last_reported":1752919877,"current_range_meters":24000,"station_id":"st_cvj5dfep6f1abm77gieg","pricing_plan_id":"cebpf4jnsgd1na2vs0mg"},