{"last_updated":1702040952,"ttl":30,"version":"2.2","data":{"bikes":[{"bike_id":"3fa616d4-19c3-4ea0-b376-fbbc4b47bf63","system_id":"levelo_inurba_marseille","lat":43.313391,"lon":5.36706,"is_reserved":false,"is_disabled":false,"rental_uris":{"android":"levelo://app?vid=3fa616d4-19c3-4ea0-b376-fbbc4b47bf63","ios":"levelo://app?vid=3fa616d4-19c3-4ea0-b376-fbbc4b47bf63"},"vehicle_type_id":"4","last_reported":1702040952,"current_range_meters":26800,"station_id":"ce4bgr92rcd13ifvqc6g","pricing_plan_id":"free"},{"bike_id":"e1e22c5b-1bae-4cd0-bf45-78079d5ce94d","system_id":"levelo_inurba_marseille","lat":43.283998,"lon":5.375062,"is_reserved":false,"is_disabled":false,"rental_uris":{"android":"levelo://app?vid=e1e22c5b-1bae-4cd0-bf45-78079d5ce94d","ios":"levelo://app?vid=e1e22c5b-1bae-4cd0-bf45-78079d5ce94d"},"vehicle_type_id":"4","last_reported":1702040952,"current_range_meters":30800,"station_id":"ce4bh412rcd13ifvqds0","pricing_plan_id":"free"},{"bike_id":"4e1bbe27-f08d-4eac-9e84-100ef30833d5","system_id":"levelo_inurba_marseille","lat":43.311131,"lon":5.377651,"is_reserved":false,"is_disabled":false,"rental_uris":{"android":"levelo://app?vid=4e1bbe27-f08d-4eac-9e84-100ef30833d5","ios":"levelo://app?vid=4e1bbe27-f08d-4eac-9e84-100ef30833d5"},"vehicle_type_id":"4","last_reported":1702040952,"current_range_meters":10400,"station_id":"ce4bgt92rcd13ifvqcg0","pricing_plan_id":"free"},{"bike_id":"48baf451-4bf3-4284-b2a5-ea64629cee8a","system_id":"levelo_inurba_marseille","lat":43.308101,"lon":5.3766,"is_reserved":false,"is_disabled":false,"rental_uris":{"android":"levelo://app?vid=48baf451-4bf3-4284-b2a5-ea64629cee8a","ios":"levelo://app?vid=48baf451-4bf3-4284-b2a5-ea64629cee8a"},"vehicle_type_id":"4","last_reported":1702040952,"current_range_meters":15200,"station_id":"ce4bgv92rcd13ifvqcq0","pricing_plan_id":"free"},{"bike_id":"b66968a0-088a-462b-bb1b-c4775cc3fa6c","system_id":"levelo_inurba_marseille","lat":43.307945,"lon":5.376487,"is_reserved":false,"is_disabled":false,"rental_uris":{"android":"levelo://app?vid=b66968a0-088a-462b-bb1b-c4775cc3fa6c","ios":"levelo://app?vid=b66968a0-088a-462b-bb1b-c4775cc3fa6c"},"vehicle_type_id":"4","last_reported":1702040952,"current_range_meters":24800,"station_id":"ce4bgv92rcd13ifvqcq0","pricing_plan_id":"free"},{"bike_id":"2f72653c-77b3-41ca-a34a-d30950e5bc7a","system_id":"levelo_inurba_marseille","lat":43.317075,"lon":5.377367,"is_reserved":false,"is_disabled":false,"rental_uris":{"android":"levelo://app?vid=2f72653c-77b3-41ca-a34a-d30950e5bc7a","ios":"levelo://app?vid=2f72653c-77b3-41ca-a34a-d30950e5bc7a"},"vehicle_type_id":"4","last_reported":1702040952,"current_range_meters":27600,"station_id":"ce4bgth2rcd13ifvqch0","pricing_plan_id":"free"},{"bike_id":"adf146c5-e4e1-4668-9a33-042940925130","system_id":"levelo_inurba_marseille","lat":43.31351,"lon":5.37909,"is_reserved":false,"is_disabled":false,"rental_uris":{"android":"levelo://app?vid=adf146c5-e4e1-4668-9a33-042940925130","ios":"levelo://app?vid=adf146c5-e4e1-4668-9a33-042940925130"},"vehicle_type_id":"4","last_reported":1702040952,"current_range_meters":0,"station_id":"","pricing_plan_id":"free"},{"bike_id":"8bcd9599-ba29-459f-8b3b-ea42fad0aea4","system_id":"levelo_inurba_marseille","lat":43.30304,"lon":5.368987,"is_reserved":false,"is_disabled":false,"rental_uris":{"android":"levelo://app?vid=8bcd9599-ba29-459f-8b3b-ea42fad0aea4","ios":"levelo://app?vid=8bcd9599-ba29-459f-8b3b-ea42fad0aea4"},"vehicle_type_id":"4","last_reported":1702040952,"current_range_meters":23600,"station_id":"ce4bgqh2rcd13ifvqc5g","pricing_plan_id":"free"},{"bike_id":"2353d27a-14fb-4f2d-a681-0373ff125746","system_id":"levelo_inurba_marseille","lat":43.30304,"lon":5.368987,"is_reserved":false,"is_disabled":false,"rental_uris":{"android":"levelo://app?vid=2353d27a-14fb-4f2d-a681-0373ff125746","ios":"levelo://app?vid=2353d27a-14fb-4f2d-a681-0373ff125746"},"vehicle_type_id":"4","last_reported":1702040952,"current_range_meters":28800,"station_id":"ce4bgqh2rcd13ifvqc5g","pricing_plan_id":"free"},{"bike_id":"1ea60f58-75f7-4484-b705-1156df4b02ad","system_id":"levelo_inurba_marseille","lat":43.30285,"lon":5.37334,"is_reserved":false,"is_disabled":false,"rental_uris":{"android":"levelo://app?vid=1ea60f58-75f7-4484-b705-1156df4b02ad","ios":"levelo://app?vid=1ea60f58-75f7-4484-b705-1156df4b02ad"},"vehicle_type_id":"4","last_reported":1702040952,"current_range_meters":800,"station_id":"","pricing_plan_id":"free"},{"bike_id":"11b8ac03-4de1-413c-b86d-d7ee2f8b03a1","system_id":"levelo_inurba_marseille","lat":43.301429,"lon":5.37413,"is_reserved":false,"is_disabled":false,"rental_uris":{"android":"levelo://app?vid=11b8ac03-4de1-413c-b86d-d7ee2f8b03a1","ios":"levelo://app?vid=11b8ac03-4de1-413c-b86d-d7ee2f8b03a1"},"vehicle_type_id":"4","last_reported":1702040952,"current_range_meters":24000,"station_id":"ce4bgs92rcd13ifvqcc0","pricing_plan_id":"free"},{"bike_id":"f4b51b51-4778-4048-8a15-9527b99bc5ae","system_id":"levelo_inurba_marseille","lat":43.301429,"lon":5.37413,"is_reserved":false,"is_disabled":false,"rental_uris":{"android":"levelo://app?vid=f4b51b51-4778-4048-8a15-9527b99bc5ae","ios":"levelo://app?vid=f4b51b51-4778-4048-8a15-9527b99bc5ae"},"vehicle_type_id":"4","last_reported":1702040952,"current_range_meters":23600,"station_id":"ce4bgs92rcd13ifvqcc0","pricing_plan_id":"free"},{"bike_id":"56121bb4-c7ea-4e7d-8769-71de5b01d837","system_id":"levelo_inurba_marseille","lat":43.319935,"lon":5.381699,"is_reserved":false,"is_disabled":false,"rental_uris":{"android":"levelo://app?vid=56121bb4-c7ea-4e7d-8769-71de5b01d837","ios":"levelo://app?vid=56121bb4-c7ea-4e7d-8769-71de5b01d837"},"vehicle_type_id":"4","last_reported":1702040952,"current_range_meters":15200,"station_id":"ce4bhr12rcd13ifvqhpg","pricing_plan_id":"free"},{"bike_id":"9ee0ef7a-8d9c-4d78-8ae5-64e12b708d26","system_id":"levelo_inurba_marseille","lat":43.319997,"lon":5.381594,"is_reserved":false,"is_disabled":false,"rental_uris":{"android":"levelo://app?vid=9ee0ef7a-8d9c-4d78-8ae5-64e12b708d26","ios":"levelo://app?vid=9ee0ef7a-8d9c-4d78-8ae5-64e12b708d26"},"vehicle_type_id":"4","last_reported":1702040952,"current_range_meters":0,"station_id":"ce4bhr12rcd13ifvqhpg","pricing_plan_id":"free"},{"bike_id":"056c408c-72ad-4e0e-bdc9-38c4f6cf3fc5","system_id":"levelo_inurba_marseille","lat":43.313571,"lon":5.384829,"is_reserved":false,"is_disabled":false,"rental_uris":{"android":"levelo://app?vid=056c408c-72ad-4e0e-bdc9-38c4f6cf3fc5","ios":"levelo://app?vid=056c408c-72ad-4e0e-bdc9-38c4f6cf3fc5"},"vehicle_type_id":"4","last_reported":1702040952,"current_range_meters":13600,"station_id":"ce4bgt92rcd13ifvqcf0","pricing_plan_id":"free"},{"bike_id":"a49b99ee-38eb-49b5-978d-00cf198fff08","system_id":"levelo_inurba_marseille","lat":43.299614,"lon":5.366326,"is_reserved":false,"is_disabled":false,"rental_uris":{"android":"levelo://app?vid=a49b99ee-38eb-49b5-978d-00cf198fff08","ios":"levelo://app?vid=a49b99ee-38eb-49b5-978d-00cf198fff08"},"vehicle_type_id":"4","last_reported":1702040952,"current_range_meters":20000,"station_id":"","pricing_plan_id":"free"},{"bike_id":"04c2c2a0-7e57-4bff-bade-c4ce7fb5d583","system_id":"levelo_inurba_marseille","lat":43.299222,"lon":5.365554,"is_reserved":false,"is_disabled":false,"rental_uris":{"android":"levelo://app?vid=04c2c2a0-7e57-4bff-bade-c4ce7fb5d583","ios":"levelo://app?vid=04c2c2a0-7e57-4bff-bade-c4ce7fb5d583"},"vehicle_type_id":"4","last_reported":1702040952,"current_range_meters":24000,"station_id":"ce4bgm92rcd13ifvqbr0","pricing_plan_id":"free"},{"bike_id":"fef19868-692d-4597-8ace-99f929ba1f71","system_id":"levelo_inurba_marseille","lat":43.299724,"lon":5.371829,"is_reserved":false,"is_disabled":false,"rental_uris":{"android":"levelo://app?vid=fef19868-692d-4597-8ace-99f929ba1f71","ios":"levelo://app?vid=fef19868-692d-4597-8ace-99f929ba1f71"},"vehicle_type_id":"4","last_reported":1702040952,"current_range_meters":30000,"station_id":"ce4bgr92rcd13ifvqc7g","pricing_plan_id":"free"},{"bike_id":"1bdcc228-ea0a-415a-84ae-deb13b51511b","system_id":"levelo_inurba_marseille","lat":43.298433,"lon":5.362774,"is_reserved":false,"is_disabled":false,"rental_uris":{"android":"levelo://app?vid=1bdcc228-ea0a-415a-84ae-deb13b51511b","ios":"levelo://app?vid=1bdcc228-ea0a-415a-84ae-deb13b51511b"},"vehicle_type_id":"4","last_reported":1702040952,"current_range_meters":22400,"station_id":"ce4bgpp2rcd13ifvqc3g","pricing_plan_id":"free"},{"bike_id":"c57ad78f-a057-4e60-8640-9edaee1a61d0","system_id":"levelo_inurba_marseille","lat":43.311722,"lon":5.387247,"is_reserved":false,"is_disabled":false,"rental_uris":{"android":"levelo://app?vid=c57ad78f-a057-4e60-8640-9edaee1a61d0","ios":"levelo://app?vid=c57ad78f-a057-4e60-8640-9edaee1a61d0"},"vehicle_type_id":"4","last_reported":1702040952,"current_range_meters":25600,"station_id":"ce4bgv12rcd13ifvqcp0","pricing_plan_id":"free"},{"bike_id":"3dcd4a73-468d-493a-bf11-93ceddd109f8","system_id":"levelo_inurba_marseille","lat":43.322872,"lon":5.382756,"is_reserved":false,"is_disabled":false,"rental_uris":{"android":"levelo://app?vid=3dcd4a73-468d-493a-bf11-93ceddd109f8","ios":"levelo://app?vid=3dcd4a73-468d-493a-bf11-93ceddd109f8"},"vehicle_type_id":"4","last_reported":1702040952,"current_range_meters":29600,"station_id":"ce4bhr12rcd13ifvqhqg","pricing_plan_id":"free"},{"bike_id":"9c864df5-f9be-4056-bac7-88739790c8b6","system_id":"levelo_inurba_marseille","lat":43.297163,"lon":5.365866,"is_reserved":false,"is_disabled":false,"rental_uris":{"android":"levelo://app?vid=9c864df5-f9be-4056-bac7-88739790c8b6","ios":"levelo://app?vid=9c864df5-f9be-4056-bac7-88739790c8b6"},"vehicle_type_id":"4","last_reported":1702040952,"current_range_meters":24800,"station_id":"ce4bgn12rcd13ifvqbt0","pricing_plan_id":"free"},{"bike_id":"7579423d-f3b8-4e7f-be59-2ba9da91b549","system_id":"levelo_inurba_marseille","lat":43.32752,"lon":5.37489,"is_reserved":false,"is_disabled":false,"rental_uris":{"android":"levelo://app?vid=7579423d-f3b8-4e7f-be59-2ba9da91b549","ios":"levelo://app?vid=7579423d-f3b8-4e7f-be59-2ba9da91b549"},"vehicle_type_id":"4","last_reported":1702040952,"current_range_meters":5200,"station_id":"","pricing_plan_id":"free"},{"bike_id":"b536bce2-4601-4dbc-844b-a9e7d3d96805","system_id":"levelo_inurba_marseille","lat":43.2968,"lon":5.37291,"is_reserved":false,"is_disabled":false,"rental_uris":{"android":"levelo://app?vid=b536bce2-4601-4dbc-844b-a9e7d3d96805","ios":"levelo://app?vid=b536bce2-4601-4dbc-844b-a9e7d3d96805"},"vehicle_type_id":"4","last_reported":1702040952,"current_range_meters":9200,"station_id":"ce4bgk12rcd13ifvqbj0","pricing_plan_id":"free"},{"bike_id":"b37a233d-c056-42e2-a1cf-f76c585684ed","system_id":"levelo_inurba_marseille","lat":43.29573,"lon":5.367355,"is_reserved":false,"is_disabled":false,"rental_uris":{"android":"levelo://app?vid=b37a233d-c056-42e2-a1cf-f76c585684ed","ios":"levelo://app?vid=b37a233d-c056-42e2-a1cf-f76c585684ed"},"vehicle_type_id":"4","last_reported":1702040952,"current_range_meters":21200,"station_id":"ce4bgph2rcd13ifvqc2g","pricing_plan_id":"free"},{"bike_id":"65e7d198-275b-407e-bf00-ed944ad95766","system_id":"levelo_inurba_marseille","lat":43.296129,"lon":5.370777,"is_reserved":false,"is_disabled":false,"rental_uris":{"android":"levelo://app?vid=65e7d198-275b-407e-bf00-ed944ad95766","ios":"levelo://app?vid=65e7d198-275b-407e-bf00-ed944ad95766"},"vehicle_type_id":"4","last_reported":1702040952,"current_range_meters":26000,"station_id":"ce4bgnh2rcd13ifvqc0g","pricing_plan_id":"free"},{"bike_id":"745c09c7-4b4d-4f79-aefe-48e6b1e2b5e3","system_id":"levelo_inurba_marseille","lat":43.296131,"lon":5.370791,"is_reserved":false,"is_disabled":false,"rental_uris":{"android":"levelo://app?vid=745c09c7-4b4d-4f79-aefe-48e6b1e2b5e3","ios":"levelo://app?vid=745c09c7-4b4d-4f79-aefe-48e6b1e2b5e3"},"vehicle_type_id":"4","last_reported":1702040952,"current_range_meters":27200,"station_id":"ce4bgnh2rcd13ifvqc0g","pricing_plan_id":"free"},{"bike_id":"92dc65d6-6823-4de3-93d4-056f738f090c","system_id":"levelo_inurba_marseille","lat":43.316538,"lon":5.38954,"is_reserved":false,"is_disabled":false,"rental_uris":{"android":"levelo://app?vid=92dc65d6-6823-4de3-93d4-056f738f090c","ios":"levelo://app?vid=92dc65d6-6823-4de3-93d4-056f738f090c"},"vehicle_type_id":"4","last_reported":1702040952,"current_range_meters":1600,"station_id":"","pricing_plan_id":"free"},{"bike_id":"cd2ccb99-6a49-42a9-bbbd-371a59fd59e8","system_id":"levelo_inurba_marseille","lat":43.296131,"lon":5.370773,"is_reserved":false,"is_disabled":false,"rental_uris":{"android":"levelo://app?vid=cd2ccb99-6a49-42a9-bbbd-371a59fd59e8","ios":"levelo://app?vid=cd2ccb99-6a49-42a9-bbbd-371a59fd59e8"},"vehicle_type_id":"4","last_reported":1702040952,"current_range_meters":6400,"station_id":"ce4bgnh2rcd13ifvqc0g","pricing_plan_id":"free"},{"bike_id":"43c771c7-8e48-4ec3-8043-8ca9fe689782","system_id":"levelo_inurba_marseille","lat":43.296935,"lon":5.376544,"is_reserved":false,"is_disabled":false,"rental_uris":{"android":"levelo://app?vid=43c771c7-8e48-4ec3-8043-8ca9fe689782","ios":"levelo://app?vid=43c771c7-8e48-4ec3-8043-8ca9fe689782"},"vehicle_type_id":"4","last_reported":1702040952,"current_range_meters":8800,"station_id":"ce4bgkh2rcd13ifvqbl0","pricing_plan_id":"free"},{"bike_id":"0eff80ae-56b3-415f-a55c-ffb7060807e9","system_id":"levelo_inurba_marseille","lat":43.31757,"lon":5.39013,"is_reserved":false,"is_disabled":false,"rental_uris":{"android":"levelo://app?vid=0eff80ae-56b3-415f-a55c-ffb7060807e9","ios":"levelo://app?vid=0eff80ae-56b3-415f-a55c-ffb7060807e9"},"vehicle_type_id":"4","last_reported":1702040952,"current_range_meters":15200,"station_id":"ce4bhqp2rcd13ifvqhng","pricing_plan_id":"free"},{"bike_id":"1ac0b244-68f8-45b7-8d82-864156d78203","system_id":"levelo_inurba_marseille","lat":43.317557,"lon":5.390173,"is_reserved":false,"is_disabled":false,"rental_uris":{"android":"levelo://app?vid=1ac0b244-68f8-45b7-8d82-864156d78203","ios":"levelo://app?vid=1ac0b244-68f8-45b7-8d82-864156d78203"},"vehicle_type_id":"4","last_reported":1702040952,"current_range_meters":25600,"station_id":"ce4bhqp2rcd13ifvqhng","pricing_plan_id":"free"},{"bike_id":"2fe31010-5236-4657-b3d8-87fd499ce2e7","system_id":"levelo_inurba_marseille","lat":43.298037,"lon":5.381066,"is_reserved":false,"is_disabled":false,"rental_uris":{"android":"levelo://app?vid=2fe31010-5236-4657-b3d8-87fd499ce2e7","ios":"levelo://app?vid=2fe31010-5236-4657-b3d8-87fd499ce2e7"},"vehicle_type_id":"4","last_reported":1702040952,"current_range_meters":14800,"station_id":"ce4bgip2rcd13ifvqbb0","pricing_plan_id":"free"},{"bike_id":"3905f076-baf9-4f25-91c6-44d9f7df14af","system_id":"levelo_inurba_marseille","lat":43.304274,"lon":5.388873,"is_reserved":false,"is_disabled":false,"rental_uris":{"android":"levelo://app?vid=3905f076-baf9-4f25-91c6-44d9f7df14af","ios":"levelo://app?vid=3905f076-baf9-4f25-91c6-44d9f7df14af"},"vehicle_type_id":"4","last_reported":1702040952,"current_range_meters":26400,"station_id":"ce4bgk12rcd13ifvqbi0","pricing_plan_id":"free"},{"bike_id":"cb5fba5a-4f91-4ed5-b4df-a14775590673","system_id":"levelo_inurba_marseille","lat":43.29528,"lon":5.3751,"is_reserved":false,"is_disabled":false,"rental_uris":{"android":"levelo://app?vid=cb5fba5a-4f91-4ed5-b4df-a14775590673","ios":"levelo://app?vid=cb5fba5a-4f91-4ed5-b4df-a14775590673"},"vehicle_type_id":"4","last_reported":1702040952,"current_range_meters":30000,"station_id":"ce4bgkp2rcd13ifvqbmg","pricing_plan_id":"free"},{"bike_id":"6182a68d-fb48-4e4e-a80e-a7d7f926e551","system_id":"levelo_inurba_marseille","lat":43.295279,"lon":5.375048,"is_reserved":false,"is_disabled":false,"rental_uris":{"android":"levelo://app?vid=6182a68d-fb48-4e4e-a80e-a7d7f926e551","ios":"levelo://app?vid=6182a68d-fb48-4e4e-a80e-a7d7f926e551"},"vehicle_type_id":"4","last_reported":1702040952,"current_range_meters":13600,"station_id":"ce4bgkp2rcd13ifvqbmg","pricing_plan_id":"free"},{"bike_id":"df4f200c-ddef-4fde-8134-bedff23322d4","system_id":"levelo_inurba_marseille","lat":43.295279,"lon":5.375048,"is_reserved":false,"is_disabled":false,"rental_uris":{"android":"levelo://app?vid=df4f200c-ddef-4fde-8134-bedff23322d4","ios":"levelo://app?vid=df4f200c-ddef-4fde-8134-bedff23322d4"},"vehicle_type_id":"4","last_reported":1702040952,"current_range_meters":29200,"station_id":"ce4bgkp2rcd13ifvqbmg","pricing_plan_id":"free"},{"bike_id":"cb5e323e-208c-46fa-81e2-649f54b5e0f6","system_id":"levelo_inurba_marseille","lat":43.32367,"lon":5.388836,"is_reserved":false,"is_disabled":false,"rental_uris":{"android":"levelo://app?vid=cb5e323e-208c-46fa-81e2-649f54b5e0f6","ios":"levelo://app?vid=cb5e323e-208c-46fa-81e2-649f54b5e0f6"},"vehicle_type_id":"4","last_reported":1702040952,"current_range_meters":12000,"station_id":"ce4bhqp2rcd13ifvqhog","pricing_plan_id":"free"},{"bike_id":"e37ac621-b119-47db-a4a0-b01f262c7bd9","system_id":"levelo_inurba_marseille","lat":43.32367,"lon":5.388836,"is_reserved":false,"is_disabled":false,"rental_uris":{"android":"levelo://app?vid=e37ac621-b119-47db-a4a0-b01f262c7bd9","ios":"levelo://app?vid=e37ac621-b119-47db-a4a0-b01f262c7bd9"},"vehicle_type_id":"4","last_reported":1702040952,"current_range_meters":21600,"station_id":"ce4bhqp2rcd13ifvqhog","pricing_plan_id":"free"},{"bike_id":"edb65791-72fd-4efe-a1f5-46dfb8da63e8","system_id":"levelo_inurba_marseille","lat":43.32369,"lon":5.38879,"is_reserved":false,"is_disabled":false,"rental_uris":{"android":"levelo://app?vid=edb65791-72fd-4efe-a1f5-46dfb8da63e8","ios":"levelo://app?vid=edb65791-72fd-4efe-a1f5-46dfb8da63e8"},"vehicle_type_id":"4","last_reported":1702040952,"current_range_meters":30000,"station_id":"ce4bhqp2rcd13ifvqhog","pricing_plan_id":"free"},{"bike_id":"4c8aec9d-051d-4405-8a9a-1444f4ea03d7","system_id":"levelo_inurba_marseille","lat":43.29601,"lon":5.381084,"is_reserved":false,"is_disabled":false,"rental_uris":{"android":"levelo://app?vid=4c8aec9d-051d-4405-8a9a-1444f4ea03d7","ios":"levelo://app?vid=4c8aec9d-051d-4405-8a9a-1444f4ea03d7"},"vehicle_type_id":"4","last_reported":1702040952,"current_range_meters":7200,"station_id":"ce4bgl12rcd13ifvqbo0","pricing_plan_id":"free"},{"bike_id":"075dec1a-afcc-4c78-b2f4-6c3de7bd9145","system_id":"levelo_inurba_marseille","lat":43.305994,"lon":5.393687,"is_reserved":false,"is_disabled":false,"rental_uris":{"android":"levelo://app?vid=075dec1a-afcc-4c78-b2f4-6c3de7bd9145","ios":"levelo://app?vid=075dec1a-afcc-4c78-b2f4-6c3de7bd9145"},"vehicle_type_id":"4","last_reported":1702040952,"current_range_meters":28000,"station_id":"ce4bh0p2rcd13ifvqd80","pricing_plan_id":"free"},{"bike_id":"9cd47e58-6988-4df5-bbad-a7c59e4e3b60","system_id":"levelo_inurba_marseille","lat":43.293009,"lon":5.374584,"is_reserved":false,"is_disabled":false,"rental_uris":{"android":"levelo://app?vid=9cd47e58-6988-4df5-bbad-a7c59e4e3b60","ios":"levelo://app?vid=9cd47e58-6988-4df5-bbad-a7c59e4e3b60"},"vehicle_type_id":"4","last_reported":1702040952,"current_range_meters":17200,"station_id":"ce4bgi12rcd13ifvqb70","pricing_plan_id":"free"},{"bike_id":"db452faf-2eef-4523-b8bc-ab3e7d4e6115","system_id":"levelo_inurba_marseille","lat":43.2936,"lon":5.37835,"is_reserved":false,"is_disabled":false,"rental_uris":{"android":"levelo://app?vid=db452faf-2eef-4523-b8bc-ab3e7d4e6115","ios":"levelo://app?vid=db452faf-2eef-4523-b8bc-ab3e7d4e6115"},"vehicle_type_id":"4","last_reported":1702040952,"current_range_meters":16400,"station_id":"ce4bgjh2rcd13ifvqbf0","pricing_plan_id":"free"},{"bike_id":"319474a3-b41a-40b2-a616-2ce19e130e33","system_id":"levelo_inurba_marseille","lat":43.2936,"lon":5.37835,"is_reserved":false,"is_disabled":false,"rental_uris":{"android":"levelo://app?vid=319474a3-b41a-40b2-a616-2ce19e130e33","ios":"levelo://app?vid=319474a3-b41a-40b2-a616-2ce19e130e33"},"vehicle_type_id":"4","last_reported":1702040952,"current_range_meters":18000,"station_id":"ce4bgjh2rcd13ifvqbf0","pricing_plan_id":"free"},{"bike_id":"d23dcc0a-abfe-4795-b2df-643eabe8964a","system_id":"levelo_inurba_marseille","lat":43.33277,"lon":5.37527,"is_reserved":false,"is_disabled":false,"rental_uris":{"android":"levelo://app?vid=d23dcc0a-abfe-4795-b2df-643eabe8964a","ios":"levelo://app?vid=d23dcc0a-abfe-4795-b2df-643eabe8964a"},"vehicle_type_id":"4","last_reported":1702040952,"current_range_meters":0,"station_id":"","pricing_plan_id":"free"},{"bike_id":"499d182b-1148-497d-8a2b-f41fcc606170","system_id":"levelo_inurba_marseille","lat":43.309038,"lon":5.396546,"is_reserved":false,"is_disabled":false,"rental_uris":{"android":"levelo://app?vid=499d182b-1148-497d-8a2b-f41fcc606170","ios":"levelo://app?vid=499d182b-1148-497d-8a2b-f41fcc606170"},"vehicle_type_id":"4","last_reported":1702040952,"current_range_meters":6800,"station_id":"ce4bh012rcd13ifvqcv0","pricing_plan_id":"free"},{"bike_id":"e348ac60-418a-4a3a-a96e-46dc8ed73300","system_id":"levelo_inurba_marseille","lat":43.29187,"lon":5.35797,"is_reserved":false,"is_disabled":false,"rental_uris":{"android":"levelo://app?vid=e348ac60-418a-4a3a-a96e-46dc8ed73300","ios":"levelo://app?vid=e348ac60-418a-4a3a-a96e-46dc8ed73300"},"vehicle_type_id":"4","last_reported":1702040952,"current_range_meters":20400,"station_id":"ce4bhb12rcd13ifvqel0","pricing_plan_id":"free"},{"bike_id":"c3297e73-c648-42fd-b583-8fe9e1c48c2b","system_id":"levelo_inurba_marseille","lat":43.29529,"lon":5.385581,"is_reserved":false,"is_disabled":false,"rental_uris":{"android":"levelo://app?vid=c3297e73-c648-42fd-b583-8fe9e1c48c2b","ios":"levelo://app?vid=c3297e73-c648-42fd-b583-8fe9e1c48c2b"},"vehicle_type_id":"4","last_reported":1702040952,"current_range_meters":23200,"station_id":"ce4bgih2rcd13ifvqba0","pricing_plan_id":"free"},{"bike_id":"a3f22adf-2f33-458a-a164-f1442d07b5af","system_id":"levelo_inurba_marseille","lat":43.290779,"lon":5.371482,"is_reserved":false,"is_disabled":false,"rental_uris":{"android":"levelo://app?vid=a3f22adf-2f33-458a-a164-f1442d07b5af","ios":"levelo://app?vid=a3f22adf-2f33-458a-a164-f1442d07b5af"},"vehicle_type_id":"4","last_reported":1702040952,"current_range_meters":17200,"station_id":"ce4bh5p2rcd13ifvqe4g","pricing_plan_id":"free"},{"bike_id":"e9da52f0-0bb1-4739-8e48-11833c86cfff","system_id":"levelo_inurba_marseille","lat":43.290779,"lon":5.371482,"is_reserved":false,"is_disabled":false,"rental_uris":{"android":"levelo://app?vid=e9da52f0-0bb1-4739-8e48-11833c86cfff","ios":"levelo://app?vid=e9da52f0-0bb1-4739-8e48-11833c86cfff"},"vehicle_type_id":"4","last_reported":1702040952,"current_range_meters":24000,"station_id":"ce4bh5p2rcd13ifvqe4g","pricing_plan_id":"free"},{"bike_id":"85af1eae-5d8d-4996-ae70-0532d65421f2","system_id":"levelo_inurba_marseille","lat":43.302008,"lon":5.394694,"is_reserved":false,"is_disabled":false,"rental_uris":{"android":"levelo://app?vid=85af1eae-5d8d-4996-ae70-0532d65421f2","ios":"levelo://app?vid=85af1eae-5d8d-4996-ae70-0532d65421f2"},"vehicle_type_id":"4","last_reported":1702040952,"current_range_meters":21600,"station_id":"ce4bh0p2rcd13ifvqd70","pricing_plan_id":"free"},{"bike_id":"3f76de57-2149-417d-be82-d9564a09c0b0","system_id":"levelo_inurba_marseille","lat":43.294153,"lon":5.386305,"is_reserved":false,"is_disabled":false,"rental_uris":{"android":"levelo://app?vid=3f76de57-2149-417d-be82-d9564a09c0b0","ios":"levelo://app?vid=3f76de57-2149-417d-be82-d9564a09c0b0"},"vehicle_type_id":"4","last_reported":1702040952,"current_range_meters":9200,"station_id":"ce4bh2h2rcd13ifvqdh0","pricing_plan_id":"free"},{"bike_id":"3873e455-e4d1-4230-87fd-4e79a64f16c7","system_id":"levelo_inurba_marseille","lat":43.294153,"lon":5.386305,"is_reserved":false,"is_disabled":false,"rental_uris":{"android":"levelo://app?vid=3873e455-e4d1-4230-87fd-4e79a64f16c7","ios":"levelo://app?vid=3873e455-e4d1-4230-87fd-4e79a64f16c7"},"vehicle_type_id":"4","last_reported":1702040952,"current_range_meters":9600,"station_id":"ce4bh2h2rcd13ifvqdh0","pricing_plan_id":"free"},{"bike_id":"039299d2-2be3-46dd-9b1e-b7e08d062421","system_id":"levelo_inurba_marseille","lat":43.294153,"lon":5.386305,"is_reserved":false,"is_disabled":false,"rental_uris":{"android":"levelo://app?vid=039299d2-2be3-46dd-9b1e-b7e08d062421","ios":"levelo://app?vid=039299d2-2be3-46dd-9b1e-b7e08d062421"},"vehicle_type_id":"4","last_reported":1702040952,"current_range_meters":23200,"station_id":"ce4bh2h2rcd13ifvqdh0","pricing_plan_id":"free"},{"bike_id":"2ed2c5e4-0f82-4cee-9b6c-600e77037057","system_id":"levelo_inurba_marseille","lat":43.289184,"lon":5.366408,"is_reserved":false,"is_disabled":false,"rental_uris":{"android":"levelo://app?vid=2ed2c5e4-0f82-4cee-9b6c-600e77037057","ios":"levelo://app?vid=2ed2c5e4-0f82-4cee-9b6c-600e77037057"},"vehicle_type_id":"4","last_reported":1702040952,"current_range_meters":20800,"station_id":"ce4bhap2rcd13ifvqek0","pricing_plan_id":"free"},{"bike_id":"c860e29b-9ceb-4406-ad39-53ee65ed38c6","system_id":"levelo_inurba_marseille","lat":43.289184,"lon":5.366408,"is_reserved":false,"is_disabled":false,"rental_uris":{"android":"levelo://app?vid=c860e29b-9ceb-4406-ad39-53ee65ed38c6","ios":"levelo://app?vid=c860e29b-9ceb-4406-ad39-53ee65ed38c6"},"vehicle_type_id":"4","last_reported":1702040952,"current_range_meters":28800,"station_id":"ce4bhap2rcd13ifvqek0","pricing_plan_id":"free"},{"bike_id":"65bb3d85-44c7-4e62-9068-49cbdfb74acd","system_id":"levelo_inurba_marseille","lat":43.289184,"lon":5.366408,"is_reserved":false,"is_disabled":false,"rental_uris":{"android":"levelo://app?vid=65bb3d85-44c7-4e62-9068-49cbdfb74acd","ios":"levelo://app?vid=65bb3d85-44c7-4e62-9068-49cbdfb74acd"},"vehicle_type_id":"4","last_reported":1702040952,"current_range_meters":18000,"station_id":"ce4bhap2rcd13ifvqek0","pricing_plan_id":"free"},{"bike_id":"2ee135e5-ea8c-4367-b685-23f6f1d2ac9e","system_id":"levelo_inurba_marseille","lat":43.290161,"lon":5.375651,"is_reserved":false,"is_disabled":false,"rental_uris":{"android":"levelo://app?vid=2ee135e5-ea8c-4367-b685-23f6f1d2ac9e","ios":"levelo://app?vid=2ee135e5-ea8c-4367-b685-23f6f1d2ac9e"},"vehicle_type_id":"4","last_reported":1702040952,"current_range_meters":17200,"station_id":"","pricing_plan_id":"free"},{"bike_id":"44fc5641-8b7f-4718-97e4-514dfcbc7140","system_id":"levelo_inurba_marseille","lat":43.289373,"lon":5.364027,"is_reserved":false,"is_disabled":false,"rental_uris":{"android":"levelo://app?vid=44fc5641-8b7f-4718-97e4-514dfcbc7140","ios":"levelo://app?vid=44fc5641-8b7f-4718-97e4-514dfcbc7140"},"vehicle_type_id":"4","last_reported":1702040952,"current_range_meters":16400,"station_id":"ce4bhc92rcd13ifvqetg","pricing_plan_id":"free"},{"bike_id":"82ae1ef8-6d74-4117-b4bc-bcee3bac84d6","system_id":"levelo_inurba_marseille","lat":43.28936,"lon":5.36412,"is_reserved":false,"is_disabled":false,"rental_uris":{"android":"levelo://app?vid=82ae1ef8-6d74-4117-b4bc-bcee3bac84d6","ios":"levelo://app?vid=82ae1ef8-6d74-4117-b4bc-bcee3bac84d6"},"vehicle_type_id":"4","last_reported":1702040952,"current_range_meters":15200,"station_id":"ce4bhc92rcd13ifvqetg","pricing_plan_id":"free"},{"bike_id":"a02a1b20-1fb1-4951-988a-77389649024d","system_id":"levelo_inurba_marseille","lat":43.289259,"lon":5.366364,"is_reserved":false,"is_disabled":false,"rental_uris":{"android":"levelo://app?vid=a02a1b20-1fb1-4951-988a-77389649024d","ios":"levelo://app?vid=a02a1b20-1fb1-4951-988a-77389649024d"},"vehicle_type_id":"4","last_reported":1702040952,"current_range_meters":16000,"station_id":"","pricing_plan_id":"free"},{"bike_id":"854d87da-1f85-451c-b1d0-0d0e8cfcde39","system_id":"levelo_inurba_marseille","lat":43.33042,"lon":5.3892,"is_reserved":false,"is_disabled":false,"rental_uris":{"android":"levelo://app?vid=854d87da-1f85-451c-b1d0-0d0e8cfcde39","ios":"levelo://app?vid=854d87da-1f85-451c-b1d0-0d0e8cfcde39"},"vehicle_type_id":"4","last_reported":1702040952,"current_range_meters":18800,"station_id":"ce4bhr92rcd13ifvqhrg","pricing_plan_id":"free"},{"bike_id":"b03a7913-b97d-4f54-9caf-02d6285f866f","system_id":"levelo_inurba_marseille","lat":43.29782,"lon":5.39337,"is_reserved":false,"is_disabled":false,"rental_uris":{"android":"levelo://app?vid=b03a7913-b97d-4f54-9caf-02d6285f866f","ios":"levelo://app?vid=b03a7913-b97d-4f54-9caf-02d6285f866f"},"vehicle_type_id":"4","last_reported":1702040952,"current_range_meters":25600,"station_id":"chh1huq6cuj3fo74tm60","pricing_plan_id":"free"},{"bike_id":"154af705-b230-4aa6-8d39-d714670f3ede","system_id":"levelo_inurba_marseille","lat":43.297815,"lon":5.393548,"is_reserved":false,"is_disabled":false,"rental_uris":{"android":"levelo://app?vid=154af705-b230-4aa6-8d39-d714670f3ede","ios":"levelo://app?vid=154af705-b230-4aa6-8d39-d714670f3ede"},"vehicle_type_id":"4","last_reported":1702040952,"current_range_meters":14000,"station_id":"chh1huq6cuj3fo74tm60","pricing_plan_id":"free"},{"bike_id":"5e909856-5705-4085-999b-8536fcb1b4a6","system_id":"levelo_inurba_marseille","lat":43.295169,"lon":5.390426,"is_reserved":false,"is_disabled":false,"rental_uris":{"android":"levelo://app?vid=5e909856-5705-4085-999b-8536fcb1b4a6","ios":"levelo://app?vid=5e909856-5705-4085-999b-8536fcb1b4a6"},"vehicle_type_id":"4","last_reported":1702040952,"current_range_meters":14400,"station_id":"ce4bh3p2rcd13ifvqdp0","pricing_plan_id":"free"},{"bike_id":"c995857c-ad29-40d0-9838-5d42d9d0d6b6","system_id":"levelo_inurba_marseille","lat":43.29755,"lon":5.3932,"is_reserved":false,"is_disabled":false,"rental_uris":{"android":"levelo://app?vid=c995857c-ad29-40d0-9838-5d42d9d0d6b6","ios":"levelo://app?vid=c995857c-ad29-40d0-9838-5d42d9d0d6b6"},"vehicle_type_id":"4","last_reported":1702040952,"current_range_meters":0,"station_id":"chh1huq6cuj3fo74tm60","pricing_plan_id":"free"},{"bike_id":"a61834ea-dde7-4e76-a1da-f4a377c4053c","system_id":"levelo_inurba_marseille","lat":43.295169,"lon":5.390426,"is_reserved":false,"is_disabled":false,"rental_uris":{"android":"levelo://app?vid=a61834ea-dde7-4e76-a1da-f4a377c4053c","ios":"levelo://app?vid=a61834ea-dde7-4e76-a1da-f4a377c4053c"},"vehicle_type_id":"4","last_reported":1702040952,"current_range_meters":30000,"station_id":"ce4bh3p2rcd13ifvqdp0","pricing_plan_id":"free"},{"bike_id":"f7b0b7d7-6f0e-4bac-89a0-7b450f8aa1aa","system_id":"levelo_inurba_marseille","lat":43.295169,"lon":5.390426,"is_reserved":false,"is_disabled":false,"rental_uris":{"android":"levelo://app?vid=f7b0b7d7-6f0e-4bac-89a0-7b450f8aa1aa","ios":"levelo://app?vid=f7b0b7d7-6f0e-4bac-89a0-7b450f8aa1aa"},"vehicle_type_id":"4","last_reported":1702040952,"current_range_meters":20000,"station_id":"ce4bh3p2rcd13ifvqdp0","pricing_plan_id":"free"},{"bike_id":"a6e7fff3-e198-4b43-ac68-81f1443f20a2","system_id":"levelo_inurba_marseille","lat":43.309391,"lon":5.401298,"is_reserved":false,"is_disabled":false,"rental_uris":{"android":"levelo://app?vid=a6e7fff3-e198-4b43-ac68-81f1443f20a2","ios":"levelo://app?vid=a6e7fff3-e198-4b43-ac68-81f1443f20a2"},"vehicle_type_id":"4","last_reported":1702040952,"current_range_meters":25600,"station_id":"ce4bgvp2rcd13ifvqct0","pricing_plan_id":"free"},{"bike_id":"9771dfd8-017b-477e-9f38-39c8dec9c905","system_id":"levelo_inurba_marseille","lat":43.33773,"lon":5.37429,"is_reserved":false,"is_disabled":false,"rental_uris":{"android":"levelo://app?vid=9771dfd8-017b-477e-9f38-39c8dec9c905","ios":"levelo://app?vid=9771dfd8-017b-477e-9f38-39c8dec9c905"},"vehicle_type_id":"4","last_reported":1702040952,"current_range_meters":31200,"station_id":"","pricing_plan_id":"free"},{"bike_id":"07dad47e-165d-417f-bd84-bcdf37ce8086","system_id":"levelo_inurba_marseille","lat":43.301117,"lon":5.398795,"is_reserved":false,"is_disabled":false,"rental_uris":{"android":"levelo://app?vid=07dad47e-165d-417f-bd84-bcdf37ce8086","ios":"levelo://app?vid=07dad47e-165d-417f-bd84-bcdf37ce8086"},"vehicle_type_id":"4","last_reported":1702040952,"current_range_meters":0,"station_id":"ce4bh0h2rcd13ifvqd40","pricing_plan_id":"free"},{"bike_id":"3b2932d6-82fc-4f30-851f-aa84fc015404","system_id":"levelo_inurba_marseille","lat":43.301117,"lon":5.398795,"is_reserved":false,"is_disabled":false,"rental_uris":{"android":"levelo://app?vid=3b2932d6-82fc-4f30-851f-aa84fc015404","ios":"levelo://app?vid=3b2932d6-82fc-4f30-851f-aa84fc015404"},"vehicle_type_id":"4","last_reported":1702040952,"current_range_meters":0,"station_id":"ce4bh0h2rcd13ifvqd40","pricing_plan_id":"free"},{"bike_id":"854f9804-c8c3-43fc-a0bb-0d07e3d01c9d","system_id":"levelo_inurba_marseille","lat":43.295196,"lon":5.39397,"is_reserved":false,"is_disabled":false,"rental_uris":{"android":"levelo://app?vid=854f9804-c8c3-43fc-a0bb-0d07e3d01c9d","ios":"levelo://app?vid=854f9804-c8c3-43fc-a0bb-0d07e3d01c9d"},"vehicle_type_id":"4","last_reported":1702040952,"current_range_meters":23200,"station_id":"ce4bh292rcd13ifvqdf0","pricing_plan_id":"free"},{"bike_id":"11204b9a-b76d-46d5-b245-42f26064cc55","system_id":"levelo_inurba_marseille","lat":43.298681,"lon":5.397225,"is_reserved":false,"is_disabled":false,"rental_uris":{"android":"levelo://app?vid=11204b9a-b76d-46d5-b245-42f26064cc55","ios":"levelo://app?vid=11204b9a-b76d-46d5-b245-42f26064cc55"},"vehicle_type_id":"4","last_reported":1702040952,"current_range_meters":16800,"station_id":"ce4bh0h2rcd13ifvqd50","pricing_plan_id":"free"},{"bike_id":"b15c2839-9138-4ac6-9662-ad6e1e0614ce","system_id":"levelo_inurba_marseille","lat":43.286591,"lon":5.363346,"is_reserved":false,"is_disabled":false,"rental_uris":{"android":"levelo://app?vid=b15c2839-9138-4ac6-9662-ad6e1e0614ce","ios":"levelo://app?vid=b15c2839-9138-4ac6-9662-ad6e1e0614ce"},"vehicle_type_id":"4","last_reported":1702040952,"current_range_meters":17600,"station_id":"ce4bhah2rcd13ifvqej0","pricing_plan_id":"free"},{"bike_id":"34bf62de-82e1-4dc4-bf5d-29ee6d3127ce","system_id":"levelo_inurba_marseille","lat":43.29524,"lon":5.39394,"is_reserved":false,"is_disabled":false,"rental_uris":{"android":"levelo://app?vid=34bf62de-82e1-4dc4-bf5d-29ee6d3127ce","ios":"levelo://app?vid=34bf62de-82e1-4dc4-bf5d-29ee6d3127ce"},"vehicle_type_id":"4","last_reported":1702040952,"current_range_meters":21200,"station_id":"ce4bh292rcd13ifvqdf0","pricing_plan_id":"free"},{"bike_id":"9085d18b-e9b2-4c4e-b44d-714c24fd9e05","system_id":"levelo_inurba_marseille","lat":43.287184,"lon":5.37937,"is_reserved":false,"is_disabled":false,"rental_uris":{"android":"levelo://app?vid=9085d18b-e9b2-4c4e-b44d-714c24fd9e05","ios":"levelo://app?vid=9085d18b-e9b2-4c4e-b44d-714c24fd9e05"},"vehicle_type_id":"4","last_reported":1702040952,"current_range_meters":9600,"station_id":"ce4bh9p2rcd13ifvqec0","pricing_plan_id":"free"},{"bike_id":"96d7f947-8179-402c-9cc3-e426f78879a9","system_id":"levelo_inurba_marseille","lat":43.287184,"lon":5.37937,"is_reserved":false,"is_disabled":false,"rental_uris":{"android":"levelo://app?vid=96d7f947-8179-402c-9cc3-e426f78879a9","ios":"levelo://app?vid=96d7f947-8179-402c-9cc3-e426f78879a9"},"vehicle_type_id":"4","last_reported":1702040952,"current_range_meters":20000,"station_id":"ce4bh9p2rcd13ifvqec0","pricing_plan_id":"free"},{"bike_id":"238362d5-5099-479f-8b3b-3b16e09de263","system_id":"levelo_inurba_marseille","lat":43.291924,"lon":5.393255,"is_reserved":false,"is_disabled":false,"rental_uris":{"android":"levelo://app?vid=238362d5-5099-479f-8b3b-3b16e09de263","ios":"levelo://app?vid=238362d5-5099-479f-8b3b-3b16e09de263"},"vehicle_type_id":"4","last_reported":1702040952,"current_range_meters":12400,"station_id":"","pricing_plan_id":"free"},{"bike_id":"84b6ac8c-b713-4c5b-a8a6-b770ede1279d","system_id":"levelo_inurba_marseille","lat":43.294314,"lon":5.397498,"is_reserved":false,"is_disabled":false,"rental_uris":{"android":"levelo://app?vid=84b6ac8c-b713-4c5b-a8a6-b770ede1279d","ios":"levelo://app?vid=84b6ac8c-b713-4c5b-a8a6-b770ede1279d"},"vehicle_type_id":"4","last_reported":1702040952,"current_range_meters":23200,"station_id":"ce4bh3h2rcd13ifvqdo0","pricing_plan_id":"free"},{"bike_id":"62be4821-a3dc-4bf9-a23e-f09dba2e5d9c","system_id":"levelo_inurba_marseille","lat":43.283998,"lon":5.375062,"is_reserved":false,"is_disabled":false,"rental_uris":{"android":"levelo://app?vid=62be4821-a3dc-4bf9-a23e-f09dba2e5d9c","ios":"levelo://app?vid=62be4821-a3dc-4bf9-a23e-f09dba2e5d9c"},"vehicle_type_id":"4","last_reported":1702040952,"current_range_meters":18800,"station_id":"ce4bh412rcd13ifvqds0","pricing_plan_id":"free"},{"bike_id":"5e42db1a-e100-4e4c-a4bd-246a1e32dff8","system_id":"levelo_inurba_marseille","lat":43.295713,"lon":5.399639,"is_reserved":false,"is_disabled":false,"rental_uris":{"android":"levelo://app?vid=5e42db1a-e100-4e4c-a4bd-246a1e32dff8","ios":"levelo://app?vid=5e42db1a-e100-4e4c-a4bd-246a1e32dff8"},"vehicle_type_id":"4","last_reported":1702040952,"current_range_meters":22800,"station_id":"ce4bh312rcd13ifvqdj0","pricing_plan_id":"free"},{"bike_id":"10fc081b-0f8a-4c77-bae3-90d09bccc687","system_id":"levelo_inurba_marseille","lat":43.28433,"lon":5.37829,"is_reserved":false,"is_disabled":false,"rental_uris":{"android":"levelo://app?vid=10fc081b-0f8a-4c77-bae3-90d09bccc687","ios":"levelo://app?vid=10fc081b-0f8a-4c77-bae3-90d09bccc687"},"vehicle_type_id":"4","last_reported":1702040952,"current_range_meters":28000,"station_id":"","pricing_plan_id":"free"},{"bike_id":"7d3ec70a-0fa7-48b6-b04c-67728a890a02","system_id":"levelo_inurba_marseille","lat":43.286595,"lon":5.386795,"is_reserved":false,"is_disabled":false,"rental_uris":{"android":"levelo://app?vid=7d3ec70a-0fa7-48b6-b04c-67728a890a02","ios":"levelo://app?vid=7d3ec70a-0fa7-48b6-b04c-67728a890a02"},"vehicle_type_id":"4","last_reported":1702040952,"current_range_meters":28000,"station_id":"ce4bh492rcd13ifvqdug","pricing_plan_id":"free"},{"bike_id":"391c6299-bb20-4ac9-a22f-2143c8795b24","system_id":"levelo_inurba_marseille","lat":43.337168,"lon":5.391825,"is_reserved":false,"is_disabled":false,"rental_uris":{"android":"levelo://app?vid=391c6299-bb20-4ac9-a22f-2143c8795b24","ios":"levelo://app?vid=391c6299-bb20-4ac9-a22f-2143c8795b24"},"vehicle_type_id":"4","last_reported":1702040952,"current_range_meters":27200,"station_id":"ce4bhr92rcd13ifvqhsg","pricing_plan_id":"free"},{"bike_id":"3f3f0948-ef10-4c62-8087-fb18f4b29f01","system_id":"levelo_inurba_marseille","lat":43.284787,"lon":5.384116,"is_reserved":false,"is_disabled":false,"rental_uris":{"android":"levelo://app?vid=3f3f0948-ef10-4c62-8087-fb18f4b29f01","ios":"levelo://app?vid=3f3f0948-ef10-4c62-8087-fb18f4b29f01"},"vehicle_type_id":"4","last_reported":1702040952,"current_range_meters":400,"station_id":"ce4bh512rcd13ifvqe3g","pricing_plan_id":"free"},{"bike_id":"56ac9cc9-bb61-47d5-bb32-c23299a9fd93","system_id":"levelo_inurba_marseille","lat":43.32256,"lon":5.407,"is_reserved":false,"is_disabled":false,"rental_uris":{"android":"levelo://app?vid=56ac9cc9-bb61-47d5-bb32-c23299a9fd93","ios":"levelo://app?vid=56ac9cc9-bb61-47d5-bb32-c23299a9fd93"},"vehicle_type_id":"4","last_reported":1702040952,"current_range_meters":24000,"station_id":"","pricing_plan_id":"free"},{"bike_id":"599ea819-b245-41a7-85ec-10516c64530a","system_id":"levelo_inurba_marseille","lat":43.297946,"lon":5.404063,"is_reserved":false,"is_disabled":false,"rental_uris":{"android":"levelo://app?vid=599ea819-b245-41a7-85ec-10516c64530a","ios":"levelo://app?vid=599ea819-b245-41a7-85ec-10516c64530a"},"vehicle_type_id":"4","last_reported":1702040952,"current_range_meters":23200,"station_id":"ce4bh112rcd13ifvqd90","pricing_plan_id":"free"},{"bike_id":"ce1ba6b3-09d8-482b-a996-e9252e61b33c","system_id":"levelo_inurba_marseille","lat":43.283494,"lon":5.380945,"is_reserved":false,"is_disabled":false,"rental_uris":{"android":"levelo://app?vid=ce1ba6b3-09d8-482b-a996-e9252e61b33c","ios":"levelo://app?vid=ce1ba6b3-09d8-482b-a996-e9252e61b33c"},"vehicle_type_id":"4","last_reported":1702040952,"current_range_meters":3200,"station_id":"ce4bh412rcd13ifvqdr0","pricing_plan_id":"free"},{"bike_id":"3797f1bd-e9bb-4be1-bfb7-600c90caa865","system_id":"levelo_inurba_marseille","lat":43.283498,"lon":5.380948,"is_reserved":false,"is_disabled":false,"rental_uris":{"android":"levelo://app?vid=3797f1bd-e9bb-4be1-bfb7-600c90caa865","ios":"levelo://app?vid=3797f1bd-e9bb-4be1-bfb7-600c90caa865"},"vehicle_type_id":"4","last_reported":1702040952,"current_range_meters":14400,"station_id":"ce4bh412rcd13ifvqdr0","pricing_plan_id":"free"},{"bike_id":"37af3cbb-6e49-4814-b0af-7e855ca323e4","system_id":"levelo_inurba_marseille","lat":43.292497,"lon":5.399303,"is_reserved":false,"is_disabled":false,"rental_uris":{"android":"levelo://app?vid=37af3cbb-6e49-4814-b0af-7e855ca323e4","ios":"levelo://app?vid=37af3cbb-6e49-4814-b0af-7e855ca323e4"},"vehicle_type_id":"4","last_reported":1702040952,"current_range_meters":12800,"station_id":"","pricing_plan_id":"free"},{"bike_id":"b9587647-1ce4-4b86-a392-867d01986546","system_id":"levelo_inurba_marseille","lat":43.284219,"lon":5.3497,"is_reserved":false,"is_disabled":false,"rental_uris":{"android":"levelo://app?vid=b9587647-1ce4-4b86-a392-867d01986546","ios":"levelo://app?vid=b9587647-1ce4-4b86-a392-867d01986546"},"vehicle_type_id":"4","last_reported":1702040952,"current_range_meters":26800,"station_id":"ce4bhbh2rcd13ifvqepg","pricing_plan_id":"free"},{"bike_id":"c820c479-b46f-4eab-84cf-9a0d407fa3f9","system_id":"levelo_inurba_marseille","lat":43.282754,"lon":5.350519,"is_reserved":false,"is_disabled":false,"rental_uris":{"android":"levelo://app?vid=c820c479-b46f-4eab-84cf-9a0d407fa3f9","ios":"levelo://app?vid=c820c479-b46f-4eab-84cf-9a0d407fa3f9"},"vehicle_type_id":"4","last_reported":1702040952,"current_range_meters":12800,"station_id":"ce4bhbp2rcd13ifvqerg","pricing_plan_id":"free"},{"bike_id":"be103277-cbac-4b34-89fd-69dd6bfe132c","system_id":"levelo_inurba_marseille","lat":43.282754,"lon":5.350519,"is_reserved":false,"is_disabled":false,"rental_uris":{"android":"levelo://app?vid=be103277-cbac-4b34-89fd-69dd6bfe132c","ios":"levelo://app?vid=be103277-cbac-4b34-89fd-69dd6bfe132c"},"vehicle_type_id":"4","last_reported":1702040952,"current_range_meters":6000,"station_id":"ce4bhbp2rcd13ifvqerg","pricing_plan_id":"free"},{"bike_id":"2bb4f46a-e138-4137-abee-03328c50324e","system_id":"levelo_inurba_marseille","lat":43.283502,"lon":5.386471,"is_reserved":false,"is_disabled":false,"rental_uris":{"android":"levelo://app?vid=2bb4f46a-e138-4137-abee-03328c50324e","ios":"levelo://app?vid=2bb4f46a-e138-4137-abee-03328c50324e"},"vehicle_type_id":"4","last_reported":1702040952,"current_range_meters":12000,"station_id":"ce4bh492rcd13ifvqdvg","pricing_plan_id":"free"},{"bike_id":"f202e23c-7c59-419e-9b6c-9ae6035bd01c","system_id":"levelo_inurba_marseille","lat":43.28039,"lon":5.369297,"is_reserved":false,"is_disabled":false,"rental_uris":{"android":"levelo://app?vid=f202e23c-7c59-419e-9b6c-9ae6035bd01c","ios":"levelo://app?vid=f202e23c-7c59-419e-9b6c-9ae6035bd01c"},"vehicle_type_id":"4","last_reported":1702040952,"current_range_meters":27200,"station_id":"ce4bha12rcd13ifvqef0","pricing_plan_id":"free"},{"bike_id":"187899a5-8d90-4254-8013-a5d8776b3dab","system_id":"levelo_inurba_marseille","lat":43.29041,"lon":5.399634,"is_reserved":false,"is_disabled":false,"rental_uris":{"android":"levelo://app?vid=187899a5-8d90-4254-8013-a5d8776b3dab","ios":"levelo://app?vid=187899a5-8d90-4254-8013-a5d8776b3dab"},"vehicle_type_id":"4","last_reported":1702040952,"current_range_meters":17600,"station_id":"ce4bh392rcd13ifvqdm0","pricing_plan_id":"free"},{"bike_id":"7b596e4d-38f5-4f0c-9b31-77b16ee4d657","system_id":"levelo_inurba_marseille","lat":43.281044,"lon":5.378308,"is_reserved":false,"is_disabled":false,"rental_uris":{"android":"levelo://app?vid=7b596e4d-38f5-4f0c-9b31-77b16ee4d657","ios":"levelo://app?vid=7b596e4d-38f5-4f0c-9b31-77b16ee4d657"},"vehicle_type_id":"4","last_reported":1702040952,"current_range_meters":26800,"station_id":"ce4bha12rcd13ifvqee0","pricing_plan_id":"free"},{"bike_id":"48ea568c-1a24-42e5-a172-c97af0518fcc","system_id":"levelo_inurba_marseille","lat":43.281044,"lon":5.378308,"is_reserved":false,"is_disabled":false,"rental_uris":{"android":"levelo://app?vid=48ea568c-1a24-42e5-a172-c97af0518fcc","ios":"levelo://app?vid=48ea568c-1a24-42e5-a172-c97af0518fcc"},"vehicle_type_id":"4","last_reported":1702040952,"current_range_meters":25600,"station_id":"ce4bha12rcd13ifvqee0","pricing_plan_id":"free"},{"bike_id":"18042a15-56ee-40e1-80a8-bf6eafedf451","system_id":"levelo_inurba_marseille","lat":43.281044,"lon":5.378308,"is_reserved":false,"is_disabled":false,"rental_uris":{"android":"levelo://app?vid=18042a15-56ee-40e1-80a8-bf6eafedf451","ios":"levelo://app?vid=18042a15-56ee-40e1-80a8-bf6eafedf451"},"vehicle_type_id":"4","last_reported":1702040952,"current_range_meters":1600,"station_id":"ce4bha12rcd13ifvqee0","pricing_plan_id":"free"},{"bike_id":"e06c4ceb-42cd-4e91-9260-95f93e652f70","system_id":"levelo_inurba_marseille","lat":43.284462,"lon":5.392121,"is_reserved":false,"is_disabled":false,"rental_uris":{"android":"levelo://app?vid=e06c4ceb-42cd-4e91-9260-95f93e652f70","ios":"levelo://app?vid=e06c4ceb-42cd-4e91-9260-95f93e652f70"},"vehicle_type_id":"4","last_reported":1702040952,"current_range_meters":15600,"station_id":"ce4bhoh2rcd13ifvqh5g","pricing_plan_id":"free"},{"bike_id":"5a7072bd-27dd-437a-aaaa-183e048090e1","system_id":"levelo_inurba_marseille","lat":43.28573,"lon":5.394992,"is_reserved":false,"is_disabled":false,"rental_uris":{"android":"levelo://app?vid=5a7072bd-27dd-437a-aaaa-183e048090e1","ios":"levelo://app?vid=5a7072bd-27dd-437a-aaaa-183e048090e1"},"vehicle_type_id":"4","last_reported":1702040952,"current_range_meters":28800,"station_id":"ce4bh292rcd13ifvqdg0","pricing_plan_id":"free"},{"bike_id":"e75c18b2-e39b-4edd-b14b-697ef969f6b9","system_id":"levelo_inurba_marseille","lat":43.285742,"lon":5.395004,"is_reserved":false,"is_disabled":false,"rental_uris":{"android":"levelo://app?vid=e75c18b2-e39b-4edd-b14b-697ef969f6b9","ios":"levelo://app?vid=e75c18b2-e39b-4edd-b14b-697ef969f6b9"},"vehicle_type_id":"4","last_reported":1702040952,"current_range_meters":26000,"station_id":"ce4bh292rcd13ifvqdg0","pricing_plan_id":"free"},{"bike_id":"46faea07-14b6-4776-a454-ec051dbfb7d8","system_id":"levelo_inurba_marseille","lat":43.32661,"lon":5.40992,"is_reserved":false,"is_disabled":false,"rental_uris":{"android":"levelo://app?vid=46faea07-14b6-4776-a454-ec051dbfb7d8","ios":"levelo://app?vid=46faea07-14b6-4776-a454-ec051dbfb7d8"},"vehicle_type_id":"4","last_reported":1702040952,"current_range_meters":22000,"station_id":"ce4bhpp2rcd13ifvqhgg","pricing_plan_id":"free"},{"bike_id":"bf9c0286-54ca-458d-a58a-9d0d9c0353fb","system_id":"levelo_inurba_marseille","lat":43.279087,"lon":5.380114,"is_reserved":false,"is_disabled":false,"rental_uris":{"android":"levelo://app?vid=bf9c0286-54ca-458d-a58a-9d0d9c0353fb","ios":"levelo://app?vid=bf9c0286-54ca-458d-a58a-9d0d9c0353fb"},"vehicle_type_id":"4","last_reported":1702040952,"current_range_meters":31200,"station_id":"ce4bhf92rcd13ifvqf50","pricing_plan_id":"free"},{"bike_id":"81894b9c-26e3-4b0a-8f9c-ff601ac303d8","system_id":"levelo_inurba_marseille","lat":43.320045,"lon":5.415046,"is_reserved":false,"is_disabled":false,"rental_uris":{"android":"levelo://app?vid=81894b9c-26e3-4b0a-8f9c-ff601ac303d8","ios":"levelo://app?vid=81894b9c-26e3-4b0a-8f9c-ff601ac303d8"},"vehicle_type_id":"4","last_reported":1702040952,"current_range_meters":28400,"station_id":"ce4bhq92rcd13ifvqhkg","pricing_plan_id":"free"},{"bike_id":"21353717-0ebc-4941-8111-34c7a0b5fb53","system_id":"levelo_inurba_marseille","lat":43.280767,"lon":5.396506,"is_reserved":false,"is_disabled":false,"rental_uris":{"android":"levelo://app?vid=21353717-0ebc-4941-8111-34c7a0b5fb53","ios":"levelo://app?vid=21353717-0ebc-4941-8111-34c7a0b5fb53"},"vehicle_type_id":"4","last_reported":1702040952,"current_range_meters":19600,"station_id":"ce4bho12rcd13ifvqh2g","pricing_plan_id":"free"},{"bike_id":"5407864a-72a6-41c5-93c6-865dc5cc2e9a","system_id":"levelo_inurba_marseille","lat":43.336134,"lon":5.410341,"is_reserved":false,"is_disabled":false,"rental_uris":{"android":"levelo://app?vid=5407864a-72a6-41c5-93c6-865dc5cc2e9a","ios":"levelo://app?vid=5407864a-72a6-41c5-93c6-865dc5cc2e9a"},"vehicle_type_id":"4","last_reported":1702040952,"current_range_meters":30000,"station_id":"ce4bhqh2rcd13ifvqhmg","pricing_plan_id":"free"},{"bike_id":"07fb60d7-d620-4490-9a03-fddbb621ec0c","system_id":"levelo_inurba_marseille","lat":43.279975,"lon":5.40009,"is_reserved":false,"is_disabled":false,"rental_uris":{"android":"levelo://app?vid=07fb60d7-d620-4490-9a03-fddbb621ec0c","ios":"levelo://app?vid=07fb60d7-d620-4490-9a03-fddbb621ec0c"},"vehicle_type_id":"4","last_reported":1702040952,"current_range_meters":26800,"station_id":"ce4bho92rcd13ifvqh4g","pricing_plan_id":"free"},{"bike_id":"986e2640-07f1-4aaf-ae9d-a0bb0a20f26c","system_id":"levelo_inurba_marseille","lat":43.279975,"lon":5.40009,"is_reserved":false,"is_disabled":false,"rental_uris":{"android":"levelo://app?vid=986e2640-07f1-4aaf-ae9d-a0bb0a20f26c","ios":"levelo://app?vid=986e2640-07f1-4aaf-ae9d-a0bb0a20f26c"},"vehicle_type_id":"4","last_reported":1702040952,"current_range_meters":24000,"station_id":"ce4bho92rcd13ifvqh4g","pricing_plan_id":"free"},{"bike_id":"5cc7b054-7f74-4799-ba27-acd88dcc15ab","system_id":"levelo_inurba_marseille","lat":43.27626,"lon":5.39192,"is_reserved":false,"is_disabled":false,"rental_uris":{"android":"levelo://app?vid=5cc7b054-7f74-4799-ba27-acd88dcc15ab","ios":"levelo://app?vid=5cc7b054-7f74-4799-ba27-acd88dcc15ab"},"vehicle_type_id":"4","last_reported":1702040952,"current_range_meters":19200,"station_id":"","pricing_plan_id":"free"},{"bike_id":"200eafbf-d9f3-4a6e-935c-b56619044876","system_id":"levelo_inurba_marseille","lat":43.287601,"lon":5.412145,"is_reserved":false,"is_disabled":false,"rental_uris":{"android":"levelo://app?vid=200eafbf-d9f3-4a6e-935c-b56619044876","ios":"levelo://app?vid=200eafbf-d9f3-4a6e-935c-b56619044876"},"vehicle_type_id":"4","last_reported":1702040952,"current_range_meters":24000,"station_id":"","pricing_plan_id":"free"},{"bike_id":"7777002e-5813-436f-aaf3-5560b01b82cf","system_id":"levelo_inurba_marseille","lat":43.310785,"lon":5.424305,"is_reserved":false,"is_disabled":false,"rental_uris":{"android":"levelo://app?vid=7777002e-5813-436f-aaf3-5560b01b82cf","ios":"levelo://app?vid=7777002e-5813-436f-aaf3-5560b01b82cf"},"vehicle_type_id":"4","last_reported":1702040952,"current_range_meters":19600,"station_id":"ce4bhp92rcd13ifvqhag","pricing_plan_id":"free"},{"bike_id":"d76136d7-0bef-4e85-a6c3-df08adc9eb5c","system_id":"levelo_inurba_marseille","lat":43.340804,"lon":5.410219,"is_reserved":false,"is_disabled":false,"rental_uris":{"android":"levelo://app?vid=d76136d7-0bef-4e85-a6c3-df08adc9eb5c","ios":"levelo://app?vid=d76136d7-0bef-4e85-a6c3-df08adc9eb5c"},"vehicle_type_id":"4","last_reported":1702040952,"current_range_meters":29600,"station_id":"ce4bhqh2rcd13ifvqhlg","pricing_plan_id":"free"},{"bike_id":"63133364-316e-458e-b234-bbd4926c63fc","system_id":"levelo_inurba_marseille","lat":43.27583,"lon":5.39474,"is_reserved":false,"is_disabled":false,"rental_uris":{"android":"levelo://app?vid=63133364-316e-458e-b234-bbd4926c63fc","ios":"levelo://app?vid=63133364-316e-458e-b234-bbd4926c63fc"},"vehicle_type_id":"4","last_reported":1702040952,"current_range_meters":12800,"station_id":"","pricing_plan_id":"free"},{"bike_id":"abd0188d-5296-4fd8-b0e7-5e7d18169c46","system_id":"levelo_inurba_marseille","lat":43.304088,"lon":5.425388,"is_reserved":false,"is_disabled":false,"rental_uris":{"android":"levelo://app?vid=abd0188d-5296-4fd8-b0e7-5e7d18169c46","ios":"levelo://app?vid=abd0188d-5296-4fd8-b0e7-5e7d18169c46"},"vehicle_type_id":"4","last_reported":1702040952,"current_range_meters":24000,"station_id":"ce4bhoh2rcd13ifvqh6g","pricing_plan_id":"free"},{"bike_id":"22de4af3-0d06-42f9-a551-fd364940a6b0","system_id":"levelo_inurba_marseille","lat":43.30413,"lon":5.42544,"is_reserved":false,"is_disabled":false,"rental_uris":{"android":"levelo://app?vid=22de4af3-0d06-42f9-a551-fd364940a6b0","ios":"levelo://app?vid=22de4af3-0d06-42f9-a551-fd364940a6b0"},"vehicle_type_id":"4","last_reported":1702040952,"current_range_meters":31200,"station_id":"ce4bhoh2rcd13ifvqh6g","pricing_plan_id":"free"},{"bike_id":"4ee84928-30de-467c-8215-de7b5558b7ed","system_id":"levelo_inurba_marseille","lat":43.295511,"lon":5.422926,"is_reserved":false,"is_disabled":false,"rental_uris":{"android":"levelo://app?vid=4ee84928-30de-467c-8215-de7b5558b7ed","ios":"levelo://app?vid=4ee84928-30de-467c-8215-de7b5558b7ed"},"vehicle_type_id":"4","last_reported":1702040952,"current_range_meters":31200,"station_id":"ce4bhph2rcd13ifvqhdg","pricing_plan_id":"free"},{"bike_id":"c9a354e1-cd47-4a73-9444-d6227e3bfab5","system_id":"levelo_inurba_marseille","lat":43.295511,"lon":5.422926,"is_reserved":false,"is_disabled":false,"rental_uris":{"android":"levelo://app?vid=c9a354e1-cd47-4a73-9444-d6227e3bfab5","ios":"levelo://app?vid=c9a354e1-cd47-4a73-9444-d6227e3bfab5"},"vehicle_type_id":"4","last_reported":1702040952,"current_range_meters":28800,"station_id":"ce4bhph2rcd13ifvqhdg","pricing_plan_id":"free"},{"bike_id":"1ae968c7-d9e3-46ce-b77a-bc189a97a710","system_id":"levelo_inurba_marseille","lat":43.272124,"lon":5.391768,"is_reserved":false,"is_disabled":false,"rental_uris":{"android":"levelo://app?vid=1ae968c7-d9e3-46ce-b77a-bc189a97a710","ios":"levelo://app?vid=1ae968c7-d9e3-46ce-b77a-bc189a97a710"},"vehicle_type_id":"4","last_reported":1702040952,"current_range_meters":17200,"station_id":"ce4bhhp2rcd13ifvqfm0","pricing_plan_id":"free"},{"bike_id":"8f021145-48f8-459b-aef0-f8921e18b0a0","system_id":"levelo_inurba_marseille","lat":43.27214,"lon":5.3925,"is_reserved":false,"is_disabled":false,"rental_uris":{"android":"levelo://app?vid=8f021145-48f8-459b-aef0-f8921e18b0a0","ios":"levelo://app?vid=8f021145-48f8-459b-aef0-f8921e18b0a0"},"vehicle_type_id":"4","last_reported":1702040952,"current_range_meters":5600,"station_id":"","pricing_plan_id":"free"},{"bike_id":"969b59a8-6ace-4921-aaa6-ae7b3b0eebf8","system_id":"levelo_inurba_marseille","lat":43.269467,"lon":5.386439,"is_reserved":false,"is_disabled":false,"rental_uris":{"android":"levelo://app?vid=969b59a8-6ace-4921-aaa6-ae7b3b0eebf8","ios":"levelo://app?vid=969b59a8-6ace-4921-aaa6-ae7b3b0eebf8"},"vehicle_type_id":"4","last_reported":1702040952,"current_range_meters":4800,"station_id":"ce4bhh92rcd13ifvqfh0","pricing_plan_id":"free"},{"bike_id":"c4323be2-25f3-4143-87b0-1b0d70fb1bee","system_id":"levelo_inurba_marseille","lat":43.269467,"lon":5.386439,"is_reserved":false,"is_disabled":false,"rental_uris":{"android":"levelo://app?vid=c4323be2-25f3-4143-87b0-1b0d70fb1bee","ios":"levelo://app?vid=c4323be2-25f3-4143-87b0-1b0d70fb1bee"},"vehicle_type_id":"4","last_reported":1702040952,"current_range_meters":11600,"station_id":"ce4bhh92rcd13ifvqfh0","pricing_plan_id":"free"},{"bike_id":"93911d08-3da6-4bba-b39e-c7ffc0d2e972","system_id":"levelo_inurba_marseille","lat":43.26947,"lon":5.38627,"is_reserved":false,"is_disabled":false,"rental_uris":{"android":"levelo://app?vid=93911d08-3da6-4bba-b39e-c7ffc0d2e972","ios":"levelo://app?vid=93911d08-3da6-4bba-b39e-c7ffc0d2e972"},"vehicle_type_id":"4","last_reported":1702040952,"current_range_meters":4000,"station_id":"ce4bhh92rcd13ifvqfh0","pricing_plan_id":"free"},{"bike_id":"2768c3da-21d5-420d-b9a3-79891f6be2c1","system_id":"levelo_inurba_marseille","lat":43.269467,"lon":5.386439,"is_reserved":false,"is_disabled":false,"rental_uris":{"android":"levelo://app?vid=2768c3da-21d5-420d-b9a3-79891f6be2c1","ios":"levelo://app?vid=2768c3da-21d5-420d-b9a3-79891f6be2c1"},"vehicle_type_id":"4","last_reported":1702040952,"current_range_meters":20800,"station_id":"ce4bhh92rcd13ifvqfh0","pricing_plan_id":"free"},{"bike_id":"cad2b187-7cbb-49e9-bdb4-f68e59a8200b","system_id":"levelo_inurba_marseille","lat":43.269319,"lon":5.389397,"is_reserved":false,"is_disabled":false,"rental_uris":{"android":"levelo://app?vid=cad2b187-7cbb-49e9-bdb4-f68e59a8200b","ios":"levelo://app?vid=cad2b187-7cbb-49e9-bdb4-f68e59a8200b"},"vehicle_type_id":"4","last_reported":1702040952,"current_range_meters":30000,"station_id":"ce4bhhh2rcd13ifvqfl0","pricing_plan_id":"free"},{"bike_id":"9b395720-df5f-409b-98f5-12e9cb843ca2","system_id":"levelo_inurba_marseille","lat":43.269319,"lon":5.389397,"is_reserved":false,"is_disabled":false,"rental_uris":{"android":"levelo://app?vid=9b395720-df5f-409b-98f5-12e9cb843ca2","ios":"levelo://app?vid=9b395720-df5f-409b-98f5-12e9cb843ca2"},"vehicle_type_id":"4","last_reported":1702040952,"current_range_meters":14400,"station_id":"ce4bhhh2rcd13ifvqfl0","pricing_plan_id":"free"},{"bike_id":"278d3881-2a72-4b9f-b073-2914ce67f608","system_id":"levelo_inurba_marseille","lat":43.26681,"lon":5.382694,"is_reserved":false,"is_disabled":false,"rental_uris":{"android":"levelo://app?vid=278d3881-2a72-4b9f-b073-2914ce67f608","ios":"levelo://app?vid=278d3881-2a72-4b9f-b073-2914ce67f608"},"vehicle_type_id":"4","last_reported":1702040952,"current_range_meters":30800,"station_id":"ce4bhg92rcd13ifvqf90","pricing_plan_id":"free"},{"bike_id":"bd33c90c-d179-4f5f-8a9e-6f2277651913","system_id":"levelo_inurba_marseille","lat":43.265714,"lon":5.372891,"is_reserved":false,"is_disabled":false,"rental_uris":{"android":"levelo://app?vid=bd33c90c-d179-4f5f-8a9e-6f2277651913","ios":"levelo://app?vid=bd33c90c-d179-4f5f-8a9e-6f2277651913"},"vehicle_type_id":"4","last_reported":1702040952,"current_range_meters":30800,"station_id":"ce4bhg12rcd13ifvqf70","pricing_plan_id":"free"},{"bike_id":"5c62f0fe-2a68-4f0e-8c5e-1c3be35b64ff","system_id":"levelo_inurba_marseille","lat":43.29171,"lon":5.427877,"is_reserved":false,"is_disabled":false,"rental_uris":{"android":"levelo://app?vid=5c62f0fe-2a68-4f0e-8c5e-1c3be35b64ff","ios":"levelo://app?vid=5c62f0fe-2a68-4f0e-8c5e-1c3be35b64ff"},"vehicle_type_id":"4","last_reported":1702040952,"current_range_meters":10800,"station_id":"","pricing_plan_id":"free"},{"bike_id":"3952081a-41d6-4c83-88c5-7fdb5a289bf4","system_id":"levelo_inurba_marseille","lat":43.26563,"lon":5.39006,"is_reserved":false,"is_disabled":false,"rental_uris":{"android":"levelo://app?vid=3952081a-41d6-4c83-88c5-7fdb5a289bf4","ios":"levelo://app?vid=3952081a-41d6-4c83-88c5-7fdb5a289bf4"},"vehicle_type_id":"4","last_reported":1702040952,"current_range_meters":18000,"station_id":"ce4bhe12rcd13ifvqf30","pricing_plan_id":"free"},{"bike_id":"e5644a5f-5504-4a46-b10e-232a5302c1cf","system_id":"levelo_inurba_marseille","lat":43.261782,"lon":5.374515,"is_reserved":false,"is_disabled":false,"rental_uris":{"android":"levelo://app?vid=e5644a5f-5504-4a46-b10e-232a5302c1cf","ios":"levelo://app?vid=e5644a5f-5504-4a46-b10e-232a5302c1cf"},"vehicle_type_id":"4","last_reported":1702040952,"current_range_meters":28000,"station_id":"ce4bhgp2rcd13ifvqfc0","pricing_plan_id":"free"},{"bike_id":"1c24e0cd-92ad-428d-a813-b54825f69ac1","system_id":"levelo_inurba_marseille","lat":43.26202,"lon":5.379299,"is_reserved":false,"is_disabled":false,"rental_uris":{"android":"levelo://app?vid=1c24e0cd-92ad-428d-a813-b54825f69ac1","ios":"levelo://app?vid=1c24e0cd-92ad-428d-a813-b54825f69ac1"},"vehicle_type_id":"4","last_reported":1702040952,"current_range_meters":21600,"station_id":"ce4bhjp2rcd13ifvqg90","pricing_plan_id":"free"},{"bike_id":"efa24303-85ca-4cb7-8ca4-9a01f478b899","system_id":"levelo_inurba_marseille","lat":43.267959,"lon":5.402687,"is_reserved":false,"is_disabled":false,"rental_uris":{"android":"levelo://app?vid=efa24303-85ca-4cb7-8ca4-9a01f478b899","ios":"levelo://app?vid=efa24303-85ca-4cb7-8ca4-9a01f478b899"},"vehicle_type_id":"4","last_reported":1702040952,"current_range_meters":28800,"station_id":"ce501612rcd8frsf0b60","pricing_plan_id":"free"},{"bike_id":"ce882525-25f0-4497-8745-e9042bf5e9ad","system_id":"levelo_inurba_marseille","lat":43.267959,"lon":5.402687,"is_reserved":false,"is_disabled":false,"rental_uris":{"android":"levelo://app?vid=ce882525-25f0-4497-8745-e9042bf5e9ad","ios":"levelo://app?vid=ce882525-25f0-4497-8745-e9042bf5e9ad"},"vehicle_type_id":"4","last_reported":1702040952,"current_range_meters":20400,"station_id":"ce501612rcd8frsf0b60","pricing_plan_id":"free"},{"bike_id":"8a8bc4d6-0029-4fbf-9728-a692a0316877","system_id":"levelo_inurba_marseille","lat":43.27557,"lon":5.41681,"is_reserved":false,"is_disabled":false,"rental_uris":{"android":"levelo://app?vid=8a8bc4d6-0029-4fbf-9728-a692a0316877","ios":"levelo://app?vid=8a8bc4d6-0029-4fbf-9728-a692a0316877"},"vehicle_type_id":"4","last_reported":1702040952,"current_range_meters":2400,"station_id":"","pricing_plan_id":"free"},{"bike_id":"6b17b896-99f2-456b-929e-df3811eeb274","system_id":"levelo_inurba_marseille","lat":43.298768,"lon":5.43643,"is_reserved":false,"is_disabled":false,"rental_uris":{"android":"levelo://app?vid=6b17b896-99f2-456b-929e-df3811eeb274","ios":"levelo://app?vid=6b17b896-99f2-456b-929e-df3811eeb274"},"vehicle_type_id":"4","last_reported":1702040952,"current_range_meters":26800,"station_id":"ce4bhpp2rcd13ifvqhfg","pricing_plan_id":"free"},{"bike_id":"ca4db8a8-5b98-4b78-bc3d-514f38028a3d","system_id":"levelo_inurba_marseille","lat":43.298768,"lon":5.43643,"is_reserved":false,"is_disabled":false,"rental_uris":{"android":"levelo://app?vid=ca4db8a8-5b98-4b78-bc3d-514f38028a3d","ios":"levelo://app?vid=ca4db8a8-5b98-4b78-bc3d-514f38028a3d"},"vehicle_type_id":"4","last_reported":1702040952,"current_range_meters":30000,"station_id":"ce4bhpp2rcd13ifvqhfg","pricing_plan_id":"free"},{"bike_id":"4f68f183-a711-4386-a731-e8ea8e2f115e","system_id":"levelo_inurba_marseille","lat":43.298768,"lon":5.43643,"is_reserved":false,"is_disabled":false,"rental_uris":{"android":"levelo://app?vid=4f68f183-a711-4386-a731-e8ea8e2f115e","ios":"levelo://app?vid=4f68f183-a711-4386-a731-e8ea8e2f115e"},"vehicle_type_id":"4","last_reported":1702040952,"current_range_meters":25200,"station_id":"ce4bhpp2rcd13ifvqhfg","pricing_plan_id":"free"},{"bike_id":"83e2018e-7127-4415-8bbf-2e347a9c6750","system_id":"levelo_inurba_marseille","lat":43.298918,"lon":5.436708,"is_reserved":false,"is_disabled":false,"rental_uris":{"android":"levelo://app?vid=83e2018e-7127-4415-8bbf-2e347a9c6750","ios":"levelo://app?vid=83e2018e-7127-4415-8bbf-2e347a9c6750"},"vehicle_type_id":"4","last_reported":1702040952,"current_range_meters":3200,"station_id":"ce4bhpp2rcd13ifvqhfg","pricing_plan_id":"free"},{"bike_id":"2ed26566-a4d1-4446-a79f-ac4cd03e66b0","system_id":"levelo_inurba_marseille","lat":43.2607,"lon":5.393983,"is_reserved":false,"is_disabled":false,"rental_uris":{"android":"levelo://app?vid=2ed26566-a4d1-4446-a79f-ac4cd03e66b0","ios":"levelo://app?vid=2ed26566-a4d1-4446-a79f-ac4cd03e66b0"},"vehicle_type_id":"4","last_reported":1702040952,"current_range_meters":26800,"station_id":"ce4bhh92rcd13ifvqfj0","pricing_plan_id":"free"},{"bike_id":"c90d4f1f-c031-4bfa-9513-341cda3df957","system_id":"levelo_inurba_marseille","lat":43.2607,"lon":5.393983,"is_reserved":false,"is_disabled":false,"rental_uris":{"android":"levelo://app?vid=c90d4f1f-c031-4bfa-9513-341cda3df957","ios":"levelo://app?vid=c90d4f1f-c031-4bfa-9513-341cda3df957"},"vehicle_type_id":"4","last_reported":1702040952,"current_range_meters":31600,"station_id":"ce4bhh92rcd13ifvqfj0","pricing_plan_id":"free"},{"bike_id":"3c92ce0f-c245-4630-b43d-76d548ef1b52","system_id":"levelo_inurba_marseille","lat":43.2607,"lon":5.393983,"is_reserved":false,"is_disabled":false,"rental_uris":{"android":"levelo://app?vid=3c92ce0f-c245-4630-b43d-76d548ef1b52","ios":"levelo://app?vid=3c92ce0f-c245-4630-b43d-76d548ef1b52"},"vehicle_type_id":"4","last_reported":1702040952,"current_range_meters":24400,"station_id":"ce4bhh92rcd13ifvqfj0","pricing_plan_id":"free"},{"bike_id":"3fa23121-af65-4c75-ac44-24aff2cda3eb","system_id":"levelo_inurba_marseille","lat":43.27496,"lon":5.42446,"is_reserved":false,"is_disabled":false,"rental_uris":{"android":"levelo://app?vid=3fa23121-af65-4c75-ac44-24aff2cda3eb","ios":"levelo://app?vid=3fa23121-af65-4c75-ac44-24aff2cda3eb"},"vehicle_type_id":"4","last_reported":1702040952,"current_range_meters":4000,"station_id":"ce4bhn92rcd13ifvqgrg","pricing_plan_id":"free"},{"bike_id":"a2e8b1f8-560d-4983-8ddb-20f9800603c2","system_id":"levelo_inurba_marseille","lat":43.275028,"lon":5.424534,"is_reserved":false,"is_disabled":false,"rental_uris":{"android":"levelo://app?vid=a2e8b1f8-560d-4983-8ddb-20f9800603c2","ios":"levelo://app?vid=a2e8b1f8-560d-4983-8ddb-20f9800603c2"},"vehicle_type_id":"4","last_reported":1702040952,"current_range_meters":7600,"station_id":"ce4bhn92rcd13ifvqgrg","pricing_plan_id":"free"},{"bike_id":"15ba3189-93b7-4432-ad39-1cf62a2856d8","system_id":"levelo_inurba_marseille","lat":43.270721,"lon":5.422764,"is_reserved":false,"is_disabled":false,"rental_uris":{"android":"levelo://app?vid=15ba3189-93b7-4432-ad39-1cf62a2856d8","ios":"levelo://app?vid=15ba3189-93b7-4432-ad39-1cf62a2856d8"},"vehicle_type_id":"4","last_reported":1702040952,"current_range_meters":22800,"station_id":"ce4bhk92rcd13ifvqgb0","pricing_plan_id":"free"},{"bike_id":"27aa3d96-c748-4b9e-a013-c515bd70360e","system_id":"levelo_inurba_marseille","lat":43.258658,"lon":5.398935,"is_reserved":false,"is_disabled":false,"rental_uris":{"android":"levelo://app?vid=27aa3d96-c748-4b9e-a013-c515bd70360e","ios":"levelo://app?vid=27aa3d96-c748-4b9e-a013-c515bd70360e"},"vehicle_type_id":"4","last_reported":1702040952,"current_range_meters":20000,"station_id":"ce4bhl92rcd13ifvqghg","pricing_plan_id":"free"},{"bike_id":"a8ad00dd-d8ad-4dfc-b12d-42daaaacf033","system_id":"levelo_inurba_marseille","lat":43.258658,"lon":5.398935,"is_reserved":false,"is_disabled":false,"rental_uris":{"android":"levelo://app?vid=a8ad00dd-d8ad-4dfc-b12d-42daaaacf033","ios":"levelo://app?vid=a8ad00dd-d8ad-4dfc-b12d-42daaaacf033"},"vehicle_type_id":"4","last_reported":1702040952,"current_range_meters":28800,"station_id":"ce4bhl92rcd13ifvqghg","pricing_plan_id":"free"},{"bike_id":"c39e6ef6-b28d-449e-9625-5e66e27f1c63","system_id":"levelo_inurba_marseille","lat":43.258658,"lon":5.398935,"is_reserved":false,"is_disabled":false,"rental_uris":{"android":"levelo://app?vid=c39e6ef6-b28d-449e-9625-5e66e27f1c63","ios":"levelo://app?vid=c39e6ef6-b28d-449e-9625-5e66e27f1c63"},"vehicle_type_id":"4","last_reported":1702040952,"current_range_meters":20800,"station_id":"ce4bhl92rcd13ifvqghg","pricing_plan_id":"free"},{"bike_id":"6b00bca1-72f9-45fe-afae-552b87d6a6a4","system_id":"levelo_inurba_marseille","lat":43.259013,"lon":5.409301,"is_reserved":false,"is_disabled":false,"rental_uris":{"android":"levelo://app?vid=6b00bca1-72f9-45fe-afae-552b87d6a6a4","ios":"levelo://app?vid=6b00bca1-72f9-45fe-afae-552b87d6a6a4"},"vehicle_type_id":"4","last_reported":1702040952,"current_range_meters":22800,"station_id":"ce4bhm92rcd13ifvqglg","pricing_plan_id":"free"},{"bike_id":"eb2bdca4-c898-4cb6-a6a2-2c4fe876e1d1","system_id":"levelo_inurba_marseille","lat":43.24995,"lon":5.3893,"is_reserved":false,"is_disabled":false,"rental_uris":{"android":"levelo://app?vid=eb2bdca4-c898-4cb6-a6a2-2c4fe876e1d1","ios":"levelo://app?vid=eb2bdca4-c898-4cb6-a6a2-2c4fe876e1d1"},"vehicle_type_id":"4","last_reported":1702040952,"current_range_meters":0,"station_id":"ce4bhgp2rcd13ifvqfd0","pricing_plan_id":"free"},{"bike_id":"58e7c3a3-485a-41ff-8932-554f5c3cecdd","system_id":"levelo_inurba_marseille","lat":43.250966,"lon":5.395186,"is_reserved":false,"is_disabled":false,"rental_uris":{"android":"levelo://app?vid=58e7c3a3-485a-41ff-8932-554f5c3cecdd","ios":"levelo://app?vid=58e7c3a3-485a-41ff-8932-554f5c3cecdd"},"vehicle_type_id":"4","last_reported":1702040952,"current_range_meters":19200,"station_id":"ce4bhm12rcd13ifvqgkg","pricing_plan_id":"free"},{"bike_id":"1ed5c515-5d4a-4a57-a094-dff827187609","system_id":"levelo_inurba_marseille","lat":43.24693,"lon":5.382096,"is_reserved":false,"is_disabled":false,"rental_uris":{"android":"levelo://app?vid=1ed5c515-5d4a-4a57-a094-dff827187609","ios":"levelo://app?vid=1ed5c515-5d4a-4a57-a094-dff827187609"},"vehicle_type_id":"4","last_reported":1702040952,"current_range_meters":23600,"station_id":"ce4bhih2rcd13ifvqfr0","pricing_plan_id":"free"},{"bike_id":"4bcc0cdf-85cb-403e-b655-47cd59c9763d","system_id":"levelo_inurba_marseille","lat":43.24693,"lon":5.382096,"is_reserved":false,"is_disabled":false,"rental_uris":{"android":"levelo://app?vid=4bcc0cdf-85cb-403e-b655-47cd59c9763d","ios":"levelo://app?vid=4bcc0cdf-85cb-403e-b655-47cd59c9763d"},"vehicle_type_id":"4","last_reported":1702040952,"current_range_meters":21600,"station_id":"ce4bhih2rcd13ifvqfr0","pricing_plan_id":"free"},{"bike_id":"ba89a973-8f1e-4e06-8cea-fb72626feb37","system_id":"levelo_inurba_marseille","lat":43.24693,"lon":5.382096,"is_reserved":false,"is_disabled":false,"rental_uris":{"android":"levelo://app?vid=ba89a973-8f1e-4e06-8cea-fb72626feb37","ios":"levelo://app?vid=ba89a973-8f1e-4e06-8cea-fb72626feb37"},"vehicle_type_id":"4","last_reported":1702040952,"current_range_meters":30400,"station_id":"ce4bhih2rcd13ifvqfr0","pricing_plan_id":"free"},{"bike_id":"b648520f-4d7f-46a2-a391-50986eb802b2","system_id":"levelo_inurba_marseille","lat":43.25102,"lon":5.403214,"is_reserved":false,"is_disabled":false,"rental_uris":{"android":"levelo://app?vid=b648520f-4d7f-46a2-a391-50986eb802b2","ios":"levelo://app?vid=b648520f-4d7f-46a2-a391-50986eb802b2"},"vehicle_type_id":"4","last_reported":1702040952,"current_range_meters":19600,"station_id":"ce4bhlh2rcd13ifvqgig","pricing_plan_id":"free"},{"bike_id":"55d4cda2-7880-44c8-8815-1b2f87dd305f","system_id":"levelo_inurba_marseille","lat":43.25107,"lon":5.4032,"is_reserved":false,"is_disabled":false,"rental_uris":{"android":"levelo://app?vid=55d4cda2-7880-44c8-8815-1b2f87dd305f","ios":"levelo://app?vid=55d4cda2-7880-44c8-8815-1b2f87dd305f"},"vehicle_type_id":"4","last_reported":1702040952,"current_range_meters":21200,"station_id":"ce4bhlh2rcd13ifvqgig","pricing_plan_id":"free"},{"bike_id":"2288e39f-96ff-448b-acd4-e5b2ce463492","system_id":"levelo_inurba_marseille","lat":43.246461,"lon":5.389014,"is_reserved":false,"is_disabled":false,"rental_uris":{"android":"levelo://app?vid=2288e39f-96ff-448b-acd4-e5b2ce463492","ios":"levelo://app?vid=2288e39f-96ff-448b-acd4-e5b2ce463492"},"vehicle_type_id":"4","last_reported":1702040952,"current_range_meters":23200,"station_id":"ce4bhg12rcd13ifvqf60","pricing_plan_id":"free"},{"bike_id":"20ab3258-8f00-45cc-8cba-9dfe6e276ac0","system_id":"levelo_inurba_marseille","lat":43.243884,"lon":5.370736,"is_reserved":false,"is_disabled":false,"rental_uris":{"android":"levelo://app?vid=20ab3258-8f00-45cc-8cba-9dfe6e276ac0","ios":"levelo://app?vid=20ab3258-8f00-45cc-8cba-9dfe6e276ac0"},"vehicle_type_id":"4","last_reported":1702040952,"current_range_meters":23200,"station_id":"ce4bhhh2rcd13ifvqfk0","pricing_plan_id":"free"},{"bike_id":"2ee3d9c4-4972-4e95-9aee-470fd68e876e","system_id":"levelo_inurba_marseille","lat":43.245581,"lon":5.395069,"is_reserved":false,"is_disabled":false,"rental_uris":{"android":"levelo://app?vid=2ee3d9c4-4972-4e95-9aee-470fd68e876e","ios":"levelo://app?vid=2ee3d9c4-4972-4e95-9aee-470fd68e876e"},"vehicle_type_id":"4","last_reported":1702040952,"current_range_meters":31200,"station_id":"ce4bhlp2rcd13ifvqgjg","pricing_plan_id":"free"},{"bike_id":"513ea56f-8854-466a-b7ee-c37b3ea37685","system_id":"levelo_inurba_marseille","lat":43.245581,"lon":5.395069,"is_reserved":false,"is_disabled":false,"rental_uris":{"android":"levelo://app?vid=513ea56f-8854-466a-b7ee-c37b3ea37685","ios":"levelo://app?vid=513ea56f-8854-466a-b7ee-c37b3ea37685"},"vehicle_type_id":"4","last_reported":1702040952,"current_range_meters":22000,"station_id":"ce4bhlp2rcd13ifvqgjg","pricing_plan_id":"free"},{"bike_id":"b3705516-da65-4902-b345-4cc53e261fdf","system_id":"levelo_inurba_marseille","lat":43.2408,"lon":5.37759,"is_reserved":false,"is_disabled":false,"rental_uris":{"android":"levelo://app?vid=b3705516-da65-4902-b345-4cc53e261fdf","ios":"levelo://app?vid=b3705516-da65-4902-b345-4cc53e261fdf"},"vehicle_type_id":"4","last_reported":1702040952,"current_range_meters":22000,"station_id":"","pricing_plan_id":"free"},{"bike_id":"02a62d85-2594-4d5e-a2e5-9b21142e1222","system_id":"levelo_inurba_marseille","lat":43.240623,"lon":5.377642,"is_reserved":false,"is_disabled":false,"rental_uris":{"android":"levelo://app?vid=02a62d85-2594-4d5e-a2e5-9b21142e1222","ios":"levelo://app?vid=02a62d85-2594-4d5e-a2e5-9b21142e1222"},"vehicle_type_id":"4","last_reported":1702040952,"current_range_meters":2400,"station_id":"ce4bhnp2rcd13ifvqgvg","pricing_plan_id":"free"},{"bike_id":"29f25aec-09f3-4b71-87d6-b349011a1475","system_id":"levelo_inurba_marseille","lat":43.240623,"lon":5.377642,"is_reserved":false,"is_disabled":false,"rental_uris":{"android":"levelo://app?vid=29f25aec-09f3-4b71-87d6-b349011a1475","ios":"levelo://app?vid=29f25aec-09f3-4b71-87d6-b349011a1475"},"vehicle_type_id":"4","last_reported":1702040952,"current_range_meters":31200,"station_id":"ce4bhnp2rcd13ifvqgvg","pricing_plan_id":"free"},{"bike_id":"c330cc6f-8bb3-42bd-98f3-8515b0874bb7","system_id":"levelo_inurba_marseille","lat":43.240623,"lon":5.377642,"is_reserved":false,"is_disabled":false,"rental_uris":{"android":"levelo://app?vid=c330cc6f-8bb3-42bd-98f3-8515b0874bb7","ios":"levelo://app?vid=c330cc6f-8bb3-42bd-98f3-8515b0874bb7"},"vehicle_type_id":"4","last_reported":1702040952,"current_range_meters":20800,"station_id":"ce4bhnp2rcd13ifvqgvg","pricing_plan_id":"free"},{"bike_id":"ed426fc9-d83d-47e2-b9cd-4c84c7475d8a","system_id":"levelo_inurba_marseille","lat":43.240623,"lon":5.377642,"is_reserved":false,"is_disabled":false,"rental_uris":{"android":"levelo://app?vid=ed426fc9-d83d-47e2-b9cd-4c84c7475d8a","ios":"levelo://app?vid=ed426fc9-d83d-47e2-b9cd-4c84c7475d8a"},"vehicle_type_id":"4","last_reported":1702040952,"current_range_meters":18800,"station_id":"ce4bhnp2rcd13ifvqgvg","pricing_plan_id":"free"},{"bike_id":"91bfdc1c-8279-4701-a912-f78a96f6871b","system_id":"levelo_inurba_marseille","lat":43.239588,"lon":5.366238,"is_reserved":false,"is_disabled":false,"rental_uris":{"android":"levelo://app?vid=91bfdc1c-8279-4701-a912-f78a96f6871b","ios":"levelo://app?vid=91bfdc1c-8279-4701-a912-f78a96f6871b"},"vehicle_type_id":"4","last_reported":1702040952,"current_range_meters":20400,"station_id":"ce4bhi12rcd13ifvqfp0","pricing_plan_id":"free"},{"bike_id":"19de1d90-0ef7-4697-bd3a-3e98bd2bf2e7","system_id":"levelo_inurba_marseille","lat":43.239588,"lon":5.366238,"is_reserved":false,"is_disabled":false,"rental_uris":{"android":"levelo://app?vid=19de1d90-0ef7-4697-bd3a-3e98bd2bf2e7","ios":"levelo://app?vid=19de1d90-0ef7-4697-bd3a-3e98bd2bf2e7"},"vehicle_type_id":"4","last_reported":1702040952,"current_range_meters":31200,"station_id":"ce4bhi12rcd13ifvqfp0","pricing_plan_id":"free"},{"bike_id":"6084096c-589b-4ba6-bd9d-6d547fd35b59","system_id":"levelo_inurba_marseille","lat":43.239588,"lon":5.366238,"is_reserved":false,"is_disabled":false,"rental_uris":{"android":"levelo://app?vid=6084096c-589b-4ba6-bd9d-6d547fd35b59","ios":"levelo://app?vid=6084096c-589b-4ba6-bd9d-6d547fd35b59"},"vehicle_type_id":"4","last_reported":1702040952,"current_range_meters":26800,"station_id":"ce4bhi12rcd13ifvqfp0","pricing_plan_id":"free"},{"bike_id":"1780fe63-8378-455c-b947-4fc413da1bd3","system_id":"levelo_inurba_marseille","lat":43.241782,"lon":5.397261,"is_reserved":false,"is_disabled":false,"rental_uris":{"android":"levelo://app?vid=1780fe63-8378-455c-b947-4fc413da1bd3","ios":"levelo://app?vid=1780fe63-8378-455c-b947-4fc413da1bd3"},"vehicle_type_id":"4","last_reported":1702040952,"current_range_meters":14400,"station_id":"ce4bhn12rcd13ifvqgpg","pricing_plan_id":"free"},{"bike_id":"b9c3f03e-576b-4f2e-b95c-40d70e4b8d6f","system_id":"levelo_inurba_marseille","lat":43.241782,"lon":5.397261,"is_reserved":false,"is_disabled":false,"rental_uris":{"android":"levelo://app?vid=b9c3f03e-576b-4f2e-b95c-40d70e4b8d6f","ios":"levelo://app?vid=b9c3f03e-576b-4f2e-b95c-40d70e4b8d6f"},"vehicle_type_id":"4","last_reported":1702040952,"current_range_meters":2400,"station_id":"ce4bhn12rcd13ifvqgpg","pricing_plan_id":"free"},{"bike_id":"be845917-f52e-4a9f-83ff-909546a09332","system_id":"levelo_inurba_marseille","lat":43.231794,"lon":5.400052,"is_reserved":false,"is_disabled":false,"rental_uris":{"android":"levelo://app?vid=be845917-f52e-4a9f-83ff-909546a09332","ios":"levelo://app?vid=be845917-f52e-4a9f-83ff-909546a09332"},"vehicle_type_id":"4","last_reported":1702040952,"current_range_meters":31200,"station_id":"ce4bhn12rcd13ifvqgqg","pricing_plan_id":"free"},{"bike_id":"6c4620c0-0d4d-493f-9950-4fd3c4457696","system_id":"levelo_inurba_marseille","lat":43.231794,"lon":5.400052,"is_reserved":false,"is_disabled":false,"rental_uris":{"android":"levelo://app?vid=6c4620c0-0d4d-493f-9950-4fd3c4457696","ios":"levelo://app?vid=6c4620c0-0d4d-493f-9950-4fd3c4457696"},"vehicle_type_id":"4","last_reported":1702040952,"current_range_meters":31200,"station_id":"ce4bhn12rcd13ifvqgqg","pricing_plan_id":"free"},{"bike_id":"1edcf9cf-ae8b-4eec-9a3d-e25ae99e20c5","system_id":"levelo_inurba_marseille","lat":43.2318,"lon":5.39987,"is_reserved":false,"is_disabled":false,"rental_uris":{"android":"levelo://app?vid=1edcf9cf-ae8b-4eec-9a3d-e25ae99e20c5","ios":"levelo://app?vid=1edcf9cf-ae8b-4eec-9a3d-e25ae99e20c5"},"vehicle_type_id":"4","last_reported":1702040952,"current_range_meters":22400,"station_id":"ce4bhn12rcd13ifvqgqg","pricing_plan_id":"free"},{"bike_id":"52185dc8-f8c9-4df9-8092-bb2437fd062c","system_id":"levelo_inurba_marseille","lat":43.231562,"lon":5.436933,"is_reserved":false,"is_disabled":false,"rental_uris":{"android":"levelo://app?vid=52185dc8-f8c9-4df9-8092-bb2437fd062c","ios":"levelo://app?vid=52185dc8-f8c9-4df9-8092-bb2437fd062c"},"vehicle_type_id":"4","last_reported":1702040952,"current_range_meters":31200,"station_id":"ce4bhmp2rcd13ifvqgog","pricing_plan_id":"free"},{"bike_id":"1452ec47-af56-406b-b3ce-667e99ad18fc","system_id":"levelo_inurba_marseille","lat":43.231562,"lon":5.436933,"is_reserved":false,"is_disabled":false,"rental_uris":{"android":"levelo://app?vid=1452ec47-af56-406b-b3ce-667e99ad18fc","ios":"levelo://app?vid=1452ec47-af56-406b-b3ce-667e99ad18fc"},"vehicle_type_id":"4","last_reported":1702040952,"current_range_meters":27200,"station_id":"ce4bhmp2rcd13ifvqgog","pricing_plan_id":"free"},{"bike_id":"ff8b630f-28ea-4dbc-bd83-69f80e79cc61","system_id":"levelo_inurba_marseille","lat":43.2315,"lon":5.43712,"is_reserved":false,"is_disabled":false,"rental_uris":{"android":"levelo://app?vid=ff8b630f-28ea-4dbc-bd83-69f80e79cc61","ios":"levelo://app?vid=ff8b630f-28ea-4dbc-bd83-69f80e79cc61"},"vehicle_type_id":"4","last_reported":1702040952,"current_range_meters":18000,"station_id":"ce4bhmp2rcd13ifvqgog","pricing_plan_id":"free"},{"bike_id":"6c3e3c9e-4b18-4000-ba39-0358b7d7d901","system_id":"levelo_inurba_marseille","lat":43.231562,"lon":5.436933,"is_reserved":false,"is_disabled":false,"rental_uris":{"android":"levelo://app?vid=6c3e3c9e-4b18-4000-ba39-0358b7d7d901","ios":"levelo://app?vid=6c3e3c9e-4b18-4000-ba39-0358b7d7d901"},"vehicle_type_id":"4","last_reported":1702040952,"current_range_meters":30000,"station_id":"ce4bhmp2rcd13ifvqgog","pricing_plan_id":"free"},{"bike_id":"b541fc35-af29-477f-a39a-2a5090fd4d28","system_id":"levelo_inurba_marseille","lat":43.23148,"lon":5.43721,"is_reserved":false,"is_disabled":false,"rental_uris":{"android":"levelo://app?vid=b541fc35-af29-477f-a39a-2a5090fd4d28","ios":"levelo://app?vid=b541fc35-af29-477f-a39a-2a5090fd4d28"},"vehicle_type_id":"4","last_reported":1702040952,"current_range_meters":31200,"station_id":"ce4bhmp2rcd13ifvqgog","pricing_plan_id":"free"},{"bike_id":"f56c954e-02f9-49e9-b80d-c1e3823f54f8","system_id":"levelo_inurba_marseille","lat":43.23147,"lon":5.43723,"is_reserved":false,"is_disabled":false,"rental_uris":{"android":"levelo://app?vid=f56c954e-02f9-49e9-b80d-c1e3823f54f8","ios":"levelo://app?vid=f56c954e-02f9-49e9-b80d-c1e3823f54f8"},"vehicle_type_id":"4","last_reported":1702040952,"current_range_meters":21200,"station_id":"ce4bhmp2rcd13ifvqgog","pricing_plan_id":"free"}]}}